{"data": {"bikes": [{"fusion_lon": 0.0, "fusion_lat": 0.0, "rental_uris": {"android": "https://dc.lft.to/lastmile_qr_scan", "ios": "https://dc.lft.to/lastmile_qr_scan"}, "is_disabled": 0, "type": "electric_bike", "is_reserved": 0, "name": "2a206b39d0aa80bc0c68abfa8a3b11fb", "lon": -76.91800983333333, "bike_id": "2a206b39d0aa80bc0c68abfa8a3b11fb", "lat": 38.99999966666667}, {"fusion_lon": 0.0, "fusion_lat": 0.0, "rental_uris": {"android": "https://dc.lft.to/lastmile_qr_scan", "ios": "https://dc.lft.to/lastmile_qr_scan"}, "is_disabled": 0, "type": "electric_scooter", "is_reserved": 0, "name": "ae00c9976284c520f09c1adaab935e75", "lon": -77.0217755, "bike_id": "ae00c9976284c520f09c1adaab935e75", "lat": 38.90082866666667}, {"fusion_lon": 0.0, "fusion_lat": 0.0, "rental_uris": {"android": "https://dc.lft.to/lastmile_qr_scan", "ios": "https://dc.lft.to/lastmile_qr_scan"}, "is_disabled": 0, "type": "electric_scooter", "is_reserved": 0, "name": "9770eba5bfda269fc0032156d4c13258", "lon": -77.07543416666667, "bike_id": "9770eba5bfda269fc0032156d4c13258", "lat": 38.915370333333335}, {"fusion_lon": 0.0, "fusion_lat": 0.0, "rental_uris": {"android": "https://dc.lft.to/lastmile_qr_scan", "ios": "https://dc.lft.to/lastmile_qr_scan"}, "is_disabled": 0, "type": "electric_scooter", "is_reserved": 0, "name": "32e890f1f1000d941f6f5051ecc3461e", "lon": -76.991216, "bike_id": "32e890f1f1000d941f6f5051ecc3461e", "lat": 38.90026233333333}, {"fusion_lon": 0.0, "fusion_lat": 0.0, "rental_uris": {"android": "https://dc.lft.to/lastmile_qr_scan", "ios": "https://dc.lft.to/lastmile_qr_scan"}, "is_disabled": 0, "type": "electric_scooter", "is_reserved": 0, "name": "98c12cbad0ca6ead936c0a7a7699884b", "lon": -77.0660175, "bike_id": "98c12cbad0ca6ead936c0a7a7699884b", "lat": 38.91218666666666}, {"fusion_lon": 0.0, "fusion_lat": 0.0, "rental_uris": {"android": "https://dc.lft.to/lastmile_qr_scan", "ios": "https://dc.lft.to/lastmile_qr_scan"}, "is_disabled": 0, "type": "electric_scooter", "is_reserved": 0, "name": "5c4a8155bb9eed3ddcfc6a6e8bd7bbee", "lon": -77.02893233333333, "bike_id": "5c4a8155bb9eed3ddcfc6a6e8bd7bbee", "lat": 38.916838166666665}, {"fusion_lon": 0.0, "fusion_lat": 0.0, "rental_uris": {"android": "https://dc.lft.to/lastmile_qr_scan", "ios": "https://dc.lft.to/lastmile_qr_scan"}, "is_disabled": 0, "type": "electric_scooter", "is_reserved": 0, "name": "003109a4c698a0077ef2cb74c7a0db30", "lon": -77.06706016666666, "bike_id": "003109a4c698a0077ef2cb74c7a0db30", "lat": 38.9141385}, {"fusion_lon": 0.0, "fusion_lat": 0.0, "rental_uris": {"android": "https://dc.lft.to/lastmile_qr_scan", "ios": "https://dc.lft.to/lastmile_qr_scan"}, "is_disabled": 0, "type": "electric_scooter", "is_reserved": 0, "name": "71d1033427ec5e145c2e198f1f1f6dd1", "lon": -76.99636983333333, "bike_id": "71d1033427ec5e145c2e198f1f1f6dd1", "lat": 38.900276166666664}, {"fusion_lon": 0.0, "fusion_lat": 0.0, "rental_uris": {"android": "https://dc.lft.to/lastmile_qr_scan", "ios": "https://dc.lft.to/lastmile_qr_scan"}, "is_disabled": 0, "type": "electric_scooter", "is_reserved": 0, "name": "35fbaf34e598376087e8b30afb3cc827", "lon": -77.06397766666667, "bike_id": "35fbaf34e598376087e8b30afb3cc827", "lat": 38.9135065}, {"fusion_lon": 0.0, "fusion_lat": 0.0, "rental_uris": {"android": "https://dc.lft.to/lastmile_qr_scan", "ios": "https://dc.lft.to/lastmile_qr_scan"}, "is_disabled": 0, "type": "electric_scooter", "is_reserved": 0, "name": "9a13fed0f5b471d289b880f2ad29f986", "lon": -77.01809716666666, "bike_id": "9a13fed0f5b471d289b880f2ad29f986", "lat": 38.92031866666667}, {"fusion_lon": 0.0, "fusion_lat": 0.0, "rental_uris": {"android": "https://dc.lft.to/lastmile_qr_scan", "ios": "https://dc.lft.to/lastmile_qr_scan"}, "is_disabled": 0, "type": "electric_scooter", "is_reserved": 0, "name": "46d047350a2d9afe125718721fa9334d", "lon": -77.0338145, "bike_id": "46d047350a2d9afe125718721fa9334d", "lat": 38.924636166666666}, {"fusion_lon": 0.0, "fusion_lat": 0.0, "rental_uris": {"android": "https://dc.lft.to/lastmile_qr_scan", "ios": "https://dc.lft.to/lastmile_qr_scan"}, "is_disabled": 0, "type": "electric_scooter", "is_reserved": 0, "name": "6031ed432c4881ffa083dad136751c65", "lon": -77.01988733333333, "bike_id": "6031ed432c4881ffa083dad136751c65", "lat": 38.8855345}, {"fusion_lon": 0.0, "fusion_lat": 0.0, "rental_uris": {"android": "https://dc.lft.to/lastmile_qr_scan", "ios": "https://dc.lft.to/lastmile_qr_scan"}, "is_disabled": 0, "type": "electric_scooter", "is_reserved": 0, "name": "42d2cb9a524c79148434917db178acd0", "lon": -77.00293283333333, "bike_id": "42d2cb9a524c79148434917db178acd0", "lat": 38.892358}, {"fusion_lon": 0.0, "fusion_lat": 0.0, "rental_uris": {"android": "https://dc.lft.to/lastmile_qr_scan", "ios": "https://dc.lft.to/lastmile_qr_scan"}, "is_disabled": 0, "type": "electric_scooter", "is_reserved": 0, "name": "a428f3af1bfdfdaf70b0bf4dda26b8b1", "lon": -77.03440666666667, "bike_id": "a428f3af1bfdfdaf70b0bf4dda26b8b1", "lat": 38.9100775}, {"fusion_lon": 0.0, "fusion_lat": 0.0, "rental_uris": {"android": "https://dc.lft.to/lastmile_qr_scan", "ios": "https://dc.lft.to/lastmile_qr_scan"}, "is_disabled": 0, "type": "electric_scooter", "is_reserved": 0, "name": "1688ee88b16f81be069c2cee627f0077", "lon": -76.93390866666667, "bike_id": "1688ee88b16f81be069c2cee627f0077", "lat": 38.899094}, {"fusion_lon": 0.0, "fusion_lat": 0.0, "rental_uris": {"android": "https://dc.lft.to/lastmile_qr_scan", "ios": "https://dc.lft.to/lastmile_qr_scan"}, "is_disabled": 0, "type": "electric_scooter", "is_reserved": 0, "name": "8f533334560fcb4cd9697d13a78b6fd1", "lon": -77.04045466666666, "bike_id": "8f533334560fcb4cd9697d13a78b6fd1", "lat": 38.898891}, {"fusion_lon": 0.0, "fusion_lat": 0.0, "rental_uris": {"android": "https://dc.lft.to/lastmile_qr_scan", "ios": "https://dc.lft.to/lastmile_qr_scan"}, "is_disabled": 0, "type": "electric_scooter", "is_reserved": 0, "name": "f4e12db470848a760a77735b9e90276b", "lon": -77.022963, "bike_id": "f4e12db470848a760a77735b9e90276b", "lat": 38.90785066666667}, {"fusion_lon": 0.0, "fusion_lat": 0.0, "rental_uris": {"android": "https://dc.lft.to/lastmile_qr_scan", "ios": "https://dc.lft.to/lastmile_qr_scan"}, "is_disabled": 0, "type": "electric_scooter", "is_reserved": 0, "name": "6218bdda4adcd1ba29d60bcac426f2e2", "lon": -77.06388, "bike_id": "6218bdda4adcd1ba29d60bcac426f2e2", "lat": 38.908599833333334}, {"fusion_lon": 0.0, "fusion_lat": 0.0, "rental_uris": {"android": "https://dc.lft.to/lastmile_qr_scan", "ios": "https://dc.lft.to/lastmile_qr_scan"}, "is_disabled": 0, "type": "electric_scooter", "is_reserved": 0, "name": "3586720f91118b69f2014ec7a3ceb142", "lon": -77.02260566666666, "bike_id": "3586720f91118b69f2014ec7a3ceb142", "lat": 38.89712566666667}, {"fusion_lon": 0.0, "fusion_lat": 0.0, "rental_uris": {"android": "https://dc.lft.to/lastmile_qr_scan", "ios": "https://dc.lft.to/lastmile_qr_scan"}, "is_disabled": 0, "type": "electric_scooter", "is_reserved": 0, "name": "8b0bda5b36d011134d273fd30534a8c1", "lon": -77.04876266666666, "bike_id": "8b0bda5b36d011134d273fd30534a8c1", "lat": 38.89853033333333}, {"fusion_lon": 0.0, "fusion_lat": 0.0, "rental_uris": {"android": "https://dc.lft.to/lastmile_qr_scan", "ios": "https://dc.lft.to/lastmile_qr_scan"}, "is_disabled": 0, "type": "electric_scooter", "is_reserved": 0, "name": "6c3151147286d599f953d3047701aaca", "lon": -77.02158366666667, "bike_id": "6c3151147286d599f953d3047701aaca", "lat": 38.92610483333333}, {"fusion_lon": 0.0, "fusion_lat": 0.0, "rental_uris": {"android": "https://dc.lft.to/lastmile_qr_scan", "ios": "https://dc.lft.to/lastmile_qr_scan"}, "is_disabled": 0, "type": "electric_bike", "is_reserved": 0, "name": "2d03b2e227cd30a981e842b5c4b8af05", "lon": -76.98211233333333, "bike_id": "2d03b2e227cd30a981e842b5c4b8af05", "lat": 38.985064666666666}, {"fusion_lon": 0.0, "fusion_lat": 0.0, "rental_uris": {"android": "https://dc.lft.to/lastmile_qr_scan", "ios": "https://dc.lft.to/lastmile_qr_scan"}, "is_disabled": 0, "type": "electric_scooter", "is_reserved": 0, "name": "e4e6235fe21f94f3dceb71afd66a40e3", "lon": -77.03190616666667, "bike_id": "e4e6235fe21f94f3dceb71afd66a40e3", "lat": 38.89887233333334}, {"fusion_lon": 0.0, "fusion_lat": 0.0, "rental_uris": {"android": "https://dc.lft.to/lastmile_qr_scan", "ios": "https://dc.lft.to/lastmile_qr_scan"}, "is_disabled": 0, "type": "electric_scooter", "is_reserved": 0, "name": "46f7bbbcf875b323054f3da63532684d", "lon": -77.03281116666666, "bike_id": "46f7bbbcf875b323054f3da63532684d", "lat": 38.937352}, {"fusion_lon": 0.0, "fusion_lat": 0.0, "rental_uris": {"android": "https://dc.lft.to/lastmile_qr_scan", "ios": "https://dc.lft.to/lastmile_qr_scan"}, "is_disabled": 0, "type": "electric_bike", "is_reserved": 0, "name": "01d2b1d1dffe1649b57660994e32e7d0", "lon": -76.98419483333333, "bike_id": "01d2b1d1dffe1649b57660994e32e7d0", "lat": 38.90997683333333}, {"fusion_lon": 0.0, "fusion_lat": 0.0, "rental_uris": {"android": "https://dc.lft.to/lastmile_qr_scan", "ios": "https://dc.lft.to/lastmile_qr_scan"}, "is_disabled": 0, "type": "electric_scooter", "is_reserved": 0, "name": "b74327805f7791e704724d5f50744778", "lon": -77.0179775, "bike_id": "b74327805f7791e704724d5f50744778", "lat": 38.921221833333334}, {"fusion_lon": 0.0, "fusion_lat": 0.0, "rental_uris": {"android": "https://dc.lft.to/lastmile_qr_scan", "ios": "https://dc.lft.to/lastmile_qr_scan"}, "is_disabled": 0, "type": "electric_scooter", "is_reserved": 0, "name": "0348d12ed5c12ed40c208cc9abc67b21", "lon": -77.0016955, "bike_id": "0348d12ed5c12ed40c208cc9abc67b21", "lat": 38.9407395}, {"fusion_lon": 0.0, "fusion_lat": 0.0, "rental_uris": {"android": "https://dc.lft.to/lastmile_qr_scan", "ios": "https://dc.lft.to/lastmile_qr_scan"}, "is_disabled": 0, "type": "electric_scooter", "is_reserved": 0, "name": "7f708fdc019856c35af12ca05231e4e5", "lon": -76.97801616666666, "bike_id": "7f708fdc019856c35af12ca05231e4e5", "lat": 38.92037}, {"fusion_lon": 0.0, "fusion_lat": 0.0, "rental_uris": {"android": "https://dc.lft.to/lastmile_qr_scan", "ios": "https://dc.lft.to/lastmile_qr_scan"}, "is_disabled": 0, "type": "electric_scooter", "is_reserved": 0, "name": "952eb242e004221b16a66a4769036d89", "lon": -77.03181833333333, "bike_id": "952eb242e004221b16a66a4769036d89", "lat": 38.90377483333333}, {"fusion_lon": 0.0, "fusion_lat": 0.0, "rental_uris": {"android": "https://dc.lft.to/lastmile_qr_scan", "ios": "https://dc.lft.to/lastmile_qr_scan"}, "is_disabled": 0, "type": "electric_scooter", "is_reserved": 0, "name": "246fd57fef8849ee75577722fd4deee4", "lon": -77.02139916666667, "bike_id": "246fd57fef8849ee75577722fd4deee4", "lat": 38.92367816666667}, {"fusion_lon": 0.0, "fusion_lat": 0.0, "rental_uris": {"android": "https://dc.lft.to/lastmile_qr_scan", "ios": "https://dc.lft.to/lastmile_qr_scan"}, "is_disabled": 0, "type": "electric_scooter", "is_reserved": 0, "name": "5512f73815809310e83dff8f80966b3b", "lon": -77.01067166666667, "bike_id": "5512f73815809310e83dff8f80966b3b", "lat": 38.8731295}, {"fusion_lon": 0.0, "fusion_lat": 0.0, "rental_uris": {"android": "https://dc.lft.to/lastmile_qr_scan", "ios": "https://dc.lft.to/lastmile_qr_scan"}, "is_disabled": 0, "type": "electric_bike", "is_reserved": 0, "name": "48e7f1eaa4d64b4f87da801d9e3d7182", "lon": -77.04298433333334, "bike_id": "48e7f1eaa4d64b4f87da801d9e3d7182", "lat": 39.0341885}, {"fusion_lon": 0.0, "fusion_lat": 0.0, "rental_uris": {"android": "https://dc.lft.to/lastmile_qr_scan", "ios": "https://dc.lft.to/lastmile_qr_scan"}, "is_disabled": 0, "type": "electric_scooter", "is_reserved": 0, "name": "271176a79d9ec9d08a6ed8912182a1d6", "lon": -76.93770983333333, "bike_id": "271176a79d9ec9d08a6ed8912182a1d6", "lat": 38.89945183333333}, {"fusion_lon": 0.0, "fusion_lat": 0.0, "rental_uris": {"android": "https://dc.lft.to/lastmile_qr_scan", "ios": "https://dc.lft.to/lastmile_qr_scan"}, "is_disabled": 0, "type": "electric_scooter", "is_reserved": 0, "name": "4ab72dd1cd63c829e3927ee63a67e815", "lon": -77.03949683333333, "bike_id": "4ab72dd1cd63c829e3927ee63a67e815", "lat": 38.91926866666667}, {"fusion_lon": 0.0, "fusion_lat": 0.0, "rental_uris": {"android": "https://dc.lft.to/lastmile_qr_scan", "ios": "https://dc.lft.to/lastmile_qr_scan"}, "is_disabled": 0, "type": "electric_scooter", "is_reserved": 0, "name": "de0fe92f595beca6f440400f25e77a11", "lon": -77.02027533333333, "bike_id": "de0fe92f595beca6f440400f25e77a11", "lat": 38.92417733333333}, {"fusion_lon": 0.0, "fusion_lat": 0.0, "rental_uris": {"android": "https://dc.lft.to/lastmile_qr_scan", "ios": "https://dc.lft.to/lastmile_qr_scan"}, "is_disabled": 0, "type": "electric_scooter", "is_reserved": 0, "name": "ef0bc5824f1c31acf39204c1942d99e9", "lon": -77.028116, "bike_id": "ef0bc5824f1c31acf39204c1942d99e9", "lat": 38.907069}, {"fusion_lon": 0.0, "fusion_lat": 0.0, "rental_uris": {"android": "https://dc.lft.to/lastmile_qr_scan", "ios": "https://dc.lft.to/lastmile_qr_scan"}, "is_disabled": 0, "type": "electric_scooter", "is_reserved": 0, "name": "13e7884a77fa3015bab11b6a837c3ccc", "lon": -77.04198783333334, "bike_id": "13e7884a77fa3015bab11b6a837c3ccc", "lat": 38.92050316666667}, {"fusion_lon": 0.0, "fusion_lat": 0.0, "rental_uris": {"android": "https://dc.lft.to/lastmile_qr_scan", "ios": "https://dc.lft.to/lastmile_qr_scan"}, "is_disabled": 0, "type": "electric_scooter", "is_reserved": 0, "name": "8ffdc60eba1b6fcde31f1ac2ff29a8cf", "lon": -77.02665566666667, "bike_id": "8ffdc60eba1b6fcde31f1ac2ff29a8cf", "lat": 38.932088666666665}, {"fusion_lon": 0.0, "fusion_lat": 0.0, "rental_uris": {"android": "https://dc.lft.to/lastmile_qr_scan", "ios": "https://dc.lft.to/lastmile_qr_scan"}, "is_disabled": 0, "type": "electric_scooter", "is_reserved": 0, "name": "682e13d225dab3591ecb3288ed0484dc", "lon": -77.00193866666666, "bike_id": "682e13d225dab3591ecb3288ed0484dc", "lat": 38.9024195}, {"fusion_lon": 0.0, "fusion_lat": 0.0, "rental_uris": {"android": "https://dc.lft.to/lastmile_qr_scan", "ios": "https://dc.lft.to/lastmile_qr_scan"}, "is_disabled": 0, "type": "electric_scooter", "is_reserved": 0, "name": "64f912283fcd1192d5186206bbc7b766", "lon": -77.0251505, "bike_id": "64f912283fcd1192d5186206bbc7b766", "lat": 38.919094}, {"fusion_lon": 0.0, "fusion_lat": 0.0, "rental_uris": {"android": "https://dc.lft.to/lastmile_qr_scan", "ios": "https://dc.lft.to/lastmile_qr_scan"}, "is_disabled": 0, "type": "electric_bike", "is_reserved": 0, "name": "1e17e0279a7dea81061b963e704af4e9", "lon": -77.095634, "bike_id": "1e17e0279a7dea81061b963e704af4e9", "lat": 38.99191416666667}, {"fusion_lon": 0.0, "fusion_lat": 0.0, "rental_uris": {"android": "https://dc.lft.to/lastmile_qr_scan", "ios": "https://dc.lft.to/lastmile_qr_scan"}, "is_disabled": 0, "type": "electric_scooter", "is_reserved": 0, "name": "6c8c3340a2604ae00937800b6b4eb3d5", "lon": -77.03222316666667, "bike_id": "6c8c3340a2604ae00937800b6b4eb3d5", "lat": 38.892218}, {"fusion_lon": 0.0, "fusion_lat": 0.0, "rental_uris": {"android": "https://dc.lft.to/lastmile_qr_scan", "ios": "https://dc.lft.to/lastmile_qr_scan"}, "is_disabled": 0, "type": "electric_bike", "is_reserved": 0, "name": "d385d80682082d560678b91596037d1e", "lon": -77.089951, "bike_id": "d385d80682082d560678b91596037d1e", "lat": 38.909026833333336}, {"fusion_lon": 0.0, "fusion_lat": 0.0, "rental_uris": {"android": "https://dc.lft.to/lastmile_qr_scan", "ios": "https://dc.lft.to/lastmile_qr_scan"}, "is_disabled": 0, "type": "electric_scooter", "is_reserved": 0, "name": "34bb64af9b5fa438a063912dc9ac9fc7", "lon": -77.02824433333333, "bike_id": "34bb64af9b5fa438a063912dc9ac9fc7", "lat": 38.90729866666667}, {"fusion_lon": 0.0, "fusion_lat": 0.0, "rental_uris": {"android": "https://dc.lft.to/lastmile_qr_scan", "ios": "https://dc.lft.to/lastmile_qr_scan"}, "is_disabled": 0, "type": "electric_scooter", "is_reserved": 0, "name": "fe7d34db2c84bb3a211ef19026f5da0f", "lon": -77.03280633333334, "bike_id": "fe7d34db2c84bb3a211ef19026f5da0f", "lat": 38.947484833333334}, {"fusion_lon": 0.0, "fusion_lat": 0.0, "rental_uris": {"android": "https://dc.lft.to/lastmile_qr_scan", "ios": "https://dc.lft.to/lastmile_qr_scan"}, "is_disabled": 0, "type": "electric_scooter", "is_reserved": 0, "name": "3272f2c4b4ac54cf5423d0e40562a77c", "lon": -77.07130466666666, "bike_id": "3272f2c4b4ac54cf5423d0e40562a77c", "lat": 38.92019633333334}, {"fusion_lon": 0.0, "fusion_lat": 0.0, "rental_uris": {"android": "https://dc.lft.to/lastmile_qr_scan", "ios": "https://dc.lft.to/lastmile_qr_scan"}, "is_disabled": 0, "type": "electric_scooter", "is_reserved": 0, "name": "6084f393208c6dbd666fb60001ba2655", "lon": -77.02432333333333, "bike_id": "6084f393208c6dbd666fb60001ba2655", "lat": 38.90964816666666}, {"fusion_lon": 0.0, "fusion_lat": 0.0, "rental_uris": {"android": "https://dc.lft.to/lastmile_qr_scan", "ios": "https://dc.lft.to/lastmile_qr_scan"}, "is_disabled": 0, "type": "electric_scooter", "is_reserved": 0, "name": "5cc1fa0ca02d9a817ea7f9f38bb06698", "lon": -77.0320275, "bike_id": "5cc1fa0ca02d9a817ea7f9f38bb06698", "lat": 38.9159105}, {"fusion_lon": 0.0, "fusion_lat": 0.0, "rental_uris": {"android": "https://dc.lft.to/lastmile_qr_scan", "ios": "https://dc.lft.to/lastmile_qr_scan"}, "is_disabled": 0, "type": "electric_scooter", "is_reserved": 0, "name": "b78e85381f3ce7c1c080d44257246b2b", "lon": -77.02706883333333, "bike_id": "b78e85381f3ce7c1c080d44257246b2b", "lat": 38.91696483333333}, {"fusion_lon": 0.0, "fusion_lat": 0.0, "rental_uris": {"android": "https://dc.lft.to/lastmile_qr_scan", "ios": "https://dc.lft.to/lastmile_qr_scan"}, "is_disabled": 0, "type": "electric_scooter", "is_reserved": 0, "name": "5106bb147ecaac062d5bce440ebdaf8c", "lon": -77.04597666666666, "bike_id": "5106bb147ecaac062d5bce440ebdaf8c", "lat": 38.89610883333334}, {"fusion_lon": 0.0, "fusion_lat": 0.0, "rental_uris": {"android": "https://dc.lft.to/lastmile_qr_scan", "ios": "https://dc.lft.to/lastmile_qr_scan"}, "is_disabled": 0, "type": "electric_scooter", "is_reserved": 0, "name": "d681750dbc17e0f3afc5df76ef109451", "lon": -77.03260083333333, "bike_id": "d681750dbc17e0f3afc5df76ef109451", "lat": 38.92935533333333}, {"fusion_lon": 0.0, "fusion_lat": 0.0, "rental_uris": {"android": "https://dc.lft.to/lastmile_qr_scan", "ios": "https://dc.lft.to/lastmile_qr_scan"}, "is_disabled": 0, "type": "electric_scooter", "is_reserved": 0, "name": "01e5e49a421bf9bee72ad9251852890e", "lon": -76.973354, "bike_id": "01e5e49a421bf9bee72ad9251852890e", "lat": 38.90409533333333}, {"fusion_lon": 0.0, "fusion_lat": 0.0, "rental_uris": {"android": "https://dc.lft.to/lastmile_qr_scan", "ios": "https://dc.lft.to/lastmile_qr_scan"}, "is_disabled": 0, "type": "electric_scooter", "is_reserved": 0, "name": "5d7e958d4a17fa5720c0c833df045733", "lon": -77.019249, "bike_id": "5d7e958d4a17fa5720c0c833df045733", "lat": 38.932695333333335}, {"fusion_lon": 0.0, "fusion_lat": 0.0, "rental_uris": {"android": "https://dc.lft.to/lastmile_qr_scan", "ios": "https://dc.lft.to/lastmile_qr_scan"}, "is_disabled": 0, "type": "electric_scooter", "is_reserved": 0, "name": "d2e7205e08f8430927f16bee1d643751", "lon": -77.07466933333333, "bike_id": "d2e7205e08f8430927f16bee1d643751", "lat": 38.92244516666667}, {"fusion_lon": 0.0, "fusion_lat": 0.0, "rental_uris": {"android": "https://dc.lft.to/lastmile_qr_scan", "ios": "https://dc.lft.to/lastmile_qr_scan"}, "is_disabled": 0, "type": "electric_scooter", "is_reserved": 0, "name": "007b7b3b7373ec3f7a12c8c81ebef6e2", "lon": -77.02973666666666, "bike_id": "007b7b3b7373ec3f7a12c8c81ebef6e2", "lat": 38.943568666666664}, {"fusion_lon": 0.0, "fusion_lat": 0.0, "rental_uris": {"android": "https://dc.lft.to/lastmile_qr_scan", "ios": "https://dc.lft.to/lastmile_qr_scan"}, "is_disabled": 0, "type": "electric_scooter", "is_reserved": 0, "name": "66d4cd13872148a72cde7ca9b0ab1539", "lon": -77.0136, "bike_id": "66d4cd13872148a72cde7ca9b0ab1539", "lat": 38.91330383333333}, {"fusion_lon": 0.0, "fusion_lat": 0.0, "rental_uris": {"android": "https://dc.lft.to/lastmile_qr_scan", "ios": "https://dc.lft.to/lastmile_qr_scan"}, "is_disabled": 0, "type": "electric_scooter", "is_reserved": 0, "name": "dfcaf81384bb67c460fe364c86bccd3d", "lon": -77.03499066666667, "bike_id": "dfcaf81384bb67c460fe364c86bccd3d", "lat": 38.90127866666667}, {"fusion_lon": 0.0, "fusion_lat": 0.0, "rental_uris": {"android": "https://dc.lft.to/lastmile_qr_scan", "ios": "https://dc.lft.to/lastmile_qr_scan"}, "is_disabled": 0, "type": "electric_scooter", "is_reserved": 0, "name": "70a3a06bb74d2e3b606ce791cdf0b583", "lon": -76.98487283333333, "bike_id": "70a3a06bb74d2e3b606ce791cdf0b583", "lat": 38.920300833333336}, {"fusion_lon": 0.0, "fusion_lat": 0.0, "rental_uris": {"android": "https://dc.lft.to/lastmile_qr_scan", "ios": "https://dc.lft.to/lastmile_qr_scan"}, "is_disabled": 0, "type": "electric_scooter", "is_reserved": 0, "name": "4845fdfdc17078474436b1ddfbed54ab", "lon": -77.01675916666667, "bike_id": "4845fdfdc17078474436b1ddfbed54ab", "lat": 38.902596833333334}, {"fusion_lon": 0.0, "fusion_lat": 0.0, "rental_uris": {"android": "https://dc.lft.to/lastmile_qr_scan", "ios": "https://dc.lft.to/lastmile_qr_scan"}, "is_disabled": 0, "type": "electric_scooter", "is_reserved": 0, "name": "91a5b1bfa66dfa71a4ce3ca0ce097afc", "lon": -77.0639765, "bike_id": "91a5b1bfa66dfa71a4ce3ca0ce097afc", "lat": 38.906819}, {"fusion_lon": 0.0, "fusion_lat": 0.0, "rental_uris": {"android": "https://dc.lft.to/lastmile_qr_scan", "ios": "https://dc.lft.to/lastmile_qr_scan"}, "is_disabled": 0, "type": "electric_scooter", "is_reserved": 0, "name": "0b615dc893bbe0899f304c86f6eca0df", "lon": -77.039969, "bike_id": "0b615dc893bbe0899f304c86f6eca0df", "lat": 38.916931}, {"fusion_lon": 0.0, "fusion_lat": 0.0, "rental_uris": {"android": "https://dc.lft.to/lastmile_qr_scan", "ios": "https://dc.lft.to/lastmile_qr_scan"}, "is_disabled": 0, "type": "electric_scooter", "is_reserved": 0, "name": "62367711d6a1afb9c3df9c918cfac641", "lon": -77.00288733333333, "bike_id": "62367711d6a1afb9c3df9c918cfac641", "lat": 38.89233766666667}, {"fusion_lon": 0.0, "fusion_lat": 0.0, "rental_uris": {"android": "https://dc.lft.to/lastmile_qr_scan", "ios": "https://dc.lft.to/lastmile_qr_scan"}, "is_disabled": 0, "type": "electric_scooter", "is_reserved": 0, "name": "4af5aa789dc187a40a6536d9ea714bda", "lon": -77.047213, "bike_id": "4af5aa789dc187a40a6536d9ea714bda", "lat": 38.89960416666667}, {"fusion_lon": 0.0, "fusion_lat": 0.0, "rental_uris": {"android": "https://dc.lft.to/lastmile_qr_scan", "ios": "https://dc.lft.to/lastmile_qr_scan"}, "is_disabled": 0, "type": "electric_scooter", "is_reserved": 0, "name": "d93888264a8c1a9aa8d96263a03d1f8e", "lon": -77.02486266666666, "bike_id": "d93888264a8c1a9aa8d96263a03d1f8e", "lat": 38.918142333333336}, {"fusion_lon": 0.0, "fusion_lat": 0.0, "rental_uris": {"android": "https://dc.lft.to/lastmile_qr_scan", "ios": "https://dc.lft.to/lastmile_qr_scan"}, "is_disabled": 0, "type": "electric_scooter", "is_reserved": 0, "name": "1db36feefdffbef88c369bc1b780df9c", "lon": -77.00208916666666, "bike_id": "1db36feefdffbef88c369bc1b780df9c", "lat": 38.898078166666664}, {"fusion_lon": 0.0, "fusion_lat": 0.0, "rental_uris": {"android": "https://dc.lft.to/lastmile_qr_scan", "ios": "https://dc.lft.to/lastmile_qr_scan"}, "is_disabled": 0, "type": "electric_scooter", "is_reserved": 0, "name": "4a7971d85d8c97be4968bd267f5f6bc5", "lon": -77.027059, "bike_id": "4a7971d85d8c97be4968bd267f5f6bc5", "lat": 38.917813833333334}, {"fusion_lon": 0.0, "fusion_lat": 0.0, "rental_uris": {"android": "https://dc.lft.to/lastmile_qr_scan", "ios": "https://dc.lft.to/lastmile_qr_scan"}, "is_disabled": 0, "type": "electric_scooter", "is_reserved": 0, "name": "efa856d7c49fc1f7ee374141274dc3dd", "lon": -77.0254515, "bike_id": "efa856d7c49fc1f7ee374141274dc3dd", "lat": 38.922534666666664}, {"fusion_lon": 0.0, "fusion_lat": 0.0, "rental_uris": {"android": "https://dc.lft.to/lastmile_qr_scan", "ios": "https://dc.lft.to/lastmile_qr_scan"}, "is_disabled": 0, "type": "electric_scooter", "is_reserved": 0, "name": "f9a70d009b3c6409dcca88f4749d66d7", "lon": -76.98599716666666, "bike_id": "f9a70d009b3c6409dcca88f4749d66d7", "lat": 38.90654716666667}, {"fusion_lon": 0.0, "fusion_lat": 0.0, "rental_uris": {"android": "https://dc.lft.to/lastmile_qr_scan", "ios": "https://dc.lft.to/lastmile_qr_scan"}, "is_disabled": 0, "type": "electric_scooter", "is_reserved": 0, "name": "48fafc8a936d2970c4063aa767ba6a8d", "lon": -77.02118683333333, "bike_id": "48fafc8a936d2970c4063aa767ba6a8d", "lat": 38.927815}, {"fusion_lon": 0.0, "fusion_lat": 0.0, "rental_uris": {"android": "https://dc.lft.to/lastmile_qr_scan", "ios": "https://dc.lft.to/lastmile_qr_scan"}, "is_disabled": 0, "type": "electric_bike", "is_reserved": 0, "name": "91a6904641fc5ad0ed7d6c4935e16bab", "lon": -76.99791416666666, "bike_id": "91a6904641fc5ad0ed7d6c4935e16bab", "lat": 38.99803516666667}, {"fusion_lon": 0.0, "fusion_lat": 0.0, "rental_uris": {"android": "https://dc.lft.to/lastmile_qr_scan", "ios": "https://dc.lft.to/lastmile_qr_scan"}, "is_disabled": 0, "type": "electric_scooter", "is_reserved": 0, "name": "b10955cbc3ef3aa2a924ca85a4e7e2fe", "lon": -76.99064716666666, "bike_id": "b10955cbc3ef3aa2a924ca85a4e7e2fe", "lat": 38.856267833333334}, {"fusion_lon": 0.0, "fusion_lat": 0.0, "rental_uris": {"android": "https://dc.lft.to/lastmile_qr_scan", "ios": "https://dc.lft.to/lastmile_qr_scan"}, "is_disabled": 0, "type": "electric_scooter", "is_reserved": 0, "name": "fdc83501fbd8e9768407ba063d02e54b", "lon": -77.02228733333334, "bike_id": "fdc83501fbd8e9768407ba063d02e54b", "lat": 38.935683166666664}, {"fusion_lon": 0.0, "fusion_lat": 0.0, "rental_uris": {"android": "https://dc.lft.to/lastmile_qr_scan", "ios": "https://dc.lft.to/lastmile_qr_scan"}, "is_disabled": 0, "type": "electric_scooter", "is_reserved": 0, "name": "231c9761a589d43dfcca7d9d8cd9c550", "lon": -77.0038225, "bike_id": "231c9761a589d43dfcca7d9d8cd9c550", "lat": 38.876385166666665}, {"fusion_lon": 0.0, "fusion_lat": 0.0, "rental_uris": {"android": "https://dc.lft.to/lastmile_qr_scan", "ios": "https://dc.lft.to/lastmile_qr_scan"}, "is_disabled": 0, "type": "electric_scooter", "is_reserved": 0, "name": "c7ee5548f19b1d6728a49fe3bcf11a6c", "lon": -77.039992, "bike_id": "c7ee5548f19b1d6728a49fe3bcf11a6c", "lat": 38.918063}, {"fusion_lon": 0.0, "fusion_lat": 0.0, "rental_uris": {"android": "https://dc.lft.to/lastmile_qr_scan", "ios": "https://dc.lft.to/lastmile_qr_scan"}, "is_disabled": 0, "type": "electric_scooter", "is_reserved": 0, "name": "3acdd5f4900b79a37803a9a76e498303", "lon": -77.02809783333333, "bike_id": "3acdd5f4900b79a37803a9a76e498303", "lat": 38.90702733333333}, {"fusion_lon": 0.0, "fusion_lat": 0.0, "rental_uris": {"android": "https://dc.lft.to/lastmile_qr_scan", "ios": "https://dc.lft.to/lastmile_qr_scan"}, "is_disabled": 0, "type": "electric_scooter", "is_reserved": 0, "name": "571083846d21bd2dc077a7e7a3f4580f", "lon": -77.03767716666667, "bike_id": "571083846d21bd2dc077a7e7a3f4580f", "lat": 38.91689083333333}, {"fusion_lon": 0.0, "fusion_lat": 0.0, "rental_uris": {"android": "https://dc.lft.to/lastmile_qr_scan", "ios": "https://dc.lft.to/lastmile_qr_scan"}, "is_disabled": 0, "type": "electric_scooter", "is_reserved": 0, "name": "808557e5ff7cb34a1aa71c9459c879e0", "lon": -76.983731, "bike_id": "808557e5ff7cb34a1aa71c9459c879e0", "lat": 38.90642016666666}, {"fusion_lon": 0.0, "fusion_lat": 0.0, "rental_uris": {"android": "https://dc.lft.to/lastmile_qr_scan", "ios": "https://dc.lft.to/lastmile_qr_scan"}, "is_disabled": 0, "type": "electric_scooter", "is_reserved": 0, "name": "03028001b5f5f4d0dd364f09fa0eae1f", "lon": -76.96107766666667, "bike_id": "03028001b5f5f4d0dd364f09fa0eae1f", "lat": 38.892059}, {"fusion_lon": 0.0, "fusion_lat": 0.0, "rental_uris": {"android": "https://dc.lft.to/lastmile_qr_scan", "ios": "https://dc.lft.to/lastmile_qr_scan"}, "is_disabled": 0, "type": "electric_scooter", "is_reserved": 0, "name": "263b2e18848f4402254ba2b66929e9a4", "lon": -77.049945, "bike_id": "263b2e18848f4402254ba2b66929e9a4", "lat": 38.892294166666666}, {"fusion_lon": 0.0, "fusion_lat": 0.0, "rental_uris": {"android": "https://dc.lft.to/lastmile_qr_scan", "ios": "https://dc.lft.to/lastmile_qr_scan"}, "is_disabled": 0, "type": "electric_scooter", "is_reserved": 0, "name": "4d30b8cae4093e589529632ce9ae94b9", "lon": -77.020616, "bike_id": "4d30b8cae4093e589529632ce9ae94b9", "lat": 38.919904333333335}, {"fusion_lon": 0.0, "fusion_lat": 0.0, "rental_uris": {"android": "https://dc.lft.to/lastmile_qr_scan", "ios": "https://dc.lft.to/lastmile_qr_scan"}, "is_disabled": 0, "type": "electric_scooter", "is_reserved": 0, "name": "3c4c306385fac9ba6c87db5522ef176c", "lon": -77.01194433333333, "bike_id": "3c4c306385fac9ba6c87db5522ef176c", "lat": 38.896738}, {"fusion_lon": 0.0, "fusion_lat": 0.0, "rental_uris": {"android": "https://dc.lft.to/lastmile_qr_scan", "ios": "https://dc.lft.to/lastmile_qr_scan"}, "is_disabled": 0, "type": "electric_scooter", "is_reserved": 0, "name": "03abf9da6449e13fc84e2629c0c4f167", "lon": -77.0057315, "bike_id": "03abf9da6449e13fc84e2629c0c4f167", "lat": 38.872131833333334}, {"fusion_lon": 0.0, "fusion_lat": 0.0, "rental_uris": {"android": "https://dc.lft.to/lastmile_qr_scan", "ios": "https://dc.lft.to/lastmile_qr_scan"}, "is_disabled": 0, "type": "electric_scooter", "is_reserved": 0, "name": "cdf7143999cdcdec4ed892fd145a6566", "lon": -77.0033305, "bike_id": "cdf7143999cdcdec4ed892fd145a6566", "lat": 38.87644216666666}, {"fusion_lon": 0.0, "fusion_lat": 0.0, "rental_uris": {"android": "https://dc.lft.to/lastmile_qr_scan", "ios": "https://dc.lft.to/lastmile_qr_scan"}, "is_disabled": 0, "type": "electric_scooter", "is_reserved": 0, "name": "55224afcc7fafd770539cc4db2f91df9", "lon": -77.030319, "bike_id": "55224afcc7fafd770539cc4db2f91df9", "lat": 38.902659666666665}, {"fusion_lon": 0.0, "fusion_lat": 0.0, "rental_uris": {"android": "https://dc.lft.to/lastmile_qr_scan", "ios": "https://dc.lft.to/lastmile_qr_scan"}, "is_disabled": 0, "type": "electric_scooter", "is_reserved": 0, "name": "83c25a7b0681f90915e6f5e6ff85cc2d", "lon": -77.074664, "bike_id": "83c25a7b0681f90915e6f5e6ff85cc2d", "lat": 38.935528166666664}, {"fusion_lon": 0.0, "fusion_lat": 0.0, "rental_uris": {"android": "https://dc.lft.to/lastmile_qr_scan", "ios": "https://dc.lft.to/lastmile_qr_scan"}, "is_disabled": 0, "type": "electric_scooter", "is_reserved": 0, "name": "58d0b996be56f52407e2a23252a564be", "lon": -77.01998783333333, "bike_id": "58d0b996be56f52407e2a23252a564be", "lat": 38.96624383333333}, {"fusion_lon": 0.0, "fusion_lat": 0.0, "rental_uris": {"android": "https://dc.lft.to/lastmile_qr_scan", "ios": "https://dc.lft.to/lastmile_qr_scan"}, "is_disabled": 0, "type": "electric_scooter", "is_reserved": 0, "name": "19269effdb9fe82b2094330674fa3e5a", "lon": -77.0216005, "bike_id": "19269effdb9fe82b2094330674fa3e5a", "lat": 38.92612666666667}, {"fusion_lon": 0.0, "fusion_lat": 0.0, "rental_uris": {"android": "https://dc.lft.to/lastmile_qr_scan", "ios": "https://dc.lft.to/lastmile_qr_scan"}, "is_disabled": 0, "type": "electric_scooter", "is_reserved": 0, "name": "ca0edf135d7e296754cf5c32a1cf858e", "lon": -77.01619533333333, "bike_id": "ca0edf135d7e296754cf5c32a1cf858e", "lat": 38.91066583333333}, {"fusion_lon": 0.0, "fusion_lat": 0.0, "rental_uris": {"android": "https://dc.lft.to/lastmile_qr_scan", "ios": "https://dc.lft.to/lastmile_qr_scan"}, "is_disabled": 0, "type": "electric_bike", "is_reserved": 0, "name": "c1a98a0c0d8d57dff29d1d1920237f74", "lon": -77.05355533333334, "bike_id": "c1a98a0c0d8d57dff29d1d1920237f74", "lat": 38.820400166666666}, {"fusion_lon": 0.0, "fusion_lat": 0.0, "rental_uris": {"android": "https://dc.lft.to/lastmile_qr_scan", "ios": "https://dc.lft.to/lastmile_qr_scan"}, "is_disabled": 0, "type": "electric_scooter", "is_reserved": 0, "name": "fbe1ea567b725bebbabccb7c46aab61b", "lon": -77.022209, "bike_id": "fbe1ea567b725bebbabccb7c46aab61b", "lat": 38.92478916666666}, {"fusion_lon": 0.0, "fusion_lat": 0.0, "rental_uris": {"android": "https://dc.lft.to/lastmile_qr_scan", "ios": "https://dc.lft.to/lastmile_qr_scan"}, "is_disabled": 0, "type": "electric_bike", "is_reserved": 0, "name": "c9ceefbe6d3777155fce398d87811f0a", "lon": -76.94152183333334, "bike_id": "c9ceefbe6d3777155fce398d87811f0a", "lat": 38.865485}, {"fusion_lon": 0.0, "fusion_lat": 0.0, "rental_uris": {"android": "https://dc.lft.to/lastmile_qr_scan", "ios": "https://dc.lft.to/lastmile_qr_scan"}, "is_disabled": 0, "type": "electric_scooter", "is_reserved": 0, "name": "26be90388d080f8811803e8abe321cc5", "lon": -77.04123483333333, "bike_id": "26be90388d080f8811803e8abe321cc5", "lat": 38.918901}, {"fusion_lon": 0.0, "fusion_lat": 0.0, "rental_uris": {"android": "https://dc.lft.to/lastmile_qr_scan", "ios": "https://dc.lft.to/lastmile_qr_scan"}, "is_disabled": 0, "type": "electric_scooter", "is_reserved": 0, "name": "d4c2f1a3d9dc82d155034c8f08b7c33f", "lon": -77.0195475, "bike_id": "d4c2f1a3d9dc82d155034c8f08b7c33f", "lat": 38.92364083333333}, {"fusion_lon": 0.0, "fusion_lat": 0.0, "rental_uris": {"android": "https://dc.lft.to/lastmile_qr_scan", "ios": "https://dc.lft.to/lastmile_qr_scan"}, "is_disabled": 0, "type": "electric_scooter", "is_reserved": 0, "name": "44e513a25308744ce63a1164b1c5553a", "lon": -77.03389183333333, "bike_id": "44e513a25308744ce63a1164b1c5553a", "lat": 38.90803}, {"fusion_lon": 0.0, "fusion_lat": 0.0, "rental_uris": {"android": "https://dc.lft.to/lastmile_qr_scan", "ios": "https://dc.lft.to/lastmile_qr_scan"}, "is_disabled": 0, "type": "electric_scooter", "is_reserved": 0, "name": "864f55842529ae14073d090be23b304f", "lon": -77.07152033333334, "bike_id": "864f55842529ae14073d090be23b304f", "lat": 38.92008833333333}, {"fusion_lon": 0.0, "fusion_lat": 0.0, "rental_uris": {"android": "https://dc.lft.to/lastmile_qr_scan", "ios": "https://dc.lft.to/lastmile_qr_scan"}, "is_disabled": 0, "type": "electric_scooter", "is_reserved": 0, "name": "845e19e11972f4bdf8add7458ccac8be", "lon": -77.0204595, "bike_id": "845e19e11972f4bdf8add7458ccac8be", "lat": 38.921763}, {"fusion_lon": 0.0, "fusion_lat": 0.0, "rental_uris": {"android": "https://dc.lft.to/lastmile_qr_scan", "ios": "https://dc.lft.to/lastmile_qr_scan"}, "is_disabled": 0, "type": "electric_scooter", "is_reserved": 0, "name": "c8454c9630330be05f07542bf6f2f1cb", "lon": -77.02796366666666, "bike_id": "c8454c9630330be05f07542bf6f2f1cb", "lat": 38.91135216666667}, {"fusion_lon": 0.0, "fusion_lat": 0.0, "rental_uris": {"android": "https://dc.lft.to/lastmile_qr_scan", "ios": "https://dc.lft.to/lastmile_qr_scan"}, "is_disabled": 0, "type": "electric_scooter", "is_reserved": 0, "name": "f39e2466c16e9be440448fb3985886b8", "lon": -77.050134, "bike_id": "f39e2466c16e9be440448fb3985886b8", "lat": 38.9031135}, {"fusion_lon": 0.0, "fusion_lat": 0.0, "rental_uris": {"android": "https://dc.lft.to/lastmile_qr_scan", "ios": "https://dc.lft.to/lastmile_qr_scan"}, "is_disabled": 0, "type": "electric_scooter", "is_reserved": 0, "name": "ac64a1ec752c8143cc71dccdcdd33a35", "lon": -77.029844, "bike_id": "ac64a1ec752c8143cc71dccdcdd33a35", "lat": 38.89953916666666}, {"fusion_lon": 0.0, "fusion_lat": 0.0, "rental_uris": {"android": "https://dc.lft.to/lastmile_qr_scan", "ios": "https://dc.lft.to/lastmile_qr_scan"}, "is_disabled": 0, "type": "electric_scooter", "is_reserved": 0, "name": "fc1b755d6ac4f25d98be0f0b26890a5b", "lon": -77.03216633333334, "bike_id": "fc1b755d6ac4f25d98be0f0b26890a5b", "lat": 38.89206933333333}, {"fusion_lon": 0.0, "fusion_lat": 0.0, "rental_uris": {"android": "https://dc.lft.to/lastmile_qr_scan", "ios": "https://dc.lft.to/lastmile_qr_scan"}, "is_disabled": 0, "type": "electric_scooter", "is_reserved": 0, "name": "a8f734a50700733f4e230783e6e85762", "lon": -77.00322066666666, "bike_id": "a8f734a50700733f4e230783e6e85762", "lat": 38.887328333333336}, {"fusion_lon": 0.0, "fusion_lat": 0.0, "rental_uris": {"android": "https://dc.lft.to/lastmile_qr_scan", "ios": "https://dc.lft.to/lastmile_qr_scan"}, "is_disabled": 0, "type": "electric_bike", "is_reserved": 0, "name": "961bc1995267d47aa95e99054d6d98cc", "lon": -77.04839316666667, "bike_id": "961bc1995267d47aa95e99054d6d98cc", "lat": 39.037449333333335}, {"fusion_lon": 0.0, "fusion_lat": 0.0, "rental_uris": {"android": "https://dc.lft.to/lastmile_qr_scan", "ios": "https://dc.lft.to/lastmile_qr_scan"}, "is_disabled": 0, "type": "electric_scooter", "is_reserved": 0, "name": "2a9d482a9b501ac67f96e8d48a8cad62", "lon": -77.0324, "bike_id": "2a9d482a9b501ac67f96e8d48a8cad62", "lat": 38.91646433333333}, {"fusion_lon": 0.0, "fusion_lat": 0.0, "rental_uris": {"android": "https://dc.lft.to/lastmile_qr_scan", "ios": "https://dc.lft.to/lastmile_qr_scan"}, "is_disabled": 0, "type": "electric_scooter", "is_reserved": 0, "name": "70834e991f15202bce233835b8f796b3", "lon": -77.0221695, "bike_id": "70834e991f15202bce233835b8f796b3", "lat": 38.924634}, {"fusion_lon": 0.0, "fusion_lat": 0.0, "rental_uris": {"android": "https://dc.lft.to/lastmile_qr_scan", "ios": "https://dc.lft.to/lastmile_qr_scan"}, "is_disabled": 0, "type": "electric_scooter", "is_reserved": 0, "name": "fecdff90cb84db31148ac6e9d0928786", "lon": -76.98517266666667, "bike_id": "fecdff90cb84db31148ac6e9d0928786", "lat": 38.866793}, {"fusion_lon": 0.0, "fusion_lat": 0.0, "rental_uris": {"android": "https://dc.lft.to/lastmile_qr_scan", "ios": "https://dc.lft.to/lastmile_qr_scan"}, "is_disabled": 0, "type": "electric_scooter", "is_reserved": 0, "name": "c4070a79689b83598cbbd3995e939fcd", "lon": -76.99124666666667, "bike_id": "c4070a79689b83598cbbd3995e939fcd", "lat": 38.900285333333336}, {"fusion_lon": 0.0, "fusion_lat": 0.0, "rental_uris": {"android": "https://dc.lft.to/lastmile_qr_scan", "ios": "https://dc.lft.to/lastmile_qr_scan"}, "is_disabled": 0, "type": "electric_scooter", "is_reserved": 0, "name": "a8990e4761a8e7924e208355493e9836", "lon": -77.02813566666667, "bike_id": "a8990e4761a8e7924e208355493e9836", "lat": 38.925810166666665}, {"fusion_lon": 0.0, "fusion_lat": 0.0, "rental_uris": {"android": "https://dc.lft.to/lastmile_qr_scan", "ios": "https://dc.lft.to/lastmile_qr_scan"}, "is_disabled": 0, "type": "electric_scooter", "is_reserved": 0, "name": "9775cadfb3a56922ad34bc4f3761417d", "lon": -77.02471666666666, "bike_id": "9775cadfb3a56922ad34bc4f3761417d", "lat": 38.93964033333334}, {"fusion_lon": 0.0, "fusion_lat": 0.0, "rental_uris": {"android": "https://dc.lft.to/lastmile_qr_scan", "ios": "https://dc.lft.to/lastmile_qr_scan"}, "is_disabled": 0, "type": "electric_scooter", "is_reserved": 0, "name": "0925a530fe05892190de21d343132576", "lon": -77.00148433333334, "bike_id": "0925a530fe05892190de21d343132576", "lat": 38.86750633333333}, {"fusion_lon": 0.0, "fusion_lat": 0.0, "rental_uris": {"android": "https://dc.lft.to/lastmile_qr_scan", "ios": "https://dc.lft.to/lastmile_qr_scan"}, "is_disabled": 0, "type": "electric_bike", "is_reserved": 0, "name": "9040d37aba3ea5849328ea5d49a0ab9a", "lon": -76.950601, "bike_id": "9040d37aba3ea5849328ea5d49a0ab9a", "lat": 39.0850575}, {"fusion_lon": 0.0, "fusion_lat": 0.0, "rental_uris": {"android": "https://dc.lft.to/lastmile_qr_scan", "ios": "https://dc.lft.to/lastmile_qr_scan"}, "is_disabled": 0, "type": "electric_scooter", "is_reserved": 0, "name": "c801f50e773782daccd34648f8e7cf1a", "lon": -77.003369, "bike_id": "c801f50e773782daccd34648f8e7cf1a", "lat": 38.897480333333334}, {"fusion_lon": 0.0, "fusion_lat": 0.0, "rental_uris": {"android": "https://dc.lft.to/lastmile_qr_scan", "ios": "https://dc.lft.to/lastmile_qr_scan"}, "is_disabled": 0, "type": "electric_scooter", "is_reserved": 0, "name": "639f577cd73cba64113ab15c48aea8b1", "lon": -77.01606666666666, "bike_id": "639f577cd73cba64113ab15c48aea8b1", "lat": 38.899589}, {"fusion_lon": 0.0, "fusion_lat": 0.0, "rental_uris": {"android": "https://dc.lft.to/lastmile_qr_scan", "ios": "https://dc.lft.to/lastmile_qr_scan"}, "is_disabled": 0, "type": "electric_scooter", "is_reserved": 0, "name": "643a330f349d80e7ef1e1b0fb1adf366", "lon": -76.9305995, "bike_id": "643a330f349d80e7ef1e1b0fb1adf366", "lat": 38.89558683333333}, {"fusion_lon": 0.0, "fusion_lat": 0.0, "rental_uris": {"android": "https://dc.lft.to/lastmile_qr_scan", "ios": "https://dc.lft.to/lastmile_qr_scan"}, "is_disabled": 0, "type": "electric_scooter", "is_reserved": 0, "name": "60ff0500b62b4ac9d22c6a2b788dad31", "lon": -77.022039, "bike_id": "60ff0500b62b4ac9d22c6a2b788dad31", "lat": 38.9035085}, {"fusion_lon": 0.0, "fusion_lat": 0.0, "rental_uris": {"android": "https://dc.lft.to/lastmile_qr_scan", "ios": "https://dc.lft.to/lastmile_qr_scan"}, "is_disabled": 0, "type": "electric_scooter", "is_reserved": 0, "name": "485b2c8301652314c108c82d4d1f5fa9", "lon": -77.00700566666667, "bike_id": "485b2c8301652314c108c82d4d1f5fa9", "lat": 38.90025833333333}, {"fusion_lon": 0.0, "fusion_lat": 0.0, "rental_uris": {"android": "https://dc.lft.to/lastmile_qr_scan", "ios": "https://dc.lft.to/lastmile_qr_scan"}, "is_disabled": 0, "type": "electric_scooter", "is_reserved": 0, "name": "96bb04481c046dd85282d56e1022e0ed", "lon": -77.05032483333333, "bike_id": "96bb04481c046dd85282d56e1022e0ed", "lat": 38.90216816666667}, {"fusion_lon": 0.0, "fusion_lat": 0.0, "rental_uris": {"android": "https://dc.lft.to/lastmile_qr_scan", "ios": "https://dc.lft.to/lastmile_qr_scan"}, "is_disabled": 0, "type": "electric_scooter", "is_reserved": 0, "name": "b1b472d363803bcdc640fb31021a081c", "lon": -77.01356883333334, "bike_id": "b1b472d363803bcdc640fb31021a081c", "lat": 38.89498066666667}, {"fusion_lon": 0.0, "fusion_lat": 0.0, "rental_uris": {"android": "https://dc.lft.to/lastmile_qr_scan", "ios": "https://dc.lft.to/lastmile_qr_scan"}, "is_disabled": 0, "type": "electric_scooter", "is_reserved": 0, "name": "022bafdfb764c2b0d7a4a1c814b70662", "lon": -77.055124, "bike_id": "022bafdfb764c2b0d7a4a1c814b70662", "lat": 38.9294615}, {"fusion_lon": 0.0, "fusion_lat": 0.0, "rental_uris": {"android": "https://dc.lft.to/lastmile_qr_scan", "ios": "https://dc.lft.to/lastmile_qr_scan"}, "is_disabled": 0, "type": "electric_scooter", "is_reserved": 0, "name": "49f00ae2533b7f8479ec8a5f51174939", "lon": -76.987762, "bike_id": "49f00ae2533b7f8479ec8a5f51174939", "lat": 38.88280066666667}, {"fusion_lon": 0.0, "fusion_lat": 0.0, "rental_uris": {"android": "https://dc.lft.to/lastmile_qr_scan", "ios": "https://dc.lft.to/lastmile_qr_scan"}, "is_disabled": 0, "type": "electric_bike", "is_reserved": 0, "name": "879b1426ce1fe462fe26b6f12f31b790", "lon": -76.986758, "bike_id": "879b1426ce1fe462fe26b6f12f31b790", "lat": 38.97477966666667}, {"fusion_lon": 0.0, "fusion_lat": 0.0, "rental_uris": {"android": "https://dc.lft.to/lastmile_qr_scan", "ios": "https://dc.lft.to/lastmile_qr_scan"}, "is_disabled": 0, "type": "electric_bike", "is_reserved": 0, "name": "7d2bb3a15ac861b54c6cbd679bd3ff0b", "lon": -77.09447266666666, "bike_id": "7d2bb3a15ac861b54c6cbd679bd3ff0b", "lat": 38.894222666666664}, {"fusion_lon": 0.0, "fusion_lat": 0.0, "rental_uris": {"android": "https://dc.lft.to/lastmile_qr_scan", "ios": "https://dc.lft.to/lastmile_qr_scan"}, "is_disabled": 0, "type": "electric_scooter", "is_reserved": 0, "name": "b020ab3a1f29a487b2c1c65bb702d01c", "lon": -77.02067716666667, "bike_id": "b020ab3a1f29a487b2c1c65bb702d01c", "lat": 38.921426833333335}, {"fusion_lon": 0.0, "fusion_lat": 0.0, "rental_uris": {"android": "https://dc.lft.to/lastmile_qr_scan", "ios": "https://dc.lft.to/lastmile_qr_scan"}, "is_disabled": 0, "type": "electric_bike", "is_reserved": 0, "name": "be4ba1e3aa02e44dbeb564760b109867", "lon": -77.02107633333334, "bike_id": "be4ba1e3aa02e44dbeb564760b109867", "lat": 39.02295866666667}, {"fusion_lon": 0.0, "fusion_lat": 0.0, "rental_uris": {"android": "https://dc.lft.to/lastmile_qr_scan", "ios": "https://dc.lft.to/lastmile_qr_scan"}, "is_disabled": 0, "type": "electric_scooter", "is_reserved": 0, "name": "85e83a6d82e20356a9b47618de2f53b3", "lon": -77.02448283333334, "bike_id": "85e83a6d82e20356a9b47618de2f53b3", "lat": 38.893882833333336}, {"fusion_lon": 0.0, "fusion_lat": 0.0, "rental_uris": {"android": "https://dc.lft.to/lastmile_qr_scan", "ios": "https://dc.lft.to/lastmile_qr_scan"}, "is_disabled": 0, "type": "electric_bike", "is_reserved": 0, "name": "ff777a7f64d6a74d7025af1b1e372292", "lon": -77.0975775, "bike_id": "ff777a7f64d6a74d7025af1b1e372292", "lat": 38.981001666666664}, {"fusion_lon": 0.0, "fusion_lat": 0.0, "rental_uris": {"android": "https://dc.lft.to/lastmile_qr_scan", "ios": "https://dc.lft.to/lastmile_qr_scan"}, "is_disabled": 0, "type": "electric_scooter", "is_reserved": 0, "name": "aa24bcb55732a111935eee47684497eb", "lon": -77.01801716666667, "bike_id": "aa24bcb55732a111935eee47684497eb", "lat": 38.91426216666667}, {"fusion_lon": 0.0, "fusion_lat": 0.0, "rental_uris": {"android": "https://dc.lft.to/lastmile_qr_scan", "ios": "https://dc.lft.to/lastmile_qr_scan"}, "is_disabled": 0, "type": "electric_scooter", "is_reserved": 0, "name": "51195515689aa5f791e3a5e10b1875a5", "lon": -77.03949266666666, "bike_id": "51195515689aa5f791e3a5e10b1875a5", "lat": 38.903879333333336}, {"fusion_lon": 0.0, "fusion_lat": 0.0, "rental_uris": {"android": "https://dc.lft.to/lastmile_qr_scan", "ios": "https://dc.lft.to/lastmile_qr_scan"}, "is_disabled": 0, "type": "electric_scooter", "is_reserved": 0, "name": "aa6bab4dc856135befdf8e0b5a3b1d96", "lon": -76.99897233333333, "bike_id": "aa6bab4dc856135befdf8e0b5a3b1d96", "lat": 38.89100033333333}, {"fusion_lon": 0.0, "fusion_lat": 0.0, "rental_uris": {"android": "https://dc.lft.to/lastmile_qr_scan", "ios": "https://dc.lft.to/lastmile_qr_scan"}, "is_disabled": 0, "type": "electric_bike", "is_reserved": 0, "name": "75a50127487d558be5e09237ff634d87", "lon": -77.002176, "bike_id": "75a50127487d558be5e09237ff634d87", "lat": 38.936054}, {"fusion_lon": 0.0, "fusion_lat": 0.0, "rental_uris": {"android": "https://dc.lft.to/lastmile_qr_scan", "ios": "https://dc.lft.to/lastmile_qr_scan"}, "is_disabled": 0, "type": "electric_bike", "is_reserved": 0, "name": "329bb7c833e358503e2650c68da0a1f3", "lon": -77.0339, "bike_id": "329bb7c833e358503e2650c68da0a1f3", "lat": 38.891967666666666}, {"fusion_lon": 0.0, "fusion_lat": 0.0, "rental_uris": {"android": "https://dc.lft.to/lastmile_qr_scan", "ios": "https://dc.lft.to/lastmile_qr_scan"}, "is_disabled": 0, "type": "electric_bike", "is_reserved": 0, "name": "dd8d9aa3842722bfc31a17871a7e3def", "lon": -77.096259, "bike_id": "dd8d9aa3842722bfc31a17871a7e3def", "lat": 38.952424}, {"fusion_lon": 0.0, "fusion_lat": 0.0, "rental_uris": {"android": "https://dc.lft.to/lastmile_qr_scan", "ios": "https://dc.lft.to/lastmile_qr_scan"}, "is_disabled": 0, "type": "electric_scooter", "is_reserved": 0, "name": "1f39aae851be1962a6ebdb1e40317fea", "lon": -77.03962633333333, "bike_id": "1f39aae851be1962a6ebdb1e40317fea", "lat": 38.9023465}, {"fusion_lon": 0.0, "fusion_lat": 0.0, "rental_uris": {"android": "https://dc.lft.to/lastmile_qr_scan", "ios": "https://dc.lft.to/lastmile_qr_scan"}, "is_disabled": 0, "type": "electric_scooter", "is_reserved": 0, "name": "02840ca7328bed6f81ea589ffa1549ca", "lon": -77.02737716666667, "bike_id": "02840ca7328bed6f81ea589ffa1549ca", "lat": 38.90246616666667}, {"fusion_lon": 0.0, "fusion_lat": 0.0, "rental_uris": {"android": "https://dc.lft.to/lastmile_qr_scan", "ios": "https://dc.lft.to/lastmile_qr_scan"}, "is_disabled": 0, "type": "electric_scooter", "is_reserved": 0, "name": "766200a6195de075c6afc5c5e123ad7f", "lon": -77.0412595, "bike_id": "766200a6195de075c6afc5c5e123ad7f", "lat": 38.917055}, {"fusion_lon": 0.0, "fusion_lat": 0.0, "rental_uris": {"android": "https://dc.lft.to/lastmile_qr_scan", "ios": "https://dc.lft.to/lastmile_qr_scan"}, "is_disabled": 0, "type": "electric_bike", "is_reserved": 0, "name": "212806efc0d53fe76fc73dd9005d46d9", "lon": -77.03566183333334, "bike_id": "212806efc0d53fe76fc73dd9005d46d9", "lat": 38.964650166666665}, {"fusion_lon": 0.0, "fusion_lat": 0.0, "rental_uris": {"android": "https://dc.lft.to/lastmile_qr_scan", "ios": "https://dc.lft.to/lastmile_qr_scan"}, "is_disabled": 0, "type": "electric_scooter", "is_reserved": 0, "name": "27988a355f825f40985cb519f5063d07", "lon": -77.03693916666667, "bike_id": "27988a355f825f40985cb519f5063d07", "lat": 38.903650999999996}, {"fusion_lon": 0.0, "fusion_lat": 0.0, "rental_uris": {"android": "https://dc.lft.to/lastmile_qr_scan", "ios": "https://dc.lft.to/lastmile_qr_scan"}, "is_disabled": 0, "type": "electric_scooter", "is_reserved": 0, "name": "43bb7e62da8ac1681514572c28535ce0", "lon": -77.03358416666667, "bike_id": "43bb7e62da8ac1681514572c28535ce0", "lat": 38.902745333333336}, {"fusion_lon": 0.0, "fusion_lat": 0.0, "rental_uris": {"android": "https://dc.lft.to/lastmile_qr_scan", "ios": "https://dc.lft.to/lastmile_qr_scan"}, "is_disabled": 0, "type": "electric_scooter", "is_reserved": 0, "name": "2b72527645da6419846c3853eebc5fd2", "lon": -76.98260066666667, "bike_id": "2b72527645da6419846c3853eebc5fd2", "lat": 38.885340666666664}, {"fusion_lon": 0.0, "fusion_lat": 0.0, "rental_uris": {"android": "https://dc.lft.to/lastmile_qr_scan", "ios": "https://dc.lft.to/lastmile_qr_scan"}, "is_disabled": 0, "type": "electric_scooter", "is_reserved": 0, "name": "d3b21e70625ba430a8c3bef5b602af4c", "lon": -77.0231445, "bike_id": "d3b21e70625ba430a8c3bef5b602af4c", "lat": 38.9169575}, {"fusion_lon": 0.0, "fusion_lat": 0.0, "rental_uris": {"android": "https://dc.lft.to/lastmile_qr_scan", "ios": "https://dc.lft.to/lastmile_qr_scan"}, "is_disabled": 0, "type": "electric_scooter", "is_reserved": 0, "name": "9267cb9c3479ab03a2fbcfd320505787", "lon": -77.03303883333334, "bike_id": "9267cb9c3479ab03a2fbcfd320505787", "lat": 38.9264805}, {"fusion_lon": 0.0, "fusion_lat": 0.0, "rental_uris": {"android": "https://dc.lft.to/lastmile_qr_scan", "ios": "https://dc.lft.to/lastmile_qr_scan"}, "is_disabled": 0, "type": "electric_scooter", "is_reserved": 0, "name": "7bd7f21e52f766471daadc15be6be274", "lon": -76.95769566666667, "bike_id": "7bd7f21e52f766471daadc15be6be274", "lat": 38.883565833333336}, {"fusion_lon": 0.0, "fusion_lat": 0.0, "rental_uris": {"android": "https://dc.lft.to/lastmile_qr_scan", "ios": "https://dc.lft.to/lastmile_qr_scan"}, "is_disabled": 0, "type": "electric_scooter", "is_reserved": 0, "name": "3b6e1b07e4a4a327c58c0af2e7205347", "lon": -77.03454, "bike_id": "3b6e1b07e4a4a327c58c0af2e7205347", "lat": 38.9030135}, {"fusion_lon": 0.0, "fusion_lat": 0.0, "rental_uris": {"android": "https://dc.lft.to/lastmile_qr_scan", "ios": "https://dc.lft.to/lastmile_qr_scan"}, "is_disabled": 0, "type": "electric_scooter", "is_reserved": 0, "name": "eeae08e330ddadcbfa831b1af400236b", "lon": -77.03299816666667, "bike_id": "eeae08e330ddadcbfa831b1af400236b", "lat": 38.909725}, {"fusion_lon": 0.0, "fusion_lat": 0.0, "rental_uris": {"android": "https://dc.lft.to/lastmile_qr_scan", "ios": "https://dc.lft.to/lastmile_qr_scan"}, "is_disabled": 0, "type": "electric_scooter", "is_reserved": 0, "name": "eede9b42c9fd75f07a3bd19d87a42692", "lon": -77.0212485, "bike_id": "eede9b42c9fd75f07a3bd19d87a42692", "lat": 38.924085}, {"fusion_lon": 0.0, "fusion_lat": 0.0, "rental_uris": {"android": "https://dc.lft.to/lastmile_qr_scan", "ios": "https://dc.lft.to/lastmile_qr_scan"}, "is_disabled": 0, "type": "electric_scooter", "is_reserved": 0, "name": "a0593df5bd280a6e868a3e63dd8a761e", "lon": -76.937644, "bike_id": "a0593df5bd280a6e868a3e63dd8a761e", "lat": 38.899735}, {"fusion_lon": 0.0, "fusion_lat": 0.0, "rental_uris": {"android": "https://dc.lft.to/lastmile_qr_scan", "ios": "https://dc.lft.to/lastmile_qr_scan"}, "is_disabled": 0, "type": "electric_scooter", "is_reserved": 0, "name": "dc7b52c89db878f130b10b1fc273b030", "lon": -77.02246966666667, "bike_id": "dc7b52c89db878f130b10b1fc273b030", "lat": 38.91278483333333}, {"fusion_lon": 0.0, "fusion_lat": 0.0, "rental_uris": {"android": "https://dc.lft.to/lastmile_qr_scan", "ios": "https://dc.lft.to/lastmile_qr_scan"}, "is_disabled": 0, "type": "electric_scooter", "is_reserved": 0, "name": "41c78475f80023103c4f743d20676d98", "lon": -76.99303083333334, "bike_id": "41c78475f80023103c4f743d20676d98", "lat": 38.93774283333333}, {"fusion_lon": 0.0, "fusion_lat": 0.0, "rental_uris": {"android": "https://dc.lft.to/lastmile_qr_scan", "ios": "https://dc.lft.to/lastmile_qr_scan"}, "is_disabled": 0, "type": "electric_scooter", "is_reserved": 0, "name": "f1b92659e91fbb221fdff5c07bcce163", "lon": -77.04331766666667, "bike_id": "f1b92659e91fbb221fdff5c07bcce163", "lat": 38.896955166666665}, {"fusion_lon": 0.0, "fusion_lat": 0.0, "rental_uris": {"android": "https://dc.lft.to/lastmile_qr_scan", "ios": "https://dc.lft.to/lastmile_qr_scan"}, "is_disabled": 0, "type": "electric_scooter", "is_reserved": 0, "name": "968c36e2243b48e6172c2df9f0199321", "lon": -77.03259533333333, "bike_id": "968c36e2243b48e6172c2df9f0199321", "lat": 38.929184}, {"fusion_lon": 0.0, "fusion_lat": 0.0, "rental_uris": {"android": "https://dc.lft.to/lastmile_qr_scan", "ios": "https://dc.lft.to/lastmile_qr_scan"}, "is_disabled": 0, "type": "electric_scooter", "is_reserved": 0, "name": "37ee5dee90e91e8a97adcf9bf0b20c30", "lon": -77.0265635, "bike_id": "37ee5dee90e91e8a97adcf9bf0b20c30", "lat": 38.92379533333333}, {"fusion_lon": 0.0, "fusion_lat": 0.0, "rental_uris": {"android": "https://dc.lft.to/lastmile_qr_scan", "ios": "https://dc.lft.to/lastmile_qr_scan"}, "is_disabled": 0, "type": "electric_scooter", "is_reserved": 0, "name": "bfe4d0be82cb12bcc9ca6a9201970abd", "lon": -77.08013716666666, "bike_id": "bfe4d0be82cb12bcc9ca6a9201970abd", "lat": 38.9497735}, {"fusion_lon": 0.0, "fusion_lat": 0.0, "rental_uris": {"android": "https://dc.lft.to/lastmile_qr_scan", "ios": "https://dc.lft.to/lastmile_qr_scan"}, "is_disabled": 0, "type": "electric_bike", "is_reserved": 0, "name": "1b5222283332c85ae65b877dd00b399f", "lon": -77.084057, "bike_id": "1b5222283332c85ae65b877dd00b399f", "lat": 38.8329235}, {"fusion_lon": 0.0, "fusion_lat": 0.0, "rental_uris": {"android": "https://dc.lft.to/lastmile_qr_scan", "ios": "https://dc.lft.to/lastmile_qr_scan"}, "is_disabled": 0, "type": "electric_scooter", "is_reserved": 0, "name": "b5971d3d2906668da70554e5a07d370a", "lon": -77.03645733333333, "bike_id": "b5971d3d2906668da70554e5a07d370a", "lat": 38.9363065}, {"fusion_lon": 0.0, "fusion_lat": 0.0, "rental_uris": {"android": "https://dc.lft.to/lastmile_qr_scan", "ios": "https://dc.lft.to/lastmile_qr_scan"}, "is_disabled": 0, "type": "electric_scooter", "is_reserved": 0, "name": "54a1968cc76a4fc04d938d32a9935a90", "lon": -77.04237, "bike_id": "54a1968cc76a4fc04d938d32a9935a90", "lat": 38.921480833333334}, {"fusion_lon": 0.0, "fusion_lat": 0.0, "rental_uris": {"android": "https://dc.lft.to/lastmile_qr_scan", "ios": "https://dc.lft.to/lastmile_qr_scan"}, "is_disabled": 0, "type": "electric_scooter", "is_reserved": 0, "name": "5df6594741aead7fc69ae6a0a638a2b8", "lon": -77.03201566666667, "bike_id": "5df6594741aead7fc69ae6a0a638a2b8", "lat": 38.915387333333335}, {"fusion_lon": 0.0, "fusion_lat": 0.0, "rental_uris": {"android": "https://dc.lft.to/lastmile_qr_scan", "ios": "https://dc.lft.to/lastmile_qr_scan"}, "is_disabled": 0, "type": "electric_scooter", "is_reserved": 0, "name": "fa0b4a037a37e13b573ae2a3162fd0d1", "lon": -77.04167366666667, "bike_id": "fa0b4a037a37e13b573ae2a3162fd0d1", "lat": 38.89938883333333}, {"fusion_lon": 0.0, "fusion_lat": 0.0, "rental_uris": {"android": "https://dc.lft.to/lastmile_qr_scan", "ios": "https://dc.lft.to/lastmile_qr_scan"}, "is_disabled": 0, "type": "electric_scooter", "is_reserved": 0, "name": "78427551e9a24d761488a5adbc149451", "lon": -76.927487, "bike_id": "78427551e9a24d761488a5adbc149451", "lat": 38.898453833333335}, {"fusion_lon": 0.0, "fusion_lat": 0.0, "rental_uris": {"android": "https://dc.lft.to/lastmile_qr_scan", "ios": "https://dc.lft.to/lastmile_qr_scan"}, "is_disabled": 0, "type": "electric_scooter", "is_reserved": 0, "name": "cbae79324b57339fa9c0757b810f1c7b", "lon": -77.02214366666666, "bike_id": "cbae79324b57339fa9c0757b810f1c7b", "lat": 38.8960015}, {"fusion_lon": 0.0, "fusion_lat": 0.0, "rental_uris": {"android": "https://dc.lft.to/lastmile_qr_scan", "ios": "https://dc.lft.to/lastmile_qr_scan"}, "is_disabled": 0, "type": "electric_scooter", "is_reserved": 0, "name": "e67bd4f8dcde44cddc300ceda5e8de46", "lon": -77.04144516666666, "bike_id": "e67bd4f8dcde44cddc300ceda5e8de46", "lat": 38.923499166666666}, {"fusion_lon": 0.0, "fusion_lat": 0.0, "rental_uris": {"android": "https://dc.lft.to/lastmile_qr_scan", "ios": "https://dc.lft.to/lastmile_qr_scan"}, "is_disabled": 0, "type": "electric_scooter", "is_reserved": 0, "name": "1a6000dfd51667a638c361442c680c91", "lon": -77.03432183333334, "bike_id": "1a6000dfd51667a638c361442c680c91", "lat": 38.90081083333333}, {"fusion_lon": 0.0, "fusion_lat": 0.0, "rental_uris": {"android": "https://dc.lft.to/lastmile_qr_scan", "ios": "https://dc.lft.to/lastmile_qr_scan"}, "is_disabled": 0, "type": "electric_scooter", "is_reserved": 0, "name": "c5caace908e066f6d76c22ce3b618f30", "lon": -77.02404566666667, "bike_id": "c5caace908e066f6d76c22ce3b618f30", "lat": 38.941840166666665}, {"fusion_lon": 0.0, "fusion_lat": 0.0, "rental_uris": {"android": "https://dc.lft.to/lastmile_qr_scan", "ios": "https://dc.lft.to/lastmile_qr_scan"}, "is_disabled": 0, "type": "electric_bike", "is_reserved": 0, "name": "0851705e94b7898b17d806ec27ec76ff", "lon": -77.14872183333334, "bike_id": "0851705e94b7898b17d806ec27ec76ff", "lat": 38.87736266666667}, {"fusion_lon": 0.0, "fusion_lat": 0.0, "rental_uris": {"android": "https://dc.lft.to/lastmile_qr_scan", "ios": "https://dc.lft.to/lastmile_qr_scan"}, "is_disabled": 0, "type": "electric_bike", "is_reserved": 0, "name": "6bc20ab179368eb30d6f839ab1b9e7dd", "lon": -76.9731625, "bike_id": "6bc20ab179368eb30d6f839ab1b9e7dd", "lat": 38.86517283333333}, {"fusion_lon": 0.0, "fusion_lat": 0.0, "rental_uris": {"android": "https://dc.lft.to/lastmile_qr_scan", "ios": "https://dc.lft.to/lastmile_qr_scan"}, "is_disabled": 0, "type": "electric_scooter", "is_reserved": 0, "name": "e3858e626d2b86e15b78dcf350f19447", "lon": -77.03246733333333, "bike_id": "e3858e626d2b86e15b78dcf350f19447", "lat": 38.929174333333336}, {"fusion_lon": 0.0, "fusion_lat": 0.0, "rental_uris": {"android": "https://dc.lft.to/lastmile_qr_scan", "ios": "https://dc.lft.to/lastmile_qr_scan"}, "is_disabled": 0, "type": "electric_scooter", "is_reserved": 0, "name": "db088065f5fe330d98c8281bd3406484", "lon": -77.01698283333333, "bike_id": "db088065f5fe330d98c8281bd3406484", "lat": 38.907577833333335}, {"fusion_lon": 0.0, "fusion_lat": 0.0, "rental_uris": {"android": "https://dc.lft.to/lastmile_qr_scan", "ios": "https://dc.lft.to/lastmile_qr_scan"}, "is_disabled": 0, "type": "electric_bike", "is_reserved": 0, "name": "ad8ae78dd7d68905b368d62e1f0bdbd3", "lon": -77.01201083333333, "bike_id": "ad8ae78dd7d68905b368d62e1f0bdbd3", "lat": 38.95072733333333}, {"fusion_lon": 0.0, "fusion_lat": 0.0, "rental_uris": {"android": "https://dc.lft.to/lastmile_qr_scan", "ios": "https://dc.lft.to/lastmile_qr_scan"}, "is_disabled": 0, "type": "electric_scooter", "is_reserved": 0, "name": "e34ab4b1cab6050f10fa73faa44c28f2", "lon": -77.033598, "bike_id": "e34ab4b1cab6050f10fa73faa44c28f2", "lat": 38.90604016666666}, {"fusion_lon": 0.0, "fusion_lat": 0.0, "rental_uris": {"android": "https://dc.lft.to/lastmile_qr_scan", "ios": "https://dc.lft.to/lastmile_qr_scan"}, "is_disabled": 0, "type": "electric_scooter", "is_reserved": 0, "name": "57a6d58c04e78a1464388915bf483ad7", "lon": -77.0751315, "bike_id": "57a6d58c04e78a1464388915bf483ad7", "lat": 38.911717333333335}, {"fusion_lon": 0.0, "fusion_lat": 0.0, "rental_uris": {"android": "https://dc.lft.to/lastmile_qr_scan", "ios": "https://dc.lft.to/lastmile_qr_scan"}, "is_disabled": 0, "type": "electric_scooter", "is_reserved": 0, "name": "0223dc25d25a0d71ca52a6826e54ae5a", "lon": -77.033467, "bike_id": "0223dc25d25a0d71ca52a6826e54ae5a", "lat": 38.8848085}, {"fusion_lon": 0.0, "fusion_lat": 0.0, "rental_uris": {"android": "https://dc.lft.to/lastmile_qr_scan", "ios": "https://dc.lft.to/lastmile_qr_scan"}, "is_disabled": 0, "type": "electric_scooter", "is_reserved": 0, "name": "e59127b7c7a9bc535504f1fabe999c63", "lon": -77.01934233333333, "bike_id": "e59127b7c7a9bc535504f1fabe999c63", "lat": 38.95644716666666}, {"fusion_lon": 0.0, "fusion_lat": 0.0, "rental_uris": {"android": "https://dc.lft.to/lastmile_qr_scan", "ios": "https://dc.lft.to/lastmile_qr_scan"}, "is_disabled": 0, "type": "electric_scooter", "is_reserved": 0, "name": "86dec8908ef0b25a30a5ce384fef8036", "lon": -77.04588033333333, "bike_id": "86dec8908ef0b25a30a5ce384fef8036", "lat": 38.916120166666666}, {"fusion_lon": 0.0, "fusion_lat": 0.0, "rental_uris": {"android": "https://dc.lft.to/lastmile_qr_scan", "ios": "https://dc.lft.to/lastmile_qr_scan"}, "is_disabled": 0, "type": "electric_scooter", "is_reserved": 0, "name": "0a333023625ee27642104938cb4f1063", "lon": -77.00916416666666, "bike_id": "0a333023625ee27642104938cb4f1063", "lat": 38.89554866666667}, {"fusion_lon": 0.0, "fusion_lat": 0.0, "rental_uris": {"android": "https://dc.lft.to/lastmile_qr_scan", "ios": "https://dc.lft.to/lastmile_qr_scan"}, "is_disabled": 0, "type": "electric_scooter", "is_reserved": 0, "name": "3712aa3989e53a49891f96e9b79343df", "lon": -77.00332333333333, "bike_id": "3712aa3989e53a49891f96e9b79343df", "lat": 38.89363783333334}, {"fusion_lon": 0.0, "fusion_lat": 0.0, "rental_uris": {"android": "https://dc.lft.to/lastmile_qr_scan", "ios": "https://dc.lft.to/lastmile_qr_scan"}, "is_disabled": 0, "type": "electric_scooter", "is_reserved": 0, "name": "eb60993b57e2def6e1f91ac201fdfa2b", "lon": -76.94886966666667, "bike_id": "eb60993b57e2def6e1f91ac201fdfa2b", "lat": 38.89510816666667}, {"fusion_lon": 0.0, "fusion_lat": 0.0, "rental_uris": {"android": "https://dc.lft.to/lastmile_qr_scan", "ios": "https://dc.lft.to/lastmile_qr_scan"}, "is_disabled": 0, "type": "electric_scooter", "is_reserved": 0, "name": "51e749ba3943a60ebcfd61196086c293", "lon": -77.05473116666667, "bike_id": "51e749ba3943a60ebcfd61196086c293", "lat": 38.893915666666665}, {"fusion_lon": 0.0, "fusion_lat": 0.0, "rental_uris": {"android": "https://dc.lft.to/lastmile_qr_scan", "ios": "https://dc.lft.to/lastmile_qr_scan"}, "is_disabled": 0, "type": "electric_scooter", "is_reserved": 0, "name": "b1a7a7f2efb78475f7a40f0c89ba261e", "lon": -76.99337033333333, "bike_id": "b1a7a7f2efb78475f7a40f0c89ba261e", "lat": 38.90053833333333}, {"fusion_lon": 0.0, "fusion_lat": 0.0, "rental_uris": {"android": "https://dc.lft.to/lastmile_qr_scan", "ios": "https://dc.lft.to/lastmile_qr_scan"}, "is_disabled": 0, "type": "electric_scooter", "is_reserved": 0, "name": "79c54549fc60a9454db82b021c383e8b", "lon": -77.027674, "bike_id": "79c54549fc60a9454db82b021c383e8b", "lat": 38.963867}, {"fusion_lon": 0.0, "fusion_lat": 0.0, "rental_uris": {"android": "https://dc.lft.to/lastmile_qr_scan", "ios": "https://dc.lft.to/lastmile_qr_scan"}, "is_disabled": 0, "type": "electric_scooter", "is_reserved": 0, "name": "6af37609e0d7a669439dabebd0a762af", "lon": -77.01274816666667, "bike_id": "6af37609e0d7a669439dabebd0a762af", "lat": 38.956515333333336}, {"fusion_lon": 0.0, "fusion_lat": 0.0, "rental_uris": {"android": "https://dc.lft.to/lastmile_qr_scan", "ios": "https://dc.lft.to/lastmile_qr_scan"}, "is_disabled": 0, "type": "electric_scooter", "is_reserved": 0, "name": "479a0babdcb4065ab282ceba31f63d64", "lon": -77.02121966666667, "bike_id": "479a0babdcb4065ab282ceba31f63d64", "lat": 38.923673666666666}, {"fusion_lon": 0.0, "fusion_lat": 0.0, "rental_uris": {"android": "https://dc.lft.to/lastmile_qr_scan", "ios": "https://dc.lft.to/lastmile_qr_scan"}, "is_disabled": 0, "type": "electric_scooter", "is_reserved": 0, "name": "4e7538a928f4e6ac9d53e64a8e2e55e3", "lon": -77.03272316666667, "bike_id": "4e7538a928f4e6ac9d53e64a8e2e55e3", "lat": 38.937313833333334}, {"fusion_lon": 0.0, "fusion_lat": 0.0, "rental_uris": {"android": "https://dc.lft.to/lastmile_qr_scan", "ios": "https://dc.lft.to/lastmile_qr_scan"}, "is_disabled": 0, "type": "electric_scooter", "is_reserved": 0, "name": "40d91a744315da318205bd7790daa812", "lon": -76.9250465, "bike_id": "40d91a744315da318205bd7790daa812", "lat": 38.88601883333333}, {"fusion_lon": 0.0, "fusion_lat": 0.0, "rental_uris": {"android": "https://dc.lft.to/lastmile_qr_scan", "ios": "https://dc.lft.to/lastmile_qr_scan"}, "is_disabled": 0, "type": "electric_scooter", "is_reserved": 0, "name": "d12a7c3d7092090726ee6171c320f8f6", "lon": -77.05696183333333, "bike_id": "d12a7c3d7092090726ee6171c320f8f6", "lat": 38.91670833333333}, {"fusion_lon": 0.0, "fusion_lat": 0.0, "rental_uris": {"android": "https://dc.lft.to/lastmile_qr_scan", "ios": "https://dc.lft.to/lastmile_qr_scan"}, "is_disabled": 0, "type": "electric_scooter", "is_reserved": 0, "name": "7019cf7c331fab61d8749bc76ab6881e", "lon": -77.02116916666667, "bike_id": "7019cf7c331fab61d8749bc76ab6881e", "lat": 38.940641}, {"fusion_lon": 0.0, "fusion_lat": 0.0, "rental_uris": {"android": "https://dc.lft.to/lastmile_qr_scan", "ios": "https://dc.lft.to/lastmile_qr_scan"}, "is_disabled": 0, "type": "electric_scooter", "is_reserved": 0, "name": "27406cddb966c4574fca4b0fab08015e", "lon": -77.0637645, "bike_id": "27406cddb966c4574fca4b0fab08015e", "lat": 38.90839033333334}, {"fusion_lon": 0.0, "fusion_lat": 0.0, "rental_uris": {"android": "https://dc.lft.to/lastmile_qr_scan", "ios": "https://dc.lft.to/lastmile_qr_scan"}, "is_disabled": 0, "type": "electric_scooter", "is_reserved": 0, "name": "fb125b6c1f134eef5d43be5f7806009b", "lon": -77.024114, "bike_id": "fb125b6c1f134eef5d43be5f7806009b", "lat": 38.895133333333334}, {"fusion_lon": 0.0, "fusion_lat": 0.0, "rental_uris": {"android": "https://dc.lft.to/lastmile_qr_scan", "ios": "https://dc.lft.to/lastmile_qr_scan"}, "is_disabled": 0, "type": "electric_bike", "is_reserved": 0, "name": "329e2eb8a908e9c8224ed9fc4d8b7904", "lon": -76.93231383333334, "bike_id": "329e2eb8a908e9c8224ed9fc4d8b7904", "lat": 38.882807}, {"fusion_lon": 0.0, "fusion_lat": 0.0, "rental_uris": {"android": "https://dc.lft.to/lastmile_qr_scan", "ios": "https://dc.lft.to/lastmile_qr_scan"}, "is_disabled": 0, "type": "electric_scooter", "is_reserved": 0, "name": "e1301aa76677c2211b28aaaaabd31486", "lon": -77.0526145, "bike_id": "e1301aa76677c2211b28aaaaabd31486", "lat": 38.903313}, {"fusion_lon": 0.0, "fusion_lat": 0.0, "rental_uris": {"android": "https://dc.lft.to/lastmile_qr_scan", "ios": "https://dc.lft.to/lastmile_qr_scan"}, "is_disabled": 0, "type": "electric_scooter", "is_reserved": 0, "name": "dcb552acab2ef1c8d46dfc0c1b3826b6", "lon": -77.03963583333334, "bike_id": "dcb552acab2ef1c8d46dfc0c1b3826b6", "lat": 38.90121516666667}, {"fusion_lon": 0.0, "fusion_lat": 0.0, "rental_uris": {"android": "https://dc.lft.to/lastmile_qr_scan", "ios": "https://dc.lft.to/lastmile_qr_scan"}, "is_disabled": 0, "type": "electric_scooter", "is_reserved": 0, "name": "84698859584aec2f67504decab4b3cc1", "lon": -77.04162066666666, "bike_id": "84698859584aec2f67504decab4b3cc1", "lat": 38.91909866666666}, {"fusion_lon": 0.0, "fusion_lat": 0.0, "rental_uris": {"android": "https://dc.lft.to/lastmile_qr_scan", "ios": "https://dc.lft.to/lastmile_qr_scan"}, "is_disabled": 0, "type": "electric_scooter", "is_reserved": 0, "name": "610050870fb23e00ae06462b5b2e7f83", "lon": -77.029855, "bike_id": "610050870fb23e00ae06462b5b2e7f83", "lat": 38.9471375}, {"fusion_lon": 0.0, "fusion_lat": 0.0, "rental_uris": {"android": "https://dc.lft.to/lastmile_qr_scan", "ios": "https://dc.lft.to/lastmile_qr_scan"}, "is_disabled": 0, "type": "electric_scooter", "is_reserved": 0, "name": "b7cbd0ce792e2f61eb61b78448348de8", "lon": -77.02966933333333, "bike_id": "b7cbd0ce792e2f61eb61b78448348de8", "lat": 38.912437}, {"fusion_lon": 0.0, "fusion_lat": 0.0, "rental_uris": {"android": "https://dc.lft.to/lastmile_qr_scan", "ios": "https://dc.lft.to/lastmile_qr_scan"}, "is_disabled": 0, "type": "electric_bike", "is_reserved": 0, "name": "530907bc375ca14c6412f45da79f778e", "lon": -76.95695666666667, "bike_id": "530907bc375ca14c6412f45da79f778e", "lat": 38.88881583333333}, {"fusion_lon": 0.0, "fusion_lat": 0.0, "rental_uris": {"android": "https://dc.lft.to/lastmile_qr_scan", "ios": "https://dc.lft.to/lastmile_qr_scan"}, "is_disabled": 0, "type": "electric_scooter", "is_reserved": 0, "name": "870728241c0deb1e5c71d1dc05871047", "lon": -77.02495133333333, "bike_id": "870728241c0deb1e5c71d1dc05871047", "lat": 38.91786166666667}, {"fusion_lon": 0.0, "fusion_lat": 0.0, "rental_uris": {"android": "https://dc.lft.to/lastmile_qr_scan", "ios": "https://dc.lft.to/lastmile_qr_scan"}, "is_disabled": 0, "type": "electric_scooter", "is_reserved": 0, "name": "f9c3a325570e950b19d42ff62f638f6a", "lon": -77.026926, "bike_id": "f9c3a325570e950b19d42ff62f638f6a", "lat": 38.925632}, {"fusion_lon": 0.0, "fusion_lat": 0.0, "rental_uris": {"android": "https://dc.lft.to/lastmile_qr_scan", "ios": "https://dc.lft.to/lastmile_qr_scan"}, "is_disabled": 0, "type": "electric_scooter", "is_reserved": 0, "name": "dbfc14df4e9b77e1a0c53b730dd2db8b", "lon": -77.03004533333333, "bike_id": "dbfc14df4e9b77e1a0c53b730dd2db8b", "lat": 38.9049465}, {"fusion_lon": 0.0, "fusion_lat": 0.0, "rental_uris": {"android": "https://dc.lft.to/lastmile_qr_scan", "ios": "https://dc.lft.to/lastmile_qr_scan"}, "is_disabled": 0, "type": "electric_scooter", "is_reserved": 0, "name": "0408f10ac7114e38695d19bd38464868", "lon": -77.04716083333334, "bike_id": "0408f10ac7114e38695d19bd38464868", "lat": 38.899574333333334}, {"fusion_lon": 0.0, "fusion_lat": 0.0, "rental_uris": {"android": "https://dc.lft.to/lastmile_qr_scan", "ios": "https://dc.lft.to/lastmile_qr_scan"}, "is_disabled": 0, "type": "electric_scooter", "is_reserved": 0, "name": "45849c4f572901dfa3c5a8577acf5f3a", "lon": -77.01511666666667, "bike_id": "45849c4f572901dfa3c5a8577acf5f3a", "lat": 38.91048683333333}, {"fusion_lon": 0.0, "fusion_lat": 0.0, "rental_uris": {"android": "https://dc.lft.to/lastmile_qr_scan", "ios": "https://dc.lft.to/lastmile_qr_scan"}, "is_disabled": 0, "type": "electric_bike", "is_reserved": 0, "name": "ffce4c76f62a971f32bd762f6ac2c093", "lon": -76.97956633333334, "bike_id": "ffce4c76f62a971f32bd762f6ac2c093", "lat": 38.920378666666664}, {"fusion_lon": 0.0, "fusion_lat": 0.0, "rental_uris": {"android": "https://dc.lft.to/lastmile_qr_scan", "ios": "https://dc.lft.to/lastmile_qr_scan"}, "is_disabled": 0, "type": "electric_scooter", "is_reserved": 0, "name": "b10aa50bd5f39c7f8f340216feb9378c", "lon": -77.04123566666667, "bike_id": "b10aa50bd5f39c7f8f340216feb9378c", "lat": 38.92117116666667}, {"fusion_lon": 0.0, "fusion_lat": 0.0, "rental_uris": {"android": "https://dc.lft.to/lastmile_qr_scan", "ios": "https://dc.lft.to/lastmile_qr_scan"}, "is_disabled": 0, "type": "electric_bike", "is_reserved": 0, "name": "bf40e485d40788d74d571bf35c0badf3", "lon": -77.00375683333333, "bike_id": "bf40e485d40788d74d571bf35c0badf3", "lat": 38.83609216666667}, {"fusion_lon": 0.0, "fusion_lat": 0.0, "rental_uris": {"android": "https://dc.lft.to/lastmile_qr_scan", "ios": "https://dc.lft.to/lastmile_qr_scan"}, "is_disabled": 0, "type": "electric_scooter", "is_reserved": 0, "name": "68502d6efbf3c6338b536afa7293a47c", "lon": -77.02750816666666, "bike_id": "68502d6efbf3c6338b536afa7293a47c", "lat": 38.9664755}, {"fusion_lon": 0.0, "fusion_lat": 0.0, "rental_uris": {"android": "https://dc.lft.to/lastmile_qr_scan", "ios": "https://dc.lft.to/lastmile_qr_scan"}, "is_disabled": 0, "type": "electric_scooter", "is_reserved": 0, "name": "413e509923c6361d70e3e2a55d40ab3a", "lon": -77.0423665, "bike_id": "413e509923c6361d70e3e2a55d40ab3a", "lat": 38.92153116666667}, {"fusion_lon": 0.0, "fusion_lat": 0.0, "rental_uris": {"android": "https://dc.lft.to/lastmile_qr_scan", "ios": "https://dc.lft.to/lastmile_qr_scan"}, "is_disabled": 0, "type": "electric_scooter", "is_reserved": 0, "name": "3aa83b8f43ee083e9e29132072aac3b5", "lon": -77.00302733333334, "bike_id": "3aa83b8f43ee083e9e29132072aac3b5", "lat": 38.83377683333333}, {"fusion_lon": 0.0, "fusion_lat": 0.0, "rental_uris": {"android": "https://dc.lft.to/lastmile_qr_scan", "ios": "https://dc.lft.to/lastmile_qr_scan"}, "is_disabled": 0, "type": "electric_bike", "is_reserved": 0, "name": "dda145b0a65eb564917f08d095f8b011", "lon": -77.0216455, "bike_id": "dda145b0a65eb564917f08d095f8b011", "lat": 38.895629}, {"fusion_lon": 0.0, "fusion_lat": 0.0, "rental_uris": {"android": "https://dc.lft.to/lastmile_qr_scan", "ios": "https://dc.lft.to/lastmile_qr_scan"}, "is_disabled": 0, "type": "electric_scooter", "is_reserved": 0, "name": "f9ee6c1e3dad86eb5706623735e6e81f", "lon": -77.02046583333333, "bike_id": "f9ee6c1e3dad86eb5706623735e6e81f", "lat": 38.92768683333333}, {"fusion_lon": 0.0, "fusion_lat": 0.0, "rental_uris": {"android": "https://dc.lft.to/lastmile_qr_scan", "ios": "https://dc.lft.to/lastmile_qr_scan"}, "is_disabled": 0, "type": "electric_scooter", "is_reserved": 0, "name": "0aa5f2f3e2e101a05e0d3b8cdf0b5770", "lon": -77.02808066666667, "bike_id": "0aa5f2f3e2e101a05e0d3b8cdf0b5770", "lat": 38.90702566666667}, {"fusion_lon": 0.0, "fusion_lat": 0.0, "rental_uris": {"android": "https://dc.lft.to/lastmile_qr_scan", "ios": "https://dc.lft.to/lastmile_qr_scan"}, "is_disabled": 0, "type": "electric_scooter", "is_reserved": 0, "name": "a87d850d58d058299313af00e5458147", "lon": -77.01908183333333, "bike_id": "a87d850d58d058299313af00e5458147", "lat": 38.9236995}, {"fusion_lon": 0.0, "fusion_lat": 0.0, "rental_uris": {"android": "https://dc.lft.to/lastmile_qr_scan", "ios": "https://dc.lft.to/lastmile_qr_scan"}, "is_disabled": 0, "type": "electric_scooter", "is_reserved": 0, "name": "2d1a5b5ba251a7ace3376275564fd24b", "lon": -77.03291516666667, "bike_id": "2d1a5b5ba251a7ace3376275564fd24b", "lat": 38.928514}, {"fusion_lon": 0.0, "fusion_lat": 0.0, "rental_uris": {"android": "https://dc.lft.to/lastmile_qr_scan", "ios": "https://dc.lft.to/lastmile_qr_scan"}, "is_disabled": 0, "type": "electric_bike", "is_reserved": 0, "name": "2c2a973b955feacd89de1727430b340b", "lon": -77.12688616666667, "bike_id": "2c2a973b955feacd89de1727430b340b", "lat": 38.8142635}, {"fusion_lon": 0.0, "fusion_lat": 0.0, "rental_uris": {"android": "https://dc.lft.to/lastmile_qr_scan", "ios": "https://dc.lft.to/lastmile_qr_scan"}, "is_disabled": 0, "type": "electric_scooter", "is_reserved": 0, "name": "8f46e11b72c2ae786b86a6a260246583", "lon": -77.04479466666666, "bike_id": "8f46e11b72c2ae786b86a6a260246583", "lat": 38.91081}, {"fusion_lon": 0.0, "fusion_lat": 0.0, "rental_uris": {"android": "https://dc.lft.to/lastmile_qr_scan", "ios": "https://dc.lft.to/lastmile_qr_scan"}, "is_disabled": 0, "type": "electric_scooter", "is_reserved": 0, "name": "73332b38cd887c4baa3ff0102a8d5e07", "lon": -77.05800133333334, "bike_id": "73332b38cd887c4baa3ff0102a8d5e07", "lat": 38.90264666666667}, {"fusion_lon": 0.0, "fusion_lat": 0.0, "rental_uris": {"android": "https://dc.lft.to/lastmile_qr_scan", "ios": "https://dc.lft.to/lastmile_qr_scan"}, "is_disabled": 0, "type": "electric_scooter", "is_reserved": 0, "name": "cd7850eb18965587058b1428e381bafb", "lon": -77.00332566666667, "bike_id": "cd7850eb18965587058b1428e381bafb", "lat": 38.893622666666666}, {"fusion_lon": 0.0, "fusion_lat": 0.0, "rental_uris": {"android": "https://dc.lft.to/lastmile_qr_scan", "ios": "https://dc.lft.to/lastmile_qr_scan"}, "is_disabled": 0, "type": "electric_scooter", "is_reserved": 0, "name": "1ed8a13e7e6b30e073b8f1434ca2b281", "lon": -77.021278, "bike_id": "1ed8a13e7e6b30e073b8f1434ca2b281", "lat": 38.90229866666667}, {"fusion_lon": 0.0, "fusion_lat": 0.0, "rental_uris": {"android": "https://dc.lft.to/lastmile_qr_scan", "ios": "https://dc.lft.to/lastmile_qr_scan"}, "is_disabled": 0, "type": "electric_scooter", "is_reserved": 0, "name": "5a2425d89d154c5c91dbca95b213c9f2", "lon": -77.002286, "bike_id": "5a2425d89d154c5c91dbca95b213c9f2", "lat": 38.88232516666667}, {"fusion_lon": 0.0, "fusion_lat": 0.0, "rental_uris": {"android": "https://dc.lft.to/lastmile_qr_scan", "ios": "https://dc.lft.to/lastmile_qr_scan"}, "is_disabled": 0, "type": "electric_scooter", "is_reserved": 0, "name": "afbca06fc9c0d831b20b46dd3c692f45", "lon": -77.04495883333334, "bike_id": "afbca06fc9c0d831b20b46dd3c692f45", "lat": 38.8994285}, {"fusion_lon": 0.0, "fusion_lat": 0.0, "rental_uris": {"android": "https://dc.lft.to/lastmile_qr_scan", "ios": "https://dc.lft.to/lastmile_qr_scan"}, "is_disabled": 0, "type": "electric_scooter", "is_reserved": 0, "name": "e47c508575cf6845128b0bcc00f8e904", "lon": -77.01846866666666, "bike_id": "e47c508575cf6845128b0bcc00f8e904", "lat": 38.909682833333335}, {"fusion_lon": 0.0, "fusion_lat": 0.0, "rental_uris": {"android": "https://dc.lft.to/lastmile_qr_scan", "ios": "https://dc.lft.to/lastmile_qr_scan"}, "is_disabled": 0, "type": "electric_scooter", "is_reserved": 0, "name": "459de755d670a55252ecb92160249672", "lon": -77.033745, "bike_id": "459de755d670a55252ecb92160249672", "lat": 38.922390666666665}, {"fusion_lon": 0.0, "fusion_lat": 0.0, "rental_uris": {"android": "https://dc.lft.to/lastmile_qr_scan", "ios": "https://dc.lft.to/lastmile_qr_scan"}, "is_disabled": 0, "type": "electric_scooter", "is_reserved": 0, "name": "4745bc3293a2be65eb6f8e2088c49a51", "lon": -76.92929666666667, "bike_id": "4745bc3293a2be65eb6f8e2088c49a51", "lat": 38.90100983333333}, {"fusion_lon": 0.0, "fusion_lat": 0.0, "rental_uris": {"android": "https://dc.lft.to/lastmile_qr_scan", "ios": "https://dc.lft.to/lastmile_qr_scan"}, "is_disabled": 0, "type": "electric_scooter", "is_reserved": 0, "name": "315900a5bb49ae351b3344cdcfbb3dc6", "lon": -77.0089565, "bike_id": "315900a5bb49ae351b3344cdcfbb3dc6", "lat": 38.92329733333333}, {"fusion_lon": 0.0, "fusion_lat": 0.0, "rental_uris": {"android": "https://dc.lft.to/lastmile_qr_scan", "ios": "https://dc.lft.to/lastmile_qr_scan"}, "is_disabled": 0, "type": "electric_scooter", "is_reserved": 0, "name": "790b9660787c08980272f6812f87e89d", "lon": -77.05026283333333, "bike_id": "790b9660787c08980272f6812f87e89d", "lat": 38.896955}, {"fusion_lon": 0.0, "fusion_lat": 0.0, "rental_uris": {"android": "https://dc.lft.to/lastmile_qr_scan", "ios": "https://dc.lft.to/lastmile_qr_scan"}, "is_disabled": 0, "type": "electric_scooter", "is_reserved": 0, "name": "4139d24466e661f7273bd4c911515799", "lon": -77.01841316666666, "bike_id": "4139d24466e661f7273bd4c911515799", "lat": 38.911919}, {"fusion_lon": 0.0, "fusion_lat": 0.0, "rental_uris": {"android": "https://dc.lft.to/lastmile_qr_scan", "ios": "https://dc.lft.to/lastmile_qr_scan"}, "is_disabled": 0, "type": "electric_scooter", "is_reserved": 0, "name": "34e5e53aa29896e3c25af0f875ca219b", "lon": -77.02006, "bike_id": "34e5e53aa29896e3c25af0f875ca219b", "lat": 38.885557166666665}, {"fusion_lon": 0.0, "fusion_lat": 0.0, "rental_uris": {"android": "https://dc.lft.to/lastmile_qr_scan", "ios": "https://dc.lft.to/lastmile_qr_scan"}, "is_disabled": 0, "type": "electric_scooter", "is_reserved": 0, "name": "1d6de418932202925a5dd53149e10cb9", "lon": -77.048666, "bike_id": "1d6de418932202925a5dd53149e10cb9", "lat": 38.89224633333333}, {"fusion_lon": 0.0, "fusion_lat": 0.0, "rental_uris": {"android": "https://dc.lft.to/lastmile_qr_scan", "ios": "https://dc.lft.to/lastmile_qr_scan"}, "is_disabled": 0, "type": "electric_scooter", "is_reserved": 0, "name": "78730b05ed3597c87cdcab214ae81667", "lon": -76.92945733333333, "bike_id": "78730b05ed3597c87cdcab214ae81667", "lat": 38.90175766666667}, {"fusion_lon": 0.0, "fusion_lat": 0.0, "rental_uris": {"android": "https://dc.lft.to/lastmile_qr_scan", "ios": "https://dc.lft.to/lastmile_qr_scan"}, "is_disabled": 0, "type": "electric_scooter", "is_reserved": 0, "name": "8e10f5b74a84bc80313561b1d0efeed0", "lon": -77.02217316666666, "bike_id": "8e10f5b74a84bc80313561b1d0efeed0", "lat": 38.92467366666666}, {"fusion_lon": 0.0, "fusion_lat": 0.0, "rental_uris": {"android": "https://dc.lft.to/lastmile_qr_scan", "ios": "https://dc.lft.to/lastmile_qr_scan"}, "is_disabled": 0, "type": "electric_scooter", "is_reserved": 0, "name": "d72a78e948596b0d8b053352d8cf97a0", "lon": -77.02151733333334, "bike_id": "d72a78e948596b0d8b053352d8cf97a0", "lat": 38.924518166666665}, {"fusion_lon": 0.0, "fusion_lat": 0.0, "rental_uris": {"android": "https://dc.lft.to/lastmile_qr_scan", "ios": "https://dc.lft.to/lastmile_qr_scan"}, "is_disabled": 0, "type": "electric_scooter", "is_reserved": 0, "name": "263bfafd3da53462188e3dec7a619bb7", "lon": -77.0344685, "bike_id": "263bfafd3da53462188e3dec7a619bb7", "lat": 38.91007183333333}, {"fusion_lon": 0.0, "fusion_lat": 0.0, "rental_uris": {"android": "https://dc.lft.to/lastmile_qr_scan", "ios": "https://dc.lft.to/lastmile_qr_scan"}, "is_disabled": 0, "type": "electric_scooter", "is_reserved": 0, "name": "83454ba1fc427e8caf09dda7417e8184", "lon": -77.03416416666667, "bike_id": "83454ba1fc427e8caf09dda7417e8184", "lat": 38.920367}, {"fusion_lon": 0.0, "fusion_lat": 0.0, "rental_uris": {"android": "https://dc.lft.to/lastmile_qr_scan", "ios": "https://dc.lft.to/lastmile_qr_scan"}, "is_disabled": 0, "type": "electric_scooter", "is_reserved": 0, "name": "22e75e771019c4cc4b4a80d82229034b", "lon": -77.01057866666666, "bike_id": "22e75e771019c4cc4b4a80d82229034b", "lat": 38.877346}, {"fusion_lon": 0.0, "fusion_lat": 0.0, "rental_uris": {"android": "https://dc.lft.to/lastmile_qr_scan", "ios": "https://dc.lft.to/lastmile_qr_scan"}, "is_disabled": 0, "type": "electric_scooter", "is_reserved": 0, "name": "62162ea744847922d587d2f24dd6f09c", "lon": -77.026957, "bike_id": "62162ea744847922d587d2f24dd6f09c", "lat": 38.913534}, {"fusion_lon": 0.0, "fusion_lat": 0.0, "rental_uris": {"android": "https://dc.lft.to/lastmile_qr_scan", "ios": "https://dc.lft.to/lastmile_qr_scan"}, "is_disabled": 0, "type": "electric_scooter", "is_reserved": 0, "name": "5c2f18c3d1746c4deacdd314d24969d0", "lon": -77.03455816666667, "bike_id": "5c2f18c3d1746c4deacdd314d24969d0", "lat": 38.909450166666666}, {"fusion_lon": 0.0, "fusion_lat": 0.0, "rental_uris": {"android": "https://dc.lft.to/lastmile_qr_scan", "ios": "https://dc.lft.to/lastmile_qr_scan"}, "is_disabled": 0, "type": "electric_scooter", "is_reserved": 0, "name": "7346947c641ca5c6e9daad824643dbec", "lon": -77.03983166666667, "bike_id": "7346947c641ca5c6e9daad824643dbec", "lat": 38.90602066666667}, {"fusion_lon": 0.0, "fusion_lat": 0.0, "rental_uris": {"android": "https://dc.lft.to/lastmile_qr_scan", "ios": "https://dc.lft.to/lastmile_qr_scan"}, "is_disabled": 0, "type": "electric_bike", "is_reserved": 0, "name": "fb66baf91b9481145a925ec900c31ddf", "lon": -76.951349, "bike_id": "fb66baf91b9481145a925ec900c31ddf", "lat": 39.0842525}, {"fusion_lon": 0.0, "fusion_lat": 0.0, "rental_uris": {"android": "https://dc.lft.to/lastmile_qr_scan", "ios": "https://dc.lft.to/lastmile_qr_scan"}, "is_disabled": 0, "type": "electric_scooter", "is_reserved": 0, "name": "4f22766e84b33c678da619e85de02a12", "lon": -77.04294516666667, "bike_id": "4f22766e84b33c678da619e85de02a12", "lat": 38.92259983333334}, {"fusion_lon": 0.0, "fusion_lat": 0.0, "rental_uris": {"android": "https://dc.lft.to/lastmile_qr_scan", "ios": "https://dc.lft.to/lastmile_qr_scan"}, "is_disabled": 0, "type": "electric_scooter", "is_reserved": 0, "name": "0f5911d6f62d18c834308fe2aa245bbb", "lon": -76.93592716666667, "bike_id": "0f5911d6f62d18c834308fe2aa245bbb", "lat": 38.90944283333333}, {"fusion_lon": 0.0, "fusion_lat": 0.0, "rental_uris": {"android": "https://dc.lft.to/lastmile_qr_scan", "ios": "https://dc.lft.to/lastmile_qr_scan"}, "is_disabled": 0, "type": "electric_scooter", "is_reserved": 0, "name": "2adadc9bd4ad160904341ee28123c47a", "lon": -77.04617733333333, "bike_id": "2adadc9bd4ad160904341ee28123c47a", "lat": 38.91530783333333}, {"fusion_lon": 0.0, "fusion_lat": 0.0, "rental_uris": {"android": "https://dc.lft.to/lastmile_qr_scan", "ios": "https://dc.lft.to/lastmile_qr_scan"}, "is_disabled": 0, "type": "electric_bike", "is_reserved": 0, "name": "6cc70ebd413a4b8d80e953708873f811", "lon": -77.013039, "bike_id": "6cc70ebd413a4b8d80e953708873f811", "lat": 38.881276}, {"fusion_lon": 0.0, "fusion_lat": 0.0, "rental_uris": {"android": "https://dc.lft.to/lastmile_qr_scan", "ios": "https://dc.lft.to/lastmile_qr_scan"}, "is_disabled": 0, "type": "electric_scooter", "is_reserved": 0, "name": "2b4ff9b2f020518a22ac7056e7b92256", "lon": -77.04057716666667, "bike_id": "2b4ff9b2f020518a22ac7056e7b92256", "lat": 38.905050333333335}, {"fusion_lon": 0.0, "fusion_lat": 0.0, "rental_uris": {"android": "https://dc.lft.to/lastmile_qr_scan", "ios": "https://dc.lft.to/lastmile_qr_scan"}, "is_disabled": 0, "type": "electric_scooter", "is_reserved": 0, "name": "18ad0fa5667de1d8eaf5351c406061bd", "lon": -77.02110616666667, "bike_id": "18ad0fa5667de1d8eaf5351c406061bd", "lat": 38.929129833333334}, {"fusion_lon": 0.0, "fusion_lat": 0.0, "rental_uris": {"android": "https://dc.lft.to/lastmile_qr_scan", "ios": "https://dc.lft.to/lastmile_qr_scan"}, "is_disabled": 0, "type": "electric_scooter", "is_reserved": 0, "name": "93563ae8d0ca1135d97cb35c5aaebe83", "lon": -77.06363383333333, "bike_id": "93563ae8d0ca1135d97cb35c5aaebe83", "lat": 38.90808416666667}, {"fusion_lon": 0.0, "fusion_lat": 0.0, "rental_uris": {"android": "https://dc.lft.to/lastmile_qr_scan", "ios": "https://dc.lft.to/lastmile_qr_scan"}, "is_disabled": 0, "type": "electric_scooter", "is_reserved": 0, "name": "338d144f5ba1c2f609249eddb5a2e04c", "lon": -77.02496233333333, "bike_id": "338d144f5ba1c2f609249eddb5a2e04c", "lat": 38.9178625}, {"fusion_lon": 0.0, "fusion_lat": 0.0, "rental_uris": {"android": "https://dc.lft.to/lastmile_qr_scan", "ios": "https://dc.lft.to/lastmile_qr_scan"}, "is_disabled": 0, "type": "electric_scooter", "is_reserved": 0, "name": "e34ab59cbeee98e665b4050c971c5c6b", "lon": -77.0095175, "bike_id": "e34ab59cbeee98e665b4050c971c5c6b", "lat": 38.897788166666665}, {"fusion_lon": 0.0, "fusion_lat": 0.0, "rental_uris": {"android": "https://dc.lft.to/lastmile_qr_scan", "ios": "https://dc.lft.to/lastmile_qr_scan"}, "is_disabled": 0, "type": "electric_bike", "is_reserved": 0, "name": "db4ec44c6e6cb9fe9a8d3e4d18b62cbb", "lon": -77.02335066666667, "bike_id": "db4ec44c6e6cb9fe9a8d3e4d18b62cbb", "lat": 38.9667375}, {"fusion_lon": 0.0, "fusion_lat": 0.0, "rental_uris": {"android": "https://dc.lft.to/lastmile_qr_scan", "ios": "https://dc.lft.to/lastmile_qr_scan"}, "is_disabled": 0, "type": "electric_scooter", "is_reserved": 0, "name": "834ebb331d9ea16a8c859fe5413c4686", "lon": -77.0059455, "bike_id": "834ebb331d9ea16a8c859fe5413c4686", "lat": 38.87181233333333}, {"fusion_lon": 0.0, "fusion_lat": 0.0, "rental_uris": {"android": "https://dc.lft.to/lastmile_qr_scan", "ios": "https://dc.lft.to/lastmile_qr_scan"}, "is_disabled": 0, "type": "electric_scooter", "is_reserved": 0, "name": "cacecc5fdce33076455d32bcee9591b2", "lon": -76.98822133333333, "bike_id": "cacecc5fdce33076455d32bcee9591b2", "lat": 38.890741166666665}, {"fusion_lon": 0.0, "fusion_lat": 0.0, "rental_uris": {"android": "https://dc.lft.to/lastmile_qr_scan", "ios": "https://dc.lft.to/lastmile_qr_scan"}, "is_disabled": 0, "type": "electric_scooter", "is_reserved": 0, "name": "b59b21976473a6f76e0fcd12d192e52a", "lon": -77.05599833333333, "bike_id": "b59b21976473a6f76e0fcd12d192e52a", "lat": 38.93695233333333}, {"fusion_lon": 0.0, "fusion_lat": 0.0, "rental_uris": {"android": "https://dc.lft.to/lastmile_qr_scan", "ios": "https://dc.lft.to/lastmile_qr_scan"}, "is_disabled": 0, "type": "electric_scooter", "is_reserved": 0, "name": "53fa7a50be7c83764fdeb6941c296571", "lon": -76.939364, "bike_id": "53fa7a50be7c83764fdeb6941c296571", "lat": 38.90860083333333}, {"fusion_lon": 0.0, "fusion_lat": 0.0, "rental_uris": {"android": "https://dc.lft.to/lastmile_qr_scan", "ios": "https://dc.lft.to/lastmile_qr_scan"}, "is_disabled": 0, "type": "electric_scooter", "is_reserved": 0, "name": "1279e6dd8c7d76af04364915d9ac70b8", "lon": -77.02290966666666, "bike_id": "1279e6dd8c7d76af04364915d9ac70b8", "lat": 38.92658383333333}, {"fusion_lon": 0.0, "fusion_lat": 0.0, "rental_uris": {"android": "https://dc.lft.to/lastmile_qr_scan", "ios": "https://dc.lft.to/lastmile_qr_scan"}, "is_disabled": 0, "type": "electric_scooter", "is_reserved": 0, "name": "eed2962608b6da309992858268b55d8e", "lon": -77.0182685, "bike_id": "eed2962608b6da309992858268b55d8e", "lat": 38.9224275}, {"fusion_lon": 0.0, "fusion_lat": 0.0, "rental_uris": {"android": "https://dc.lft.to/lastmile_qr_scan", "ios": "https://dc.lft.to/lastmile_qr_scan"}, "is_disabled": 0, "type": "electric_scooter", "is_reserved": 0, "name": "d9cf5ded03b408d37f81f4cdb7c68820", "lon": -77.01888216666667, "bike_id": "d9cf5ded03b408d37f81f4cdb7c68820", "lat": 38.919525666666665}, {"fusion_lon": 0.0, "fusion_lat": 0.0, "rental_uris": {"android": "https://dc.lft.to/lastmile_qr_scan", "ios": "https://dc.lft.to/lastmile_qr_scan"}, "is_disabled": 0, "type": "electric_scooter", "is_reserved": 0, "name": "cfe748223f246ece6769a54ebd342d46", "lon": -77.03011, "bike_id": "cfe748223f246ece6769a54ebd342d46", "lat": 38.90853466666667}, {"fusion_lon": 0.0, "fusion_lat": 0.0, "rental_uris": {"android": "https://dc.lft.to/lastmile_qr_scan", "ios": "https://dc.lft.to/lastmile_qr_scan"}, "is_disabled": 0, "type": "electric_scooter", "is_reserved": 0, "name": "93a54af3b7a2700fa02a6c520548ad90", "lon": -77.06267316666667, "bike_id": "93a54af3b7a2700fa02a6c520548ad90", "lat": 38.9057265}, {"fusion_lon": 0.0, "fusion_lat": 0.0, "rental_uris": {"android": "https://dc.lft.to/lastmile_qr_scan", "ios": "https://dc.lft.to/lastmile_qr_scan"}, "is_disabled": 0, "type": "electric_scooter", "is_reserved": 0, "name": "ed1a29154d91c8bfdd3b45fc453b4e7a", "lon": -77.02377816666667, "bike_id": "ed1a29154d91c8bfdd3b45fc453b4e7a", "lat": 38.9527065}, {"fusion_lon": 0.0, "fusion_lat": 0.0, "rental_uris": {"android": "https://dc.lft.to/lastmile_qr_scan", "ios": "https://dc.lft.to/lastmile_qr_scan"}, "is_disabled": 0, "type": "electric_scooter", "is_reserved": 0, "name": "050363fd4d11b6a52c0065849f181719", "lon": -77.02034616666667, "bike_id": "050363fd4d11b6a52c0065849f181719", "lat": 38.924118}, {"fusion_lon": 0.0, "fusion_lat": 0.0, "rental_uris": {"android": "https://dc.lft.to/lastmile_qr_scan", "ios": "https://dc.lft.to/lastmile_qr_scan"}, "is_disabled": 0, "type": "electric_scooter", "is_reserved": 0, "name": "254c0261c67011ddd2048b02d233f750", "lon": -77.02210833333334, "bike_id": "254c0261c67011ddd2048b02d233f750", "lat": 38.92473733333333}, {"fusion_lon": 0.0, "fusion_lat": 0.0, "rental_uris": {"android": "https://dc.lft.to/lastmile_qr_scan", "ios": "https://dc.lft.to/lastmile_qr_scan"}, "is_disabled": 0, "type": "electric_scooter", "is_reserved": 0, "name": "16afc09fd91834f55609bbbd15faa0f9", "lon": -77.03381183333333, "bike_id": "16afc09fd91834f55609bbbd15faa0f9", "lat": 38.92153166666667}, {"fusion_lon": 0.0, "fusion_lat": 0.0, "rental_uris": {"android": "https://dc.lft.to/lastmile_qr_scan", "ios": "https://dc.lft.to/lastmile_qr_scan"}, "is_disabled": 0, "type": "electric_scooter", "is_reserved": 0, "name": "cdc4a95f0c5d383440dc3975d4662049", "lon": -77.01255533333334, "bike_id": "cdc4a95f0c5d383440dc3975d4662049", "lat": 38.943250166666665}, {"fusion_lon": 0.0, "fusion_lat": 0.0, "rental_uris": {"android": "https://dc.lft.to/lastmile_qr_scan", "ios": "https://dc.lft.to/lastmile_qr_scan"}, "is_disabled": 0, "type": "electric_scooter", "is_reserved": 0, "name": "9cc2234ebaa09b2fcc4e74c7e9dfe685", "lon": -77.03205783333334, "bike_id": "9cc2234ebaa09b2fcc4e74c7e9dfe685", "lat": 38.9200875}, {"fusion_lon": 0.0, "fusion_lat": 0.0, "rental_uris": {"android": "https://dc.lft.to/lastmile_qr_scan", "ios": "https://dc.lft.to/lastmile_qr_scan"}, "is_disabled": 0, "type": "electric_scooter", "is_reserved": 0, "name": "c911b122c595453f9a607cdb8be0845d", "lon": -77.04871116666666, "bike_id": "c911b122c595453f9a607cdb8be0845d", "lat": 38.892195}, {"fusion_lon": 0.0, "fusion_lat": 0.0, "rental_uris": {"android": "https://dc.lft.to/lastmile_qr_scan", "ios": "https://dc.lft.to/lastmile_qr_scan"}, "is_disabled": 0, "type": "electric_scooter", "is_reserved": 0, "name": "6bc429ce2ca98236b3ea4698532d2216", "lon": -77.02020833333333, "bike_id": "6bc429ce2ca98236b3ea4698532d2216", "lat": 38.924286333333335}, {"fusion_lon": 0.0, "fusion_lat": 0.0, "rental_uris": {"android": "https://dc.lft.to/lastmile_qr_scan", "ios": "https://dc.lft.to/lastmile_qr_scan"}, "is_disabled": 0, "type": "electric_scooter", "is_reserved": 0, "name": "2c03630ee286472f5ff1205c94d1ff60", "lon": -77.01684766666666, "bike_id": "2c03630ee286472f5ff1205c94d1ff60", "lat": 38.9204345}, {"fusion_lon": 0.0, "fusion_lat": 0.0, "rental_uris": {"android": "https://dc.lft.to/lastmile_qr_scan", "ios": "https://dc.lft.to/lastmile_qr_scan"}, "is_disabled": 0, "type": "electric_scooter", "is_reserved": 0, "name": "9857cf36fd37070608abce5225ec6d8c", "lon": -77.04243883333334, "bike_id": "9857cf36fd37070608abce5225ec6d8c", "lat": 38.921505333333336}, {"fusion_lon": 0.0, "fusion_lat": 0.0, "rental_uris": {"android": "https://dc.lft.to/lastmile_qr_scan", "ios": "https://dc.lft.to/lastmile_qr_scan"}, "is_disabled": 0, "type": "electric_scooter", "is_reserved": 0, "name": "d2eb2007898a49f9fbd13bd0b2ba32f7", "lon": -77.025281, "bike_id": "d2eb2007898a49f9fbd13bd0b2ba32f7", "lat": 38.91817666666667}, {"fusion_lon": 0.0, "fusion_lat": 0.0, "rental_uris": {"android": "https://dc.lft.to/lastmile_qr_scan", "ios": "https://dc.lft.to/lastmile_qr_scan"}, "is_disabled": 0, "type": "electric_scooter", "is_reserved": 0, "name": "3b9d124af6b378f524c5c101dae6ce1f", "lon": -76.92588366666666, "bike_id": "3b9d124af6b378f524c5c101dae6ce1f", "lat": 38.8972815}, {"fusion_lon": 0.0, "fusion_lat": 0.0, "rental_uris": {"android": "https://dc.lft.to/lastmile_qr_scan", "ios": "https://dc.lft.to/lastmile_qr_scan"}, "is_disabled": 0, "type": "electric_scooter", "is_reserved": 0, "name": "05d290ce92030260c99af8c1580dfce5", "lon": -77.01225583333333, "bike_id": "05d290ce92030260c99af8c1580dfce5", "lat": 38.914340333333335}, {"fusion_lon": 0.0, "fusion_lat": 0.0, "rental_uris": {"android": "https://dc.lft.to/lastmile_qr_scan", "ios": "https://dc.lft.to/lastmile_qr_scan"}, "is_disabled": 0, "type": "electric_scooter", "is_reserved": 0, "name": "a08f1b7f2429da8de7f8fc00ba2d7375", "lon": -77.02164633333334, "bike_id": "a08f1b7f2429da8de7f8fc00ba2d7375", "lat": 38.92610333333333}, {"fusion_lon": 0.0, "fusion_lat": 0.0, "rental_uris": {"android": "https://dc.lft.to/lastmile_qr_scan", "ios": "https://dc.lft.to/lastmile_qr_scan"}, "is_disabled": 0, "type": "electric_scooter", "is_reserved": 0, "name": "3eaee4eff19419ecec132d5fedeb9068", "lon": -77.00413516666667, "bike_id": "3eaee4eff19419ecec132d5fedeb9068", "lat": 38.877146333333336}, {"fusion_lon": 0.0, "fusion_lat": 0.0, "rental_uris": {"android": "https://dc.lft.to/lastmile_qr_scan", "ios": "https://dc.lft.to/lastmile_qr_scan"}, "is_disabled": 0, "type": "electric_scooter", "is_reserved": 0, "name": "065f22b93731d054d541627b7ff22ee8", "lon": -77.024698, "bike_id": "065f22b93731d054d541627b7ff22ee8", "lat": 38.920424833333335}, {"fusion_lon": 0.0, "fusion_lat": 0.0, "rental_uris": {"android": "https://dc.lft.to/lastmile_qr_scan", "ios": "https://dc.lft.to/lastmile_qr_scan"}, "is_disabled": 0, "type": "electric_scooter", "is_reserved": 0, "name": "11ee5faf6c7fc0805eb0b8003e5b0ae0", "lon": -77.062289, "bike_id": "11ee5faf6c7fc0805eb0b8003e5b0ae0", "lat": 38.905244}, {"fusion_lon": 0.0, "fusion_lat": 0.0, "rental_uris": {"android": "https://dc.lft.to/lastmile_qr_scan", "ios": "https://dc.lft.to/lastmile_qr_scan"}, "is_disabled": 0, "type": "electric_scooter", "is_reserved": 0, "name": "eb0559f16458be1c1065db098db72a7a", "lon": -77.04019516666666, "bike_id": "eb0559f16458be1c1065db098db72a7a", "lat": 38.901164666666666}, {"fusion_lon": 0.0, "fusion_lat": 0.0, "rental_uris": {"android": "https://dc.lft.to/lastmile_qr_scan", "ios": "https://dc.lft.to/lastmile_qr_scan"}, "is_disabled": 0, "type": "electric_bike", "is_reserved": 0, "name": "9defa09ca207be79d9ed04f53f26d5a3", "lon": -77.0850475, "bike_id": "9defa09ca207be79d9ed04f53f26d5a3", "lat": 38.88604183333333}, {"fusion_lon": 0.0, "fusion_lat": 0.0, "rental_uris": {"android": "https://dc.lft.to/lastmile_qr_scan", "ios": "https://dc.lft.to/lastmile_qr_scan"}, "is_disabled": 0, "type": "electric_scooter", "is_reserved": 0, "name": "dd9c46c7145926d6ba03a7ad3daad8e9", "lon": -77.0267865, "bike_id": "dd9c46c7145926d6ba03a7ad3daad8e9", "lat": 38.937595333333334}, {"fusion_lon": 0.0, "fusion_lat": 0.0, "rental_uris": {"android": "https://dc.lft.to/lastmile_qr_scan", "ios": "https://dc.lft.to/lastmile_qr_scan"}, "is_disabled": 0, "type": "electric_bike", "is_reserved": 0, "name": "993429f1e03626662fdbe9d0a264dddb", "lon": -77.12884233333334, "bike_id": "993429f1e03626662fdbe9d0a264dddb", "lat": 38.9059885}, {"fusion_lon": 0.0, "fusion_lat": 0.0, "rental_uris": {"android": "https://dc.lft.to/lastmile_qr_scan", "ios": "https://dc.lft.to/lastmile_qr_scan"}, "is_disabled": 0, "type": "electric_scooter", "is_reserved": 0, "name": "b8044213c668a21e42ba64e9f16f2943", "lon": -77.00130966666667, "bike_id": "b8044213c668a21e42ba64e9f16f2943", "lat": 38.873805833333336}, {"fusion_lon": 0.0, "fusion_lat": 0.0, "rental_uris": {"android": "https://dc.lft.to/lastmile_qr_scan", "ios": "https://dc.lft.to/lastmile_qr_scan"}, "is_disabled": 0, "type": "electric_scooter", "is_reserved": 0, "name": "0e2a9df984bc71ec4546cfad8b5c6c67", "lon": -77.03764133333334, "bike_id": "0e2a9df984bc71ec4546cfad8b5c6c67", "lat": 38.91710916666667}, {"fusion_lon": 0.0, "fusion_lat": 0.0, "rental_uris": {"android": "https://dc.lft.to/lastmile_qr_scan", "ios": "https://dc.lft.to/lastmile_qr_scan"}, "is_disabled": 0, "type": "electric_scooter", "is_reserved": 0, "name": "855a6d33e0cedf092e23e5a80917c541", "lon": -77.03963116666667, "bike_id": "855a6d33e0cedf092e23e5a80917c541", "lat": 38.903697333333334}, {"fusion_lon": 0.0, "fusion_lat": 0.0, "rental_uris": {"android": "https://dc.lft.to/lastmile_qr_scan", "ios": "https://dc.lft.to/lastmile_qr_scan"}, "is_disabled": 0, "type": "electric_bike", "is_reserved": 0, "name": "019844601b76a8bccb32bf2abafcf805", "lon": -76.97070716666667, "bike_id": "019844601b76a8bccb32bf2abafcf805", "lat": 38.920606}, {"fusion_lon": 0.0, "fusion_lat": 0.0, "rental_uris": {"android": "https://dc.lft.to/lastmile_qr_scan", "ios": "https://dc.lft.to/lastmile_qr_scan"}, "is_disabled": 0, "type": "electric_scooter", "is_reserved": 0, "name": "68dbc14060be91247c2fb5f64f5060da", "lon": -76.98511716666667, "bike_id": "68dbc14060be91247c2fb5f64f5060da", "lat": 38.8600475}, {"fusion_lon": 0.0, "fusion_lat": 0.0, "rental_uris": {"android": "https://dc.lft.to/lastmile_qr_scan", "ios": "https://dc.lft.to/lastmile_qr_scan"}, "is_disabled": 0, "type": "electric_scooter", "is_reserved": 0, "name": "f2a27927da3839ef0772f3d663873957", "lon": -77.03197916666667, "bike_id": "f2a27927da3839ef0772f3d663873957", "lat": 38.91614083333333}, {"fusion_lon": 0.0, "fusion_lat": 0.0, "rental_uris": {"android": "https://dc.lft.to/lastmile_qr_scan", "ios": "https://dc.lft.to/lastmile_qr_scan"}, "is_disabled": 0, "type": "electric_scooter", "is_reserved": 0, "name": "7045ec61f7a1944c23ba123c6a0c5b87", "lon": -77.03462216666667, "bike_id": "7045ec61f7a1944c23ba123c6a0c5b87", "lat": 38.918147166666664}, {"fusion_lon": 0.0, "fusion_lat": 0.0, "rental_uris": {"android": "https://dc.lft.to/lastmile_qr_scan", "ios": "https://dc.lft.to/lastmile_qr_scan"}, "is_disabled": 0, "type": "electric_scooter", "is_reserved": 0, "name": "560b7ba3003551e8903d4b4cc9a3ae3a", "lon": -77.032572, "bike_id": "560b7ba3003551e8903d4b4cc9a3ae3a", "lat": 38.920965333333335}, {"fusion_lon": 0.0, "fusion_lat": 0.0, "rental_uris": {"android": "https://dc.lft.to/lastmile_qr_scan", "ios": "https://dc.lft.to/lastmile_qr_scan"}, "is_disabled": 0, "type": "electric_scooter", "is_reserved": 0, "name": "44402d272303833b7994c02c7716bd9a", "lon": -77.00725966666667, "bike_id": "44402d272303833b7994c02c7716bd9a", "lat": 38.903484166666665},