{"data": {"bikes": [{"lat": 38.908245, "is_disabled": 0, "type": "electric_scooter", "lon": -76.9414865, "bike_id": "1d8fa6896ab613ded28130f7b7d943cb", "fusion_lat": 0.0, "name": "1d8fa6896ab613ded28130f7b7d943cb", "is_reserved": 0, "rental_uris": {"android": "https://dc.lft.to/lastmile_qr_scan", "ios": "https://dc.lft.to/lastmile_qr_scan"}, "fusion_lon": 0.0}, {"lat": 38.915827, "is_disabled": 0, "type": "electric_scooter", "lon": -77.031836, "bike_id": "cd7554d5e2f233830d674c58f502086b", "fusion_lat": 0.0, "name": "cd7554d5e2f233830d674c58f502086b", "is_reserved": 0, "rental_uris": {"android": "https://dc.lft.to/lastmile_qr_scan", "ios": "https://dc.lft.to/lastmile_qr_scan"}, "fusion_lon": 0.0}, {"lat": 38.9248335, "is_disabled": 0, "type": "electric_scooter", "lon": -77.02724983333333, "bike_id": "ab0b3dcc1ad98f1fd4d10ac4ded675a3", "fusion_lat": 0.0, "name": "ab0b3dcc1ad98f1fd4d10ac4ded675a3", "is_reserved": 0, "rental_uris": {"android": "https://dc.lft.to/lastmile_qr_scan", "ios": "https://dc.lft.to/lastmile_qr_scan"}, "fusion_lon": 0.0}, {"lat": 38.88399366666667, "is_disabled": 0, "type": "electric_bike", "lon": -76.96054383333333, "bike_id": "3102bc10d1606bd724ec36bd3a5aab7b", "fusion_lat": 0.0, "name": "3102bc10d1606bd724ec36bd3a5aab7b", "is_reserved": 0, "rental_uris": {"android": "https://dc.lft.to/lastmile_qr_scan", "ios": "https://dc.lft.to/lastmile_qr_scan"}, "fusion_lon": 0.0}, {"lat": 38.8874695, "is_disabled": 0, "type": "electric_scooter", "lon": -76.99371133333334, "bike_id": "05530087a4310b7ddb2f79a1d39b23c3", "fusion_lat": 0.0, "name": "05530087a4310b7ddb2f79a1d39b23c3", "is_reserved": 0, "rental_uris": {"android": "https://dc.lft.to/lastmile_qr_scan", "ios": "https://dc.lft.to/lastmile_qr_scan"}, "fusion_lon": 0.0}, {"lat": 38.83981, "is_disabled": 0, "type": "electric_bike", "lon": -77.00569883333333, "bike_id": "ea45b6491e8e937c0c5fcd0294e16fc6", "fusion_lat": 0.0, "name": "ea45b6491e8e937c0c5fcd0294e16fc6", "is_reserved": 0, "rental_uris": {"android": "https://dc.lft.to/lastmile_qr_scan", "ios": "https://dc.lft.to/lastmile_qr_scan"}, "fusion_lon": 0.0}, {"lat": 38.9172015, "is_disabled": 0, "type": "electric_scooter", "lon": -77.04089833333333, "bike_id": "855be18ceb4f883cbc1d742ec99541cb", "fusion_lat": 0.0, "name": "855be18ceb4f883cbc1d742ec99541cb", "is_reserved": 0, "rental_uris": {"android": "https://dc.lft.to/lastmile_qr_scan", "ios": "https://dc.lft.to/lastmile_qr_scan"}, "fusion_lon": 0.0}, {"lat": 38.90046783333333, "is_disabled": 0, "type": "electric_scooter", "lon": -76.995084, "bike_id": "cca0bf34c79df5ed2c0e3c5d8b3aacf3", "fusion_lat": 0.0, "name": "cca0bf34c79df5ed2c0e3c5d8b3aacf3", "is_reserved": 0, "rental_uris": {"android": "https://dc.lft.to/lastmile_qr_scan", "ios": "https://dc.lft.to/lastmile_qr_scan"}, "fusion_lon": 0.0}, {"lat": 38.974646, "is_disabled": 0, "type": "electric_scooter", "lon": -77.0198405, "bike_id": "a8561411d7d68b0301c0df100ab9c4f3", "fusion_lat": 0.0, "name": "a8561411d7d68b0301c0df100ab9c4f3", "is_reserved": 0, "rental_uris": {"android": "https://dc.lft.to/lastmile_qr_scan", "ios": "https://dc.lft.to/lastmile_qr_scan"}, "fusion_lon": 0.0}, {"lat": 38.92007316666667, "is_disabled": 0, "type": "electric_scooter", "lon": -77.03886483333334, "bike_id": "b2dd42237d901a8df70d04b2de594026", "fusion_lat": 0.0, "name": "b2dd42237d901a8df70d04b2de594026", "is_reserved": 0, "rental_uris": {"android": "https://dc.lft.to/lastmile_qr_scan", "ios": "https://dc.lft.to/lastmile_qr_scan"}, "fusion_lon": 0.0}, {"lat": 38.92757966666667, "is_disabled": 0, "type": "electric_scooter", "lon": -77.0321625, "bike_id": "39638a07abf0bde3686321094543debc", "fusion_lat": 0.0, "name": "39638a07abf0bde3686321094543debc", "is_reserved": 0, "rental_uris": {"android": "https://dc.lft.to/lastmile_qr_scan", "ios": "https://dc.lft.to/lastmile_qr_scan"}, "fusion_lon": 0.0}, {"lat": 38.952827, "is_disabled": 0, "type": "electric_bike", "lon": -76.94606883333333, "bike_id": "8e7ebc2117645ca9849612d44253efb3", "fusion_lat": 0.0, "name": "8e7ebc2117645ca9849612d44253efb3", "is_reserved": 0, "rental_uris": {"android": "https://dc.lft.to/lastmile_qr_scan", "ios": "https://dc.lft.to/lastmile_qr_scan"}, "fusion_lon": 0.0}, {"lat": 38.939521666666664, "is_disabled": 0, "type": "electric_bike", "lon": -77.36095683333333, "bike_id": "8c5fd52371733f563c4ee193c2ac5672", "fusion_lat": 0.0, "name": "8c5fd52371733f563c4ee193c2ac5672", "is_reserved": 0, "rental_uris": {"android": "https://dc.lft.to/lastmile_qr_scan", "ios": "https://dc.lft.to/lastmile_qr_scan"}, "fusion_lon": 0.0}, {"lat": 38.917322, "is_disabled": 0, "type": "electric_scooter", "lon": -77.02403333333334, "bike_id": "b82facfbf4b157b9ba1227b489b4ede1", "fusion_lat": 0.0, "name": "b82facfbf4b157b9ba1227b489b4ede1", "is_reserved": 0, "rental_uris": {"android": "https://dc.lft.to/lastmile_qr_scan", "ios": "https://dc.lft.to/lastmile_qr_scan"}, "fusion_lon": 0.0}, {"lat": 38.91705266666666, "is_disabled": 0, "type": "electric_scooter", "lon": -77.00115133333334, "bike_id": "5f62d7f933f3be6f24427f388dd24d3c", "fusion_lat": 0.0, "name": "5f62d7f933f3be6f24427f388dd24d3c", "is_reserved": 0, "rental_uris": {"android": "https://dc.lft.to/lastmile_qr_scan", "ios": "https://dc.lft.to/lastmile_qr_scan"}, "fusion_lon": 0.0}, {"lat": 38.895604166666665, "is_disabled": 0, "type": "electric_scooter", "lon": -76.930825, "bike_id": "8acf68d288ea131188dec2e5416aab16", "fusion_lat": 0.0, "name": "8acf68d288ea131188dec2e5416aab16", "is_reserved": 0, "rental_uris": {"android": "https://dc.lft.to/lastmile_qr_scan", "ios": "https://dc.lft.to/lastmile_qr_scan"}, "fusion_lon": 0.0}, {"lat": 38.931537, "is_disabled": 0, "type": "electric_scooter", "lon": -77.02934066666667, "bike_id": "cbf52c2a5c36b7365488cc04beea6ee2", "fusion_lat": 0.0, "name": "cbf52c2a5c36b7365488cc04beea6ee2", "is_reserved": 0, "rental_uris": {"android": "https://dc.lft.to/lastmile_qr_scan", "ios": "https://dc.lft.to/lastmile_qr_scan"}, "fusion_lon": 0.0}, {"lat": 38.905936833333335, "is_disabled": 0, "type": "electric_scooter", "lon": -77.04702733333333, "bike_id": "c758c927cd6343f8f5cf6daeb108df1f", "fusion_lat": 0.0, "name": "c758c927cd6343f8f5cf6daeb108df1f", "is_reserved": 0, "rental_uris": {"android": "https://dc.lft.to/lastmile_qr_scan", "ios": "https://dc.lft.to/lastmile_qr_scan"}, "fusion_lon": 0.0}, {"lat": 38.916705666666665, "is_disabled": 0, "type": "electric_scooter", "lon": -77.0240435, "bike_id": "67d3753957c0bce514b81830583a553e", "fusion_lat": 0.0, "name": "67d3753957c0bce514b81830583a553e", "is_reserved": 0, "rental_uris": {"android": "https://dc.lft.to/lastmile_qr_scan", "ios": "https://dc.lft.to/lastmile_qr_scan"}, "fusion_lon": 0.0}, {"lat": 38.9049815, "is_disabled": 0, "type": "electric_scooter", "lon": -77.00141, "bike_id": "e97dec9ee1ee6348c4885f7f15ebadf5", "fusion_lat": 0.0, "name": "e97dec9ee1ee6348c4885f7f15ebadf5", "is_reserved": 0, "rental_uris": {"android": "https://dc.lft.to/lastmile_qr_scan", "ios": "https://dc.lft.to/lastmile_qr_scan"}, "fusion_lon": 0.0}, {"lat": 38.92005983333333, "is_disabled": 0, "type": "electric_scooter", "lon": -77.01736816666667, "bike_id": "d4a742af567e32fb1dd6e5d74cb1d0b4", "fusion_lat": 0.0, "name": "d4a742af567e32fb1dd6e5d74cb1d0b4", "is_reserved": 0, "rental_uris": {"android": "https://dc.lft.to/lastmile_qr_scan", "ios": "https://dc.lft.to/lastmile_qr_scan"}, "fusion_lon": 0.0}, {"lat": 38.90350183333334, "is_disabled": 0, "type": "electric_scooter", "lon": -77.00745066666667, "bike_id": "5f4bb017c3eb3b664964fa32919c8ad2", "fusion_lat": 0.0, "name": "5f4bb017c3eb3b664964fa32919c8ad2", "is_reserved": 0, "rental_uris": {"android": "https://dc.lft.to/lastmile_qr_scan", "ios": "https://dc.lft.to/lastmile_qr_scan"}, "fusion_lon": 0.0}, {"lat": 38.929787833333336, "is_disabled": 0, "type": "electric_bike", "lon": -76.97503683333333, "bike_id": "a22fc3b5e3ff2cbaad61a039282c9c7c", "fusion_lat": 0.0, "name": "a22fc3b5e3ff2cbaad61a039282c9c7c", "is_reserved": 0, "rental_uris": {"android": "https://dc.lft.to/lastmile_qr_scan", "ios": "https://dc.lft.to/lastmile_qr_scan"}, "fusion_lon": 0.0}, {"lat": 38.90347583333333, "is_disabled": 0, "type": "electric_scooter", "lon": -77.065827, "bike_id": "3005c614b75165ff5da6539c198067d8", "fusion_lat": 0.0, "name": "3005c614b75165ff5da6539c198067d8", "is_reserved": 0, "rental_uris": {"android": "https://dc.lft.to/lastmile_qr_scan", "ios": "https://dc.lft.to/lastmile_qr_scan"}, "fusion_lon": 0.0}, {"lat": 38.88764416666667, "is_disabled": 0, "type": "electric_scooter", "lon": -76.9560095, "bike_id": "b92437e1025a9dc107161aede0b92ce4", "fusion_lat": 0.0, "name": "b92437e1025a9dc107161aede0b92ce4", "is_reserved": 0, "rental_uris": {"android": "https://dc.lft.to/lastmile_qr_scan", "ios": "https://dc.lft.to/lastmile_qr_scan"}, "fusion_lon": 0.0}, {"lat": 38.93567516666667, "is_disabled": 0, "type": "electric_scooter", "lon": -77.08764916666667, "bike_id": "5e1fd79ba049ce85b17219befbdacf4a", "fusion_lat": 0.0, "name": "5e1fd79ba049ce85b17219befbdacf4a", "is_reserved": 0, "rental_uris": {"android": "https://dc.lft.to/lastmile_qr_scan", "ios": "https://dc.lft.to/lastmile_qr_scan"}, "fusion_lon": 0.0}, {"lat": 38.92404033333333, "is_disabled": 0, "type": "electric_scooter", "lon": -77.02711033333334, "bike_id": "012c0c4e4c0684303241660bb1077ff1", "fusion_lat": 0.0, "name": "012c0c4e4c0684303241660bb1077ff1", "is_reserved": 0, "rental_uris": {"android": "https://dc.lft.to/lastmile_qr_scan", "ios": "https://dc.lft.to/lastmile_qr_scan"}, "fusion_lon": 0.0}, {"lat": 38.90962483333333, "is_disabled": 0, "type": "electric_scooter", "lon": -77.01720816666666, "bike_id": "77057020ff3e25e0a2c7947f0931554c", "fusion_lat": 0.0, "name": "77057020ff3e25e0a2c7947f0931554c", "is_reserved": 0, "rental_uris": {"android": "https://dc.lft.to/lastmile_qr_scan", "ios": "https://dc.lft.to/lastmile_qr_scan"}, "fusion_lon": 0.0}, {"lat": 38.930874333333335, "is_disabled": 0, "type": "electric_scooter", "lon": -77.03145133333334, "bike_id": "7fe37ea4eb067dd013b8764afa6a094a", "fusion_lat": 0.0, "name": "7fe37ea4eb067dd013b8764afa6a094a", "is_reserved": 0, "rental_uris": {"android": "https://dc.lft.to/lastmile_qr_scan", "ios": "https://dc.lft.to/lastmile_qr_scan"}, "fusion_lon": 0.0}, {"lat": 38.89815983333333, "is_disabled": 0, "type": "electric_scooter", "lon": -77.0238895, "bike_id": "ca2ccc02054d1ac0a11c00e57091d257", "fusion_lat": 0.0, "name": "ca2ccc02054d1ac0a11c00e57091d257", "is_reserved": 0, "rental_uris": {"android": "https://dc.lft.to/lastmile_qr_scan", "ios": "https://dc.lft.to/lastmile_qr_scan"}, "fusion_lon": 0.0}, {"lat": 38.940831333333335, "is_disabled": 0, "type": "electric_scooter", "lon": -77.06137116666666, "bike_id": "892480bc3080245b937692c827fd6f48", "fusion_lat": 0.0, "name": "892480bc3080245b937692c827fd6f48", "is_reserved": 0, "rental_uris": {"android": "https://dc.lft.to/lastmile_qr_scan", "ios": "https://dc.lft.to/lastmile_qr_scan"}, "fusion_lon": 0.0}, {"lat": 38.91629833333333, "is_disabled": 0, "type": "electric_scooter", "lon": -77.03140833333333, "bike_id": "4002020cd9f4691fc9bacde4e487e845", "fusion_lat": 0.0, "name": "4002020cd9f4691fc9bacde4e487e845", "is_reserved": 0, "rental_uris": {"android": "https://dc.lft.to/lastmile_qr_scan", "ios": "https://dc.lft.to/lastmile_qr_scan"}, "fusion_lon": 0.0}, {"lat": 38.912527833333336, "is_disabled": 0, "type": "electric_scooter", "lon": -77.03860616666667, "bike_id": "a4ca365a0cd88655b5cdf9769bcf9471", "fusion_lat": 0.0, "name": "a4ca365a0cd88655b5cdf9769bcf9471", "is_reserved": 0, "rental_uris": {"android": "https://dc.lft.to/lastmile_qr_scan", "ios": "https://dc.lft.to/lastmile_qr_scan"}, "fusion_lon": 0.0}, {"lat": 38.948990333333334, "is_disabled": 0, "type": "electric_bike", "lon": -76.97244566666667, "bike_id": "d342d0fb77940746217ae7187092db81", "fusion_lat": 0.0, "name": "d342d0fb77940746217ae7187092db81", "is_reserved": 0, "rental_uris": {"android": "https://dc.lft.to/lastmile_qr_scan", "ios": "https://dc.lft.to/lastmile_qr_scan"}, "fusion_lon": 0.0}, {"lat": 38.84294766666667, "is_disabled": 0, "type": "electric_scooter", "lon": -76.99950133333333, "bike_id": "71c9738268d5d1688930d2274d7935c0", "fusion_lat": 0.0, "name": "71c9738268d5d1688930d2274d7935c0", "is_reserved": 0, "rental_uris": {"android": "https://dc.lft.to/lastmile_qr_scan", "ios": "https://dc.lft.to/lastmile_qr_scan"}, "fusion_lon": 0.0}, {"lat": 38.88490316666667, "is_disabled": 0, "type": "electric_scooter", "lon": -77.00710333333333, "bike_id": "670d62f07e26ec8b3063c5691d4362d0", "fusion_lat": 0.0, "name": "670d62f07e26ec8b3063c5691d4362d0", "is_reserved": 0, "rental_uris": {"android": "https://dc.lft.to/lastmile_qr_scan", "ios": "https://dc.lft.to/lastmile_qr_scan"}, "fusion_lon": 0.0}, {"lat": 38.957449, "is_disabled": 0, "type": "electric_bike", "lon": -77.002214, "bike_id": "ede772f78bef55ee260beacaa619d8a8", "fusion_lat": 0.0, "name": "ede772f78bef55ee260beacaa619d8a8", "is_reserved": 0, "rental_uris": {"android": "https://dc.lft.to/lastmile_qr_scan", "ios": "https://dc.lft.to/lastmile_qr_scan"}, "fusion_lon": 0.0}, {"lat": 38.84936233333333, "is_disabled": 0, "type": "electric_bike", "lon": -77.100237, "bike_id": "0dac89b0b3a2c033a1e16b7e550758b1", "fusion_lat": 0.0, "name": "0dac89b0b3a2c033a1e16b7e550758b1", "is_reserved": 0, "rental_uris": {"android": "https://dc.lft.to/lastmile_qr_scan", "ios": "https://dc.lft.to/lastmile_qr_scan"}, "fusion_lon": 0.0}, {"lat": 38.923638, "is_disabled": 0, "type": "electric_scooter", "lon": -77.04035116666667, "bike_id": "5bcd1d7fb16989e18ac61791a0043660", "fusion_lat": 0.0, "name": "5bcd1d7fb16989e18ac61791a0043660", "is_reserved": 0, "rental_uris": {"android": "https://dc.lft.to/lastmile_qr_scan", "ios": "https://dc.lft.to/lastmile_qr_scan"}, "fusion_lon": 0.0}, {"lat": 38.91785266666667, "is_disabled": 0, "type": "electric_scooter", "lon": -77.023099, "bike_id": "bb333fec38b78c4975c6a5548156d900", "fusion_lat": 0.0, "name": "bb333fec38b78c4975c6a5548156d900", "is_reserved": 0, "rental_uris": {"android": "https://dc.lft.to/lastmile_qr_scan", "ios": "https://dc.lft.to/lastmile_qr_scan"}, "fusion_lon": 0.0}, {"lat": 38.921319833333335, "is_disabled": 0, "type": "electric_scooter", "lon": -77.01048233333333, "bike_id": "aaa60183e802d09100d445130d7a811c", "fusion_lat": 0.0, "name": "aaa60183e802d09100d445130d7a811c", "is_reserved": 0, "rental_uris": {"android": "https://dc.lft.to/lastmile_qr_scan", "ios": "https://dc.lft.to/lastmile_qr_scan"}, "fusion_lon": 0.0}, {"lat": 38.866201333333336, "is_disabled": 0, "type": "electric_scooter", "lon": -76.9870505, "bike_id": "4548b5f477901cbebc1cc31823e1575f", "fusion_lat": 0.0, "name": "4548b5f477901cbebc1cc31823e1575f", "is_reserved": 0, "rental_uris": {"android": "https://dc.lft.to/lastmile_qr_scan", "ios": "https://dc.lft.to/lastmile_qr_scan"}, "fusion_lon": 0.0}, {"lat": 38.84280966666667, "is_disabled": 0, "type": "electric_bike", "lon": -76.988443, "bike_id": "88c5f2cb82f1034f771921c37114d9d8", "fusion_lat": 0.0, "name": "88c5f2cb82f1034f771921c37114d9d8", "is_reserved": 0, "rental_uris": {"android": "https://dc.lft.to/lastmile_qr_scan", "ios": "https://dc.lft.to/lastmile_qr_scan"}, "fusion_lon": 0.0}, {"lat": 38.8876315, "is_disabled": 0, "type": "electric_scooter", "lon": -76.95600733333333, "bike_id": "292950e0e0b2c73515ba4031e87420fa", "fusion_lat": 0.0, "name": "292950e0e0b2c73515ba4031e87420fa", "is_reserved": 0, "rental_uris": {"android": "https://dc.lft.to/lastmile_qr_scan", "ios": "https://dc.lft.to/lastmile_qr_scan"}, "fusion_lon": 0.0}, {"lat": 38.869905333333335, "is_disabled": 0, "type": "electric_bike", "lon": -76.959947, "bike_id": "9ad9c964d6f313dc75bd3a8d2216fc36", "fusion_lat": 0.0, "name": "9ad9c964d6f313dc75bd3a8d2216fc36", "is_reserved": 0, "rental_uris": {"android": "https://dc.lft.to/lastmile_qr_scan", "ios": "https://dc.lft.to/lastmile_qr_scan"}, "fusion_lon": 0.0}, {"lat": 38.8982305, "is_disabled": 0, "type": "electric_scooter", "lon": -77.031758, "bike_id": "29033129dcce1a40eb1b6d1316c24eaf", "fusion_lat": 0.0, "name": "29033129dcce1a40eb1b6d1316c24eaf", "is_reserved": 0, "rental_uris": {"android": "https://dc.lft.to/lastmile_qr_scan", "ios": "https://dc.lft.to/lastmile_qr_scan"}, "fusion_lon": 0.0}, {"lat": 38.80575283333334, "is_disabled": 0, "type": "electric_bike", "lon": -77.06862716666667, "bike_id": "ba6fb1a49fcd9fa02f129f719f580444", "fusion_lat": 0.0, "name": "ba6fb1a49fcd9fa02f129f719f580444", "is_reserved": 0, "rental_uris": {"android": "https://dc.lft.to/lastmile_qr_scan", "ios": "https://dc.lft.to/lastmile_qr_scan"}, "fusion_lon": 0.0}, {"lat": 38.96489366666667, "is_disabled": 0, "type": "electric_scooter", "lon": -77.02794366666667, "bike_id": "e288cc333f86cc452dc598ea3d9f4f6b", "fusion_lat": 0.0, "name": "e288cc333f86cc452dc598ea3d9f4f6b", "is_reserved": 0, "rental_uris": {"android": "https://dc.lft.to/lastmile_qr_scan", "ios": "https://dc.lft.to/lastmile_qr_scan"}, "fusion_lon": 0.0}, {"lat": 38.9079875, "is_disabled": 0, "type": "electric_scooter", "lon": -77.03675116666666, "bike_id": "5d1fe7a23de9d9b3e5f0f1b59dedae12", "fusion_lat": 0.0, "name": "5d1fe7a23de9d9b3e5f0f1b59dedae12", "is_reserved": 0, "rental_uris": {"android": "https://dc.lft.to/lastmile_qr_scan", "ios": "https://dc.lft.to/lastmile_qr_scan"}, "fusion_lon": 0.0}, {"lat": 38.8801635, "is_disabled": 0, "type": "electric_scooter", "lon": -77.0248175, "bike_id": "2c04715a06c8bbd00f8e7d48673ef8ca", "fusion_lat": 0.0, "name": "2c04715a06c8bbd00f8e7d48673ef8ca", "is_reserved": 0, "rental_uris": {"android": "https://dc.lft.to/lastmile_qr_scan", "ios": "https://dc.lft.to/lastmile_qr_scan"}, "fusion_lon": 0.0}, {"lat": 38.90231266666667, "is_disabled": 0, "type": "electric_scooter", "lon": -77.01834016666666, "bike_id": "758062adf711c056d0f90f4875e2d72f", "fusion_lat": 0.0, "name": "758062adf711c056d0f90f4875e2d72f", "is_reserved": 0, "rental_uris": {"android": "https://dc.lft.to/lastmile_qr_scan", "ios": "https://dc.lft.to/lastmile_qr_scan"}, "fusion_lon": 0.0}, {"lat": 38.92032616666667, "is_disabled": 0, "type": "electric_scooter", "lon": -77.0305035, "bike_id": "309afd738dfe773de3e99892e6ab82be", "fusion_lat": 0.0, "name": "309afd738dfe773de3e99892e6ab82be", "is_reserved": 0, "rental_uris": {"android": "https://dc.lft.to/lastmile_qr_scan", "ios": "https://dc.lft.to/lastmile_qr_scan"}, "fusion_lon": 0.0}, {"lat": 38.92825916666666, "is_disabled": 0, "type": "electric_scooter", "lon": -77.0218775, "bike_id": "200f8b30d5621814fb12169d5465b539", "fusion_lat": 0.0, "name": "200f8b30d5621814fb12169d5465b539", "is_reserved": 0, "rental_uris": {"android": "https://dc.lft.to/lastmile_qr_scan", "ios": "https://dc.lft.to/lastmile_qr_scan"}, "fusion_lon": 0.0}, {"lat": 38.9142505, "is_disabled": 0, "type": "electric_scooter", "lon": -77.03189, "bike_id": "1fb4a7c5518397d6c9a1d9a12887740c", "fusion_lat": 0.0, "name": "1fb4a7c5518397d6c9a1d9a12887740c", "is_reserved": 0, "rental_uris": {"android": "https://dc.lft.to/lastmile_qr_scan", "ios": "https://dc.lft.to/lastmile_qr_scan"}, "fusion_lon": 0.0}, {"lat": 38.8226585, "is_disabled": 0, "type": "electric_bike", "lon": -77.05819783333334, "bike_id": "636d50d41cf1fc5d506f55dca6fcb630", "fusion_lat": 0.0, "name": "636d50d41cf1fc5d506f55dca6fcb630", "is_reserved": 0, "rental_uris": {"android": "https://dc.lft.to/lastmile_qr_scan", "ios": "https://dc.lft.to/lastmile_qr_scan"}, "fusion_lon": 0.0}, {"lat": 38.91087533333334, "is_disabled": 0, "type": "electric_scooter", "lon": -77.03845533333333, "bike_id": "f5fb9ea85f5c14717f49b91fb6f35994", "fusion_lat": 0.0, "name": "f5fb9ea85f5c14717f49b91fb6f35994", "is_reserved": 0, "rental_uris": {"android": "https://dc.lft.to/lastmile_qr_scan", "ios": "https://dc.lft.to/lastmile_qr_scan"}, "fusion_lon": 0.0}, {"lat": 38.985057166666664, "is_disabled": 0, "type": "electric_bike", "lon": -76.9820505, "bike_id": "ed6e718c2ca815ea5f806cb2aed3ecfb", "fusion_lat": 0.0, "name": "ed6e718c2ca815ea5f806cb2aed3ecfb", "is_reserved": 0, "rental_uris": {"android": "https://dc.lft.to/lastmile_qr_scan", "ios": "https://dc.lft.to/lastmile_qr_scan"}, "fusion_lon": 0.0}, {"lat": 38.9200395, "is_disabled": 0, "type": "electric_scooter", "lon": -77.0323315, "bike_id": "54dc61eee3b2108a50fd05eded8bfe51", "fusion_lat": 0.0, "name": "54dc61eee3b2108a50fd05eded8bfe51", "is_reserved": 0, "rental_uris": {"android": "https://dc.lft.to/lastmile_qr_scan", "ios": "https://dc.lft.to/lastmile_qr_scan"}, "fusion_lon": 0.0}, {"lat": 38.917442666666666, "is_disabled": 0, "type": "electric_scooter", "lon": -77.03202916666666, "bike_id": "28a3f683bc55f1fd75a2817f3c034942", "fusion_lat": 0.0, "name": "28a3f683bc55f1fd75a2817f3c034942", "is_reserved": 0, "rental_uris": {"android": "https://dc.lft.to/lastmile_qr_scan", "ios": "https://dc.lft.to/lastmile_qr_scan"}, "fusion_lon": 0.0}, {"lat": 38.9391315, "is_disabled": 0, "type": "electric_scooter", "lon": -77.0669215, "bike_id": "ec8d8607ba6b7f0575f705d27378c6d5", "fusion_lat": 0.0, "name": "ec8d8607ba6b7f0575f705d27378c6d5", "is_reserved": 0, "rental_uris": {"android": "https://dc.lft.to/lastmile_qr_scan", "ios": "https://dc.lft.to/lastmile_qr_scan"}, "fusion_lon": 0.0}, {"lat": 38.90859183333333, "is_disabled": 0, "type": "electric_bike", "lon": -76.94011083333334, "bike_id": "9f8bc4ab18348c2548a860d0b3048b48", "fusion_lat": 0.0, "name": "9f8bc4ab18348c2548a860d0b3048b48", "is_reserved": 0, "rental_uris": {"android": "https://dc.lft.to/lastmile_qr_scan", "ios": "https://dc.lft.to/lastmile_qr_scan"}, "fusion_lon": 0.0}, {"lat": 38.92168933333333, "is_disabled": 0, "type": "electric_scooter", "lon": -77.0336245, "bike_id": "00f58b73e503c55bd798606563d15aaa", "fusion_lat": 0.0, "name": "00f58b73e503c55bd798606563d15aaa", "is_reserved": 0, "rental_uris": {"android": "https://dc.lft.to/lastmile_qr_scan", "ios": "https://dc.lft.to/lastmile_qr_scan"}, "fusion_lon": 0.0}, {"lat": 38.86710016666667, "is_disabled": 0, "type": "electric_scooter", "lon": -76.98729216666666, "bike_id": "5d06d8cdcf75031b744a6b8288c90c53", "fusion_lat": 0.0, "name": "5d06d8cdcf75031b744a6b8288c90c53", "is_reserved": 0, "rental_uris": {"android": "https://dc.lft.to/lastmile_qr_scan", "ios": "https://dc.lft.to/lastmile_qr_scan"}, "fusion_lon": 0.0}, {"lat": 38.902450333333334, "is_disabled": 0, "type": "electric_scooter", "lon": -77.03954316666666, "bike_id": "e8cc6d6258da03299e8d925a75f06ee8", "fusion_lat": 0.0, "name": "e8cc6d6258da03299e8d925a75f06ee8", "is_reserved": 0, "rental_uris": {"android": "https://dc.lft.to/lastmile_qr_scan", "ios": "https://dc.lft.to/lastmile_qr_scan"}, "fusion_lon": 0.0}, {"lat": 38.9038045, "is_disabled": 0, "type": "electric_scooter", "lon": -77.03597483333333, "bike_id": "bf59e4f18e0474d0101135c8d7481c7d", "fusion_lat": 0.0, "name": "bf59e4f18e0474d0101135c8d7481c7d", "is_reserved": 0, "rental_uris": {"android": "https://dc.lft.to/lastmile_qr_scan", "ios": "https://dc.lft.to/lastmile_qr_scan"}, "fusion_lon": 0.0}, {"lat": 38.90589166666667, "is_disabled": 0, "type": "electric_scooter", "lon": -76.98624133333334, "bike_id": "1185f2d64501307323644b24f12e2805", "fusion_lat": 0.0, "name": "1185f2d64501307323644b24f12e2805", "is_reserved": 0, "rental_uris": {"android": "https://dc.lft.to/lastmile_qr_scan", "ios": "https://dc.lft.to/lastmile_qr_scan"}, "fusion_lon": 0.0}, {"lat": 38.9212145, "is_disabled": 0, "type": "electric_scooter", "lon": -77.04579366666667, "bike_id": "fc59e813304dbbf0ff6fcee3d06313c1", "fusion_lat": 0.0, "name": "fc59e813304dbbf0ff6fcee3d06313c1", "is_reserved": 0, "rental_uris": {"android": "https://dc.lft.to/lastmile_qr_scan", "ios": "https://dc.lft.to/lastmile_qr_scan"}, "fusion_lon": 0.0}, {"lat": 38.908847, "is_disabled": 0, "type": "electric_scooter", "lon": -77.06440683333334, "bike_id": "a41bbd2bcb116f0306ee0c4bd535cff5", "fusion_lat": 0.0, "name": "a41bbd2bcb116f0306ee0c4bd535cff5", "is_reserved": 0, "rental_uris": {"android": "https://dc.lft.to/lastmile_qr_scan", "ios": "https://dc.lft.to/lastmile_qr_scan"}, "fusion_lon": 0.0}, {"lat": 38.91387266666667, "is_disabled": 0, "type": "electric_scooter", "lon": -77.03663533333334, "bike_id": "b7609ccd71ba6bdb936c4e61249e8141", "fusion_lat": 0.0, "name": "b7609ccd71ba6bdb936c4e61249e8141", "is_reserved": 0, "rental_uris": {"android": "https://dc.lft.to/lastmile_qr_scan", "ios": "https://dc.lft.to/lastmile_qr_scan"}, "fusion_lon": 0.0}, {"lat": 38.937631833333334, "is_disabled": 0, "type": "electric_scooter", "lon": -77.03139333333333, "bike_id": "12c4796ecabacd0b62b189f27310d8bc", "fusion_lat": 0.0, "name": "12c4796ecabacd0b62b189f27310d8bc", "is_reserved": 0, "rental_uris": {"android": "https://dc.lft.to/lastmile_qr_scan", "ios": "https://dc.lft.to/lastmile_qr_scan"}, "fusion_lon": 0.0}, {"lat": 38.918708333333335, "is_disabled": 0, "type": "electric_scooter", "lon": -76.97128433333333, "bike_id": "eb57d52adcc7b77494681fe262504277", "fusion_lat": 0.0, "name": "eb57d52adcc7b77494681fe262504277", "is_reserved": 0, "rental_uris": {"android": "https://dc.lft.to/lastmile_qr_scan", "ios": "https://dc.lft.to/lastmile_qr_scan"}, "fusion_lon": 0.0}, {"lat": 38.902779, "is_disabled": 0, "type": "electric_scooter", "lon": -77.03945, "bike_id": "1caa54d4fba78167cee405eb50181898", "fusion_lat": 0.0, "name": "1caa54d4fba78167cee405eb50181898", "is_reserved": 0, "rental_uris": {"android": "https://dc.lft.to/lastmile_qr_scan", "ios": "https://dc.lft.to/lastmile_qr_scan"}, "fusion_lon": 0.0}, {"lat": 38.93473733333333, "is_disabled": 0, "type": "electric_scooter", "lon": -77.028574, "bike_id": "710456b1942d606bdbf2de9b792824ea", "fusion_lat": 0.0, "name": "710456b1942d606bdbf2de9b792824ea", "is_reserved": 0, "rental_uris": {"android": "https://dc.lft.to/lastmile_qr_scan", "ios": "https://dc.lft.to/lastmile_qr_scan"}, "fusion_lon": 0.0}, {"lat": 38.90849983333333, "is_disabled": 0, "type": "electric_scooter", "lon": -76.99959466666667, "bike_id": "4693b3d3b5f002e78a08d7497c44c533", "fusion_lat": 0.0, "name": "4693b3d3b5f002e78a08d7497c44c533", "is_reserved": 0, "rental_uris": {"android": "https://dc.lft.to/lastmile_qr_scan", "ios": "https://dc.lft.to/lastmile_qr_scan"}, "fusion_lon": 0.0}, {"lat": 38.9110545, "is_disabled": 0, "type": "electric_scooter", "lon": -77.04394066666667, "bike_id": "1608a76139c8222c501a9ec33b134ab1", "fusion_lat": 0.0, "name": "1608a76139c8222c501a9ec33b134ab1", "is_reserved": 0, "rental_uris": {"android": "https://dc.lft.to/lastmile_qr_scan", "ios": "https://dc.lft.to/lastmile_qr_scan"}, "fusion_lon": 0.0}, {"lat": 38.92189033333333, "is_disabled": 0, "type": "electric_scooter", "lon": -77.04142966666667, "bike_id": "caad81ca52e58eda58710dd8412bfb2c", "fusion_lat": 0.0, "name": "caad81ca52e58eda58710dd8412bfb2c", "is_reserved": 0, "rental_uris": {"android": "https://dc.lft.to/lastmile_qr_scan", "ios": "https://dc.lft.to/lastmile_qr_scan"}, "fusion_lon": 0.0}, {"lat": 38.91014366666667, "is_disabled": 0, "type": "electric_scooter", "lon": -77.03854783333334, "bike_id": "a83286d5557d0959ecb617ba156d74cb", "fusion_lat": 0.0, "name": "a83286d5557d0959ecb617ba156d74cb", "is_reserved": 0, "rental_uris": {"android": "https://dc.lft.to/lastmile_qr_scan", "ios": "https://dc.lft.to/lastmile_qr_scan"}, "fusion_lon": 0.0}, {"lat": 38.8845995, "is_disabled": 0, "type": "electric_scooter", "lon": -76.92622266666666, "bike_id": "6da3a02b25799d8f9a4eb03e0614b344", "fusion_lat": 0.0, "name": "6da3a02b25799d8f9a4eb03e0614b344", "is_reserved": 0, "rental_uris": {"android": "https://dc.lft.to/lastmile_qr_scan", "ios": "https://dc.lft.to/lastmile_qr_scan"}, "fusion_lon": 0.0}, {"lat": 38.88486566666667, "is_disabled": 0, "type": "electric_scooter", "lon": -77.03484066666667, "bike_id": "ad70da1f7dc3830ce182bbda06d52d56", "fusion_lat": 0.0, "name": "ad70da1f7dc3830ce182bbda06d52d56", "is_reserved": 0, "rental_uris": {"android": "https://dc.lft.to/lastmile_qr_scan", "ios": "https://dc.lft.to/lastmile_qr_scan"}, "fusion_lon": 0.0}, {"lat": 38.928538, "is_disabled": 0, "type": "electric_bike", "lon": -77.10679216666666, "bike_id": "521e2c57fd43915b2e35fa532fcc9ba7", "fusion_lat": 0.0, "name": "521e2c57fd43915b2e35fa532fcc9ba7", "is_reserved": 0, "rental_uris": {"android": "https://dc.lft.to/lastmile_qr_scan", "ios": "https://dc.lft.to/lastmile_qr_scan"}, "fusion_lon": 0.0}, {"lat": 38.9058725, "is_disabled": 0, "type": "electric_scooter", "lon": -77.06308283333334, "bike_id": "052dfe955005637a442ce4b75e516532", "fusion_lat": 0.0, "name": "052dfe955005637a442ce4b75e516532", "is_reserved": 0, "rental_uris": {"android": "https://dc.lft.to/lastmile_qr_scan", "ios": "https://dc.lft.to/lastmile_qr_scan"}, "fusion_lon": 0.0}, {"lat": 38.807427833333335, "is_disabled": 0, "type": "electric_bike", "lon": -77.09432133333334, "bike_id": "48fccf0fc8adce57113c351f2e294a8a", "fusion_lat": 0.0, "name": "48fccf0fc8adce57113c351f2e294a8a", "is_reserved": 0, "rental_uris": {"android": "https://dc.lft.to/lastmile_qr_scan", "ios": "https://dc.lft.to/lastmile_qr_scan"}, "fusion_lon": 0.0}, {"lat": 38.93871583333333, "is_disabled": 0, "type": "electric_scooter", "lon": -77.02445533333334, "bike_id": "245f5493c8ea7aef08ad876eb1783ec0", "fusion_lat": 0.0, "name": "245f5493c8ea7aef08ad876eb1783ec0", "is_reserved": 0, "rental_uris": {"android": "https://dc.lft.to/lastmile_qr_scan", "ios": "https://dc.lft.to/lastmile_qr_scan"}, "fusion_lon": 0.0}, {"lat": 38.91049983333333, "is_disabled": 0, "type": "electric_scooter", "lon": -77.0152825, "bike_id": "a0d5a75ed9200f28bfb88bdf50d63f43", "fusion_lat": 0.0, "name": "a0d5a75ed9200f28bfb88bdf50d63f43", "is_reserved": 0, "rental_uris": {"android": "https://dc.lft.to/lastmile_qr_scan", "ios": "https://dc.lft.to/lastmile_qr_scan"}, "fusion_lon": 0.0}, {"lat": 38.90774866666667, "is_disabled": 0, "type": "electric_scooter", "lon": -77.0037565, "bike_id": "1fff8cad58ebe820a3b0a84ce1bed757", "fusion_lat": 0.0, "name": "1fff8cad58ebe820a3b0a84ce1bed757", "is_reserved": 0, "rental_uris": {"android": "https://dc.lft.to/lastmile_qr_scan", "ios": "https://dc.lft.to/lastmile_qr_scan"}, "fusion_lon": 0.0}, {"lat": 38.92623866666667, "is_disabled": 0, "type": "electric_scooter", "lon": -77.0378815, "bike_id": "cf768fedce1de5184019b4ac3a16fd2a", "fusion_lat": 0.0, "name": "cf768fedce1de5184019b4ac3a16fd2a", "is_reserved": 0, "rental_uris": {"android": "https://dc.lft.to/lastmile_qr_scan", "ios": "https://dc.lft.to/lastmile_qr_scan"}, "fusion_lon": 0.0}, {"lat": 38.87727233333333, "is_disabled": 0, "type": "electric_bike", "lon": -76.9811055, "bike_id": "5b6c4e55371401d608827a9996feaa1f", "fusion_lat": 0.0, "name": "5b6c4e55371401d608827a9996feaa1f", "is_reserved": 0, "rental_uris": {"android": "https://dc.lft.to/lastmile_qr_scan", "ios": "https://dc.lft.to/lastmile_qr_scan"}, "fusion_lon": 0.0}, {"lat": 38.874772, "is_disabled": 0, "type": "electric_scooter", "lon": -77.01073966666667, "bike_id": "890c12ee0138cad755cb9034717cfe9c", "fusion_lat": 0.0, "name": "890c12ee0138cad755cb9034717cfe9c", "is_reserved": 0, "rental_uris": {"android": "https://dc.lft.to/lastmile_qr_scan", "ios": "https://dc.lft.to/lastmile_qr_scan"}, "fusion_lon": 0.0}, {"lat": 38.8994615, "is_disabled": 0, "type": "electric_scooter", "lon": -77.05169566666666, "bike_id": "d9b1f69d87c2c01718536f975744fec0", "fusion_lat": 0.0, "name": "d9b1f69d87c2c01718536f975744fec0", "is_reserved": 0, "rental_uris": {"android": "https://dc.lft.to/lastmile_qr_scan", "ios": "https://dc.lft.to/lastmile_qr_scan"}, "fusion_lon": 0.0}, {"lat": 38.915616166666666, "is_disabled": 0, "type": "electric_scooter", "lon": -77.033205, "bike_id": "479297a405427716fefc9d871d17f570", "fusion_lat": 0.0, "name": "479297a405427716fefc9d871d17f570", "is_reserved": 0, "rental_uris": {"android": "https://dc.lft.to/lastmile_qr_scan", "ios": "https://dc.lft.to/lastmile_qr_scan"}, "fusion_lon": 0.0}, {"lat": 38.92440366666666, "is_disabled": 0, "type": "electric_scooter", "lon": -77.0421075, "bike_id": "bad5fde69db9e7c02b513ec0db1cfbb6", "fusion_lat": 0.0, "name": "bad5fde69db9e7c02b513ec0db1cfbb6", "is_reserved": 0, "rental_uris": {"android": "https://dc.lft.to/lastmile_qr_scan", "ios": "https://dc.lft.to/lastmile_qr_scan"}, "fusion_lon": 0.0}, {"lat": 38.90263233333334, "is_disabled": 0, "type": "electric_scooter", "lon": -77.02819416666667, "bike_id": "b718de568ad50ce48887c85c2a235d77", "fusion_lat": 0.0, "name": "b718de568ad50ce48887c85c2a235d77", "is_reserved": 0, "rental_uris": {"android": "https://dc.lft.to/lastmile_qr_scan", "ios": "https://dc.lft.to/lastmile_qr_scan"}, "fusion_lon": 0.0}, {"lat": 38.9282785, "is_disabled": 0, "type": "electric_scooter", "lon": -77.03731116666667, "bike_id": "0d9c06dbc70035f320de3c6c32a941ea", "fusion_lat": 0.0, "name": "0d9c06dbc70035f320de3c6c32a941ea", "is_reserved": 0, "rental_uris": {"android": "https://dc.lft.to/lastmile_qr_scan", "ios": "https://dc.lft.to/lastmile_qr_scan"}, "fusion_lon": 0.0}, {"lat": 38.89214783333333, "is_disabled": 0, "type": "electric_scooter", "lon": -77.02648366666666, "bike_id": "d24d2f35e563f37a681585e5041ed8bb", "fusion_lat": 0.0, "name": "d24d2f35e563f37a681585e5041ed8bb", "is_reserved": 0, "rental_uris": {"android": "https://dc.lft.to/lastmile_qr_scan", "ios": "https://dc.lft.to/lastmile_qr_scan"}, "fusion_lon": 0.0}, {"lat": 38.9036635, "is_disabled": 0, "type": "electric_scooter", "lon": -77.04843783333334, "bike_id": "3a189586fd8c27b031a9b2fc8394891f", "fusion_lat": 0.0, "name": "3a189586fd8c27b031a9b2fc8394891f", "is_reserved": 0, "rental_uris": {"android": "https://dc.lft.to/lastmile_qr_scan", "ios": "https://dc.lft.to/lastmile_qr_scan"}, "fusion_lon": 0.0}, {"lat": 38.91269233333333, "is_disabled": 0, "type": "electric_scooter", "lon": -77.03153583333334, "bike_id": "1afe6bf451d75f5c596072dc3e482125", "fusion_lat": 0.0, "name": "1afe6bf451d75f5c596072dc3e482125", "is_reserved": 0, "rental_uris": {"android": "https://dc.lft.to/lastmile_qr_scan", "ios": "https://dc.lft.to/lastmile_qr_scan"}, "fusion_lon": 0.0}, {"lat": 38.900110833333336, "is_disabled": 0, "type": "electric_scooter", "lon": -76.92238766666667, "bike_id": "4b9977f8541d7ee8db85829c1dbdf672", "fusion_lat": 0.0, "name": "4b9977f8541d7ee8db85829c1dbdf672", "is_reserved": 0, "rental_uris": {"android": "https://dc.lft.to/lastmile_qr_scan", "ios": "https://dc.lft.to/lastmile_qr_scan"}, "fusion_lon": 0.0}, {"lat": 38.92497016666667, "is_disabled": 0, "type": "electric_scooter", "lon": -77.05227766666667, "bike_id": "456e7a8b4fef855e219cad6e65f92a72", "fusion_lat": 0.0, "name": "456e7a8b4fef855e219cad6e65f92a72", "is_reserved": 0, "rental_uris": {"android": "https://dc.lft.to/lastmile_qr_scan", "ios": "https://dc.lft.to/lastmile_qr_scan"}, "fusion_lon": 0.0}, {"lat": 38.92533566666667, "is_disabled": 0, "type": "electric_scooter", "lon": -77.05252783333333, "bike_id": "5ae106f46e21ab5e11c01c450c9b334f", "fusion_lat": 0.0, "name": "5ae106f46e21ab5e11c01c450c9b334f", "is_reserved": 0, "rental_uris": {"android": "https://dc.lft.to/lastmile_qr_scan", "ios": "https://dc.lft.to/lastmile_qr_scan"}, "fusion_lon": 0.0}, {"lat": 38.91688333333333, "is_disabled": 0, "type": "electric_scooter", "lon": -77.03632766666666, "bike_id": "97d735644dd2a3f0436297fb1f722c10", "fusion_lat": 0.0, "name": "97d735644dd2a3f0436297fb1f722c10", "is_reserved": 0, "rental_uris": {"android": "https://dc.lft.to/lastmile_qr_scan", "ios": "https://dc.lft.to/lastmile_qr_scan"}, "fusion_lon": 0.0}, {"lat": 38.939608, "is_disabled": 0, "type": "electric_scooter", "lon": -77.02752566666666, "bike_id": "09180babcd549212d6be06ab5311d168", "fusion_lat": 0.0, "name": "09180babcd549212d6be06ab5311d168", "is_reserved": 0, "rental_uris": {"android": "https://dc.lft.to/lastmile_qr_scan", "ios": "https://dc.lft.to/lastmile_qr_scan"}, "fusion_lon": 0.0}, {"lat": 38.87373916666667, "is_disabled": 0, "type": "electric_scooter", "lon": -77.00207283333333, "bike_id": "34c28ca04e4e7b8cb7a3144b4c670691", "fusion_lat": 0.0, "name": "34c28ca04e4e7b8cb7a3144b4c670691", "is_reserved": 0, "rental_uris": {"android": "https://dc.lft.to/lastmile_qr_scan", "ios": "https://dc.lft.to/lastmile_qr_scan"}, "fusion_lon": 0.0}, {"lat": 38.93095016666667, "is_disabled": 0, "type": "electric_scooter", "lon": -77.02668716666666, "bike_id": "43541e66a0305ef0d258244451fc458e", "fusion_lat": 0.0, "name": "43541e66a0305ef0d258244451fc458e", "is_reserved": 0, "rental_uris": {"android": "https://dc.lft.to/lastmile_qr_scan", "ios": "https://dc.lft.to/lastmile_qr_scan"}, "fusion_lon": 0.0}, {"lat": 38.898295833333336, "is_disabled": 0, "type": "electric_scooter", "lon": -77.02919783333333, "bike_id": "4f299066c28d9870af52c05294c62726", "fusion_lat": 0.0, "name": "4f299066c28d9870af52c05294c62726", "is_reserved": 0, "rental_uris": {"android": "https://dc.lft.to/lastmile_qr_scan", "ios": "https://dc.lft.to/lastmile_qr_scan"}, "fusion_lon": 0.0}, {"lat": 38.899896166666664, "is_disabled": 0, "type": "electric_bike", "lon": -76.98123233333334, "bike_id": "7ed55ff2f0b5db81bf2fead5d7e1d5a2", "fusion_lat": 0.0, "name": "7ed55ff2f0b5db81bf2fead5d7e1d5a2", "is_reserved": 0, "rental_uris": {"android": "https://dc.lft.to/lastmile_qr_scan", "ios": "https://dc.lft.to/lastmile_qr_scan"}, "fusion_lon": 0.0}, {"lat": 38.9275795, "is_disabled": 0, "type": "electric_scooter", "lon": -77.00599166666667, "bike_id": "2bd58e127929d6727cbac44ffa6d9155", "fusion_lat": 0.0, "name": "2bd58e127929d6727cbac44ffa6d9155", "is_reserved": 0, "rental_uris": {"android": "https://dc.lft.to/lastmile_qr_scan", "ios": "https://dc.lft.to/lastmile_qr_scan"}, "fusion_lon": 0.0}, {"lat": 38.911095333333336, "is_disabled": 0, "type": "electric_scooter", "lon": -77.0383105, "bike_id": "83bc0f5dd16f7ce81182ee766451ef10", "fusion_lat": 0.0, "name": "83bc0f5dd16f7ce81182ee766451ef10", "is_reserved": 0, "rental_uris": {"android": "https://dc.lft.to/lastmile_qr_scan", "ios": "https://dc.lft.to/lastmile_qr_scan"}, "fusion_lon": 0.0}, {"lat": 38.92041016666667, "is_disabled": 0, "type": "electric_scooter", "lon": -77.03294083333333, "bike_id": "f8c0afab65c724d2b411a64ba1352ab8", "fusion_lat": 0.0, "name": "f8c0afab65c724d2b411a64ba1352ab8", "is_reserved": 0, "rental_uris": {"android": "https://dc.lft.to/lastmile_qr_scan", "ios": "https://dc.lft.to/lastmile_qr_scan"}, "fusion_lon": 0.0}, {"lat": 38.93029083333333, "is_disabled": 0, "type": "electric_scooter", "lon": -77.02349783333334, "bike_id": "b7eca32eeb2780eef902d18b848a6b59", "fusion_lat": 0.0, "name": "b7eca32eeb2780eef902d18b848a6b59", "is_reserved": 0, "rental_uris": {"android": "https://dc.lft.to/lastmile_qr_scan", "ios": "https://dc.lft.to/lastmile_qr_scan"}, "fusion_lon": 0.0}, {"lat": 38.907314, "is_disabled": 0, "type": "electric_scooter", "lon": -77.047787, "bike_id": "e74ce2799a8d94132c14b1da6e0e922d", "fusion_lat": 0.0, "name": "e74ce2799a8d94132c14b1da6e0e922d", "is_reserved": 0, "rental_uris": {"android": "https://dc.lft.to/lastmile_qr_scan", "ios": "https://dc.lft.to/lastmile_qr_scan"}, "fusion_lon": 0.0}, {"lat": 38.905159, "is_disabled": 0, "type": "electric_scooter", "lon": -77.056782, "bike_id": "563357019e7648081e3cf25d61d2b392", "fusion_lat": 0.0, "name": "563357019e7648081e3cf25d61d2b392", "is_reserved": 0, "rental_uris": {"android": "https://dc.lft.to/lastmile_qr_scan", "ios": "https://dc.lft.to/lastmile_qr_scan"}, "fusion_lon": 0.0}, {"lat": 38.85993966666667, "is_disabled": 0, "type": "electric_scooter", "lon": -76.985472, "bike_id": "dca31eda3862348ad3efdebbd7c4fc46", "fusion_lat": 0.0, "name": "dca31eda3862348ad3efdebbd7c4fc46", "is_reserved": 0, "rental_uris": {"android": "https://dc.lft.to/lastmile_qr_scan", "ios": "https://dc.lft.to/lastmile_qr_scan"}, "fusion_lon": 0.0}, {"lat": 38.876302, "is_disabled": 0, "type": "electric_scooter", "lon": -76.965289, "bike_id": "3ee4befa7cb2d54c9243c41119655e3a", "fusion_lat": 0.0, "name": "3ee4befa7cb2d54c9243c41119655e3a", "is_reserved": 0, "rental_uris": {"android": "https://dc.lft.to/lastmile_qr_scan", "ios": "https://dc.lft.to/lastmile_qr_scan"}, "fusion_lon": 0.0}, {"lat": 38.881884666666664, "is_disabled": 0, "type": "electric_scooter", "lon": -77.02847816666667, "bike_id": "beda1ddc804deb3422db515900e4309e", "fusion_lat": 0.0, "name": "beda1ddc804deb3422db515900e4309e", "is_reserved": 0, "rental_uris": {"android": "https://dc.lft.to/lastmile_qr_scan", "ios": "https://dc.lft.to/lastmile_qr_scan"}, "fusion_lon": 0.0}, {"lat": 38.927432333333336, "is_disabled": 0, "type": "electric_scooter", "lon": -77.034396, "bike_id": "8b37a7b93a5678b3ffbbcecd5716b7f1", "fusion_lat": 0.0, "name": "8b37a7b93a5678b3ffbbcecd5716b7f1", "is_reserved": 0, "rental_uris": {"android": "https://dc.lft.to/lastmile_qr_scan", "ios": "https://dc.lft.to/lastmile_qr_scan"}, "fusion_lon": 0.0}, {"lat": 38.90025216666667, "is_disabled": 0, "type": "electric_scooter", "lon": -77.00219983333334, "bike_id": "f1a8fdad7eee632e8386c9d08b2fbbac", "fusion_lat": 0.0, "name": "f1a8fdad7eee632e8386c9d08b2fbbac", "is_reserved": 0, "rental_uris": {"android": "https://dc.lft.to/lastmile_qr_scan", "ios": "https://dc.lft.to/lastmile_qr_scan"}, "fusion_lon": 0.0}, {"lat": 38.9506585, "is_disabled": 0, "type": "electric_scooter", "lon": -77.0666035, "bike_id": "86937b450b421694808720cd7806ceef", "fusion_lat": 0.0, "name": "86937b450b421694808720cd7806ceef", "is_reserved": 0, "rental_uris": {"android": "https://dc.lft.to/lastmile_qr_scan", "ios": "https://dc.lft.to/lastmile_qr_scan"}, "fusion_lon": 0.0}, {"lat": 38.881706, "is_disabled": 0, "type": "electric_scooter", "lon": -77.0284035, "bike_id": "fb7e22927dee07f1f2d7d0c5b1fc1823", "fusion_lat": 0.0, "name": "fb7e22927dee07f1f2d7d0c5b1fc1823", "is_reserved": 0, "rental_uris": {"android": "https://dc.lft.to/lastmile_qr_scan", "ios": "https://dc.lft.to/lastmile_qr_scan"}, "fusion_lon": 0.0}, {"lat": 38.89038933333333, "is_disabled": 0, "type": "electric_scooter", "lon": -77.04769783333333, "bike_id": "ecb0b8228476f56b801f1c949206e68c", "fusion_lat": 0.0, "name": "ecb0b8228476f56b801f1c949206e68c", "is_reserved": 0, "rental_uris": {"android": "https://dc.lft.to/lastmile_qr_scan", "ios": "https://dc.lft.to/lastmile_qr_scan"}, "fusion_lon": 0.0}, {"lat": 38.900213, "is_disabled": 0, "type": "electric_scooter", "lon": -77.0443075, "bike_id": "d1e9bb7d8b039f735deea4d8a0d8da2b", "fusion_lat": 0.0, "name": "d1e9bb7d8b039f735deea4d8a0d8da2b", "is_reserved": 0, "rental_uris": {"android": "https://dc.lft.to/lastmile_qr_scan", "ios": "https://dc.lft.to/lastmile_qr_scan"}, "fusion_lon": 0.0}, {"lat": 38.90572983333333, "is_disabled": 0, "type": "electric_scooter", "lon": -77.0467825, "bike_id": "382e5e6f6ddd2aba8b561d959d320c60", "fusion_lat": 0.0, "name": "382e5e6f6ddd2aba8b561d959d320c60", "is_reserved": 0, "rental_uris": {"android": "https://dc.lft.to/lastmile_qr_scan", "ios": "https://dc.lft.to/lastmile_qr_scan"}, "fusion_lon": 0.0}, {"lat": 38.84291566666667, "is_disabled": 0, "type": "electric_scooter", "lon": -76.99945166666667, "bike_id": "af76fb65aaaa441a01772ab41a1a3ecf", "fusion_lat": 0.0, "name": "af76fb65aaaa441a01772ab41a1a3ecf", "is_reserved": 0, "rental_uris": {"android": "https://dc.lft.to/lastmile_qr_scan", "ios": "https://dc.lft.to/lastmile_qr_scan"}, "fusion_lon": 0.0}, {"lat": 38.8923315, "is_disabled": 0, "type": "electric_scooter", "lon": -77.03214316666667, "bike_id": "fbfb47a552ec6a85cb0c618a19aaf000", "fusion_lat": 0.0, "name": "fbfb47a552ec6a85cb0c618a19aaf000", "is_reserved": 0, "rental_uris": {"android": "https://dc.lft.to/lastmile_qr_scan", "ios": "https://dc.lft.to/lastmile_qr_scan"}, "fusion_lon": 0.0}, {"lat": 38.92235633333333, "is_disabled": 0, "type": "electric_scooter", "lon": -77.04573133333334, "bike_id": "16b5c220d93aa9c3b556c25158475f2c", "fusion_lat": 0.0, "name": "16b5c220d93aa9c3b556c25158475f2c", "is_reserved": 0, "rental_uris": {"android": "https://dc.lft.to/lastmile_qr_scan", "ios": "https://dc.lft.to/lastmile_qr_scan"}, "fusion_lon": 0.0}, {"lat": 38.918589, "is_disabled": 0, "type": "electric_scooter", "lon": -77.04590833333333, "bike_id": "d76201f0774cb68cf422921eb17f7c12", "fusion_lat": 0.0, "name": "d76201f0774cb68cf422921eb17f7c12", "is_reserved": 0, "rental_uris": {"android": "https://dc.lft.to/lastmile_qr_scan", "ios": "https://dc.lft.to/lastmile_qr_scan"}, "fusion_lon": 0.0}, {"lat": 38.919541, "is_disabled": 0, "type": "electric_scooter", "lon": -76.9808495, "bike_id": "9c0b5bb40e6a8c65716aefa132a294ff", "fusion_lat": 0.0, "name": "9c0b5bb40e6a8c65716aefa132a294ff", "is_reserved": 0, "rental_uris": {"android": "https://dc.lft.to/lastmile_qr_scan", "ios": "https://dc.lft.to/lastmile_qr_scan"}, "fusion_lon": 0.0}, {"lat": 38.90326966666667, "is_disabled": 0, "type": "electric_scooter", "lon": -77.03795316666667, "bike_id": "c034314d863df9026d6b4238d38982f4", "fusion_lat": 0.0, "name": "c034314d863df9026d6b4238d38982f4", "is_reserved": 0, "rental_uris": {"android": "https://dc.lft.to/lastmile_qr_scan", "ios": "https://dc.lft.to/lastmile_qr_scan"}, "fusion_lon": 0.0}, {"lat": 38.97227766666666, "is_disabled": 0, "type": "electric_bike", "lon": -76.99352766666667, "bike_id": "76250ddf07ac17bf7b5d849f3a1b0bed", "fusion_lat": 0.0, "name": "76250ddf07ac17bf7b5d849f3a1b0bed", "is_reserved": 0, "rental_uris": {"android": "https://dc.lft.to/lastmile_qr_scan", "ios": "https://dc.lft.to/lastmile_qr_scan"}, "fusion_lon": 0.0}, {"lat": 38.86048366666667, "is_disabled": 0, "type": "electric_scooter", "lon": -77.0576535, "bike_id": "ed4a556e34d9a88300006a11cf15310b", "fusion_lat": 0.0, "name": "ed4a556e34d9a88300006a11cf15310b", "is_reserved": 0, "rental_uris": {"android": "https://dc.lft.to/lastmile_qr_scan", "ios": "https://dc.lft.to/lastmile_qr_scan"}, "fusion_lon": 0.0}, {"lat": 38.91805683333333, "is_disabled": 0, "type": "electric_scooter", "lon": -77.039857, "bike_id": "551a49e57a212f6ad4808981a294bba2", "fusion_lat": 0.0, "name": "551a49e57a212f6ad4808981a294bba2", "is_reserved": 0, "rental_uris": {"android": "https://dc.lft.to/lastmile_qr_scan", "ios": "https://dc.lft.to/lastmile_qr_scan"}, "fusion_lon": 0.0}, {"lat": 38.944977333333334, "is_disabled": 0, "type": "electric_scooter", "lon": -77.01549133333333, "bike_id": "a118efd332ac8991d133f08771acc0ab", "fusion_lat": 0.0, "name": "a118efd332ac8991d133f08771acc0ab", "is_reserved": 0, "rental_uris": {"android": "https://dc.lft.to/lastmile_qr_scan", "ios": "https://dc.lft.to/lastmile_qr_scan"}, "fusion_lon": 0.0}, {"lat": 38.9085125, "is_disabled": 0, "type": "electric_scooter", "lon": -77.020675, "bike_id": "f4ee212b83347a95cc203642627bc7e0", "fusion_lat": 0.0, "name": "f4ee212b83347a95cc203642627bc7e0", "is_reserved": 0, "rental_uris": {"android": "https://dc.lft.to/lastmile_qr_scan", "ios": "https://dc.lft.to/lastmile_qr_scan"}, "fusion_lon": 0.0}, {"lat": 38.91729733333333, "is_disabled": 0, "type": "electric_scooter", "lon": -77.021793, "bike_id": "1cf3d301cf4d6231e2a381375e82931f", "fusion_lat": 0.0, "name": "1cf3d301cf4d6231e2a381375e82931f", "is_reserved": 0, "rental_uris": {"android": "https://dc.lft.to/lastmile_qr_scan", "ios": "https://dc.lft.to/lastmile_qr_scan"}, "fusion_lon": 0.0}, {"lat": 38.91714133333333, "is_disabled": 0, "type": "electric_scooter", "lon": -77.038591, "bike_id": "307a647e03d263141dd233f4fdf07829", "fusion_lat": 0.0, "name": "307a647e03d263141dd233f4fdf07829", "is_reserved": 0, "rental_uris": {"android": "https://dc.lft.to/lastmile_qr_scan", "ios": "https://dc.lft.to/lastmile_qr_scan"}, "fusion_lon": 0.0}, {"lat": 38.904953166666665, "is_disabled": 0, "type": "electric_scooter", "lon": -77.057407, "bike_id": "9b15b1de3a6ea0001519c6fc74ec6f90", "fusion_lat": 0.0, "name": "9b15b1de3a6ea0001519c6fc74ec6f90", "is_reserved": 0, "rental_uris": {"android": "https://dc.lft.to/lastmile_qr_scan", "ios": "https://dc.lft.to/lastmile_qr_scan"}, "fusion_lon": 0.0}, {"lat": 38.93068133333333, "is_disabled": 0, "type": "electric_scooter", "lon": -77.02829616666666, "bike_id": "e1fc57a2f32535a5790bf96dd89f5c38", "fusion_lat": 0.0, "name": "e1fc57a2f32535a5790bf96dd89f5c38", "is_reserved": 0, "rental_uris": {"android": "https://dc.lft.to/lastmile_qr_scan", "ios": "https://dc.lft.to/lastmile_qr_scan"}, "fusion_lon": 0.0}, {"lat": 38.9185255, "is_disabled": 0, "type": "electric_scooter", "lon": -77.032217, "bike_id": "2657cab94676c912fa678d068932eb50", "fusion_lat": 0.0, "name": "2657cab94676c912fa678d068932eb50", "is_reserved": 0, "rental_uris": {"android": "https://dc.lft.to/lastmile_qr_scan", "ios": "https://dc.lft.to/lastmile_qr_scan"}, "fusion_lon": 0.0}, {"lat": 38.91322433333333, "is_disabled": 0, "type": "electric_scooter", "lon": -77.01216166666667, "bike_id": "8d412433a9b86ba624f86ff0cadd0861", "fusion_lat": 0.0, "name": "8d412433a9b86ba624f86ff0cadd0861", "is_reserved": 0, "rental_uris": {"android": "https://dc.lft.to/lastmile_qr_scan", "ios": "https://dc.lft.to/lastmile_qr_scan"}, "fusion_lon": 0.0}, {"lat": 38.89260383333333, "is_disabled": 0, "type": "electric_bike", "lon": -77.02584533333334, "bike_id": "f94c21a0fb86ed33d7bdc09f47c1d6be", "fusion_lat": 0.0, "name": "f94c21a0fb86ed33d7bdc09f47c1d6be", "is_reserved": 0, "rental_uris": {"android": "https://dc.lft.to/lastmile_qr_scan", "ios": "https://dc.lft.to/lastmile_qr_scan"}, "fusion_lon": 0.0}, {"lat": 38.9090005, "is_disabled": 0, "type": "electric_scooter", "lon": -77.02713333333334, "bike_id": "467cb69695b00e0d688f98f3a1fb83f2", "fusion_lat": 0.0, "name": "467cb69695b00e0d688f98f3a1fb83f2", "is_reserved": 0, "rental_uris": {"android": "https://dc.lft.to/lastmile_qr_scan", "ios": "https://dc.lft.to/lastmile_qr_scan"}, "fusion_lon": 0.0}, {"lat": 38.910363, "is_disabled": 0, "type": "electric_scooter", "lon": -77.03836666666666, "bike_id": "429dd0c7100a05f50b67fbede01d82e2", "fusion_lat": 0.0, "name": "429dd0c7100a05f50b67fbede01d82e2", "is_reserved": 0, "rental_uris": {"android": "https://dc.lft.to/lastmile_qr_scan", "ios": "https://dc.lft.to/lastmile_qr_scan"}, "fusion_lon": 0.0}, {"lat": 38.90877733333333, "is_disabled": 0, "type": "electric_scooter", "lon": -77.04345, "bike_id": "dea0fb374586ced9347137a41589453e", "fusion_lat": 0.0, "name": "dea0fb374586ced9347137a41589453e", "is_reserved": 0, "rental_uris": {"android": "https://dc.lft.to/lastmile_qr_scan", "ios": "https://dc.lft.to/lastmile_qr_scan"}, "fusion_lon": 0.0}, {"lat": 38.908774, "is_disabled": 0, "type": "electric_scooter", "lon": -77.04346366666667, "bike_id": "f51c17714c6ea3f0edb0aff51294347a", "fusion_lat": 0.0, "name": "f51c17714c6ea3f0edb0aff51294347a", "is_reserved": 0, "rental_uris": {"android": "https://dc.lft.to/lastmile_qr_scan", "ios": "https://dc.lft.to/lastmile_qr_scan"}, "fusion_lon": 0.0}, {"lat": 38.911147666666665, "is_disabled": 0, "type": "electric_scooter", "lon": -77.04362966666666, "bike_id": "b636a93be3995a1297f549042b625696", "fusion_lat": 0.0, "name": "b636a93be3995a1297f549042b625696", "is_reserved": 0, "rental_uris": {"android": "https://dc.lft.to/lastmile_qr_scan", "ios": "https://dc.lft.to/lastmile_qr_scan"}, "fusion_lon": 0.0}, {"lat": 38.899052, "is_disabled": 0, "type": "electric_scooter", "lon": -77.00373433333333, "bike_id": "585603dad3281409e0e7d1aee294e355", "fusion_lat": 0.0, "name": "585603dad3281409e0e7d1aee294e355", "is_reserved": 0, "rental_uris": {"android": "https://dc.lft.to/lastmile_qr_scan", "ios": "https://dc.lft.to/lastmile_qr_scan"}, "fusion_lon": 0.0}, {"lat": 38.90231766666667, "is_disabled": 0, "type": "electric_scooter", "lon": -77.04371216666667, "bike_id": "bed318240f33576b09ba7c9a5923bdb8", "fusion_lat": 0.0, "name": "bed318240f33576b09ba7c9a5923bdb8", "is_reserved": 0, "rental_uris": {"android": "https://dc.lft.to/lastmile_qr_scan", "ios": "https://dc.lft.to/lastmile_qr_scan"}, "fusion_lon": 0.0}, {"lat": 38.9346175, "is_disabled": 0, "type": "electric_scooter", "lon": -77.03239783333333, "bike_id": "092e8483867ed3311aadfeb8cdb7b618", "fusion_lat": 0.0, "name": "092e8483867ed3311aadfeb8cdb7b618", "is_reserved": 0, "rental_uris": {"android": "https://dc.lft.to/lastmile_qr_scan", "ios": "https://dc.lft.to/lastmile_qr_scan"}, "fusion_lon": 0.0}, {"lat": 38.9323375, "is_disabled": 0, "type": "electric_scooter", "lon": -77.04415666666667, "bike_id": "af5a1cccb8623a66ea5852eb2cf7093c", "fusion_lat": 0.0, "name": "af5a1cccb8623a66ea5852eb2cf7093c", "is_reserved": 0, "rental_uris": {"android": "https://dc.lft.to/lastmile_qr_scan", "ios": "https://dc.lft.to/lastmile_qr_scan"}, "fusion_lon": 0.0}, {"lat": 38.91658, "is_disabled": 0, "type": "electric_scooter", "lon": -77.042979, "bike_id": "2a8c41fda3a5288099b8f2306b23b535", "fusion_lat": 0.0, "name": "2a8c41fda3a5288099b8f2306b23b535", "is_reserved": 0, "rental_uris": {"android": "https://dc.lft.to/lastmile_qr_scan", "ios": "https://dc.lft.to/lastmile_qr_scan"}, "fusion_lon": 0.0}, {"lat": 38.92235733333333, "is_disabled": 0, "type": "electric_scooter", "lon": -77.03522183333334, "bike_id": "b46b9937c30cf1bfaae8fef19fe3650f", "fusion_lat": 0.0, "name": "b46b9937c30cf1bfaae8fef19fe3650f", "is_reserved": 0, "rental_uris": {"android": "https://dc.lft.to/lastmile_qr_scan", "ios": "https://dc.lft.to/lastmile_qr_scan"}, "fusion_lon": 0.0}, {"lat": 38.9217025, "is_disabled": 0, "type": "electric_scooter", "lon": -77.0513835, "bike_id": "b34699e03f95184ede1c281828e077c1", "fusion_lat": 0.0, "name": "b34699e03f95184ede1c281828e077c1", "is_reserved": 0, "rental_uris": {"android": "https://dc.lft.to/lastmile_qr_scan", "ios": "https://dc.lft.to/lastmile_qr_scan"}, "fusion_lon": 0.0}, {"lat": 38.91176, "is_disabled": 0, "type": "electric_scooter", "lon": -77.00460983333333, "bike_id": "0e5c2a617cdcc683328019f0c17b5b5c", "fusion_lat": 0.0, "name": "0e5c2a617cdcc683328019f0c17b5b5c", "is_reserved": 0, "rental_uris": {"android": "https://dc.lft.to/lastmile_qr_scan", "ios": "https://dc.lft.to/lastmile_qr_scan"}, "fusion_lon": 0.0}, {"lat": 38.910704, "is_disabled": 0, "type": "electric_scooter", "lon": -77.01639616666667, "bike_id": "c0384f52d409c4ddfc786317824ec6a3", "fusion_lat": 0.0, "name": "c0384f52d409c4ddfc786317824ec6a3", "is_reserved": 0, "rental_uris": {"android": "https://dc.lft.to/lastmile_qr_scan", "ios": "https://dc.lft.to/lastmile_qr_scan"}, "fusion_lon": 0.0}, {"lat": 38.865891, "is_disabled": 0, "type": "electric_bike", "lon": -76.93229933333333, "bike_id": "e33a6547edcfd5e83e836345bfe9356c", "fusion_lat": 0.0, "name": "e33a6547edcfd5e83e836345bfe9356c", "is_reserved": 0, "rental_uris": {"android": "https://dc.lft.to/lastmile_qr_scan", "ios": "https://dc.lft.to/lastmile_qr_scan"}, "fusion_lon": 0.0}, {"lat": 38.962171833333336, "is_disabled": 0, "type": "electric_bike", "lon": -77.02780583333333, "bike_id": "526dbc4df9c9e1185c83392d93d399b2", "fusion_lat": 0.0, "name": "526dbc4df9c9e1185c83392d93d399b2", "is_reserved": 0, "rental_uris": {"android": "https://dc.lft.to/lastmile_qr_scan", "ios": "https://dc.lft.to/lastmile_qr_scan"}, "fusion_lon": 0.0}, {"lat": 38.89241083333334, "is_disabled": 0, "type": "electric_scooter", "lon": -77.039579, "bike_id": "94196ea13d0e9c934f650d5bc7c82de9", "fusion_lat": 0.0, "name": "94196ea13d0e9c934f650d5bc7c82de9", "is_reserved": 0, "rental_uris": {"android": "https://dc.lft.to/lastmile_qr_scan", "ios": "https://dc.lft.to/lastmile_qr_scan"}, "fusion_lon": 0.0}, {"lat": 38.8521845, "is_disabled": 0, "type": "electric_bike", "lon": -77.12960633333333, "bike_id": "522f8368b52bbdc5f970f8de23beab7d", "fusion_lat": 0.0, "name": "522f8368b52bbdc5f970f8de23beab7d", "is_reserved": 0, "rental_uris": {"android": "https://dc.lft.to/lastmile_qr_scan", "ios": "https://dc.lft.to/lastmile_qr_scan"}, "fusion_lon": 0.0}, {"lat": 38.928156, "is_disabled": 0, "type": "electric_scooter", "lon": -77.043689, "bike_id": "5834c30a5b3078d957d08ddb26f0a748", "fusion_lat": 0.0, "name": "5834c30a5b3078d957d08ddb26f0a748", "is_reserved": 0, "rental_uris": {"android": "https://dc.lft.to/lastmile_qr_scan", "ios": "https://dc.lft.to/lastmile_qr_scan"}, "fusion_lon": 0.0}, {"lat": 38.900561, "is_disabled": 0, "type": "electric_scooter", "lon": -77.00758716666667, "bike_id": "4042000c8b0ab9c50f7910bfc5d3f26f", "fusion_lat": 0.0, "name": "4042000c8b0ab9c50f7910bfc5d3f26f", "is_reserved": 0, "rental_uris": {"android": "https://dc.lft.to/lastmile_qr_scan", "ios": "https://dc.lft.to/lastmile_qr_scan"}, "fusion_lon": 0.0}, {"lat": 38.927834833333335, "is_disabled": 0, "type": "electric_scooter", "lon": -77.0315595, "bike_id": "be1ac8142b46f8e789d36e83e30a36fc", "fusion_lat": 0.0, "name": "be1ac8142b46f8e789d36e83e30a36fc", "is_reserved": 0, "rental_uris": {"android": "https://dc.lft.to/lastmile_qr_scan", "ios": "https://dc.lft.to/lastmile_qr_scan"}, "fusion_lon": 0.0}, {"lat": 38.911422333333334, "is_disabled": 0, "type": "electric_scooter", "lon": -77.03753466666667, "bike_id": "0a2ea84d1dcf9abf7dc70b20f8fd33f3", "fusion_lat": 0.0, "name": "0a2ea84d1dcf9abf7dc70b20f8fd33f3", "is_reserved": 0, "rental_uris": {"android": "https://dc.lft.to/lastmile_qr_scan", "ios": "https://dc.lft.to/lastmile_qr_scan"}, "fusion_lon": 0.0}, {"lat": 38.88737883333334, "is_disabled": 0, "type": "electric_scooter", "lon": -77.020764, "bike_id": "bcb7cbb9eb5bfbb229335d674af19d87", "fusion_lat": 0.0, "name": "bcb7cbb9eb5bfbb229335d674af19d87", "is_reserved": 0, "rental_uris": {"android": "https://dc.lft.to/lastmile_qr_scan", "ios": "https://dc.lft.to/lastmile_qr_scan"}, "fusion_lon": 0.0}, {"lat": 38.86704916666667, "is_disabled": 0, "type": "electric_scooter", "lon": -76.9872715, "bike_id": "802f28577dd6f7a8d662e240b206c075", "fusion_lat": 0.0, "name": "802f28577dd6f7a8d662e240b206c075", "is_reserved": 0, "rental_uris": {"android": "https://dc.lft.to/lastmile_qr_scan", "ios": "https://dc.lft.to/lastmile_qr_scan"}, "fusion_lon": 0.0}, {"lat": 38.925087, "is_disabled": 0, "type": "electric_scooter", "lon": -76.98581683333333, "bike_id": "0d83552a8b021c735b6996f9439eaa32", "fusion_lat": 0.0, "name": "0d83552a8b021c735b6996f9439eaa32", "is_reserved": 0, "rental_uris": {"android": "https://dc.lft.to/lastmile_qr_scan", "ios": "https://dc.lft.to/lastmile_qr_scan"}, "fusion_lon": 0.0}, {"lat": 38.911989, "is_disabled": 0, "type": "electric_scooter", "lon": -77.043339, "bike_id": "230704f5a5edfbdba66404aeb017cdff", "fusion_lat": 0.0, "name": "230704f5a5edfbdba66404aeb017cdff", "is_reserved": 0, "rental_uris": {"android": "https://dc.lft.to/lastmile_qr_scan", "ios": "https://dc.lft.to/lastmile_qr_scan"}, "fusion_lon": 0.0}, {"lat": 38.92395116666667, "is_disabled": 0, "type": "electric_scooter", "lon": -77.0446675, "bike_id": "3757592bfab4c3e3ed796e957489c177", "fusion_lat": 0.0, "name": "3757592bfab4c3e3ed796e957489c177", "is_reserved": 0, "rental_uris": {"android": "https://dc.lft.to/lastmile_qr_scan", "ios": "https://dc.lft.to/lastmile_qr_scan"}, "fusion_lon": 0.0}, {"lat": 38.88483266666667, "is_disabled": 0, "type": "electric_scooter", "lon": -77.02408883333334, "bike_id": "8540fabd2db27468b11bd8c19267a7ea", "fusion_lat": 0.0, "name": "8540fabd2db27468b11bd8c19267a7ea", "is_reserved": 0, "rental_uris": {"android": "https://dc.lft.to/lastmile_qr_scan", "ios": "https://dc.lft.to/lastmile_qr_scan"}, "fusion_lon": 0.0}, {"lat": 38.916950166666666, "is_disabled": 0, "type": "electric_scooter", "lon": -77.03478466666667, "bike_id": "0bf7136439d05f20ed88853092d77a1a", "fusion_lat": 0.0, "name": "0bf7136439d05f20ed88853092d77a1a", "is_reserved": 0, "rental_uris": {"android": "https://dc.lft.to/lastmile_qr_scan", "ios": "https://dc.lft.to/lastmile_qr_scan"}, "fusion_lon": 0.0}, {"lat": 38.913060333333334, "is_disabled": 0, "type": "electric_scooter", "lon": -77.032174, "bike_id": "cfe45f340f6e34f474b5c940a198b10b", "fusion_lat": 0.0, "name": "cfe45f340f6e34f474b5c940a198b10b", "is_reserved": 0, "rental_uris": {"android": "https://dc.lft.to/lastmile_qr_scan", "ios": "https://dc.lft.to/lastmile_qr_scan"}, "fusion_lon": 0.0}, {"lat": 38.9003625, "is_disabled": 0, "type": "electric_scooter", "lon": -77.03218533333333, "bike_id": "f68cf7df34ce9937ab34ad8fc7af8360", "fusion_lat": 0.0, "name": "f68cf7df34ce9937ab34ad8fc7af8360", "is_reserved": 0, "rental_uris": {"android": "https://dc.lft.to/lastmile_qr_scan", "ios": "https://dc.lft.to/lastmile_qr_scan"}, "fusion_lon": 0.0}, {"lat": 38.917011333333335, "is_disabled": 0, "type": "electric_scooter", "lon": -77.035017, "bike_id": "3396d7140456c61bf71c489887a299b3", "fusion_lat": 0.0, "name": "3396d7140456c61bf71c489887a299b3", "is_reserved": 0, "rental_uris": {"android": "https://dc.lft.to/lastmile_qr_scan", "ios": "https://dc.lft.to/lastmile_qr_scan"}, "fusion_lon": 0.0}, {"lat": 38.9540105, "is_disabled": 0, "type": "electric_scooter", "lon": -77.027501, "bike_id": "e9314830dea4cc01e1745602e32c47c7", "fusion_lat": 0.0, "name": "e9314830dea4cc01e1745602e32c47c7", "is_reserved": 0, "rental_uris": {"android": "https://dc.lft.to/lastmile_qr_scan", "ios": "https://dc.lft.to/lastmile_qr_scan"}, "fusion_lon": 0.0}, {"lat": 38.907793, "is_disabled": 0, "type": "electric_scooter", "lon": -77.06402933333334, "bike_id": "9673da00112033761e2cf8d7e5e8c69b", "fusion_lat": 0.0, "name": "9673da00112033761e2cf8d7e5e8c69b", "is_reserved": 0, "rental_uris": {"android": "https://dc.lft.to/lastmile_qr_scan", "ios": "https://dc.lft.to/lastmile_qr_scan"}, "fusion_lon": 0.0}, {"lat": 38.9334505, "is_disabled": 0, "type": "electric_scooter", "lon": -77.02403466666667, "bike_id": "1e6ad236a2f61f78edc31b44cf086fb5", "fusion_lat": 0.0, "name": "1e6ad236a2f61f78edc31b44cf086fb5", "is_reserved": 0, "rental_uris": {"android": "https://dc.lft.to/lastmile_qr_scan", "ios": "https://dc.lft.to/lastmile_qr_scan"}, "fusion_lon": 0.0}, {"lat": 38.903183166666665, "is_disabled": 0, "type": "electric_scooter", "lon": -77.02552933333334, "bike_id": "20a66eb81125e76db6e0e5d20c806b7d", "fusion_lat": 0.0, "name": "20a66eb81125e76db6e0e5d20c806b7d", "is_reserved": 0, "rental_uris": {"android": "https://dc.lft.to/lastmile_qr_scan", "ios": "https://dc.lft.to/lastmile_qr_scan"}, "fusion_lon": 0.0}, {"lat": 38.80271416666667, "is_disabled": 0, "type": "electric_bike", "lon": -77.08114066666667, "bike_id": "7eebdd12746a0a96a2afba1d50a1a35e", "fusion_lat": 0.0, "name": "7eebdd12746a0a96a2afba1d50a1a35e", "is_reserved": 0, "rental_uris": {"android": "https://dc.lft.to/lastmile_qr_scan", "ios": "https://dc.lft.to/lastmile_qr_scan"}, "fusion_lon": 0.0}, {"lat": 38.928694166666666, "is_disabled": 0, "type": "electric_scooter", "lon": -77.03223333333334, "bike_id": "300d8b9f0d25fa9808757f6ec337b769", "fusion_lat": 0.0, "name": "300d8b9f0d25fa9808757f6ec337b769", "is_reserved": 0, "rental_uris": {"android": "https://dc.lft.to/lastmile_qr_scan", "ios": "https://dc.lft.to/lastmile_qr_scan"}, "fusion_lon": 0.0}, {"lat": 38.923519166666665, "is_disabled": 0, "type": "electric_scooter", "lon": -77.02454116666667, "bike_id": "44cb04457407f7a29f1fc1b1678175d7", "fusion_lat": 0.0, "name": "44cb04457407f7a29f1fc1b1678175d7", "is_reserved": 0, "rental_uris": {"android": "https://dc.lft.to/lastmile_qr_scan", "ios": "https://dc.lft.to/lastmile_qr_scan"}, "fusion_lon": 0.0}, {"lat": 38.89638133333333, "is_disabled": 0, "type": "electric_scooter", "lon": -77.02323433333333, "bike_id": "54297c215bb5fbd0c71fd3e79bba518a", "fusion_lat": 0.0, "name": "54297c215bb5fbd0c71fd3e79bba518a", "is_reserved": 0, "rental_uris": {"android": "https://dc.lft.to/lastmile_qr_scan", "ios": "https://dc.lft.to/lastmile_qr_scan"}, "fusion_lon": 0.0}, {"lat": 38.909546666666664, "is_disabled": 0, "type": "electric_scooter", "lon": -77.04072333333333, "bike_id": "5306470a27e2eeea7392cd49170901d4", "fusion_lat": 0.0, "name": "5306470a27e2eeea7392cd49170901d4", "is_reserved": 0, "rental_uris": {"android": "https://dc.lft.to/lastmile_qr_scan", "ios": "https://dc.lft.to/lastmile_qr_scan"}, "fusion_lon": 0.0}, {"lat": 38.919176666666665, "is_disabled": 0, "type": "electric_scooter", "lon": -77.0134645, "bike_id": "86af0b7742077077d8bc7fcb87d372fd", "fusion_lat": 0.0, "name": "86af0b7742077077d8bc7fcb87d372fd", "is_reserved": 0, "rental_uris": {"android": "https://dc.lft.to/lastmile_qr_scan", "ios": "https://dc.lft.to/lastmile_qr_scan"}, "fusion_lon": 0.0}, {"lat": 38.906007, "is_disabled": 0, "type": "electric_scooter", "lon": -77.0630045, "bike_id": "64a9be4fd99f15dad6e8c784fe9394f0", "fusion_lat": 0.0, "name": "64a9be4fd99f15dad6e8c784fe9394f0", "is_reserved": 0, "rental_uris": {"android": "https://dc.lft.to/lastmile_qr_scan", "ios": "https://dc.lft.to/lastmile_qr_scan"}, "fusion_lon": 0.0}, {"lat": 38.934969333333335, "is_disabled": 0, "type": "electric_scooter", "lon": -77.05805416666666, "bike_id": "a40bcbc7ca6e2ea2f14f67401fc21a59", "fusion_lat": 0.0, "name": "a40bcbc7ca6e2ea2f14f67401fc21a59", "is_reserved": 0, "rental_uris": {"android": "https://dc.lft.to/lastmile_qr_scan", "ios": "https://dc.lft.to/lastmile_qr_scan"}, "fusion_lon": 0.0}, {"lat": 38.870142333333334, "is_disabled": 0, "type": "electric_bike", "lon": -76.96025733333333, "bike_id": "681acf48bbf0f7397f70175c2cb712f7", "fusion_lat": 0.0, "name": "681acf48bbf0f7397f70175c2cb712f7", "is_reserved": 0, "rental_uris": {"android": "https://dc.lft.to/lastmile_qr_scan", "ios": "https://dc.lft.to/lastmile_qr_scan"}, "fusion_lon": 0.0}, {"lat": 38.930368333333334, "is_disabled": 0, "type": "electric_scooter", "lon": -77.036311, "bike_id": "20bca69d36ab5598ce143467523da37b", "fusion_lat": 0.0, "name": "20bca69d36ab5598ce143467523da37b", "is_reserved": 0, "rental_uris": {"android": "https://dc.lft.to/lastmile_qr_scan", "ios": "https://dc.lft.to/lastmile_qr_scan"}, "fusion_lon": 0.0}, {"lat": 38.93316883333333, "is_disabled": 0, "type": "electric_bike", "lon": -76.97192216666667, "bike_id": "372eb067ed6b3951363aabe5b23e701e", "fusion_lat": 0.0, "name": "372eb067ed6b3951363aabe5b23e701e", "is_reserved": 0, "rental_uris": {"android": "https://dc.lft.to/lastmile_qr_scan", "ios": "https://dc.lft.to/lastmile_qr_scan"}, "fusion_lon": 0.0}, {"lat": 38.908543333333334, "is_disabled": 0, "type": "electric_scooter", "lon": -77.04595783333333, "bike_id": "73b1d27270e031e4a2f11165e206093e", "fusion_lat": 0.0, "name": "73b1d27270e031e4a2f11165e206093e", "is_reserved": 0, "rental_uris": {"android": "https://dc.lft.to/lastmile_qr_scan", "ios": "https://dc.lft.to/lastmile_qr_scan"}, "fusion_lon": 0.0}, {"lat": 38.933477333333336, "is_disabled": 0, "type": "electric_scooter", "lon": -77.05700116666667, "bike_id": "9fc6aa8bfb67d53db301425ad7a32149", "fusion_lat": 0.0, "name": "9fc6aa8bfb67d53db301425ad7a32149", "is_reserved": 0, "rental_uris": {"android": "https://dc.lft.to/lastmile_qr_scan", "ios": "https://dc.lft.to/lastmile_qr_scan"}, "fusion_lon": 0.0}, {"lat": 38.91685483333333, "is_disabled": 0, "type": "electric_scooter", "lon": -77.03090783333333, "bike_id": "e52a548118e998140407c5a7f78ae192", "fusion_lat": 0.0, "name": "e52a548118e998140407c5a7f78ae192", "is_reserved": 0, "rental_uris": {"android": "https://dc.lft.to/lastmile_qr_scan", "ios": "https://dc.lft.to/lastmile_qr_scan"}, "fusion_lon": 0.0}, {"lat": 38.83673566666667, "is_disabled": 0, "type": "electric_scooter", "lon": -77.0057115, "bike_id": "53f4bc35b89da3f4028b2027b24ac42e", "fusion_lat": 0.0, "name": "53f4bc35b89da3f4028b2027b24ac42e", "is_reserved": 0, "rental_uris": {"android": "https://dc.lft.to/lastmile_qr_scan", "ios": "https://dc.lft.to/lastmile_qr_scan"}, "fusion_lon": 0.0}, {"lat": 38.954077166666664, "is_disabled": 0, "type": "electric_scooter", "lon": -77.03635816666667, "bike_id": "eb9d3dcb7cdc0465ee6070a926655db2", "fusion_lat": 0.0, "name": "eb9d3dcb7cdc0465ee6070a926655db2", "is_reserved": 0, "rental_uris": {"android": "https://dc.lft.to/lastmile_qr_scan", "ios": "https://dc.lft.to/lastmile_qr_scan"}, "fusion_lon": 0.0}, {"lat": 38.905554, "is_disabled": 0, "type": "electric_scooter", "lon": -77.03411666666666, "bike_id": "20c082099aed253f272434c60ad2f808", "fusion_lat": 0.0, "name": "20c082099aed253f272434c60ad2f808", "is_reserved": 0, "rental_uris": {"android": "https://dc.lft.to/lastmile_qr_scan", "ios": "https://dc.lft.to/lastmile_qr_scan"}, "fusion_lon": 0.0}, {"lat": 38.86907383333333, "is_disabled": 0, "type": "electric_bike", "lon": -77.13185833333333, "bike_id": "9f83221e51c9171a7abaa4675a7877e0", "fusion_lat": 0.0, "name": "9f83221e51c9171a7abaa4675a7877e0", "is_reserved": 0, "rental_uris": {"android": "https://dc.lft.to/lastmile_qr_scan", "ios": "https://dc.lft.to/lastmile_qr_scan"}, "fusion_lon": 0.0}, {"lat": 38.931758333333335, "is_disabled": 0, "type": "electric_scooter", "lon": -77.028162, "bike_id": "365dcc179d5dcebd649931a278fa84e7", "fusion_lat": 0.0, "name": "365dcc179d5dcebd649931a278fa84e7", "is_reserved": 0, "rental_uris": {"android": "https://dc.lft.to/lastmile_qr_scan", "ios": "https://dc.lft.to/lastmile_qr_scan"}, "fusion_lon": 0.0}, {"lat": 38.904902, "is_disabled": 0, "type": "electric_scooter", "lon": -77.05802833333334, "bike_id": "48f5330e4cafd6609b69cae2934c50d5", "fusion_lat": 0.0, "name": "48f5330e4cafd6609b69cae2934c50d5", "is_reserved": 0, "rental_uris": {"android": "https://dc.lft.to/lastmile_qr_scan", "ios": "https://dc.lft.to/lastmile_qr_scan"}, "fusion_lon": 0.0}, {"lat": 38.902560666666666, "is_disabled": 0, "type": "electric_scooter", "lon": -77.0186885, "bike_id": "b5fa5e8484bbd16a17df737029579c9d", "fusion_lat": 0.0, "name": "b5fa5e8484bbd16a17df737029579c9d", "is_reserved": 0, "rental_uris": {"android": "https://dc.lft.to/lastmile_qr_scan", "ios": "https://dc.lft.to/lastmile_qr_scan"}, "fusion_lon": 0.0}, {"lat": 38.90009533333333, "is_disabled": 0, "type": "electric_scooter", "lon": -76.98699716666667, "bike_id": "aa9b7e08d5bb77f6ac8a300a85fee0f1", "fusion_lat": 0.0, "name": "aa9b7e08d5bb77f6ac8a300a85fee0f1", "is_reserved": 0, "rental_uris": {"android": "https://dc.lft.to/lastmile_qr_scan", "ios": "https://dc.lft.to/lastmile_qr_scan"}, "fusion_lon": 0.0}, {"lat": 38.91259083333333, "is_disabled": 0, "type": "electric_scooter", "lon": -77.04466966666666, "bike_id": "2c2c5573cb15a5294606eb098f20953a", "fusion_lat": 0.0, "name": "2c2c5573cb15a5294606eb098f20953a", "is_reserved": 0, "rental_uris": {"android": "https://dc.lft.to/lastmile_qr_scan", "ios": "https://dc.lft.to/lastmile_qr_scan"}, "fusion_lon": 0.0}, {"lat": 38.89037716666667, "is_disabled": 0, "type": "electric_scooter", "lon": -76.95143383333334, "bike_id": "1ba9a818ab1b9ac8b177ca34fe0e446d", "fusion_lat": 0.0, "name": "1ba9a818ab1b9ac8b177ca34fe0e446d", "is_reserved": 0, "rental_uris": {"android": "https://dc.lft.to/lastmile_qr_scan", "ios": "https://dc.lft.to/lastmile_qr_scan"}, "fusion_lon": 0.0}, {"lat": 38.913318333333336, "is_disabled": 0, "type": "electric_scooter", "lon": -77.038574, "bike_id": "ddb65acd0afae247845959bf1b76530f", "fusion_lat": 0.0, "name": "ddb65acd0afae247845959bf1b76530f", "is_reserved": 0, "rental_uris": {"android": "https://dc.lft.to/lastmile_qr_scan", "ios": "https://dc.lft.to/lastmile_qr_scan"}, "fusion_lon": 0.0}, {"lat": 38.93279916666667, "is_disabled": 0, "type": "electric_scooter", "lon": -77.03979183333334, "bike_id": "edb97a50f7cb75925dbefa2883c9357a", "fusion_lat": 0.0, "name": "edb97a50f7cb75925dbefa2883c9357a", "is_reserved": 0, "rental_uris": {"android": "https://dc.lft.to/lastmile_qr_scan", "ios": "https://dc.lft.to/lastmile_qr_scan"}, "fusion_lon": 0.0}, {"lat": 38.84660083333333, "is_disabled": 0, "type": "electric_bike", "lon": -76.97934666666667, "bike_id": "c6a37c045a8254122387281d0dc32e38", "fusion_lat": 0.0, "name": "c6a37c045a8254122387281d0dc32e38", "is_reserved": 0, "rental_uris": {"android": "https://dc.lft.to/lastmile_qr_scan", "ios": "https://dc.lft.to/lastmile_qr_scan"}, "fusion_lon": 0.0}, {"lat": 38.9055785, "is_disabled": 0, "type": "electric_scooter", "lon": -77.0201865, "bike_id": "139d081527cb27c548fefd463b40172a", "fusion_lat": 0.0, "name": "139d081527cb27c548fefd463b40172a", "is_reserved": 0, "rental_uris": {"android": "https://dc.lft.to/lastmile_qr_scan", "ios": "https://dc.lft.to/lastmile_qr_scan"}, "fusion_lon": 0.0}, {"lat": 38.910471333333334, "is_disabled": 0, "type": "electric_scooter", "lon": -77.0151185, "bike_id": "667aaec8e8b1c2f4bd100d64b663f21f", "fusion_lat": 0.0, "name": "667aaec8e8b1c2f4bd100d64b663f21f", "is_reserved": 0, "rental_uris": {"android": "https://dc.lft.to/lastmile_qr_scan", "ios": "https://dc.lft.to/lastmile_qr_scan"}, "fusion_lon": 0.0}, {"lat": 38.895002, "is_disabled": 0, "type": "electric_scooter", "lon": -77.02286566666666, "bike_id": "a1712d473cfbbd430276fe8eb4d6fb22", "fusion_lat": 0.0, "name": "a1712d473cfbbd430276fe8eb4d6fb22", "is_reserved": 0, "rental_uris": {"android": "https://dc.lft.to/lastmile_qr_scan", "ios": "https://dc.lft.to/lastmile_qr_scan"}, "fusion_lon": 0.0}, {"lat": 38.93414033333333, "is_disabled": 0, "type": "electric_scooter", "lon": -77.0578725, "bike_id": "772e7eb9acffbc90f95e757aafa098c8", "fusion_lat": 0.0, "name": "772e7eb9acffbc90f95e757aafa098c8", "is_reserved": 0, "rental_uris": {"android": "https://dc.lft.to/lastmile_qr_scan", "ios": "https://dc.lft.to/lastmile_qr_scan"}, "fusion_lon": 0.0}, {"lat": 38.9054765, "is_disabled": 0, "type": "electric_scooter", "lon": -77.03416266666666, "bike_id": "c0bccdf46356b71fdfdc0d8bca4eb6b2", "fusion_lat": 0.0, "name": "c0bccdf46356b71fdfdc0d8bca4eb6b2", "is_reserved": 0, "rental_uris": {"android": "https://dc.lft.to/lastmile_qr_scan", "ios": "https://dc.lft.to/lastmile_qr_scan"}, "fusion_lon": 0.0}, {"lat": 38.920036, "is_disabled": 0, "type": "electric_scooter", "lon": -77.03233816666666, "bike_id": "f7febd057b5d229cff49470cb51d9e01", "fusion_lat": 0.0, "name": "f7febd057b5d229cff49470cb51d9e01", "is_reserved": 0, "rental_uris": {"android": "https://dc.lft.to/lastmile_qr_scan", "ios": "https://dc.lft.to/lastmile_qr_scan"}, "fusion_lon": 0.0}, {"lat": 38.90547316666667, "is_disabled": 0, "type": "electric_scooter", "lon": -77.03439466666667, "bike_id": "883cfdcf144bc20aaa6bcb7b54206d0d", "fusion_lat": 0.0, "name": "883cfdcf144bc20aaa6bcb7b54206d0d", "is_reserved": 0, "rental_uris": {"android": "https://dc.lft.to/lastmile_qr_scan", "ios": "https://dc.lft.to/lastmile_qr_scan"}, "fusion_lon": 0.0}, {"lat": 38.92389933333333, "is_disabled": 0, "type": "electric_scooter", "lon": -77.04474583333334, "bike_id": "d004b634c118b953c4cd29cc2a646aba", "fusion_lat": 0.0, "name": "d004b634c118b953c4cd29cc2a646aba", "is_reserved": 0, "rental_uris": {"android": "https://dc.lft.to/lastmile_qr_scan", "ios": "https://dc.lft.to/lastmile_qr_scan"}, "fusion_lon": 0.0}, {"lat": 38.9129695, "is_disabled": 0, "type": "electric_scooter", "lon": -77.019459, "bike_id": "491c2e6fc0ab57b2be9f9f9d18756d9a", "fusion_lat": 0.0, "name": "491c2e6fc0ab57b2be9f9f9d18756d9a", "is_reserved": 0, "rental_uris": {"android": "https://dc.lft.to/lastmile_qr_scan", "ios": "https://dc.lft.to/lastmile_qr_scan"}, "fusion_lon": 0.0}, {"lat": 38.905734, "is_disabled": 0, "type": "electric_scooter", "lon": -77.062735, "bike_id": "31da7e67e955cd5c3198ce91a5c5c227", "fusion_lat": 0.0, "name": "31da7e67e955cd5c3198ce91a5c5c227", "is_reserved": 0, "rental_uris": {"android": "https://dc.lft.to/lastmile_qr_scan", "ios": "https://dc.lft.to/lastmile_qr_scan"}, "fusion_lon": 0.0}, {"lat": 38.89109283333333, "is_disabled": 0, "type": "electric_scooter", "lon": -76.94390316666667, "bike_id": "865ee7d7e1c58799393067876a152f4b", "fusion_lat": 0.0, "name": "865ee7d7e1c58799393067876a152f4b", "is_reserved": 0, "rental_uris": {"android": "https://dc.lft.to/lastmile_qr_scan", "ios": "https://dc.lft.to/lastmile_qr_scan"}, "fusion_lon": 0.0}, {"lat": 38.92578733333333, "is_disabled": 0, "type": "electric_scooter", "lon": -77.02569883333334, "bike_id": "6ca6f701599aa6ea27c1da8b92066333", "fusion_lat": 0.0, "name": "6ca6f701599aa6ea27c1da8b92066333", "is_reserved": 0, "rental_uris": {"android": "https://dc.lft.to/lastmile_qr_scan", "ios": "https://dc.lft.to/lastmile_qr_scan"}, "fusion_lon": 0.0}, {"lat": 38.907652, "is_disabled": 0, "type": "electric_scooter", "lon": -77.04352133333333, "bike_id": "be9cbef8387ca386119b82a879ef4daf", "fusion_lat": 0.0, "name": "be9cbef8387ca386119b82a879ef4daf", "is_reserved": 0, "rental_uris": {"android": "https://dc.lft.to/lastmile_qr_scan", "ios": "https://dc.lft.to/lastmile_qr_scan"}, "fusion_lon": 0.0}, {"lat": 38.93631116666667, "is_disabled": 0, "type": "electric_scooter", "lon": -77.05882983333333, "bike_id": "0951cd94c7c4fc3dc200ac7c5a5a720e", "fusion_lat": 0.0, "name": "0951cd94c7c4fc3dc200ac7c5a5a720e", "is_reserved": 0, "rental_uris": {"android": "https://dc.lft.to/lastmile_qr_scan", "ios": "https://dc.lft.to/lastmile_qr_scan"}, "fusion_lon": 0.0}, {"lat": 38.906258333333334, "is_disabled": 0, "type": "electric_scooter", "lon": -76.98991666666667, "bike_id": "3a2e65aad3c3c78bffbe0b3cac027ec7", "fusion_lat": 0.0, "name": "3a2e65aad3c3c78bffbe0b3cac027ec7", "is_reserved": 0, "rental_uris": {"android": "https://dc.lft.to/lastmile_qr_scan", "ios": "https://dc.lft.to/lastmile_qr_scan"}, "fusion_lon": 0.0}, {"lat": 38.90741966666667, "is_disabled": 0, "type": "electric_scooter", "lon": -77.00378816666667, "bike_id": "a011e2630cdd5041a81574c9d616d58d", "fusion_lat": 0.0, "name": "a011e2630cdd5041a81574c9d616d58d", "is_reserved": 0, "rental_uris": {"android": "https://dc.lft.to/lastmile_qr_scan", "ios": "https://dc.lft.to/lastmile_qr_scan"}, "fusion_lon": 0.0}, {"lat": 38.859063666666664, "is_disabled": 0, "type": "electric_scooter", "lon": -76.9915025, "bike_id": "30a0f209a32fd0556527a4685dcc3dbd", "fusion_lat": 0.0, "name": "30a0f209a32fd0556527a4685dcc3dbd", "is_reserved": 0, "rental_uris": {"android": "https://dc.lft.to/lastmile_qr_scan", "ios": "https://dc.lft.to/lastmile_qr_scan"}, "fusion_lon": 0.0}, {"lat": 38.90434916666667, "is_disabled": 0, "type": "electric_scooter", "lon": -76.98220183333333, "bike_id": "0d79c14efe161d66faba917ed55a608a", "fusion_lat": 0.0, "name": "0d79c14efe161d66faba917ed55a608a", "is_reserved": 0, "rental_uris": {"android": "https://dc.lft.to/lastmile_qr_scan", "ios": "https://dc.lft.to/lastmile_qr_scan"}, "fusion_lon": 0.0}, {"lat": 38.899032166666665, "is_disabled": 0, "type": "electric_scooter", "lon": -76.933657, "bike_id": "21366179e82ab02f2b47cff7697e3265", "fusion_lat": 0.0, "name": "21366179e82ab02f2b47cff7697e3265", "is_reserved": 0, "rental_uris": {"android": "https://dc.lft.to/lastmile_qr_scan", "ios": "https://dc.lft.to/lastmile_qr_scan"}, "fusion_lon": 0.0}, {"lat": 38.927415333333336, "is_disabled": 0, "type": "electric_scooter", "lon": -77.02531083333334, "bike_id": "11c2c954cd98fbe748fbddc79dda9d1f", "fusion_lat": 0.0, "name": "11c2c954cd98fbe748fbddc79dda9d1f", "is_reserved": 0, "rental_uris": {"android": "https://dc.lft.to/lastmile_qr_scan", "ios": "https://dc.lft.to/lastmile_qr_scan"}, "fusion_lon": 0.0}, {"lat": 38.93060716666667, "is_disabled": 0, "type": "electric_scooter", "lon": -77.04187016666667, "bike_id": "06f2832dbbe1bf2e47364db8e7ee12f9", "fusion_lat": 0.0, "name": "06f2832dbbe1bf2e47364db8e7ee12f9", "is_reserved": 0, "rental_uris": {"android": "https://dc.lft.to/lastmile_qr_scan", "ios": "https://dc.lft.to/lastmile_qr_scan"}, "fusion_lon": 0.0}, {"lat": 38.93987116666667, "is_disabled": 0, "type": "electric_scooter", "lon": -77.02962066666667, "bike_id": "5bba5a13b0abbe5e7204967ea494b7f0", "fusion_lat": 0.0, "name": "5bba5a13b0abbe5e7204967ea494b7f0", "is_reserved": 0, "rental_uris": {"android": "https://dc.lft.to/lastmile_qr_scan", "ios": "https://dc.lft.to/lastmile_qr_scan"}, "fusion_lon": 0.0}, {"lat": 38.885204333333334, "is_disabled": 0, "type": "electric_scooter", "lon": -77.0106995, "bike_id": "27a939ad869e12d113d0a81355ea83ff", "fusion_lat": 0.0, "name": "27a939ad869e12d113d0a81355ea83ff", "is_reserved": 0, "rental_uris": {"android": "https://dc.lft.to/lastmile_qr_scan", "ios": "https://dc.lft.to/lastmile_qr_scan"}, "fusion_lon": 0.0}, {"lat": 38.866232, "is_disabled": 0, "type": "electric_scooter", "lon": -76.9866655, "bike_id": "3a2219dfd964205cdacae0ae8bb01a10", "fusion_lat": 0.0, "name": "3a2219dfd964205cdacae0ae8bb01a10", "is_reserved": 0, "rental_uris": {"android": "https://dc.lft.to/lastmile_qr_scan", "ios": "https://dc.lft.to/lastmile_qr_scan"}, "fusion_lon": 0.0}, {"lat": 38.90956033333333, "is_disabled": 0, "type": "electric_scooter", "lon": -77.04825416666667, "bike_id": "b105e66ccaa2a8d7df13916272d76b20", "fusion_lat": 0.0, "name": "b105e66ccaa2a8d7df13916272d76b20", "is_reserved": 0, "rental_uris": {"android": "https://dc.lft.to/lastmile_qr_scan", "ios": "https://dc.lft.to/lastmile_qr_scan"}, "fusion_lon": 0.0}, {"lat": 38.88495733333333, "is_disabled": 0, "type": "electric_scooter", "lon": -77.00713933333333, "bike_id": "8d617784f108a0fd154bdfda525a4dd8", "fusion_lat": 0.0, "name": "8d617784f108a0fd154bdfda525a4dd8", "is_reserved": 0, "rental_uris": {"android": "https://dc.lft.to/lastmile_qr_scan", "ios": "https://dc.lft.to/lastmile_qr_scan"}, "fusion_lon": 0.0}, {"lat": 38.8458965, "is_disabled": 0, "type": "electric_bike", "lon": -77.07679783333333, "bike_id": "20e7051f1f8c3d5d0fac4737be939f43", "fusion_lat": 0.0, "name": "20e7051f1f8c3d5d0fac4737be939f43", "is_reserved": 0, "rental_uris": {"android": "https://dc.lft.to/lastmile_qr_scan", "ios": "https://dc.lft.to/lastmile_qr_scan"}, "fusion_lon": 0.0}, {"lat": 38.90637483333333, "is_disabled": 0, "type": "electric_scooter", "lon": -77.01381883333333, "bike_id": "c6c791561f943ca341329b584c6d4e69", "fusion_lat": 0.0, "name": "c6c791561f943ca341329b584c6d4e69", "is_reserved": 0, "rental_uris": {"android": "https://dc.lft.to/lastmile_qr_scan", "ios": "https://dc.lft.to/lastmile_qr_scan"}, "fusion_lon": 0.0}, {"lat": 38.90583216666667, "is_disabled": 0, "type": "electric_scooter", "lon": -77.0468835, "bike_id": "576218f09b3740ea641a1d41d07e86e3", "fusion_lat": 0.0, "name": "576218f09b3740ea641a1d41d07e86e3", "is_reserved": 0, "rental_uris": {"android": "https://dc.lft.to/lastmile_qr_scan", "ios": "https://dc.lft.to/lastmile_qr_scan"}, "fusion_lon": 0.0}, {"lat": 38.89254066666667, "is_disabled": 0, "type": "electric_scooter", "lon": -77.0220545, "bike_id": "00766512eeaa1284f9b82aeb807bfea6", "fusion_lat": 0.0, "name": "00766512eeaa1284f9b82aeb807bfea6", "is_reserved": 0, "rental_uris": {"android": "https://dc.lft.to/lastmile_qr_scan", "ios": "https://dc.lft.to/lastmile_qr_scan"}, "fusion_lon": 0.0}, {"lat": 38.81431966666667, "is_disabled": 0, "type": "electric_bike", "lon": -77.118964, "bike_id": "d0754e7f65fd2eb8cb416fbcbfe0195f", "fusion_lat": 0.0, "name": "d0754e7f65fd2eb8cb416fbcbfe0195f", "is_reserved": 0, "rental_uris": {"android": "https://dc.lft.to/lastmile_qr_scan", "ios": "https://dc.lft.to/lastmile_qr_scan"}, "fusion_lon": 0.0}, {"lat": 38.866486333333334, "is_disabled": 0, "type": "electric_scooter", "lon": -76.988881, "bike_id": "6457cd7be16b9cadfb6167b002b9ec97", "fusion_lat": 0.0, "name": "6457cd7be16b9cadfb6167b002b9ec97", "is_reserved": 0, "rental_uris": {"android": "https://dc.lft.to/lastmile_qr_scan", "ios": "https://dc.lft.to/lastmile_qr_scan"}, "fusion_lon": 0.0}, {"lat": 38.89709116666667, "is_disabled": 0, "type": "electric_scooter", "lon": -77.00724183333334, "bike_id": "cfc03ffd078d537775c80cc043969088", "fusion_lat": 0.0, "name": "cfc03ffd078d537775c80cc043969088", "is_reserved": 0, "rental_uris": {"android": "https://dc.lft.to/lastmile_qr_scan", "ios": "https://dc.lft.to/lastmile_qr_scan"}, "fusion_lon": 0.0}, {"lat": 38.92319533333333, "is_disabled": 0, "type": "electric_scooter", "lon": -77.03970233333334, "bike_id": "db046d70aa64d23ef6544a6a2187f2ee", "fusion_lat": 0.0, "name": "db046d70aa64d23ef6544a6a2187f2ee", "is_reserved": 0, "rental_uris": {"android": "https://dc.lft.to/lastmile_qr_scan", "ios": "https://dc.lft.to/lastmile_qr_scan"}, "fusion_lon": 0.0}, {"lat": 38.905696, "is_disabled": 0, "type": "electric_scooter", "lon": -76.98873616666667, "bike_id": "5518e11f0b39a4a675741f29b44d2b73", "fusion_lat": 0.0, "name": "5518e11f0b39a4a675741f29b44d2b73", "is_reserved": 0, "rental_uris": {"android": "https://dc.lft.to/lastmile_qr_scan", "ios": "https://dc.lft.to/lastmile_qr_scan"}, "fusion_lon": 0.0}, {"lat": 38.924871333333336, "is_disabled": 0, "type": "electric_scooter", "lon": -77.05218933333333, "bike_id": "9ef4a09a6f309a9b86bf8f2c9c4a5531", "fusion_lat": 0.0, "name": "9ef4a09a6f309a9b86bf8f2c9c4a5531", "is_reserved": 0, "rental_uris": {"android": "https://dc.lft.to/lastmile_qr_scan", "ios": "https://dc.lft.to/lastmile_qr_scan"}, "fusion_lon": 0.0}, {"lat": 38.91178383333333, "is_disabled": 0, "type": "electric_scooter", "lon": -77.03868116666666, "bike_id": "ac2e7647403226fbf0a51751b96b6381", "fusion_lat": 0.0, "name": "ac2e7647403226fbf0a51751b96b6381", "is_reserved": 0, "rental_uris": {"android": "https://dc.lft.to/lastmile_qr_scan", "ios": "https://dc.lft.to/lastmile_qr_scan"}, "fusion_lon": 0.0}, {"lat": 38.907764, "is_disabled": 0, "type": "electric_scooter", "lon": -77.06927066666667, "bike_id": "f5456d4241b7d9920ac404531b0893b7", "fusion_lat": 0.0, "name": "f5456d4241b7d9920ac404531b0893b7", "is_reserved": 0, "rental_uris": {"android": "https://dc.lft.to/lastmile_qr_scan", "ios": "https://dc.lft.to/lastmile_qr_scan"}, "fusion_lon": 0.0}, {"lat": 38.9195305, "is_disabled": 0, "type": "electric_scooter", "lon": -77.0250215, "bike_id": "d87b7180ae19865aa80bce957c3b9c88", "fusion_lat": 0.0, "name": "d87b7180ae19865aa80bce957c3b9c88", "is_reserved": 0, "rental_uris": {"android": "https://dc.lft.to/lastmile_qr_scan", "ios": "https://dc.lft.to/lastmile_qr_scan"}, "fusion_lon": 0.0}, {"lat": 38.93351916666667, "is_disabled": 0, "type": "electric_scooter", "lon": -77.05867933333333, "bike_id": "e24ae6d5574f404488948f21878e8913", "fusion_lat": 0.0, "name": "e24ae6d5574f404488948f21878e8913", "is_reserved": 0, "rental_uris": {"android": "https://dc.lft.to/lastmile_qr_scan", "ios": "https://dc.lft.to/lastmile_qr_scan"}, "fusion_lon": 0.0}, {"lat": 38.89845916666667, "is_disabled": 0, "type": "electric_scooter", "lon": -76.94460683333334, "bike_id": "c2ce4a95282c770c21450d24cc02e655", "fusion_lat": 0.0, "name": "c2ce4a95282c770c21450d24cc02e655", "is_reserved": 0, "rental_uris": {"android": "https://dc.lft.to/lastmile_qr_scan", "ios": "https://dc.lft.to/lastmile_qr_scan"}, "fusion_lon": 0.0}, {"lat": 38.89355116666667, "is_disabled": 0, "type": "electric_scooter", "lon": -77.04160883333333, "bike_id": "19211a1943b5d8fd38fb58cc1c8d295c", "fusion_lat": 0.0, "name": "19211a1943b5d8fd38fb58cc1c8d295c", "is_reserved": 0, "rental_uris": {"android": "https://dc.lft.to/lastmile_qr_scan", "ios": "https://dc.lft.to/lastmile_qr_scan"}, "fusion_lon": 0.0}, {"lat": 39.0943895, "is_disabled": 0, "type": "electric_bike", "lon": -77.13462666666666, "bike_id": "8b55b08c7f2289209cae8639c8ca47b1", "fusion_lat": 0.0, "name": "8b55b08c7f2289209cae8639c8ca47b1", "is_reserved": 0, "rental_uris": {"android": "https://dc.lft.to/lastmile_qr_scan", "ios": "https://dc.lft.to/lastmile_qr_scan"}, "fusion_lon": 0.0}, {"lat": 38.928526833333336, "is_disabled": 0, "type": "electric_scooter", "lon": -77.03093533333333, "bike_id": "c8f5bc5ee247a8a8dc2b4726671906b0", "fusion_lat": 0.0, "name": "c8f5bc5ee247a8a8dc2b4726671906b0", "is_reserved": 0, "rental_uris": {"android": "https://dc.lft.to/lastmile_qr_scan", "ios": "https://dc.lft.to/lastmile_qr_scan"}, "fusion_lon": 0.0}, {"lat": 38.905294, "is_disabled": 0, "type": "electric_scooter", "lon": -77.058448, "bike_id": "f5934a06bd798cfa97b64a29875090d4", "fusion_lat": 0.0, "name": "f5934a06bd798cfa97b64a29875090d4", "is_reserved": 0, "rental_uris": {"android": "https://dc.lft.to/lastmile_qr_scan", "ios": "https://dc.lft.to/lastmile_qr_scan"}, "fusion_lon": 0.0}, {"lat": 38.862872, "is_disabled": 0, "type": "electric_scooter", "lon": -76.9923895, "bike_id": "f5b925c81d1c7addaed2a8a6886d389a", "fusion_lat": 0.0, "name": "f5b925c81d1c7addaed2a8a6886d389a", "is_reserved": 0, "rental_uris": {"android": "https://dc.lft.to/lastmile_qr_scan", "ios": "https://dc.lft.to/lastmile_qr_scan"}, "fusion_lon": 0.0}, {"lat": 38.8922125, "is_disabled": 0, "type": "electric_scooter", "lon": -77.03017616666666, "bike_id": "779be0a4704be848c1302016148fe631", "fusion_lat": 0.0, "name": "779be0a4704be848c1302016148fe631", "is_reserved": 0, "rental_uris": {"android": "https://dc.lft.to/lastmile_qr_scan", "ios": "https://dc.lft.to/lastmile_qr_scan"}, "fusion_lon": 0.0}, {"lat": 38.93345766666667, "is_disabled": 0, "type": "electric_bike", "lon": -76.99443883333333, "bike_id": "6cc0a8ad2e29a952d5004fe3fd8e6041", "fusion_lat": 0.0, "name": "6cc0a8ad2e29a952d5004fe3fd8e6041", "is_reserved": 0, "rental_uris": {"android": "https://dc.lft.to/lastmile_qr_scan", "ios": "https://dc.lft.to/lastmile_qr_scan"}, "fusion_lon": 0.0}, {"lat": 38.91038416666667, "is_disabled": 0, "type": "electric_scooter", "lon": -77.0338665, "bike_id": "0347cfad025541fe8397628c2b058244", "fusion_lat": 0.0, "name": "0347cfad025541fe8397628c2b058244", "is_reserved": 0, "rental_uris": {"android": "https://dc.lft.to/lastmile_qr_scan", "ios": "https://dc.lft.to/lastmile_qr_scan"}, "fusion_lon": 0.0}, {"lat": 38.93200383333333, "is_disabled": 0, "type": "electric_scooter", "lon": -77.03860433333334, "bike_id": "465296611a911ba678d2c822a9dd119b", "fusion_lat": 0.0, "name": "465296611a911ba678d2c822a9dd119b", "is_reserved": 0, "rental_uris": {"android": "https://dc.lft.to/lastmile_qr_scan", "ios": "https://dc.lft.to/lastmile_qr_scan"}, "fusion_lon": 0.0}, {"lat": 38.90371716666667, "is_disabled": 0, "type": "electric_scooter", "lon": -77.002709, "bike_id": "de46b69e49c169ca23dc8bbcb9a5e143", "fusion_lat": 0.0, "name": "de46b69e49c169ca23dc8bbcb9a5e143", "is_reserved": 0, "rental_uris": {"android": "https://dc.lft.to/lastmile_qr_scan", "ios": "https://dc.lft.to/lastmile_qr_scan"}, "fusion_lon": 0.0}, {"lat": 38.9170625, "is_disabled": 0, "type": "electric_scooter", "lon": -77.03231433333333, "bike_id": "168466d1ef8a5825f9389d96453dfaa8", "fusion_lat": 0.0, "name": "168466d1ef8a5825f9389d96453dfaa8", "is_reserved": 0, "rental_uris": {"android": "https://dc.lft.to/lastmile_qr_scan", "ios": "https://dc.lft.to/lastmile_qr_scan"}, "fusion_lon": 0.0}, {"lat": 38.900361, "is_disabled": 0, "type": "electric_scooter", "lon": -77.00229333333333, "bike_id": "befeff7ed819ddb7e04e23a8b7139d2b", "fusion_lat": 0.0, "name": "befeff7ed819ddb7e04e23a8b7139d2b", "is_reserved": 0, "rental_uris": {"android": "https://dc.lft.to/lastmile_qr_scan", "ios": "https://dc.lft.to/lastmile_qr_scan"}, "fusion_lon": 0.0}, {"lat": 38.93237416666667, "is_disabled": 0, "type": "electric_scooter", "lon": -77.03270516666667, "bike_id": "0adda69c4346b532fdba2a127f157b11", "fusion_lat": 0.0, "name": "0adda69c4346b532fdba2a127f157b11", "is_reserved": 0, "rental_uris": {"android": "https://dc.lft.to/lastmile_qr_scan", "ios": "https://dc.lft.to/lastmile_qr_scan"}, "fusion_lon": 0.0}, {"lat": 38.897532166666664, "is_disabled": 0, "type": "electric_scooter", "lon": -77.01862833333334, "bike_id": "a0ceb2ac987f3f19531155b028707986", "fusion_lat": 0.0, "name": "a0ceb2ac987f3f19531155b028707986", "is_reserved": 0, "rental_uris": {"android": "https://dc.lft.to/lastmile_qr_scan", "ios": "https://dc.lft.to/lastmile_qr_scan"}, "fusion_lon": 0.0}, {"lat": 38.92032016666667, "is_disabled": 0, "type": "electric_scooter", "lon": -77.03858166666667, "bike_id": "3c04cdfcdba43b3dc1a104075c666a8e", "fusion_lat": 0.0, "name": "3c04cdfcdba43b3dc1a104075c666a8e", "is_reserved": 0, "rental_uris": {"android": "https://dc.lft.to/lastmile_qr_scan", "ios": "https://dc.lft.to/lastmile_qr_scan"}, "fusion_lon": 0.0}, {"lat": 38.91216, "is_disabled": 0, "type": "electric_scooter", "lon": -77.02718466666667, "bike_id": "1540dd5d076097533ed725bdd91de94b", "fusion_lat": 0.0, "name": "1540dd5d076097533ed725bdd91de94b", "is_reserved": 0, "rental_uris": {"android": "https://dc.lft.to/lastmile_qr_scan", "ios": "https://dc.lft.to/lastmile_qr_scan"}, "fusion_lon": 0.0}, {"lat": 38.90526833333333, "is_disabled": 0, "type": "electric_scooter", "lon": -76.98624583333333, "bike_id": "8fe8238f4585f3142fad57943e688da1", "fusion_lat": 0.0, "name": "8fe8238f4585f3142fad57943e688da1", "is_reserved": 0, "rental_uris": {"android": "https://dc.lft.to/lastmile_qr_scan", "ios": "https://dc.lft.to/lastmile_qr_scan"}, "fusion_lon": 0.0}, {"lat": 38.92175966666667, "is_disabled": 0, "type": "electric_scooter", "lon": -77.04714, "bike_id": "214218989a19c9e6350df42b605e284d", "fusion_lat": 0.0, "name": "214218989a19c9e6350df42b605e284d", "is_reserved": 0, "rental_uris": {"android": "https://dc.lft.to/lastmile_qr_scan", "ios": "https://dc.lft.to/lastmile_qr_scan"}, "fusion_lon": 0.0}, {"lat": 38.954042333333334, "is_disabled": 0, "type": "electric_scooter", "lon": -77.02748833333334, "bike_id": "8e4f37c02d61af242583c213eadcd08b", "fusion_lat": 0.0, "name": "8e4f37c02d61af242583c213eadcd08b", "is_reserved": 0, "rental_uris": {"android": "https://dc.lft.to/lastmile_qr_scan", "ios": "https://dc.lft.to/lastmile_qr_scan"}, "fusion_lon": 0.0}, {"lat": 38.905274166666665, "is_disabled": 0, "type": "electric_scooter", "lon": -77.0660045, "bike_id": "ecf5b2c68d96e2d8441e8210ca0ac231", "fusion_lat": 0.0, "name": "ecf5b2c68d96e2d8441e8210ca0ac231", "is_reserved": 0, "rental_uris": {"android": "https://dc.lft.to/lastmile_qr_scan", "ios": "https://dc.lft.to/lastmile_qr_scan"}, "fusion_lon": 0.0}, {"lat": 38.906008, "is_disabled": 0, "type": "electric_scooter", "lon": -77.039671, "bike_id": "7ab4f43000ece3403b518ca8192a8c10", "fusion_lat": 0.0, "name": "7ab4f43000ece3403b518ca8192a8c10", "is_reserved": 0, "rental_uris": {"android": "https://dc.lft.to/lastmile_qr_scan", "ios": "https://dc.lft.to/lastmile_qr_scan"}, "fusion_lon": 0.0}, {"lat": 38.914834166666665, "is_disabled": 0, "type": "electric_scooter", "lon": -77.00943466666666, "bike_id": "b26971a208df8bd3ac9c8c55bcb7039f", "fusion_lat": 0.0, "name": "b26971a208df8bd3ac9c8c55bcb7039f", "is_reserved": 0, "rental_uris": {"android": "https://dc.lft.to/lastmile_qr_scan", "ios": "https://dc.lft.to/lastmile_qr_scan"}, "fusion_lon": 0.0}, {"lat": 38.86228966666667, "is_disabled": 0, "type": "electric_scooter", "lon": -76.99550666666667, "bike_id": "aced2435d629c211835ad5cfe46db525", "fusion_lat": 0.0, "name": "aced2435d629c211835ad5cfe46db525", "is_reserved": 0, "rental_uris": {"android": "https://dc.lft.to/lastmile_qr_scan", "ios": "https://dc.lft.to/lastmile_qr_scan"}, "fusion_lon": 0.0}, {"lat": 38.92758333333333, "is_disabled": 0, "type": "electric_scooter", "lon": -77.03229866666666, "bike_id": "489f64bada43cefdfc4c8848bfdf1aad", "fusion_lat": 0.0, "name": "489f64bada43cefdfc4c8848bfdf1aad", "is_reserved": 0, "rental_uris": {"android": "https://dc.lft.to/lastmile_qr_scan", "ios": "https://dc.lft.to/lastmile_qr_scan"}, "fusion_lon": 0.0}, {"lat": 38.886379833333336, "is_disabled": 0, "type": "electric_bike", "lon": -76.95477883333334, "bike_id": "9acc4961634975c8cf191e6f02bbfd50", "fusion_lat": 0.0, "name": "9acc4961634975c8cf191e6f02bbfd50", "is_reserved": 0, "rental_uris": {"android": "https://dc.lft.to/lastmile_qr_scan", "ios": "https://dc.lft.to/lastmile_qr_scan"}, "fusion_lon": 0.0}, {"lat": 38.961487166666664, "is_disabled": 0, "type": "electric_scooter", "lon": -77.028134, "bike_id": "0bf7bf8822401ec0ec702fb4fbbd2886", "fusion_lat": 0.0, "name": "0bf7bf8822401ec0ec702fb4fbbd2886", "is_reserved": 0, "rental_uris": {"android": "https://dc.lft.to/lastmile_qr_scan", "ios": "https://dc.lft.to/lastmile_qr_scan"}, "fusion_lon": 0.0}, {"lat": 39.05636066666667, "is_disabled": 0, "type": "electric_bike", "lon": -77.12529566666667, "bike_id": "545cfb002b8412a19509b628b98d2ed0", "fusion_lat": 0.0, "name": "545cfb002b8412a19509b628b98d2ed0", "is_reserved": 0, "rental_uris": {"android": "https://dc.lft.to/lastmile_qr_scan", "ios": "https://dc.lft.to/lastmile_qr_scan"}, "fusion_lon": 0.0}, {"lat": 38.917255833333336, "is_disabled": 0, "type": "electric_scooter", "lon": -77.02720533333333, "bike_id": "d6cf2b3250e7e387600261699b67764b", "fusion_lat": 0.0, "name": "d6cf2b3250e7e387600261699b67764b", "is_reserved": 0, "rental_uris": {"android": "https://dc.lft.to/lastmile_qr_scan", "ios": "https://dc.lft.to/lastmile_qr_scan"}, "fusion_lon": 0.0}, {"lat": 38.9248055, "is_disabled": 0, "type": "electric_scooter", "lon": -77.02844633333333, "bike_id": "7361ee83bdffd0d16c206d1f51e19ab9", "fusion_lat": 0.0, "name": "7361ee83bdffd0d16c206d1f51e19ab9", "is_reserved": 0, "rental_uris": {"android": "https://dc.lft.to/lastmile_qr_scan", "ios": "https://dc.lft.to/lastmile_qr_scan"}, "fusion_lon": 0.0}, {"lat": 38.8982015, "is_disabled": 0, "type": "electric_scooter", "lon": -76.99693916666666, "bike_id": "00fc30f1a847b220b5451344b5ba96f6", "fusion_lat": 0.0, "name": "00fc30f1a847b220b5451344b5ba96f6", "is_reserved": 0, "rental_uris": {"android": "https://dc.lft.to/lastmile_qr_scan", "ios": "https://dc.lft.to/lastmile_qr_scan"}, "fusion_lon": 0.0}, {"lat": 38.88578716666667, "is_disabled": 0, "type": "electric_scooter", "lon": -76.91910266666666, "bike_id": "bc701932e6182314d1a394aa349798f8", "fusion_lat": 0.0, "name": "bc701932e6182314d1a394aa349798f8", "is_reserved": 0, "rental_uris": {"android": "https://dc.lft.to/lastmile_qr_scan", "ios": "https://dc.lft.to/lastmile_qr_scan"}, "fusion_lon": 0.0}, {"lat": 38.91751416666666, "is_disabled": 0, "type": "electric_scooter", "lon": -77.032084, "bike_id": "7516b6f474ec5d15c26500c5b790545c", "fusion_lat": 0.0, "name": "7516b6f474ec5d15c26500c5b790545c", "is_reserved": 0, "rental_uris": {"android": "https://dc.lft.to/lastmile_qr_scan", "ios": "https://dc.lft.to/lastmile_qr_scan"}, "fusion_lon": 0.0}, {"lat": 38.92372133333333, "is_disabled": 0, "type": "electric_scooter", "lon": -77.041362, "bike_id": "6fbe7f19f9f0aa81c737d6de9085aa34", "fusion_lat": 0.0, "name": "6fbe7f19f9f0aa81c737d6de9085aa34", "is_reserved": 0, "rental_uris": {"android": "https://dc.lft.to/lastmile_qr_scan", "ios": "https://dc.lft.to/lastmile_qr_scan"}, "fusion_lon": 0.0}, {"lat": 38.8988445, "is_disabled": 0, "type": "electric_scooter", "lon": -76.9336805, "bike_id": "fb5991f8ee7ecabfece5e9634ea4ab31", "fusion_lat": 0.0, "name": "fb5991f8ee7ecabfece5e9634ea4ab31", "is_reserved": 0, "rental_uris": {"android": "https://dc.lft.to/lastmile_qr_scan", "ios": "https://dc.lft.to/lastmile_qr_scan"}, "fusion_lon": 0.0}, {"lat": 38.916803333333334, "is_disabled": 0, "type": "electric_scooter", "lon": -77.02980633333334, "bike_id": "0c346b483e089ff46ca01b9f1e78e7eb", "fusion_lat": 0.0, "name": "0c346b483e089ff46ca01b9f1e78e7eb", "is_reserved": 0, "rental_uris": {"android": "https://dc.lft.to/lastmile_qr_scan", "ios": "https://dc.lft.to/lastmile_qr_scan"}, "fusion_lon": 0.0}, {"lat": 38.89260983333333, "is_disabled": 0, "type": "electric_scooter", "lon": -76.94160966666666, "bike_id": "9c6ed4e1d6fd3642e20bea8c492bf224", "fusion_lat": 0.0, "name": "9c6ed4e1d6fd3642e20bea8c492bf224", "is_reserved": 0, "rental_uris": {"android": "https://dc.lft.to/lastmile_qr_scan", "ios": "https://dc.lft.to/lastmile_qr_scan"}, "fusion_lon": 0.0}, {"lat": 38.806790666666664, "is_disabled": 0, "type": "electric_bike", "lon": -77.08121166666666, "bike_id": "8dc167c8b54174d0447fde4327555a57", "fusion_lat": 0.0, "name": "8dc167c8b54174d0447fde4327555a57", "is_reserved": 0, "rental_uris": {"android": "https://dc.lft.to/lastmile_qr_scan", "ios": "https://dc.lft.to/lastmile_qr_scan"}, "fusion_lon": 0.0}, {"lat": 38.9168795, "is_disabled": 0, "type": "electric_scooter", "lon": -77.04340533333334, "bike_id": "b9f517079f101ee39c2cf27a618bef95", "fusion_lat": 0.0, "name": "b9f517079f101ee39c2cf27a618bef95", "is_reserved": 0, "rental_uris": {"android": "https://dc.lft.to/lastmile_qr_scan", "ios": "https://dc.lft.to/lastmile_qr_scan"}, "fusion_lon": 0.0}, {"lat": 38.93994433333334, "is_disabled": 0, "type": "electric_scooter", "lon": -77.071836, "bike_id": "feea73739a30613287b4e9000cdbad4f", "fusion_lat": 0.0, "name": "feea73739a30613287b4e9000cdbad4f", "is_reserved": 0, "rental_uris": {"android": "https://dc.lft.to/lastmile_qr_scan", "ios": "https://dc.lft.to/lastmile_qr_scan"}, "fusion_lon": 0.0},