{"data": {"bikes": [{"fusion_lat": 0.0, "bike_id": "b9c722d51d508277383278fd1ffbcb0d", "fusion_lon": 0.0, "lon": -77.0466865, "lat": 38.9110475, "is_reserved": 0, "is_disabled": 0, "rental_uris": {"android": "https://dc.lft.to/lastmile_qr_scan", "ios": "https://dc.lft.to/lastmile_qr_scan"}, "name": "b9c722d51d508277383278fd1ffbcb0d", "type": "electric_scooter"}, {"fusion_lat": 0.0, "bike_id": "07a374ae72c44c02f62e96b73609a0ef", "fusion_lon": 0.0, "lon": -77.0216705, "lat": 38.942910499999996, "is_reserved": 0, "is_disabled": 0, "rental_uris": {"android": "https://dc.lft.to/lastmile_qr_scan", "ios": "https://dc.lft.to/lastmile_qr_scan"}, "name": "07a374ae72c44c02f62e96b73609a0ef", "type": "electric_scooter"}, {"fusion_lat": 0.0, "bike_id": "6050c3c3509ca668f19b09ca01083f37", "fusion_lon": 0.0, "lon": -77.035043, "lat": 38.921577166666665, "is_reserved": 0, "is_disabled": 0, "rental_uris": {"android": "https://dc.lft.to/lastmile_qr_scan", "ios": "https://dc.lft.to/lastmile_qr_scan"}, "name": "6050c3c3509ca668f19b09ca01083f37", "type": "electric_scooter"}, {"fusion_lat": 0.0, "bike_id": "807c0b5b610e1a3700301bdde626f89c", "fusion_lon": 0.0, "lon": -77.02642283333333, "lat": 38.92609083333333, "is_reserved": 0, "is_disabled": 0, "rental_uris": {"android": "https://dc.lft.to/lastmile_qr_scan", "ios": "https://dc.lft.to/lastmile_qr_scan"}, "name": "807c0b5b610e1a3700301bdde626f89c", "type": "electric_scooter"}, {"fusion_lat": 0.0, "bike_id": "bf4f9db6e15113bee3b666bf2325d5f5", "fusion_lon": 0.0, "lon": -76.99775233333334, "lat": 38.844227833333335, "is_reserved": 0, "is_disabled": 0, "rental_uris": {"android": "https://dc.lft.to/lastmile_qr_scan", "ios": "https://dc.lft.to/lastmile_qr_scan"}, "name": "bf4f9db6e15113bee3b666bf2325d5f5", "type": "electric_scooter"}, {"fusion_lat": 0.0, "bike_id": "029b3cf991b8b8e49b10ae8f38c0ee40", "fusion_lon": 0.0, "lon": -77.03092216666667, "lat": 38.938727, "is_reserved": 0, "is_disabled": 0, "rental_uris": {"android": "https://dc.lft.to/lastmile_qr_scan", "ios": "https://dc.lft.to/lastmile_qr_scan"}, "name": "029b3cf991b8b8e49b10ae8f38c0ee40", "type": "electric_scooter"}, {"fusion_lat": 0.0, "bike_id": "f76f355273e04b08f24caf2410bee633", "fusion_lon": 0.0, "lon": -76.947236, "lat": 38.8973825, "is_reserved": 0, "is_disabled": 0, "rental_uris": {"android": "https://dc.lft.to/lastmile_qr_scan", "ios": "https://dc.lft.to/lastmile_qr_scan"}, "name": "f76f355273e04b08f24caf2410bee633", "type": "electric_scooter"}, {"fusion_lat": 0.0, "bike_id": "b127f54f615ac9d0c172335c0bdfead4", "fusion_lon": 0.0, "lon": -77.01584666666666, "lat": 38.88495316666667, "is_reserved": 0, "is_disabled": 0, "rental_uris": {"android": "https://dc.lft.to/lastmile_qr_scan", "ios": "https://dc.lft.to/lastmile_qr_scan"}, "name": "b127f54f615ac9d0c172335c0bdfead4", "type": "electric_scooter"}, {"fusion_lat": 0.0, "bike_id": "a305962ea089372f8b4f0f5d4b7dfa5b", "fusion_lon": 0.0, "lon": -77.03764433333333, "lat": 38.9966995, "is_reserved": 0, "is_disabled": 0, "rental_uris": {"android": "https://dc.lft.to/lastmile_qr_scan", "ios": "https://dc.lft.to/lastmile_qr_scan"}, "name": "a305962ea089372f8b4f0f5d4b7dfa5b", "type": "electric_bike"}, {"fusion_lat": 0.0, "bike_id": "b94a852acf5fbcc4c970364aee09b112", "fusion_lon": 0.0, "lon": -77.04179916666666, "lat": 38.892517833333336, "is_reserved": 0, "is_disabled": 0, "rental_uris": {"android": "https://dc.lft.to/lastmile_qr_scan", "ios": "https://dc.lft.to/lastmile_qr_scan"}, "name": "b94a852acf5fbcc4c970364aee09b112", "type": "electric_scooter"}, {"fusion_lat": 0.0, "bike_id": "1672491af6851b2a9f797ff59f09e5da", "fusion_lon": 0.0, "lon": -77.02097016666667, "lat": 38.932633, "is_reserved": 0, "is_disabled": 0, "rental_uris": {"android": "https://dc.lft.to/lastmile_qr_scan", "ios": "https://dc.lft.to/lastmile_qr_scan"}, "name": "1672491af6851b2a9f797ff59f09e5da", "type": "electric_scooter"}, {"fusion_lat": 0.0, "bike_id": "2236c0934c478773f8d6bb1d6ae95df3", "fusion_lon": 0.0, "lon": -77.02727933333334, "lat": 38.89727666666667, "is_reserved": 0, "is_disabled": 0, "rental_uris": {"android": "https://dc.lft.to/lastmile_qr_scan", "ios": "https://dc.lft.to/lastmile_qr_scan"}, "name": "2236c0934c478773f8d6bb1d6ae95df3", "type": "electric_scooter"}, {"fusion_lat": 0.0, "bike_id": "4f2905a9187f3b8aa00995500fd8714d", "fusion_lon": 0.0, "lon": -76.9288205, "lat": 38.9783985, "is_reserved": 0, "is_disabled": 0, "rental_uris": {"android": "https://dc.lft.to/lastmile_qr_scan", "ios": "https://dc.lft.to/lastmile_qr_scan"}, "name": "4f2905a9187f3b8aa00995500fd8714d", "type": "electric_bike"}, {"fusion_lat": 0.0, "bike_id": "a4b74a6708bae16a3069188c25bf9ef9", "fusion_lon": 0.0, "lon": -77.02182733333333, "lat": 38.905736166666664, "is_reserved": 0, "is_disabled": 0, "rental_uris": {"android": "https://dc.lft.to/lastmile_qr_scan", "ios": "https://dc.lft.to/lastmile_qr_scan"}, "name": "a4b74a6708bae16a3069188c25bf9ef9", "type": "electric_scooter"}, {"fusion_lat": 0.0, "bike_id": "df26dc199051d7846a5e3e520f9f9838", "fusion_lon": 0.0, "lon": -77.03288266666667, "lat": 38.956505666666665, "is_reserved": 0, "is_disabled": 0, "rental_uris": {"android": "https://dc.lft.to/lastmile_qr_scan", "ios": "https://dc.lft.to/lastmile_qr_scan"}, "name": "df26dc199051d7846a5e3e520f9f9838", "type": "electric_scooter"}, {"fusion_lat": 0.0, "bike_id": "08e2b79b3e543e066d741925a6989d87", "fusion_lon": 0.0, "lon": -77.03884333333333, "lat": 38.92120283333333, "is_reserved": 0, "is_disabled": 0, "rental_uris": {"android": "https://dc.lft.to/lastmile_qr_scan", "ios": "https://dc.lft.to/lastmile_qr_scan"}, "name": "08e2b79b3e543e066d741925a6989d87", "type": "electric_scooter"}, {"fusion_lat": 0.0, "bike_id": "28d0d72f4532461b71e536248eafd036", "fusion_lon": 0.0, "lon": -77.03574383333333, "lat": 38.923258833333335, "is_reserved": 0, "is_disabled": 0, "rental_uris": {"android": "https://dc.lft.to/lastmile_qr_scan", "ios": "https://dc.lft.to/lastmile_qr_scan"}, "name": "28d0d72f4532461b71e536248eafd036", "type": "electric_scooter"}, {"fusion_lat": 0.0, "bike_id": "4280e5225cda2d2ae0fa22d2222fd152", "fusion_lon": 0.0, "lon": -77.006465, "lat": 38.8389115, "is_reserved": 0, "is_disabled": 0, "rental_uris": {"android": "https://dc.lft.to/lastmile_qr_scan", "ios": "https://dc.lft.to/lastmile_qr_scan"}, "name": "4280e5225cda2d2ae0fa22d2222fd152", "type": "electric_scooter"}, {"fusion_lat": 0.0, "bike_id": "9a862285e1400b493c2178722e8b3a8c", "fusion_lon": 0.0, "lon": -76.9574855, "lat": 38.8842425, "is_reserved": 0, "is_disabled": 0, "rental_uris": {"android": "https://dc.lft.to/lastmile_qr_scan", "ios": "https://dc.lft.to/lastmile_qr_scan"}, "name": "9a862285e1400b493c2178722e8b3a8c", "type": "electric_scooter"}, {"fusion_lat": 0.0, "bike_id": "8c303d6e17676c57c780daa69ae0cab7", "fusion_lon": 0.0, "lon": -76.93172383333334, "lat": 38.89882133333333, "is_reserved": 0, "is_disabled": 0, "rental_uris": {"android": "https://dc.lft.to/lastmile_qr_scan", "ios": "https://dc.lft.to/lastmile_qr_scan"}, "name": "8c303d6e17676c57c780daa69ae0cab7", "type": "electric_scooter"}, {"fusion_lat": 0.0, "bike_id": "503ee91b286e4f2fc178d8631b7036fd", "fusion_lon": 0.0, "lon": -77.04166066666667, "lat": 38.903251166666664, "is_reserved": 0, "is_disabled": 0, "rental_uris": {"android": "https://dc.lft.to/lastmile_qr_scan", "ios": "https://dc.lft.to/lastmile_qr_scan"}, "name": "503ee91b286e4f2fc178d8631b7036fd", "type": "electric_scooter"}, {"fusion_lat": 0.0, "bike_id": "2c1fe3fdb8ddd5a0c53290a83d661005", "fusion_lon": 0.0, "lon": -76.9301945, "lat": 38.89646033333333, "is_reserved": 0, "is_disabled": 0, "rental_uris": {"android": "https://dc.lft.to/lastmile_qr_scan", "ios": "https://dc.lft.to/lastmile_qr_scan"}, "name": "2c1fe3fdb8ddd5a0c53290a83d661005", "type": "electric_bike"}, {"fusion_lat": 0.0, "bike_id": "834b5e78660dc9d27185af0ae5629d93", "fusion_lon": 0.0, "lon": -77.02557116666667, "lat": 38.93848666666667, "is_reserved": 0, "is_disabled": 0, "rental_uris": {"android": "https://dc.lft.to/lastmile_qr_scan", "ios": "https://dc.lft.to/lastmile_qr_scan"}, "name": "834b5e78660dc9d27185af0ae5629d93", "type": "electric_scooter"}, {"fusion_lat": 0.0, "bike_id": "5aa6c84420fed26e796c7e57379f6f2b", "fusion_lon": 0.0, "lon": -77.03261766666667, "lat": 38.930945333333334, "is_reserved": 0, "is_disabled": 0, "rental_uris": {"android": "https://dc.lft.to/lastmile_qr_scan", "ios": "https://dc.lft.to/lastmile_qr_scan"}, "name": "5aa6c84420fed26e796c7e57379f6f2b", "type": "electric_scooter"}, {"fusion_lat": 0.0, "bike_id": "55625a57b48d6ced7e5efce331cb0bd4", "fusion_lon": 0.0, "lon": -77.08770366666667, "lat": 38.935635166666664, "is_reserved": 0, "is_disabled": 0, "rental_uris": {"android": "https://dc.lft.to/lastmile_qr_scan", "ios": "https://dc.lft.to/lastmile_qr_scan"}, "name": "55625a57b48d6ced7e5efce331cb0bd4", "type": "electric_scooter"}, {"fusion_lat": 0.0, "bike_id": "47ba8c3ebd1119f2b3c2820ef08bd85e", "fusion_lon": 0.0, "lon": -77.08026083333333, "lat": 38.95057933333333, "is_reserved": 0, "is_disabled": 0, "rental_uris": {"android": "https://dc.lft.to/lastmile_qr_scan", "ios": "https://dc.lft.to/lastmile_qr_scan"}, "name": "47ba8c3ebd1119f2b3c2820ef08bd85e", "type": "electric_scooter"}, {"fusion_lat": 0.0, "bike_id": "d1ebf83fd783961d635c6d49be4c0774", "fusion_lon": 0.0, "lon": -77.05701783333333, "lat": 38.9260205, "is_reserved": 0, "is_disabled": 0, "rental_uris": {"android": "https://dc.lft.to/lastmile_qr_scan", "ios": "https://dc.lft.to/lastmile_qr_scan"}, "name": "d1ebf83fd783961d635c6d49be4c0774", "type": "electric_bike"}, {"fusion_lat": 0.0, "bike_id": "d6a40608c1781793e167ee9218a04b83", "fusion_lon": 0.0, "lon": -76.99928233333333, "lat": 38.84313933333333, "is_reserved": 0, "is_disabled": 0, "rental_uris": {"android": "https://dc.lft.to/lastmile_qr_scan", "ios": "https://dc.lft.to/lastmile_qr_scan"}, "name": "d6a40608c1781793e167ee9218a04b83", "type": "electric_scooter"}, {"fusion_lat": 0.0, "bike_id": "c14c137797c85716e3b9620d39006f8f", "fusion_lon": 0.0, "lon": -77.02940833333334, "lat": 38.899101, "is_reserved": 0, "is_disabled": 0, "rental_uris": {"android": "https://dc.lft.to/lastmile_qr_scan", "ios": "https://dc.lft.to/lastmile_qr_scan"}, "name": "c14c137797c85716e3b9620d39006f8f", "type": "electric_scooter"}, {"fusion_lat": 0.0, "bike_id": "b7a08fdb24b1c073eab6b35b3b0640ec", "fusion_lon": 0.0, "lon": -77.019612, "lat": 38.9236355, "is_reserved": 0, "is_disabled": 0, "rental_uris": {"android": "https://dc.lft.to/lastmile_qr_scan", "ios": "https://dc.lft.to/lastmile_qr_scan"}, "name": "b7a08fdb24b1c073eab6b35b3b0640ec", "type": "electric_scooter"}, {"fusion_lat": 0.0, "bike_id": "e214ddd10df1b7719a3190bad0f2a591", "fusion_lon": 0.0, "lon": -77.03547416666666, "lat": 38.925766333333335, "is_reserved": 0, "is_disabled": 0, "rental_uris": {"android": "https://dc.lft.to/lastmile_qr_scan", "ios": "https://dc.lft.to/lastmile_qr_scan"}, "name": "e214ddd10df1b7719a3190bad0f2a591", "type": "electric_scooter"}, {"fusion_lat": 0.0, "bike_id": "79af63969c73a3658bc4a1e0b4f41a63", "fusion_lon": 0.0, "lon": -76.97741283333333, "lat": 38.86493383333333, "is_reserved": 0, "is_disabled": 0, "rental_uris": {"android": "https://dc.lft.to/lastmile_qr_scan", "ios": "https://dc.lft.to/lastmile_qr_scan"}, "name": "79af63969c73a3658bc4a1e0b4f41a63", "type": "electric_bike"}, {"fusion_lat": 0.0, "bike_id": "a5a03d82578ccaec8f056c418fa1561c", "fusion_lon": 0.0, "lon": -77.02006016666667, "lat": 38.919029333333334, "is_reserved": 0, "is_disabled": 0, "rental_uris": {"android": "https://dc.lft.to/lastmile_qr_scan", "ios": "https://dc.lft.to/lastmile_qr_scan"}, "name": "a5a03d82578ccaec8f056c418fa1561c", "type": "electric_scooter"}, {"fusion_lat": 0.0, "bike_id": "745f5dfc4225adace3e9e85ff5f82d13", "fusion_lon": 0.0, "lon": -77.02196783333333, "lat": 38.920784166666664, "is_reserved": 0, "is_disabled": 0, "rental_uris": {"android": "https://dc.lft.to/lastmile_qr_scan", "ios": "https://dc.lft.to/lastmile_qr_scan"}, "name": "745f5dfc4225adace3e9e85ff5f82d13", "type": "electric_scooter"}, {"fusion_lat": 0.0, "bike_id": "8cb845eda4f599dba3b0073dcf5163d2", "fusion_lon": 0.0, "lon": -76.9306, "lat": 38.901497166666665, "is_reserved": 0, "is_disabled": 0, "rental_uris": {"android": "https://dc.lft.to/lastmile_qr_scan", "ios": "https://dc.lft.to/lastmile_qr_scan"}, "name": "8cb845eda4f599dba3b0073dcf5163d2", "type": "electric_scooter"}, {"fusion_lat": 0.0, "bike_id": "20ca3ebcca80aa56a0a0ee73aec16cc7", "fusion_lon": 0.0, "lon": -76.97221716666667, "lat": 38.900277, "is_reserved": 0, "is_disabled": 0, "rental_uris": {"android": "https://dc.lft.to/lastmile_qr_scan", "ios": "https://dc.lft.to/lastmile_qr_scan"}, "name": "20ca3ebcca80aa56a0a0ee73aec16cc7", "type": "electric_bike"}, {"fusion_lat": 0.0, "bike_id": "471ecfdd8556f6fc84739f13f03deb12", "fusion_lon": 0.0, "lon": -77.024659, "lat": 38.94202116666666, "is_reserved": 0, "is_disabled": 0, "rental_uris": {"android": "https://dc.lft.to/lastmile_qr_scan", "ios": "https://dc.lft.to/lastmile_qr_scan"}, "name": "471ecfdd8556f6fc84739f13f03deb12", "type": "electric_scooter"}, {"fusion_lat": 0.0, "bike_id": "7f6d8979d390fee4f1e5bc1093fc75e2", "fusion_lon": 0.0, "lon": -77.04765766666667, "lat": 38.92136416666666, "is_reserved": 0, "is_disabled": 0, "rental_uris": {"android": "https://dc.lft.to/lastmile_qr_scan", "ios": "https://dc.lft.to/lastmile_qr_scan"}, "name": "7f6d8979d390fee4f1e5bc1093fc75e2", "type": "electric_scooter"}, {"fusion_lat": 0.0, "bike_id": "ba2d7455eabbe33502a0965e9aca7e4c", "fusion_lon": 0.0, "lon": -77.01322216666667, "lat": 38.896093, "is_reserved": 0, "is_disabled": 0, "rental_uris": {"android": "https://dc.lft.to/lastmile_qr_scan", "ios": "https://dc.lft.to/lastmile_qr_scan"}, "name": "ba2d7455eabbe33502a0965e9aca7e4c", "type": "electric_bike"}, {"fusion_lat": 0.0, "bike_id": "447b6cf7e4f462ddfa8118c3fe9ddd00", "fusion_lon": 0.0, "lon": -77.04151533333334, "lat": 38.901117166666666, "is_reserved": 0, "is_disabled": 0, "rental_uris": {"android": "https://dc.lft.to/lastmile_qr_scan", "ios": "https://dc.lft.to/lastmile_qr_scan"}, "name": "447b6cf7e4f462ddfa8118c3fe9ddd00", "type": "electric_scooter"}, {"fusion_lat": 0.0, "bike_id": "c8133f19087e0ab433993d67c174670c", "fusion_lon": 0.0, "lon": -76.9625775, "lat": 38.88246733333333, "is_reserved": 0, "is_disabled": 0, "rental_uris": {"android": "https://dc.lft.to/lastmile_qr_scan", "ios": "https://dc.lft.to/lastmile_qr_scan"}, "name": "c8133f19087e0ab433993d67c174670c", "type": "electric_bike"}, {"fusion_lat": 0.0, "bike_id": "89cda1253c2378beb9e24afe97cb8de7", "fusion_lon": 0.0, "lon": -77.02453033333333, "lat": 38.938590166666664, "is_reserved": 0, "is_disabled": 0, "rental_uris": {"android": "https://dc.lft.to/lastmile_qr_scan", "ios": "https://dc.lft.to/lastmile_qr_scan"}, "name": "89cda1253c2378beb9e24afe97cb8de7", "type": "electric_scooter"}, {"fusion_lat": 0.0, "bike_id": "c3d48d99b4d9c0532035dba63d27f70b", "fusion_lon": 0.0, "lon": -76.99656833333333, "lat": 38.896705, "is_reserved": 0, "is_disabled": 0, "rental_uris": {"android": "https://dc.lft.to/lastmile_qr_scan", "ios": "https://dc.lft.to/lastmile_qr_scan"}, "name": "c3d48d99b4d9c0532035dba63d27f70b", "type": "electric_scooter"}, {"fusion_lat": 0.0, "bike_id": "f9862e79d37f9f956fb3da1833ca2015", "fusion_lon": 0.0, "lon": -77.039219, "lat": 38.91839383333333, "is_reserved": 0, "is_disabled": 0, "rental_uris": {"android": "https://dc.lft.to/lastmile_qr_scan", "ios": "https://dc.lft.to/lastmile_qr_scan"}, "name": "f9862e79d37f9f956fb3da1833ca2015", "type": "electric_scooter"}, {"fusion_lat": 0.0, "bike_id": "60c5c83f8508b4d1b48487d78d3e03e0", "fusion_lon": 0.0, "lon": -77.001302, "lat": 38.894651, "is_reserved": 0, "is_disabled": 0, "rental_uris": {"android": "https://dc.lft.to/lastmile_qr_scan", "ios": "https://dc.lft.to/lastmile_qr_scan"}, "name": "60c5c83f8508b4d1b48487d78d3e03e0", "type": "electric_scooter"}, {"fusion_lat": 0.0, "bike_id": "36aae6bcf0374ccc1770c10f858859f1", "fusion_lon": 0.0, "lon": -77.00663233333333, "lat": 38.899911, "is_reserved": 0, "is_disabled": 0, "rental_uris": {"android": "https://dc.lft.to/lastmile_qr_scan", "ios": "https://dc.lft.to/lastmile_qr_scan"}, "name": "36aae6bcf0374ccc1770c10f858859f1", "type": "electric_scooter"}, {"fusion_lat": 0.0, "bike_id": "31907d01ef59ab65f02f54f4a24d88e5", "fusion_lon": 0.0, "lon": -76.9850935, "lat": 38.86014483333334, "is_reserved": 0, "is_disabled": 0, "rental_uris": {"android": "https://dc.lft.to/lastmile_qr_scan", "ios": "https://dc.lft.to/lastmile_qr_scan"}, "name": "31907d01ef59ab65f02f54f4a24d88e5", "type": "electric_scooter"}, {"fusion_lat": 0.0, "bike_id": "a036bd3616676973124965197d47b790", "fusion_lon": 0.0, "lon": -77.01900033333334, "lat": 38.932919, "is_reserved": 0, "is_disabled": 0, "rental_uris": {"android": "https://dc.lft.to/lastmile_qr_scan", "ios": "https://dc.lft.to/lastmile_qr_scan"}, "name": "a036bd3616676973124965197d47b790", "type": "electric_scooter"}, {"fusion_lat": 0.0, "bike_id": "78b1835bef9806bf35fbaed13015d889", "fusion_lon": 0.0, "lon": -76.97327983333334, "lat": 38.90404133333333, "is_reserved": 0, "is_disabled": 0, "rental_uris": {"android": "https://dc.lft.to/lastmile_qr_scan", "ios": "https://dc.lft.to/lastmile_qr_scan"}, "name": "78b1835bef9806bf35fbaed13015d889", "type": "electric_scooter"}, {"fusion_lat": 0.0, "bike_id": "16ba3c436115f47f1eee90e1d8d8c246", "fusion_lon": 0.0, "lon": -77.04906266666667, "lat": 38.897286333333334, "is_reserved": 0, "is_disabled": 0, "rental_uris": {"android": "https://dc.lft.to/lastmile_qr_scan", "ios": "https://dc.lft.to/lastmile_qr_scan"}, "name": "16ba3c436115f47f1eee90e1d8d8c246", "type": "electric_scooter"}, {"fusion_lat": 0.0, "bike_id": "571d7c2f92485fcebcd6a92e371302f7", "fusion_lon": 0.0, "lon": -76.98080216666666, "lat": 38.907080666666666, "is_reserved": 0, "is_disabled": 0, "rental_uris": {"android": "https://dc.lft.to/lastmile_qr_scan", "ios": "https://dc.lft.to/lastmile_qr_scan"}, "name": "571d7c2f92485fcebcd6a92e371302f7", "type": "electric_scooter"}, {"fusion_lat": 0.0, "bike_id": "90ea4a8e1f1198d5906851cbb6a99e3e", "fusion_lon": 0.0, "lon": -77.026699, "lat": 38.9168105, "is_reserved": 0, "is_disabled": 0, "rental_uris": {"android": "https://dc.lft.to/lastmile_qr_scan", "ios": "https://dc.lft.to/lastmile_qr_scan"}, "name": "90ea4a8e1f1198d5906851cbb6a99e3e", "type": "electric_scooter"}, {"fusion_lat": 0.0, "bike_id": "028b2d19d618c5adcb5868ace98165ab", "fusion_lon": 0.0, "lon": -76.92911566666666, "lat": 38.8929255, "is_reserved": 0, "is_disabled": 0, "rental_uris": {"android": "https://dc.lft.to/lastmile_qr_scan", "ios": "https://dc.lft.to/lastmile_qr_scan"}, "name": "028b2d19d618c5adcb5868ace98165ab", "type": "electric_scooter"}, {"fusion_lat": 0.0, "bike_id": "adedc6c04f3795bb98af1b8577bfcda8", "fusion_lon": 0.0, "lon": -77.04087066666666, "lat": 38.911772, "is_reserved": 0, "is_disabled": 0, "rental_uris": {"android": "https://dc.lft.to/lastmile_qr_scan", "ios": "https://dc.lft.to/lastmile_qr_scan"}, "name": "adedc6c04f3795bb98af1b8577bfcda8", "type": "electric_scooter"}, {"fusion_lat": 0.0, "bike_id": "421134e3181a83f635f1a0def09044a2", "fusion_lon": 0.0, "lon": -77.02556783333333, "lat": 38.93085683333334, "is_reserved": 0, "is_disabled": 0, "rental_uris": {"android": "https://dc.lft.to/lastmile_qr_scan", "ios": "https://dc.lft.to/lastmile_qr_scan"}, "name": "421134e3181a83f635f1a0def09044a2", "type": "electric_scooter"}, {"fusion_lat": 0.0, "bike_id": "6662e06d418359847f1ad2b941de9479", "fusion_lon": 0.0, "lon": -77.02672383333334, "lat": 38.895283, "is_reserved": 0, "is_disabled": 0, "rental_uris": {"android": "https://dc.lft.to/lastmile_qr_scan", "ios": "https://dc.lft.to/lastmile_qr_scan"}, "name": "6662e06d418359847f1ad2b941de9479", "type": "electric_scooter"}, {"fusion_lat": 0.0, "bike_id": "cd2827487a3bcbdac871804962547da2", "fusion_lon": 0.0, "lon": -77.04657916666666, "lat": 38.906611, "is_reserved": 0, "is_disabled": 0, "rental_uris": {"android": "https://dc.lft.to/lastmile_qr_scan", "ios": "https://dc.lft.to/lastmile_qr_scan"}, "name": "cd2827487a3bcbdac871804962547da2", "type": "electric_scooter"}, {"fusion_lat": 0.0, "bike_id": "a136f271d3b7809d3fb9d47a4ad98357", "fusion_lon": 0.0, "lon": -77.03311116666667, "lat": 38.898060666666666, "is_reserved": 0, "is_disabled": 0, "rental_uris": {"android": "https://dc.lft.to/lastmile_qr_scan", "ios": "https://dc.lft.to/lastmile_qr_scan"}, "name": "a136f271d3b7809d3fb9d47a4ad98357", "type": "electric_scooter"}, {"fusion_lat": 0.0, "bike_id": "249e3124e3a159bcb229ea0284a5196f", "fusion_lon": 0.0, "lon": -77.1083735, "lat": 38.811993333333334, "is_reserved": 0, "is_disabled": 0, "rental_uris": {"android": "https://dc.lft.to/lastmile_qr_scan", "ios": "https://dc.lft.to/lastmile_qr_scan"}, "name": "249e3124e3a159bcb229ea0284a5196f", "type": "electric_bike"}, {"fusion_lat": 0.0, "bike_id": "8248e57a5e59d96656ee71586c963071", "fusion_lon": 0.0, "lon": -77.04649416666666, "lat": 38.8982635, "is_reserved": 0, "is_disabled": 0, "rental_uris": {"android": "https://dc.lft.to/lastmile_qr_scan", "ios": "https://dc.lft.to/lastmile_qr_scan"}, "name": "8248e57a5e59d96656ee71586c963071", "type": "electric_scooter"}, {"fusion_lat": 0.0, "bike_id": "cc51a11c4511c98a3e6bb416e59c0081", "fusion_lon": 0.0, "lon": -76.99000416666667, "lat": 38.865037, "is_reserved": 0, "is_disabled": 0, "rental_uris": {"android": "https://dc.lft.to/lastmile_qr_scan", "ios": "https://dc.lft.to/lastmile_qr_scan"}, "name": "cc51a11c4511c98a3e6bb416e59c0081", "type": "electric_scooter"}, {"fusion_lat": 0.0, "bike_id": "14408173a36817936553f74adbb1f236", "fusion_lon": 0.0, "lon": -76.98901766666667, "lat": 38.8666325, "is_reserved": 0, "is_disabled": 0, "rental_uris": {"android": "https://dc.lft.to/lastmile_qr_scan", "ios": "https://dc.lft.to/lastmile_qr_scan"}, "name": "14408173a36817936553f74adbb1f236", "type": "electric_scooter"}, {"fusion_lat": 0.0, "bike_id": "6d45161bea27c22e8ade92c5bde103a7", "fusion_lon": 0.0, "lon": -77.02989733333334, "lat": 38.90140683333333, "is_reserved": 0, "is_disabled": 0, "rental_uris": {"android": "https://dc.lft.to/lastmile_qr_scan", "ios": "https://dc.lft.to/lastmile_qr_scan"}, "name": "6d45161bea27c22e8ade92c5bde103a7", "type": "electric_scooter"}, {"fusion_lat": 0.0, "bike_id": "7a511e7f8a9eaa76cc71db8629ef78d1", "fusion_lon": 0.0, "lon": -76.9313565, "lat": 38.87845683333333, "is_reserved": 0, "is_disabled": 0, "rental_uris": {"android": "https://dc.lft.to/lastmile_qr_scan", "ios": "https://dc.lft.to/lastmile_qr_scan"}, "name": "7a511e7f8a9eaa76cc71db8629ef78d1", "type": "electric_scooter"}, {"fusion_lat": 0.0, "bike_id": "6f5488d34e4c9923a88204aa45c6ac3f", "fusion_lon": 0.0, "lon": -77.0336525, "lat": 38.927966166666664, "is_reserved": 0, "is_disabled": 0, "rental_uris": {"android": "https://dc.lft.to/lastmile_qr_scan", "ios": "https://dc.lft.to/lastmile_qr_scan"}, "name": "6f5488d34e4c9923a88204aa45c6ac3f", "type": "electric_scooter"}, {"fusion_lat": 0.0, "bike_id": "e2c642723453cefd460e98e562bdf664", "fusion_lon": 0.0, "lon": -77.0457165, "lat": 38.90959, "is_reserved": 0, "is_disabled": 0, "rental_uris": {"android": "https://dc.lft.to/lastmile_qr_scan", "ios": "https://dc.lft.to/lastmile_qr_scan"}, "name": "e2c642723453cefd460e98e562bdf664", "type": "electric_scooter"}, {"fusion_lat": 0.0, "bike_id": "ceae183c74b7070a3e1d1aed0fc6ef61", "fusion_lon": 0.0, "lon": -77.0217105, "lat": 38.908484666666666, "is_reserved": 0, "is_disabled": 0, "rental_uris": {"android": "https://dc.lft.to/lastmile_qr_scan", "ios": "https://dc.lft.to/lastmile_qr_scan"}, "name": "ceae183c74b7070a3e1d1aed0fc6ef61", "type": "electric_scooter"}, {"fusion_lat": 0.0, "bike_id": "6501957d8cc0078604466d19dae4c99a", "fusion_lon": 0.0, "lon": -77.0227065, "lat": 38.924163166666666, "is_reserved": 0, "is_disabled": 0, "rental_uris": {"android": "https://dc.lft.to/lastmile_qr_scan", "ios": "https://dc.lft.to/lastmile_qr_scan"}, "name": "6501957d8cc0078604466d19dae4c99a", "type": "electric_scooter"}, {"fusion_lat": 0.0, "bike_id": "5d194b8c98ce9b41138ba3ca4acfb356", "fusion_lon": 0.0, "lon": -77.00344533333333, "lat": 38.90361216666667, "is_reserved": 0, "is_disabled": 0, "rental_uris": {"android": "https://dc.lft.to/lastmile_qr_scan", "ios": "https://dc.lft.to/lastmile_qr_scan"}, "name": "5d194b8c98ce9b41138ba3ca4acfb356", "type": "electric_scooter"}, {"fusion_lat": 0.0, "bike_id": "d14e45d5dbd4c186e5c620a7bfe53e70", "fusion_lon": 0.0, "lon": -77.01651733333334, "lat": 38.928955333333334, "is_reserved": 0, "is_disabled": 0, "rental_uris": {"android": "https://dc.lft.to/lastmile_qr_scan", "ios": "https://dc.lft.to/lastmile_qr_scan"}, "name": "d14e45d5dbd4c186e5c620a7bfe53e70", "type": "electric_scooter"}, {"fusion_lat": 0.0, "bike_id": "c0b1fca11c6e29d401c4dbdb53639f24", "fusion_lon": 0.0, "lon": -77.072932, "lat": 38.93095916666667, "is_reserved": 0, "is_disabled": 0, "rental_uris": {"android": "https://dc.lft.to/lastmile_qr_scan", "ios": "https://dc.lft.to/lastmile_qr_scan"}, "name": "c0b1fca11c6e29d401c4dbdb53639f24", "type": "electric_scooter"}, {"fusion_lat": 0.0, "bike_id": "d708852332a96b0e538b5df0de03a288", "fusion_lon": 0.0, "lon": -77.0319095, "lat": 38.91354066666667, "is_reserved": 0, "is_disabled": 0, "rental_uris": {"android": "https://dc.lft.to/lastmile_qr_scan", "ios": "https://dc.lft.to/lastmile_qr_scan"}, "name": "d708852332a96b0e538b5df0de03a288", "type": "electric_scooter"}, {"fusion_lat": 0.0, "bike_id": "d3f217808d65a5aaf8d5f1b524a2b933", "fusion_lon": 0.0, "lon": -77.02192666666667, "lat": 38.91138266666667, "is_reserved": 0, "is_disabled": 0, "rental_uris": {"android": "https://dc.lft.to/lastmile_qr_scan", "ios": "https://dc.lft.to/lastmile_qr_scan"}, "name": "d3f217808d65a5aaf8d5f1b524a2b933", "type": "electric_scooter"}, {"fusion_lat": 0.0, "bike_id": "59ff3cd2c254a7f069be81f718ffbadd", "fusion_lon": 0.0, "lon": -77.03102233333334, "lat": 38.932398666666664, "is_reserved": 0, "is_disabled": 0, "rental_uris": {"android": "https://dc.lft.to/lastmile_qr_scan", "ios": "https://dc.lft.to/lastmile_qr_scan"}, "name": "59ff3cd2c254a7f069be81f718ffbadd", "type": "electric_scooter"}, {"fusion_lat": 0.0, "bike_id": "b4ee3533d2b107af262334e8d0aa84c1", "fusion_lon": 0.0, "lon": -77.0442795, "lat": 38.921225666666665, "is_reserved": 0, "is_disabled": 0, "rental_uris": {"android": "https://dc.lft.to/lastmile_qr_scan", "ios": "https://dc.lft.to/lastmile_qr_scan"}, "name": "b4ee3533d2b107af262334e8d0aa84c1", "type": "electric_scooter"}, {"fusion_lat": 0.0, "bike_id": "b2f3a0ad668c8b2dc78fe1382f395ac6", "fusion_lon": 0.0, "lon": -77.0320025, "lat": 38.8941445, "is_reserved": 0, "is_disabled": 0, "rental_uris": {"android": "https://dc.lft.to/lastmile_qr_scan", "ios": "https://dc.lft.to/lastmile_qr_scan"}, "name": "b2f3a0ad668c8b2dc78fe1382f395ac6", "type": "electric_scooter"}, {"fusion_lat": 0.0, "bike_id": "fa81aad82838348994350fc32ceea60d", "fusion_lon": 0.0, "lon": -77.0499965, "lat": 38.8922715, "is_reserved": 0, "is_disabled": 0, "rental_uris": {"android": "https://dc.lft.to/lastmile_qr_scan", "ios": "https://dc.lft.to/lastmile_qr_scan"}, "name": "fa81aad82838348994350fc32ceea60d", "type": "electric_scooter"}, {"fusion_lat": 0.0, "bike_id": "0d000daf23b89adafedcc3f013da5ff9", "fusion_lon": 0.0, "lon": -77.00905116666667, "lat": 38.898881, "is_reserved": 0, "is_disabled": 0, "rental_uris": {"android": "https://dc.lft.to/lastmile_qr_scan", "ios": "https://dc.lft.to/lastmile_qr_scan"}, "name": "0d000daf23b89adafedcc3f013da5ff9", "type": "electric_scooter"}, {"fusion_lat": 0.0, "bike_id": "3926b14c43b7a3b1792c0af620c56e6e", "fusion_lon": 0.0, "lon": -77.004522, "lat": 38.8766025, "is_reserved": 0, "is_disabled": 0, "rental_uris": {"android": "https://dc.lft.to/lastmile_qr_scan", "ios": "https://dc.lft.to/lastmile_qr_scan"}, "name": "3926b14c43b7a3b1792c0af620c56e6e", "type": "electric_scooter"}, {"fusion_lat": 0.0, "bike_id": "18ce2966e5087b3ad49a937e4ca78aae", "fusion_lon": 0.0, "lon": -77.04630333333333, "lat": 38.906416666666665, "is_reserved": 0, "is_disabled": 0, "rental_uris": {"android": "https://dc.lft.to/lastmile_qr_scan", "ios": "https://dc.lft.to/lastmile_qr_scan"}, "name": "18ce2966e5087b3ad49a937e4ca78aae", "type": "electric_scooter"}, {"fusion_lat": 0.0, "bike_id": "beadca2b803ccf51fa6f7fdc3c3e50c8", "fusion_lon": 0.0, "lon": -76.9938285, "lat": 38.89191566666667, "is_reserved": 0, "is_disabled": 0, "rental_uris": {"android": "https://dc.lft.to/lastmile_qr_scan", "ios": "https://dc.lft.to/lastmile_qr_scan"}, "name": "beadca2b803ccf51fa6f7fdc3c3e50c8", "type": "electric_scooter"}, {"fusion_lat": 0.0, "bike_id": "803b4b1db7962423c5561bb82a253ce3", "fusion_lon": 0.0, "lon": -76.99943316666666, "lat": 38.906271, "is_reserved": 0, "is_disabled": 0, "rental_uris": {"android": "https://dc.lft.to/lastmile_qr_scan", "ios": "https://dc.lft.to/lastmile_qr_scan"}, "name": "803b4b1db7962423c5561bb82a253ce3", "type": "electric_scooter"}, {"fusion_lat": 0.0, "bike_id": "36981747abaaeba5e65df68f3adb6365", "fusion_lon": 0.0, "lon": -77.0465975, "lat": 38.897783, "is_reserved": 0, "is_disabled": 0, "rental_uris": {"android": "https://dc.lft.to/lastmile_qr_scan", "ios": "https://dc.lft.to/lastmile_qr_scan"}, "name": "36981747abaaeba5e65df68f3adb6365", "type": "electric_scooter"}, {"fusion_lat": 0.0, "bike_id": "5c2b762c2dc420db92840c258a3fc6d6", "fusion_lon": 0.0, "lon": -76.948865, "lat": 38.89510716666667, "is_reserved": 0, "is_disabled": 0, "rental_uris": {"android": "https://dc.lft.to/lastmile_qr_scan", "ios": "https://dc.lft.to/lastmile_qr_scan"}, "name": "5c2b762c2dc420db92840c258a3fc6d6", "type": "electric_scooter"}, {"fusion_lat": 0.0, "bike_id": "fcd3af9a1a96d79e257dbde28e264b0a", "fusion_lon": 0.0, "lon": -77.02745916666667, "lat": 38.892473833333334, "is_reserved": 0, "is_disabled": 0, "rental_uris": {"android": "https://dc.lft.to/lastmile_qr_scan", "ios": "https://dc.lft.to/lastmile_qr_scan"}, "name": "fcd3af9a1a96d79e257dbde28e264b0a", "type": "electric_scooter"}, {"fusion_lat": 0.0, "bike_id": "90d4b007d13600b7c8522749823e4e77", "fusion_lon": 0.0, "lon": -77.01550566666667, "lat": 38.883296, "is_reserved": 0, "is_disabled": 0, "rental_uris": {"android": "https://dc.lft.to/lastmile_qr_scan", "ios": "https://dc.lft.to/lastmile_qr_scan"}, "name": "90d4b007d13600b7c8522749823e4e77", "type": "electric_scooter"}, {"fusion_lat": 0.0, "bike_id": "0c27ba3ea92aa20c8707d4586ad61dd4", "fusion_lon": 0.0, "lon": -77.0403405, "lat": 38.9061215, "is_reserved": 0, "is_disabled": 0, "rental_uris": {"android": "https://dc.lft.to/lastmile_qr_scan", "ios": "https://dc.lft.to/lastmile_qr_scan"}, "name": "0c27ba3ea92aa20c8707d4586ad61dd4", "type": "electric_scooter"}, {"fusion_lat": 0.0, "bike_id": "fb567ad9e9429b30d861c3ebf7f88ff9", "fusion_lon": 0.0, "lon": -77.0223025, "lat": 38.89221933333334, "is_reserved": 0, "is_disabled": 0, "rental_uris": {"android": "https://dc.lft.to/lastmile_qr_scan", "ios": "https://dc.lft.to/lastmile_qr_scan"}, "name": "fb567ad9e9429b30d861c3ebf7f88ff9", "type": "electric_scooter"}, {"fusion_lat": 0.0, "bike_id": "a69f65ff0e5aaf95d2bfd4a0accf6ab7", "fusion_lon": 0.0, "lon": -76.94986666666667, "lat": 38.89368966666667, "is_reserved": 0, "is_disabled": 0, "rental_uris": {"android": "https://dc.lft.to/lastmile_qr_scan", "ios": "https://dc.lft.to/lastmile_qr_scan"}, "name": "a69f65ff0e5aaf95d2bfd4a0accf6ab7", "type": "electric_scooter"}, {"fusion_lat": 0.0, "bike_id": "64e421f0124366186c17fb33b7b2f072", "fusion_lon": 0.0, "lon": -77.046574, "lat": 38.9049745, "is_reserved": 0, "is_disabled": 0, "rental_uris": {"android": "https://dc.lft.to/lastmile_qr_scan", "ios": "https://dc.lft.to/lastmile_qr_scan"}, "name": "64e421f0124366186c17fb33b7b2f072", "type": "electric_scooter"}, {"fusion_lat": 0.0, "bike_id": "a8c947358b65a42efbf51f77b23105de", "fusion_lon": 0.0, "lon": -77.04351083333333, "lat": 38.905093, "is_reserved": 0, "is_disabled": 0, "rental_uris": {"android": "https://dc.lft.to/lastmile_qr_scan", "ios": "https://dc.lft.to/lastmile_qr_scan"}, "name": "a8c947358b65a42efbf51f77b23105de", "type": "electric_scooter"}, {"fusion_lat": 0.0, "bike_id": "23794dcc45f90bc02adb6d7cc8974247", "fusion_lon": 0.0, "lon": -77.00457533333334, "lat": 38.91441666666667, "is_reserved": 0, "is_disabled": 0, "rental_uris": {"android": "https://dc.lft.to/lastmile_qr_scan", "ios": "https://dc.lft.to/lastmile_qr_scan"}, "name": "23794dcc45f90bc02adb6d7cc8974247", "type": "electric_scooter"}, {"fusion_lat": 0.0, "bike_id": "de298034c8056625f8f50cef42181e9b", "fusion_lon": 0.0, "lon": -77.03724466666667, "lat": 38.9201715, "is_reserved": 0, "is_disabled": 0, "rental_uris": {"android": "https://dc.lft.to/lastmile_qr_scan", "ios": "https://dc.lft.to/lastmile_qr_scan"}, "name": "de298034c8056625f8f50cef42181e9b", "type": "electric_scooter"}, {"fusion_lat": 0.0, "bike_id": "658516c903a697b0474b73c5264cb24b", "fusion_lon": 0.0, "lon": -77.01958383333333, "lat": 38.922072666666665, "is_reserved": 0, "is_disabled": 0, "rental_uris": {"android": "https://dc.lft.to/lastmile_qr_scan", "ios": "https://dc.lft.to/lastmile_qr_scan"}, "name": "658516c903a697b0474b73c5264cb24b", "type": "electric_scooter"}, {"fusion_lat": 0.0, "bike_id": "79c0d2b02f16536674831416972d7411", "fusion_lon": 0.0, "lon": -77.085775, "lat": 38.844331333333336, "is_reserved": 0, "is_disabled": 0, "rental_uris": {"android": "https://dc.lft.to/lastmile_qr_scan", "ios": "https://dc.lft.to/lastmile_qr_scan"}, "name": "79c0d2b02f16536674831416972d7411", "type": "electric_bike"}, {"fusion_lat": 0.0, "bike_id": "623dfcc4682c90799f85ee84e87b4e5b", "fusion_lon": 0.0, "lon": -77.03316766666667, "lat": 38.92851683333333, "is_reserved": 0, "is_disabled": 0, "rental_uris": {"android": "https://dc.lft.to/lastmile_qr_scan", "ios": "https://dc.lft.to/lastmile_qr_scan"}, "name": "623dfcc4682c90799f85ee84e87b4e5b", "type": "electric_scooter"}, {"fusion_lat": 0.0, "bike_id": "4717c1d8f07476f5fc8a4f93b9f5d347", "fusion_lon": 0.0, "lon": -76.98196216666666, "lat": 38.89944, "is_reserved": 0, "is_disabled": 0, "rental_uris": {"android": "https://dc.lft.to/lastmile_qr_scan", "ios": "https://dc.lft.to/lastmile_qr_scan"}, "name": "4717c1d8f07476f5fc8a4f93b9f5d347", "type": "electric_scooter"}, {"fusion_lat": 0.0, "bike_id": "aa36921f86fc016cb636275e3e1c1627", "fusion_lon": 0.0, "lon": -76.9860995, "lat": 38.89952783333333, "is_reserved": 0, "is_disabled": 0, "rental_uris": {"android": "https://dc.lft.to/lastmile_qr_scan", "ios": "https://dc.lft.to/lastmile_qr_scan"}, "name": "aa36921f86fc016cb636275e3e1c1627", "type": "electric_bike"}, {"fusion_lat": 0.0, "bike_id": "d31a1fada84cffc66b0cfc304d6a3bd2", "fusion_lon": 0.0, "lon": -77.046554, "lat": 38.9119475, "is_reserved": 0, "is_disabled": 0, "rental_uris": {"android": "https://dc.lft.to/lastmile_qr_scan", "ios": "https://dc.lft.to/lastmile_qr_scan"}, "name": "d31a1fada84cffc66b0cfc304d6a3bd2", "type": "electric_bike"}, {"fusion_lat": 0.0, "bike_id": "2862e6f69caace470531a3f7154490eb", "fusion_lon": 0.0, "lon": -77.0326495, "lat": 38.92862616666667, "is_reserved": 0, "is_disabled": 0, "rental_uris": {"android": "https://dc.lft.to/lastmile_qr_scan", "ios": "https://dc.lft.to/lastmile_qr_scan"}, "name": "2862e6f69caace470531a3f7154490eb", "type": "electric_scooter"}, {"fusion_lat": 0.0, "bike_id": "5c4e06e286beae4cdea30e9850da7cc2", "fusion_lon": 0.0, "lon": -77.02827066666667, "lat": 38.93142183333333, "is_reserved": 0, "is_disabled": 0, "rental_uris": {"android": "https://dc.lft.to/lastmile_qr_scan", "ios": "https://dc.lft.to/lastmile_qr_scan"}, "name": "5c4e06e286beae4cdea30e9850da7cc2", "type": "electric_scooter"}, {"fusion_lat": 0.0, "bike_id": "824efae42e0045c54219f488bd4a48e7", "fusion_lon": 0.0, "lon": -77.0414765, "lat": 38.91708333333333, "is_reserved": 0, "is_disabled": 0, "rental_uris": {"android": "https://dc.lft.to/lastmile_qr_scan", "ios": "https://dc.lft.to/lastmile_qr_scan"}, "name": "824efae42e0045c54219f488bd4a48e7", "type": "electric_scooter"}, {"fusion_lat": 0.0, "bike_id": "37302d614380389488a43cd74f5aab4f", "fusion_lon": 0.0, "lon": -77.00030916666667, "lat": 38.90692, "is_reserved": 0, "is_disabled": 0, "rental_uris": {"android": "https://dc.lft.to/lastmile_qr_scan", "ios": "https://dc.lft.to/lastmile_qr_scan"}, "name": "37302d614380389488a43cd74f5aab4f", "type": "electric_scooter"}, {"fusion_lat": 0.0, "bike_id": "8c68f7194e34f408357f557fb470fb00", "fusion_lon": 0.0, "lon": -77.03750016666666, "lat": 38.912544, "is_reserved": 0, "is_disabled": 0, "rental_uris": {"android": "https://dc.lft.to/lastmile_qr_scan", "ios": "https://dc.lft.to/lastmile_qr_scan"}, "name": "8c68f7194e34f408357f557fb470fb00", "type": "electric_scooter"}, {"fusion_lat": 0.0, "bike_id": "af48f32b84c586d69af102ff4a518e85", "fusion_lon": 0.0, "lon": -77.004548, "lat": 38.920684666666666, "is_reserved": 0, "is_disabled": 0, "rental_uris": {"android": "https://dc.lft.to/lastmile_qr_scan", "ios": "https://dc.lft.to/lastmile_qr_scan"}, "name": "af48f32b84c586d69af102ff4a518e85", "type": "electric_scooter"}, {"fusion_lat": 0.0, "bike_id": "019a123c740f20f1c4d2b8cc2679ea1b", "fusion_lon": 0.0, "lon": -77.03290433333333, "lat": 38.91699883333333, "is_reserved": 0, "is_disabled": 0, "rental_uris": {"android": "https://dc.lft.to/lastmile_qr_scan", "ios": "https://dc.lft.to/lastmile_qr_scan"}, "name": "019a123c740f20f1c4d2b8cc2679ea1b", "type": "electric_scooter"}, {"fusion_lat": 0.0, "bike_id": "de611b03861c2f0b04f30353ff9ff654", "fusion_lon": 0.0, "lon": -77.02426716666666, "lat": 38.892254333333334, "is_reserved": 0, "is_disabled": 0, "rental_uris": {"android": "https://dc.lft.to/lastmile_qr_scan", "ios": "https://dc.lft.to/lastmile_qr_scan"}, "name": "de611b03861c2f0b04f30353ff9ff654", "type": "electric_scooter"}, {"fusion_lat": 0.0, "bike_id": "be5c236eab90a9dbf7ed381b4cf713fe", "fusion_lon": 0.0, "lon": -77.00800133333334, "lat": 38.878102166666665, "is_reserved": 0, "is_disabled": 0, "rental_uris": {"android": "https://dc.lft.to/lastmile_qr_scan", "ios": "https://dc.lft.to/lastmile_qr_scan"}, "name": "be5c236eab90a9dbf7ed381b4cf713fe", "type": "electric_bike"}, {"fusion_lat": 0.0, "bike_id": "4dd19c95601a3b91ced08043136eb906", "fusion_lon": 0.0, "lon": -76.99845483333333, "lat": 38.89627, "is_reserved": 0, "is_disabled": 0, "rental_uris": {"android": "https://dc.lft.to/lastmile_qr_scan", "ios": "https://dc.lft.to/lastmile_qr_scan"}, "name": "4dd19c95601a3b91ced08043136eb906", "type": "electric_scooter"}, {"fusion_lat": 0.0, "bike_id": "3fa5b2bebc5347fd8ec3b2d489cc9b78", "fusion_lon": 0.0, "lon": -77.0731, "lat": 38.922385166666665, "is_reserved": 0, "is_disabled": 0, "rental_uris": {"android": "https://dc.lft.to/lastmile_qr_scan", "ios": "https://dc.lft.to/lastmile_qr_scan"}, "name": "3fa5b2bebc5347fd8ec3b2d489cc9b78", "type": "electric_scooter"}, {"fusion_lat": 0.0, "bike_id": "d2bbebfe94baf7a650480335170041cd", "fusion_lon": 0.0, "lon": -77.0251505, "lat": 38.892374833333335, "is_reserved": 0, "is_disabled": 0, "rental_uris": {"android": "https://dc.lft.to/lastmile_qr_scan", "ios": "https://dc.lft.to/lastmile_qr_scan"}, "name": "d2bbebfe94baf7a650480335170041cd", "type": "electric_scooter"}, {"fusion_lat": 0.0, "bike_id": "c5aabbd2884f0b625b5b463430353dfe", "fusion_lon": 0.0, "lon": -77.01722716666667, "lat": 38.88593133333333, "is_reserved": 0, "is_disabled": 0, "rental_uris": {"android": "https://dc.lft.to/lastmile_qr_scan", "ios": "https://dc.lft.to/lastmile_qr_scan"}, "name": "c5aabbd2884f0b625b5b463430353dfe", "type": "electric_scooter"}, {"fusion_lat": 0.0, "bike_id": "2192c4714726703c30af704bef1b9b42", "fusion_lon": 0.0, "lon": -76.94626416666667, "lat": 38.8983165, "is_reserved": 0, "is_disabled": 0, "rental_uris": {"android": "https://dc.lft.to/lastmile_qr_scan", "ios": "https://dc.lft.to/lastmile_qr_scan"}, "name": "2192c4714726703c30af704bef1b9b42", "type": "electric_scooter"}, {"fusion_lat": 0.0, "bike_id": "1c6be5b70b606885d877fbe5b146d515", "fusion_lon": 0.0, "lon": -77.02477716666667, "lat": 38.916984666666664, "is_reserved": 0, "is_disabled": 0, "rental_uris": {"android": "https://dc.lft.to/lastmile_qr_scan", "ios": "https://dc.lft.to/lastmile_qr_scan"}, "name": "1c6be5b70b606885d877fbe5b146d515", "type": "electric_scooter"}, {"fusion_lat": 0.0, "bike_id": "29838b071a81ecc1644f7458a03bf35f", "fusion_lon": 0.0, "lon": -77.02857083333333, "lat": 38.9125415, "is_reserved": 0, "is_disabled": 0, "rental_uris": {"android": "https://dc.lft.to/lastmile_qr_scan", "ios": "https://dc.lft.to/lastmile_qr_scan"}, "name": "29838b071a81ecc1644f7458a03bf35f", "type": "electric_scooter"}, {"fusion_lat": 0.0, "bike_id": "ae9e818efbcb93795a5efdcd169924a5", "fusion_lon": 0.0, "lon": -77.05205816666667, "lat": 38.92436633333333, "is_reserved": 0, "is_disabled": 0, "rental_uris": {"android": "https://dc.lft.to/lastmile_qr_scan", "ios": "https://dc.lft.to/lastmile_qr_scan"}, "name": "ae9e818efbcb93795a5efdcd169924a5", "type": "electric_scooter"}, {"fusion_lat": 0.0, "bike_id": "77f0af9c80060d37b479b72e96f02451", "fusion_lon": 0.0, "lon": -77.03044583333333, "lat": 38.9168995, "is_reserved": 0, "is_disabled": 0, "rental_uris": {"android": "https://dc.lft.to/lastmile_qr_scan", "ios": "https://dc.lft.to/lastmile_qr_scan"}, "name": "77f0af9c80060d37b479b72e96f02451", "type": "electric_scooter"}, {"fusion_lat": 0.0, "bike_id": "d8a4f56364aebcf0e5ed14314604477b", "fusion_lon": 0.0, "lon": -77.04382716666667, "lat": 38.9001565, "is_reserved": 0, "is_disabled": 0, "rental_uris": {"android": "https://dc.lft.to/lastmile_qr_scan", "ios": "https://dc.lft.to/lastmile_qr_scan"}, "name": "d8a4f56364aebcf0e5ed14314604477b", "type": "electric_scooter"}, {"fusion_lat": 0.0, "bike_id": "c2d5d2c642d564658046abc2c434992a", "fusion_lon": 0.0, "lon": -77.0327385, "lat": 38.9199705, "is_reserved": 0, "is_disabled": 0, "rental_uris": {"android": "https://dc.lft.to/lastmile_qr_scan", "ios": "https://dc.lft.to/lastmile_qr_scan"}, "name": "c2d5d2c642d564658046abc2c434992a", "type": "electric_scooter"}, {"fusion_lat": 0.0, "bike_id": "155fdbecb47ce208cafd0305fb282e69", "fusion_lon": 0.0, "lon": -77.066998, "lat": 38.91440883333333, "is_reserved": 0, "is_disabled": 0, "rental_uris": {"android": "https://dc.lft.to/lastmile_qr_scan", "ios": "https://dc.lft.to/lastmile_qr_scan"}, "name": "155fdbecb47ce208cafd0305fb282e69", "type": "electric_scooter"}, {"fusion_lat": 0.0, "bike_id": "cc327b41950c0f793d494ed393f8cdc0", "fusion_lon": 0.0, "lon": -77.006038, "lat": 38.87181833333333, "is_reserved": 0, "is_disabled": 0, "rental_uris": {"android": "https://dc.lft.to/lastmile_qr_scan", "ios": "https://dc.lft.to/lastmile_qr_scan"}, "name": "cc327b41950c0f793d494ed393f8cdc0", "type": "electric_scooter"}, {"fusion_lat": 0.0, "bike_id": "4847634c7212608e64bf8908a3f5c94e", "fusion_lon": 0.0, "lon": -77.03228916666667, "lat": 38.904804666666664, "is_reserved": 0, "is_disabled": 0, "rental_uris": {"android": "https://dc.lft.to/lastmile_qr_scan", "ios": "https://dc.lft.to/lastmile_qr_scan"}, "name": "4847634c7212608e64bf8908a3f5c94e", "type": "electric_scooter"}, {"fusion_lat": 0.0, "bike_id": "b789e0c1b8179fbe0061474ae6723fae", "fusion_lon": 0.0, "lon": -77.01405033333333, "lat": 38.91477183333333, "is_reserved": 0, "is_disabled": 0, "rental_uris": {"android": "https://dc.lft.to/lastmile_qr_scan", "ios": "https://dc.lft.to/lastmile_qr_scan"}, "name": "b789e0c1b8179fbe0061474ae6723fae", "type": "electric_scooter"}, {"fusion_lat": 0.0, "bike_id": "68c5da722aeccabef49112bf54ce22e6", "fusion_lon": 0.0, "lon": -77.02843366666667, "lat": 38.925873, "is_reserved": 0, "is_disabled": 0, "rental_uris": {"android": "https://dc.lft.to/lastmile_qr_scan", "ios": "https://dc.lft.to/lastmile_qr_scan"}, "name": "68c5da722aeccabef49112bf54ce22e6", "type": "electric_scooter"}, {"fusion_lat": 0.0, "bike_id": "a7ce980614ad3a451df0940a2cebfe75", "fusion_lon": 0.0, "lon": -77.03178183333333, "lat": 38.914012666666665, "is_reserved": 0, "is_disabled": 0, "rental_uris": {"android": "https://dc.lft.to/lastmile_qr_scan", "ios": "https://dc.lft.to/lastmile_qr_scan"}, "name": "a7ce980614ad3a451df0940a2cebfe75", "type": "electric_scooter"}, {"fusion_lat": 0.0, "bike_id": "1c92b7c7cff9c2d3e28d92749b3c7f60", "fusion_lon": 0.0, "lon": -77.02048, "lat": 38.92365133333333, "is_reserved": 0, "is_disabled": 0, "rental_uris": {"android": "https://dc.lft.to/lastmile_qr_scan", "ios": "https://dc.lft.to/lastmile_qr_scan"}, "name": "1c92b7c7cff9c2d3e28d92749b3c7f60", "type": "electric_scooter"}, {"fusion_lat": 0.0, "bike_id": "fafab5453c386b0fd3d11feb12b071ca", "fusion_lon": 0.0, "lon": -77.03213433333333, "lat": 38.896594666666665, "is_reserved": 0, "is_disabled": 0, "rental_uris": {"android": "https://dc.lft.to/lastmile_qr_scan", "ios": "https://dc.lft.to/lastmile_qr_scan"}, "name": "fafab5453c386b0fd3d11feb12b071ca", "type": "electric_scooter"}, {"fusion_lat": 0.0, "bike_id": "34b8f0c3dec6aa9fd4c6d78dda845f4b", "fusion_lon": 0.0, "lon": -77.1128145, "lat": 39.0474975, "is_reserved": 0, "is_disabled": 0, "rental_uris": {"android": "https://dc.lft.to/lastmile_qr_scan", "ios": "https://dc.lft.to/lastmile_qr_scan"}, "name": "34b8f0c3dec6aa9fd4c6d78dda845f4b", "type": "electric_bike"}, {"fusion_lat": 0.0, "bike_id": "04f0ec763bca370c64625db6b04a4550", "fusion_lon": 0.0, "lon": -77.03515483333334, "lat": 38.91602683333333, "is_reserved": 0, "is_disabled": 0, "rental_uris": {"android": "https://dc.lft.to/lastmile_qr_scan", "ios": "https://dc.lft.to/lastmile_qr_scan"}, "name": "04f0ec763bca370c64625db6b04a4550", "type": "electric_scooter"}, {"fusion_lat": 0.0, "bike_id": "a23d46776e090cf39019243a2a2d335f", "fusion_lon": 0.0, "lon": -77.006051, "lat": 38.87184216666667, "is_reserved": 0, "is_disabled": 0, "rental_uris": {"android": "https://dc.lft.to/lastmile_qr_scan", "ios": "https://dc.lft.to/lastmile_qr_scan"}, "name": "a23d46776e090cf39019243a2a2d335f", "type": "electric_scooter"}, {"fusion_lat": 0.0, "bike_id": "3239f9716746f455d42151cc319ef6e0", "fusion_lon": 0.0, "lon": -77.01479183333333, "lat": 38.914059, "is_reserved": 0, "is_disabled": 0, "rental_uris": {"android": "https://dc.lft.to/lastmile_qr_scan", "ios": "https://dc.lft.to/lastmile_qr_scan"}, "name": "3239f9716746f455d42151cc319ef6e0", "type": "electric_scooter"}, {"fusion_lat": 0.0, "bike_id": "030e10f1b09533adfe8f907f27a0548f", "fusion_lon": 0.0, "lon": -77.04134416666666, "lat": 38.92136883333333, "is_reserved": 0, "is_disabled": 0, "rental_uris": {"android": "https://dc.lft.to/lastmile_qr_scan", "ios": "https://dc.lft.to/lastmile_qr_scan"}, "name": "030e10f1b09533adfe8f907f27a0548f", "type": "electric_scooter"}, {"fusion_lat": 0.0, "bike_id": "06bde666b908462361a0fd113dea4396", "fusion_lon": 0.0, "lon": -77.03263666666666, "lat": 38.9389, "is_reserved": 0, "is_disabled": 0, "rental_uris": {"android": "https://dc.lft.to/lastmile_qr_scan", "ios": "https://dc.lft.to/lastmile_qr_scan"}, "name": "06bde666b908462361a0fd113dea4396", "type": "electric_scooter"}, {"fusion_lat": 0.0, "bike_id": "d479a19936af3b43c8de6e2f4bde00ba", "fusion_lon": 0.0, "lon": -77.03258033333333, "lat": 38.92541166666667, "is_reserved": 0, "is_disabled": 0, "rental_uris": {"android": "https://dc.lft.to/lastmile_qr_scan", "ios": "https://dc.lft.to/lastmile_qr_scan"}, "name": "d479a19936af3b43c8de6e2f4bde00ba", "type": "electric_scooter"}, {"fusion_lat": 0.0, "bike_id": "cb9b1aa943a2607e5c580d05cf78d773", "fusion_lon": 0.0, "lon": -76.99929516666667, "lat": 38.84319, "is_reserved": 0, "is_disabled": 0, "rental_uris": {"android": "https://dc.lft.to/lastmile_qr_scan", "ios": "https://dc.lft.to/lastmile_qr_scan"}, "name": "cb9b1aa943a2607e5c580d05cf78d773", "type": "electric_scooter"}, {"fusion_lat": 0.0, "bike_id": "eb0302a455c477be8c3a1d9d090d35e1", "fusion_lon": 0.0, "lon": -77.0341775, "lat": 38.9192945, "is_reserved": 0, "is_disabled": 0, "rental_uris": {"android": "https://dc.lft.to/lastmile_qr_scan", "ios": "https://dc.lft.to/lastmile_qr_scan"}, "name": "eb0302a455c477be8c3a1d9d090d35e1", "type": "electric_scooter"}, {"fusion_lat": 0.0, "bike_id": "a6331aee75039939e5fb33d8e3393488", "fusion_lon": 0.0, "lon": -77.02306, "lat": 38.901489, "is_reserved": 0, "is_disabled": 0, "rental_uris": {"android": "https://dc.lft.to/lastmile_qr_scan", "ios": "https://dc.lft.to/lastmile_qr_scan"}, "name": "a6331aee75039939e5fb33d8e3393488", "type": "electric_scooter"}, {"fusion_lat": 0.0, "bike_id": "06ff96643a9ade4d47a208cec28be89b", "fusion_lon": 0.0, "lon": -77.060998, "lat": 38.905295333333335, "is_reserved": 0, "is_disabled": 0, "rental_uris": {"android": "https://dc.lft.to/lastmile_qr_scan", "ios": "https://dc.lft.to/lastmile_qr_scan"}, "name": "06ff96643a9ade4d47a208cec28be89b", "type": "electric_scooter"}, {"fusion_lat": 0.0, "bike_id": "332a45a59e9320abe8ab5660615021c2", "fusion_lon": 0.0, "lon": -77.03245316666667, "lat": 38.919923833333335, "is_reserved": 0, "is_disabled": 0, "rental_uris": {"android": "https://dc.lft.to/lastmile_qr_scan", "ios": "https://dc.lft.to/lastmile_qr_scan"}, "name": "332a45a59e9320abe8ab5660615021c2", "type": "electric_scooter"}, {"fusion_lat": 0.0, "bike_id": "248fd527c0179014667964f6a2ffb54d", "fusion_lon": 0.0, "lon": -77.04165283333333, "lat": 38.9052905, "is_reserved": 0, "is_disabled": 0, "rental_uris": {"android": "https://dc.lft.to/lastmile_qr_scan", "ios": "https://dc.lft.to/lastmile_qr_scan"}, "name": "248fd527c0179014667964f6a2ffb54d", "type": "electric_scooter"}, {"fusion_lat": 0.0, "bike_id": "0bb1cb19fa0bb75b045738ae23e508ab", "fusion_lon": 0.0, "lon": -77.0074735, "lat": 38.903502, "is_reserved": 0, "is_disabled": 0, "rental_uris": {"android": "https://dc.lft.to/lastmile_qr_scan", "ios": "https://dc.lft.to/lastmile_qr_scan"}, "name": "0bb1cb19fa0bb75b045738ae23e508ab", "type": "electric_scooter"}, {"fusion_lat": 0.0, "bike_id": "0882bfb4215246f70834fe63333ada27", "fusion_lon": 0.0, "lon": -77.02382433333334, "lat": 38.89232233333333, "is_reserved": 0, "is_disabled": 0, "rental_uris": {"android": "https://dc.lft.to/lastmile_qr_scan", "ios": "https://dc.lft.to/lastmile_qr_scan"}, "name": "0882bfb4215246f70834fe63333ada27", "type": "electric_scooter"}, {"fusion_lat": 0.0, "bike_id": "0092979caecbddae08be903d015edae2", "fusion_lon": 0.0, "lon": -77.07224966666666, "lat": 38.968150666666666, "is_reserved": 0, "is_disabled": 0, "rental_uris": {"android": "https://dc.lft.to/lastmile_qr_scan", "ios": "https://dc.lft.to/lastmile_qr_scan"}, "name": "0092979caecbddae08be903d015edae2", "type": "electric_bike"}, {"fusion_lat": 0.0, "bike_id": "fc69a8cffeb8d780b0f21736c5956ee0", "fusion_lon": 0.0, "lon": -77.03379466666667, "lat": 38.92164183333333, "is_reserved": 0, "is_disabled": 0, "rental_uris": {"android": "https://dc.lft.to/lastmile_qr_scan", "ios": "https://dc.lft.to/lastmile_qr_scan"}, "name": "fc69a8cffeb8d780b0f21736c5956ee0", "type": "electric_scooter"}, {"fusion_lat": 0.0, "bike_id": "f11a54ecc13ae0adc5a332301f9ebf5f", "fusion_lon": 0.0, "lon": -77.0176215, "lat": 38.88730866666667, "is_reserved": 0, "is_disabled": 0, "rental_uris": {"android": "https://dc.lft.to/lastmile_qr_scan", "ios": "https://dc.lft.to/lastmile_qr_scan"}, "name": "f11a54ecc13ae0adc5a332301f9ebf5f", "type": "electric_scooter"}, {"fusion_lat": 0.0, "bike_id": "7ba7bf4dde30769c0a514c119fd3f5bf", "fusion_lon": 0.0, "lon": -77.0390895, "lat": 38.923125, "is_reserved": 0, "is_disabled": 0, "rental_uris": {"android": "https://dc.lft.to/lastmile_qr_scan", "ios": "https://dc.lft.to/lastmile_qr_scan"}, "name": "7ba7bf4dde30769c0a514c119fd3f5bf", "type": "electric_scooter"}, {"fusion_lat": 0.0, "bike_id": "e65f8b0ccc68039c92e371b8cac58c72", "fusion_lon": 0.0, "lon": -77.02181866666666, "lat": 38.912742333333334, "is_reserved": 0, "is_disabled": 0, "rental_uris": {"android": "https://dc.lft.to/lastmile_qr_scan", "ios": "https://dc.lft.to/lastmile_qr_scan"}, "name": "e65f8b0ccc68039c92e371b8cac58c72", "type": "electric_scooter"}, {"fusion_lat": 0.0, "bike_id": "710927feb97a9bb569274ac4761688e9", "fusion_lon": 0.0, "lon": -76.96087766666666, "lat": 38.918502, "is_reserved": 0, "is_disabled": 0, "rental_uris": {"android": "https://dc.lft.to/lastmile_qr_scan", "ios": "https://dc.lft.to/lastmile_qr_scan"}, "name": "710927feb97a9bb569274ac4761688e9", "type": "electric_bike"}, {"fusion_lat": 0.0, "bike_id": "cd9a348b1e2d97d1e92f909a0bb34101", "fusion_lon": 0.0, "lon": -77.03444833333333, "lat": 38.909527, "is_reserved": 0, "is_disabled": 0, "rental_uris": {"android": "https://dc.lft.to/lastmile_qr_scan", "ios": "https://dc.lft.to/lastmile_qr_scan"}, "name": "cd9a348b1e2d97d1e92f909a0bb34101", "type": "electric_scooter"}, {"fusion_lat": 0.0, "bike_id": "63ad0baff8f51b284d2008a06ed20e85", "fusion_lon": 0.0, "lon": -77.0048605, "lat": 38.928140666666664, "is_reserved": 0, "is_disabled": 0, "rental_uris": {"android": "https://dc.lft.to/lastmile_qr_scan", "ios": "https://dc.lft.to/lastmile_qr_scan"}, "name": "63ad0baff8f51b284d2008a06ed20e85", "type": "electric_bike"}, {"fusion_lat": 0.0, "bike_id": "1c20736e737fc3880def7047ca4b8e45", "fusion_lon": 0.0, "lon": -77.0360885, "lat": 38.9367875, "is_reserved": 0, "is_disabled": 0, "rental_uris": {"android": "https://dc.lft.to/lastmile_qr_scan", "ios": "https://dc.lft.to/lastmile_qr_scan"}, "name": "1c20736e737fc3880def7047ca4b8e45", "type": "electric_scooter"}, {"fusion_lat": 0.0, "bike_id": "9798c8e3e92404b7800cf1212d90c8e1", "fusion_lon": 0.0, "lon": -77.04500466666667, "lat": 38.8922415, "is_reserved": 0, "is_disabled": 0, "rental_uris": {"android": "https://dc.lft.to/lastmile_qr_scan", "ios": "https://dc.lft.to/lastmile_qr_scan"}, "name": "9798c8e3e92404b7800cf1212d90c8e1", "type": "electric_scooter"}, {"fusion_lat": 0.0, "bike_id": "8714b7ce8e3268e5c7995362518f0986", "fusion_lon": 0.0, "lon": -76.929454, "lat": 38.884448, "is_reserved": 0, "is_disabled": 0, "rental_uris": {"android": "https://dc.lft.to/lastmile_qr_scan", "ios": "https://dc.lft.to/lastmile_qr_scan"}, "name": "8714b7ce8e3268e5c7995362518f0986", "type": "electric_scooter"}, {"fusion_lat": 0.0, "bike_id": "9d61993e2c2b4fc2859c3ad01e99d663", "fusion_lon": 0.0, "lon": -77.0253785, "lat": 38.920795, "is_reserved": 0, "is_disabled": 0, "rental_uris": {"android": "https://dc.lft.to/lastmile_qr_scan", "ios": "https://dc.lft.to/lastmile_qr_scan"}, "name": "9d61993e2c2b4fc2859c3ad01e99d663", "type": "electric_scooter"}, {"fusion_lat": 0.0, "bike_id": "ab0519de4204d0a426a8e8c07cb36d0f", "fusion_lon": 0.0, "lon": -77.02453, "lat": 38.913960833333334, "is_reserved": 0, "is_disabled": 0, "rental_uris": {"android": "https://dc.lft.to/lastmile_qr_scan", "ios": "https://dc.lft.to/lastmile_qr_scan"}, "name": "ab0519de4204d0a426a8e8c07cb36d0f", "type": "electric_scooter"}, {"fusion_lat": 0.0, "bike_id": "faff60a01c32010e19cfe0d3117b04d5", "fusion_lon": 0.0, "lon": -77.02440016666667, "lat": 38.91417783333333, "is_reserved": 0, "is_disabled": 0, "rental_uris": {"android": "https://dc.lft.to/lastmile_qr_scan", "ios": "https://dc.lft.to/lastmile_qr_scan"}, "name": "faff60a01c32010e19cfe0d3117b04d5", "type": "electric_scooter"}, {"fusion_lat": 0.0, "bike_id": "bb7e1ca095d903141cc661fb21933dd4", "fusion_lon": 0.0, "lon": -77.043337, "lat": 38.892214333333335, "is_reserved": 0, "is_disabled": 0, "rental_uris": {"android": "https://dc.lft.to/lastmile_qr_scan", "ios": "https://dc.lft.to/lastmile_qr_scan"}, "name": "bb7e1ca095d903141cc661fb21933dd4", "type": "electric_scooter"}, {"fusion_lat": 0.0, "bike_id": "fce399ef84c27e07a9d7987b262f6bb1", "fusion_lon": 0.0, "lon": -77.04417233333334, "lat": 38.897201833333334, "is_reserved": 0, "is_disabled": 0, "rental_uris": {"android": "https://dc.lft.to/lastmile_qr_scan", "ios": "https://dc.lft.to/lastmile_qr_scan"}, "name": "fce399ef84c27e07a9d7987b262f6bb1", "type": "electric_scooter"}, {"fusion_lat": 0.0, "bike_id": "30c2c0e81431e6cd8530193ad2b1a682", "fusion_lon": 0.0, "lon": -77.01888333333333, "lat": 38.930814, "is_reserved": 0, "is_disabled": 0, "rental_uris": {"android": "https://dc.lft.to/lastmile_qr_scan", "ios": "https://dc.lft.to/lastmile_qr_scan"}, "name": "30c2c0e81431e6cd8530193ad2b1a682", "type": "electric_scooter"}, {"fusion_lat": 0.0, "bike_id": "03eb21576b7693a74757fc4ea2158c74", "fusion_lon": 0.0, "lon": -77.02381366666667, "lat": 38.892367666666665, "is_reserved": 0, "is_disabled": 0, "rental_uris": {"android": "https://dc.lft.to/lastmile_qr_scan", "ios": "https://dc.lft.to/lastmile_qr_scan"}, "name": "03eb21576b7693a74757fc4ea2158c74", "type": "electric_scooter"}, {"fusion_lat": 0.0, "bike_id": "f1d9d06b0efa5e21a6fe49e79dd201a2", "fusion_lon": 0.0, "lon": -76.99057033333334, "lat": 38.86373183333333, "is_reserved": 0, "is_disabled": 0, "rental_uris": {"android": "https://dc.lft.to/lastmile_qr_scan", "ios": "https://dc.lft.to/lastmile_qr_scan"}, "name": "f1d9d06b0efa5e21a6fe49e79dd201a2", "type": "electric_scooter"}, {"fusion_lat": 0.0, "bike_id": "21ca495c1483a5c6013d57323faaf4ec", "fusion_lon": 0.0, "lon": -77.00561066666667, "lat": 38.875552666666664, "is_reserved": 0, "is_disabled": 0, "rental_uris": {"android": "https://dc.lft.to/lastmile_qr_scan", "ios": "https://dc.lft.to/lastmile_qr_scan"}, "name": "21ca495c1483a5c6013d57323faaf4ec", "type": "electric_scooter"}, {"fusion_lat": 0.0, "bike_id": "2cdd693e0fe4f3389e10a2a7737b675c", "fusion_lon": 0.0, "lon": -77.032017, "lat": 38.9124715, "is_reserved": 0, "is_disabled": 0, "rental_uris": {"android": "https://dc.lft.to/lastmile_qr_scan", "ios": "https://dc.lft.to/lastmile_qr_scan"}, "name": "2cdd693e0fe4f3389e10a2a7737b675c", "type": "electric_scooter"}, {"fusion_lat": 0.0, "bike_id": "3505df2dddd893c3d45e18a4c8a2829b", "fusion_lon": 0.0, "lon": -76.97856316666666, "lat": 38.907199166666665, "is_reserved": 0, "is_disabled": 0, "rental_uris": {"android": "https://dc.lft.to/lastmile_qr_scan", "ios": "https://dc.lft.to/lastmile_qr_scan"}, "name": "3505df2dddd893c3d45e18a4c8a2829b", "type": "electric_scooter"}, {"fusion_lat": 0.0, "bike_id": "9b5eee95d3b029546c6af78c25229b52", "fusion_lon": 0.0, "lon": -77.05039066666667, "lat": 38.92359416666667, "is_reserved": 0, "is_disabled": 0, "rental_uris": {"android": "https://dc.lft.to/lastmile_qr_scan", "ios": "https://dc.lft.to/lastmile_qr_scan"}, "name": "9b5eee95d3b029546c6af78c25229b52", "type": "electric_scooter"}, {"fusion_lat": 0.0, "bike_id": "026aaafa087b6b9a605390b9f8abebeb", "fusion_lon": 0.0, "lon": -77.05372883333334, "lat": 38.927541, "is_reserved": 0, "is_disabled": 0, "rental_uris": {"android": "https://dc.lft.to/lastmile_qr_scan", "ios": "https://dc.lft.to/lastmile_qr_scan"}, "name": "026aaafa087b6b9a605390b9f8abebeb", "type": "electric_scooter"}, {"fusion_lat": 0.0, "bike_id": "11f60c52b3614a8e25f791a07fe32b43", "fusion_lon": 0.0, "lon": -77.03558016666666, "lat": 38.933758833333336, "is_reserved": 0, "is_disabled": 0, "rental_uris": {"android": "https://dc.lft.to/lastmile_qr_scan", "ios": "https://dc.lft.to/lastmile_qr_scan"}, "name": "11f60c52b3614a8e25f791a07fe32b43", "type": "electric_scooter"}, {"fusion_lat": 0.0, "bike_id": "b05f2c175a6e485b0a6be6c30dc2ffe6", "fusion_lon": 0.0, "lon": -77.03961716666667, "lat": 38.898866166666664, "is_reserved": 0, "is_disabled": 0, "rental_uris": {"android": "https://dc.lft.to/lastmile_qr_scan", "ios": "https://dc.lft.to/lastmile_qr_scan"}, "name": "b05f2c175a6e485b0a6be6c30dc2ffe6", "type": "electric_scooter"}, {"fusion_lat": 0.0, "bike_id": "6829e047aeb28474e3ce00405a2a6881", "fusion_lon": 0.0, "lon": -77.0467255, "lat": 38.89234116666667, "is_reserved": 0, "is_disabled": 0, "rental_uris": {"android": "https://dc.lft.to/lastmile_qr_scan", "ios": "https://dc.lft.to/lastmile_qr_scan"}, "name": "6829e047aeb28474e3ce00405a2a6881", "type": "electric_scooter"}, {"fusion_lat": 0.0, "bike_id": "bbf98ec0b6ab087ae211a67befd21c3d", "fusion_lon": 0.0, "lon": -77.05003066666667, "lat": 38.891956, "is_reserved": 0, "is_disabled": 0, "rental_uris": {"android": "https://dc.lft.to/lastmile_qr_scan", "ios": "https://dc.lft.to/lastmile_qr_scan"}, "name": "bbf98ec0b6ab087ae211a67befd21c3d", "type": "electric_scooter"}, {"fusion_lat": 0.0, "bike_id": "92cf6cb663ecaf52cbd54e4bdef6542a", "fusion_lon": 0.0, "lon": -77.03295133333333, "lat": 38.9103775, "is_reserved": 0, "is_disabled": 0, "rental_uris": {"android": "https://dc.lft.to/lastmile_qr_scan", "ios": "https://dc.lft.to/lastmile_qr_scan"}, "name": "92cf6cb663ecaf52cbd54e4bdef6542a", "type": "electric_scooter"}, {"fusion_lat": 0.0, "bike_id": "b918bc32765e364d04b69ed6e60487f5", "fusion_lon": 0.0, "lon": -77.0305, "lat": 38.92364033333333, "is_reserved": 0, "is_disabled": 0, "rental_uris": {"android": "https://dc.lft.to/lastmile_qr_scan", "ios": "https://dc.lft.to/lastmile_qr_scan"}, "name": "b918bc32765e364d04b69ed6e60487f5", "type": "electric_scooter"}, {"fusion_lat": 0.0, "bike_id": "f4357747aef4ee25d2f8253a2bf3429f", "fusion_lon": 0.0, "lon": -77.034409, "lat": 38.909783, "is_reserved": 0, "is_disabled": 0, "rental_uris": {"android": "https://dc.lft.to/lastmile_qr_scan", "ios": "https://dc.lft.to/lastmile_qr_scan"}, "name": "f4357747aef4ee25d2f8253a2bf3429f", "type": "electric_scooter"}, {"fusion_lat": 0.0, "bike_id": "79e99b3f0ac20ba95800d49e1f9e2ef2", "fusion_lon": 0.0, "lon": -77.034019, "lat": 38.92858366666667, "is_reserved": 0, "is_disabled": 0, "rental_uris": {"android": "https://dc.lft.to/lastmile_qr_scan", "ios": "https://dc.lft.to/lastmile_qr_scan"}, "name": "79e99b3f0ac20ba95800d49e1f9e2ef2", "type": "electric_scooter"}, {"fusion_lat": 0.0, "bike_id": "657dc98b2f8056a584130b10b19b2a63", "fusion_lon": 0.0, "lon": -76.995911, "lat": 38.950717166666664, "is_reserved": 0, "is_disabled": 0, "rental_uris": {"android": "https://dc.lft.to/lastmile_qr_scan", "ios": "https://dc.lft.to/lastmile_qr_scan"}, "name": "657dc98b2f8056a584130b10b19b2a63", "type": "electric_bike"}, {"fusion_lat": 0.0, "bike_id": "f4c0b7c242941a11ff31b71724060f9e", "fusion_lon": 0.0, "lon": -77.02188983333333, "lat": 38.898069166666666, "is_reserved": 0, "is_disabled": 0, "rental_uris": {"android": "https://dc.lft.to/lastmile_qr_scan", "ios": "https://dc.lft.to/lastmile_qr_scan"}, "name": "f4c0b7c242941a11ff31b71724060f9e", "type": "electric_scooter"}, {"fusion_lat": 0.0, "bike_id": "680b530200cb5d101c59cfce835dd559", "fusion_lon": 0.0, "lon": -77.044723, "lat": 38.90533, "is_reserved": 0, "is_disabled": 0, "rental_uris": {"android": "https://dc.lft.to/lastmile_qr_scan", "ios": "https://dc.lft.to/lastmile_qr_scan"}, "name": "680b530200cb5d101c59cfce835dd559", "type": "electric_scooter"}, {"fusion_lat": 0.0, "bike_id": "33d61fe000473b69661e738d2d56b11a", "fusion_lon": 0.0, "lon": -77.02091366666667, "lat": 38.92915216666667, "is_reserved": 0, "is_disabled": 0, "rental_uris": {"android": "https://dc.lft.to/lastmile_qr_scan", "ios": "https://dc.lft.to/lastmile_qr_scan"}, "name": "33d61fe000473b69661e738d2d56b11a", "type": "electric_scooter"}, {"fusion_lat": 0.0, "bike_id": "e6a4de8e2f71b503b383bdc52889c911", "fusion_lon": 0.0, "lon": -76.95058, "lat": 38.893003, "is_reserved": 0, "is_disabled": 0, "rental_uris": {"android": "https://dc.lft.to/lastmile_qr_scan", "ios": "https://dc.lft.to/lastmile_qr_scan"}, "name": "e6a4de8e2f71b503b383bdc52889c911", "type": "electric_scooter"}, {"fusion_lat": 0.0, "bike_id": "41b3dc80b19618874bc7c3326ff05745", "fusion_lon": 0.0, "lon": -77.05778416666666, "lat": 38.905090333333334, "is_reserved": 0, "is_disabled": 0, "rental_uris": {"android": "https://dc.lft.to/lastmile_qr_scan", "ios": "https://dc.lft.to/lastmile_qr_scan"}, "name": "41b3dc80b19618874bc7c3326ff05745", "type": "electric_scooter"}, {"fusion_lat": 0.0, "bike_id": "5d8d02003e0ac7667fbd4406cace776c", "fusion_lon": 0.0, "lon": -77.03175883333333, "lat": 38.930471833333335, "is_reserved": 0, "is_disabled": 0, "rental_uris": {"android": "https://dc.lft.to/lastmile_qr_scan", "ios": "https://dc.lft.to/lastmile_qr_scan"}, "name": "5d8d02003e0ac7667fbd4406cace776c", "type": "electric_scooter"}, {"fusion_lat": 0.0, "bike_id": "9518bd573aadb904a51de54fe3494cd0", "fusion_lon": 0.0, "lon": -77.03042033333334, "lat": 38.884360666666666, "is_reserved": 0, "is_disabled": 0, "rental_uris": {"android": "https://dc.lft.to/lastmile_qr_scan", "ios": "https://dc.lft.to/lastmile_qr_scan"}, "name": "9518bd573aadb904a51de54fe3494cd0", "type": "electric_scooter"}, {"fusion_lat": 0.0, "bike_id": "930573807e02404119937276c9b87795", "fusion_lon": 0.0, "lon": -77.04017516666667, "lat": 38.903788166666665, "is_reserved": 0, "is_disabled": 0, "rental_uris": {"android": "https://dc.lft.to/lastmile_qr_scan", "ios": "https://dc.lft.to/lastmile_qr_scan"}, "name": "930573807e02404119937276c9b87795", "type": "electric_scooter"}, {"fusion_lat": 0.0, "bike_id": "4f0811fbbfad99b525704f7335ed6956", "fusion_lon": 0.0, "lon": -77.04067816666667, "lat": 38.909568666666665, "is_reserved": 0, "is_disabled": 0, "rental_uris": {"android": "https://dc.lft.to/lastmile_qr_scan", "ios": "https://dc.lft.to/lastmile_qr_scan"}, "name": "4f0811fbbfad99b525704f7335ed6956", "type": "electric_scooter"}, {"fusion_lat": 0.0, "bike_id": "0d279faf088762adf049143ec7f54e2c", "fusion_lon": 0.0, "lon": -77.06899566666667, "lat": 38.903954666666664, "is_reserved": 0, "is_disabled": 0, "rental_uris": {"android": "https://dc.lft.to/lastmile_qr_scan", "ios": "https://dc.lft.to/lastmile_qr_scan"}, "name": "0d279faf088762adf049143ec7f54e2c", "type": "electric_bike"}, {"fusion_lat": 0.0, "bike_id": "515bab3411d70bcf5a6b9c0ca186ed0e", "fusion_lon": 0.0, "lon": -76.99022416666666, "lat": 38.90163, "is_reserved": 0, "is_disabled": 0, "rental_uris": {"android": "https://dc.lft.to/lastmile_qr_scan", "ios": "https://dc.lft.to/lastmile_qr_scan"}, "name": "515bab3411d70bcf5a6b9c0ca186ed0e", "type": "electric_scooter"}, {"fusion_lat": 0.0, "bike_id": "81e17a8173ea97ff7237050febe4701c", "fusion_lon": 0.0, "lon": -77.001053, "lat": 38.874399, "is_reserved": 0, "is_disabled": 0, "rental_uris": {"android": "https://dc.lft.to/lastmile_qr_scan", "ios": "https://dc.lft.to/lastmile_qr_scan"}, "name": "81e17a8173ea97ff7237050febe4701c", "type": "electric_scooter"}, {"fusion_lat": 0.0, "bike_id": "53da5ce39ef8bb476226187d07b4f691", "fusion_lon": 0.0, "lon": -77.0440025, "lat": 38.90913283333333, "is_reserved": 0, "is_disabled": 0, "rental_uris": {"android": "https://dc.lft.to/lastmile_qr_scan", "ios": "https://dc.lft.to/lastmile_qr_scan"}, "name": "53da5ce39ef8bb476226187d07b4f691", "type": "electric_scooter"}, {"fusion_lat": 0.0, "bike_id": "9e188dfe8f1e66a240e07d362e2cc115", "fusion_lon": 0.0, "lon": -76.95749416666666, "lat": 38.8842455, "is_reserved": 0, "is_disabled": 0, "rental_uris": {"android": "https://dc.lft.to/lastmile_qr_scan", "ios": "https://dc.lft.to/lastmile_qr_scan"}, "name": "9e188dfe8f1e66a240e07d362e2cc115", "type": "electric_scooter"}, {"fusion_lat": 0.0, "bike_id": "1b179551f9de0082e4d7a60ff3eb3e55", "fusion_lon": 0.0, "lon": -76.9306865, "lat": 38.88994366666667, "is_reserved": 0, "is_disabled": 0, "rental_uris": {"android": "https://dc.lft.to/lastmile_qr_scan", "ios": "https://dc.lft.to/lastmile_qr_scan"}, "name": "1b179551f9de0082e4d7a60ff3eb3e55", "type": "electric_scooter"}, {"fusion_lat": 0.0, "bike_id": "42c1921e17a4df883e08f769e86c02d4", "fusion_lon": 0.0, "lon": -77.02960766666666, "lat": 38.924661, "is_reserved": 0, "is_disabled": 0, "rental_uris": {"android": "https://dc.lft.to/lastmile_qr_scan", "ios": "https://dc.lft.to/lastmile_qr_scan"}, "name": "42c1921e17a4df883e08f769e86c02d4", "type": "electric_scooter"}, {"fusion_lat": 0.0, "bike_id": "169e3c03f5a5589fe82c3451f39175de", "fusion_lon": 0.0, "lon": -77.031861, "lat": 38.912411, "is_reserved": 0, "is_disabled": 0, "rental_uris": {"android": "https://dc.lft.to/lastmile_qr_scan", "ios": "https://dc.lft.to/lastmile_qr_scan"}, "name": "169e3c03f5a5589fe82c3451f39175de", "type": "electric_scooter"}, {"fusion_lat": 0.0, "bike_id": "01603dcd0e09c6573166e145f0a9d53e", "fusion_lon": 0.0, "lon": -76.99373266666667, "lat": 38.8614335, "is_reserved": 0, "is_disabled": 0, "rental_uris": {"android": "https://dc.lft.to/lastmile_qr_scan", "ios": "https://dc.lft.to/lastmile_qr_scan"}, "name": "01603dcd0e09c6573166e145f0a9d53e", "type": "electric_scooter"}, {"fusion_lat": 0.0, "bike_id": "3b672240d9ed09a49f28bc284a5da0d5", "fusion_lon": 0.0, "lon": -77.03306, "lat": 38.8980605, "is_reserved": 0, "is_disabled": 0, "rental_uris": {"android": "https://dc.lft.to/lastmile_qr_scan", "ios": "https://dc.lft.to/lastmile_qr_scan"}, "name": "3b672240d9ed09a49f28bc284a5da0d5", "type": "electric_scooter"}, {"fusion_lat": 0.0, "bike_id": "867fa5990fb84c847eae6b02f27824e8", "fusion_lon": 0.0, "lon": -77.02830683333333, "lat": 38.924704, "is_reserved": 0, "is_disabled": 0, "rental_uris": {"android": "https://dc.lft.to/lastmile_qr_scan", "ios": "https://dc.lft.to/lastmile_qr_scan"}, "name": "867fa5990fb84c847eae6b02f27824e8", "type": "electric_scooter"}, {"fusion_lat": 0.0, "bike_id": "0e8fdc91d058d97908998a86766119ae", "fusion_lon": 0.0, "lon": -77.03799266666667, "lat": 38.90654933333333, "is_reserved": 0, "is_disabled": 0, "rental_uris": {"android": "https://dc.lft.to/lastmile_qr_scan", "ios": "https://dc.lft.to/lastmile_qr_scan"}, "name": "0e8fdc91d058d97908998a86766119ae", "type": "electric_scooter"}, {"fusion_lat": 0.0, "bike_id": "f1f83ba606f185f53968037fc1b467ad", "fusion_lon": 0.0, "lon": -77.03738266666667, "lat": 38.918119833333336, "is_reserved": 0, "is_disabled": 0, "rental_uris": {"android": "https://dc.lft.to/lastmile_qr_scan", "ios": "https://dc.lft.to/lastmile_qr_scan"}, "name": "f1f83ba606f185f53968037fc1b467ad", "type": "electric_scooter"}, {"fusion_lat": 0.0, "bike_id": "dff7a376d3614fddb6ac88209b2fc0ac", "fusion_lon": 0.0, "lon": -76.98848966666667, "lat": 38.867265833333335, "is_reserved": 0, "is_disabled": 0, "rental_uris": {"android": "https://dc.lft.to/lastmile_qr_scan", "ios": "https://dc.lft.to/lastmile_qr_scan"}, "name": "dff7a376d3614fddb6ac88209b2fc0ac", "type": "electric_scooter"}, {"fusion_lat": 0.0, "bike_id": "f09f0f13c2597f791e7b4fd1c8184f86", "fusion_lon": 0.0, "lon": -77.01740083333334, "lat": 38.88743216666667, "is_reserved": 0, "is_disabled": 0, "rental_uris": {"android": "https://dc.lft.to/lastmile_qr_scan", "ios": "https://dc.lft.to/lastmile_qr_scan"}, "name": "f09f0f13c2597f791e7b4fd1c8184f86", "type": "electric_scooter"}, {"fusion_lat": 0.0, "bike_id": "e48d4589aaaef2d164bcee518d97a02d", "fusion_lon": 0.0, "lon": -76.99367783333334, "lat": 38.879752833333335, "is_reserved": 0, "is_disabled": 0, "rental_uris": {"android": "https://dc.lft.to/lastmile_qr_scan", "ios": "https://dc.lft.to/lastmile_qr_scan"}, "name": "e48d4589aaaef2d164bcee518d97a02d", "type": "electric_scooter"}, {"fusion_lat": 0.0, "bike_id": "15e564df667fb2f1e56923388734bd61", "fusion_lon": 0.0, "lon": -77.047198, "lat": 38.899735666666665, "is_reserved": 0, "is_disabled": 0, "rental_uris": {"android": "https://dc.lft.to/lastmile_qr_scan", "ios": "https://dc.lft.to/lastmile_qr_scan"}, "name": "15e564df667fb2f1e56923388734bd61", "type": "electric_scooter"}, {"fusion_lat": 0.0, "bike_id": "9896396a724716c5fe1130bd13ac7f6a", "fusion_lon": 0.0, "lon": -77.02202433333333, "lat": 38.878912166666666, "is_reserved": 0, "is_disabled": 0, "rental_uris": {"android": "https://dc.lft.to/lastmile_qr_scan", "ios": "https://dc.lft.to/lastmile_qr_scan"}, "name": "9896396a724716c5fe1130bd13ac7f6a", "type": "electric_scooter"}, {"fusion_lat": 0.0, "bike_id": "de53bda84f6939fb3632b44b677e0c83", "fusion_lon": 0.0, "lon": -77.02726783333334, "lat": 38.89736033333333, "is_reserved": 0, "is_disabled": 0, "rental_uris": {"android": "https://dc.lft.to/lastmile_qr_scan", "ios": "https://dc.lft.to/lastmile_qr_scan"}, "name": "de53bda84f6939fb3632b44b677e0c83", "type": "electric_scooter"}, {"fusion_lat": 0.0, "bike_id": "1ff9d7d55fd0d80ee8e12d2aedb17018", "fusion_lon": 0.0, "lon": -76.99005183333334, "lat": 38.86509366666667, "is_reserved": 0, "is_disabled": 0, "rental_uris": {"android": "https://dc.lft.to/lastmile_qr_scan", "ios": "https://dc.lft.to/lastmile_qr_scan"}, "name": "1ff9d7d55fd0d80ee8e12d2aedb17018", "type": "electric_scooter"}, {"fusion_lat": 0.0, "bike_id": "1946699a2ea6a61b6d622417ba40d728", "fusion_lon": 0.0, "lon": -77.02555883333333, "lat": 38.90355183333333, "is_reserved": 0, "is_disabled": 0, "rental_uris": {"android": "https://dc.lft.to/lastmile_qr_scan", "ios": "https://dc.lft.to/lastmile_qr_scan"}, "name": "1946699a2ea6a61b6d622417ba40d728", "type": "electric_scooter"}, {"fusion_lat": 0.0, "bike_id": "d6d68175bd8234f42108c948ca2f6ebd", "fusion_lon": 0.0, "lon": -77.03182866666667, "lat": 38.91742966666666, "is_reserved": 0, "is_disabled": 0, "rental_uris": {"android": "https://dc.lft.to/lastmile_qr_scan", "ios": "https://dc.lft.to/lastmile_qr_scan"}, "name": "d6d68175bd8234f42108c948ca2f6ebd", "type": "electric_scooter"}, {"fusion_lat": 0.0, "bike_id": "7e8319f5b03281ace0f5e916da8219fe", "fusion_lon": 0.0, "lon": -77.03350083333333, "lat": 38.89737566666667, "is_reserved": 0, "is_disabled": 0, "rental_uris": {"android": "https://dc.lft.to/lastmile_qr_scan", "ios": "https://dc.lft.to/lastmile_qr_scan"}, "name": "7e8319f5b03281ace0f5e916da8219fe", "type": "electric_scooter"}, {"fusion_lat": 0.0, "bike_id": "7dc7509eecb9dfcd619be47e90395f2a", "fusion_lon": 0.0, "lon": -77.024489, "lat": 38.93514733333333, "is_reserved": 0, "is_disabled": 0, "rental_uris": {"android": "https://dc.lft.to/lastmile_qr_scan", "ios": "https://dc.lft.to/lastmile_qr_scan"}, "name": "7dc7509eecb9dfcd619be47e90395f2a", "type": "electric_scooter"}, {"fusion_lat": 0.0, "bike_id": "582bd9219ebe88b988550f08c14778fa", "fusion_lon": 0.0, "lon": -77.02847033333333, "lat": 38.934211, "is_reserved": 0, "is_disabled": 0, "rental_uris": {"android": "https://dc.lft.to/lastmile_qr_scan", "ios": "https://dc.lft.to/lastmile_qr_scan"}, "name": "582bd9219ebe88b988550f08c14778fa", "type": "electric_scooter"}, {"fusion_lat": 0.0, "bike_id": "61bf36333d2bcace21592fcf98cc93ab", "fusion_lon": 0.0, "lon": -77.0228245, "lat": 38.90791216666667, "is_reserved": 0, "is_disabled": 0, "rental_uris": {"android": "https://dc.lft.to/lastmile_qr_scan", "ios": "https://dc.lft.to/lastmile_qr_scan"}, "name": "61bf36333d2bcace21592fcf98cc93ab", "type": "electric_scooter"}, {"fusion_lat": 0.0, "bike_id": "f1a03e7ac8c1cc00457d6006c397f61b", "fusion_lon": 0.0, "lon": -77.05493333333334, "lat": 39.014757333333336, "is_reserved": 0, "is_disabled": 0, "rental_uris": {"android": "https://dc.lft.to/lastmile_qr_scan", "ios": "https://dc.lft.to/lastmile_qr_scan"}, "name": "f1a03e7ac8c1cc00457d6006c397f61b", "type": "electric_bike"}, {"fusion_lat": 0.0, "bike_id": "8d61a5be637fc6dabae309345c9380f5", "fusion_lon": 0.0, "lon": -77.037634, "lat": 38.9077365, "is_reserved": 0, "is_disabled": 0, "rental_uris": {"android": "https://dc.lft.to/lastmile_qr_scan", "ios": "https://dc.lft.to/lastmile_qr_scan"}, "name": "8d61a5be637fc6dabae309345c9380f5", "type": "electric_scooter"}, {"fusion_lat": 0.0, "bike_id": "a1690947a81ce4ee319d10730b25cbdd", "fusion_lon": 0.0, "lon": -77.02768566666667, "lat": 38.891919333333334, "is_reserved": 0, "is_disabled": 0, "rental_uris": {"android": "https://dc.lft.to/lastmile_qr_scan", "ios": "https://dc.lft.to/lastmile_qr_scan"}, "name": "a1690947a81ce4ee319d10730b25cbdd", "type": "electric_scooter"}, {"fusion_lat": 0.0, "bike_id": "6d37680722781180cd3e17ddc8ba962e", "fusion_lon": 0.0, "lon": -77.03390966666667, "lat": 38.907194, "is_reserved": 0, "is_disabled": 0, "rental_uris": {"android": "https://dc.lft.to/lastmile_qr_scan", "ios": "https://dc.lft.to/lastmile_qr_scan"}, "name": "6d37680722781180cd3e17ddc8ba962e", "type": "electric_scooter"}, {"fusion_lat": 0.0, "bike_id": "abe6e1cfbd7a395e52ba575b647f12b7", "fusion_lon": 0.0, "lon": -77.06641366666666, "lat": 38.905898, "is_reserved": 0, "is_disabled": 0, "rental_uris": {"android": "https://dc.lft.to/lastmile_qr_scan", "ios": "https://dc.lft.to/lastmile_qr_scan"}, "name": "abe6e1cfbd7a395e52ba575b647f12b7", "type": "electric_scooter"}, {"fusion_lat": 0.0, "bike_id": "a80b2c3b45b16275ae36656f2579e0f2", "fusion_lon": 0.0, "lon": -77.02216033333333, "lat": 38.91414616666667, "is_reserved": 0, "is_disabled": 0, "rental_uris": {"android": "https://dc.lft.to/lastmile_qr_scan", "ios": "https://dc.lft.to/lastmile_qr_scan"}, "name": "a80b2c3b45b16275ae36656f2579e0f2", "type": "electric_scooter"}, {"fusion_lat": 0.0, "bike_id": "8645414cd01ea1694537400eae301663", "fusion_lon": 0.0, "lon": -76.98191916666667, "lat": 38.96741316666667, "is_reserved": 0, "is_disabled": 0, "rental_uris": {"android": "https://dc.lft.to/lastmile_qr_scan", "ios": "https://dc.lft.to/lastmile_qr_scan"}, "name": "8645414cd01ea1694537400eae301663", "type": "electric_bike"}, {"fusion_lat": 0.0, "bike_id": "6022e6c7acf482977381a21b93c90cdc", "fusion_lon": 0.0, "lon": -76.99085966666667, "lat": 38.8823075, "is_reserved": 0, "is_disabled": 0, "rental_uris": {"android": "https://dc.lft.to/lastmile_qr_scan", "ios": "https://dc.lft.to/lastmile_qr_scan"}, "name": "6022e6c7acf482977381a21b93c90cdc", "type": "electric_scooter"}, {"fusion_lat": 0.0, "bike_id": "afc8a15b8e4a7d37bf839172ceb773a2", "fusion_lon": 0.0, "lon": -77.01341216666667, "lat": 38.87812133333333, "is_reserved": 0, "is_disabled": 0, "rental_uris": {"android": "https://dc.lft.to/lastmile_qr_scan", "ios": "https://dc.lft.to/lastmile_qr_scan"}, "name": "afc8a15b8e4a7d37bf839172ceb773a2", "type": "electric_scooter"}, {"fusion_lat": 0.0, "bike_id": "1312dff0c7f0af79096ae45711625c63", "fusion_lon": 0.0, "lon": -77.02868483333333, "lat": 38.91681833333333, "is_reserved": 0, "is_disabled": 0, "rental_uris": {"android": "https://dc.lft.to/lastmile_qr_scan", "ios": "https://dc.lft.to/lastmile_qr_scan"}, "name": "1312dff0c7f0af79096ae45711625c63", "type": "electric_scooter"}, {"fusion_lat": 0.0, "bike_id": "717f38ff54963650841eecd7ad867387", "fusion_lon": 0.0, "lon": -77.0208275, "lat": 38.88185883333333, "is_reserved": 0, "is_disabled": 0, "rental_uris": {"android": "https://dc.lft.to/lastmile_qr_scan", "ios": "https://dc.lft.to/lastmile_qr_scan"}, "name": "717f38ff54963650841eecd7ad867387", "type": "electric_scooter"}, {"fusion_lat": 0.0, "bike_id": "0acbf03308274b1a2c821b3372ce1fb5", "fusion_lon": 0.0, "lon": -77.0227165, "lat": 38.9248115, "is_reserved": 0, "is_disabled": 0, "rental_uris": {"android": "https://dc.lft.to/lastmile_qr_scan", "ios": "https://dc.lft.to/lastmile_qr_scan"}, "name": "0acbf03308274b1a2c821b3372ce1fb5", "type": "electric_scooter"}, {"fusion_lat": 0.0, "bike_id": "9c24e763fb7f3a17b84bbd57c1691b4d", "fusion_lon": 0.0, "lon": -77.0337945, "lat": 38.9026505, "is_reserved": 0, "is_disabled": 0, "rental_uris": {"android": "https://dc.lft.to/lastmile_qr_scan", "ios": "https://dc.lft.to/lastmile_qr_scan"}, "name": "9c24e763fb7f3a17b84bbd57c1691b4d", "type": "electric_scooter"}, {"fusion_lat": 0.0, "bike_id": "32a5f46e4b324cded7d9d789da18573e", "fusion_lon": 0.0, "lon": -76.98363316666666, "lat": 38.888342, "is_reserved": 0, "is_disabled": 0, "rental_uris": {"android": "https://dc.lft.to/lastmile_qr_scan", "ios": "https://dc.lft.to/lastmile_qr_scan"}, "name": "32a5f46e4b324cded7d9d789da18573e", "type": "electric_scooter"}, {"fusion_lat": 0.0, "bike_id": "126d1180320a5b773198198f7614fa12", "fusion_lon": 0.0, "lon": -77.04479383333333, "lat": 38.90500566666667, "is_reserved": 0, "is_disabled": 0, "rental_uris": {"android": "https://dc.lft.to/lastmile_qr_scan", "ios": "https://dc.lft.to/lastmile_qr_scan"}, "name": "126d1180320a5b773198198f7614fa12", "type": "electric_scooter"}, {"fusion_lat": 0.0, "bike_id": "6d659e051d3570dde5e6ed57888e7d84", "fusion_lon": 0.0, "lon": -77.02820216666667, "lat": 38.8872825, "is_reserved": 0, "is_disabled": 0, "rental_uris": {"android": "https://dc.lft.to/lastmile_qr_scan", "ios": "https://dc.lft.to/lastmile_qr_scan"}, "name": "6d659e051d3570dde5e6ed57888e7d84", "type": "electric_scooter"}, {"fusion_lat": 0.0, "bike_id": "339b2b0c0c88b929e95bd242ed9d6344", "fusion_lon": 0.0, "lon": -77.05146516666667, "lat": 38.923739833333336, "is_reserved": 0, "is_disabled": 0, "rental_uris": {"android": "https://dc.lft.to/lastmile_qr_scan", "ios": "https://dc.lft.to/lastmile_qr_scan"}, "name": "339b2b0c0c88b929e95bd242ed9d6344", "type": "electric_scooter"}, {"fusion_lat": 0.0, "bike_id": "46db4bd812043469717a55430da85530", "fusion_lon": 0.0, "lon": -77.02580716666667, "lat": 38.8960905, "is_reserved": 0, "is_disabled": 0, "rental_uris": {"android": "https://dc.lft.to/lastmile_qr_scan", "ios": "https://dc.lft.to/lastmile_qr_scan"}, "name": "46db4bd812043469717a55430da85530", "type": "electric_scooter"}, {"fusion_lat": 0.0, "bike_id": "0f7af2f6a5bde4825394cf7f390ff81a", "fusion_lon": 0.0, "lon": -77.04718583333333, "lat": 38.899678, "is_reserved": 0, "is_disabled": 0, "rental_uris": {"android": "https://dc.lft.to/lastmile_qr_scan", "ios": "https://dc.lft.to/lastmile_qr_scan"}, "name": "0f7af2f6a5bde4825394cf7f390ff81a", "type": "electric_scooter"}, {"fusion_lat": 0.0, "bike_id": "65c9ded68bd6cac4aa0f48833ae40e16", "fusion_lon": 0.0, "lon": -77.042971, "lat": 38.899863, "is_reserved": 0, "is_disabled": 0, "rental_uris": {"android": "https://dc.lft.to/lastmile_qr_scan", "ios": "https://dc.lft.to/lastmile_qr_scan"}, "name": "65c9ded68bd6cac4aa0f48833ae40e16", "type": "electric_scooter"}, {"fusion_lat": 0.0, "bike_id": "b74807f6a8c3cae7ee4c004378e5a5da", "fusion_lon": 0.0, "lon": -76.9410245, "lat": 38.88457316666667, "is_reserved": 0, "is_disabled": 0, "rental_uris": {"android": "https://dc.lft.to/lastmile_qr_scan", "ios": "https://dc.lft.to/lastmile_qr_scan"}, "name": "b74807f6a8c3cae7ee4c004378e5a5da", "type": "electric_scooter"}, {"fusion_lat": 0.0, "bike_id": "6b7bedac950346df91f6908d61ab38f8", "fusion_lon": 0.0, "lon": -76.98883033333334, "lat": 38.866518666666664, "is_reserved": 0, "is_disabled": 0, "rental_uris": {"android": "https://dc.lft.to/lastmile_qr_scan", "ios": "https://dc.lft.to/lastmile_qr_scan"}, "name": "6b7bedac950346df91f6908d61ab38f8", "type": "electric_scooter"}, {"fusion_lat": 0.0, "bike_id": "41dc74d2aeca35323178d30315f6242f", "fusion_lon": 0.0, "lon": -77.03974366666667, "lat": 38.928012333333335, "is_reserved": 0, "is_disabled": 0, "rental_uris": {"android": "https://dc.lft.to/lastmile_qr_scan", "ios": "https://dc.lft.to/lastmile_qr_scan"}, "name": "41dc74d2aeca35323178d30315f6242f", "type": "electric_scooter"}, {"fusion_lat": 0.0, "bike_id": "755b51faaca6ead1e359f5efa55bacf7", "fusion_lon": 0.0, "lon": -77.050067, "lat": 38.892259833333334, "is_reserved": 0, "is_disabled": 0, "rental_uris": {"android": "https://dc.lft.to/lastmile_qr_scan", "ios": "https://dc.lft.to/lastmile_qr_scan"}, "name": "755b51faaca6ead1e359f5efa55bacf7", "type": "electric_scooter"}, {"fusion_lat": 0.0, "bike_id": "2fc1879dc6edca4a63298472507d8a41", "fusion_lon": 0.0, "lon": -77.05040433333333, "lat": 38.9052765, "is_reserved": 0, "is_disabled": 0, "rental_uris": {"android": "https://dc.lft.to/lastmile_qr_scan", "ios": "https://dc.lft.to/lastmile_qr_scan"}, "name": "2fc1879dc6edca4a63298472507d8a41", "type": "electric_scooter"}, {"fusion_lat": 0.0, "bike_id": "e079254fcea4c74c81ed3c83b0fb689a", "fusion_lon": 0.0, "lon": -77.02370483333333, "lat": 38.879273, "is_reserved": 0, "is_disabled": 0, "rental_uris": {"android": "https://dc.lft.to/lastmile_qr_scan", "ios": "https://dc.lft.to/lastmile_qr_scan"}, "name": "e079254fcea4c74c81ed3c83b0fb689a", "type": "electric_scooter"}, {"fusion_lat": 0.0, "bike_id": "ca26d6c701c417c85dbb576f852db531", "fusion_lon": 0.0, "lon": -77.04329016666667, "lat": 38.91392716666667, "is_reserved": 0, "is_disabled": 0, "rental_uris": {"android": "https://dc.lft.to/lastmile_qr_scan", "ios": "https://dc.lft.to/lastmile_qr_scan"}, "name": "ca26d6c701c417c85dbb576f852db531", "type": "electric_scooter"}, {"fusion_lat": 0.0, "bike_id": "5c012373e324d30a8b79be42c0bffebc", "fusion_lon": 0.0, "lon": -77.0446765, "lat": 38.8922555, "is_reserved": 0, "is_disabled": 0, "rental_uris": {"android": "https://dc.lft.to/lastmile_qr_scan", "ios": "https://dc.lft.to/lastmile_qr_scan"}, "name": "5c012373e324d30a8b79be42c0bffebc", "type": "electric_scooter"}, {"fusion_lat": 0.0, "bike_id": "0370e6e53d866e3a8d6efa56cbb3a20f", "fusion_lon": 0.0, "lon": -77.04514933333333, "lat": 38.8995115, "is_reserved": 0, "is_disabled": 0, "rental_uris": {"android": "https://dc.lft.to/lastmile_qr_scan", "ios": "https://dc.lft.to/lastmile_qr_scan"}, "name": "0370e6e53d866e3a8d6efa56cbb3a20f", "type": "electric_scooter"}, {"fusion_lat": 0.0, "bike_id": "00e388fd8c3bbda8a4c02c847cbfc187", "fusion_lon": 0.0, "lon": -77.022068, "lat": 38.91270166666666, "is_reserved": 0, "is_disabled": 0, "rental_uris": {"android": "https://dc.lft.to/lastmile_qr_scan", "ios": "https://dc.lft.to/lastmile_qr_scan"}, "name": "00e388fd8c3bbda8a4c02c847cbfc187", "type": "electric_scooter"}, {"fusion_lat": 0.0, "bike_id": "c6ac35e729dbb19b91e191e6d0ecefc3", "fusion_lon": 0.0, "lon": -77.01868216666666, "lat": 38.91497566666666, "is_reserved": 0, "is_disabled": 0, "rental_uris": {"android": "https://dc.lft.to/lastmile_qr_scan", "ios": "https://dc.lft.to/lastmile_qr_scan"}, "name": "c6ac35e729dbb19b91e191e6d0ecefc3", "type": "electric_scooter"}, {"fusion_lat": 0.0, "bike_id": "eab5200c8a584f864458def6be7d324b", "fusion_lon": 0.0, "lon": -77.23327616666667, "lat": 38.87272866666667, "is_reserved": 0, "is_disabled": 0, "rental_uris": {"android": "https://dc.lft.to/lastmile_qr_scan", "ios": "https://dc.lft.to/lastmile_qr_scan"}, "name": "eab5200c8a584f864458def6be7d324b", "type": "electric_bike"}, {"fusion_lat": 0.0, "bike_id": "c5a1065953a3f2ada62f34dc5978ec9d", "fusion_lon": 0.0, "lon": -77.0050725, "lat": 38.875364833333336, "is_reserved": 0, "is_disabled": 0, "rental_uris": {"android": "https://dc.lft.to/lastmile_qr_scan", "ios": "https://dc.lft.to/lastmile_qr_scan"}, "name": "c5a1065953a3f2ada62f34dc5978ec9d", "type": "electric_scooter"}, {"fusion_lat": 0.0, "bike_id": "566ad5363b9acb8c3103c6b30d0d693c", "fusion_lon": 0.0, "lon": -77.03276983333333, "lat": 38.912253166666666, "is_reserved": 0, "is_disabled": 0, "rental_uris": {"android": "https://dc.lft.to/lastmile_qr_scan", "ios": "https://dc.lft.to/lastmile_qr_scan"}, "name": "566ad5363b9acb8c3103c6b30d0d693c", "type": "electric_scooter"}, {"fusion_lat": 0.0, "bike_id": "1b89e5be09b28be1f6c7f15096333dcb", "fusion_lon": 0.0, "lon": -77.03183966666667, "lat": 38.89951383333333, "is_reserved": 0, "is_disabled": 0, "rental_uris": {"android": "https://dc.lft.to/lastmile_qr_scan", "ios": "https://dc.lft.to/lastmile_qr_scan"}, "name": "1b89e5be09b28be1f6c7f15096333dcb", "type": "electric_scooter"}, {"fusion_lat": 0.0, "bike_id": "4f23aebb5b5faa5833fd7602017fcf8b", "fusion_lon": 0.0, "lon": -77.07453433333333, "lat": 38.94505366666667, "is_reserved": 0, "is_disabled": 0, "rental_uris": {"android": "https://dc.lft.to/lastmile_qr_scan", "ios": "https://dc.lft.to/lastmile_qr_scan"}, "name": "4f23aebb5b5faa5833fd7602017fcf8b", "type": "electric_scooter"}, {"fusion_lat": 0.0, "bike_id": "c0950c5fd29bf2b19fed74f31e17005e", "fusion_lon": 0.0, "lon": -77.0316385, "lat": 38.89219216666667, "is_reserved": 0, "is_disabled": 0, "rental_uris": {"android": "https://dc.lft.to/lastmile_qr_scan", "ios": "https://dc.lft.to/lastmile_qr_scan"}, "name": "c0950c5fd29bf2b19fed74f31e17005e", "type": "electric_scooter"}, {"fusion_lat": 0.0, "bike_id": "d2f2460d64b112d77904d01b8abe2892", "fusion_lon": 0.0, "lon": -77.1252435, "lat": 39.05631483333333, "is_reserved": 0, "is_disabled": 0, "rental_uris": {"android": "https://dc.lft.to/lastmile_qr_scan", "ios": "https://dc.lft.to/lastmile_qr_scan"}, "name": "d2f2460d64b112d77904d01b8abe2892", "type": "electric_bike"}, {"fusion_lat": 0.0, "bike_id": "d2247bf84bdbd572710fa80e2c48f373", "fusion_lon": 0.0, "lon": -77.043745, "lat": 38.89221116666667, "is_reserved": 0, "is_disabled": 0, "rental_uris": {"android": "https://dc.lft.to/lastmile_qr_scan", "ios": "https://dc.lft.to/lastmile_qr_scan"}, "name": "d2247bf84bdbd572710fa80e2c48f373", "type": "electric_scooter"}, {"fusion_lat": 0.0, "bike_id": "16069bb72c5206745958443f72d66798", "fusion_lon": 0.0, "lon": -76.93473416666667, "lat": 38.895022166666664, "is_reserved": 0, "is_disabled": 0, "rental_uris": {"android": "https://dc.lft.to/lastmile_qr_scan", "ios": "https://dc.lft.to/lastmile_qr_scan"}, "name": "16069bb72c5206745958443f72d66798", "type": "electric_scooter"}, {"fusion_lat": 0.0, "bike_id": "99935306e11c8bf5741ee82f6892ca41", "fusion_lon": 0.0, "lon": -77.02589566666667, "lat": 38.898899, "is_reserved": 0, "is_disabled": 0, "rental_uris": {"android": "https://dc.lft.to/lastmile_qr_scan", "ios": "https://dc.lft.to/lastmile_qr_scan"}, "name": "99935306e11c8bf5741ee82f6892ca41", "type": "electric_scooter"}, {"fusion_lat": 0.0, "bike_id": "191232a94a79c0c7be1c3cb1f714ffe0", "fusion_lon": 0.0, "lon": -77.0330845, "lat": 38.90300516666667, "is_reserved": 0, "is_disabled": 0, "rental_uris": {"android": "https://dc.lft.to/lastmile_qr_scan", "ios": "https://dc.lft.to/lastmile_qr_scan"}, "name": "191232a94a79c0c7be1c3cb1f714ffe0", "type": "electric_scooter"}, {"fusion_lat": 0.0, "bike_id": "168830a90032349ed6e274b5dee7ddbf", "fusion_lon": 0.0, "lon": -76.990204, "lat": 38.88265366666667, "is_reserved": 0, "is_disabled": 0, "rental_uris": {"android": "https://dc.lft.to/lastmile_qr_scan", "ios": "https://dc.lft.to/lastmile_qr_scan"}, "name": "168830a90032349ed6e274b5dee7ddbf", "type": "electric_scooter"}, {"fusion_lat": 0.0, "bike_id": "1a6c4a795fca7263f2f5c157ffc66c79", "fusion_lon": 0.0, "lon": -77.02484116666666, "lat": 38.916946833333334, "is_reserved": 0, "is_disabled": 0, "rental_uris": {"android": "https://dc.lft.to/lastmile_qr_scan", "ios": "https://dc.lft.to/lastmile_qr_scan"}, "name": "1a6c4a795fca7263f2f5c157ffc66c79", "type": "electric_scooter"}, {"fusion_lat": 0.0, "bike_id": "039f982a2a76a3d7157b5f938c541cd9", "fusion_lon": 0.0, "lon": -76.99927216666667, "lat": 38.84312833333333, "is_reserved": 0, "is_disabled": 0, "rental_uris": {"android": "https://dc.lft.to/lastmile_qr_scan", "ios": "https://dc.lft.to/lastmile_qr_scan"}, "name": "039f982a2a76a3d7157b5f938c541cd9", "type": "electric_scooter"}, {"fusion_lat": 0.0, "bike_id": "d00639ae8470513ff2a873eb44aac10e", "fusion_lon": 0.0, "lon": -77.0255155, "lat": 38.90371, "is_reserved": 0, "is_disabled": 0, "rental_uris": {"android": "https://dc.lft.to/lastmile_qr_scan", "ios": "https://dc.lft.to/lastmile_qr_scan"}, "name": "d00639ae8470513ff2a873eb44aac10e", "type": "electric_scooter"}, {"fusion_lat": 0.0, "bike_id": "88ed4795e3110fc41752eb06c540c8ab", "fusion_lon": 0.0, "lon": -77.02842233333334, "lat": 38.934188166666665, "is_reserved": 0, "is_disabled": 0, "rental_uris": {"android": "https://dc.lft.to/lastmile_qr_scan", "ios": "https://dc.lft.to/lastmile_qr_scan"}, "name": "88ed4795e3110fc41752eb06c540c8ab", "type": "electric_scooter"}, {"fusion_lat": 0.0, "bike_id": "feb66950e669a85a5a20d9764c9f00e2", "fusion_lon": 0.0, "lon": -77.03469983333333, "lat": 38.902474, "is_reserved": 0, "is_disabled": 0, "rental_uris": {"android": "https://dc.lft.to/lastmile_qr_scan", "ios": "https://dc.lft.to/lastmile_qr_scan"}, "name": "feb66950e669a85a5a20d9764c9f00e2", "type": "electric_scooter"}, {"fusion_lat": 0.0, "bike_id": "4de7748e50b55627a61f10137e04200c", "fusion_lon": 0.0, "lon": -77.02182716666667, "lat": 38.912712666666664, "is_reserved": 0, "is_disabled": 0, "rental_uris": {"android": "https://dc.lft.to/lastmile_qr_scan", "ios": "https://dc.lft.to/lastmile_qr_scan"}, "name": "4de7748e50b55627a61f10137e04200c", "type": "electric_scooter"}, {"fusion_lat": 0.0, "bike_id": "a37d75438987563c36252590c7b487db", "fusion_lon": 0.0, "lon": -77.031945, "lat": 38.90365716666667, "is_reserved": 0, "is_disabled": 0, "rental_uris": {"android": "https://dc.lft.to/lastmile_qr_scan", "ios": "https://dc.lft.to/lastmile_qr_scan"}, "name": "a37d75438987563c36252590c7b487db", "type": "electric_scooter"}, {"fusion_lat": 0.0, "bike_id": "82deb8cadb25aa58e745fb69a549d36d", "fusion_lon": 0.0, "lon": -77.03464366666667, "lat": 38.917138333333334, "is_reserved": 0, "is_disabled": 0, "rental_uris": {"android": "https://dc.lft.to/lastmile_qr_scan", "ios": "https://dc.lft.to/lastmile_qr_scan"}, "name": "82deb8cadb25aa58e745fb69a549d36d", "type": "electric_scooter"}, {"fusion_lat": 0.0, "bike_id": "e75c3474cda78b7a7b5f45e98ad4ffc7", "fusion_lon": 0.0, "lon": -77.0074615, "lat": 38.903591666666664, "is_reserved": 0, "is_disabled": 0, "rental_uris": {"android": "https://dc.lft.to/lastmile_qr_scan", "ios": "https://dc.lft.to/lastmile_qr_scan"}, "name": "e75c3474cda78b7a7b5f45e98ad4ffc7", "type": "electric_scooter"}, {"fusion_lat": 0.0, "bike_id": "560a820fcd26d38b05b3f80b26ae307b", "fusion_lon": 0.0, "lon": -77.04133583333333, "lat": 38.921221, "is_reserved": 0, "is_disabled": 0, "rental_uris": {"android": "https://dc.lft.to/lastmile_qr_scan", "ios": "https://dc.lft.to/lastmile_qr_scan"}, "name": "560a820fcd26d38b05b3f80b26ae307b", "type": "electric_scooter"}, {"fusion_lat": 0.0, "bike_id": "b4a315d2d80008b53ad65dbd1dd8ac88", "fusion_lon": 0.0, "lon": -77.04544266666667, "lat": 38.902284, "is_reserved": 0, "is_disabled": 0, "rental_uris": {"android": "https://dc.lft.to/lastmile_qr_scan", "ios": "https://dc.lft.to/lastmile_qr_scan"}, "name": "b4a315d2d80008b53ad65dbd1dd8ac88", "type": "electric_scooter"}, {"fusion_lat": 0.0, "bike_id": "4b67ce7ef2c9242eaf1a5cf3b0ad9bc9", "fusion_lon": 0.0, "lon": -77.030222, "lat": 38.899736, "is_reserved": 0, "is_disabled": 0, "rental_uris": {"android": "https://dc.lft.to/lastmile_qr_scan", "ios": "https://dc.lft.to/lastmile_qr_scan"}, "name": "4b67ce7ef2c9242eaf1a5cf3b0ad9bc9", "type": "electric_scooter"}, {"fusion_lat": 0.0, "bike_id": "a062c0dcd2f8b231df90384f170cfe1f", "fusion_lon": 0.0, "lon": -77.0371415, "lat": 38.92802066666667, "is_reserved": 0, "is_disabled": 0, "rental_uris": {"android": "https://dc.lft.to/lastmile_qr_scan", "ios": "https://dc.lft.to/lastmile_qr_scan"}, "name": "a062c0dcd2f8b231df90384f170cfe1f", "type": "electric_scooter"}, {"fusion_lat": 0.0, "bike_id": "b8cef85e06ab438ecbc90ac0ab8331a2", "fusion_lon": 0.0, "lon": -77.04366383333333, "lat": 38.8923305, "is_reserved": 0, "is_disabled": 0, "rental_uris": {"android": "https://dc.lft.to/lastmile_qr_scan", "ios": "https://dc.lft.to/lastmile_qr_scan"}, "name": "b8cef85e06ab438ecbc90ac0ab8331a2", "type": "electric_scooter"}, {"fusion_lat": 0.0, "bike_id": "fd6b1450fd47a838e29d278c509de60c", "fusion_lon": 0.0, "lon": -77.03801816666666, "lat": 38.930890166666664, "is_reserved": 0, "is_disabled": 0, "rental_uris": {"android": "https://dc.lft.to/lastmile_qr_scan", "ios": "https://dc.lft.to/lastmile_qr_scan"}, "name": "fd6b1450fd47a838e29d278c509de60c", "type": "electric_scooter"}, {"fusion_lat": 0.0, "bike_id": "e2440563edd70c491f0e7dd44084590a", "fusion_lon": 0.0, "lon": -77.03960983333333, "lat": 38.9001735, "is_reserved": 0, "is_disabled": 0, "rental_uris": {"android": "https://dc.lft.to/lastmile_qr_scan", "ios": "https://dc.lft.to/lastmile_qr_scan"}, "name": "e2440563edd70c491f0e7dd44084590a", "type": "electric_scooter"}, {"fusion_lat": 0.0, "bike_id": "7e09fc93d4d4cfbd59ca6b425acbde10", "fusion_lon": 0.0, "lon": -76.96355116666666, "lat": 38.934990666666664, "is_reserved": 0, "is_disabled": 0, "rental_uris": {"android": "https://dc.lft.to/lastmile_qr_scan", "ios": "https://dc.lft.to/lastmile_qr_scan"}, "name": "7e09fc93d4d4cfbd59ca6b425acbde10", "type": "electric_scooter"}, {"fusion_lat": 0.0, "bike_id": "000d7498133c2a4c9ce7e667ad2a4732", "fusion_lon": 0.0, "lon": -77.009187, "lat": 38.8278955, "is_reserved": 0, "is_disabled": 0, "rental_uris": {"android": "https://dc.lft.to/lastmile_qr_scan", "ios": "https://dc.lft.to/lastmile_qr_scan"}, "name": "000d7498133c2a4c9ce7e667ad2a4732", "type": "electric_bike"}, {"fusion_lat": 0.0, "bike_id": "c5e099cfd8e9f8c82d7f9371d3dbc52d", "fusion_lon": 0.0, "lon": -77.033218, "lat": 38.90030516666667, "is_reserved": 0, "is_disabled": 0, "rental_uris": {"android": "https://dc.lft.to/lastmile_qr_scan", "ios": "https://dc.lft.to/lastmile_qr_scan"}, "name": "c5e099cfd8e9f8c82d7f9371d3dbc52d", "type": "electric_scooter"}, {"fusion_lat": 0.0, "bike_id": "4797651dcd82b282736b2b1cad5d1d7c", "fusion_lon": 0.0, "lon": -76.9589395, "lat": 38.8901235, "is_reserved": 0, "is_disabled": 0, "rental_uris": {"android": "https://dc.lft.to/lastmile_qr_scan", "ios": "https://dc.lft.to/lastmile_qr_scan"}, "name": "4797651dcd82b282736b2b1cad5d1d7c", "type": "electric_scooter"}, {"fusion_lat": 0.0, "bike_id": "bb9a6c6baf876159689ee04a17a8ddd9", "fusion_lon": 0.0, "lon": -77.0211285, "lat": 38.936963666666664, "is_reserved": 0, "is_disabled": 0, "rental_uris": {"android": "https://dc.lft.to/lastmile_qr_scan", "ios": "https://dc.lft.to/lastmile_qr_scan"}, "name": "bb9a6c6baf876159689ee04a17a8ddd9", "type": "electric_scooter"}, {"fusion_lat": 0.0, "bike_id": "748e607fdd9b21bf18e97f390118dedf", "fusion_lon": 0.0, "lon": -77.02564416666667, "lat": 38.93354933333333, "is_reserved": 0, "is_disabled": 0, "rental_uris": {"android": "https://dc.lft.to/lastmile_qr_scan", "ios": "https://dc.lft.to/lastmile_qr_scan"}, "name": "748e607fdd9b21bf18e97f390118dedf", "type": "electric_scooter"}, {"fusion_lat": 0.0, "bike_id": "648ad1a05bc01f8344392e0c01fc7e2e", "fusion_lon": 0.0, "lon": -77.02906666666667, "lat": 38.91680933333333, "is_reserved": 0, "is_disabled": 0, "rental_uris": {"android": "https://dc.lft.to/lastmile_qr_scan", "ios": "https://dc.lft.to/lastmile_qr_scan"}, "name": "648ad1a05bc01f8344392e0c01fc7e2e", "type": "electric_scooter"}, {"fusion_lat": 0.0, "bike_id": "f764a7ae1f63042ef01ce426b2ebcccc", "fusion_lon": 0.0, "lon": -77.03515683333333, "lat": 38.92258983333333, "is_reserved": 0, "is_disabled": 0, "rental_uris": {"android": "https://dc.lft.to/lastmile_qr_scan", "ios": "https://dc.lft.to/lastmile_qr_scan"}, "name": "f764a7ae1f63042ef01ce426b2ebcccc", "type": "electric_scooter"}, {"fusion_lat": 0.0, "bike_id": "e34b91380ba366239c24306d6bbbb4ee", "fusion_lon": 0.0, "lon": -76.97973816666666, "lat": 38.928981666666665, "is_reserved": 0, "is_disabled": 0, "rental_uris": {"android": "https://dc.lft.to/lastmile_qr_scan", "ios": "https://dc.lft.to/lastmile_qr_scan"}, "name": "e34b91380ba366239c24306d6bbbb4ee", "type": "electric_bike"}, {"fusion_lat": 0.0, "bike_id": "0633a6764bb2e416888852d90d6ae60e", "fusion_lon": 0.0, "lon": -77.0392995, "lat": 38.89957666666667, "is_reserved": 0, "is_disabled": 0, "rental_uris": {"android": "https://dc.lft.to/lastmile_qr_scan", "ios": "https://dc.lft.to/lastmile_qr_scan"}, "name": "0633a6764bb2e416888852d90d6ae60e", "type": "electric_scooter"}, {"fusion_lat": 0.0, "bike_id": "6634991a726556de4fad0f7dc9090f3c", "fusion_lon": 0.0, "lon": -77.0340705, "lat": 38.91701916666667, "is_reserved": 0, "is_disabled": 0, "rental_uris": {"android": "https://dc.lft.to/lastmile_qr_scan", "ios": "https://dc.lft.to/lastmile_qr_scan"}, "name": "6634991a726556de4fad0f7dc9090f3c", "type": "electric_scooter"}, {"fusion_lat": 0.0, "bike_id": "ff1ebde966e0e1aa58f4f4be923a1aaa", "fusion_lon": 0.0, "lon": -77.18121933333333, "lat": 38.932305166666666, "is_reserved": 0, "is_disabled": 0, "rental_uris": {"android": "https://dc.lft.to/lastmile_qr_scan", "ios": "https://dc.lft.to/lastmile_qr_scan"}, "name": "ff1ebde966e0e1aa58f4f4be923a1aaa", "type": "electric_bike"}, {"fusion_lat": 0.0, "bike_id": "fc08c09c2dbb99da0ff050709b619478", "fusion_lon": 0.0, "lon": -77.04317133333333, "lat": 38.92626, "is_reserved": 0, "is_disabled": 0, "rental_uris": {"android": "https://dc.lft.to/lastmile_qr_scan", "ios": "https://dc.lft.to/lastmile_qr_scan"}, "name": "fc08c09c2dbb99da0ff050709b619478", "type": "electric_scooter"}, {"fusion_lat": 0.0, "bike_id": "b4a2f1b54956e5482cc3b4e137da6ab6", "fusion_lon": 0.0, "lon": -77.02148933333334, "lat": 38.8946885, "is_reserved": 0, "is_disabled": 0, "rental_uris": {"android": "https://dc.lft.to/lastmile_qr_scan", "ios": "https://dc.lft.to/lastmile_qr_scan"},