{"data": {"bikes": [{"fusion_lat": 0.0, "name": "d5fb2ca9e22e070ef6a4b6b0682e14eb", "is_disabled": 0, "rental_uris": {"android": "https://dc.lft.to/lastmile_qr_scan", "ios": "https://dc.lft.to/lastmile_qr_scan"}, "fusion_lon": 0.0, "lat": 38.911324666666665, "bike_id": "d5fb2ca9e22e070ef6a4b6b0682e14eb", "type": "electric_scooter", "is_reserved": 0, "lon": -77.044164}, {"fusion_lat": 0.0, "name": "9a2c95f8a368a24df06219c4b398646f", "is_disabled": 0, "rental_uris": {"android": "https://dc.lft.to/lastmile_qr_scan", "ios": "https://dc.lft.to/lastmile_qr_scan"}, "fusion_lon": 0.0, "lat": 38.93643816666667, "bike_id": "9a2c95f8a368a24df06219c4b398646f", "type": "electric_scooter", "is_reserved": 0, "lon": -77.03683783333334}, {"fusion_lat": 0.0, "name": "b60c59bec7b57ce1c5cfe0c53c3936a8", "is_disabled": 0, "rental_uris": {"android": "https://dc.lft.to/lastmile_qr_scan", "ios": "https://dc.lft.to/lastmile_qr_scan"}, "fusion_lon": 0.0, "lat": 38.928161833333334, "bike_id": "b60c59bec7b57ce1c5cfe0c53c3936a8", "type": "electric_scooter", "is_reserved": 0, "lon": -77.02332366666667}, {"fusion_lat": 0.0, "name": "b42e1fd29b02135bf87d82023a0e6c9b", "is_disabled": 0, "rental_uris": {"android": "https://dc.lft.to/lastmile_qr_scan", "ios": "https://dc.lft.to/lastmile_qr_scan"}, "fusion_lon": 0.0, "lat": 38.892382166666664, "bike_id": "b42e1fd29b02135bf87d82023a0e6c9b", "type": "electric_scooter", "is_reserved": 0, "lon": -77.046577}, {"fusion_lat": 0.0, "name": "5a1a33f3d4dca1eb901d8e39517af634", "is_disabled": 0, "rental_uris": {"android": "https://dc.lft.to/lastmile_qr_scan", "ios": "https://dc.lft.to/lastmile_qr_scan"}, "fusion_lon": 0.0, "lat": 38.9275665, "bike_id": "5a1a33f3d4dca1eb901d8e39517af634", "type": "electric_scooter", "is_reserved": 0, "lon": -77.0245285}, {"fusion_lat": 0.0, "name": "c470b54b34fd92de4fe6c582a8af2822", "is_disabled": 0, "rental_uris": {"android": "https://dc.lft.to/lastmile_qr_scan", "ios": "https://dc.lft.to/lastmile_qr_scan"}, "fusion_lon": 0.0, "lat": 38.92223833333333, "bike_id": "c470b54b34fd92de4fe6c582a8af2822", "type": "electric_scooter", "is_reserved": 0, "lon": -76.99633666666666}, {"fusion_lat": 0.0, "name": "4c8541923ac54b960b3bbb42649ccd14", "is_disabled": 0, "rental_uris": {"android": "https://dc.lft.to/lastmile_qr_scan", "ios": "https://dc.lft.to/lastmile_qr_scan"}, "fusion_lon": 0.0, "lat": 38.907372333333335, "bike_id": "4c8541923ac54b960b3bbb42649ccd14", "type": "electric_scooter", "is_reserved": 0, "lon": -77.03451116666666}, {"fusion_lat": 0.0, "name": "4972ccbf355319c6d7dc8596e899a892", "is_disabled": 0, "rental_uris": {"android": "https://dc.lft.to/lastmile_qr_scan", "ios": "https://dc.lft.to/lastmile_qr_scan"}, "fusion_lon": 0.0, "lat": 38.9081135, "bike_id": "4972ccbf355319c6d7dc8596e899a892", "type": "electric_scooter", "is_reserved": 0, "lon": -77.0427295}, {"fusion_lat": 0.0, "name": "67116a32cc866ceb0eebd2e5fc7fbf37", "is_disabled": 0, "rental_uris": {"android": "https://dc.lft.to/lastmile_qr_scan", "ios": "https://dc.lft.to/lastmile_qr_scan"}, "fusion_lon": 0.0, "lat": 38.84284533333334, "bike_id": "67116a32cc866ceb0eebd2e5fc7fbf37", "type": "electric_bike", "is_reserved": 0, "lon": -77.044995}, {"fusion_lat": 0.0, "name": "d5e0d804857a1111587b34eecfb504b5", "is_disabled": 0, "rental_uris": {"android": "https://dc.lft.to/lastmile_qr_scan", "ios": "https://dc.lft.to/lastmile_qr_scan"}, "fusion_lon": 0.0, "lat": 38.936125, "bike_id": "d5e0d804857a1111587b34eecfb504b5", "type": "electric_scooter", "is_reserved": 0, "lon": -77.0586135}, {"fusion_lat": 0.0, "name": "bacc561f89db98b88f539b3cfa02d319", "is_disabled": 0, "rental_uris": {"android": "https://dc.lft.to/lastmile_qr_scan", "ios": "https://dc.lft.to/lastmile_qr_scan"}, "fusion_lon": 0.0, "lat": 38.90332633333333, "bike_id": "bacc561f89db98b88f539b3cfa02d319", "type": "electric_bike", "is_reserved": 0, "lon": -76.97528466666667}, {"fusion_lat": 0.0, "name": "7c638b0113e4375dade1d61e2d9ad0da", "is_disabled": 0, "rental_uris": {"android": "https://dc.lft.to/lastmile_qr_scan", "ios": "https://dc.lft.to/lastmile_qr_scan"}, "fusion_lon": 0.0, "lat": 38.944142666666664, "bike_id": "7c638b0113e4375dade1d61e2d9ad0da", "type": "electric_scooter", "is_reserved": 0, "lon": -77.063249}, {"fusion_lat": 0.0, "name": "7faeb9e706c50fa5991f354741e356ba", "is_disabled": 0, "rental_uris": {"android": "https://dc.lft.to/lastmile_qr_scan", "ios": "https://dc.lft.to/lastmile_qr_scan"}, "fusion_lon": 0.0, "lat": 38.935901666666666, "bike_id": "7faeb9e706c50fa5991f354741e356ba", "type": "electric_scooter", "is_reserved": 0, "lon": -77.02843183333333}, {"fusion_lat": 0.0, "name": "7e4ef705029b829439fd37dd5395034e", "is_disabled": 0, "rental_uris": {"android": "https://dc.lft.to/lastmile_qr_scan", "ios": "https://dc.lft.to/lastmile_qr_scan"}, "fusion_lon": 0.0, "lat": 38.856858833333334, "bike_id": "7e4ef705029b829439fd37dd5395034e", "type": "electric_bike", "is_reserved": 0, "lon": -77.05350383333334}, {"fusion_lat": 0.0, "name": "63caabbf3d0838022b279b6666d4a4b1", "is_disabled": 0, "rental_uris": {"android": "https://dc.lft.to/lastmile_qr_scan", "ios": "https://dc.lft.to/lastmile_qr_scan"}, "fusion_lon": 0.0, "lat": 38.9053765, "bike_id": "63caabbf3d0838022b279b6666d4a4b1", "type": "electric_scooter", "is_reserved": 0, "lon": -76.98197933333333}, {"fusion_lat": 0.0, "name": "dc2a998b74ac93e9670c3a1a371b92e9", "is_disabled": 0, "rental_uris": {"android": "https://dc.lft.to/lastmile_qr_scan", "ios": "https://dc.lft.to/lastmile_qr_scan"}, "fusion_lon": 0.0, "lat": 38.91646683333333, "bike_id": "dc2a998b74ac93e9670c3a1a371b92e9", "type": "electric_scooter", "is_reserved": 0, "lon": -77.00953483333333}, {"fusion_lat": 0.0, "name": "f846cb24a75f554ff47dd3faafe88e3d", "is_disabled": 0, "rental_uris": {"android": "https://dc.lft.to/lastmile_qr_scan", "ios": "https://dc.lft.to/lastmile_qr_scan"}, "fusion_lon": 0.0, "lat": 38.907827, "bike_id": "f846cb24a75f554ff47dd3faafe88e3d", "type": "electric_scooter", "is_reserved": 0, "lon": -77.03863833333334}, {"fusion_lat": 0.0, "name": "2490363952ed687eec18dca236e74ec5", "is_disabled": 0, "rental_uris": {"android": "https://dc.lft.to/lastmile_qr_scan", "ios": "https://dc.lft.to/lastmile_qr_scan"}, "fusion_lon": 0.0, "lat": 38.9012985, "bike_id": "2490363952ed687eec18dca236e74ec5", "type": "electric_scooter", "is_reserved": 0, "lon": -77.02296116666666}, {"fusion_lat": 0.0, "name": "c312db17308b5fcc5e93bab7d49ef611", "is_disabled": 0, "rental_uris": {"android": "https://dc.lft.to/lastmile_qr_scan", "ios": "https://dc.lft.to/lastmile_qr_scan"}, "fusion_lon": 0.0, "lat": 38.930935, "bike_id": "c312db17308b5fcc5e93bab7d49ef611", "type": "electric_scooter", "is_reserved": 0, "lon": -77.02557416666667}, {"fusion_lat": 0.0, "name": "c27d086a96f48f9722745badba5242ac", "is_disabled": 0, "rental_uris": {"android": "https://dc.lft.to/lastmile_qr_scan", "ios": "https://dc.lft.to/lastmile_qr_scan"}, "fusion_lon": 0.0, "lat": 38.912696, "bike_id": "c27d086a96f48f9722745badba5242ac", "type": "electric_scooter", "is_reserved": 0, "lon": -77.03875583333334}, {"fusion_lat": 0.0, "name": "efcff4b4bbb207ccf6c29b6c791278ae", "is_disabled": 0, "rental_uris": {"android": "https://dc.lft.to/lastmile_qr_scan", "ios": "https://dc.lft.to/lastmile_qr_scan"}, "fusion_lon": 0.0, "lat": 38.905078333333336, "bike_id": "efcff4b4bbb207ccf6c29b6c791278ae", "type": "electric_scooter", "is_reserved": 0, "lon": -77.02681233333334}, {"fusion_lat": 0.0, "name": "0fa74a84d7d744c6f7d7400b575ef88e", "is_disabled": 0, "rental_uris": {"android": "https://dc.lft.to/lastmile_qr_scan", "ios": "https://dc.lft.to/lastmile_qr_scan"}, "fusion_lon": 0.0, "lat": 38.9296295, "bike_id": "0fa74a84d7d744c6f7d7400b575ef88e", "type": "electric_scooter", "is_reserved": 0, "lon": -77.030984}, {"fusion_lat": 0.0, "name": "2a3b13d5714b2d03a6e97d2fbfaaf5b2", "is_disabled": 0, "rental_uris": {"android": "https://dc.lft.to/lastmile_qr_scan", "ios": "https://dc.lft.to/lastmile_qr_scan"}, "fusion_lon": 0.0, "lat": 38.86514316666667, "bike_id": "2a3b13d5714b2d03a6e97d2fbfaaf5b2", "type": "electric_bike", "is_reserved": 0, "lon": -77.129378}, {"fusion_lat": 0.0, "name": "9d6c139fe3ffcf36dfb95b88b1a2a853", "is_disabled": 0, "rental_uris": {"android": "https://dc.lft.to/lastmile_qr_scan", "ios": "https://dc.lft.to/lastmile_qr_scan"}, "fusion_lon": 0.0, "lat": 38.90172333333334, "bike_id": "9d6c139fe3ffcf36dfb95b88b1a2a853", "type": "electric_scooter", "is_reserved": 0, "lon": -77.02485283333333}, {"fusion_lat": 0.0, "name": "d0e3dc153136223f38ff3deb555080c5", "is_disabled": 0, "rental_uris": {"android": "https://dc.lft.to/lastmile_qr_scan", "ios": "https://dc.lft.to/lastmile_qr_scan"}, "fusion_lon": 0.0, "lat": 38.88837183333333, "bike_id": "d0e3dc153136223f38ff3deb555080c5", "type": "electric_scooter", "is_reserved": 0, "lon": -77.04907383333334}, {"fusion_lat": 0.0, "name": "587035839fd2708be932eb16162bb4b4", "is_disabled": 0, "rental_uris": {"android": "https://dc.lft.to/lastmile_qr_scan", "ios": "https://dc.lft.to/lastmile_qr_scan"}, "fusion_lon": 0.0, "lat": 38.914134833333335, "bike_id": "587035839fd2708be932eb16162bb4b4", "type": "electric_scooter", "is_reserved": 0, "lon": -77.04250266666666}, {"fusion_lat": 0.0, "name": "0b6cbb25961733b5a6bcdc1d9132659f", "is_disabled": 0, "rental_uris": {"android": "https://dc.lft.to/lastmile_qr_scan", "ios": "https://dc.lft.to/lastmile_qr_scan"}, "fusion_lon": 0.0, "lat": 38.92246333333333, "bike_id": "0b6cbb25961733b5a6bcdc1d9132659f", "type": "electric_scooter", "is_reserved": 0, "lon": -77.02239733333333}, {"fusion_lat": 0.0, "name": "501c331811bd7ee3c283c1116371923a", "is_disabled": 0, "rental_uris": {"android": "https://dc.lft.to/lastmile_qr_scan", "ios": "https://dc.lft.to/lastmile_qr_scan"}, "fusion_lon": 0.0, "lat": 38.903742333333334, "bike_id": "501c331811bd7ee3c283c1116371923a", "type": "electric_scooter", "is_reserved": 0, "lon": -77.01756233333333}, {"fusion_lat": 0.0, "name": "9a045f27a428594a81b9be6caf65f334", "is_disabled": 0, "rental_uris": {"android": "https://dc.lft.to/lastmile_qr_scan", "ios": "https://dc.lft.to/lastmile_qr_scan"}, "fusion_lon": 0.0, "lat": 38.902548, "bike_id": "9a045f27a428594a81b9be6caf65f334", "type": "electric_scooter", "is_reserved": 0, "lon": -77.06328933333333}, {"fusion_lat": 0.0, "name": "58219ff9812877fca29f0d8bee4f58fc", "is_disabled": 0, "rental_uris": {"android": "https://dc.lft.to/lastmile_qr_scan", "ios": "https://dc.lft.to/lastmile_qr_scan"}, "fusion_lon": 0.0, "lat": 38.91900016666666, "bike_id": "58219ff9812877fca29f0d8bee4f58fc", "type": "electric_scooter", "is_reserved": 0, "lon": -77.0004775}, {"fusion_lat": 0.0, "name": "8f2fc632ea7a4a70275ee5830de07442", "is_disabled": 0, "rental_uris": {"android": "https://dc.lft.to/lastmile_qr_scan", "ios": "https://dc.lft.to/lastmile_qr_scan"}, "fusion_lon": 0.0, "lat": 38.966728333333336, "bike_id": "8f2fc632ea7a4a70275ee5830de07442", "type": "electric_scooter", "is_reserved": 0, "lon": -77.02550883333333}, {"fusion_lat": 0.0, "name": "266a1f553e8c6bc89aeaba0a4f73a5da", "is_disabled": 0, "rental_uris": {"android": "https://dc.lft.to/lastmile_qr_scan", "ios": "https://dc.lft.to/lastmile_qr_scan"}, "fusion_lon": 0.0, "lat": 38.90552516666666, "bike_id": "266a1f553e8c6bc89aeaba0a4f73a5da", "type": "electric_scooter", "is_reserved": 0, "lon": -77.0347745}, {"fusion_lat": 0.0, "name": "99187f428d95a122129a5faab7b79333", "is_disabled": 0, "rental_uris": {"android": "https://dc.lft.to/lastmile_qr_scan", "ios": "https://dc.lft.to/lastmile_qr_scan"}, "fusion_lon": 0.0, "lat": 38.882906, "bike_id": "99187f428d95a122129a5faab7b79333", "type": "electric_scooter", "is_reserved": 0, "lon": -77.012276}, {"fusion_lat": 0.0, "name": "a77d9624378bd78625c729dd83dbf43b", "is_disabled": 0, "rental_uris": {"android": "https://dc.lft.to/lastmile_qr_scan", "ios": "https://dc.lft.to/lastmile_qr_scan"}, "fusion_lon": 0.0, "lat": 38.8899385, "bike_id": "a77d9624378bd78625c729dd83dbf43b", "type": "electric_scooter", "is_reserved": 0, "lon": -76.992515}, {"fusion_lat": 0.0, "name": "ed694bf850c7796f17ce5c05a7b34215", "is_disabled": 0, "rental_uris": {"android": "https://dc.lft.to/lastmile_qr_scan", "ios": "https://dc.lft.to/lastmile_qr_scan"}, "fusion_lon": 0.0, "lat": 38.90558333333333, "bike_id": "ed694bf850c7796f17ce5c05a7b34215", "type": "electric_scooter", "is_reserved": 0, "lon": -77.04659}, {"fusion_lat": 0.0, "name": "eadfc2bf3a6bd18a5109fc8af8ff83f4", "is_disabled": 0, "rental_uris": {"android": "https://dc.lft.to/lastmile_qr_scan", "ios": "https://dc.lft.to/lastmile_qr_scan"}, "fusion_lon": 0.0, "lat": 38.899348, "bike_id": "eadfc2bf3a6bd18a5109fc8af8ff83f4", "type": "electric_scooter", "is_reserved": 0, "lon": -77.02200816666667}, {"fusion_lat": 0.0, "name": "d535ed8ed4f4e6176639eb6678f77489", "is_disabled": 0, "rental_uris": {"android": "https://dc.lft.to/lastmile_qr_scan", "ios": "https://dc.lft.to/lastmile_qr_scan"}, "fusion_lon": 0.0, "lat": 38.919195333333334, "bike_id": "d535ed8ed4f4e6176639eb6678f77489", "type": "electric_scooter", "is_reserved": 0, "lon": -77.03387583333334}, {"fusion_lat": 0.0, "name": "d15fe8fd70ba670f9359acbe28da04ba", "is_disabled": 0, "rental_uris": {"android": "https://dc.lft.to/lastmile_qr_scan", "ios": "https://dc.lft.to/lastmile_qr_scan"}, "fusion_lon": 0.0, "lat": 38.9589005, "bike_id": "d15fe8fd70ba670f9359acbe28da04ba", "type": "electric_scooter", "is_reserved": 0, "lon": -77.00285766666667}, {"fusion_lat": 0.0, "name": "a4ac53f9240f47bfa757786e6eadf85d", "is_disabled": 0, "rental_uris": {"android": "https://dc.lft.to/lastmile_qr_scan", "ios": "https://dc.lft.to/lastmile_qr_scan"}, "fusion_lon": 0.0, "lat": 38.92737016666667, "bike_id": "a4ac53f9240f47bfa757786e6eadf85d", "type": "electric_scooter", "is_reserved": 0, "lon": -77.0226035}, {"fusion_lat": 0.0, "name": "f676de425fd039baf69076bec44a56a3", "is_disabled": 0, "rental_uris": {"android": "https://dc.lft.to/lastmile_qr_scan", "ios": "https://dc.lft.to/lastmile_qr_scan"}, "fusion_lon": 0.0, "lat": 38.87641416666666, "bike_id": "f676de425fd039baf69076bec44a56a3", "type": "electric_scooter", "is_reserved": 0, "lon": -77.0046655}, {"fusion_lat": 0.0, "name": "65ca66ab67a359eba5d18e2b48ca15fa", "is_disabled": 0, "rental_uris": {"android": "https://dc.lft.to/lastmile_qr_scan", "ios": "https://dc.lft.to/lastmile_qr_scan"}, "fusion_lon": 0.0, "lat": 38.916904833333334, "bike_id": "65ca66ab67a359eba5d18e2b48ca15fa", "type": "electric_scooter", "is_reserved": 0, "lon": -77.025972}, {"fusion_lat": 0.0, "name": "ae87babc63ba0d6b5be3be03261c9e45", "is_disabled": 0, "rental_uris": {"android": "https://dc.lft.to/lastmile_qr_scan", "ios": "https://dc.lft.to/lastmile_qr_scan"}, "fusion_lon": 0.0, "lat": 38.900956666666666, "bike_id": "ae87babc63ba0d6b5be3be03261c9e45", "type": "electric_bike", "is_reserved": 0, "lon": -77.03944766666666}, {"fusion_lat": 0.0, "name": "4141af2610e151e8e3bb91a9edc52c7f", "is_disabled": 0, "rental_uris": {"android": "https://dc.lft.to/lastmile_qr_scan", "ios": "https://dc.lft.to/lastmile_qr_scan"}, "fusion_lon": 0.0, "lat": 38.92125933333333, "bike_id": "4141af2610e151e8e3bb91a9edc52c7f", "type": "electric_scooter", "is_reserved": 0, "lon": -77.04423816666667}, {"fusion_lat": 0.0, "name": "9031904902cb751031e22c44be97fce2", "is_disabled": 0, "rental_uris": {"android": "https://dc.lft.to/lastmile_qr_scan", "ios": "https://dc.lft.to/lastmile_qr_scan"}, "fusion_lon": 0.0, "lat": 38.91995216666667, "bike_id": "9031904902cb751031e22c44be97fce2", "type": "electric_scooter", "is_reserved": 0, "lon": -77.03284433333333}, {"fusion_lat": 0.0, "name": "52b3cd6045f76501066a8f68b4ace74c", "is_disabled": 0, "rental_uris": {"android": "https://dc.lft.to/lastmile_qr_scan", "ios": "https://dc.lft.to/lastmile_qr_scan"}, "fusion_lon": 0.0, "lat": 38.92241633333333, "bike_id": "52b3cd6045f76501066a8f68b4ace74c", "type": "electric_bike", "is_reserved": 0, "lon": -77.03078133333334}, {"fusion_lat": 0.0, "name": "3a3b387b8b4facbbe96fc8627bfa2eaa", "is_disabled": 0, "rental_uris": {"android": "https://dc.lft.to/lastmile_qr_scan", "ios": "https://dc.lft.to/lastmile_qr_scan"}, "fusion_lon": 0.0, "lat": 38.906731666666666, "bike_id": "3a3b387b8b4facbbe96fc8627bfa2eaa", "type": "electric_scooter", "is_reserved": 0, "lon": -77.02715816666667}, {"fusion_lat": 0.0, "name": "57dca49924017bf3d070c9dab9dd3cdf", "is_disabled": 0, "rental_uris": {"android": "https://dc.lft.to/lastmile_qr_scan", "ios": "https://dc.lft.to/lastmile_qr_scan"}, "fusion_lon": 0.0, "lat": 38.944131666666664, "bike_id": "57dca49924017bf3d070c9dab9dd3cdf", "type": "electric_scooter", "is_reserved": 0, "lon": -77.06324616666667}, {"fusion_lat": 0.0, "name": "9e54acc73f95e636b7591710d8356bff", "is_disabled": 0, "rental_uris": {"android": "https://dc.lft.to/lastmile_qr_scan", "ios": "https://dc.lft.to/lastmile_qr_scan"}, "fusion_lon": 0.0, "lat": 38.941020333333334, "bike_id": "9e54acc73f95e636b7591710d8356bff", "type": "electric_scooter", "is_reserved": 0, "lon": -77.032823}, {"fusion_lat": 0.0, "name": "3c0595b7ad2cd4a3dcc3b5e4bd964a90", "is_disabled": 0, "rental_uris": {"android": "https://dc.lft.to/lastmile_qr_scan", "ios": "https://dc.lft.to/lastmile_qr_scan"}, "fusion_lon": 0.0, "lat": 38.9202475, "bike_id": "3c0595b7ad2cd4a3dcc3b5e4bd964a90", "type": "electric_scooter", "is_reserved": 0, "lon": -77.02508716666667}, {"fusion_lat": 0.0, "name": "bd9a12d3f41e44ff327439ebdeaa0471", "is_disabled": 0, "rental_uris": {"android": "https://dc.lft.to/lastmile_qr_scan", "ios": "https://dc.lft.to/lastmile_qr_scan"}, "fusion_lon": 0.0, "lat": 38.906035, "bike_id": "bd9a12d3f41e44ff327439ebdeaa0471", "type": "electric_scooter", "is_reserved": 0, "lon": -77.0260155}, {"fusion_lat": 0.0, "name": "ba4b970d742d3b836b65d2026f76da65", "is_disabled": 0, "rental_uris": {"android": "https://dc.lft.to/lastmile_qr_scan", "ios": "https://dc.lft.to/lastmile_qr_scan"}, "fusion_lon": 0.0, "lat": 38.9306985, "bike_id": "ba4b970d742d3b836b65d2026f76da65", "type": "electric_scooter", "is_reserved": 0, "lon": -77.02002066666667}, {"fusion_lat": 0.0, "name": "d36cc769c8ea199869b01a9a783ab2cc", "is_disabled": 0, "rental_uris": {"android": "https://dc.lft.to/lastmile_qr_scan", "ios": "https://dc.lft.to/lastmile_qr_scan"}, "fusion_lon": 0.0, "lat": 38.917332333333334, "bike_id": "d36cc769c8ea199869b01a9a783ab2cc", "type": "electric_scooter", "is_reserved": 0, "lon": -77.01927783333333}, {"fusion_lat": 0.0, "name": "dbe8be07fc00279dc78a045570413930", "is_disabled": 0, "rental_uris": {"android": "https://dc.lft.to/lastmile_qr_scan", "ios": "https://dc.lft.to/lastmile_qr_scan"}, "fusion_lon": 0.0, "lat": 38.92805516666667, "bike_id": "dbe8be07fc00279dc78a045570413930", "type": "electric_scooter", "is_reserved": 0, "lon": -77.014121}, {"fusion_lat": 0.0, "name": "b5372cee522ec3eabef93fdacbcdfa11", "is_disabled": 0, "rental_uris": {"android": "https://dc.lft.to/lastmile_qr_scan", "ios": "https://dc.lft.to/lastmile_qr_scan"}, "fusion_lon": 0.0, "lat": 38.930756333333335, "bike_id": "b5372cee522ec3eabef93fdacbcdfa11", "type": "electric_scooter", "is_reserved": 0, "lon": -77.07762716666667}, {"fusion_lat": 0.0, "name": "79420e202ff27a2b771ea1f8c26926b6", "is_disabled": 0, "rental_uris": {"android": "https://dc.lft.to/lastmile_qr_scan", "ios": "https://dc.lft.to/lastmile_qr_scan"}, "fusion_lon": 0.0, "lat": 38.936018833333335, "bike_id": "79420e202ff27a2b771ea1f8c26926b6", "type": "electric_scooter", "is_reserved": 0, "lon": -77.0366375}, {"fusion_lat": 0.0, "name": "cb10666afa59aba1a093f51706307263", "is_disabled": 0, "rental_uris": {"android": "https://dc.lft.to/lastmile_qr_scan", "ios": "https://dc.lft.to/lastmile_qr_scan"}, "fusion_lon": 0.0, "lat": 38.957592166666664, "bike_id": "cb10666afa59aba1a093f51706307263", "type": "electric_bike", "is_reserved": 0, "lon": -77.02055566666667}, {"fusion_lat": 0.0, "name": "801cd2b00dd30d7de355836e9df7d1bd", "is_disabled": 0, "rental_uris": {"android": "https://dc.lft.to/lastmile_qr_scan", "ios": "https://dc.lft.to/lastmile_qr_scan"}, "fusion_lon": 0.0, "lat": 38.86018116666666, "bike_id": "801cd2b00dd30d7de355836e9df7d1bd", "type": "electric_bike", "is_reserved": 0, "lon": -77.12805666666667}, {"fusion_lat": 0.0, "name": "25da633a409dbf2a17a316af9ffd405c", "is_disabled": 0, "rental_uris": {"android": "https://dc.lft.to/lastmile_qr_scan", "ios": "https://dc.lft.to/lastmile_qr_scan"}, "fusion_lon": 0.0, "lat": 38.87448116666667, "bike_id": "25da633a409dbf2a17a316af9ffd405c", "type": "electric_scooter", "is_reserved": 0, "lon": -77.0029175}, {"fusion_lat": 0.0, "name": "e56bab046cdfc76b4d85b15ff2edaf65", "is_disabled": 0, "rental_uris": {"android": "https://dc.lft.to/lastmile_qr_scan", "ios": "https://dc.lft.to/lastmile_qr_scan"}, "fusion_lon": 0.0, "lat": 38.9326715, "bike_id": "e56bab046cdfc76b4d85b15ff2edaf65", "type": "electric_scooter", "is_reserved": 0, "lon": -77.0192}, {"fusion_lat": 0.0, "name": "1f1adf1a718f993af62f1333a5182bb1", "is_disabled": 0, "rental_uris": {"android": "https://dc.lft.to/lastmile_qr_scan", "ios": "https://dc.lft.to/lastmile_qr_scan"}, "fusion_lon": 0.0, "lat": 38.88726333333334, "bike_id": "1f1adf1a718f993af62f1333a5182bb1", "type": "electric_scooter", "is_reserved": 0, "lon": -76.983553}, {"fusion_lat": 0.0, "name": "c9bc14be191ce01dfc1072fd48dcdcc7", "is_disabled": 0, "rental_uris": {"android": "https://dc.lft.to/lastmile_qr_scan", "ios": "https://dc.lft.to/lastmile_qr_scan"}, "fusion_lon": 0.0, "lat": 38.899685166666664, "bike_id": "c9bc14be191ce01dfc1072fd48dcdcc7", "type": "electric_scooter", "is_reserved": 0, "lon": -76.98697566666667}, {"fusion_lat": 0.0, "name": "e761e8168eaea51545b0142016aa55de", "is_disabled": 0, "rental_uris": {"android": "https://dc.lft.to/lastmile_qr_scan", "ios": "https://dc.lft.to/lastmile_qr_scan"}, "fusion_lon": 0.0, "lat": 38.90002283333333, "bike_id": "e761e8168eaea51545b0142016aa55de", "type": "electric_scooter", "is_reserved": 0, "lon": -77.01200066666667}, {"fusion_lat": 0.0, "name": "7545da3e7e91159a2a8e40873f243a29", "is_disabled": 0, "rental_uris": {"android": "https://dc.lft.to/lastmile_qr_scan", "ios": "https://dc.lft.to/lastmile_qr_scan"}, "fusion_lon": 0.0, "lat": 38.9207975, "bike_id": "7545da3e7e91159a2a8e40873f243a29", "type": "electric_bike", "is_reserved": 0, "lon": -76.98946983333333}, {"fusion_lat": 0.0, "name": "ff40e9f1cbbabebf3f669977d8892f90", "is_disabled": 0, "rental_uris": {"android": "https://dc.lft.to/lastmile_qr_scan", "ios": "https://dc.lft.to/lastmile_qr_scan"}, "fusion_lon": 0.0, "lat": 38.887396, "bike_id": "ff40e9f1cbbabebf3f669977d8892f90", "type": "electric_scooter", "is_reserved": 0, "lon": -77.03190266666667}, {"fusion_lat": 0.0, "name": "a8300aac0e57b10bbfa674258ee52058", "is_disabled": 0, "rental_uris": {"android": "https://dc.lft.to/lastmile_qr_scan", "ios": "https://dc.lft.to/lastmile_qr_scan"}, "fusion_lon": 0.0, "lat": 38.91990966666667, "bike_id": "a8300aac0e57b10bbfa674258ee52058", "type": "electric_scooter", "is_reserved": 0, "lon": -77.032793}, {"fusion_lat": 0.0, "name": "5af4f0bbaedc9f1b40ca995f1014467d", "is_disabled": 0, "rental_uris": {"android": "https://dc.lft.to/lastmile_qr_scan", "ios": "https://dc.lft.to/lastmile_qr_scan"}, "fusion_lon": 0.0, "lat": 38.91812933333333, "bike_id": "5af4f0bbaedc9f1b40ca995f1014467d", "type": "electric_scooter", "is_reserved": 0, "lon": -77.03682416666666}, {"fusion_lat": 0.0, "name": "4bf9cb1dd2aa77af9ca0f5cfd28366e0", "is_disabled": 0, "rental_uris": {"android": "https://dc.lft.to/lastmile_qr_scan", "ios": "https://dc.lft.to/lastmile_qr_scan"}, "fusion_lon": 0.0, "lat": 38.903763833333336, "bike_id": "4bf9cb1dd2aa77af9ca0f5cfd28366e0", "type": "electric_scooter", "is_reserved": 0, "lon": -77.03833033333333}, {"fusion_lat": 0.0, "name": "c5d7f260bbbb901e57d69eeffba99e95", "is_disabled": 0, "rental_uris": {"android": "https://dc.lft.to/lastmile_qr_scan", "ios": "https://dc.lft.to/lastmile_qr_scan"}, "fusion_lon": 0.0, "lat": 38.8873655, "bike_id": "c5d7f260bbbb901e57d69eeffba99e95", "type": "electric_scooter", "is_reserved": 0, "lon": -77.00322483333333}, {"fusion_lat": 0.0, "name": "3a5ebe3fd9c971dd8a307a834f81c056", "is_disabled": 0, "rental_uris": {"android": "https://dc.lft.to/lastmile_qr_scan", "ios": "https://dc.lft.to/lastmile_qr_scan"}, "fusion_lon": 0.0, "lat": 38.92436266666667, "bike_id": "3a5ebe3fd9c971dd8a307a834f81c056", "type": "electric_scooter", "is_reserved": 0, "lon": -77.000659}, {"fusion_lat": 0.0, "name": "62bc2041099b584ef2f1604531c24b75", "is_disabled": 0, "rental_uris": {"android": "https://dc.lft.to/lastmile_qr_scan", "ios": "https://dc.lft.to/lastmile_qr_scan"}, "fusion_lon": 0.0, "lat": 38.907321333333336, "bike_id": "62bc2041099b584ef2f1604531c24b75", "type": "electric_scooter", "is_reserved": 0, "lon": -77.029695}, {"fusion_lat": 0.0, "name": "0c9cd46ec5c8f292b2f258747630eef6", "is_disabled": 0, "rental_uris": {"android": "https://dc.lft.to/lastmile_qr_scan", "ios": "https://dc.lft.to/lastmile_qr_scan"}, "fusion_lon": 0.0, "lat": 38.902768333333334, "bike_id": "0c9cd46ec5c8f292b2f258747630eef6", "type": "electric_scooter", "is_reserved": 0, "lon": -77.03947066666667}, {"fusion_lat": 0.0, "name": "c0cec038b44ef6e90d29830b40862782", "is_disabled": 0, "rental_uris": {"android": "https://dc.lft.to/lastmile_qr_scan", "ios": "https://dc.lft.to/lastmile_qr_scan"}, "fusion_lon": 0.0, "lat": 38.91333, "bike_id": "c0cec038b44ef6e90d29830b40862782", "type": "electric_scooter", "is_reserved": 0, "lon": -77.02139933333333}, {"fusion_lat": 0.0, "name": "f39fdf33a4e9d55937b277994ec6ce1f", "is_disabled": 0, "rental_uris": {"android": "https://dc.lft.to/lastmile_qr_scan", "ios": "https://dc.lft.to/lastmile_qr_scan"}, "fusion_lon": 0.0, "lat": 38.915557666666665, "bike_id": "f39fdf33a4e9d55937b277994ec6ce1f", "type": "electric_scooter", "is_reserved": 0, "lon": -77.0313725}, {"fusion_lat": 0.0, "name": "cf7496de88a9c816dfa2c0f5ca77cb73", "is_disabled": 0, "rental_uris": {"android": "https://dc.lft.to/lastmile_qr_scan", "ios": "https://dc.lft.to/lastmile_qr_scan"}, "fusion_lon": 0.0, "lat": 38.920842, "bike_id": "cf7496de88a9c816dfa2c0f5ca77cb73", "type": "electric_scooter", "is_reserved": 0, "lon": -77.02498266666667}, {"fusion_lat": 0.0, "name": "18f71d097f41cf318eb0935775bdeb70", "is_disabled": 0, "rental_uris": {"android": "https://dc.lft.to/lastmile_qr_scan", "ios": "https://dc.lft.to/lastmile_qr_scan"}, "fusion_lon": 0.0, "lat": 38.9197975, "bike_id": "18f71d097f41cf318eb0935775bdeb70", "type": "electric_scooter", "is_reserved": 0, "lon": -77.02186716666667}, {"fusion_lat": 0.0, "name": "906a59a7dcf715b1c9a575521eee71a6", "is_disabled": 0, "rental_uris": {"android": "https://dc.lft.to/lastmile_qr_scan", "ios": "https://dc.lft.to/lastmile_qr_scan"}, "fusion_lon": 0.0, "lat": 38.917109833333335, "bike_id": "906a59a7dcf715b1c9a575521eee71a6", "type": "electric_scooter", "is_reserved": 0, "lon": -76.9766365}, {"fusion_lat": 0.0, "name": "66bb65ea91893d40960a356bceda6204", "is_disabled": 0, "rental_uris": {"android": "https://dc.lft.to/lastmile_qr_scan", "ios": "https://dc.lft.to/lastmile_qr_scan"}, "fusion_lon": 0.0, "lat": 38.87967016666666, "bike_id": "66bb65ea91893d40960a356bceda6204", "type": "electric_bike", "is_reserved": 0, "lon": -76.91616416666666}, {"fusion_lat": 0.0, "name": "c6c5c9608d73d1415856da56f71d0848", "is_disabled": 0, "rental_uris": {"android": "https://dc.lft.to/lastmile_qr_scan", "ios": "https://dc.lft.to/lastmile_qr_scan"}, "fusion_lon": 0.0, "lat": 38.940807666666664, "bike_id": "c6c5c9608d73d1415856da56f71d0848", "type": "electric_scooter", "is_reserved": 0, "lon": -77.02996666666667}, {"fusion_lat": 0.0, "name": "2484c210fae3379b4f8462c7cc48f544", "is_disabled": 0, "rental_uris": {"android": "https://dc.lft.to/lastmile_qr_scan", "ios": "https://dc.lft.to/lastmile_qr_scan"}, "fusion_lon": 0.0, "lat": 38.900864166666665, "bike_id": "2484c210fae3379b4f8462c7cc48f544", "type": "electric_scooter", "is_reserved": 0, "lon": -76.98325566666666}, {"fusion_lat": 0.0, "name": "b7b30df6fe6ecf7287028a5fcd0fa449", "is_disabled": 0, "rental_uris": {"android": "https://dc.lft.to/lastmile_qr_scan", "ios": "https://dc.lft.to/lastmile_qr_scan"}, "fusion_lon": 0.0, "lat": 38.9201295, "bike_id": "b7b30df6fe6ecf7287028a5fcd0fa449", "type": "electric_bike", "is_reserved": 0, "lon": -76.99071066666667}, {"fusion_lat": 0.0, "name": "705da1e3577f24520ea7ab7f4f4417d7", "is_disabled": 0, "rental_uris": {"android": "https://dc.lft.to/lastmile_qr_scan", "ios": "https://dc.lft.to/lastmile_qr_scan"}, "fusion_lon": 0.0, "lat": 38.9111185, "bike_id": "705da1e3577f24520ea7ab7f4f4417d7", "type": "electric_scooter", "is_reserved": 0, "lon": -77.01001566666666}, {"fusion_lat": 0.0, "name": "7ae1865127a1cfe79a36420e57a8d9d1", "is_disabled": 0, "rental_uris": {"android": "https://dc.lft.to/lastmile_qr_scan", "ios": "https://dc.lft.to/lastmile_qr_scan"}, "fusion_lon": 0.0, "lat": 38.943307, "bike_id": "7ae1865127a1cfe79a36420e57a8d9d1", "type": "electric_scooter", "is_reserved": 0, "lon": -77.015524}, {"fusion_lat": 0.0, "name": "a4573467ba55cc28660da59129557dfe", "is_disabled": 0, "rental_uris": {"android": "https://dc.lft.to/lastmile_qr_scan", "ios": "https://dc.lft.to/lastmile_qr_scan"}, "fusion_lon": 0.0, "lat": 38.89607633333333, "bike_id": "a4573467ba55cc28660da59129557dfe", "type": "electric_scooter", "is_reserved": 0, "lon": -76.981091}, {"fusion_lat": 0.0, "name": "5cb2e8f99f125f6fd4ab8ebc58dc7482", "is_disabled": 0, "rental_uris": {"android": "https://dc.lft.to/lastmile_qr_scan", "ios": "https://dc.lft.to/lastmile_qr_scan"}, "fusion_lon": 0.0, "lat": 38.89976133333333, "bike_id": "5cb2e8f99f125f6fd4ab8ebc58dc7482", "type": "electric_scooter", "is_reserved": 0, "lon": -77.0526965}, {"fusion_lat": 0.0, "name": "c0ffee25c3b1569cadebdda796e391ea", "is_disabled": 0, "rental_uris": {"android": "https://dc.lft.to/lastmile_qr_scan", "ios": "https://dc.lft.to/lastmile_qr_scan"}, "fusion_lon": 0.0, "lat": 38.925073, "bike_id": "c0ffee25c3b1569cadebdda796e391ea", "type": "electric_scooter", "is_reserved": 0, "lon": -77.05226316666666}, {"fusion_lat": 0.0, "name": "c63d29f7b01b3324e97077841d4aaacb", "is_disabled": 0, "rental_uris": {"android": "https://dc.lft.to/lastmile_qr_scan", "ios": "https://dc.lft.to/lastmile_qr_scan"}, "fusion_lon": 0.0, "lat": 38.92473533333333, "bike_id": "c63d29f7b01b3324e97077841d4aaacb", "type": "electric_scooter", "is_reserved": 0, "lon": -77.02668466666667}, {"fusion_lat": 0.0, "name": "562bc71d85c0f807b2842a08ca49bf24", "is_disabled": 0, "rental_uris": {"android": "https://dc.lft.to/lastmile_qr_scan", "ios": "https://dc.lft.to/lastmile_qr_scan"}, "fusion_lon": 0.0, "lat": 38.8901775, "bike_id": "562bc71d85c0f807b2842a08ca49bf24", "type": "electric_scooter", "is_reserved": 0, "lon": -76.9373905}, {"fusion_lat": 0.0, "name": "9007805ea36e93503c13212e291b5f79", "is_disabled": 0, "rental_uris": {"android": "https://dc.lft.to/lastmile_qr_scan", "ios": "https://dc.lft.to/lastmile_qr_scan"}, "fusion_lon": 0.0, "lat": 38.90191383333333, "bike_id": "9007805ea36e93503c13212e291b5f79", "type": "electric_scooter", "is_reserved": 0, "lon": -77.05049683333333}, {"fusion_lat": 0.0, "name": "6eccc0784868341fa92039469c15f74c", "is_disabled": 0, "rental_uris": {"android": "https://dc.lft.to/lastmile_qr_scan", "ios": "https://dc.lft.to/lastmile_qr_scan"}, "fusion_lon": 0.0, "lat": 38.90406016666667, "bike_id": "6eccc0784868341fa92039469c15f74c", "type": "electric_scooter", "is_reserved": 0, "lon": -77.05102033333333}, {"fusion_lat": 0.0, "name": "e3ca8e7696252c1ffe861dc075eb23f8", "is_disabled": 0, "rental_uris": {"android": "https://dc.lft.to/lastmile_qr_scan", "ios": "https://dc.lft.to/lastmile_qr_scan"}, "fusion_lon": 0.0, "lat": 38.92385433333333, "bike_id": "e3ca8e7696252c1ffe861dc075eb23f8", "type": "electric_scooter", "is_reserved": 0, "lon": -77.04467783333334}, {"fusion_lat": 0.0, "name": "fb826ab94e8af96bd1b6709d40753e9b", "is_disabled": 0, "rental_uris": {"android": "https://dc.lft.to/lastmile_qr_scan", "ios": "https://dc.lft.to/lastmile_qr_scan"}, "fusion_lon": 0.0, "lat": 38.920137833333335, "bike_id": "fb826ab94e8af96bd1b6709d40753e9b", "type": "electric_scooter", "is_reserved": 0, "lon": -77.0388045}, {"fusion_lat": 0.0, "name": "74343a237057731ef0c15c05b604265e", "is_disabled": 0, "rental_uris": {"android": "https://dc.lft.to/lastmile_qr_scan", "ios": "https://dc.lft.to/lastmile_qr_scan"}, "fusion_lon": 0.0, "lat": 38.90376233333333, "bike_id": "74343a237057731ef0c15c05b604265e", "type": "electric_scooter", "is_reserved": 0, "lon": -76.97614583333333}, {"fusion_lat": 0.0, "name": "8c92ae4829eee4e088fefe33acac0790", "is_disabled": 0, "rental_uris": {"android": "https://dc.lft.to/lastmile_qr_scan", "ios": "https://dc.lft.to/lastmile_qr_scan"}, "fusion_lon": 0.0, "lat": 38.9275645, "bike_id": "8c92ae4829eee4e088fefe33acac0790", "type": "electric_scooter", "is_reserved": 0, "lon": -77.03269366666666}, {"fusion_lat": 0.0, "name": "2c3d559cb1a6dba4d7b5c01cf634c542", "is_disabled": 0, "rental_uris": {"android": "https://dc.lft.to/lastmile_qr_scan", "ios": "https://dc.lft.to/lastmile_qr_scan"}, "fusion_lon": 0.0, "lat": 38.9639185, "bike_id": "2c3d559cb1a6dba4d7b5c01cf634c542", "type": "electric_scooter", "is_reserved": 0, "lon": -77.02590616666667}, {"fusion_lat": 0.0, "name": "4886e8ca2c55a719bc6b47f9a889b5b7", "is_disabled": 0, "rental_uris": {"android": "https://dc.lft.to/lastmile_qr_scan", "ios": "https://dc.lft.to/lastmile_qr_scan"}, "fusion_lon": 0.0, "lat": 38.90717316666667, "bike_id": "4886e8ca2c55a719bc6b47f9a889b5b7", "type": "electric_scooter", "is_reserved": 0, "lon": -77.03206033333333}, {"fusion_lat": 0.0, "name": "3977b75f950667fbf551b9b5dff506c3", "is_disabled": 0, "rental_uris": {"android": "https://dc.lft.to/lastmile_qr_scan", "ios": "https://dc.lft.to/lastmile_qr_scan"}, "fusion_lon": 0.0, "lat": 38.802945666666666, "bike_id": "3977b75f950667fbf551b9b5dff506c3", "type": "electric_bike", "is_reserved": 0, "lon": -77.059391}, {"fusion_lat": 0.0, "name": "7181ac832fa86aaf7f282912b3788b0a", "is_disabled": 0, "rental_uris": {"android": "https://dc.lft.to/lastmile_qr_scan", "ios": "https://dc.lft.to/lastmile_qr_scan"}, "fusion_lon": 0.0, "lat": 38.932555, "bike_id": "7181ac832fa86aaf7f282912b3788b0a", "type": "electric_scooter", "is_reserved": 0, "lon": -77.032805}, {"fusion_lat": 0.0, "name": "4809e6fb5cfb93cd53801437ffd3ad19", "is_disabled": 0, "rental_uris": {"android": "https://dc.lft.to/lastmile_qr_scan", "ios": "https://dc.lft.to/lastmile_qr_scan"}, "fusion_lon": 0.0, "lat": 38.87975766666667, "bike_id": "4809e6fb5cfb93cd53801437ffd3ad19", "type": "electric_scooter", "is_reserved": 0, "lon": -77.00597666666667}, {"fusion_lat": 0.0, "name": "655e51ab21c5ca5d37afe67e31ccdcdb", "is_disabled": 0, "rental_uris": {"android": "https://dc.lft.to/lastmile_qr_scan", "ios": "https://dc.lft.to/lastmile_qr_scan"}, "fusion_lon": 0.0, "lat": 38.90004966666667, "bike_id": "655e51ab21c5ca5d37afe67e31ccdcdb", "type": "electric_scooter", "is_reserved": 0, "lon": -77.01176483333333}, {"fusion_lat": 0.0, "name": "18592499902af19941c5cafb8bc41380", "is_disabled": 0, "rental_uris": {"android": "https://dc.lft.to/lastmile_qr_scan", "ios": "https://dc.lft.to/lastmile_qr_scan"}, "fusion_lon": 0.0, "lat": 38.89243183333333, "bike_id": "18592499902af19941c5cafb8bc41380", "type": "electric_scooter", "is_reserved": 0, "lon": -77.043583}, {"fusion_lat": 0.0, "name": "b188d0cb3576cd1d0bc727a11fc13f0c", "is_disabled": 0, "rental_uris": {"android": "https://dc.lft.to/lastmile_qr_scan", "ios": "https://dc.lft.to/lastmile_qr_scan"}, "fusion_lon": 0.0, "lat": 38.92288083333333, "bike_id": "b188d0cb3576cd1d0bc727a11fc13f0c", "type": "electric_scooter", "is_reserved": 0, "lon": -77.03663666666667}, {"fusion_lat": 0.0, "name": "5a22dc40696128fd0bfd3cacdaa540bf", "is_disabled": 0, "rental_uris": {"android": "https://dc.lft.to/lastmile_qr_scan", "ios": "https://dc.lft.to/lastmile_qr_scan"}, "fusion_lon": 0.0, "lat": 38.921041333333335, "bike_id": "5a22dc40696128fd0bfd3cacdaa540bf", "type": "electric_scooter", "is_reserved": 0, "lon": -77.031658}, {"fusion_lat": 0.0, "name": "5d0ff508f7854c61b2f2347922ee11df", "is_disabled": 0, "rental_uris": {"android": "https://dc.lft.to/lastmile_qr_scan", "ios": "https://dc.lft.to/lastmile_qr_scan"}, "fusion_lon": 0.0, "lat": 38.881887666666664, "bike_id": "5d0ff508f7854c61b2f2347922ee11df", "type": "electric_scooter", "is_reserved": 0, "lon": -77.00352133333334}, {"fusion_lat": 0.0, "name": "be5bb391ca074f9ea26047d6e650c82e", "is_disabled": 0, "rental_uris": {"android": "https://dc.lft.to/lastmile_qr_scan", "ios": "https://dc.lft.to/lastmile_qr_scan"}, "fusion_lon": 0.0, "lat": 38.92744116666667, "bike_id": "be5bb391ca074f9ea26047d6e650c82e", "type": "electric_scooter", "is_reserved": 0, "lon": -77.0525735}, {"fusion_lat": 0.0, "name": "96c924d6af07265eff5cdfd2758ff2aa", "is_disabled": 0, "rental_uris": {"android": "https://dc.lft.to/lastmile_qr_scan", "ios": "https://dc.lft.to/lastmile_qr_scan"}, "fusion_lon": 0.0, "lat": 38.94596966666667, "bike_id": "96c924d6af07265eff5cdfd2758ff2aa", "type": "electric_scooter", "is_reserved": 0, "lon": -77.02977116666666}, {"fusion_lat": 0.0, "name": "8c0f0a971586e3046b6e7c9b6927465e", "is_disabled": 0, "rental_uris": {"android": "https://dc.lft.to/lastmile_qr_scan", "ios": "https://dc.lft.to/lastmile_qr_scan"}, "fusion_lon": 0.0, "lat": 38.912033666666666, "bike_id": "8c0f0a971586e3046b6e7c9b6927465e", "type": "electric_scooter", "is_reserved": 0, "lon": -77.03190716666667}, {"fusion_lat": 0.0, "name": "3d4a59aa9884573975efadaeb8371383", "is_disabled": 0, "rental_uris": {"android": "https://dc.lft.to/lastmile_qr_scan", "ios": "https://dc.lft.to/lastmile_qr_scan"}, "fusion_lon": 0.0, "lat": 38.933015166666664, "bike_id": "3d4a59aa9884573975efadaeb8371383", "type": "electric_scooter", "is_reserved": 0, "lon": -77.03079766666667}, {"fusion_lat": 0.0, "name": "4a7bc0ca8852edce4a17895892e3c3a5", "is_disabled": 0, "rental_uris": {"android": "https://dc.lft.to/lastmile_qr_scan", "ios": "https://dc.lft.to/lastmile_qr_scan"}, "fusion_lon": 0.0, "lat": 38.900596166666666, "bike_id": "4a7bc0ca8852edce4a17895892e3c3a5", "type": "electric_bike", "is_reserved": 0, "lon": -77.00218983333333}, {"fusion_lat": 0.0, "name": "fd9983ea9a00617d2b3733076639d8ef", "is_disabled": 0, "rental_uris": {"android": "https://dc.lft.to/lastmile_qr_scan", "ios": "https://dc.lft.to/lastmile_qr_scan"}, "fusion_lon": 0.0, "lat": 38.90646533333334, "bike_id": "fd9983ea9a00617d2b3733076639d8ef", "type": "electric_scooter", "is_reserved": 0, "lon": -77.0628755}, {"fusion_lat": 0.0, "name": "e668ac63e5680cff4d0b65d0999f6918", "is_disabled": 0, "rental_uris": {"android": "https://dc.lft.to/lastmile_qr_scan", "ios": "https://dc.lft.to/lastmile_qr_scan"}, "fusion_lon": 0.0, "lat": 38.91046083333333, "bike_id": "e668ac63e5680cff4d0b65d0999f6918", "type": "electric_scooter", "is_reserved": 0, "lon": -77.04098683333333}, {"fusion_lat": 0.0, "name": "770b62030f16bce87710b06dafc7f06f", "is_disabled": 0, "rental_uris": {"android": "https://dc.lft.to/lastmile_qr_scan", "ios": "https://dc.lft.to/lastmile_qr_scan"}, "fusion_lon": 0.0, "lat": 38.90558983333333, "bike_id": "770b62030f16bce87710b06dafc7f06f", "type": "electric_scooter", "is_reserved": 0, "lon": -77.05820816666666}, {"fusion_lat": 0.0, "name": "77e4da647acb551a005cc40f5856f7f9", "is_disabled": 0, "rental_uris": {"android": "https://dc.lft.to/lastmile_qr_scan", "ios": "https://dc.lft.to/lastmile_qr_scan"}, "fusion_lon": 0.0, "lat": 38.916720833333336, "bike_id": "77e4da647acb551a005cc40f5856f7f9", "type": "electric_scooter", "is_reserved": 0, "lon": -77.022803}, {"fusion_lat": 0.0, "name": "c3ae75a61bb7b7d6a484d123d797a42e", "is_disabled": 0, "rental_uris": {"android": "https://dc.lft.to/lastmile_qr_scan", "ios": "https://dc.lft.to/lastmile_qr_scan"}, "fusion_lon": 0.0, "lat": 38.871492, "bike_id": "c3ae75a61bb7b7d6a484d123d797a42e", "type": "electric_scooter", "is_reserved": 0, "lon": -77.01181766666667}, {"fusion_lat": 0.0, "name": "60b89671e0a3129b8bc5bd484aa04556", "is_disabled": 0, "rental_uris": {"android": "https://dc.lft.to/lastmile_qr_scan", "ios": "https://dc.lft.to/lastmile_qr_scan"}, "fusion_lon": 0.0, "lat": 38.9029465, "bike_id": "60b89671e0a3129b8bc5bd484aa04556", "type": "electric_scooter", "is_reserved": 0, "lon": -77.02268666666667}, {"fusion_lat": 0.0, "name": "4aea4bcc2a40b3fd55d73f8207c1ad6f", "is_disabled": 0, "rental_uris": {"android": "https://dc.lft.to/lastmile_qr_scan", "ios": "https://dc.lft.to/lastmile_qr_scan"}, "fusion_lon": 0.0, "lat": 38.9192565, "bike_id": "4aea4bcc2a40b3fd55d73f8207c1ad6f", "type": "electric_scooter", "is_reserved": 0, "lon": -77.02410683333333}, {"fusion_lat": 0.0, "name": "128795907783bd1d49f88f29ebb0acc6", "is_disabled": 0, "rental_uris": {"android": "https://dc.lft.to/lastmile_qr_scan", "ios": "https://dc.lft.to/lastmile_qr_scan"}, "fusion_lon": 0.0, "lat": 38.912632333333335, "bike_id": "128795907783bd1d49f88f29ebb0acc6", "type": "electric_scooter", "is_reserved": 0, "lon": -77.03762183333333}, {"fusion_lat": 0.0, "name": "6796aa0945417c27ca97ce44f8ec7c59", "is_disabled": 0, "rental_uris": {"android": "https://dc.lft.to/lastmile_qr_scan", "ios": "https://dc.lft.to/lastmile_qr_scan"}, "fusion_lon": 0.0, "lat": 38.9213925, "bike_id": "6796aa0945417c27ca97ce44f8ec7c59", "type": "electric_scooter", "is_reserved": 0, "lon": -77.0040175}, {"fusion_lat": 0.0, "name": "933c8e6e8cb9fdc1ee58e79f8ab1a8cb", "is_disabled": 0, "rental_uris": {"android": "https://dc.lft.to/lastmile_qr_scan", "ios": "https://dc.lft.to/lastmile_qr_scan"}, "fusion_lon": 0.0, "lat": 38.91633566666667, "bike_id": "933c8e6e8cb9fdc1ee58e79f8ab1a8cb", "type": "electric_scooter", "is_reserved": 0, "lon": -77.00392116666667}, {"fusion_lat": 0.0, "name": "f8e109815d23b5791b0c0f17efcf5633", "is_disabled": 0, "rental_uris": {"android": "https://dc.lft.to/lastmile_qr_scan", "ios": "https://dc.lft.to/lastmile_qr_scan"}, "fusion_lon": 0.0, "lat": 38.86514916666667, "bike_id": "f8e109815d23b5791b0c0f17efcf5633", "type": "electric_scooter", "is_reserved": 0, "lon": -76.9734475}, {"fusion_lat": 0.0, "name": "5b959d0a2a7b8ade721817a0222d606d", "is_disabled": 0, "rental_uris": {"android": "https://dc.lft.to/lastmile_qr_scan", "ios": "https://dc.lft.to/lastmile_qr_scan"}, "fusion_lon": 0.0, "lat": 38.83931833333333, "bike_id": "5b959d0a2a7b8ade721817a0222d606d", "type": "electric_bike", "is_reserved": 0, "lon": -77.07902733333333}, {"fusion_lat": 0.0, "name": "1b92a0e74ae58ba44622c5f97d71daf1", "is_disabled": 0, "rental_uris": {"android": "https://dc.lft.to/lastmile_qr_scan", "ios": "https://dc.lft.to/lastmile_qr_scan"}, "fusion_lon": 0.0, "lat": 38.978844333333335, "bike_id": "1b92a0e74ae58ba44622c5f97d71daf1", "type": "electric_bike", "is_reserved": 0, "lon": -77.06029566666666}, {"fusion_lat": 0.0, "name": "b555a72c4dfa008d718dba86366d0b19", "is_disabled": 0, "rental_uris": {"android": "https://dc.lft.to/lastmile_qr_scan", "ios": "https://dc.lft.to/lastmile_qr_scan"}, "fusion_lon": 0.0, "lat": 38.89881, "bike_id": "b555a72c4dfa008d718dba86366d0b19", "type": "electric_bike", "is_reserved": 0, "lon": -77.11334616666667}, {"fusion_lat": 0.0, "name": "ccac8aff2547af175c3ca772be577804", "is_disabled": 0, "rental_uris": {"android": "https://dc.lft.to/lastmile_qr_scan", "ios": "https://dc.lft.to/lastmile_qr_scan"}, "fusion_lon": 0.0, "lat": 38.923914833333335, "bike_id": "ccac8aff2547af175c3ca772be577804", "type": "electric_scooter", "is_reserved": 0, "lon": -77.04119}, {"fusion_lat": 0.0, "name": "6cc320b3ad909140fa4c033bf4db95ec", "is_disabled": 0, "rental_uris": {"android": "https://dc.lft.to/lastmile_qr_scan", "ios": "https://dc.lft.to/lastmile_qr_scan"}, "fusion_lon": 0.0, "lat": 38.911114833333336, "bike_id": "6cc320b3ad909140fa4c033bf4db95ec", "type": "electric_scooter", "is_reserved": 0, "lon": -77.02102066666667}, {"fusion_lat": 0.0, "name": "1578748baa1cc5ebf5d61fecce0a6f72", "is_disabled": 0, "rental_uris": {"android": "https://dc.lft.to/lastmile_qr_scan", "ios": "https://dc.lft.to/lastmile_qr_scan"}, "fusion_lon": 0.0, "lat": 38.87377083333333, "bike_id": "1578748baa1cc5ebf5d61fecce0a6f72", "type": "electric_bike", "is_reserved": 0, "lon": -77.1180265}, {"fusion_lat": 0.0, "name": "a4b22ddff73ce1cdb08bd6ab2d026ea9", "is_disabled": 0, "rental_uris": {"android": "https://dc.lft.to/lastmile_qr_scan", "ios": "https://dc.lft.to/lastmile_qr_scan"}, "fusion_lon": 0.0, "lat": 38.95700316666667, "bike_id": "a4b22ddff73ce1cdb08bd6ab2d026ea9", "type": "electric_bike", "is_reserved": 0, "lon": -77.01961416666667}, {"fusion_lat": 0.0, "name": "aaccedbe99a8f15995014eba31c49632", "is_disabled": 0, "rental_uris": {"android": "https://dc.lft.to/lastmile_qr_scan", "ios": "https://dc.lft.to/lastmile_qr_scan"}, "fusion_lon": 0.0, "lat": 39.014167666666665, "bike_id": "aaccedbe99a8f15995014eba31c49632", "type": "electric_bike", "is_reserved": 0, "lon": -77.0450005}, {"fusion_lat": 0.0, "name": "3c5ecc8d3f48e46a00c4a8fb493fcf3e", "is_disabled": 0, "rental_uris": {"android": "https://dc.lft.to/lastmile_qr_scan", "ios": "https://dc.lft.to/lastmile_qr_scan"}, "fusion_lon": 0.0, "lat": 38.882043, "bike_id": "3c5ecc8d3f48e46a00c4a8fb493fcf3e", "type": "electric_bike", "is_reserved": 0, "lon": -76.99266583333333}, {"fusion_lat": 0.0, "name": "45618776c6241ccbd533b06a57f82f1e", "is_disabled": 0, "rental_uris": {"android": "https://dc.lft.to/lastmile_qr_scan", "ios": "https://dc.lft.to/lastmile_qr_scan"}, "fusion_lon": 0.0, "lat": 38.87669283333334, "bike_id": "45618776c6241ccbd533b06a57f82f1e", "type": "electric_scooter", "is_reserved": 0, "lon": -77.01759433333334}, {"fusion_lat": 0.0, "name": "c46046981958b2ce1a4732e46da70104", "is_disabled": 0, "rental_uris": {"android": "https://dc.lft.to/lastmile_qr_scan", "ios": "https://dc.lft.to/lastmile_qr_scan"}, "fusion_lon": 0.0, "lat": 38.923626666666664, "bike_id": "c46046981958b2ce1a4732e46da70104", "type": "electric_scooter", "is_reserved": 0, "lon": -77.05031833333334}, {"fusion_lat": 0.0, "name": "880ec497098ea3ac1c644443c5bbc14d", "is_disabled": 0, "rental_uris": {"android": "https://dc.lft.to/lastmile_qr_scan", "ios": "https://dc.lft.to/lastmile_qr_scan"}, "fusion_lon": 0.0, "lat": 38.89222766666666, "bike_id": "880ec497098ea3ac1c644443c5bbc14d", "type": "electric_scooter", "is_reserved": 0, "lon": -77.048644}, {"fusion_lat": 0.0, "name": "0704dc6ed86331a510e643e26163feed", "is_disabled": 0, "rental_uris": {"android": "https://dc.lft.to/lastmile_qr_scan", "ios": "https://dc.lft.to/lastmile_qr_scan"}, "fusion_lon": 0.0, "lat": 38.913328, "bike_id": "0704dc6ed86331a510e643e26163feed", "type": "electric_scooter", "is_reserved": 0, "lon": -77.04284}, {"fusion_lat": 0.0, "name": "b22498b1866f4e7512be46c6150d5218", "is_disabled": 0, "rental_uris": {"android": "https://dc.lft.to/lastmile_qr_scan", "ios": "https://dc.lft.to/lastmile_qr_scan"}, "fusion_lon": 0.0, "lat": 38.941843666666664, "bike_id": "b22498b1866f4e7512be46c6150d5218", "type": "electric_scooter", "is_reserved": 0, "lon": -77.0306215}, {"fusion_lat": 0.0, "name": "cc420f3b60faa3ffe9feb22052ec98b4", "is_disabled": 0, "rental_uris": {"android": "https://dc.lft.to/lastmile_qr_scan", "ios": "https://dc.lft.to/lastmile_qr_scan"}, "fusion_lon": 0.0, "lat": 38.91183, "bike_id": "cc420f3b60faa3ffe9feb22052ec98b4", "type": "electric_scooter", "is_reserved": 0, "lon": -77.038738}, {"fusion_lat": 0.0, "name": "84ad1caad9346f11a5c0433ebd60bbb5", "is_disabled": 0, "rental_uris": {"android": "https://dc.lft.to/lastmile_qr_scan", "ios": "https://dc.lft.to/lastmile_qr_scan"}, "fusion_lon": 0.0, "lat": 38.928505333333334, "bike_id": "84ad1caad9346f11a5c0433ebd60bbb5", "type": "electric_scooter", "is_reserved": 0, "lon": -77.05427616666667}, {"fusion_lat": 0.0, "name": "72807fdde0537d99485db2bfe295e972", "is_disabled": 0, "rental_uris": {"android": "https://dc.lft.to/lastmile_qr_scan", "ios": "https://dc.lft.to/lastmile_qr_scan"}, "fusion_lon": 0.0, "lat": 38.905114166666664, "bike_id": "72807fdde0537d99485db2bfe295e972", "type": "electric_scooter", "is_reserved": 0, "lon": -77.06151716666666}, {"fusion_lat": 0.0, "name": "4c88a514f4807e58d43ad05f31dd1d17", "is_disabled": 0, "rental_uris": {"android": "https://dc.lft.to/lastmile_qr_scan", "ios": "https://dc.lft.to/lastmile_qr_scan"}, "fusion_lon": 0.0, "lat": 38.9003295, "bike_id": "4c88a514f4807e58d43ad05f31dd1d17", "type": "electric_scooter", "is_reserved": 0, "lon": -77.00218433333333}, {"fusion_lat": 0.0, "name": "23b85e45c43d099bae7b6421edecea2a", "is_disabled": 0, "rental_uris": {"android": "https://dc.lft.to/lastmile_qr_scan", "ios": "https://dc.lft.to/lastmile_qr_scan"}, "fusion_lon": 0.0, "lat": 38.90641433333333, "bike_id": "23b85e45c43d099bae7b6421edecea2a", "type": "electric_scooter", "is_reserved": 0, "lon": -77.04330033333333}, {"fusion_lat": 0.0, "name": "4d6ed504603149b6b1b5821f744cdf4f", "is_disabled": 0, "rental_uris": {"android": "https://dc.lft.to/lastmile_qr_scan", "ios": "https://dc.lft.to/lastmile_qr_scan"}, "fusion_lon": 0.0, "lat": 38.902404, "bike_id": "4d6ed504603149b6b1b5821f744cdf4f", "type": "electric_scooter", "is_reserved": 0, "lon": -77.05478083333334}, {"fusion_lat": 0.0, "name": "b5dedc8b02326f16b3e27c280a4f5055", "is_disabled": 0, "rental_uris": {"android": "https://dc.lft.to/lastmile_qr_scan", "ios": "https://dc.lft.to/lastmile_qr_scan"}, "fusion_lon": 0.0, "lat": 38.90757883333333, "bike_id": "b5dedc8b02326f16b3e27c280a4f5055", "type": "electric_scooter", "is_reserved": 0, "lon": -77.035843}, {"fusion_lat": 0.0, "name": "43832d9db9b59f416ae6f7d19207c6a5", "is_disabled": 0, "rental_uris": {"android": "https://dc.lft.to/lastmile_qr_scan", "ios": "https://dc.lft.to/lastmile_qr_scan"}, "fusion_lon": 0.0, "lat": 38.96619366666667, "bike_id": "43832d9db9b59f416ae6f7d19207c6a5", "type": "electric_bike", "is_reserved": 0, "lon": -77.03431616666667}, {"fusion_lat": 0.0, "name": "96f20720e0e03b8c46641269b5a9b30e", "is_disabled": 0, "rental_uris": {"android": "https://dc.lft.to/lastmile_qr_scan", "ios": "https://dc.lft.to/lastmile_qr_scan"}, "fusion_lon": 0.0, "lat": 38.905750833333336, "bike_id": "96f20720e0e03b8c46641269b5a9b30e", "type": "electric_scooter", "is_reserved": 0, "lon": -77.00821266666667}, {"fusion_lat": 0.0, "name": "ea72143b790e247c7ec26a8e23d7cfb9", "is_disabled": 0, "rental_uris": {"android": "https://dc.lft.to/lastmile_qr_scan", "ios": "https://dc.lft.to/lastmile_qr_scan"}, "fusion_lon": 0.0, "lat": 38.91405783333333, "bike_id": "ea72143b790e247c7ec26a8e23d7cfb9", "type": "electric_scooter", "is_reserved": 0, "lon": -77.04156333333333}, {"fusion_lat": 0.0, "name": "150be280e3c7fdf02ec8f412e283e5c3", "is_disabled": 0, "rental_uris": {"android": "https://dc.lft.to/lastmile_qr_scan", "ios": "https://dc.lft.to/lastmile_qr_scan"}, "fusion_lon": 0.0, "lat": 38.90199633333334, "bike_id": "150be280e3c7fdf02ec8f412e283e5c3", "type": "electric_scooter", "is_reserved": 0, "lon": -77.0238055}, {"fusion_lat": 0.0, "name": "079506da3e8da033ee29bb30c9720942", "is_disabled": 0, "rental_uris": {"android": "https://dc.lft.to/lastmile_qr_scan", "ios": "https://dc.lft.to/lastmile_qr_scan"}, "fusion_lon": 0.0, "lat": 38.93862416666666, "bike_id": "079506da3e8da033ee29bb30c9720942", "type": "electric_scooter", "is_reserved": 0, "lon": -77.03432433333333}, {"fusion_lat": 0.0, "name": "bbeb5b20801e80dfb9f3e8e0391e06c5", "is_disabled": 0, "rental_uris": {"android": "https://dc.lft.to/lastmile_qr_scan", "ios": "https://dc.lft.to/lastmile_qr_scan"}, "fusion_lon": 0.0, "lat": 38.899037166666666, "bike_id": "bbeb5b20801e80dfb9f3e8e0391e06c5", "type": "electric_scooter", "is_reserved": 0, "lon": -76.93345016666666}, {"fusion_lat": 0.0, "name": "0ef6e266d37bd1ff60006cf49a942b9d", "is_disabled": 0, "rental_uris": {"android": "https://dc.lft.to/lastmile_qr_scan", "ios": "https://dc.lft.to/lastmile_qr_scan"}, "fusion_lon": 0.0, "lat": 38.93414883333333, "bike_id": "0ef6e266d37bd1ff60006cf49a942b9d", "type": "electric_scooter", "is_reserved": 0, "lon": -77.0415695}, {"fusion_lat": 0.0, "name": "4dc82cd63ed94b90c4370d908b0d9398", "is_disabled": 0, "rental_uris": {"android": "https://dc.lft.to/lastmile_qr_scan", "ios": "https://dc.lft.to/lastmile_qr_scan"}, "fusion_lon": 0.0, "lat": 38.918290999999996, "bike_id": "4dc82cd63ed94b90c4370d908b0d9398", "type": "electric_scooter", "is_reserved": 0, "lon": -77.024438}, {"fusion_lat": 0.0, "name": "6c303cacb76eb1af68b69bf6d75420f9", "is_disabled": 0, "rental_uris": {"android": "https://dc.lft.to/lastmile_qr_scan", "ios": "https://dc.lft.to/lastmile_qr_scan"}, "fusion_lon": 0.0, "lat": 38.905581, "bike_id": "6c303cacb76eb1af68b69bf6d75420f9", "type": "electric_scooter", "is_reserved": 0, "lon": -77.046617}, {"fusion_lat": 0.0, "name": "8daaf04cce1532e4f88c43a55b03eec0", "is_disabled": 0, "rental_uris": {"android": "https://dc.lft.to/lastmile_qr_scan", "ios": "https://dc.lft.to/lastmile_qr_scan"}, "fusion_lon": 0.0, "lat": 38.927641333333334, "bike_id": "8daaf04cce1532e4f88c43a55b03eec0", "type": "electric_scooter", "is_reserved": 0, "lon": -77.02303316666666}, {"fusion_lat": 0.0, "name": "d8643c31173119213218fa9896861b30", "is_disabled": 0, "rental_uris": {"android": "https://dc.lft.to/lastmile_qr_scan", "ios": "https://dc.lft.to/lastmile_qr_scan"}, "fusion_lon": 0.0, "lat": 38.9141345, "bike_id": "d8643c31173119213218fa9896861b30", "type": "electric_scooter", "is_reserved": 0, "lon": -77.03936266666666}, {"fusion_lat": 0.0, "name": "bd412ecf4f20621d199f4882b70fb947", "is_disabled": 0, "rental_uris": {"android": "https://dc.lft.to/lastmile_qr_scan", "ios": "https://dc.lft.to/lastmile_qr_scan"}, "fusion_lon": 0.0, "lat": 38.842975833333334, "bike_id": "bd412ecf4f20621d199f4882b70fb947", "type": "electric_bike", "is_reserved": 0, "lon": -77.10867016666667}, {"fusion_lat": 0.0, "name": "46fdb76351010d0ef251327a3533357b", "is_disabled": 0, "rental_uris": {"android": "https://dc.lft.to/lastmile_qr_scan", "ios": "https://dc.lft.to/lastmile_qr_scan"}, "fusion_lon": 0.0, "lat": 38.9254105, "bike_id": "46fdb76351010d0ef251327a3533357b", "type": "electric_scooter", "is_reserved": 0, "lon": -77.033346}, {"fusion_lat": 0.0, "name": "6e27af4b23b1b20aea325fa48420c3ff", "is_disabled": 0, "rental_uris": {"android": "https://dc.lft.to/lastmile_qr_scan", "ios": "https://dc.lft.to/lastmile_qr_scan"}, "fusion_lon": 0.0, "lat": 38.8991115, "bike_id": "6e27af4b23b1b20aea325fa48420c3ff", "type": "electric_scooter", "is_reserved": 0, "lon": -76.9454925}, {"fusion_lat": 0.0, "name": "0b8123eaccfa6763c15aaeb91683159f", "is_disabled": 0, "rental_uris": {"android": "https://dc.lft.to/lastmile_qr_scan", "ios": "https://dc.lft.to/lastmile_qr_scan"}, "fusion_lon": 0.0, "lat": 38.896020666666665, "bike_id": "0b8123eaccfa6763c15aaeb91683159f", "type": "electric_scooter", "is_reserved": 0, "lon": -77.00945633333333}, {"fusion_lat": 0.0, "name": "e0d69fad8d7e101bc9f69cf910bcba52", "is_disabled": 0, "rental_uris": {"android": "https://dc.lft.to/lastmile_qr_scan", "ios": "https://dc.lft.to/lastmile_qr_scan"}, "fusion_lon": 0.0, "lat": 38.94404333333333, "bike_id": "e0d69fad8d7e101bc9f69cf910bcba52", "type": "electric_scooter", "is_reserved": 0, "lon": -77.03863216666667}, {"fusion_lat": 0.0, "name": "328dcfbc0139b0a899bc77d56679f49c", "is_disabled": 0, "rental_uris": {"android": "https://dc.lft.to/lastmile_qr_scan", "ios": "https://dc.lft.to/lastmile_qr_scan"}, "fusion_lon": 0.0, "lat": 38.94748333333333, "bike_id": "328dcfbc0139b0a899bc77d56679f49c", "type": "electric_scooter", "is_reserved": 0, "lon": -77.0161765}, {"fusion_lat": 0.0, "name": "d2e8086697361a84591e0e296c260d1c", "is_disabled": 0, "rental_uris": {"android": "https://dc.lft.to/lastmile_qr_scan", "ios": "https://dc.lft.to/lastmile_qr_scan"}, "fusion_lon": 0.0, "lat": 38.90437983333333, "bike_id": "d2e8086697361a84591e0e296c260d1c", "type": "electric_scooter", "is_reserved": 0, "lon": -77.06018533333334}, {"fusion_lat": 0.0, "name": "c6317bbe5e51ba8f0bd257e584a34167", "is_disabled": 0, "rental_uris": {"android": "https://dc.lft.to/lastmile_qr_scan", "ios": "https://dc.lft.to/lastmile_qr_scan"}, "fusion_lon": 0.0, "lat": 38.9296265, "bike_id": "c6317bbe5e51ba8f0bd257e584a34167", "type": "electric_scooter", "is_reserved": 0, "lon": -77.01978916666667}, {"fusion_lat": 0.0, "name": "f057c84e5d700f7578530626394e9973", "is_disabled": 0, "rental_uris": {"android": "https://dc.lft.to/lastmile_qr_scan", "ios": "https://dc.lft.to/lastmile_qr_scan"}, "fusion_lon": 0.0, "lat": 38.891946833333336, "bike_id": "f057c84e5d700f7578530626394e9973", "type": "electric_scooter", "is_reserved": 0, "lon": -77.03212466666666}, {"fusion_lat": 0.0, "name": "64d355c2045f7abb69c08f3dca514b15", "is_disabled": 0, "rental_uris": {"android": "https://dc.lft.to/lastmile_qr_scan", "ios": "https://dc.lft.to/lastmile_qr_scan"}, "fusion_lon": 0.0, "lat": 38.89217216666667, "bike_id": "64d355c2045f7abb69c08f3dca514b15", "type": "electric_scooter", "is_reserved": 0, "lon": -77.02409233333333}, {"fusion_lat": 0.0, "name": "424cdba2e54b92716dfbc6655f3c488d", "is_disabled": 0, "rental_uris": {"android": "https://dc.lft.to/lastmile_qr_scan", "ios": "https://dc.lft.to/lastmile_qr_scan"}, "fusion_lon": 0.0, "lat": 38.910876, "bike_id": "424cdba2e54b92716dfbc6655f3c488d", "type": "electric_scooter", "is_reserved": 0, "lon": -77.0650325}, {"fusion_lat": 0.0, "name": "fc928b8cb5949d534d072be3825d73ca", "is_disabled": 0, "rental_uris": {"android": "https://dc.lft.to/lastmile_qr_scan", "ios": "https://dc.lft.to/lastmile_qr_scan"}, "fusion_lon": 0.0, "lat": 38.82457933333333, "bike_id": "fc928b8cb5949d534d072be3825d73ca", "type": "electric_bike", "is_reserved": 0, "lon": -77.007915}, {"fusion_lat": 0.0, "name": "10e40e7e1b9a8f5f64644861616d4d4d", "is_disabled": 0, "rental_uris": {"android": "https://dc.lft.to/lastmile_qr_scan", "ios": "https://dc.lft.to/lastmile_qr_scan"}, "fusion_lon": 0.0, "lat": 38.880195666666665, "bike_id": "10e40e7e1b9a8f5f64644861616d4d4d", "type": "electric_scooter", "is_reserved": 0, "lon": -76.9311035}, {"fusion_lat": 0.0, "name": "53aefe11750f588c6e74b39572fb7f8f", "is_disabled": 0, "rental_uris": {"android": "https://dc.lft.to/lastmile_qr_scan", "ios": "https://dc.lft.to/lastmile_qr_scan"}, "fusion_lon": 0.0, "lat": 38.91403283333333, "bike_id": "53aefe11750f588c6e74b39572fb7f8f", "type": "electric_scooter", "is_reserved": 0, "lon": -77.00836733333334}, {"fusion_lat": 0.0, "name": "0bd42497bfc6907334252b3730e8dbdd", "is_disabled": 0, "rental_uris": {"android": "https://dc.lft.to/lastmile_qr_scan", "ios": "https://dc.lft.to/lastmile_qr_scan"}, "fusion_lon": 0.0, "lat": 38.907141, "bike_id": "0bd42497bfc6907334252b3730e8dbdd", "type": "electric_scooter", "is_reserved": 0, "lon": -77.03173833333334}, {"fusion_lat": 0.0, "name": "72a923bbfb05505b591a4a1e03697115", "is_disabled": 0, "rental_uris": {"android": "https://dc.lft.to/lastmile_qr_scan", "ios": "https://dc.lft.to/lastmile_qr_scan"}, "fusion_lon": 0.0, "lat": 38.91106816666667, "bike_id": "72a923bbfb05505b591a4a1e03697115", "type": "electric_scooter", "is_reserved": 0, "lon": -77.011515}, {"fusion_lat": 0.0, "name": "b7903635c76f5fe202a7415e30b9aee6", "is_disabled": 0, "rental_uris": {"android": "https://dc.lft.to/lastmile_qr_scan", "ios": "https://dc.lft.to/lastmile_qr_scan"}, "fusion_lon": 0.0, "lat": 38.89826033333333, "bike_id": "b7903635c76f5fe202a7415e30b9aee6", "type": "electric_scooter", "is_reserved": 0, "lon": -77.02985283333334}, {"fusion_lat": 0.0, "name": "b2dec4fd434aacf8dea01aceb6da566c", "is_disabled": 0, "rental_uris": {"android": "https://dc.lft.to/lastmile_qr_scan", "ios": "https://dc.lft.to/lastmile_qr_scan"}, "fusion_lon": 0.0, "lat": 38.918957166666665, "bike_id": "b2dec4fd434aacf8dea01aceb6da566c", "type": "electric_scooter", "is_reserved": 0, "lon": -77.03494883333333}, {"fusion_lat": 0.0, "name": "1aca3fb1d26c1a28852b4196839c263a", "is_disabled": 0, "rental_uris": {"android": "https://dc.lft.to/lastmile_qr_scan", "ios": "https://dc.lft.to/lastmile_qr_scan"}, "fusion_lon": 0.0, "lat": 38.902565333333335, "bike_id": "1aca3fb1d26c1a28852b4196839c263a", "type": "electric_scooter", "is_reserved": 0, "lon": -77.03373116666667}, {"fusion_lat": 0.0, "name": "3a2367f0c7e7f29bbde1a099dd2a75c9", "is_disabled": 0, "rental_uris": {"android": "https://dc.lft.to/lastmile_qr_scan", "ios": "https://dc.lft.to/lastmile_qr_scan"}, "fusion_lon": 0.0, "lat": 38.871765, "bike_id": "3a2367f0c7e7f29bbde1a099dd2a75c9", "type": "electric_scooter", "is_reserved": 0, "lon": -77.00920316666667}, {"fusion_lat": 0.0, "name": "b95799b249a5ba8e651ca826cd6eb663", "is_disabled": 0, "rental_uris": {"android": "https://dc.lft.to/lastmile_qr_scan", "ios": "https://dc.lft.to/lastmile_qr_scan"}, "fusion_lon": 0.0, "lat": 38.928707, "bike_id": "b95799b249a5ba8e651ca826cd6eb663", "type": "electric_scooter", "is_reserved": 0, "lon": -77.02733083333334}, {"fusion_lat": 0.0, "name": "ea81666c3e7341a9f1df0b6937c687ad", "is_disabled": 0, "rental_uris": {"android": "https://dc.lft.to/lastmile_qr_scan", "ios": "https://dc.lft.to/lastmile_qr_scan"}, "fusion_lon": 0.0, "lat": 38.9047315, "bike_id": "ea81666c3e7341a9f1df0b6937c687ad", "type": "electric_scooter", "is_reserved": 0, "lon": -77.05317316666667}, {"fusion_lat": 0.0, "name": "a7e1aa9e88475a534eecdd329539b49d", "is_disabled": 0, "rental_uris": {"android": "https://dc.lft.to/lastmile_qr_scan", "ios": "https://dc.lft.to/lastmile_qr_scan"}, "fusion_lon": 0.0, "lat": 38.88240316666667, "bike_id": "a7e1aa9e88475a534eecdd329539b49d", "type": "electric_scooter", "is_reserved": 0, "lon": -77.00357683333333}, {"fusion_lat": 0.0, "name": "8d515f2c28a4ad7a5abe5277a084914c", "is_disabled": 0, "rental_uris": {"android": "https://dc.lft.to/lastmile_qr_scan", "ios": "https://dc.lft.to/lastmile_qr_scan"}, "fusion_lon": 0.0, "lat": 38.8946865, "bike_id": "8d515f2c28a4ad7a5abe5277a084914c", "type": "electric_scooter", "is_reserved": 0, "lon": -77.01103133333334}, {"fusion_lat": 0.0, "name": "4035a3fe5479769ba97213f279a0e94b", "is_disabled": 0, "rental_uris": {"android": "https://dc.lft.to/lastmile_qr_scan", "ios": "https://dc.lft.to/lastmile_qr_scan"}, "fusion_lon": 0.0, "lat": 38.9221395, "bike_id": "4035a3fe5479769ba97213f279a0e94b", "type": "electric_scooter", "is_reserved": 0, "lon": -77.0201545}, {"fusion_lat": 0.0, "name": "0727c3464ee053fe504802c7f8c78cc0", "is_disabled": 0, "rental_uris": {"android": "https://dc.lft.to/lastmile_qr_scan", "ios": "https://dc.lft.to/lastmile_qr_scan"}, "fusion_lon": 0.0, "lat": 38.92074383333333, "bike_id": "0727c3464ee053fe504802c7f8c78cc0", "type": "electric_scooter", "is_reserved": 0, "lon": -77.02277283333333}, {"fusion_lat": 0.0, "name": "8fedb6cf7eaf696de15ad465c480d209", "is_disabled": 0, "rental_uris": {"android": "https://dc.lft.to/lastmile_qr_scan", "ios": "https://dc.lft.to/lastmile_qr_scan"}, "fusion_lon": 0.0, "lat": 38.88717533333333, "bike_id": "8fedb6cf7eaf696de15ad465c480d209", "type": "electric_scooter", "is_reserved": 0, "lon": -77.025807}, {"fusion_lat": 0.0, "name": "fe4b7ef1c07df367cf32f6f6f36e76c2", "is_disabled": 0, "rental_uris": {"android": "https://dc.lft.to/lastmile_qr_scan", "ios": "https://dc.lft.to/lastmile_qr_scan"}, "fusion_lon": 0.0, "lat": 38.8901835, "bike_id": "fe4b7ef1c07df367cf32f6f6f36e76c2", "type": "electric_scooter", "is_reserved": 0, "lon": -76.9373815}, {"fusion_lat": 0.0, "name": "68500618d566476d4debdad1b2bebe5d", "is_disabled": 0, "rental_uris": {"android": "https://dc.lft.to/lastmile_qr_scan", "ios": "https://dc.lft.to/lastmile_qr_scan"}, "fusion_lon": 0.0, "lat": 38.966786166666665, "bike_id": "68500618d566476d4debdad1b2bebe5d", "type": "electric_bike", "is_reserved": 0, "lon": -77.0216405}, {"fusion_lat": 0.0, "name": "9693e5a4d4e0e41ba2a8371edf4fd32f", "is_disabled": 0, "rental_uris": {"android": "https://dc.lft.to/lastmile_qr_scan", "ios": "https://dc.lft.to/lastmile_qr_scan"}, "fusion_lon": 0.0, "lat": 38.946282833333335, "bike_id": "9693e5a4d4e0e41ba2a8371edf4fd32f", "type": "electric_scooter", "is_reserved": 0, "lon": -77.01844966666667}, {"fusion_lat": 0.0, "name": "c0f831dc4722b4ef0ee2de9f2f9ef974", "is_disabled": 0, "rental_uris": {"android": "https://dc.lft.to/lastmile_qr_scan", "ios": "https://dc.lft.to/lastmile_qr_scan"}, "fusion_lon": 0.0, "lat": 38.900732166666664, "bike_id": "c0f831dc4722b4ef0ee2de9f2f9ef974", "type": "electric_scooter", "is_reserved": 0, "lon": -77.00219133333333}, {"fusion_lat": 0.0, "name": "ecfdceb5682ec885c469455b204f9f54", "is_disabled": 0, "rental_uris": {"android": "https://dc.lft.to/lastmile_qr_scan", "ios": "https://dc.lft.to/lastmile_qr_scan"}, "fusion_lon": 0.0, "lat": 38.917466833333336, "bike_id": "ecfdceb5682ec885c469455b204f9f54", "type": "electric_scooter", "is_reserved": 0, "lon": -77.045843}, {"fusion_lat": 0.0, "name": "64e0429f3f595b105b3f93b306aba44c", "is_disabled": 0, "rental_uris": {"android": "https://dc.lft.to/lastmile_qr_scan", "ios": "https://dc.lft.to/lastmile_qr_scan"}, "fusion_lon": 0.0, "lat": 38.907188, "bike_id": "64e0429f3f595b105b3f93b306aba44c", "type": "electric_scooter", "is_reserved": 0, "lon": -76.998253}, {"fusion_lat": 0.0, "name": "00e63bde69fa892e2c927bd8184f2b14", "is_disabled": 0, "rental_uris": {"android": "https://dc.lft.to/lastmile_qr_scan", "ios": "https://dc.lft.to/lastmile_qr_scan"}, "fusion_lon": 0.0, "lat": 38.921776, "bike_id": "00e63bde69fa892e2c927bd8184f2b14", "type": "electric_scooter", "is_reserved": 0, "lon": -77.07436416666667}, {"fusion_lat": 0.0, "name": "1063d7e77721a1e686a6982d2c31e66b", "is_disabled": 0, "rental_uris": {"android": "https://dc.lft.to/lastmile_qr_scan", "ios": "https://dc.lft.to/lastmile_qr_scan"}, "fusion_lon": 0.0, "lat": 38.912735, "bike_id": "1063d7e77721a1e686a6982d2c31e66b", "type": "electric_scooter", "is_reserved": 0, "lon": -77.0224245}, {"fusion_lat": 0.0, "name": "087fa0b17b11f31ef6de6dbb87585c56", "is_disabled": 0, "rental_uris": {"android": "https://dc.lft.to/lastmile_qr_scan", "ios": "https://dc.lft.to/lastmile_qr_scan"}, "fusion_lon": 0.0, "lat": 38.94118383333333, "bike_id": "087fa0b17b11f31ef6de6dbb87585c56", "type": "electric_bike", "is_reserved": 0, "lon": -76.9902935}, {"fusion_lat": 0.0, "name": "a5abacd0c38750cf757a0ad417d488ff", "is_disabled": 0, "rental_uris": {"android": "https://dc.lft.to/lastmile_qr_scan", "ios": "https://dc.lft.to/lastmile_qr_scan"}, "fusion_lon": 0.0, "lat": 38.922419833333336, "bike_id": "a5abacd0c38750cf757a0ad417d488ff", "type": "electric_scooter", "is_reserved": 0, "lon": -77.038862}, {"fusion_lat": 0.0, "name": "a38ee3413ad777e623f289a43939178e", "is_disabled": 0, "rental_uris": {"android": "https://dc.lft.to/lastmile_qr_scan", "ios": "https://dc.lft.to/lastmile_qr_scan"}, "fusion_lon": 0.0, "lat": 38.91625766666667, "bike_id": "a38ee3413ad777e623f289a43939178e", "type": "electric_scooter", "is_reserved": 0, "lon": -77.0214705}, {"fusion_lat": 0.0, "name": "a8e9157d8a83b9c249b61ccfeff9498b", "is_disabled": 0, "rental_uris": {"android": "https://dc.lft.to/lastmile_qr_scan", "ios": "https://dc.lft.to/lastmile_qr_scan"}, "fusion_lon": 0.0, "lat": 38.9040435, "bike_id": "a8e9157d8a83b9c249b61ccfeff9498b", "type": "electric_scooter", "is_reserved": 0, "lon": -77.03847866666666}, {"fusion_lat": 0.0, "name": "30e9cb9239e7bce4f30cbcd2dbef94b7", "is_disabled": 0, "rental_uris": {"android": "https://dc.lft.to/lastmile_qr_scan", "ios": "https://dc.lft.to/lastmile_qr_scan"}, "fusion_lon": 0.0, "lat": 38.949176333333334, "bike_id": "30e9cb9239e7bce4f30cbcd2dbef94b7", "type": "electric_bike", "is_reserved": 0, "lon": -77.00797483333334}, {"fusion_lat": 0.0, "name": "86375b337760ae491f77f996e8fd347e", "is_disabled": 0, "rental_uris": {"android": "https://dc.lft.to/lastmile_qr_scan", "ios": "https://dc.lft.to/lastmile_qr_scan"}, "fusion_lon": 0.0, "lat": 38.92685916666667, "bike_id": "86375b337760ae491f77f996e8fd347e", "type": "electric_scooter", "is_reserved": 0, "lon": -77.02976633333333}, {"fusion_lat": 0.0, "name": "d3efb657c27cbaad26df273323f9162f", "is_disabled": 0, "rental_uris": {"android": "https://dc.lft.to/lastmile_qr_scan", "ios": "https://dc.lft.to/lastmile_qr_scan"}, "fusion_lon": 0.0, "lat": 38.9341595, "bike_id": "d3efb657c27cbaad26df273323f9162f", "type": "electric_scooter", "is_reserved": 0, "lon": -76.9796425}, {"fusion_lat": 0.0, "name": "96479f6dd9524b4600078aad0a808f4c", "is_disabled": 0, "rental_uris": {"android": "https://dc.lft.to/lastmile_qr_scan", "ios": "https://dc.lft.to/lastmile_qr_scan"}, "fusion_lon": 0.0, "lat": 38.90466383333333, "bike_id": "96479f6dd9524b4600078aad0a808f4c", "type": "electric_scooter", "is_reserved": 0, "lon": -77.05325616666667}, {"fusion_lat": 0.0, "name": "71477ec3bb3e1ca04826d67070f28b8d", "is_disabled": 0, "rental_uris": {"android": "https://dc.lft.to/lastmile_qr_scan", "ios": "https://dc.lft.to/lastmile_qr_scan"}, "fusion_lon": 0.0, "lat": 38.92034366666667, "bike_id": "71477ec3bb3e1ca04826d67070f28b8d", "type": "electric_scooter", "is_reserved": 0, "lon": -77.031755}, {"fusion_lat": 0.0, "name": "1a555030a7ee3816bf5ad57f3eb715a7", "is_disabled": 0, "rental_uris": {"android": "https://dc.lft.to/lastmile_qr_scan", "ios": "https://dc.lft.to/lastmile_qr_scan"}, "fusion_lon": 0.0, "lat": 38.926123833333335, "bike_id": "1a555030a7ee3816bf5ad57f3eb715a7", "type": "electric_scooter", "is_reserved": 0, "lon": -77.039638}, {"fusion_lat": 0.0, "name": "54ddd85459310ab48d9d959ce1291b19", "is_disabled": 0, "rental_uris": {"android": "https://dc.lft.to/lastmile_qr_scan", "ios": "https://dc.lft.to/lastmile_qr_scan"}, "fusion_lon": 0.0, "lat": 38.909651333333336, "bike_id": "54ddd85459310ab48d9d959ce1291b19", "type": "electric_scooter", "is_reserved": 0, "lon": -77.03989083333333}, {"fusion_lat": 0.0, "name": "acff3bc7dfbfdcc80f632cc812e03be1", "is_disabled": 0, "rental_uris": {"android": "https://dc.lft.to/lastmile_qr_scan", "ios": "https://dc.lft.to/lastmile_qr_scan"}, "fusion_lon": 0.0, "lat": 38.9125945, "bike_id": "acff3bc7dfbfdcc80f632cc812e03be1", "type": "electric_scooter", "is_reserved": 0, "lon": -77.00668633333333}, {"fusion_lat": 0.0, "name": "601b249941c517a05e6a3b10557126e2", "is_disabled": 0, "rental_uris": {"android": "https://dc.lft.to/lastmile_qr_scan", "ios": "https://dc.lft.to/lastmile_qr_scan"}, "fusion_lon": 0.0, "lat": 38.84429266666667, "bike_id": "601b249941c517a05e6a3b10557126e2", "type": "electric_scooter", "is_reserved": 0, "lon": -76.9978475}, {"fusion_lat": 0.0, "name": "c0ff533b4d62c51172905934eb1e15ad", "is_disabled": 0, "rental_uris": {"android": "https://dc.lft.to/lastmile_qr_scan", "ios": "https://dc.lft.to/lastmile_qr_scan"}, "fusion_lon": 0.0, "lat": 38.9208115, "bike_id": "c0ff533b4d62c51172905934eb1e15ad", "type": "electric_scooter", "is_reserved": 0, "lon": -77.02509416666666}, {"fusion_lat": 0.0, "name": "6c9aefcd549e777ad4cebf2c9aa856c1", "is_disabled": 0, "rental_uris": {"android": "https://dc.lft.to/lastmile_qr_scan", "ios": "https://dc.lft.to/lastmile_qr_scan"}, "fusion_lon": 0.0, "lat": 38.89529783333333, "bike_id": "6c9aefcd549e777ad4cebf2c9aa856c1", "type": "electric_scooter", "is_reserved": 0, "lon": -77.03052766666667}, {"fusion_lat": 0.0, "name": "0629e625e7fcd3d018641623e3f56c84", "is_disabled": 0, "rental_uris": {"android": "https://dc.lft.to/lastmile_qr_scan", "ios": "https://dc.lft.to/lastmile_qr_scan"}, "fusion_lon": 0.0, "lat": 38.877108666666665, "bike_id": "0629e625e7fcd3d018641623e3f56c84", "type": "electric_scooter", "is_reserved": 0, "lon": -77.01760583333333}, {"fusion_lat": 0.0, "name": "4b0fcca547a869eb5db2e0d9e790ba00", "is_disabled": 0, "rental_uris": {"android": "https://dc.lft.to/lastmile_qr_scan", "ios": "https://dc.lft.to/lastmile_qr_scan"}, "fusion_lon": 0.0, "lat": 38.900135166666665, "bike_id": "4b0fcca547a869eb5db2e0d9e790ba00", "type": "electric_bike", "is_reserved": 0, "lon": -76.99854933333333}, {"fusion_lat": 0.0, "name": "1d5037b8e75ee592026549085ec321f8", "is_disabled": 0, "rental_uris": {"android": "https://dc.lft.to/lastmile_qr_scan", "ios": "https://dc.lft.to/lastmile_qr_scan"}, "fusion_lon": 0.0, "lat": 38.88896166666667, "bike_id": "1d5037b8e75ee592026549085ec321f8", "type": "electric_bike", "is_reserved": 0, "lon": -77.11528333333334}, {"fusion_lat": 0.0, "name": "f9db24267db8fe083e209a5939b31612", "is_disabled": 0, "rental_uris": {"android": "https://dc.lft.to/lastmile_qr_scan", "ios": "https://dc.lft.to/lastmile_qr_scan"}, "fusion_lon": 0.0, "lat": 38.92769633333333, "bike_id": "f9db24267db8fe083e209a5939b31612", "type": "electric_scooter", "is_reserved": 0, "lon": -77.02302816666666}, {"fusion_lat": 0.0, "name": "94f27f69cd8e19acf168504514719503", "is_disabled": 0, "rental_uris": {"android": "https://dc.lft.to/lastmile_qr_scan", "ios": "https://dc.lft.to/lastmile_qr_scan"}, "fusion_lon": 0.0, "lat": 38.90036683333334, "bike_id": "94f27f69cd8e19acf168504514719503", "type": "electric_scooter", "is_reserved": 0, "lon": -77.011766}, {"fusion_lat": 0.0, "name": "41da69d08c36edeee35930def5bc5bf8", "is_disabled": 0, "rental_uris": {"android": "https://dc.lft.to/lastmile_qr_scan", "ios": "https://dc.lft.to/lastmile_qr_scan"}, "fusion_lon": 0.0, "lat": 38.83582916666667, "bike_id": "41da69d08c36edeee35930def5bc5bf8", "type": "electric_bike", "is_reserved": 0, "lon": -76.99010983333334}, {"fusion_lat": 0.0, "name": "8eb0e9585a26e5e7df4b8ab699e2b278", "is_disabled": 0, "rental_uris": {"android": "https://dc.lft.to/lastmile_qr_scan", "ios": "https://dc.lft.to/lastmile_qr_scan"}, "fusion_lon": 0.0, "lat": 38.898524333333334, "bike_id": "8eb0e9585a26e5e7df4b8ab699e2b278", "type": "electric_scooter", "is_reserved": 0, "lon": -76.98166583333334}, {"fusion_lat": 0.0, "name": "a318ea5cc5727e4dedf6f40199c8fd18", "is_disabled": 0, "rental_uris": {"android": "https://dc.lft.to/lastmile_qr_scan", "ios": "https://dc.lft.to/lastmile_qr_scan"}, "fusion_lon": 0.0, "lat": 38.932233833333335, "bike_id": "a318ea5cc5727e4dedf6f40199c8fd18", "type": "electric_scooter", "is_reserved": 0, "lon": -77.044118}, {"fusion_lat": 0.0, "name": "658b387ac608148b254ce1d040f2d30b", "is_disabled": 0, "rental_uris": {"android": "https://dc.lft.to/lastmile_qr_scan", "ios": "https://dc.lft.to/lastmile_qr_scan"}, "fusion_lon": 0.0, "lat": 38.930918, "bike_id": "658b387ac608148b254ce1d040f2d30b", "type": "electric_scooter", "is_reserved": 0, "lon": -77.03442583333333}, {"fusion_lat": 0.0, "name": "543bcb4fc442c6f2401ce5d64bc5d69b", "is_disabled": 0, "rental_uris": {"android": "https://dc.lft.to/lastmile_qr_scan", "ios": "https://dc.lft.to/lastmile_qr_scan"}, "fusion_lon": 0.0, "lat": 38.907747666666666, "bike_id": "543bcb4fc442c6f2401ce5d64bc5d69b", "type": "electric_scooter", "is_reserved": 0, "lon": -77.0384365}, {"fusion_lat": 0.0, "name": "971d07f4e5ef5daf7acf4c4f5a1e8f1a", "is_disabled": 0, "rental_uris": {"android": "https://dc.lft.to/lastmile_qr_scan", "ios": "https://dc.lft.to/lastmile_qr_scan"}, "fusion_lon": 0.0, "lat": 38.90973016666667, "bike_id": "971d07f4e5ef5daf7acf4c4f5a1e8f1a", "type": "electric_scooter", "is_reserved": 0, "lon": -77.03439066666667}, {"fusion_lat": 0.0, "name": "1cf049f918e5f070e3542f55781c80b0", "is_disabled": 0, "rental_uris": {"android": "https://dc.lft.to/lastmile_qr_scan", "ios": "https://dc.lft.to/lastmile_qr_scan"}, "fusion_lon": 0.0, "lat": 38.9097595, "bike_id": "1cf049f918e5f070e3542f55781c80b0", "type": "electric_scooter", "is_reserved": 0, "lon": -77.008924}, {"fusion_lat": 0.0, "name": "4c9464e502733f104627e1e3f8dc9f56", "is_disabled": 0, "rental_uris": {"android": "https://dc.lft.to/lastmile_qr_scan", "ios": "https://dc.lft.to/lastmile_qr_scan"}, "fusion_lon": 0.0, "lat": 38.9337185, "bike_id": "4c9464e502733f104627e1e3f8dc9f56", "type": "electric_scooter", "is_reserved": 0, "lon": -77.038846}, {"fusion_lat": 0.0, "name": "456265047c0a00d75b2b07cc9876199b", "is_disabled": 0, "rental_uris": {"android": "https://dc.lft.to/lastmile_qr_scan", "ios": "https://dc.lft.to/lastmile_qr_scan"}, "fusion_lon": 0.0, "lat": 38.90350866666667, "bike_id": "456265047c0a00d75b2b07cc9876199b", "type": "electric_scooter", "is_reserved": 0, "lon": -76.9725435}, {"fusion_lat": 0.0, "name": "80d6f957ee66fe099b1dcbd501eb7466", "is_disabled": 0, "rental_uris": {"android": "https://dc.lft.to/lastmile_qr_scan", "ios": "https://dc.lft.to/lastmile_qr_scan"}, "fusion_lon": 0.0, "lat": 38.93628533333333, "bike_id": "80d6f957ee66fe099b1dcbd501eb7466", "type": "electric_scooter", "is_reserved": 0, "lon": -77.03662833333334}, {"fusion_lat": 0.0, "name": "6a5f201feca6ebade47e5af26b988f06", "is_disabled": 0, "rental_uris": {"android": "https://dc.lft.to/lastmile_qr_scan", "ios": "https://dc.lft.to/lastmile_qr_scan"}, "fusion_lon": 0.0, "lat": 38.94135516666667, "bike_id": "6a5f201feca6ebade47e5af26b988f06", "type": "electric_scooter", "is_reserved": 0, "lon": -77.00609733333333}, {"fusion_lat": 0.0, "name": "97438874ad6ff46aa83cda6cbe130be3", "is_disabled": 0, "rental_uris": {"android": "https://dc.lft.to/lastmile_qr_scan", "ios": "https://dc.lft.to/lastmile_qr_scan"}, "fusion_lon": 0.0, "lat": 38.90554616666667, "bike_id": "97438874ad6ff46aa83cda6cbe130be3", "type": "electric_scooter", "is_reserved": 0, "lon": -77.034703}, {"fusion_lat": 0.0, "name": "2e4ec45e761446baefb826945cf5ebe3", "is_disabled": 0, "rental_uris": {"android": "https://dc.lft.to/lastmile_qr_scan", "ios": "https://dc.lft.to/lastmile_qr_scan"}, "fusion_lon": 0.0, "lat": 38.9035175, "bike_id": "2e4ec45e761446baefb826945cf5ebe3", "type": "electric_scooter", "is_reserved": 0, "lon": -77.03868883333334}, {"fusion_lat": 0.0, "name": "bf9348952af5186b77fd1461f1ea5450", "is_disabled": 0, "rental_uris": {"android": "https://dc.lft.to/lastmile_qr_scan", "ios": "https://dc.lft.to/lastmile_qr_scan"}, "fusion_lon": 0.0, "lat": 38.839364833333335, "bike_id": "bf9348952af5186b77fd1461f1ea5450", "type": "electric_bike", "is_reserved": 0, "lon": -77.07897183333333}, {"fusion_lat": 0.0, "name": "e97da0866230f9ddcd4468e867c16c67", "is_disabled": 0, "rental_uris": {"android": "https://dc.lft.to/lastmile_qr_scan", "ios": "https://dc.lft.to/lastmile_qr_scan"}, "fusion_lon": 0.0, "lat": 38.90690766666667, "bike_id": "e97da0866230f9ddcd4468e867c16c67", "type": "electric_scooter", "is_reserved": 0, "lon": -77.0153935}, {"fusion_lat": 0.0, "name": "b3572010529765f4ccda94d2eca822f1", "is_disabled": 0, "rental_uris": {"android": "https://dc.lft.to/lastmile_qr_scan", "ios": "https://dc.lft.to/lastmile_qr_scan"}, "fusion_lon": 0.0, "lat": 38.92599533333333, "bike_id": "b3572010529765f4ccda94d2eca822f1", "type": "electric_scooter", "is_reserved": 0, "lon": -77.02392533333334}, {"fusion_lat": 0.0, "name": "e4788e74d9859645bdd9e2873ec13f37", "is_disabled": 0, "rental_uris": {"android": "https://dc.lft.to/lastmile_qr_scan", "ios": "https://dc.lft.to/lastmile_qr_scan"}, "fusion_lon": 0.0, "lat": 38.9262105, "bike_id": "e4788e74d9859645bdd9e2873ec13f37", "type": "electric_scooter", "is_reserved": 0, "lon": -77.0419505}, {"fusion_lat": 0.0, "name": "042569db88874c15c00c913ed9638104", "is_disabled": 0, "rental_uris": {"android": "https://dc.lft.to/lastmile_qr_scan", "ios": "https://dc.lft.to/lastmile_qr_scan"}, "fusion_lon": 0.0, "lat": 38.95278783333333, "bike_id": "042569db88874c15c00c913ed9638104", "type": "electric_scooter", "is_reserved": 0, "lon": -77.06882083333333}, {"fusion_lat": 0.0, "name": "84b39838c5fe9e45d898d33336145349", "is_disabled": 0, "rental_uris": {"android": "https://dc.lft.to/lastmile_qr_scan", "ios": "https://dc.lft.to/lastmile_qr_scan"}, "fusion_lon": 0.0, "lat": 38.91603833333333, "bike_id": "84b39838c5fe9e45d898d33336145349", "type": "electric_scooter", "is_reserved": 0, "lon": -77.04344}, {"fusion_lat": 0.0, "name": "93282997f847f19590fb900d99528878", "is_disabled": 0, "rental_uris": {"android": "https://dc.lft.to/lastmile_qr_scan", "ios": "https://dc.lft.to/lastmile_qr_scan"}, "fusion_lon": 0.0, "lat": 38.916503166666665, "bike_id": "93282997f847f19590fb900d99528878", "type": "electric_bike", "is_reserved": 0, "lon": -76.98225516666666}, {"fusion_lat": 0.0, "name": "b39b624bd8a58de594e3558ae0bedb53", "is_disabled": 0, "rental_uris": {"android": "https://dc.lft.to/lastmile_qr_scan", "ios": "https://dc.lft.to/lastmile_qr_scan"}, "fusion_lon": 0.0, "lat": 38.94389866666667, "bike_id": "b39b624bd8a58de594e3558ae0bedb53", "type": "electric_scooter", "is_reserved": 0, "lon": -77.03208183333334}, {"fusion_lat": 0.0, "name": "74e88a3e0562094a78c5c82bb9bf59d8", "is_disabled": 0, "rental_uris": {"android": "https://dc.lft.to/lastmile_qr_scan", "ios": "https://dc.lft.to/lastmile_qr_scan"}, "fusion_lon": 0.0, "lat": 38.95087616666667, "bike_id": "74e88a3e0562094a78c5c82bb9bf59d8", "type": "electric_scooter", "is_reserved": 0, "lon": -77.02715266666667}, {"fusion_lat": 0.0, "name": "6285f149d7fb42955ca6135846f57f98", "is_disabled": 0, "rental_uris": {"android": "https://dc.lft.to/lastmile_qr_scan", "ios": "https://dc.lft.to/lastmile_qr_scan"}, "fusion_lon": 0.0, "lat": 38.91695716666667, "bike_id": "6285f149d7fb42955ca6135846f57f98", "type": "electric_scooter", "is_reserved": 0, "lon": -77.02596166666666}, {"fusion_lat": 0.0, "name": "e650588e0ee7af8d1dc677da8f6dd041", "is_disabled": 0, "rental_uris": {"android": "https://dc.lft.to/lastmile_qr_scan", "ios": "https://dc.lft.to/lastmile_qr_scan"}, "fusion_lon": 0.0, "lat": 38.95345716666667, "bike_id": "e650588e0ee7af8d1dc677da8f6dd041", "type": "electric_scooter", "is_reserved": 0, "lon": -77.079485}, {"fusion_lat": 0.0, "name": "e974dc73db8b4f74e8cbe51162b7ed19", "is_disabled": 0, "rental_uris": {"android": "https://dc.lft.to/lastmile_qr_scan", "ios": "https://dc.lft.to/lastmile_qr_scan"}, "fusion_lon": 0.0, "lat": 38.92377666666667, "bike_id": "e974dc73db8b4f74e8cbe51162b7ed19", "type": "electric_scooter", "is_reserved": 0, "lon": -77.051522}, {"fusion_lat": 0.0, "name": "5f8cf5cb35737a9c14a219c5f59b9194", "is_disabled": 0, "rental_uris": {"android": "https://dc.lft.to/lastmile_qr_scan", "ios": "https://dc.lft.to/lastmile_qr_scan"}, "fusion_lon": 0.0, "lat": 38.94518383333333, "bike_id": "5f8cf5cb35737a9c14a219c5f59b9194", "type": "electric_bike", "is_reserved": 0, "lon": -77.0067215}, {"fusion_lat": 0.0, "name": "9fee71d40896f8eab8a54791b33f533b", "is_disabled": 0, "rental_uris": {"android": "https://dc.lft.to/lastmile_qr_scan", "ios": "https://dc.lft.to/lastmile_qr_scan"}, "fusion_lon": 0.0, "lat": 38.885015333333335, "bike_id": "9fee71d40896f8eab8a54791b33f533b", "type": "electric_scooter", "is_reserved": 0, "lon": -77.01468983333334}, {"fusion_lat": 0.0, "name": "4f52b0b36c7cbd3361a2ce42cd8e3dca", "is_disabled": 0, "rental_uris": {"android": "https://dc.lft.to/lastmile_qr_scan", "ios": "https://dc.lft.to/lastmile_qr_scan"}, "fusion_lon": 0.0, "lat": 38.910075666666664, "bike_id": "4f52b0b36c7cbd3361a2ce42cd8e3dca", "type": "electric_scooter", "is_reserved": 0, "lon": -77.01617333333333}, {"fusion_lat": 0.0, "name": "d13c1f154011cba9c4025bb05e88bc4f", "is_disabled": 0, "rental_uris": {"android": "https://dc.lft.to/lastmile_qr_scan", "ios": "https://dc.lft.to/lastmile_qr_scan"}, "fusion_lon": 0.0, "lat": 38.90515883333333, "bike_id": "d13c1f154011cba9c4025bb05e88bc4f", "type": "electric_scooter", "is_reserved": 0, "lon": -77.0513215}, {"fusion_lat": 0.0, "name": "c8e8ee5c71ef3213726668d9b0a9b5fd", "is_disabled": 0, "rental_uris": {"android": "https://dc.lft.to/lastmile_qr_scan", "ios": "https://dc.lft.to/lastmile_qr_scan"}, "fusion_lon": 0.0, "lat": 38.92872833333333, "bike_id": "c8e8ee5c71ef3213726668d9b0a9b5fd", "type": "electric_scooter", "is_reserved": 0, "lon": -77.03299033333333}, {"fusion_lat": 0.0, "name": "c21090e9cd1d87bafb615bfd16a49a39", "is_disabled": 0, "rental_uris": {"android": "https://dc.lft.to/lastmile_qr_scan", "ios": "https://dc.lft.to/lastmile_qr_scan"}, "fusion_lon": 0.0, "lat": 38.91413466666667, "bike_id": "c21090e9cd1d87bafb615bfd16a49a39", "type": "electric_scooter", "is_reserved": 0, "lon": -77.02197716666667}, {"fusion_lat": 0.0, "name": "77432510ec48f78a0c4ed06b5a24c0c1", "is_disabled": 0, "rental_uris": {"android": "https://dc.lft.to/lastmile_qr_scan", "ios": "https://dc.lft.to/lastmile_qr_scan"}, "fusion_lon": 0.0, "lat": 38.87658066666667, "bike_id": "77432510ec48f78a0c4ed06b5a24c0c1", "type": "electric_scooter", "is_reserved": 0, "lon": -77.0006815}, {"fusion_lat": 0.0, "name": "59b9d6225d906a102e6e3929d2f5d4b6", "is_disabled": 0, "rental_uris": {"android": "https://dc.lft.to/lastmile_qr_scan", "ios": "https://dc.lft.to/lastmile_qr_scan"}, "fusion_lon": 0.0, "lat": 38.90472233333333, "bike_id": "59b9d6225d906a102e6e3929d2f5d4b6", "type": "electric_scooter", "is_reserved": 0, "lon": -77.05333183333333}, {"fusion_lat": 0.0, "name": "6a69d4f8fa02c27f190656f6c0bebcc0", "is_disabled": 0, "rental_uris": {"android": "https://dc.lft.to/lastmile_qr_scan", "ios": "https://dc.lft.to/lastmile_qr_scan"}, "fusion_lon": 0.0, "lat": 38.90110116666666, "bike_id": "6a69d4f8fa02c27f190656f6c0bebcc0", "type": "electric_scooter", "is_reserved": 0, "lon": -77.0589835}, {"fusion_lat": 0.0, "name": "94671dda50710b86ab4e11b1d6bb56ea", "is_disabled": 0, "rental_uris": {"android": "https://dc.lft.to/lastmile_qr_scan", "ios": "https://dc.lft.to/lastmile_qr_scan"}, "fusion_lon": 0.0, "lat": 38.9025055, "bike_id": "94671dda50710b86ab4e11b1d6bb56ea", "type": "electric_scooter", "is_reserved": 0, "lon": -77.017731}, {"fusion_lat": 0.0, "name": "4e34a602205dd47a5af684365228ba9d", "is_disabled": 0, "rental_uris": {"android": "https://dc.lft.to/lastmile_qr_scan", "ios": "https://dc.lft.to/lastmile_qr_scan"}, "fusion_lon": 0.0, "lat": 38.907126833333336, "bike_id": "4e34a602205dd47a5af684365228ba9d", "type": "electric_scooter", "is_reserved": 0, "lon": -77.040806}, {"fusion_lat": 0.0, "name": "834bcebc2d04a434c1f1d364ac3d905f", "is_disabled": 0, "rental_uris": {"android": "https://dc.lft.to/lastmile_qr_scan", "ios": "https://dc.lft.to/lastmile_qr_scan"}, "fusion_lon": 0.0, "lat": 38.89529316666667, "bike_id": "834bcebc2d04a434c1f1d364ac3d905f", "type": "electric_scooter", "is_reserved": 0, "lon": -76.93410866666666}, {"fusion_lat": 0.0, "name": "976d36b8eafd337188c7dc6256563aed", "is_disabled": 0, "rental_uris": {"android": "https://dc.lft.to/lastmile_qr_scan", "ios": "https://dc.lft.to/lastmile_qr_scan"}, "fusion_lon": 0.0, "lat": 38.90964833333334, "bike_id": "976d36b8eafd337188c7dc6256563aed", "type": "electric_scooter", "is_reserved": 0, "lon": -77.02313066666666}, {"fusion_lat": 0.0, "name": "b6e37428f86e275ad9ed4da1e8f58a1e", "is_disabled": 0, "rental_uris": {"android": "https://dc.lft.to/lastmile_qr_scan", "ios": "https://dc.lft.to/lastmile_qr_scan"}, "fusion_lon": 0.0, "lat": 38.92405316666667, "bike_id": "b6e37428f86e275ad9ed4da1e8f58a1e", "type": "electric_scooter", "is_reserved": 0, "lon": -77.02576916666666}, {"fusion_lat": 0.0, "name": "508a3fc2aad146d6c83ff75ad99155ef", "is_disabled": 0, "rental_uris": {"android": "https://dc.lft.to/lastmile_qr_scan", "ios": "https://dc.lft.to/lastmile_qr_scan"}, "fusion_lon": 0.0, "lat": 38.916590166666666, "bike_id": "508a3fc2aad146d6c83ff75ad99155ef", "type": "electric_bike", "is_reserved": 0, "lon": -77.04697516666667}, {"fusion_lat": 0.0, "name": "3e204aadfb305d4d6b1abdaadf80acd3", "is_disabled": 0, "rental_uris": {"android": "https://dc.lft.to/lastmile_qr_scan", "ios": "https://dc.lft.to/lastmile_qr_scan"}, "fusion_lon": 0.0, "lat": 38.90562833333333, "bike_id": "3e204aadfb305d4d6b1abdaadf80acd3", "type": "electric_scooter", "is_reserved": 0, "lon": -77.02985633333333}, {"fusion_lat": 0.0, "name": "8aa9d2b1e1b5becc4d0d54b650ed7ae8", "is_disabled": 0, "rental_uris": {"android": "https://dc.lft.to/lastmile_qr_scan", "ios": "https://dc.lft.to/lastmile_qr_scan"}, "fusion_lon": 0.0, "lat": 38.907599833333336, "bike_id": "8aa9d2b1e1b5becc4d0d54b650ed7ae8", "type": "electric_scooter", "is_reserved": 0, "lon": -77.03582516666667}, {"fusion_lat": 0.0, "name": "a18142bd0c89ac875f7c3bba8cd6af50", "is_disabled": 0, "rental_uris": {"android": "https://dc.lft.to/lastmile_qr_scan", "ios": "https://dc.lft.to/lastmile_qr_scan"}, "fusion_lon": 0.0, "lat": 38.912696333333336, "bike_id": "a18142bd0c89ac875f7c3bba8cd6af50", "type": "electric_scooter", "is_reserved": 0, "lon": -77.01933716666667}, {"fusion_lat": 0.0, "name": "414f2138c897c2d1f7982acd88c5eb33", "is_disabled": 0, "rental_uris": {"android": "https://dc.lft.to/lastmile_qr_scan", "ios": "https://dc.lft.to/lastmile_qr_scan"}, "fusion_lon": 0.0, "lat": 38.893055333333336, "bike_id": "414f2138c897c2d1f7982acd88c5eb33", "type": "electric_scooter", "is_reserved": 0, "lon": -77.025979}, {"fusion_lat": 0.0, "name": "ecefee41995cdf66107b2a737811e96c", "is_disabled": 0, "rental_uris": {"android": "https://dc.lft.to/lastmile_qr_scan", "ios": "https://dc.lft.to/lastmile_qr_scan"}, "fusion_lon": 0.0, "lat": 38.956261, "bike_id": "ecefee41995cdf66107b2a737811e96c", "type": "electric_bike", "is_reserved": 0, "lon": -76.93872433333334}, {"fusion_lat": 0.0, "name": "8965ed31f6c153a85ec526cbd1773dc8", "is_disabled": 0, "rental_uris": {"android": "https://dc.lft.to/lastmile_qr_scan", "ios": "https://dc.lft.to/lastmile_qr_scan"}, "fusion_lon": 0.0, "lat": 38.9249575, "bike_id": "8965ed31f6c153a85ec526cbd1773dc8", "type": "electric_scooter", "is_reserved": 0, "lon": -76.985413}, {"fusion_lat": 0.0, "name": "ddd7a34e29319ca2d8dc89f84dccd17b", "is_disabled": 0, "rental_uris": {"android": "https://dc.lft.to/lastmile_qr_scan", "ios": "https://dc.lft.to/lastmile_qr_scan"}, "fusion_lon": 0.0, "lat": 38.9071565, "bike_id": "ddd7a34e29319ca2d8dc89f84dccd17b", "type": "electric_scooter", "is_reserved": 0, "lon": -77.03448966666667}, {"fusion_lat": 0.0, "name": "39a79de9e20416a8f0513a5663385224", "is_disabled": 0, "rental_uris": {"android": "https://dc.lft.to/lastmile_qr_scan", "ios": "https://dc.lft.to/lastmile_qr_scan"}, "fusion_lon": 0.0, "lat": 38.8783385, "bike_id": "39a79de9e20416a8f0513a5663385224", "type": "electric_scooter", "is_reserved": 0, "lon": -76.96322116666667}, {"fusion_lat": 0.0, "name": "255be9bc9dbc9a6962719710722b7c29", "is_disabled": 0, "rental_uris": {"android": "https://dc.lft.to/lastmile_qr_scan", "ios": "https://dc.lft.to/lastmile_qr_scan"}, "fusion_lon": 0.0, "lat": 38.9209885, "bike_id": "255be9bc9dbc9a6962719710722b7c29", "type": "electric_scooter", "is_reserved": 0, "lon": -77.04692383333334}, {"fusion_lat": 0.0, "name": "c0fbf9fffb4630e516d6dde9f53a9a61", "is_disabled": 0, "rental_uris": {"android": "https://dc.lft.to/lastmile_qr_scan", "ios": "https://dc.lft.to/lastmile_qr_scan"}, "fusion_lon": 0.0, "lat": 38.925550666666666, "bike_id": "c0fbf9fffb4630e516d6dde9f53a9a61", "type": "electric_scooter", "is_reserved": 0, "lon": -77.07762133333334}, {"fusion_lat": 0.0, "name": "1dd1b65064a27b12d5670c287787f0e9", "is_disabled": 0, "rental_uris": {"android": "https://dc.lft.to/lastmile_qr_scan", "ios": "https://dc.lft.to/lastmile_qr_scan"}, "fusion_lon": 0.0, "lat": 38.92039166666667, "bike_id": "1dd1b65064a27b12d5670c287787f0e9", "type": "electric_scooter", "is_reserved": 0, "lon": -77.03392333333333}, {"fusion_lat": 0.0, "name": "9f87691e50489024346bb202b883182f", "is_disabled": 0, "rental_uris": {"android": "https://dc.lft.to/lastmile_qr_scan", "ios": "https://dc.lft.to/lastmile_qr_scan"}, "fusion_lon": 0.0, "lat": 38.9564185, "bike_id": "9f87691e50489024346bb202b883182f", "type": "electric_scooter", "is_reserved": 0, "lon": -77.024232}, {"fusion_lat": 0.0, "name": "e7b968db99d746c441ba25847b1cd310", "is_disabled": 0, "rental_uris": {"android": "https://dc.lft.to/lastmile_qr_scan", "ios": "https://dc.lft.to/lastmile_qr_scan"}, "fusion_lon": 0.0, "lat": 38.905519, "bike_id": "e7b968db99d746c441ba25847b1cd310", "type": "electric_scooter", "is_reserved": 0, "lon": -77.03466816666666}, {"fusion_lat": 0.0, "name": "843ed08754ad0685227179883cdfa3da", "is_disabled": 0, "rental_uris": {"android": "https://dc.lft.to/lastmile_qr_scan", "ios": "https://dc.lft.to/lastmile_qr_scan"}, "fusion_lon": 0.0, "lat": 38.91776, "bike_id": "843ed08754ad0685227179883cdfa3da", "type": "electric_scooter", "is_reserved": 0, "lon": -77.03573983333334}, {"fusion_lat": 0.0, "name": "e004aa502b5adee3c7fbb66e8a011e67", "is_disabled": 0, "rental_uris": {"android": "https://dc.lft.to/lastmile_qr_scan", "ios": "https://dc.lft.to/lastmile_qr_scan"}, "fusion_lon": 0.0, "lat": 38.9125435, "bike_id": "e004aa502b5adee3c7fbb66e8a011e67", "type": "electric_scooter", "is_reserved": 0, "lon": -77.01036766666667}, {"fusion_lat": 0.0, "name": "d7b886b281eb4da6464dea55af947a1f", "is_disabled": 0, "rental_uris": {"android": "https://dc.lft.to/lastmile_qr_scan", "ios": "https://dc.lft.to/lastmile_qr_scan"}, "fusion_lon": 0.0, "lat": 38.87367033333334, "bike_id": "d7b886b281eb4da6464dea55af947a1f", "type": "electric_scooter", "is_reserved": 0, "lon": -77.00035233333334}, {"fusion_lat": 0.0, "name": "376507c2369e1ce00cfb54dcf71ddc8a", "is_disabled": 0, "rental_uris": {"android": "https://dc.lft.to/lastmile_qr_scan", "ios": "https://dc.lft.to/lastmile_qr_scan"}, "fusion_lon": 0.0, "lat": 38.913077666666666, "bike_id": "376507c2369e1ce00cfb54dcf71ddc8a", "type": "electric_scooter", "is_reserved": 0, "lon": -77.04874216666667}, {"fusion_lat": 0.0, "name": "066c4d63050707e64e65e9795346a571", "is_disabled": 0, "rental_uris": {"android": "https://dc.lft.to/lastmile_qr_scan", "ios": "https://dc.lft.to/lastmile_qr_scan"}, "fusion_lon": 0.0, "lat": 38.819436, "bike_id": "066c4d63050707e64e65e9795346a571", "type": "electric_bike", "is_reserved": 0, "lon": -77.12720383333334}, {"fusion_lat": 0.0, "name": "a26d8f12cb0e6ecab5745bd1084c710d", "is_disabled": 0, "rental_uris": {"android": "https://dc.lft.to/lastmile_qr_scan", "ios": "https://dc.lft.to/lastmile_qr_scan"}, "fusion_lon": 0.0, "lat": 38.903447666666665, "bike_id": "a26d8f12cb0e6ecab5745bd1084c710d", "type": "electric_scooter", "is_reserved": 0, "lon": -77.04498066666666}, {"fusion_lat": 0.0, "name": "73e2ea6b423177802ce6a9eb4b671886", "is_disabled": 0, "rental_uris": {"android": "https://dc.lft.to/lastmile_qr_scan", "ios": "https://dc.lft.to/lastmile_qr_scan"}, "fusion_lon": 0.0, "lat": 38.915645166666664, "bike_id": "73e2ea6b423177802ce6a9eb4b671886", "type": "electric_scooter", "is_reserved": 0, "lon": -77.02234283333334}, {"fusion_lat": 0.0, "name": "0d499ff1b2802d9d19708352e48948aa", "is_disabled": 0, "rental_uris": {"android": "https://dc.lft.to/lastmile_qr_scan", "ios": "https://dc.lft.to/lastmile_qr_scan"}, "fusion_lon": 0.0, "lat": 38.906832333333334, "bike_id": "0d499ff1b2802d9d19708352e48948aa", "type": "electric_scooter", "is_reserved": 0, "lon": -77.041706}, {"fusion_lat": 0.0, "name": "cc3fd492d84cddb39e2b02f763f42f0f", "is_disabled": 0, "rental_uris": {"android": "https://dc.lft.to/lastmile_qr_scan", "ios": "https://dc.lft.to/lastmile_qr_scan"}, "fusion_lon": 0.0, "lat": 38.918128, "bike_id": "cc3fd492d84cddb39e2b02f763f42f0f", "type": "electric_scooter", "is_reserved": 0, "lon": -77.03138333333334}, {"fusion_lat": 0.0, "name": "5e3754773cd245c3ffd537536df74692", "is_disabled": 0, "rental_uris": {"android": "https://dc.lft.to/lastmile_qr_scan", "ios": "https://dc.lft.to/lastmile_qr_scan"}, "fusion_lon": 0.0, "lat": 38.9339845, "bike_id": "5e3754773cd245c3ffd537536df74692", "type": "electric_scooter", "is_reserved": 0, "lon": -77.03255466666667}, {"fusion_lat": 0.0, "name": "268840987bff3d3bfa099271e5144ce1", "is_disabled": 0, "rental_uris": {"android": "https://dc.lft.to/lastmile_qr_scan", "ios": "https://dc.lft.to/lastmile_qr_scan"}, "fusion_lon": 0.0, "lat": 38.887227333333335, "bike_id": "268840987bff3d3bfa099271e5144ce1", "type": "electric_scooter", "is_reserved": 0, "lon": -77.0258255}, {"fusion_lat": 0.0, "name": "535013d3d828f8b13da48df4be999917", "is_disabled": 0, "rental_uris": {"android": "https://dc.lft.to/lastmile_qr_scan", "ios": "https://dc.lft.to/lastmile_qr_scan"}, "fusion_lon": 0.0, "lat": 38.93868066666667, "bike_id": "535013d3d828f8b13da48df4be999917", "type": "electric_scooter", "is_reserved": 0, "lon": -77.03207616666667}, {"fusion_lat": 0.0, "name": "2040a2358a8571f131793fa2204f97de", "is_disabled": 0, "rental_uris": {"android": "https://dc.lft.to/lastmile_qr_scan", "ios": "https://dc.lft.to/lastmile_qr_scan"}, "fusion_lon": 0.0, "lat": 38.873667833333336, "bike_id": "2040a2358a8571f131793fa2204f97de", "type": "electric_scooter", "is_reserved": 0, "lon": -77.00044966666667}, {"fusion_lat": 0.0, "name": "570fa2e4447d6fc7d944dd9cb358bfef", "is_disabled": 0, "rental_uris": {"android": "https://dc.lft.to/lastmile_qr_scan", "ios": "https://dc.lft.to/lastmile_qr_scan"}, "fusion_lon": 0.0, "lat": 38.919104833333336, "bike_id": "570fa2e4447d6fc7d944dd9cb358bfef", "type": "electric_scooter", "is_reserved": 0, "lon": -77.02397033333334}, {"fusion_lat": 0.0, "name": "c58854ec779b630ad43aa267fbf50322", "is_disabled": 0, "rental_uris": {"android": "https://dc.lft.to/lastmile_qr_scan", "ios": "https://dc.lft.to/lastmile_qr_scan"}, "fusion_lon": 0.0, "lat": 38.9137855, "bike_id": "c58854ec779b630ad43aa267fbf50322", "type": "electric_scooter", "is_reserved": 0, "lon": -77.02001433333334}, {"fusion_lat": 0.0, "name": "8b584db744dfbe58bfb506dcdd57b4f2", "is_disabled": 0, "rental_uris": {"android": "https://dc.lft.to/lastmile_qr_scan", "ios": "https://dc.lft.to/lastmile_qr_scan"}, "fusion_lon": 0.0, "lat": 38.89771666666667, "bike_id": "8b584db744dfbe58bfb506dcdd57b4f2", "type": "electric_scooter", "is_reserved": 0, "lon": -76.9846395}, {"fusion_lat": 0.0, "name": "0a8d3024710102e8434e249f79356725", "is_disabled": 0, "rental_uris": {"android": "https://dc.lft.to/lastmile_qr_scan", "ios": "https://dc.lft.to/lastmile_qr_scan"}, "fusion_lon": 0.0, "lat": 39.0342985, "bike_id": "0a8d3024710102e8434e249f79356725", "type": "electric_bike", "is_reserved": 0, "lon": -77.04311116666666}, {"fusion_lat": 0.0, "name": "c3217738a3e292aa639b377796e66ef9", "is_disabled": 0, "rental_uris": {"android": "https://dc.lft.to/lastmile_qr_scan", "ios": "https://dc.lft.to/lastmile_qr_scan"}, "fusion_lon": 0.0, "lat": 38.910103, "bike_id": "c3217738a3e292aa639b377796e66ef9", "type": "electric_scooter", "is_reserved": 0, "lon": -77.03444616666667}, {"fusion_lat": 0.0, "name": "a58426db8a92136f25c50a7952501cde", "is_disabled": 0, "rental_uris": {"android": "https://dc.lft.to/lastmile_qr_scan", "ios": "https://dc.lft.to/lastmile_qr_scan"}, "fusion_lon": 0.0, "lat": 38.878376, "bike_id": "a58426db8a92136f25c50a7952501cde", "type": "electric_scooter", "is_reserved": 0, "lon": -76.99040233333334}, {"fusion_lat": 0.0, "name": "ebba0080b293328bb05a530898d95898", "is_disabled": 0, "rental_uris": {"android": "https://dc.lft.to/lastmile_qr_scan", "ios": "https://dc.lft.to/lastmile_qr_scan"}, "fusion_lon": 0.0, "lat": 38.93610416666667, "bike_id": "ebba0080b293328bb05a530898d95898", "type": "electric_scooter", "is_reserved": 0, "lon": -77.05862066666667}, {"fusion_lat": 0.0, "name": "2bb59a73c665d54cc40ec74d8a6f01c6", "is_disabled": 0, "rental_uris": {"android": "https://dc.lft.to/lastmile_qr_scan", "ios": "https://dc.lft.to/lastmile_qr_scan"}, "fusion_lon": 0.0, "lat": 38.89757566666667, "bike_id": "2bb59a73c665d54cc40ec74d8a6f01c6", "type": "electric_scooter", "is_reserved": 0, "lon": -77.02699766666667}, {"fusion_lat": 0.0, "name": "e87b10829b4a0fd88eb468bb8bc76eb1", "is_disabled": 0, "rental_uris": {"android": "https://dc.lft.to/lastmile_qr_scan", "ios": "https://dc.lft.to/lastmile_qr_scan"}, "fusion_lon": 0.0, "lat": 38.877407833333336, "bike_id": "e87b10829b4a0fd88eb468bb8bc76eb1", "type": "electric_scooter", "is_reserved": 0, "lon": -76.99663533333333}, {"fusion_lat": 0.0, "name": "7bde101bb694fcf3f9a1b22e037714d4", "is_disabled": 0, "rental_uris": {"android": "https://dc.lft.to/lastmile_qr_scan", "ios": "https://dc.lft.to/lastmile_qr_scan"}, "fusion_lon": 0.0, "lat": 38.8535855, "bike_id": "7bde101bb694fcf3f9a1b22e037714d4", "type": "electric_bike", "is_reserved": 0, "lon": -77.1150735},