{"data": {"bikes": [{"type": "electric_scooter", "name": "b701acd1b1308cb87cbe57d998f2462a", "rental_uris": {"ios": "https://dc.lft.to/lastmile_qr_scan", "android": "https://dc.lft.to/lastmile_qr_scan"}, "fusion_lon": 0.0, "lat": 38.92043266666667, "is_disabled": 0, "bike_id": "b701acd1b1308cb87cbe57d998f2462a", "fusion_lat": 0.0, "is_reserved": 0, "lon": -77.01682466666666}, {"type": "electric_scooter", "name": "46fa27706c32b53935e2b67d81d97886", "rental_uris": {"ios": "https://dc.lft.to/lastmile_qr_scan", "android": "https://dc.lft.to/lastmile_qr_scan"}, "fusion_lon": 0.0, "lat": 38.9163555, "is_disabled": 0, "bike_id": "46fa27706c32b53935e2b67d81d97886", "fusion_lat": 0.0, "is_reserved": 0, "lon": -77.04786916666667}, {"type": "electric_bike", "name": "f3a78ed38db406f73ad46b6fbe1d2524", "rental_uris": {"ios": "https://dc.lft.to/lastmile_qr_scan", "android": "https://dc.lft.to/lastmile_qr_scan"}, "fusion_lon": 0.0, "lat": 38.9612845, "is_disabled": 0, "bike_id": "f3a78ed38db406f73ad46b6fbe1d2524", "fusion_lat": 0.0, "is_reserved": 0, "lon": -77.0328165}, {"type": "electric_scooter", "name": "9d0f3a18c955ae9680909581f870e2ee", "rental_uris": {"ios": "https://dc.lft.to/lastmile_qr_scan", "android": "https://dc.lft.to/lastmile_qr_scan"}, "fusion_lon": 0.0, "lat": 38.88747566666667, "is_disabled": 0, "bike_id": "9d0f3a18c955ae9680909581f870e2ee", "fusion_lat": 0.0, "is_reserved": 0, "lon": -77.017279}, {"type": "electric_scooter", "name": "600fd46a62c5f87214bb0260e3da43dd", "rental_uris": {"ios": "https://dc.lft.to/lastmile_qr_scan", "android": "https://dc.lft.to/lastmile_qr_scan"}, "fusion_lon": 0.0, "lat": 38.9212325, "is_disabled": 0, "bike_id": "600fd46a62c5f87214bb0260e3da43dd", "fusion_lat": 0.0, "is_reserved": 0, "lon": -77.04392366666667}, {"type": "electric_scooter", "name": "35889bf9439b91da1ee330e66cb699a2", "rental_uris": {"ios": "https://dc.lft.to/lastmile_qr_scan", "android": "https://dc.lft.to/lastmile_qr_scan"}, "fusion_lon": 0.0, "lat": 38.884658333333334, "is_disabled": 0, "bike_id": "35889bf9439b91da1ee330e66cb699a2", "fusion_lat": 0.0, "is_reserved": 0, "lon": -76.94988866666667}, {"type": "electric_scooter", "name": "9c2170739e040805f91ec032c6334d99", "rental_uris": {"ios": "https://dc.lft.to/lastmile_qr_scan", "android": "https://dc.lft.to/lastmile_qr_scan"}, "fusion_lon": 0.0, "lat": 38.8968105, "is_disabled": 0, "bike_id": "9c2170739e040805f91ec032c6334d99", "fusion_lat": 0.0, "is_reserved": 0, "lon": -77.04666416666667}, {"type": "electric_scooter", "name": "7185606f2850e1ea48d593ab781abcfb", "rental_uris": {"ios": "https://dc.lft.to/lastmile_qr_scan", "android": "https://dc.lft.to/lastmile_qr_scan"}, "fusion_lon": 0.0, "lat": 38.883207, "is_disabled": 0, "bike_id": "7185606f2850e1ea48d593ab781abcfb", "fusion_lat": 0.0, "is_reserved": 0, "lon": -77.01759216666666}, {"type": "electric_scooter", "name": "00ce05812b79993518b8c908548d9c0a", "rental_uris": {"ios": "https://dc.lft.to/lastmile_qr_scan", "android": "https://dc.lft.to/lastmile_qr_scan"}, "fusion_lon": 0.0, "lat": 38.93673883333334, "is_disabled": 0, "bike_id": "00ce05812b79993518b8c908548d9c0a", "fusion_lat": 0.0, "is_reserved": 0, "lon": -77.03594783333334}, {"type": "electric_scooter", "name": "648e7861b9f17c7056b073e744603680", "rental_uris": {"ios": "https://dc.lft.to/lastmile_qr_scan", "android": "https://dc.lft.to/lastmile_qr_scan"}, "fusion_lon": 0.0, "lat": 38.9233945, "is_disabled": 0, "bike_id": "648e7861b9f17c7056b073e744603680", "fusion_lat": 0.0, "is_reserved": 0, "lon": -77.0004545}, {"type": "electric_scooter", "name": "b527fbc776c4176b2276ebac71d04c08", "rental_uris": {"ios": "https://dc.lft.to/lastmile_qr_scan", "android": "https://dc.lft.to/lastmile_qr_scan"}, "fusion_lon": 0.0, "lat": 38.902096, "is_disabled": 0, "bike_id": "b527fbc776c4176b2276ebac71d04c08", "fusion_lat": 0.0, "is_reserved": 0, "lon": -77.0456615}, {"type": "electric_bike", "name": "b3ba57ca05e77a222d54cef9102c71b3", "rental_uris": {"ios": "https://dc.lft.to/lastmile_qr_scan", "android": "https://dc.lft.to/lastmile_qr_scan"}, "fusion_lon": 0.0, "lat": 39.003851833333336, "is_disabled": 0, "bike_id": "b3ba57ca05e77a222d54cef9102c71b3", "fusion_lat": 0.0, "is_reserved": 0, "lon": -77.01288116666667}, {"type": "electric_scooter", "name": "d21f17c71a48b1936cdff03153a6cac7", "rental_uris": {"ios": "https://dc.lft.to/lastmile_qr_scan", "android": "https://dc.lft.to/lastmile_qr_scan"}, "fusion_lon": 0.0, "lat": 38.92369, "is_disabled": 0, "bike_id": "d21f17c71a48b1936cdff03153a6cac7", "fusion_lat": 0.0, "is_reserved": 0, "lon": -77.050293}, {"type": "electric_scooter", "name": "85b87a8245f3734fa0bda9a9d1501080", "rental_uris": {"ios": "https://dc.lft.to/lastmile_qr_scan", "android": "https://dc.lft.to/lastmile_qr_scan"}, "fusion_lon": 0.0, "lat": 38.90431316666667, "is_disabled": 0, "bike_id": "85b87a8245f3734fa0bda9a9d1501080", "fusion_lat": 0.0, "is_reserved": 0, "lon": -77.02882883333334}, {"type": "electric_scooter", "name": "64b83c5cf6f1773ff2a7d75428cabde9", "rental_uris": {"ios": "https://dc.lft.to/lastmile_qr_scan", "android": "https://dc.lft.to/lastmile_qr_scan"}, "fusion_lon": 0.0, "lat": 38.94498, "is_disabled": 0, "bike_id": "64b83c5cf6f1773ff2a7d75428cabde9", "fusion_lat": 0.0, "is_reserved": 0, "lon": -77.06393283333334}, {"type": "electric_bike", "name": "e0c57ddb579c724cad74673f65895afe", "rental_uris": {"ios": "https://dc.lft.to/lastmile_qr_scan", "android": "https://dc.lft.to/lastmile_qr_scan"}, "fusion_lon": 0.0, "lat": 39.01224666666667, "is_disabled": 0, "bike_id": "e0c57ddb579c724cad74673f65895afe", "fusion_lat": 0.0, "is_reserved": 0, "lon": -77.11080433333333}, {"type": "electric_scooter", "name": "f804a217888ee73ab0fef02c3ff7609c", "rental_uris": {"ios": "https://dc.lft.to/lastmile_qr_scan", "android": "https://dc.lft.to/lastmile_qr_scan"}, "fusion_lon": 0.0, "lat": 38.8847855, "is_disabled": 0, "bike_id": "f804a217888ee73ab0fef02c3ff7609c", "fusion_lat": 0.0, "is_reserved": 0, "lon": -77.015209}, {"type": "electric_scooter", "name": "01719b4e24ae8569260842c32162b5b6", "rental_uris": {"ios": "https://dc.lft.to/lastmile_qr_scan", "android": "https://dc.lft.to/lastmile_qr_scan"}, "fusion_lon": 0.0, "lat": 38.909251, "is_disabled": 0, "bike_id": "01719b4e24ae8569260842c32162b5b6", "fusion_lat": 0.0, "is_reserved": 0, "lon": -77.032153}, {"type": "electric_scooter", "name": "0e66f45570f54aee1b85091d3d24201c", "rental_uris": {"ios": "https://dc.lft.to/lastmile_qr_scan", "android": "https://dc.lft.to/lastmile_qr_scan"}, "fusion_lon": 0.0, "lat": 38.912828166666664, "is_disabled": 0, "bike_id": "0e66f45570f54aee1b85091d3d24201c", "fusion_lat": 0.0, "is_reserved": 0, "lon": -76.98463466666666}, {"type": "electric_scooter", "name": "aca0a98256eda29a7ce1439a81bb0694", "rental_uris": {"ios": "https://dc.lft.to/lastmile_qr_scan", "android": "https://dc.lft.to/lastmile_qr_scan"}, "fusion_lon": 0.0, "lat": 38.91690166666667, "is_disabled": 0, "bike_id": "aca0a98256eda29a7ce1439a81bb0694", "fusion_lat": 0.0, "is_reserved": 0, "lon": -77.02292216666666}, {"type": "electric_scooter", "name": "1de81d624a93afd4a5c8c4c8fea1a2b2", "rental_uris": {"ios": "https://dc.lft.to/lastmile_qr_scan", "android": "https://dc.lft.to/lastmile_qr_scan"}, "fusion_lon": 0.0, "lat": 38.9193315, "is_disabled": 0, "bike_id": "1de81d624a93afd4a5c8c4c8fea1a2b2", "fusion_lat": 0.0, "is_reserved": 0, "lon": -77.02065433333334}, {"type": "electric_scooter", "name": "437d3b63fd4bbf767f8af37195f3126e", "rental_uris": {"ios": "https://dc.lft.to/lastmile_qr_scan", "android": "https://dc.lft.to/lastmile_qr_scan"}, "fusion_lon": 0.0, "lat": 38.923708166666664, "is_disabled": 0, "bike_id": "437d3b63fd4bbf767f8af37195f3126e", "fusion_lat": 0.0, "is_reserved": 0, "lon": -77.01904883333333}, {"type": "electric_scooter", "name": "532875e10d1fcc140156bd91930df0fe", "rental_uris": {"ios": "https://dc.lft.to/lastmile_qr_scan", "android": "https://dc.lft.to/lastmile_qr_scan"}, "fusion_lon": 0.0, "lat": 38.884951, "is_disabled": 0, "bike_id": "532875e10d1fcc140156bd91930df0fe", "fusion_lat": 0.0, "is_reserved": 0, "lon": -77.010885}, {"type": "electric_scooter", "name": "9b25848865747c2c55ad526b61ff8234", "rental_uris": {"ios": "https://dc.lft.to/lastmile_qr_scan", "android": "https://dc.lft.to/lastmile_qr_scan"}, "fusion_lon": 0.0, "lat": 38.9036445, "is_disabled": 0, "bike_id": "9b25848865747c2c55ad526b61ff8234", "fusion_lat": 0.0, "is_reserved": 0, "lon": -77.00345516666667}, {"type": "electric_scooter", "name": "140221ccef46f3480df5c778ca5cb1e8", "rental_uris": {"ios": "https://dc.lft.to/lastmile_qr_scan", "android": "https://dc.lft.to/lastmile_qr_scan"}, "fusion_lon": 0.0, "lat": 38.89842683333333, "is_disabled": 0, "bike_id": "140221ccef46f3480df5c778ca5cb1e8", "fusion_lat": 0.0, "is_reserved": 0, "lon": -77.01338333333334}, {"type": "electric_scooter", "name": "62d8bf5382a195654e4a132862f5c3db", "rental_uris": {"ios": "https://dc.lft.to/lastmile_qr_scan", "android": "https://dc.lft.to/lastmile_qr_scan"}, "fusion_lon": 0.0, "lat": 38.92511616666667, "is_disabled": 0, "bike_id": "62d8bf5382a195654e4a132862f5c3db", "fusion_lat": 0.0, "is_reserved": 0, "lon": -77.02288383333334}, {"type": "electric_scooter", "name": "f27e8c1b717bc4ada38d282ed706e873", "rental_uris": {"ios": "https://dc.lft.to/lastmile_qr_scan", "android": "https://dc.lft.to/lastmile_qr_scan"}, "fusion_lon": 0.0, "lat": 38.920694833333336, "is_disabled": 0, "bike_id": "f27e8c1b717bc4ada38d282ed706e873", "fusion_lat": 0.0, "is_reserved": 0, "lon": -77.04218016666667}, {"type": "electric_bike", "name": "b236f4a48f1b32251788dd4e37340646", "rental_uris": {"ios": "https://dc.lft.to/lastmile_qr_scan", "android": "https://dc.lft.to/lastmile_qr_scan"}, "fusion_lon": 0.0, "lat": 38.952200833333336, "is_disabled": 0, "bike_id": "b236f4a48f1b32251788dd4e37340646", "fusion_lat": 0.0, "is_reserved": 0, "lon": -77.0697005}, {"type": "electric_scooter", "name": "d9f928133b0803deb029ecb8b0a3f9b9", "rental_uris": {"ios": "https://dc.lft.to/lastmile_qr_scan", "android": "https://dc.lft.to/lastmile_qr_scan"}, "fusion_lon": 0.0, "lat": 38.905785333333334, "is_disabled": 0, "bike_id": "d9f928133b0803deb029ecb8b0a3f9b9", "fusion_lat": 0.0, "is_reserved": 0, "lon": -77.04009566666667}, {"type": "electric_scooter", "name": "0981b17971b95020e9aa94acc0353490", "rental_uris": {"ios": "https://dc.lft.to/lastmile_qr_scan", "android": "https://dc.lft.to/lastmile_qr_scan"}, "fusion_lon": 0.0, "lat": 38.89530716666667, "is_disabled": 0, "bike_id": "0981b17971b95020e9aa94acc0353490", "fusion_lat": 0.0, "is_reserved": 0, "lon": -76.948935}, {"type": "electric_scooter", "name": "6f1f1b1be33e566a0bb9341ce1b94b0e", "rental_uris": {"ios": "https://dc.lft.to/lastmile_qr_scan", "android": "https://dc.lft.to/lastmile_qr_scan"}, "fusion_lon": 0.0, "lat": 38.9247735, "is_disabled": 0, "bike_id": "6f1f1b1be33e566a0bb9341ce1b94b0e", "fusion_lat": 0.0, "is_reserved": 0, "lon": -77.02204516666667}, {"type": "electric_scooter", "name": "b0b4b69b3c42b725bbb595e753a9bede", "rental_uris": {"ios": "https://dc.lft.to/lastmile_qr_scan", "android": "https://dc.lft.to/lastmile_qr_scan"}, "fusion_lon": 0.0, "lat": 38.9292455, "is_disabled": 0, "bike_id": "b0b4b69b3c42b725bbb595e753a9bede", "fusion_lat": 0.0, "is_reserved": 0, "lon": -77.02039366666666}, {"type": "electric_scooter", "name": "4477ae94ebc952116cce927cf6e52d30", "rental_uris": {"ios": "https://dc.lft.to/lastmile_qr_scan", "android": "https://dc.lft.to/lastmile_qr_scan"}, "fusion_lon": 0.0, "lat": 38.922526166666664, "is_disabled": 0, "bike_id": "4477ae94ebc952116cce927cf6e52d30", "fusion_lat": 0.0, "is_reserved": 0, "lon": -77.0300795}, {"type": "electric_scooter", "name": "c894def3c5f4104c5977cbdc20068ce7", "rental_uris": {"ios": "https://dc.lft.to/lastmile_qr_scan", "android": "https://dc.lft.to/lastmile_qr_scan"}, "fusion_lon": 0.0, "lat": 38.88434083333333, "is_disabled": 0, "bike_id": "c894def3c5f4104c5977cbdc20068ce7", "fusion_lat": 0.0, "is_reserved": 0, "lon": -76.95759033333333}, {"type": "electric_scooter", "name": "f6d04759e6d1522c1240e173e48fff37", "rental_uris": {"ios": "https://dc.lft.to/lastmile_qr_scan", "android": "https://dc.lft.to/lastmile_qr_scan"}, "fusion_lon": 0.0, "lat": 38.917125166666665, "is_disabled": 0, "bike_id": "f6d04759e6d1522c1240e173e48fff37", "fusion_lat": 0.0, "is_reserved": 0, "lon": -77.0317215}, {"type": "electric_scooter", "name": "ccf6516f95750216a65f02138a35d208", "rental_uris": {"ios": "https://dc.lft.to/lastmile_qr_scan", "android": "https://dc.lft.to/lastmile_qr_scan"}, "fusion_lon": 0.0, "lat": 38.906994833333336, "is_disabled": 0, "bike_id": "ccf6516f95750216a65f02138a35d208", "fusion_lat": 0.0, "is_reserved": 0, "lon": -77.05639983333333}, {"type": "electric_scooter", "name": "2b032472dc8dba67822a24333b6017b4", "rental_uris": {"ios": "https://dc.lft.to/lastmile_qr_scan", "android": "https://dc.lft.to/lastmile_qr_scan"}, "fusion_lon": 0.0, "lat": 38.921704, "is_disabled": 0, "bike_id": "2b032472dc8dba67822a24333b6017b4", "fusion_lat": 0.0, "is_reserved": 0, "lon": -77.033235}, {"type": "electric_scooter", "name": "84527b2d7cabccd6507de3b6cb1c2333", "rental_uris": {"ios": "https://dc.lft.to/lastmile_qr_scan", "android": "https://dc.lft.to/lastmile_qr_scan"}, "fusion_lon": 0.0, "lat": 38.86680833333333, "is_disabled": 0, "bike_id": "84527b2d7cabccd6507de3b6cb1c2333", "fusion_lat": 0.0, "is_reserved": 0, "lon": -76.98564116666667}, {"type": "electric_scooter", "name": "3c563f7471362c6cad2bbc3ac5029e70", "rental_uris": {"ios": "https://dc.lft.to/lastmile_qr_scan", "android": "https://dc.lft.to/lastmile_qr_scan"}, "fusion_lon": 0.0, "lat": 38.931983, "is_disabled": 0, "bike_id": "3c563f7471362c6cad2bbc3ac5029e70", "fusion_lat": 0.0, "is_reserved": 0, "lon": -77.02352716666667}, {"type": "electric_scooter", "name": "6ce1ad10d4e0dcc7eb37e5b7486ccff6", "rental_uris": {"ios": "https://dc.lft.to/lastmile_qr_scan", "android": "https://dc.lft.to/lastmile_qr_scan"}, "fusion_lon": 0.0, "lat": 38.89061483333333, "is_disabled": 0, "bike_id": "6ce1ad10d4e0dcc7eb37e5b7486ccff6", "fusion_lat": 0.0, "is_reserved": 0, "lon": -76.9445505}, {"type": "electric_scooter", "name": "35600398b1e4b6255c8e45756ea9ad77", "rental_uris": {"ios": "https://dc.lft.to/lastmile_qr_scan", "android": "https://dc.lft.to/lastmile_qr_scan"}, "fusion_lon": 0.0, "lat": 38.899954666666666, "is_disabled": 0, "bike_id": "35600398b1e4b6255c8e45756ea9ad77", "fusion_lat": 0.0, "is_reserved": 0, "lon": -77.0092685}, {"type": "electric_scooter", "name": "8d4d224ea492fafc825156bf8e03d204", "rental_uris": {"ios": "https://dc.lft.to/lastmile_qr_scan", "android": "https://dc.lft.to/lastmile_qr_scan"}, "fusion_lon": 0.0, "lat": 38.909586833333336, "is_disabled": 0, "bike_id": "8d4d224ea492fafc825156bf8e03d204", "fusion_lat": 0.0, "is_reserved": 0, "lon": -77.02277966666666}, {"type": "electric_scooter", "name": "09bcc43398f01dc4cb83d1824e920df1", "rental_uris": {"ios": "https://dc.lft.to/lastmile_qr_scan", "android": "https://dc.lft.to/lastmile_qr_scan"}, "fusion_lon": 0.0, "lat": 38.90253333333333, "is_disabled": 0, "bike_id": "09bcc43398f01dc4cb83d1824e920df1", "fusion_lat": 0.0, "is_reserved": 0, "lon": -77.03967416666667}, {"type": "electric_scooter", "name": "f46b51a0080b3b73e92ad2606ac38ef2", "rental_uris": {"ios": "https://dc.lft.to/lastmile_qr_scan", "android": "https://dc.lft.to/lastmile_qr_scan"}, "fusion_lon": 0.0, "lat": 38.90141216666667, "is_disabled": 0, "bike_id": "f46b51a0080b3b73e92ad2606ac38ef2", "fusion_lat": 0.0, "is_reserved": 0, "lon": -77.06074183333334}, {"type": "electric_scooter", "name": "baa6e4c6d522a94b672c128c28a0e338", "rental_uris": {"ios": "https://dc.lft.to/lastmile_qr_scan", "android": "https://dc.lft.to/lastmile_qr_scan"}, "fusion_lon": 0.0, "lat": 38.905591666666666, "is_disabled": 0, "bike_id": "baa6e4c6d522a94b672c128c28a0e338", "fusion_lat": 0.0, "is_reserved": 0, "lon": -77.00383216666667}, {"type": "electric_scooter", "name": "4cb35b3eec3a8f097342542cfe122b32", "rental_uris": {"ios": "https://dc.lft.to/lastmile_qr_scan", "android": "https://dc.lft.to/lastmile_qr_scan"}, "fusion_lon": 0.0, "lat": 38.91452683333333, "is_disabled": 0, "bike_id": "4cb35b3eec3a8f097342542cfe122b32", "fusion_lat": 0.0, "is_reserved": 0, "lon": -77.0461615}, {"type": "electric_scooter", "name": "251b7f2db6c4fc866309a90f4649ae3c", "rental_uris": {"ios": "https://dc.lft.to/lastmile_qr_scan", "android": "https://dc.lft.to/lastmile_qr_scan"}, "fusion_lon": 0.0, "lat": 38.90662783333333, "is_disabled": 0, "bike_id": "251b7f2db6c4fc866309a90f4649ae3c", "fusion_lat": 0.0, "is_reserved": 0, "lon": -77.07192133333334}, {"type": "electric_scooter", "name": "1010c8d21c9deb438390ae19524b3552", "rental_uris": {"ios": "https://dc.lft.to/lastmile_qr_scan", "android": "https://dc.lft.to/lastmile_qr_scan"}, "fusion_lon": 0.0, "lat": 38.878009666666664, "is_disabled": 0, "bike_id": "1010c8d21c9deb438390ae19524b3552", "fusion_lat": 0.0, "is_reserved": 0, "lon": -77.00117383333334}, {"type": "electric_scooter", "name": "6fdeb15f1afcdb437bc6ebb8419715e2", "rental_uris": {"ios": "https://dc.lft.to/lastmile_qr_scan", "android": "https://dc.lft.to/lastmile_qr_scan"}, "fusion_lon": 0.0, "lat": 38.90855366666667, "is_disabled": 0, "bike_id": "6fdeb15f1afcdb437bc6ebb8419715e2", "fusion_lat": 0.0, "is_reserved": 0, "lon": -76.99800183333333}, {"type": "electric_bike", "name": "948b3f894e46ea616ce21b4b637cff02", "rental_uris": {"ios": "https://dc.lft.to/lastmile_qr_scan", "android": "https://dc.lft.to/lastmile_qr_scan"}, "fusion_lon": 0.0, "lat": 38.956307333333335, "is_disabled": 0, "bike_id": "948b3f894e46ea616ce21b4b637cff02", "fusion_lat": 0.0, "is_reserved": 0, "lon": -77.02322133333334}, {"type": "electric_scooter", "name": "93a8d1b071caac2cd40965bb38589fcf", "rental_uris": {"ios": "https://dc.lft.to/lastmile_qr_scan", "android": "https://dc.lft.to/lastmile_qr_scan"}, "fusion_lon": 0.0, "lat": 38.8873945, "is_disabled": 0, "bike_id": "93a8d1b071caac2cd40965bb38589fcf", "fusion_lat": 0.0, "is_reserved": 0, "lon": -77.02126583333333}, {"type": "electric_scooter", "name": "3b5e2092d304b00ddee461c1649841f3", "rental_uris": {"ios": "https://dc.lft.to/lastmile_qr_scan", "android": "https://dc.lft.to/lastmile_qr_scan"}, "fusion_lon": 0.0, "lat": 38.917154333333336, "is_disabled": 0, "bike_id": "3b5e2092d304b00ddee461c1649841f3", "fusion_lat": 0.0, "is_reserved": 0, "lon": -77.008878}, {"type": "electric_scooter", "name": "fedc713abcc570795f5d64c334b0442d", "rental_uris": {"ios": "https://dc.lft.to/lastmile_qr_scan", "android": "https://dc.lft.to/lastmile_qr_scan"}, "fusion_lon": 0.0, "lat": 38.9207905, "is_disabled": 0, "bike_id": "fedc713abcc570795f5d64c334b0442d", "fusion_lat": 0.0, "is_reserved": 0, "lon": -77.0246765}, {"type": "electric_scooter", "name": "8ca4f30eb91f7282a645bcb6255c2e5b", "rental_uris": {"ios": "https://dc.lft.to/lastmile_qr_scan", "android": "https://dc.lft.to/lastmile_qr_scan"}, "fusion_lon": 0.0, "lat": 38.91923966666667, "is_disabled": 0, "bike_id": "8ca4f30eb91f7282a645bcb6255c2e5b", "fusion_lat": 0.0, "is_reserved": 0, "lon": -77.03174783333333}, {"type": "electric_bike", "name": "658c3bc2f92ac95c9bdeb2e23c842b39", "rental_uris": {"ios": "https://dc.lft.to/lastmile_qr_scan", "android": "https://dc.lft.to/lastmile_qr_scan"}, "fusion_lon": 0.0, "lat": 38.8840395, "is_disabled": 0, "bike_id": "658c3bc2f92ac95c9bdeb2e23c842b39", "fusion_lat": 0.0, "is_reserved": 0, "lon": -76.95422716666667}, {"type": "electric_scooter", "name": "32d7ce796d0d60fe193e4271959e0183", "rental_uris": {"ios": "https://dc.lft.to/lastmile_qr_scan", "android": "https://dc.lft.to/lastmile_qr_scan"}, "fusion_lon": 0.0, "lat": 38.905012, "is_disabled": 0, "bike_id": "32d7ce796d0d60fe193e4271959e0183", "fusion_lat": 0.0, "is_reserved": 0, "lon": -76.98137233333334}, {"type": "electric_scooter", "name": "413800c4570c58a5a4b562d5910266bb", "rental_uris": {"ios": "https://dc.lft.to/lastmile_qr_scan", "android": "https://dc.lft.to/lastmile_qr_scan"}, "fusion_lon": 0.0, "lat": 38.90976283333333, "is_disabled": 0, "bike_id": "413800c4570c58a5a4b562d5910266bb", "fusion_lat": 0.0, "is_reserved": 0, "lon": -77.03836883333334}, {"type": "electric_scooter", "name": "680a20bfbc383c4dee0bd6a791610469", "rental_uris": {"ios": "https://dc.lft.to/lastmile_qr_scan", "android": "https://dc.lft.to/lastmile_qr_scan"}, "fusion_lon": 0.0, "lat": 38.93189783333333, "is_disabled": 0, "bike_id": "680a20bfbc383c4dee0bd6a791610469", "fusion_lat": 0.0, "is_reserved": 0, "lon": -77.019887}, {"type": "electric_bike", "name": "accdf0bca73583899701e140a221a443", "rental_uris": {"ios": "https://dc.lft.to/lastmile_qr_scan", "android": "https://dc.lft.to/lastmile_qr_scan"}, "fusion_lon": 0.0, "lat": 38.945109333333335, "is_disabled": 0, "bike_id": "accdf0bca73583899701e140a221a443", "fusion_lat": 0.0, "is_reserved": 0, "lon": -77.0066955}, {"type": "electric_scooter", "name": "5cae7f091250bfc371b29fb5f4e21b6b", "rental_uris": {"ios": "https://dc.lft.to/lastmile_qr_scan", "android": "https://dc.lft.to/lastmile_qr_scan"}, "fusion_lon": 0.0, "lat": 38.900222, "is_disabled": 0, "bike_id": "5cae7f091250bfc371b29fb5f4e21b6b", "fusion_lat": 0.0, "is_reserved": 0, "lon": -76.97402766666667}, {"type": "electric_scooter", "name": "b19f5b72edccff7eb9214af541217461", "rental_uris": {"ios": "https://dc.lft.to/lastmile_qr_scan", "android": "https://dc.lft.to/lastmile_qr_scan"}, "fusion_lon": 0.0, "lat": 38.921753, "is_disabled": 0, "bike_id": "b19f5b72edccff7eb9214af541217461", "fusion_lat": 0.0, "is_reserved": 0, "lon": -77.03275916666666}, {"type": "electric_scooter", "name": "844fa37ff170a0ebe244cc1040b1dc66", "rental_uris": {"ios": "https://dc.lft.to/lastmile_qr_scan", "android": "https://dc.lft.to/lastmile_qr_scan"}, "fusion_lon": 0.0, "lat": 38.91336033333333, "is_disabled": 0, "bike_id": "844fa37ff170a0ebe244cc1040b1dc66", "fusion_lat": 0.0, "is_reserved": 0, "lon": -77.04861633333333}, {"type": "electric_scooter", "name": "1d8704360848293a3f194c644d4c6273", "rental_uris": {"ios": "https://dc.lft.to/lastmile_qr_scan", "android": "https://dc.lft.to/lastmile_qr_scan"}, "fusion_lon": 0.0, "lat": 38.92034433333333, "is_disabled": 0, "bike_id": "1d8704360848293a3f194c644d4c6273", "fusion_lat": 0.0, "is_reserved": 0, "lon": -77.01800133333333}, {"type": "electric_scooter", "name": "7f918b1d6fa1a49f6952ce6920afd58f", "rental_uris": {"ios": "https://dc.lft.to/lastmile_qr_scan", "android": "https://dc.lft.to/lastmile_qr_scan"}, "fusion_lon": 0.0, "lat": 38.92630883333333, "is_disabled": 0, "bike_id": "7f918b1d6fa1a49f6952ce6920afd58f", "fusion_lat": 0.0, "is_reserved": 0, "lon": -77.03922283333333}, {"type": "electric_scooter", "name": "df7b271b87296f2f39be241bf4f51a3a", "rental_uris": {"ios": "https://dc.lft.to/lastmile_qr_scan", "android": "https://dc.lft.to/lastmile_qr_scan"}, "fusion_lon": 0.0, "lat": 38.910512833333335, "is_disabled": 0, "bike_id": "df7b271b87296f2f39be241bf4f51a3a", "fusion_lat": 0.0, "is_reserved": 0, "lon": -77.021957}, {"type": "electric_scooter", "name": "1127dfb21f70352e91a9351d2fe1676f", "rental_uris": {"ios": "https://dc.lft.to/lastmile_qr_scan", "android": "https://dc.lft.to/lastmile_qr_scan"}, "fusion_lon": 0.0, "lat": 38.917071, "is_disabled": 0, "bike_id": "1127dfb21f70352e91a9351d2fe1676f", "fusion_lat": 0.0, "is_reserved": 0, "lon": -77.0417485}, {"type": "electric_scooter", "name": "7986fd3670fecbf5b42e1aad1cb2aa57", "rental_uris": {"ios": "https://dc.lft.to/lastmile_qr_scan", "android": "https://dc.lft.to/lastmile_qr_scan"}, "fusion_lon": 0.0, "lat": 38.90025716666667, "is_disabled": 0, "bike_id": "7986fd3670fecbf5b42e1aad1cb2aa57", "fusion_lat": 0.0, "is_reserved": 0, "lon": -76.987275}, {"type": "electric_scooter", "name": "48e4ec2a46e4ed1d70d1fb23acb13a72", "rental_uris": {"ios": "https://dc.lft.to/lastmile_qr_scan", "android": "https://dc.lft.to/lastmile_qr_scan"}, "fusion_lon": 0.0, "lat": 38.92947216666666, "is_disabled": 0, "bike_id": "48e4ec2a46e4ed1d70d1fb23acb13a72", "fusion_lat": 0.0, "is_reserved": 0, "lon": -77.01887916666666}, {"type": "electric_scooter", "name": "e26b688a1115e3a2ac4bf3bd4ca639c1", "rental_uris": {"ios": "https://dc.lft.to/lastmile_qr_scan", "android": "https://dc.lft.to/lastmile_qr_scan"}, "fusion_lon": 0.0, "lat": 38.91695516666667, "is_disabled": 0, "bike_id": "e26b688a1115e3a2ac4bf3bd4ca639c1", "fusion_lat": 0.0, "is_reserved": 0, "lon": -77.0410755}, {"type": "electric_scooter", "name": "5476c361768520c06a3d9adb83c34cb4", "rental_uris": {"ios": "https://dc.lft.to/lastmile_qr_scan", "android": "https://dc.lft.to/lastmile_qr_scan"}, "fusion_lon": 0.0, "lat": 38.90532616666667, "is_disabled": 0, "bike_id": "5476c361768520c06a3d9adb83c34cb4", "fusion_lat": 0.0, "is_reserved": 0, "lon": -77.04341016666666}, {"type": "electric_scooter", "name": "aaed8f8d7a5fe885336f952bc3c16d93", "rental_uris": {"ios": "https://dc.lft.to/lastmile_qr_scan", "android": "https://dc.lft.to/lastmile_qr_scan"}, "fusion_lon": 0.0, "lat": 38.900180666666664, "is_disabled": 0, "bike_id": "aaed8f8d7a5fe885336f952bc3c16d93", "fusion_lat": 0.0, "is_reserved": 0, "lon": -77.04034433333334}, {"type": "electric_bike", "name": "69fc610d782fec583936c7fa81476b76", "rental_uris": {"ios": "https://dc.lft.to/lastmile_qr_scan", "android": "https://dc.lft.to/lastmile_qr_scan"}, "fusion_lon": 0.0, "lat": 38.8577125, "is_disabled": 0, "bike_id": "69fc610d782fec583936c7fa81476b76", "fusion_lat": 0.0, "is_reserved": 0, "lon": -76.987705}, {"type": "electric_scooter", "name": "922b6bbb138ea18daa6e7263fc8fdc7d", "rental_uris": {"ios": "https://dc.lft.to/lastmile_qr_scan", "android": "https://dc.lft.to/lastmile_qr_scan"}, "fusion_lon": 0.0, "lat": 38.8922205, "is_disabled": 0, "bike_id": "922b6bbb138ea18daa6e7263fc8fdc7d", "fusion_lat": 0.0, "is_reserved": 0, "lon": -77.04197}, {"type": "electric_scooter", "name": "735fad408e28275a755291913d34150a", "rental_uris": {"ios": "https://dc.lft.to/lastmile_qr_scan", "android": "https://dc.lft.to/lastmile_qr_scan"}, "fusion_lon": 0.0, "lat": 38.92659716666667, "is_disabled": 0, "bike_id": "735fad408e28275a755291913d34150a", "fusion_lat": 0.0, "is_reserved": 0, "lon": -77.02306916666667}, {"type": "electric_scooter", "name": "7d8f546d93adfda8b675efe9723d4a18", "rental_uris": {"ios": "https://dc.lft.to/lastmile_qr_scan", "android": "https://dc.lft.to/lastmile_qr_scan"}, "fusion_lon": 0.0, "lat": 38.92471, "is_disabled": 0, "bike_id": "7d8f546d93adfda8b675efe9723d4a18", "fusion_lat": 0.0, "is_reserved": 0, "lon": -77.02205616666667}, {"type": "electric_scooter", "name": "29b6288722fc2bbc620a3d500c452caa", "rental_uris": {"ios": "https://dc.lft.to/lastmile_qr_scan", "android": "https://dc.lft.to/lastmile_qr_scan"}, "fusion_lon": 0.0, "lat": 38.910427166666665, "is_disabled": 0, "bike_id": "29b6288722fc2bbc620a3d500c452caa", "fusion_lat": 0.0, "is_reserved": 0, "lon": -77.01028966666667}, {"type": "electric_scooter", "name": "0df88e286f4fb9eb0e443dca9f06a638", "rental_uris": {"ios": "https://dc.lft.to/lastmile_qr_scan", "android": "https://dc.lft.to/lastmile_qr_scan"}, "fusion_lon": 0.0, "lat": 38.91242166666667, "is_disabled": 0, "bike_id": "0df88e286f4fb9eb0e443dca9f06a638", "fusion_lat": 0.0, "is_reserved": 0, "lon": -77.04877083333334}, {"type": "electric_scooter", "name": "35135039d59722e45389a059cd9b1fd2", "rental_uris": {"ios": "https://dc.lft.to/lastmile_qr_scan", "android": "https://dc.lft.to/lastmile_qr_scan"}, "fusion_lon": 0.0, "lat": 38.930795833333335, "is_disabled": 0, "bike_id": "35135039d59722e45389a059cd9b1fd2", "fusion_lat": 0.0, "is_reserved": 0, "lon": -77.028036}, {"type": "electric_scooter", "name": "10b60bf3fe16bac079f842452029a184", "rental_uris": {"ios": "https://dc.lft.to/lastmile_qr_scan", "android": "https://dc.lft.to/lastmile_qr_scan"}, "fusion_lon": 0.0, "lat": 38.9105785, "is_disabled": 0, "bike_id": "10b60bf3fe16bac079f842452029a184", "fusion_lat": 0.0, "is_reserved": 0, "lon": -77.0039055}, {"type": "electric_scooter", "name": "2f1b2dc844a2d211b40fd2eebc0f41fa", "rental_uris": {"ios": "https://dc.lft.to/lastmile_qr_scan", "android": "https://dc.lft.to/lastmile_qr_scan"}, "fusion_lon": 0.0, "lat": 38.921166666666664, "is_disabled": 0, "bike_id": "2f1b2dc844a2d211b40fd2eebc0f41fa", "fusion_lat": 0.0, "is_reserved": 0, "lon": -77.012138}, {"type": "electric_scooter", "name": "6a831179619f83e40b26138e0b7492a2", "rental_uris": {"ios": "https://dc.lft.to/lastmile_qr_scan", "android": "https://dc.lft.to/lastmile_qr_scan"}, "fusion_lon": 0.0, "lat": 38.905683333333336, "is_disabled": 0, "bike_id": "6a831179619f83e40b26138e0b7492a2", "fusion_lat": 0.0, "is_reserved": 0, "lon": -77.0241805}, {"type": "electric_bike", "name": "c1faf7053e444b9bce14a09581ce38e5", "rental_uris": {"ios": "https://dc.lft.to/lastmile_qr_scan", "android": "https://dc.lft.to/lastmile_qr_scan"}, "fusion_lon": 0.0, "lat": 38.95756866666667, "is_disabled": 0, "bike_id": "c1faf7053e444b9bce14a09581ce38e5", "fusion_lat": 0.0, "is_reserved": 0, "lon": -77.02051516666667}, {"type": "electric_scooter", "name": "a55f8a8cd3cb86f5e0ffb3ccacb42695", "rental_uris": {"ios": "https://dc.lft.to/lastmile_qr_scan", "android": "https://dc.lft.to/lastmile_qr_scan"}, "fusion_lon": 0.0, "lat": 38.94196083333333, "is_disabled": 0, "bike_id": "a55f8a8cd3cb86f5e0ffb3ccacb42695", "fusion_lat": 0.0, "is_reserved": 0, "lon": -77.0384}, {"type": "electric_scooter", "name": "4ae26a86b05a96291a4e91c1ac7d3a48", "rental_uris": {"ios": "https://dc.lft.to/lastmile_qr_scan", "android": "https://dc.lft.to/lastmile_qr_scan"}, "fusion_lon": 0.0, "lat": 38.8971455, "is_disabled": 0, "bike_id": "4ae26a86b05a96291a4e91c1ac7d3a48", "fusion_lat": 0.0, "is_reserved": 0, "lon": -77.00838583333334}, {"type": "electric_scooter", "name": "aa1bc23dba0f3f2260e64fe3beca60c4", "rental_uris": {"ios": "https://dc.lft.to/lastmile_qr_scan", "android": "https://dc.lft.to/lastmile_qr_scan"}, "fusion_lon": 0.0, "lat": 38.898898, "is_disabled": 0, "bike_id": "aa1bc23dba0f3f2260e64fe3beca60c4", "fusion_lat": 0.0, "is_reserved": 0, "lon": -77.05288933333334}, {"type": "electric_scooter", "name": "5688a2954f5ba7499f4c4c40694dd809", "rental_uris": {"ios": "https://dc.lft.to/lastmile_qr_scan", "android": "https://dc.lft.to/lastmile_qr_scan"}, "fusion_lon": 0.0, "lat": 38.896064833333334, "is_disabled": 0, "bike_id": "5688a2954f5ba7499f4c4c40694dd809", "fusion_lat": 0.0, "is_reserved": 0, "lon": -77.02125716666667}, {"type": "electric_scooter", "name": "932816cecaa556a1b8558563a28ac4b1", "rental_uris": {"ios": "https://dc.lft.to/lastmile_qr_scan", "android": "https://dc.lft.to/lastmile_qr_scan"}, "fusion_lon": 0.0, "lat": 38.91428966666667, "is_disabled": 0, "bike_id": "932816cecaa556a1b8558563a28ac4b1", "fusion_lat": 0.0, "is_reserved": 0, "lon": -77.032143}, {"type": "electric_scooter", "name": "de2fc5b5b24cb9bd13899111fad6be43", "rental_uris": {"ios": "https://dc.lft.to/lastmile_qr_scan", "android": "https://dc.lft.to/lastmile_qr_scan"}, "fusion_lon": 0.0, "lat": 38.90416783333333, "is_disabled": 0, "bike_id": "de2fc5b5b24cb9bd13899111fad6be43", "fusion_lat": 0.0, "is_reserved": 0, "lon": -76.9928695}, {"type": "electric_scooter", "name": "8a2c3fac4b67f9d6c6079de41d97b239", "rental_uris": {"ios": "https://dc.lft.to/lastmile_qr_scan", "android": "https://dc.lft.to/lastmile_qr_scan"}, "fusion_lon": 0.0, "lat": 38.92253483333333, "is_disabled": 0, "bike_id": "8a2c3fac4b67f9d6c6079de41d97b239", "fusion_lat": 0.0, "is_reserved": 0, "lon": -77.042539}, {"type": "electric_scooter", "name": "3b17b3cdb45c688954718f9abec7852c", "rental_uris": {"ios": "https://dc.lft.to/lastmile_qr_scan", "android": "https://dc.lft.to/lastmile_qr_scan"}, "fusion_lon": 0.0, "lat": 38.895444166666664, "is_disabled": 0, "bike_id": "3b17b3cdb45c688954718f9abec7852c", "fusion_lat": 0.0, "is_reserved": 0, "lon": -76.98208933333333}, {"type": "electric_scooter", "name": "879b2f7084e8e4e6b6c21358a9b14f1f", "rental_uris": {"ios": "https://dc.lft.to/lastmile_qr_scan", "android": "https://dc.lft.to/lastmile_qr_scan"}, "fusion_lon": 0.0, "lat": 38.90975266666667, "is_disabled": 0, "bike_id": "879b2f7084e8e4e6b6c21358a9b14f1f", "fusion_lat": 0.0, "is_reserved": 0, "lon": -77.03219266666666}, {"type": "electric_scooter", "name": "81256dd4bd457021a4893f8b9c8b0eb8", "rental_uris": {"ios": "https://dc.lft.to/lastmile_qr_scan", "android": "https://dc.lft.to/lastmile_qr_scan"}, "fusion_lon": 0.0, "lat": 38.914996, "is_disabled": 0, "bike_id": "81256dd4bd457021a4893f8b9c8b0eb8", "fusion_lat": 0.0, "is_reserved": 0, "lon": -77.02665883333333}, {"type": "electric_scooter", "name": "c644ea4f28fff95b02749feb14cd1464", "rental_uris": {"ios": "https://dc.lft.to/lastmile_qr_scan", "android": "https://dc.lft.to/lastmile_qr_scan"}, "fusion_lon": 0.0, "lat": 38.91747466666666, "is_disabled": 0, "bike_id": "c644ea4f28fff95b02749feb14cd1464", "fusion_lat": 0.0, "is_reserved": 0, "lon": -77.0145345}, {"type": "electric_scooter", "name": "98382459dfdfe2d82b9efbf0a8579809", "rental_uris": {"ios": "https://dc.lft.to/lastmile_qr_scan", "android": "https://dc.lft.to/lastmile_qr_scan"}, "fusion_lon": 0.0, "lat": 38.9182475, "is_disabled": 0, "bike_id": "98382459dfdfe2d82b9efbf0a8579809", "fusion_lat": 0.0, "is_reserved": 0, "lon": -77.01210433333334}, {"type": "electric_scooter", "name": "684afc6648b710a21241aca0eabf8f41", "rental_uris": {"ios": "https://dc.lft.to/lastmile_qr_scan", "android": "https://dc.lft.to/lastmile_qr_scan"}, "fusion_lon": 0.0, "lat": 38.9025805, "is_disabled": 0, "bike_id": "684afc6648b710a21241aca0eabf8f41", "fusion_lat": 0.0, "is_reserved": 0, "lon": -77.008882}, {"type": "electric_scooter", "name": "8ae6d370c59715f0cab9b54023756e29", "rental_uris": {"ios": "https://dc.lft.to/lastmile_qr_scan", "android": "https://dc.lft.to/lastmile_qr_scan"}, "fusion_lon": 0.0, "lat": 38.896170166666664, "is_disabled": 0, "bike_id": "8ae6d370c59715f0cab9b54023756e29", "fusion_lat": 0.0, "is_reserved": 0, "lon": -77.0449895}, {"type": "electric_scooter", "name": "53a945ace57984c76a33c36dd23fa17d", "rental_uris": {"ios": "https://dc.lft.to/lastmile_qr_scan", "android": "https://dc.lft.to/lastmile_qr_scan"}, "fusion_lon": 0.0, "lat": 38.910566, "is_disabled": 0, "bike_id": "53a945ace57984c76a33c36dd23fa17d", "fusion_lat": 0.0, "is_reserved": 0, "lon": -77.05293166666667}, {"type": "electric_scooter", "name": "000bf03ad69b90cdb2a2ea33cb09ac7d", "rental_uris": {"ios": "https://dc.lft.to/lastmile_qr_scan", "android": "https://dc.lft.to/lastmile_qr_scan"}, "fusion_lon": 0.0, "lat": 38.92118083333333, "is_disabled": 0, "bike_id": "000bf03ad69b90cdb2a2ea33cb09ac7d", "fusion_lat": 0.0, "is_reserved": 0, "lon": -77.04684783333333}, {"type": "electric_scooter", "name": "0ebf7db0fc590cd27c97e968ce8638ec", "rental_uris": {"ios": "https://dc.lft.to/lastmile_qr_scan", "android": "https://dc.lft.to/lastmile_qr_scan"}, "fusion_lon": 0.0, "lat": 38.89383566666667, "is_disabled": 0, "bike_id": "0ebf7db0fc590cd27c97e968ce8638ec", "fusion_lat": 0.0, "is_reserved": 0, "lon": -76.9230685}, {"type": "electric_scooter", "name": "846c1f7698f9ca92bac66b834ecca551", "rental_uris": {"ios": "https://dc.lft.to/lastmile_qr_scan", "android": "https://dc.lft.to/lastmile_qr_scan"}, "fusion_lon": 0.0, "lat": 38.93118966666667, "is_disabled": 0, "bike_id": "846c1f7698f9ca92bac66b834ecca551", "fusion_lat": 0.0, "is_reserved": 0, "lon": -77.029903}, {"type": "electric_scooter", "name": "6fc9f11ef618c1f78d6f169b1d67018c", "rental_uris": {"ios": "https://dc.lft.to/lastmile_qr_scan", "android": "https://dc.lft.to/lastmile_qr_scan"}, "fusion_lon": 0.0, "lat": 38.898588833333335, "is_disabled": 0, "bike_id": "6fc9f11ef618c1f78d6f169b1d67018c", "fusion_lat": 0.0, "is_reserved": 0, "lon": -76.94643866666667}, {"type": "electric_scooter", "name": "8424e02b255ff3936681fda45b812301", "rental_uris": {"ios": "https://dc.lft.to/lastmile_qr_scan", "android": "https://dc.lft.to/lastmile_qr_scan"}, "fusion_lon": 0.0, "lat": 38.86178266666667, "is_disabled": 0, "bike_id": "8424e02b255ff3936681fda45b812301", "fusion_lat": 0.0, "is_reserved": 0, "lon": -76.96913383333333}, {"type": "electric_bike", "name": "426e5829cc9c69dbb895a21fde6f28a9", "rental_uris": {"ios": "https://dc.lft.to/lastmile_qr_scan", "android": "https://dc.lft.to/lastmile_qr_scan"}, "fusion_lon": 0.0, "lat": 39.05632283333333, "is_disabled": 0, "bike_id": "426e5829cc9c69dbb895a21fde6f28a9", "fusion_lat": 0.0, "is_reserved": 0, "lon": -77.12529483333333}, {"type": "electric_scooter", "name": "61287a4fc69f3de8e7405f90bf3fde35", "rental_uris": {"ios": "https://dc.lft.to/lastmile_qr_scan", "android": "https://dc.lft.to/lastmile_qr_scan"}, "fusion_lon": 0.0, "lat": 38.936061333333335, "is_disabled": 0, "bike_id": "61287a4fc69f3de8e7405f90bf3fde35", "fusion_lat": 0.0, "is_reserved": 0, "lon": -77.05865}, {"type": "electric_scooter", "name": "25ebffbea52abeb8599317764516816f", "rental_uris": {"ios": "https://dc.lft.to/lastmile_qr_scan", "android": "https://dc.lft.to/lastmile_qr_scan"}, "fusion_lon": 0.0, "lat": 38.9086395, "is_disabled": 0, "bike_id": "25ebffbea52abeb8599317764516816f", "fusion_lat": 0.0, "is_reserved": 0, "lon": -76.99793116666666}, {"type": "electric_scooter", "name": "c473f464a3a1162c58b280e3fd3b50d8", "rental_uris": {"ios": "https://dc.lft.to/lastmile_qr_scan", "android": "https://dc.lft.to/lastmile_qr_scan"}, "fusion_lon": 0.0, "lat": 38.927374, "is_disabled": 0, "bike_id": "c473f464a3a1162c58b280e3fd3b50d8", "fusion_lat": 0.0, "is_reserved": 0, "lon": -77.02310066666666}, {"type": "electric_scooter", "name": "d16e54d3a03337b389ce3111de61230c", "rental_uris": {"ios": "https://dc.lft.to/lastmile_qr_scan", "android": "https://dc.lft.to/lastmile_qr_scan"}, "fusion_lon": 0.0, "lat": 38.91690366666667, "is_disabled": 0, "bike_id": "d16e54d3a03337b389ce3111de61230c", "fusion_lat": 0.0, "is_reserved": 0, "lon": -77.0311205}, {"type": "electric_scooter", "name": "0806dee566b64da0dc43501f30754f70", "rental_uris": {"ios": "https://dc.lft.to/lastmile_qr_scan", "android": "https://dc.lft.to/lastmile_qr_scan"}, "fusion_lon": 0.0, "lat": 38.89862733333333, "is_disabled": 0, "bike_id": "0806dee566b64da0dc43501f30754f70", "fusion_lat": 0.0, "is_reserved": 0, "lon": -77.02813483333334}, {"type": "electric_scooter", "name": "5f46ad70542871eecdbcfe65827b61dd", "rental_uris": {"ios": "https://dc.lft.to/lastmile_qr_scan", "android": "https://dc.lft.to/lastmile_qr_scan"}, "fusion_lon": 0.0, "lat": 38.9495555, "is_disabled": 0, "bike_id": "5f46ad70542871eecdbcfe65827b61dd", "fusion_lat": 0.0, "is_reserved": 0, "lon": -77.02312216666667}, {"type": "electric_scooter", "name": "0c8975cd3067b3e1240a698ab31e6a9d", "rental_uris": {"ios": "https://dc.lft.to/lastmile_qr_scan", "android": "https://dc.lft.to/lastmile_qr_scan"}, "fusion_lon": 0.0, "lat": 38.93382283333333, "is_disabled": 0, "bike_id": "0c8975cd3067b3e1240a698ab31e6a9d", "fusion_lat": 0.0, "is_reserved": 0, "lon": -77.02685633333333}, {"type": "electric_scooter", "name": "4f6d9bf184f6944505cfdc0c8606a36b", "rental_uris": {"ios": "https://dc.lft.to/lastmile_qr_scan", "android": "https://dc.lft.to/lastmile_qr_scan"}, "fusion_lon": 0.0, "lat": 38.924555833333336, "is_disabled": 0, "bike_id": "4f6d9bf184f6944505cfdc0c8606a36b", "fusion_lat": 0.0, "is_reserved": 0, "lon": -77.02155183333333}, {"type": "electric_scooter", "name": "1ebef70beed26884d74e60dfa44f0f07", "rental_uris": {"ios": "https://dc.lft.to/lastmile_qr_scan", "android": "https://dc.lft.to/lastmile_qr_scan"}, "fusion_lon": 0.0, "lat": 38.934303, "is_disabled": 0, "bike_id": "1ebef70beed26884d74e60dfa44f0f07", "fusion_lat": 0.0, "is_reserved": 0, "lon": -77.03469833333334}, {"type": "electric_scooter", "name": "2b530752f849de10e1e3f960a2546c75", "rental_uris": {"ios": "https://dc.lft.to/lastmile_qr_scan", "android": "https://dc.lft.to/lastmile_qr_scan"}, "fusion_lon": 0.0, "lat": 38.893465166666665, "is_disabled": 0, "bike_id": "2b530752f849de10e1e3f960a2546c75", "fusion_lat": 0.0, "is_reserved": 0, "lon": -77.0119545}, {"type": "electric_scooter", "name": "ebcc63d77e3c752995ddcfb97ff3fd10", "rental_uris": {"ios": "https://dc.lft.to/lastmile_qr_scan", "android": "https://dc.lft.to/lastmile_qr_scan"}, "fusion_lon": 0.0, "lat": 38.92367766666667, "is_disabled": 0, "bike_id": "ebcc63d77e3c752995ddcfb97ff3fd10", "fusion_lat": 0.0, "is_reserved": 0, "lon": -77.05025483333333}, {"type": "electric_scooter", "name": "50701ae4f95944073b65f975017d9cf1", "rental_uris": {"ios": "https://dc.lft.to/lastmile_qr_scan", "android": "https://dc.lft.to/lastmile_qr_scan"}, "fusion_lon": 0.0, "lat": 38.916962833333336, "is_disabled": 0, "bike_id": "50701ae4f95944073b65f975017d9cf1", "fusion_lat": 0.0, "is_reserved": 0, "lon": -77.03056816666667}, {"type": "electric_bike", "name": "2fed2bd980c1603734c7f2a857bcaf20", "rental_uris": {"ios": "https://dc.lft.to/lastmile_qr_scan", "android": "https://dc.lft.to/lastmile_qr_scan"}, "fusion_lon": 0.0, "lat": 38.948174, "is_disabled": 0, "bike_id": "2fed2bd980c1603734c7f2a857bcaf20", "fusion_lat": 0.0, "is_reserved": 0, "lon": -77.0298175}, {"type": "electric_scooter", "name": "6610ccd3f20a241b4a710264687cab82", "rental_uris": {"ios": "https://dc.lft.to/lastmile_qr_scan", "android": "https://dc.lft.to/lastmile_qr_scan"}, "fusion_lon": 0.0, "lat": 38.9191805, "is_disabled": 0, "bike_id": "6610ccd3f20a241b4a710264687cab82", "fusion_lat": 0.0, "is_reserved": 0, "lon": -77.04469}, {"type": "electric_scooter", "name": "603d55c1bf141d95cc22ad9ef59de3da", "rental_uris": {"ios": "https://dc.lft.to/lastmile_qr_scan", "android": "https://dc.lft.to/lastmile_qr_scan"}, "fusion_lon": 0.0, "lat": 38.899183, "is_disabled": 0, "bike_id": "603d55c1bf141d95cc22ad9ef59de3da", "fusion_lat": 0.0, "is_reserved": 0, "lon": -76.98539416666667}, {"type": "electric_scooter", "name": "cfe229eb3d586c5bcd0d6715ea5b0da7", "rental_uris": {"ios": "https://dc.lft.to/lastmile_qr_scan", "android": "https://dc.lft.to/lastmile_qr_scan"}, "fusion_lon": 0.0, "lat": 38.8970795, "is_disabled": 0, "bike_id": "cfe229eb3d586c5bcd0d6715ea5b0da7", "fusion_lat": 0.0, "is_reserved": 0, "lon": -77.0229355}, {"type": "electric_scooter", "name": "391093a2e943cc4568ace66cb834727b", "rental_uris": {"ios": "https://dc.lft.to/lastmile_qr_scan", "android": "https://dc.lft.to/lastmile_qr_scan"}, "fusion_lon": 0.0, "lat": 38.855815166666666, "is_disabled": 0, "bike_id": "391093a2e943cc4568ace66cb834727b", "fusion_lat": 0.0, "is_reserved": 0, "lon": -76.96650783333334}, {"type": "electric_scooter", "name": "3562b3827506710593830bcbf39908cb", "rental_uris": {"ios": "https://dc.lft.to/lastmile_qr_scan", "android": "https://dc.lft.to/lastmile_qr_scan"}, "fusion_lon": 0.0, "lat": 38.866788666666665, "is_disabled": 0, "bike_id": "3562b3827506710593830bcbf39908cb", "fusion_lat": 0.0, "is_reserved": 0, "lon": -76.985733}, {"type": "electric_scooter", "name": "af99b48119e6dda18dc96f83d9f418f1", "rental_uris": {"ios": "https://dc.lft.to/lastmile_qr_scan", "android": "https://dc.lft.to/lastmile_qr_scan"}, "fusion_lon": 0.0, "lat": 38.9143685, "is_disabled": 0, "bike_id": "af99b48119e6dda18dc96f83d9f418f1", "fusion_lat": 0.0, "is_reserved": 0, "lon": -77.02194033333333}, {"type": "electric_scooter", "name": "37e5fe4226aca2c0cfe0f56bdda119f4", "rental_uris": {"ios": "https://dc.lft.to/lastmile_qr_scan", "android": "https://dc.lft.to/lastmile_qr_scan"}, "fusion_lon": 0.0, "lat": 38.90082566666667, "is_disabled": 0, "bike_id": "37e5fe4226aca2c0cfe0f56bdda119f4", "fusion_lat": 0.0, "is_reserved": 0, "lon": -77.04777616666667}, {"type": "electric_scooter", "name": "564543d88ad1264797e2760fbcf32d30", "rental_uris": {"ios": "https://dc.lft.to/lastmile_qr_scan", "android": "https://dc.lft.to/lastmile_qr_scan"}, "fusion_lon": 0.0, "lat": 38.917699999999996, "is_disabled": 0, "bike_id": "564543d88ad1264797e2760fbcf32d30", "fusion_lat": 0.0, "is_reserved": 0, "lon": -77.02291266666667}, {"type": "electric_scooter", "name": "d3066e7b04f006ed68af2763c4e36b16", "rental_uris": {"ios": "https://dc.lft.to/lastmile_qr_scan", "android": "https://dc.lft.to/lastmile_qr_scan"}, "fusion_lon": 0.0, "lat": 38.903618, "is_disabled": 0, "bike_id": "d3066e7b04f006ed68af2763c4e36b16", "fusion_lat": 0.0, "is_reserved": 0, "lon": -77.01634066666666}, {"type": "electric_scooter", "name": "98c3ed7deb51492a3d30d2004c0eac87", "rental_uris": {"ios": "https://dc.lft.to/lastmile_qr_scan", "android": "https://dc.lft.to/lastmile_qr_scan"}, "fusion_lon": 0.0, "lat": 38.887404333333336, "is_disabled": 0, "bike_id": "98c3ed7deb51492a3d30d2004c0eac87", "fusion_lat": 0.0, "is_reserved": 0, "lon": -77.02583733333333}, {"type": "electric_scooter", "name": "be5c0fec33a9e19fe336f483bc8cdaad", "rental_uris": {"ios": "https://dc.lft.to/lastmile_qr_scan", "android": "https://dc.lft.to/lastmile_qr_scan"}, "fusion_lon": 0.0, "lat": 38.92162283333333, "is_disabled": 0, "bike_id": "be5c0fec33a9e19fe336f483bc8cdaad", "fusion_lat": 0.0, "is_reserved": 0, "lon": -77.04689666666667}, {"type": "electric_scooter", "name": "93123bf1e0acbc772d9aacb8232a1fc4", "rental_uris": {"ios": "https://dc.lft.to/lastmile_qr_scan", "android": "https://dc.lft.to/lastmile_qr_scan"}, "fusion_lon": 0.0, "lat": 38.896386166666666, "is_disabled": 0, "bike_id": "93123bf1e0acbc772d9aacb8232a1fc4", "fusion_lat": 0.0, "is_reserved": 0, "lon": -77.00925733333334}, {"type": "electric_scooter", "name": "3b0adcb7e9c118f0ad571e134a130a92", "rental_uris": {"ios": "https://dc.lft.to/lastmile_qr_scan", "android": "https://dc.lft.to/lastmile_qr_scan"}, "fusion_lon": 0.0, "lat": 38.89823066666666, "is_disabled": 0, "bike_id": "3b0adcb7e9c118f0ad571e134a130a92", "fusion_lat": 0.0, "is_reserved": 0, "lon": -77.024241}, {"type": "electric_scooter", "name": "8182287f91eb7ba72b2ff861d587746d", "rental_uris": {"ios": "https://dc.lft.to/lastmile_qr_scan", "android": "https://dc.lft.to/lastmile_qr_scan"}, "fusion_lon": 0.0, "lat": 38.90408633333333, "is_disabled": 0, "bike_id": "8182287f91eb7ba72b2ff861d587746d", "fusion_lat": 0.0, "is_reserved": 0, "lon": -76.97332166666666}, {"type": "electric_scooter", "name": "8c886c50940078d62df13d03187a3249", "rental_uris": {"ios": "https://dc.lft.to/lastmile_qr_scan", "android": "https://dc.lft.to/lastmile_qr_scan"}, "fusion_lon": 0.0, "lat": 38.9317845, "is_disabled": 0, "bike_id": "8c886c50940078d62df13d03187a3249", "fusion_lat": 0.0, "is_reserved": 0, "lon": -77.04305116666667}, {"type": "electric_scooter", "name": "d270ab3a2c59dda9b5ef6619bdc388f1", "rental_uris": {"ios": "https://dc.lft.to/lastmile_qr_scan", "android": "https://dc.lft.to/lastmile_qr_scan"}, "fusion_lon": 0.0, "lat": 38.89225833333333, "is_disabled": 0, "bike_id": "d270ab3a2c59dda9b5ef6619bdc388f1", "fusion_lat": 0.0, "is_reserved": 0, "lon": -77.04511566666666}, {"type": "electric_scooter", "name": "0965379a5846316685500e3349e2963b", "rental_uris": {"ios": "https://dc.lft.to/lastmile_qr_scan", "android": "https://dc.lft.to/lastmile_qr_scan"}, "fusion_lon": 0.0, "lat": 38.94530066666667, "is_disabled": 0, "bike_id": "0965379a5846316685500e3349e2963b", "fusion_lat": 0.0, "is_reserved": 0, "lon": -77.064056}, {"type": "electric_scooter", "name": "68a69984e0b3557b7341d937aeff913b", "rental_uris": {"ios": "https://dc.lft.to/lastmile_qr_scan", "android": "https://dc.lft.to/lastmile_qr_scan"}, "fusion_lon": 0.0, "lat": 38.911232166666665, "is_disabled": 0, "bike_id": "68a69984e0b3557b7341d937aeff913b", "fusion_lat": 0.0, "is_reserved": 0, "lon": -77.03565916666666}, {"type": "electric_scooter", "name": "fcac621e2f70a130fcd658a6b288dff4", "rental_uris": {"ios": "https://dc.lft.to/lastmile_qr_scan", "android": "https://dc.lft.to/lastmile_qr_scan"}, "fusion_lon": 0.0, "lat": 38.907787166666665, "is_disabled": 0, "bike_id": "fcac621e2f70a130fcd658a6b288dff4", "fusion_lat": 0.0, "is_reserved": 0, "lon": -77.0328215}, {"type": "electric_scooter", "name": "4307aef525c4d2e506a39a8a875b4c9e", "rental_uris": {"ios": "https://dc.lft.to/lastmile_qr_scan", "android": "https://dc.lft.to/lastmile_qr_scan"}, "fusion_lon": 0.0, "lat": 38.8922305, "is_disabled": 0, "bike_id": "4307aef525c4d2e506a39a8a875b4c9e", "fusion_lat": 0.0, "is_reserved": 0, "lon": -77.03990716666667}, {"type": "electric_scooter", "name": "bf99af3f613d6842b7f406e6d155a14d", "rental_uris": {"ios": "https://dc.lft.to/lastmile_qr_scan", "android": "https://dc.lft.to/lastmile_qr_scan"}, "fusion_lon": 0.0, "lat": 38.901345166666665, "is_disabled": 0, "bike_id": "bf99af3f613d6842b7f406e6d155a14d", "fusion_lat": 0.0, "is_reserved": 0, "lon": -77.03570183333333}, {"type": "electric_scooter", "name": "97ca04adb1a4f3be1acbda2e6956e82f", "rental_uris": {"ios": "https://dc.lft.to/lastmile_qr_scan", "android": "https://dc.lft.to/lastmile_qr_scan"}, "fusion_lon": 0.0, "lat": 38.903821666666666, "is_disabled": 0, "bike_id": "97ca04adb1a4f3be1acbda2e6956e82f", "fusion_lat": 0.0, "is_reserved": 0, "lon": -77.04989533333334}, {"type": "electric_scooter", "name": "801078d38a88ceb30b6a59c9aa37e436", "rental_uris": {"ios": "https://dc.lft.to/lastmile_qr_scan", "android": "https://dc.lft.to/lastmile_qr_scan"}, "fusion_lon": 0.0, "lat": 38.897254, "is_disabled": 0, "bike_id": "801078d38a88ceb30b6a59c9aa37e436", "fusion_lat": 0.0, "is_reserved": 0, "lon": -77.00223833333334}, {"type": "electric_scooter", "name": "9fc04ded62ce60238b60ac8584d2a062", "rental_uris": {"ios": "https://dc.lft.to/lastmile_qr_scan", "android": "https://dc.lft.to/lastmile_qr_scan"}, "fusion_lon": 0.0, "lat": 38.92872916666666, "is_disabled": 0, "bike_id": "9fc04ded62ce60238b60ac8584d2a062", "fusion_lat": 0.0, "is_reserved": 0, "lon": -77.035051}, {"type": "electric_bike", "name": "0853034ac0d41986b08474144f22a269", "rental_uris": {"ios": "https://dc.lft.to/lastmile_qr_scan", "android": "https://dc.lft.to/lastmile_qr_scan"}, "fusion_lon": 0.0, "lat": 38.88397916666667, "is_disabled": 0, "bike_id": "0853034ac0d41986b08474144f22a269", "fusion_lat": 0.0, "is_reserved": 0, "lon": -76.96052216666666}, {"type": "electric_scooter", "name": "26017198fcd0f0b241bd08784b5352fa", "rental_uris": {"ios": "https://dc.lft.to/lastmile_qr_scan", "android": "https://dc.lft.to/lastmile_qr_scan"}, "fusion_lon": 0.0, "lat": 38.906767, "is_disabled": 0, "bike_id": "26017198fcd0f0b241bd08784b5352fa", "fusion_lat": 0.0, "is_reserved": 0, "lon": -77.03790766666667}, {"type": "electric_scooter", "name": "4767ba523c44851e26e5cd01c7875594", "rental_uris": {"ios": "https://dc.lft.to/lastmile_qr_scan", "android": "https://dc.lft.to/lastmile_qr_scan"}, "fusion_lon": 0.0, "lat": 38.90278633333333, "is_disabled": 0, "bike_id": "4767ba523c44851e26e5cd01c7875594", "fusion_lat": 0.0, "is_reserved": 0, "lon": -77.03842033333333}, {"type": "electric_scooter", "name": "3b87e7fe7b44af5295e56679f0dbeb7d", "rental_uris": {"ios": "https://dc.lft.to/lastmile_qr_scan", "android": "https://dc.lft.to/lastmile_qr_scan"}, "fusion_lon": 0.0, "lat": 38.8571915, "is_disabled": 0, "bike_id": "3b87e7fe7b44af5295e56679f0dbeb7d", "fusion_lat": 0.0, "is_reserved": 0, "lon": -76.98097533333333}, {"type": "electric_scooter", "name": "38d5c3ddacb1f854aeb6f5041383a901", "rental_uris": {"ios": "https://dc.lft.to/lastmile_qr_scan", "android": "https://dc.lft.to/lastmile_qr_scan"}, "fusion_lon": 0.0, "lat": 38.89606633333333, "is_disabled": 0, "bike_id": "38d5c3ddacb1f854aeb6f5041383a901", "fusion_lat": 0.0, "is_reserved": 0, "lon": -77.02151333333333}, {"type": "electric_scooter", "name": "9f21222e3f3ec9fb9418c47855337c89", "rental_uris": {"ios": "https://dc.lft.to/lastmile_qr_scan", "android": "https://dc.lft.to/lastmile_qr_scan"}, "fusion_lon": 0.0, "lat": 38.89600816666667, "is_disabled": 0, "bike_id": "9f21222e3f3ec9fb9418c47855337c89", "fusion_lat": 0.0, "is_reserved": 0, "lon": -77.00935466666667}, {"type": "electric_scooter", "name": "516b0f4036fa4c376a2b70be4434dc54", "rental_uris": {"ios": "https://dc.lft.to/lastmile_qr_scan", "android": "https://dc.lft.to/lastmile_qr_scan"}, "fusion_lon": 0.0, "lat": 38.86391916666667, "is_disabled": 0, "bike_id": "516b0f4036fa4c376a2b70be4434dc54", "fusion_lat": 0.0, "is_reserved": 0, "lon": -76.9904035}, {"type": "electric_scooter", "name": "c8146d51da94a8ecd46de921b9c274c4", "rental_uris": {"ios": "https://dc.lft.to/lastmile_qr_scan", "android": "https://dc.lft.to/lastmile_qr_scan"}, "fusion_lon": 0.0, "lat": 38.90245566666667, "is_disabled": 0, "bike_id": "c8146d51da94a8ecd46de921b9c274c4", "fusion_lat": 0.0, "is_reserved": 0, "lon": -77.02479733333334}, {"type": "electric_scooter", "name": "f4de86b81ae0acec91395797f35d1620", "rental_uris": {"ios": "https://dc.lft.to/lastmile_qr_scan", "android": "https://dc.lft.to/lastmile_qr_scan"}, "fusion_lon": 0.0, "lat": 38.9095595, "is_disabled": 0, "bike_id": "f4de86b81ae0acec91395797f35d1620", "fusion_lat": 0.0, "is_reserved": 0, "lon": -77.06438433333334}, {"type": "electric_scooter", "name": "a44f82016b45c03d70c07ddeec8863dc", "rental_uris": {"ios": "https://dc.lft.to/lastmile_qr_scan", "android": "https://dc.lft.to/lastmile_qr_scan"}, "fusion_lon": 0.0, "lat": 38.9125455, "is_disabled": 0, "bike_id": "a44f82016b45c03d70c07ddeec8863dc", "fusion_lat": 0.0, "is_reserved": 0, "lon": -77.04736116666666}, {"type": "electric_scooter", "name": "10660d4fd7eace6e2b953f6cab248935", "rental_uris": {"ios": "https://dc.lft.to/lastmile_qr_scan", "android": "https://dc.lft.to/lastmile_qr_scan"}, "fusion_lon": 0.0, "lat": 38.897286, "is_disabled": 0, "bike_id": "10660d4fd7eace6e2b953f6cab248935", "fusion_lat": 0.0, "is_reserved": 0, "lon": -76.9470075}, {"type": "electric_scooter", "name": "fa34a19df861ca53bfc0c46a8ff8f9f3", "rental_uris": {"ios": "https://dc.lft.to/lastmile_qr_scan", "android": "https://dc.lft.to/lastmile_qr_scan"}, "fusion_lon": 0.0, "lat": 38.945166, "is_disabled": 0, "bike_id": "fa34a19df861ca53bfc0c46a8ff8f9f3", "fusion_lat": 0.0, "is_reserved": 0, "lon": -77.03358716666666}, {"type": "electric_scooter", "name": "a2a36cfc390ab2698a5a3b1f1f99ccf6", "rental_uris": {"ios": "https://dc.lft.to/lastmile_qr_scan", "android": "https://dc.lft.to/lastmile_qr_scan"}, "fusion_lon": 0.0, "lat": 38.93868716666667, "is_disabled": 0, "bike_id": "a2a36cfc390ab2698a5a3b1f1f99ccf6", "fusion_lat": 0.0, "is_reserved": 0, "lon": -77.0246105}, {"type": "electric_bike", "name": "e99a809f72db40cd4f087a5cee2e761f", "rental_uris": {"ios": "https://dc.lft.to/lastmile_qr_scan", "android": "https://dc.lft.to/lastmile_qr_scan"}, "fusion_lon": 0.0, "lat": 38.79466716666667, "is_disabled": 0, "bike_id": "e99a809f72db40cd4f087a5cee2e761f", "fusion_lat": 0.0, "is_reserved": 0, "lon": -76.99249516666667}, {"type": "electric_scooter", "name": "9d8926dc6b625a38062a8093035cc90b", "rental_uris": {"ios": "https://dc.lft.to/lastmile_qr_scan", "android": "https://dc.lft.to/lastmile_qr_scan"}, "fusion_lon": 0.0, "lat": 38.9022405, "is_disabled": 0, "bike_id": "9d8926dc6b625a38062a8093035cc90b", "fusion_lat": 0.0, "is_reserved": 0, "lon": -77.04049416666666}, {"type": "electric_scooter", "name": "c601f6dbdccb4998d23964459c8d49da", "rental_uris": {"ios": "https://dc.lft.to/lastmile_qr_scan", "android": "https://dc.lft.to/lastmile_qr_scan"}, "fusion_lon": 0.0, "lat": 38.9163615, "is_disabled": 0, "bike_id": "c601f6dbdccb4998d23964459c8d49da", "fusion_lat": 0.0, "is_reserved": 0, "lon": -77.04119716666666}, {"type": "electric_scooter", "name": "b6f0e3f821d8872dd72ca729b220d812", "rental_uris": {"ios": "https://dc.lft.to/lastmile_qr_scan", "android": "https://dc.lft.to/lastmile_qr_scan"}, "fusion_lon": 0.0, "lat": 38.90657433333333, "is_disabled": 0, "bike_id": "b6f0e3f821d8872dd72ca729b220d812", "fusion_lat": 0.0, "is_reserved": 0, "lon": -77.05323933333334}, {"type": "electric_scooter", "name": "08e8dfbc3597e7e33390d0740d16895d", "rental_uris": {"ios": "https://dc.lft.to/lastmile_qr_scan", "android": "https://dc.lft.to/lastmile_qr_scan"}, "fusion_lon": 0.0, "lat": 38.8667735, "is_disabled": 0, "bike_id": "08e8dfbc3597e7e33390d0740d16895d", "fusion_lat": 0.0, "is_reserved": 0, "lon": -76.985049}, {"type": "electric_scooter", "name": "43d7352e94e108bd95e1df8dce6aa4c8", "rental_uris": {"ios": "https://dc.lft.to/lastmile_qr_scan", "android": "https://dc.lft.to/lastmile_qr_scan"}, "fusion_lon": 0.0, "lat": 38.91901766666667, "is_disabled": 0, "bike_id": "43d7352e94e108bd95e1df8dce6aa4c8", "fusion_lat": 0.0, "is_reserved": 0, "lon": -77.02759116666667}, {"type": "electric_scooter", "name": "4ceb946cf55f5b5e1567823b191d3565", "rental_uris": {"ios": "https://dc.lft.to/lastmile_qr_scan", "android": "https://dc.lft.to/lastmile_qr_scan"}, "fusion_lon": 0.0, "lat": 38.90032383333333, "is_disabled": 0, "bike_id": "4ceb946cf55f5b5e1567823b191d3565", "fusion_lat": 0.0, "is_reserved": 0, "lon": -77.05826233333333}, {"type": "electric_scooter", "name": "eb6dfe40cd4086052a40d74a57687238", "rental_uris": {"ios": "https://dc.lft.to/lastmile_qr_scan", "android": "https://dc.lft.to/lastmile_qr_scan"}, "fusion_lon": 0.0, "lat": 38.903993166666666, "is_disabled": 0, "bike_id": "eb6dfe40cd4086052a40d74a57687238", "fusion_lat": 0.0, "is_reserved": 0, "lon": -77.0488545}, {"type": "electric_scooter", "name": "4eb9a74c20b96bafdb2de15137191290", "rental_uris": {"ios": "https://dc.lft.to/lastmile_qr_scan", "android": "https://dc.lft.to/lastmile_qr_scan"}, "fusion_lon": 0.0, "lat": 38.89043933333333, "is_disabled": 0, "bike_id": "4eb9a74c20b96bafdb2de15137191290", "fusion_lat": 0.0, "is_reserved": 0, "lon": -76.9524525}, {"type": "electric_scooter", "name": "af32a39a676a697f26643884bac88bf3", "rental_uris": {"ios": "https://dc.lft.to/lastmile_qr_scan", "android": "https://dc.lft.to/lastmile_qr_scan"}, "fusion_lon": 0.0, "lat": 38.924113, "is_disabled": 0, "bike_id": "af32a39a676a697f26643884bac88bf3", "fusion_lat": 0.0, "is_reserved": 0, "lon": -77.02027933333333}, {"type": "electric_scooter", "name": "a5c2f2ece3b43970d7decb02562d841b", "rental_uris": {"ios": "https://dc.lft.to/lastmile_qr_scan", "android": "https://dc.lft.to/lastmile_qr_scan"}, "fusion_lon": 0.0, "lat": 38.91108766666667, "is_disabled": 0, "bike_id": "a5c2f2ece3b43970d7decb02562d841b", "fusion_lat": 0.0, "is_reserved": 0, "lon": -77.0241685}, {"type": "electric_bike", "name": "262129e8cefd392e880e6fb00ea7d904", "rental_uris": {"ios": "https://dc.lft.to/lastmile_qr_scan", "android": "https://dc.lft.to/lastmile_qr_scan"}, "fusion_lon": 0.0, "lat": 38.88513316666667, "is_disabled": 0, "bike_id": "262129e8cefd392e880e6fb00ea7d904", "fusion_lat": 0.0, "is_reserved": 0, "lon": -76.951645}, {"type": "electric_scooter", "name": "73db8864be5557cb240fa2d4622aba2c", "rental_uris": {"ios": "https://dc.lft.to/lastmile_qr_scan", "android": "https://dc.lft.to/lastmile_qr_scan"}, "fusion_lon": 0.0, "lat": 38.889058666666664, "is_disabled": 0, "bike_id": "73db8864be5557cb240fa2d4622aba2c", "fusion_lat": 0.0, "is_reserved": 0, "lon": -76.93705766666666}, {"type": "electric_scooter", "name": "20734f61f5d34d3cc31027b93dc8fdd1", "rental_uris": {"ios": "https://dc.lft.to/lastmile_qr_scan", "android": "https://dc.lft.to/lastmile_qr_scan"}, "fusion_lon": 0.0, "lat": 38.8765795, "is_disabled": 0, "bike_id": "20734f61f5d34d3cc31027b93dc8fdd1", "fusion_lat": 0.0, "is_reserved": 0, "lon": -77.01722633333333}, {"type": "electric_scooter", "name": "c024cb631853304d1d619ba2fdd2d8a8", "rental_uris": {"ios": "https://dc.lft.to/lastmile_qr_scan", "android": "https://dc.lft.to/lastmile_qr_scan"}, "fusion_lon": 0.0, "lat": 38.89234416666667, "is_disabled": 0, "bike_id": "c024cb631853304d1d619ba2fdd2d8a8", "fusion_lat": 0.0, "is_reserved": 0, "lon": -77.041631}, {"type": "electric_scooter", "name": "a0e7ad65f6b42778db9f407a0bd22969", "rental_uris": {"ios": "https://dc.lft.to/lastmile_qr_scan", "android": "https://dc.lft.to/lastmile_qr_scan"}, "fusion_lon": 0.0, "lat": 38.89144816666666, "is_disabled": 0, "bike_id": "a0e7ad65f6b42778db9f407a0bd22969", "fusion_lat": 0.0, "is_reserved": 0, "lon": -76.99262683333333}, {"type": "electric_scooter", "name": "7d567dbe4706af94fd65d1334af9f4cf", "rental_uris": {"ios": "https://dc.lft.to/lastmile_qr_scan", "android": "https://dc.lft.to/lastmile_qr_scan"}, "fusion_lon": 0.0, "lat": 38.8830285, "is_disabled": 0, "bike_id": "7d567dbe4706af94fd65d1334af9f4cf", "fusion_lat": 0.0, "is_reserved": 0, "lon": -76.94857166666667}, {"type": "electric_scooter", "name": "ca01bb83b257275edbc89d728d8e5927", "rental_uris": {"ios": "https://dc.lft.to/lastmile_qr_scan", "android": "https://dc.lft.to/lastmile_qr_scan"}, "fusion_lon": 0.0, "lat": 38.91937433333333, "is_disabled": 0, "bike_id": "ca01bb83b257275edbc89d728d8e5927", "fusion_lat": 0.0, "is_reserved": 0, "lon": -77.01361566666667}, {"type": "electric_scooter", "name": "dfe1d732299b14fe93463742fbcbeac3", "rental_uris": {"ios": "https://dc.lft.to/lastmile_qr_scan", "android": "https://dc.lft.to/lastmile_qr_scan"}, "fusion_lon": 0.0, "lat": 38.917804333333336, "is_disabled": 0, "bike_id": "dfe1d732299b14fe93463742fbcbeac3", "fusion_lat": 0.0, "is_reserved": 0, "lon": -77.022775}, {"type": "electric_scooter", "name": "bade8a6555b985ccbf8ece3564e29c8a", "rental_uris": {"ios": "https://dc.lft.to/lastmile_qr_scan", "android": "https://dc.lft.to/lastmile_qr_scan"}, "fusion_lon": 0.0, "lat": 38.864281, "is_disabled": 0, "bike_id": "bade8a6555b985ccbf8ece3564e29c8a", "fusion_lat": 0.0, "is_reserved": 0, "lon": -76.9899375}, {"type": "electric_scooter", "name": "04e1812b8d0d69d5347e38590ea21774", "rental_uris": {"ios": "https://dc.lft.to/lastmile_qr_scan", "android": "https://dc.lft.to/lastmile_qr_scan"}, "fusion_lon": 0.0, "lat": 38.914706833333334, "is_disabled": 0, "bike_id": "04e1812b8d0d69d5347e38590ea21774", "fusion_lat": 0.0, "is_reserved": 0, "lon": -77.03887983333334}, {"type": "electric_scooter", "name": "506a5a4d98ba27834787017682f1946b", "rental_uris": {"ios": "https://dc.lft.to/lastmile_qr_scan", "android": "https://dc.lft.to/lastmile_qr_scan"}, "fusion_lon": 0.0, "lat": 38.9001095, "is_disabled": 0, "bike_id": "506a5a4d98ba27834787017682f1946b", "fusion_lat": 0.0, "is_reserved": 0, "lon": -77.03157566666667}, {"type": "electric_scooter", "name": "4e4a0636a463ec2797d0221aaed95e80", "rental_uris": {"ios": "https://dc.lft.to/lastmile_qr_scan", "android": "https://dc.lft.to/lastmile_qr_scan"}, "fusion_lon": 0.0, "lat": 38.94536516666667, "is_disabled": 0, "bike_id": "4e4a0636a463ec2797d0221aaed95e80", "fusion_lat": 0.0, "is_reserved": 0, "lon": -77.02535}, {"type": "electric_scooter", "name": "02b0e93108200d555a5c4f915779d2ef", "rental_uris": {"ios": "https://dc.lft.to/lastmile_qr_scan", "android": "https://dc.lft.to/lastmile_qr_scan"}, "fusion_lon": 0.0, "lat": 38.90665633333333, "is_disabled": 0, "bike_id": "02b0e93108200d555a5c4f915779d2ef", "fusion_lat": 0.0, "is_reserved": 0, "lon": -77.01085183333333}, {"type": "electric_scooter", "name": "a821b908558499d752fbdbcf8318986f", "rental_uris": {"ios": "https://dc.lft.to/lastmile_qr_scan", "android": "https://dc.lft.to/lastmile_qr_scan"}, "fusion_lon": 0.0, "lat": 38.903758833333335, "is_disabled": 0, "bike_id": "a821b908558499d752fbdbcf8318986f", "fusion_lat": 0.0, "is_reserved": 0, "lon": -77.04826583333333}, {"type": "electric_scooter", "name": "82fcfd4acfe62e1ba643b9266bbb9006", "rental_uris": {"ios": "https://dc.lft.to/lastmile_qr_scan", "android": "https://dc.lft.to/lastmile_qr_scan"}, "fusion_lon": 0.0, "lat": 38.919366833333335, "is_disabled": 0, "bike_id": "82fcfd4acfe62e1ba643b9266bbb9006", "fusion_lat": 0.0, "is_reserved": 0, "lon": -77.0238035}, {"type": "electric_bike", "name": "f0549b95d83dd1b5f5bd9421676f216d", "rental_uris": {"ios": "https://dc.lft.to/lastmile_qr_scan", "android": "https://dc.lft.to/lastmile_qr_scan"}, "fusion_lon": 0.0, "lat": 38.84506183333333, "is_disabled": 0, "bike_id": "f0549b95d83dd1b5f5bd9421676f216d", "fusion_lat": 0.0, "is_reserved": 0, "lon": -76.99352833333333}, {"type": "electric_scooter", "name": "7a60ab30a4e603b8c5f3e64f9655e876", "rental_uris": {"ios": "https://dc.lft.to/lastmile_qr_scan", "android": "https://dc.lft.to/lastmile_qr_scan"}, "fusion_lon": 0.0, "lat": 38.90971733333333, "is_disabled": 0, "bike_id": "7a60ab30a4e603b8c5f3e64f9655e876", "fusion_lat": 0.0, "is_reserved": 0, "lon": -77.01944266666666}, {"type": "electric_scooter", "name": "924d0267fc5d50cb666759147e4f88b0", "rental_uris": {"ios": "https://dc.lft.to/lastmile_qr_scan", "android": "https://dc.lft.to/lastmile_qr_scan"}, "fusion_lon": 0.0, "lat": 38.959338, "is_disabled": 0, "bike_id": "924d0267fc5d50cb666759147e4f88b0", "fusion_lat": 0.0, "is_reserved": 0, "lon": -77.03119016666666}, {"type": "electric_scooter", "name": "2cfb080ab882183f092ea8edecee7c99", "rental_uris": {"ios": "https://dc.lft.to/lastmile_qr_scan", "android": "https://dc.lft.to/lastmile_qr_scan"}, "fusion_lon": 0.0, "lat": 38.92106183333333, "is_disabled": 0, "bike_id": "2cfb080ab882183f092ea8edecee7c99", "fusion_lat": 0.0, "is_reserved": 0, "lon": -77.02530733333333}, {"type": "electric_scooter", "name": "6eaf14094f1d95391b5ccd15ec41d46d", "rental_uris": {"ios": "https://dc.lft.to/lastmile_qr_scan", "android": "https://dc.lft.to/lastmile_qr_scan"}, "fusion_lon": 0.0, "lat": 38.930852333333334, "is_disabled": 0, "bike_id": "6eaf14094f1d95391b5ccd15ec41d46d", "fusion_lat": 0.0, "is_reserved": 0, "lon": -77.026106}, {"type": "electric_scooter", "name": "b7b3dc1405b4795368769b8908923c9c", "rental_uris": {"ios": "https://dc.lft.to/lastmile_qr_scan", "android": "https://dc.lft.to/lastmile_qr_scan"}, "fusion_lon": 0.0, "lat": 38.897307833333336, "is_disabled": 0, "bike_id": "b7b3dc1405b4795368769b8908923c9c", "fusion_lat": 0.0, "is_reserved": 0, "lon": -77.05522016666667}, {"type": "electric_scooter", "name": "0f89adf0f5a5d86461118a9a51c5aefa", "rental_uris": {"ios": "https://dc.lft.to/lastmile_qr_scan", "android": "https://dc.lft.to/lastmile_qr_scan"}, "fusion_lon": 0.0, "lat": 38.90129616666667, "is_disabled": 0, "bike_id": "0f89adf0f5a5d86461118a9a51c5aefa", "fusion_lat": 0.0, "is_reserved": 0, "lon": -77.0419255}, {"type": "electric_scooter", "name": "85f84aaa35ff404dd83262c2da0c4587", "rental_uris": {"ios": "https://dc.lft.to/lastmile_qr_scan", "android": "https://dc.lft.to/lastmile_qr_scan"}, "fusion_lon": 0.0, "lat": 38.914199833333335, "is_disabled": 0, "bike_id": "85f84aaa35ff404dd83262c2da0c4587", "fusion_lat": 0.0, "is_reserved": 0, "lon": -77.01879366666667}, {"type": "electric_scooter", "name": "8823d096461e6288eeb6f99a7dca20bc", "rental_uris": {"ios": "https://dc.lft.to/lastmile_qr_scan", "android": "https://dc.lft.to/lastmile_qr_scan"}, "fusion_lon": 0.0, "lat": 38.9348875, "is_disabled": 0, "bike_id": "8823d096461e6288eeb6f99a7dca20bc", "fusion_lat": 0.0, "is_reserved": 0, "lon": -77.02420616666667}, {"type": "electric_scooter", "name": "c44b8bc9d1a65807af47b5127205b921", "rental_uris": {"ios": "https://dc.lft.to/lastmile_qr_scan", "android": "https://dc.lft.to/lastmile_qr_scan"}, "fusion_lon": 0.0, "lat": 38.933964333333336, "is_disabled": 0, "bike_id": "c44b8bc9d1a65807af47b5127205b921", "fusion_lat": 0.0, "is_reserved": 0, "lon": -77.05741983333333}, {"type": "electric_scooter", "name": "50241d21cc0fe7f3ac12c8d375dadf4e", "rental_uris": {"ios": "https://dc.lft.to/lastmile_qr_scan", "android": "https://dc.lft.to/lastmile_qr_scan"}, "fusion_lon": 0.0, "lat": 38.9127355, "is_disabled": 0, "bike_id": "50241d21cc0fe7f3ac12c8d375dadf4e", "fusion_lat": 0.0, "is_reserved": 0, "lon": -77.02218016666667}, {"type": "electric_scooter", "name": "45c4b61209023133804fe5199d12a8c2", "rental_uris": {"ios": "https://dc.lft.to/lastmile_qr_scan", "android": "https://dc.lft.to/lastmile_qr_scan"}, "fusion_lon": 0.0, "lat": 38.905825666666665, "is_disabled": 0, "bike_id": "45c4b61209023133804fe5199d12a8c2", "fusion_lat": 0.0, "is_reserved": 0, "lon": -77.00576533333333}, {"type": "electric_scooter", "name": "ff4c1f6da326ecd07bfee9a01a5f36a3", "rental_uris": {"ios": "https://dc.lft.to/lastmile_qr_scan", "android": "https://dc.lft.to/lastmile_qr_scan"}, "fusion_lon": 0.0, "lat": 38.90533933333333, "is_disabled": 0, "bike_id": "ff4c1f6da326ecd07bfee9a01a5f36a3", "fusion_lat": 0.0, "is_reserved": 0, "lon": -77.0486285}, {"type": "electric_scooter", "name": "8f4a63fabe06ab3ef7cf36375ce87f50", "rental_uris": {"ios": "https://dc.lft.to/lastmile_qr_scan", "android": "https://dc.lft.to/lastmile_qr_scan"}, "fusion_lon": 0.0, "lat": 38.9462095, "is_disabled": 0, "bike_id": "8f4a63fabe06ab3ef7cf36375ce87f50", "fusion_lat": 0.0, "is_reserved": 0, "lon": -77.03679783333334}, {"type": "electric_scooter", "name": "35a9fffd8778462b39eb02b0ad5bc348", "rental_uris": {"ios": "https://dc.lft.to/lastmile_qr_scan", "android": "https://dc.lft.to/lastmile_qr_scan"}, "fusion_lon": 0.0, "lat": 38.90291083333334, "is_disabled": 0, "bike_id": "35a9fffd8778462b39eb02b0ad5bc348", "fusion_lat": 0.0, "is_reserved": 0, "lon": -76.97635616666666}, {"type": "electric_scooter", "name": "b0e753067f25118267b7606f2adc993c", "rental_uris": {"ios": "https://dc.lft.to/lastmile_qr_scan", "android": "https://dc.lft.to/lastmile_qr_scan"}, "fusion_lon": 0.0, "lat": 38.892263666666665, "is_disabled": 0, "bike_id": "b0e753067f25118267b7606f2adc993c", "fusion_lat": 0.0, "is_reserved": 0, "lon": -77.03327366666667}, {"type": "electric_scooter", "name": "d00e88692365f8743baa2261682a1f68", "rental_uris": {"ios": "https://dc.lft.to/lastmile_qr_scan", "android": "https://dc.lft.to/lastmile_qr_scan"}, "fusion_lon": 0.0, "lat": 38.916237333333335, "is_disabled": 0, "bike_id": "d00e88692365f8743baa2261682a1f68", "fusion_lat": 0.0, "is_reserved": 0, "lon": -77.048636}, {"type": "electric_scooter", "name": "9bc275a274123e9098ff51265a093901", "rental_uris": {"ios": "https://dc.lft.to/lastmile_qr_scan", "android": "https://dc.lft.to/lastmile_qr_scan"}, "fusion_lon": 0.0, "lat": 38.912539833333334, "is_disabled": 0, "bike_id": "9bc275a274123e9098ff51265a093901", "fusion_lat": 0.0, "is_reserved": 0, "lon": -77.04440716666667}, {"type": "electric_scooter", "name": "18e74efbfb1e11fe42d3aa9967706fc1", "rental_uris": {"ios": "https://dc.lft.to/lastmile_qr_scan", "android": "https://dc.lft.to/lastmile_qr_scan"}, "fusion_lon": 0.0, "lat": 38.975171333333336, "is_disabled": 0, "bike_id": "18e74efbfb1e11fe42d3aa9967706fc1", "fusion_lat": 0.0, "is_reserved": 0, "lon": -77.01670683333333}, {"type": "electric_scooter", "name": "21c3ffb3c8ea04c211cd53473d5f1ee4", "rental_uris": {"ios": "https://dc.lft.to/lastmile_qr_scan", "android": "https://dc.lft.to/lastmile_qr_scan"}, "fusion_lon": 0.0, "lat": 38.92111583333333, "is_disabled": 0, "bike_id": "21c3ffb3c8ea04c211cd53473d5f1ee4", "fusion_lat": 0.0, "is_reserved": 0, "lon": -77.025391}, {"type": "electric_scooter", "name": "5d6bca4e32a82c71f618ebde27f001fd", "rental_uris": {"ios": "https://dc.lft.to/lastmile_qr_scan", "android": "https://dc.lft.to/lastmile_qr_scan"}, "fusion_lon": 0.0, "lat": 38.926853, "is_disabled": 0, "bike_id": "5d6bca4e32a82c71f618ebde27f001fd", "fusion_lat": 0.0, "is_reserved": 0, "lon": -77.03228533333333}, {"type": "electric_bike", "name": "7477ddf715f2525aef2c76949f8832b0", "rental_uris": {"ios": "https://dc.lft.to/lastmile_qr_scan", "android": "https://dc.lft.to/lastmile_qr_scan"}, "fusion_lon": 0.0, "lat": 38.9977365, "is_disabled": 0, "bike_id": "7477ddf715f2525aef2c76949f8832b0", "fusion_lat": 0.0, "is_reserved": 0, "lon": -77.04724816666666}, {"type": "electric_scooter", "name": "cb06473f19a75586185bcef388e4d6e3", "rental_uris": {"ios": "https://dc.lft.to/lastmile_qr_scan", "android": "https://dc.lft.to/lastmile_qr_scan"}, "fusion_lon": 0.0, "lat": 38.904703833333336, "is_disabled": 0, "bike_id": "cb06473f19a75586185bcef388e4d6e3", "fusion_lat": 0.0, "is_reserved": 0, "lon": -77.06543333333333}, {"type": "electric_scooter", "name": "59436f37d4a392e484733aeeff0eff4b", "rental_uris": {"ios": "https://dc.lft.to/lastmile_qr_scan", "android": "https://dc.lft.to/lastmile_qr_scan"}, "fusion_lon": 0.0, "lat": 38.86629766666667, "is_disabled": 0, "bike_id": "59436f37d4a392e484733aeeff0eff4b", "fusion_lat": 0.0, "is_reserved": 0, "lon": -76.98715866666667}, {"type": "electric_scooter", "name": "d119036b052329fa7c747aed1d96284f", "rental_uris": {"ios": "https://dc.lft.to/lastmile_qr_scan", "android": "https://dc.lft.to/lastmile_qr_scan"}, "fusion_lon": 0.0, "lat": 38.907211, "is_disabled": 0, "bike_id": "d119036b052329fa7c747aed1d96284f", "fusion_lat": 0.0, "is_reserved": 0, "lon": -77.02509933333333}, {"type": "electric_scooter", "name": "3754167a3ef81e2d795932ca66095475", "rental_uris": {"ios": "https://dc.lft.to/lastmile_qr_scan", "android": "https://dc.lft.to/lastmile_qr_scan"}, "fusion_lon": 0.0, "lat": 38.892244833333336, "is_disabled": 0, "bike_id": "3754167a3ef81e2d795932ca66095475", "fusion_lat": 0.0, "is_reserved": 0, "lon": -77.04691666666666}, {"type": "electric_scooter", "name": "944ff8ce2a194cdd59ff536562a2c528", "rental_uris": {"ios": "https://dc.lft.to/lastmile_qr_scan", "android": "https://dc.lft.to/lastmile_qr_scan"}, "fusion_lon": 0.0, "lat": 38.931463666666666, "is_disabled": 0, "bike_id": "944ff8ce2a194cdd59ff536562a2c528", "fusion_lat": 0.0, "is_reserved": 0, "lon": -77.07852866666667}, {"type": "electric_scooter", "name": "d71ae15782f8483e18fbaad5644f6813", "rental_uris": {"ios": "https://dc.lft.to/lastmile_qr_scan", "android": "https://dc.lft.to/lastmile_qr_scan"}, "fusion_lon": 0.0, "lat": 38.92409983333334, "is_disabled": 0, "bike_id": "d71ae15782f8483e18fbaad5644f6813", "fusion_lat": 0.0, "is_reserved": 0, "lon": -77.020158}, {"type": "electric_scooter", "name": "3704a886603132cf787c681ea5a90a75", "rental_uris": {"ios": "https://dc.lft.to/lastmile_qr_scan", "android": "https://dc.lft.to/lastmile_qr_scan"}, "fusion_lon": 0.0, "lat": 38.925907333333335, "is_disabled": 0, "bike_id": "3704a886603132cf787c681ea5a90a75", "fusion_lat": 0.0, "is_reserved": 0, "lon": -77.02964683333333}, {"type": "electric_scooter", "name": "2f48f306fd65d5b52c5f777b8873fe8f", "rental_uris": {"ios": "https://dc.lft.to/lastmile_qr_scan", "android": "https://dc.lft.to/lastmile_qr_scan"}, "fusion_lon": 0.0, "lat": 38.887390333333336, "is_disabled": 0, "bike_id": "2f48f306fd65d5b52c5f777b8873fe8f", "fusion_lat": 0.0, "is_reserved": 0, "lon": -77.03172866666667}, {"type": "electric_scooter", "name": "045ecdba09497b020c558a48a37c2513", "rental_uris": {"ios": "https://dc.lft.to/lastmile_qr_scan", "android": "https://dc.lft.to/lastmile_qr_scan"}, "fusion_lon": 0.0, "lat": 38.87763833333333, "is_disabled": 0, "bike_id": "045ecdba09497b020c558a48a37c2513", "fusion_lat": 0.0, "is_reserved": 0, "lon": -77.01799233333334}, {"type": "electric_scooter", "name": "0d72ae06d21244e82280e8b232fbe289", "rental_uris": {"ios": "https://dc.lft.to/lastmile_qr_scan", "android": "https://dc.lft.to/lastmile_qr_scan"}, "fusion_lon": 0.0, "lat": 38.93759416666666, "is_disabled": 0, "bike_id": "0d72ae06d21244e82280e8b232fbe289", "fusion_lat": 0.0, "is_reserved": 0, "lon": -77.02477266666666}, {"type": "electric_scooter", "name": "e6853db23285ffd3ad7d829d436c4ab2", "rental_uris": {"ios": "https://dc.lft.to/lastmile_qr_scan", "android": "https://dc.lft.to/lastmile_qr_scan"}, "fusion_lon": 0.0, "lat": 38.905688166666664, "is_disabled": 0, "bike_id": "e6853db23285ffd3ad7d829d436c4ab2", "fusion_lat": 0.0, "is_reserved": 0, "lon": -77.0241605}, {"type": "electric_scooter", "name": "169e82e3a8faf0e6db53a7146463d72e", "rental_uris": {"ios": "https://dc.lft.to/lastmile_qr_scan", "android": "https://dc.lft.to/lastmile_qr_scan"}, "fusion_lon": 0.0, "lat": 38.92279533333333, "is_disabled": 0, "bike_id": "169e82e3a8faf0e6db53a7146463d72e", "fusion_lat": 0.0, "is_reserved": 0, "lon": -77.02963033333333}, {"type": "electric_scooter", "name": "05b389f1de2a74700186311ff065f5d0", "rental_uris": {"ios": "https://dc.lft.to/lastmile_qr_scan", "android": "https://dc.lft.to/lastmile_qr_scan"}, "fusion_lon": 0.0, "lat": 38.898717833333336, "is_disabled": 0, "bike_id": "05b389f1de2a74700186311ff065f5d0", "fusion_lat": 0.0, "is_reserved": 0, "lon": -76.93187933333333}, {"type": "electric_scooter", "name": "90a8aaf2885fb4d6474e18b07cd8dcc8", "rental_uris": {"ios": "https://dc.lft.to/lastmile_qr_scan", "android": "https://dc.lft.to/lastmile_qr_scan"}, "fusion_lon": 0.0, "lat": 38.92486366666667, "is_disabled": 0, "bike_id": "90a8aaf2885fb4d6474e18b07cd8dcc8", "fusion_lat": 0.0, "is_reserved": 0, "lon": -77.02663383333334}, {"type": "electric_scooter", "name": "0b7bbdaa6519c17ca05cba644f17fc65", "rental_uris": {"ios": "https://dc.lft.to/lastmile_qr_scan", "android": "https://dc.lft.to/lastmile_qr_scan"}, "fusion_lon": 0.0, "lat": 38.885060333333335, "is_disabled": 0, "bike_id": "0b7bbdaa6519c17ca05cba644f17fc65", "fusion_lat": 0.0, "is_reserved": 0, "lon": -77.006992}, {"type": "electric_scooter", "name": "c5b12c73d147a1ee3e63dedbb2de7e91", "rental_uris": {"ios": "https://dc.lft.to/lastmile_qr_scan", "android": "https://dc.lft.to/lastmile_qr_scan"}, "fusion_lon": 0.0, "lat": 38.865579, "is_disabled": 0, "bike_id": "c5b12c73d147a1ee3e63dedbb2de7e91", "fusion_lat": 0.0, "is_reserved": 0, "lon": -76.98349783333333}, {"type": "electric_scooter", "name": "1a840e23fcff0e5d19b75e37198be2c2", "rental_uris": {"ios": "https://dc.lft.to/lastmile_qr_scan", "android": "https://dc.lft.to/lastmile_qr_scan"}, "fusion_lon": 0.0, "lat": 38.9256185, "is_disabled": 0, "bike_id": "1a840e23fcff0e5d19b75e37198be2c2", "fusion_lat": 0.0, "is_reserved": 0, "lon": -77.0271715}, {"type": "electric_scooter", "name": "544130dfc8c4498441c5e85f8c966314", "rental_uris": {"ios": "https://dc.lft.to/lastmile_qr_scan", "android": "https://dc.lft.to/lastmile_qr_scan"}, "fusion_lon": 0.0, "lat": 38.9311275, "is_disabled": 0, "bike_id": "544130dfc8c4498441c5e85f8c966314", "fusion_lat": 0.0, "is_reserved": 0, "lon": -77.03811966666666}, {"type": "electric_scooter", "name": "1cdb2dd13ace3afdfd62367cdd9b345b", "rental_uris": {"ios": "https://dc.lft.to/lastmile_qr_scan", "android": "https://dc.lft.to/lastmile_qr_scan"}, "fusion_lon": 0.0, "lat": 38.917771, "is_disabled": 0, "bike_id": "1cdb2dd13ace3afdfd62367cdd9b345b", "fusion_lat": 0.0, "is_reserved": 0, "lon": -77.02286916666667}, {"type": "electric_scooter", "name": "595e5ad71931c9802eb8789b069fc3fa", "rental_uris": {"ios": "https://dc.lft.to/lastmile_qr_scan", "android": "https://dc.lft.to/lastmile_qr_scan"}, "fusion_lon": 0.0, "lat": 38.93170683333334, "is_disabled": 0, "bike_id": "595e5ad71931c9802eb8789b069fc3fa", "fusion_lat": 0.0, "is_reserved": 0, "lon": -77.04302933333334}, {"type": "electric_bike", "name": "bdf3bc3bb7f1cb3d9466923430db0b9e", "rental_uris": {"ios": "https://dc.lft.to/lastmile_qr_scan", "android": "https://dc.lft.to/lastmile_qr_scan"}, "fusion_lon": 0.0, "lat": 38.879835, "is_disabled": 0, "bike_id": "bdf3bc3bb7f1cb3d9466923430db0b9e", "fusion_lat": 0.0, "is_reserved": 0, "lon": -76.984761}, {"type": "electric_scooter", "name": "baf80e544481dbc1a8111e1b7a491545", "rental_uris": {"ios": "https://dc.lft.to/lastmile_qr_scan", "android": "https://dc.lft.to/lastmile_qr_scan"}, "fusion_lon": 0.0, "lat": 38.936788666666665, "is_disabled": 0, "bike_id": "baf80e544481dbc1a8111e1b7a491545", "fusion_lat": 0.0, "is_reserved": 0, "lon": -77.03590166666666}, {"type": "electric_scooter", "name": "29330a63f325c4eccc23f98317a3ea33", "rental_uris": {"ios": "https://dc.lft.to/lastmile_qr_scan", "android": "https://dc.lft.to/lastmile_qr_scan"}, "fusion_lon": 0.0, "lat": 38.892229, "is_disabled": 0, "bike_id": "29330a63f325c4eccc23f98317a3ea33", "fusion_lat": 0.0, "is_reserved": 0, "lon": -77.04330366666667}, {"type": "electric_scooter", "name": "bf77f192c09fceb6e79e95ec0697c6ee", "rental_uris": {"ios": "https://dc.lft.to/lastmile_qr_scan", "android": "https://dc.lft.to/lastmile_qr_scan"}, "fusion_lon": 0.0, "lat": 38.905603666666664, "is_disabled": 0, "bike_id": "bf77f192c09fceb6e79e95ec0697c6ee", "fusion_lat": 0.0, "is_reserved": 0, "lon": -77.013139}, {"type": "electric_scooter", "name": "403471e7147472ab9b73896b47651afe", "rental_uris": {"ios": "https://dc.lft.to/lastmile_qr_scan", "android": "https://dc.lft.to/lastmile_qr_scan"}, "fusion_lon": 0.0, "lat": 38.8969595, "is_disabled": 0, "bike_id": "403471e7147472ab9b73896b47651afe", "fusion_lat": 0.0, "is_reserved": 0, "lon": -77.04658083333334}, {"type": "electric_scooter", "name": "c97c94a8ca149b7a7edd07997ee1f183", "rental_uris": {"ios": "https://dc.lft.to/lastmile_qr_scan", "android": "https://dc.lft.to/lastmile_qr_scan"}, "fusion_lon": 0.0, "lat": 38.903719333333335, "is_disabled": 0, "bike_id": "c97c94a8ca149b7a7edd07997ee1f183", "fusion_lat": 0.0, "is_reserved": 0, "lon": -77.01615966666667}, {"type": "electric_scooter", "name": "8cbc98e3e500bedf14f555656bbf1dac", "rental_uris": {"ios": "https://dc.lft.to/lastmile_qr_scan", "android": "https://dc.lft.to/lastmile_qr_scan"}, "fusion_lon": 0.0, "lat": 38.8825735, "is_disabled": 0, "bike_id": "8cbc98e3e500bedf14f555656bbf1dac", "fusion_lat": 0.0, "is_reserved": 0, "lon": -76.926735}, {"type": "electric_bike", "name": "1b6b3ff7638da977f5f27e3bb2b95c52", "rental_uris": {"ios": "https://dc.lft.to/lastmile_qr_scan", "android": "https://dc.lft.to/lastmile_qr_scan"}, "fusion_lon": 0.0, "lat": 38.953511166666665, "is_disabled": 0, "bike_id": "1b6b3ff7638da977f5f27e3bb2b95c52", "fusion_lat": 0.0, "is_reserved": 0, "lon": -76.98095566666667}, {"type": "electric_bike", "name": "c77cd7162e57ce665bd7cfd4e1037fcc", "rental_uris": {"ios": "https://dc.lft.to/lastmile_qr_scan", "android": "https://dc.lft.to/lastmile_qr_scan"}, "fusion_lon": 0.0, "lat": 38.85646283333333, "is_disabled": 0, "bike_id": "c77cd7162e57ce665bd7cfd4e1037fcc", "fusion_lat": 0.0, "is_reserved": 0, "lon": -77.08532133333334}, {"type": "electric_scooter", "name": "bd236215ea72c93274aedbb4b759f061", "rental_uris": {"ios": "https://dc.lft.to/lastmile_qr_scan", "android": "https://dc.lft.to/lastmile_qr_scan"}, "fusion_lon": 0.0, "lat": 38.9153705, "is_disabled": 0, "bike_id": "bd236215ea72c93274aedbb4b759f061", "fusion_lat": 0.0, "is_reserved": 0, "lon": -77.012198}, {"type": "electric_scooter", "name": "d3be15cdb2b96fed9f5db8157f913d3c", "rental_uris": {"ios": "https://dc.lft.to/lastmile_qr_scan", "android": "https://dc.lft.to/lastmile_qr_scan"}, "fusion_lon": 0.0, "lat": 38.8754555, "is_disabled": 0, "bike_id": "d3be15cdb2b96fed9f5db8157f913d3c", "fusion_lat": 0.0, "is_reserved": 0, "lon": -77.00537533333333}, {"type": "electric_scooter", "name": "10132f972bd00ad9606497bdd19343f2", "rental_uris": {"ios": "https://dc.lft.to/lastmile_qr_scan", "android": "https://dc.lft.to/lastmile_qr_scan"}, "fusion_lon": 0.0, "lat": 38.888115666666664, "is_disabled": 0, "bike_id": "10132f972bd00ad9606497bdd19343f2", "fusion_lat": 0.0, "is_reserved": 0, "lon": -76.98358316666666}, {"type": "electric_scooter", "name": "751f95185ca85874e2cd52bd738283cc", "rental_uris": {"ios": "https://dc.lft.to/lastmile_qr_scan", "android": "https://dc.lft.to/lastmile_qr_scan"}, "fusion_lon": 0.0, "lat": 38.89704116666667, "is_disabled": 0, "bike_id": "751f95185ca85874e2cd52bd738283cc", "fusion_lat": 0.0, "is_reserved": 0, "lon": -77.01614516666666}, {"type": "electric_scooter", "name": "c01b86dfab9594b2665955b13a38c370", "rental_uris": {"ios": "https://dc.lft.to/lastmile_qr_scan", "android": "https://dc.lft.to/lastmile_qr_scan"}, "fusion_lon": 0.0, "lat": 38.920888166666664, "is_disabled": 0, "bike_id": "c01b86dfab9594b2665955b13a38c370", "fusion_lat": 0.0, "is_reserved": 0, "lon": -77.02256883333334}, {"type": "electric_scooter", "name": "4f90487cb1ae0dca012fa0be6d95a46c", "rental_uris": {"ios": "https://dc.lft.to/lastmile_qr_scan", "android": "https://dc.lft.to/lastmile_qr_scan"}, "fusion_lon": 0.0, "lat": 38.9053585, "is_disabled": 0, "bike_id": "4f90487cb1ae0dca012fa0be6d95a46c", "fusion_lat": 0.0, "is_reserved": 0, "lon": -77.0271435}, {"type": "electric_scooter", "name": "2a277f95223cde7494c5d425d978c1bd", "rental_uris": {"ios": "https://dc.lft.to/lastmile_qr_scan", "android": "https://dc.lft.to/lastmile_qr_scan"}, "fusion_lon": 0.0, "lat": 38.907114166666666, "is_disabled": 0, "bike_id": "2a277f95223cde7494c5d425d978c1bd", "fusion_lat": 0.0, "is_reserved": 0, "lon": -77.00585866666667}, {"type": "electric_scooter", "name": "7f8f4a8820fdc42cad1777f6ab393475", "rental_uris": {"ios": "https://dc.lft.to/lastmile_qr_scan", "android": "https://dc.lft.to/lastmile_qr_scan"}, "fusion_lon": 0.0, "lat": 38.89252616666667, "is_disabled": 0, "bike_id": "7f8f4a8820fdc42cad1777f6ab393475", "fusion_lat": 0.0, "is_reserved": 0, "lon": -77.03956516666666}, {"type": "electric_scooter", "name": "0e012a0f1278c5605fbc116902d9c0e0", "rental_uris": {"ios": "https://dc.lft.to/lastmile_qr_scan", "android": "https://dc.lft.to/lastmile_qr_scan"}, "fusion_lon": 0.0, "lat": 38.92336566666667, "is_disabled": 0, "bike_id": "0e012a0f1278c5605fbc116902d9c0e0", "fusion_lat": 0.0, "is_reserved": 0, "lon": -77.05350983333334}, {"type": "electric_scooter", "name": "7eaa445c756d0444da8acd6cb296a762", "rental_uris": {"ios": "https://dc.lft.to/lastmile_qr_scan", "android": "https://dc.lft.to/lastmile_qr_scan"}, "fusion_lon": 0.0, "lat": 38.91830066666667, "is_disabled": 0, "bike_id": "7eaa445c756d0444da8acd6cb296a762", "fusion_lat": 0.0, "is_reserved": 0, "lon": -77.0403415}, {"type": "electric_scooter", "name": "bfb0b9db8b8c2b606897a9c5b4dcffe0", "rental_uris": {"ios": "https://dc.lft.to/lastmile_qr_scan", "android": "https://dc.lft.to/lastmile_qr_scan"}, "fusion_lon": 0.0, "lat": 38.926302, "is_disabled": 0, "bike_id": "bfb0b9db8b8c2b606897a9c5b4dcffe0", "fusion_lat": 0.0, "is_reserved": 0, "lon": -77.03536533333333}, {"type": "electric_bike", "name": "32deb50f8c89d4867fd1b4fb105212bd", "rental_uris": {"ios": "https://dc.lft.to/lastmile_qr_scan", "android": "https://dc.lft.to/lastmile_qr_scan"}, "fusion_lon": 0.0, "lat": 38.972367166666665, "is_disabled": 0, "bike_id": "32deb50f8c89d4867fd1b4fb105212bd", "fusion_lat": 0.0, "is_reserved": 0, "lon": -77.02709933333334}, {"type": "electric_scooter", "name": "445d9b5ae7b4e5757aa9ed86ff2fee1b", "rental_uris": {"ios": "https://dc.lft.to/lastmile_qr_scan", "android": "https://dc.lft.to/lastmile_qr_scan"}, "fusion_lon": 0.0, "lat": 38.917778166666665, "is_disabled": 0, "bike_id": "445d9b5ae7b4e5757aa9ed86ff2fee1b", "fusion_lat": 0.0, "is_reserved": 0, "lon": -77.02314966666667}, {"type": "electric_scooter", "name": "bc598d5fb1007e3c4a8a473b4f9e122f", "rental_uris": {"ios": "https://dc.lft.to/lastmile_qr_scan", "android": "https://dc.lft.to/lastmile_qr_scan"}, "fusion_lon": 0.0, "lat": 38.91410116666667, "is_disabled": 0, "bike_id": "bc598d5fb1007e3c4a8a473b4f9e122f", "fusion_lat": 0.0, "is_reserved": 0, "lon": -77.02449816666666}, {"type": "electric_bike", "name": "ec9f5cfa7715034b60cdded0a214ba31", "rental_uris": {"ios": "https://dc.lft.to/lastmile_qr_scan", "android": "https://dc.lft.to/lastmile_qr_scan"}, "fusion_lon": 0.0, "lat": 38.994474, "is_disabled": 0, "bike_id": "ec9f5cfa7715034b60cdded0a214ba31", "fusion_lat": 0.0, "is_reserved": 0, "lon": -76.99590016666667}, {"type": "electric_scooter", "name": "a84983a7a82a8e285d4a882f61fae144", "rental_uris": {"ios": "https://dc.lft.to/lastmile_qr_scan", "android": "https://dc.lft.to/lastmile_qr_scan"}, "fusion_lon": 0.0, "lat": 38.92289533333334, "is_disabled": 0, "bike_id": "a84983a7a82a8e285d4a882f61fae144", "fusion_lat": 0.0, "is_reserved": 0, "lon": -77.029696}, {"type": "electric_scooter", "name": "1f1e6475685eac56a0aafe156651f22c", "rental_uris": {"ios": "https://dc.lft.to/lastmile_qr_scan", "android": "https://dc.lft.to/lastmile_qr_scan"}, "fusion_lon": 0.0, "lat": 38.902388333333334, "is_disabled": 0, "bike_id": "1f1e6475685eac56a0aafe156651f22c", "fusion_lat": 0.0, "is_reserved": 0, "lon": -77.04015266666667}, {"type": "electric_bike", "name": "c96ab37adb22491752854235f2def982", "rental_uris": {"ios": "https://dc.lft.to/lastmile_qr_scan", "android": "https://dc.lft.to/lastmile_qr_scan"}, "fusion_lon": 0.0, "lat": 38.940512166666664, "is_disabled": 0, "bike_id": "c96ab37adb22491752854235f2def982", "fusion_lat": 0.0, "is_reserved": 0, "lon": -76.90421316666666}, {"type": "electric_scooter", "name": "2f473442b10786e8dc2cb6d9f84cb39b", "rental_uris": {"ios": "https://dc.lft.to/lastmile_qr_scan", "android": "https://dc.lft.to/lastmile_qr_scan"}, "fusion_lon": 0.0, "lat": 38.880012666666666, "is_disabled": 0, "bike_id": "2f473442b10786e8dc2cb6d9f84cb39b", "fusion_lat": 0.0, "is_reserved": 0, "lon": -76.9950895}, {"type": "electric_scooter", "name": "c65f50ca6ebc15a1eec22fcf76c07b82", "rental_uris": {"ios": "https://dc.lft.to/lastmile_qr_scan", "android": "https://dc.lft.to/lastmile_qr_scan"}, "fusion_lon": 0.0, "lat": 38.90065766666667, "is_disabled": 0, "bike_id": "c65f50ca6ebc15a1eec22fcf76c07b82", "fusion_lat": 0.0, "is_reserved": 0, "lon": -77.04917916666666}, {"type": "electric_scooter", "name": "cd90b7750a24bfa7646c7d5ff2600f94", "rental_uris": {"ios": "https://dc.lft.to/lastmile_qr_scan", "android": "https://dc.lft.to/lastmile_qr_scan"}, "fusion_lon": 0.0, "lat": 38.887178166666665, "is_disabled": 0, "bike_id": "cd90b7750a24bfa7646c7d5ff2600f94", "fusion_lat": 0.0, "is_reserved": 0, "lon": -76.9834965}, {"type": "electric_scooter", "name": "6e2dd39b9e61fd4f55e8cbb79be905b5", "rental_uris": {"ios": "https://dc.lft.to/lastmile_qr_scan", "android": "https://dc.lft.to/lastmile_qr_scan"}, "fusion_lon": 0.0, "lat": 38.897340666666665, "is_disabled": 0, "bike_id": "6e2dd39b9e61fd4f55e8cbb79be905b5", "fusion_lat": 0.0, "is_reserved": 0, "lon": -77.0463085}, {"type": "electric_scooter", "name": "515bdf25dd9842fee5818045446bd9b4", "rental_uris": {"ios": "https://dc.lft.to/lastmile_qr_scan", "android": "https://dc.lft.to/lastmile_qr_scan"}, "fusion_lon": 0.0, "lat": 38.902808666666665, "is_disabled": 0, "bike_id": "515bdf25dd9842fee5818045446bd9b4", "fusion_lat": 0.0, "is_reserved": 0, "lon": -77.03846516666667}, {"type": "electric_scooter", "name": "0c79a3a3488467a099d5123f1027bb9c", "rental_uris": {"ios": "https://dc.lft.to/lastmile_qr_scan", "android": "https://dc.lft.to/lastmile_qr_scan"}, "fusion_lon": 0.0, "lat": 38.878958833333336, "is_disabled": 0, "bike_id": "0c79a3a3488467a099d5123f1027bb9c", "fusion_lat": 0.0, "is_reserved": 0, "lon": -77.0136695}, {"type": "electric_scooter", "name": "3ae2fde67df6260fb5aa947d95eea038", "rental_uris": {"ios": "https://dc.lft.to/lastmile_qr_scan", "android": "https://dc.lft.to/lastmile_qr_scan"}, "fusion_lon": 0.0, "lat": 38.918141, "is_disabled": 0, "bike_id": "3ae2fde67df6260fb5aa947d95eea038", "fusion_lat": 0.0, "is_reserved": 0, "lon": -77.03713333333333}, {"type": "electric_scooter", "name": "04c49e6d583a4809a3dac3d46f1ea4b6", "rental_uris": {"ios": "https://dc.lft.to/lastmile_qr_scan", "android": "https://dc.lft.to/lastmile_qr_scan"}, "fusion_lon": 0.0, "lat": 38.93535983333334, "is_disabled": 0, "bike_id": "04c49e6d583a4809a3dac3d46f1ea4b6", "fusion_lat": 0.0, "is_reserved": 0, "lon": -77.0235485}, {"type": "electric_scooter", "name": "d9125cc8adc2a58864c315786dc0dab8", "rental_uris": {"ios": "https://dc.lft.to/lastmile_qr_scan", "android": "https://dc.lft.to/lastmile_qr_scan"}, "fusion_lon": 0.0, "lat": 38.9296065, "is_disabled": 0, "bike_id": "d9125cc8adc2a58864c315786dc0dab8", "fusion_lat": 0.0, "is_reserved": 0, "lon": -77.03100316666666}, {"type": "electric_scooter", "name": "0e66adc7ac931782710344bde0919e08", "rental_uris": {"ios": "https://dc.lft.to/lastmile_qr_scan", "android": "https://dc.lft.to/lastmile_qr_scan"}, "fusion_lon": 0.0, "lat": 38.902611666666665, "is_disabled": 0, "bike_id": "0e66adc7ac931782710344bde0919e08", "fusion_lat": 0.0, "is_reserved": 0, "lon": -77.01758066666666}, {"type": "electric_scooter", "name": "6142f4dd01404caad42599c2d033180e", "rental_uris": {"ios": "https://dc.lft.to/lastmile_qr_scan", "android": "https://dc.lft.to/lastmile_qr_scan"}, "fusion_lon": 0.0, "lat": 38.9139825, "is_disabled": 0, "bike_id": "6142f4dd01404caad42599c2d033180e", "fusion_lat": 0.0, "is_reserved": 0, "lon": -77.04176966666667}, {"type": "electric_scooter", "name": "b2c1f5cdca721ce248001422d5d1c252", "rental_uris": {"ios": "https://dc.lft.to/lastmile_qr_scan", "android": "https://dc.lft.to/lastmile_qr_scan"}, "fusion_lon": 0.0, "lat": 38.90264783333333, "is_disabled": 0, "bike_id": "b2c1f5cdca721ce248001422d5d1c252", "fusion_lat": 0.0, "is_reserved": 0, "lon": -77.01757966666666}, {"type": "electric_bike", "name": "c841bf1f7a3b38dbdae6cda4ccbdfd1a", "rental_uris": {"ios": "https://dc.lft.to/lastmile_qr_scan", "android": "https://dc.lft.to/lastmile_qr_scan"}, "fusion_lon": 0.0, "lat": 38.935626166666665, "is_disabled": 0, "bike_id": "c841bf1f7a3b38dbdae6cda4ccbdfd1a", "fusion_lat": 0.0, "is_reserved": 0, "lon": -77.03697733333334}, {"type": "electric_scooter", "name": "b6f7937b0c640e9f467289fcbfc8758d", "rental_uris": {"ios": "https://dc.lft.to/lastmile_qr_scan", "android": "https://dc.lft.to/lastmile_qr_scan"}, "fusion_lon": 0.0, "lat": 38.93730683333333, "is_disabled": 0, "bike_id": "b6f7937b0c640e9f467289fcbfc8758d", "fusion_lat": 0.0, "is_reserved": 0, "lon": -77.0326265}, {"type": "electric_scooter", "name": "653afcf1766e89c259d3574b8f328bf7", "rental_uris": {"ios": "https://dc.lft.to/lastmile_qr_scan", "android": "https://dc.lft.to/lastmile_qr_scan"}, "fusion_lon": 0.0, "lat": 38.92435433333333, "is_disabled": 0, "bike_id": "653afcf1766e89c259d3574b8f328bf7", "fusion_lat": 0.0, "is_reserved": 0, "lon": -77.05225116666666}, {"type": "electric_scooter", "name": "691be3634db9437f419315daf8b2bf1b", "rental_uris": {"ios": "https://dc.lft.to/lastmile_qr_scan", "android": "https://dc.lft.to/lastmile_qr_scan"}, "fusion_lon": 0.0, "lat": 38.972380666666666, "is_disabled": 0, "bike_id": "691be3634db9437f419315daf8b2bf1b", "fusion_lat": 0.0, "is_reserved": 0, "lon": -77.0271605}, {"type": "electric_scooter", "name": "f8b4654b97187c184da0b040b8596749", "rental_uris": {"ios": "https://dc.lft.to/lastmile_qr_scan", "android": "https://dc.lft.to/lastmile_qr_scan"}, "fusion_lon": 0.0, "lat": 38.89226766666667, "is_disabled": 0, "bike_id": "f8b4654b97187c184da0b040b8596749", "fusion_lat": 0.0, "is_reserved": 0, "lon": -77.04376233333333}, {"type": "electric_scooter", "name": "ff93c3fb9e2d5f83a439dbef84d27653", "rental_uris": {"ios": "https://dc.lft.to/lastmile_qr_scan", "android": "https://dc.lft.to/lastmile_qr_scan"}, "fusion_lon": 0.0, "lat": 38.892245333333335, "is_disabled": 0, "bike_id": "ff93c3fb9e2d5f83a439dbef84d27653", "fusion_lat": 0.0, "is_reserved": 0, "lon": -77.03339033333333}, {"type": "electric_scooter", "name": "e353899641a68c00ad9cba6e0d033b1d", "rental_uris": {"ios": "https://dc.lft.to/lastmile_qr_scan", "android": "https://dc.lft.to/lastmile_qr_scan"}, "fusion_lon": 0.0, "lat": 38.923048, "is_disabled": 0, "bike_id": "e353899641a68c00ad9cba6e0d033b1d", "fusion_lat": 0.0, "is_reserved": 0, "lon": -77.04170533333334}, {"type": "electric_scooter", "name": "e4c4799ee5c5158ad4dfce8f8976cbad", "rental_uris": {"ios": "https://dc.lft.to/lastmile_qr_scan", "android": "https://dc.lft.to/lastmile_qr_scan"}, "fusion_lon": 0.0, "lat": 38.865050833333335, "is_disabled": 0, "bike_id": "e4c4799ee5c5158ad4dfce8f8976cbad", "fusion_lat": 0.0, "is_reserved": 0, "lon": -76.990019}, {"type": "electric_scooter", "name": "a28fbd6689cc837bfccf07f1b4f92800", "rental_uris": {"ios": "https://dc.lft.to/lastmile_qr_scan", "android": "https://dc.lft.to/lastmile_qr_scan"}, "fusion_lon": 0.0, "lat": 38.8978925, "is_disabled": 0, "bike_id": "a28fbd6689cc837bfccf07f1b4f92800", "fusion_lat": 0.0, "is_reserved": 0, "lon": -76.9312775}, {"type": "electric_scooter", "name": "950240253b7f595b1ebc09cee393b020", "rental_uris": {"ios": "https://dc.lft.to/lastmile_qr_scan", "android": "https://dc.lft.to/lastmile_qr_scan"}, "fusion_lon": 0.0, "lat": 38.9361105, "is_disabled": 0, "bike_id": "950240253b7f595b1ebc09cee393b020", "fusion_lat": 0.0, "is_reserved": 0, "lon": -77.05863533333333}, {"type": "electric_scooter", "name": "4e3ec6cfca9cb85cf263307dfef3336f", "rental_uris": {"ios": "https://dc.lft.to/lastmile_qr_scan", "android": "https://dc.lft.to/lastmile_qr_scan"}, "fusion_lon": 0.0, "lat": 38.9155455, "is_disabled": 0, "bike_id": "4e3ec6cfca9cb85cf263307dfef3336f", "fusion_lat": 0.0, "is_reserved": 0, "lon": -77.02351783333333}, {"type": "electric_scooter", "name": "edc07c8501ad0e2824244f78fce2c3f9", "rental_uris": {"ios": "https://dc.lft.to/lastmile_qr_scan", "android": "https://dc.lft.to/lastmile_qr_scan"}, "fusion_lon": 0.0, "lat": 38.90159116666667, "is_disabled": 0, "bike_id": "edc07c8501ad0e2824244f78fce2c3f9", "fusion_lat": 0.0, "is_reserved": 0, "lon": -76.98076933333333}, {"type": "electric_scooter", "name": "2a2efb0114fd44f8a6462238cd4d5528", "rental_uris": {"ios": "https://dc.lft.to/lastmile_qr_scan", "android": "https://dc.lft.to/lastmile_qr_scan"}, "fusion_lon": 0.0, "lat": 38.929884666666666, "is_disabled": 0, "bike_id": "2a2efb0114fd44f8a6462238cd4d5528", "fusion_lat": 0.0, "is_reserved": 0, "lon": -77.05503316666666}, {"type": "electric_scooter", "name": "06c09e863619fb5de9483b77576d4c04", "rental_uris": {"ios": "https://dc.lft.to/lastmile_qr_scan", "android": "https://dc.lft.to/lastmile_qr_scan"}, "fusion_lon": 0.0, "lat": 38.9044605, "is_disabled": 0, "bike_id": "06c09e863619fb5de9483b77576d4c04", "fusion_lat": 0.0, "is_reserved": 0, "lon": -77.018994}, {"type": "electric_scooter", "name": "150aa9a07394aa02994d6dc928f3fed0", "rental_uris": {"ios": "https://dc.lft.to/lastmile_qr_scan", "android": "https://dc.lft.to/lastmile_qr_scan"}, "fusion_lon": 0.0, "lat": 38.9736745, "is_disabled": 0, "bike_id": "150aa9a07394aa02994d6dc928f3fed0", "fusion_lat": 0.0, "is_reserved": 0, "lon": -77.01853266666667}, {"type": "electric_scooter", "name": "77528b7394c43f2d168c0f59427457e0", "rental_uris": {"ios": "https://dc.lft.to/lastmile_qr_scan", "android": "https://dc.lft.to/lastmile_qr_scan"}, "fusion_lon": 0.0, "lat": 38.902480833333335, "is_disabled": 0, "bike_id": "77528b7394c43f2d168c0f59427457e0", "fusion_lat": 0.0, "is_reserved": 0, "lon": -77.03527833333334}, {"type": "electric_scooter", "name": "bc46bcfefa987a03036c8ba334d86e63", "rental_uris": {"ios": "https://dc.lft.to/lastmile_qr_scan", "android": "https://dc.lft.to/lastmile_qr_scan"}, "fusion_lon": 0.0, "lat": 38.901607, "is_disabled": 0, "bike_id": "bc46bcfefa987a03036c8ba334d86e63", "fusion_lat": 0.0, "is_reserved": 0, "lon": -77.01332716666667}, {"type": "electric_scooter", "name": "0e57c64181ddeeb2a8a13f5c70eef089", "rental_uris": {"ios": "https://dc.lft.to/lastmile_qr_scan", "android": "https://dc.lft.to/lastmile_qr_scan"}, "fusion_lon": 0.0, "lat": 38.912321, "is_disabled": 0, "bike_id": "0e57c64181ddeeb2a8a13f5c70eef089", "fusion_lat": 0.0, "is_reserved": 0, "lon": -76.98791533333333}, {"type": "electric_scooter", "name": "61db67f493e77c143a4795148fe60e24", "rental_uris": {"ios": "https://dc.lft.to/lastmile_qr_scan", "android": "https://dc.lft.to/lastmile_qr_scan"}, "fusion_lon": 0.0, "lat": 38.884095, "is_disabled": 0, "bike_id": "61db67f493e77c143a4795148fe60e24", "fusion_lat": 0.0, "is_reserved": 0, "lon": -77.015312}, {"type": "electric_scooter", "name": "178eca28f66f84d966c3cfd57b7db880", "rental_uris": {"ios": "https://dc.lft.to/lastmile_qr_scan", "android": "https://dc.lft.to/lastmile_qr_scan"}, "fusion_lon": 0.0, "lat": 38.9111585, "is_disabled": 0, "bike_id": "178eca28f66f84d966c3cfd57b7db880", "fusion_lat": 0.0, "is_reserved": 0, "lon": -77.0814105}, {"type": "electric_scooter", "name": "0816bb09c09ba5e21e11d10ddad9fcec", "rental_uris": {"ios": "https://dc.lft.to/lastmile_qr_scan", "android": "https://dc.lft.to/lastmile_qr_scan"}, "fusion_lon": 0.0, "lat": 38.89806883333333, "is_disabled": 0, "bike_id": "0816bb09c09ba5e21e11d10ddad9fcec", "fusion_lat": 0.0, "is_reserved": 0, "lon": -77.03327716666666}, {"type": "electric_scooter", "name": "91a82fc6173dd9fbf890d7c6db06290d", "rental_uris": {"ios": "https://dc.lft.to/lastmile_qr_scan", "android": "https://dc.lft.to/lastmile_qr_scan"}, "fusion_lon": 0.0, "lat": 38.88745333333333, "is_disabled": 0, "bike_id": "91a82fc6173dd9fbf890d7c6db06290d", "fusion_lat": 0.0, "is_reserved": 0, "lon": -77.02853166666667},