{"data": {"bikes": [{"fusion_lat": 0.0, "is_disabled": 0, "lat": 38.923699166666665, "lon": -77.02727183333333, "fusion_lon": 0.0, "bike_id": "db7a2245b723ae9ef14f6d59cb6568e3", "type": "electric_scooter", "name": "db7a2245b723ae9ef14f6d59cb6568e3", "is_reserved": 0, "rental_uris": {"ios": "https://dc.lft.to/lastmile_qr_scan", "android": "https://dc.lft.to/lastmile_qr_scan"}}, {"fusion_lat": 0.0, "is_disabled": 0, "lat": 38.81912333333333, "lon": -77.12659966666666, "fusion_lon": 0.0, "bike_id": "547ed28126e6d02b7a3fc3029e36635f", "type": "electric_bike", "name": "547ed28126e6d02b7a3fc3029e36635f", "is_reserved": 0, "rental_uris": {"ios": "https://dc.lft.to/lastmile_qr_scan", "android": "https://dc.lft.to/lastmile_qr_scan"}}, {"fusion_lat": 0.0, "is_disabled": 0, "lat": 38.907869166666664, "lon": -77.07254866666666, "fusion_lon": 0.0, "bike_id": "45854968af6ae6b45416d38ceb1e685a", "type": "electric_scooter", "name": "45854968af6ae6b45416d38ceb1e685a", "is_reserved": 0, "rental_uris": {"ios": "https://dc.lft.to/lastmile_qr_scan", "android": "https://dc.lft.to/lastmile_qr_scan"}}, {"fusion_lat": 0.0, "is_disabled": 0, "lat": 38.914145, "lon": -77.03175733333333, "fusion_lon": 0.0, "bike_id": "062aa2e3b5216b52d57ae8cd5ab609a7", "type": "electric_scooter", "name": "062aa2e3b5216b52d57ae8cd5ab609a7", "is_reserved": 0, "rental_uris": {"ios": "https://dc.lft.to/lastmile_qr_scan", "android": "https://dc.lft.to/lastmile_qr_scan"}}, {"fusion_lat": 0.0, "is_disabled": 0, "lat": 38.899087, "lon": -76.933835, "fusion_lon": 0.0, "bike_id": "503001121bc7c8dfe146294e8c517cfe", "type": "electric_scooter", "name": "503001121bc7c8dfe146294e8c517cfe", "is_reserved": 0, "rental_uris": {"ios": "https://dc.lft.to/lastmile_qr_scan", "android": "https://dc.lft.to/lastmile_qr_scan"}}, {"fusion_lat": 0.0, "is_disabled": 0, "lat": 38.882441, "lon": -76.99495733333333, "fusion_lon": 0.0, "bike_id": "1173aa65489c8638576f4b3488f9b519", "type": "electric_scooter", "name": "1173aa65489c8638576f4b3488f9b519", "is_reserved": 0, "rental_uris": {"ios": "https://dc.lft.to/lastmile_qr_scan", "android": "https://dc.lft.to/lastmile_qr_scan"}}, {"fusion_lat": 0.0, "is_disabled": 0, "lat": 38.898254, "lon": -77.02981166666666, "fusion_lon": 0.0, "bike_id": "e4069b34b93b4060afb74849cfb8b6e1", "type": "electric_scooter", "name": "e4069b34b93b4060afb74849cfb8b6e1", "is_reserved": 0, "rental_uris": {"ios": "https://dc.lft.to/lastmile_qr_scan", "android": "https://dc.lft.to/lastmile_qr_scan"}}, {"fusion_lat": 0.0, "is_disabled": 0, "lat": 38.91019516666667, "lon": -77.043357, "fusion_lon": 0.0, "bike_id": "685d3366d72d01f63421fd854dcee5b4", "type": "electric_scooter", "name": "685d3366d72d01f63421fd854dcee5b4", "is_reserved": 0, "rental_uris": {"ios": "https://dc.lft.to/lastmile_qr_scan", "android": "https://dc.lft.to/lastmile_qr_scan"}}, {"fusion_lat": 0.0, "is_disabled": 0, "lat": 38.905879166666665, "lon": -77.04116616666667, "fusion_lon": 0.0, "bike_id": "3df55ff3f147c10ecf2d9cf9eec3f6ff", "type": "electric_scooter", "name": "3df55ff3f147c10ecf2d9cf9eec3f6ff", "is_reserved": 0, "rental_uris": {"ios": "https://dc.lft.to/lastmile_qr_scan", "android": "https://dc.lft.to/lastmile_qr_scan"}}, {"fusion_lat": 0.0, "is_disabled": 0, "lat": 38.924843, "lon": -77.02271383333333, "fusion_lon": 0.0, "bike_id": "11bb2ab54e21e2a0d2ee7c5e2cf05817", "type": "electric_scooter", "name": "11bb2ab54e21e2a0d2ee7c5e2cf05817", "is_reserved": 0, "rental_uris": {"ios": "https://dc.lft.to/lastmile_qr_scan", "android": "https://dc.lft.to/lastmile_qr_scan"}}, {"fusion_lat": 0.0, "is_disabled": 0, "lat": 38.897373333333334, "lon": -77.025728, "fusion_lon": 0.0, "bike_id": "71172becc3f2a48e06cdef2331a824e7", "type": "electric_scooter", "name": "71172becc3f2a48e06cdef2331a824e7", "is_reserved": 0, "rental_uris": {"ios": "https://dc.lft.to/lastmile_qr_scan", "android": "https://dc.lft.to/lastmile_qr_scan"}}, {"fusion_lat": 0.0, "is_disabled": 0, "lat": 38.916721833333334, "lon": -77.0272285, "fusion_lon": 0.0, "bike_id": "4fb857a35a390e05ef3ed75e004e52a7", "type": "electric_scooter", "name": "4fb857a35a390e05ef3ed75e004e52a7", "is_reserved": 0, "rental_uris": {"ios": "https://dc.lft.to/lastmile_qr_scan", "android": "https://dc.lft.to/lastmile_qr_scan"}}, {"fusion_lat": 0.0, "is_disabled": 0, "lat": 38.876429, "lon": -77.00087966666666, "fusion_lon": 0.0, "bike_id": "ab2cbb92b4065c93921e544e0c4f71fa", "type": "electric_scooter", "name": "ab2cbb92b4065c93921e544e0c4f71fa", "is_reserved": 0, "rental_uris": {"ios": "https://dc.lft.to/lastmile_qr_scan", "android": "https://dc.lft.to/lastmile_qr_scan"}}, {"fusion_lat": 0.0, "is_disabled": 0, "lat": 38.930975333333336, "lon": -77.02659033333333, "fusion_lon": 0.0, "bike_id": "78aa1bc897565cd7a9e117032f459a48", "type": "electric_scooter", "name": "78aa1bc897565cd7a9e117032f459a48", "is_reserved": 0, "rental_uris": {"ios": "https://dc.lft.to/lastmile_qr_scan", "android": "https://dc.lft.to/lastmile_qr_scan"}}, {"fusion_lat": 0.0, "is_disabled": 0, "lat": 38.89220683333333, "lon": -77.027467, "fusion_lon": 0.0, "bike_id": "9474353b18d4fddb2db2c349da1e3eca", "type": "electric_scooter", "name": "9474353b18d4fddb2db2c349da1e3eca", "is_reserved": 0, "rental_uris": {"ios": "https://dc.lft.to/lastmile_qr_scan", "android": "https://dc.lft.to/lastmile_qr_scan"}}, {"fusion_lat": 0.0, "is_disabled": 0, "lat": 38.8951275, "lon": -77.01979933333334, "fusion_lon": 0.0, "bike_id": "7029dd79120476f4790f3e09ba1a13b1", "type": "electric_scooter", "name": "7029dd79120476f4790f3e09ba1a13b1", "is_reserved": 0, "rental_uris": {"ios": "https://dc.lft.to/lastmile_qr_scan", "android": "https://dc.lft.to/lastmile_qr_scan"}}, {"fusion_lat": 0.0, "is_disabled": 0, "lat": 38.93350783333333, "lon": -77.06146233333334, "fusion_lon": 0.0, "bike_id": "b5e49f03882179419e9dbb2acd8cad96", "type": "electric_scooter", "name": "b5e49f03882179419e9dbb2acd8cad96", "is_reserved": 0, "rental_uris": {"ios": "https://dc.lft.to/lastmile_qr_scan", "android": "https://dc.lft.to/lastmile_qr_scan"}}, {"fusion_lat": 0.0, "is_disabled": 0, "lat": 38.89573266666667, "lon": -77.013596, "fusion_lon": 0.0, "bike_id": "a7d3fa9422d39aadb4067d8644c0123b", "type": "electric_scooter", "name": "a7d3fa9422d39aadb4067d8644c0123b", "is_reserved": 0, "rental_uris": {"ios": "https://dc.lft.to/lastmile_qr_scan", "android": "https://dc.lft.to/lastmile_qr_scan"}}, {"fusion_lat": 0.0, "is_disabled": 0, "lat": 38.9060585, "lon": -77.12882966666666, "fusion_lon": 0.0, "bike_id": "22af938aa7b36393d42f3a6b667326d1", "type": "electric_bike", "name": "22af938aa7b36393d42f3a6b667326d1", "is_reserved": 0, "rental_uris": {"ios": "https://dc.lft.to/lastmile_qr_scan", "android": "https://dc.lft.to/lastmile_qr_scan"}}, {"fusion_lat": 0.0, "is_disabled": 0, "lat": 38.89219283333333, "lon": -77.0242225, "fusion_lon": 0.0, "bike_id": "e483ffd3393ed6eed4a67602f2776a49", "type": "electric_scooter", "name": "e483ffd3393ed6eed4a67602f2776a49", "is_reserved": 0, "rental_uris": {"ios": "https://dc.lft.to/lastmile_qr_scan", "android": "https://dc.lft.to/lastmile_qr_scan"}}, {"fusion_lat": 0.0, "is_disabled": 0, "lat": 38.89503716666667, "lon": -77.00339466666667, "fusion_lon": 0.0, "bike_id": "4a38439cd1130824221eaa15bed535b1", "type": "electric_scooter", "name": "4a38439cd1130824221eaa15bed535b1", "is_reserved": 0, "rental_uris": {"ios": "https://dc.lft.to/lastmile_qr_scan", "android": "https://dc.lft.to/lastmile_qr_scan"}}, {"fusion_lat": 0.0, "is_disabled": 0, "lat": 38.903963166666664, "lon": -77.06297916666666, "fusion_lon": 0.0, "bike_id": "5fb58d1a29e6021aeb4471bbb198e302", "type": "electric_scooter", "name": "5fb58d1a29e6021aeb4471bbb198e302", "is_reserved": 0, "rental_uris": {"ios": "https://dc.lft.to/lastmile_qr_scan", "android": "https://dc.lft.to/lastmile_qr_scan"}}, {"fusion_lat": 0.0, "is_disabled": 0, "lat": 38.920569, "lon": -76.97074133333334, "fusion_lon": 0.0, "bike_id": "611d39babd5e6fa188ba314e4fb9b060", "type": "electric_bike", "name": "611d39babd5e6fa188ba314e4fb9b060", "is_reserved": 0, "rental_uris": {"ios": "https://dc.lft.to/lastmile_qr_scan", "android": "https://dc.lft.to/lastmile_qr_scan"}}, {"fusion_lat": 0.0, "is_disabled": 0, "lat": 38.93448016666667, "lon": -77.02981816666667, "fusion_lon": 0.0, "bike_id": "205f8878c8293bbf9b8ddeac802a9245", "type": "electric_scooter", "name": "205f8878c8293bbf9b8ddeac802a9245", "is_reserved": 0, "rental_uris": {"ios": "https://dc.lft.to/lastmile_qr_scan", "android": "https://dc.lft.to/lastmile_qr_scan"}}, {"fusion_lat": 0.0, "is_disabled": 0, "lat": 38.89700283333333, "lon": -77.03275966666666, "fusion_lon": 0.0, "bike_id": "e6fc0edcf907821dada227cf067ec427", "type": "electric_scooter", "name": "e6fc0edcf907821dada227cf067ec427", "is_reserved": 0, "rental_uris": {"ios": "https://dc.lft.to/lastmile_qr_scan", "android": "https://dc.lft.to/lastmile_qr_scan"}}, {"fusion_lat": 0.0, "is_disabled": 0, "lat": 38.92106116666667, "lon": -77.03195466666666, "fusion_lon": 0.0, "bike_id": "9489138399a110521bea04e047ad7ef5", "type": "electric_scooter", "name": "9489138399a110521bea04e047ad7ef5", "is_reserved": 0, "rental_uris": {"ios": "https://dc.lft.to/lastmile_qr_scan", "android": "https://dc.lft.to/lastmile_qr_scan"}}, {"fusion_lat": 0.0, "is_disabled": 0, "lat": 38.92409166666667, "lon": -77.02035666666667, "fusion_lon": 0.0, "bike_id": "5b43efbbb3d74a743b14d30e87de0bc0", "type": "electric_scooter", "name": "5b43efbbb3d74a743b14d30e87de0bc0", "is_reserved": 0, "rental_uris": {"ios": "https://dc.lft.to/lastmile_qr_scan", "android": "https://dc.lft.to/lastmile_qr_scan"}}, {"fusion_lat": 0.0, "is_disabled": 0, "lat": 38.897751666666665, "lon": -77.01204983333334, "fusion_lon": 0.0, "bike_id": "e99b4e9fa39b1bcb2b02f43dad7722db", "type": "electric_scooter", "name": "e99b4e9fa39b1bcb2b02f43dad7722db", "is_reserved": 0, "rental_uris": {"ios": "https://dc.lft.to/lastmile_qr_scan", "android": "https://dc.lft.to/lastmile_qr_scan"}}, {"fusion_lat": 0.0, "is_disabled": 0, "lat": 38.90243483333333, "lon": -77.045185, "fusion_lon": 0.0, "bike_id": "6a74b4c9b984759a591e479f5281ea57", "type": "electric_scooter", "name": "6a74b4c9b984759a591e479f5281ea57", "is_reserved": 0, "rental_uris": {"ios": "https://dc.lft.to/lastmile_qr_scan", "android": "https://dc.lft.to/lastmile_qr_scan"}}, {"fusion_lat": 0.0, "is_disabled": 0, "lat": 38.90119266666667, "lon": -77.04440766666667, "fusion_lon": 0.0, "bike_id": "7db10f83705863299e16a6884f790606", "type": "electric_scooter", "name": "7db10f83705863299e16a6884f790606", "is_reserved": 0, "rental_uris": {"ios": "https://dc.lft.to/lastmile_qr_scan", "android": "https://dc.lft.to/lastmile_qr_scan"}}, {"fusion_lat": 0.0, "is_disabled": 0, "lat": 38.9236365, "lon": -77.05132666666667, "fusion_lon": 0.0, "bike_id": "24e58e25f1701165d036349862469117", "type": "electric_scooter", "name": "24e58e25f1701165d036349862469117", "is_reserved": 0, "rental_uris": {"ios": "https://dc.lft.to/lastmile_qr_scan", "android": "https://dc.lft.to/lastmile_qr_scan"}}, {"fusion_lat": 0.0, "is_disabled": 0, "lat": 38.944828666666666, "lon": -77.06397266666667, "fusion_lon": 0.0, "bike_id": "9ec3c0586dc51b266a5bb916d361c6ed", "type": "electric_scooter", "name": "9ec3c0586dc51b266a5bb916d361c6ed", "is_reserved": 0, "rental_uris": {"ios": "https://dc.lft.to/lastmile_qr_scan", "android": "https://dc.lft.to/lastmile_qr_scan"}}, {"fusion_lat": 0.0, "is_disabled": 0, "lat": 38.89039366666667, "lon": -77.02980283333333, "fusion_lon": 0.0, "bike_id": "7b8f6e4e6965292bc40a5a13568684db", "type": "electric_scooter", "name": "7b8f6e4e6965292bc40a5a13568684db", "is_reserved": 0, "rental_uris": {"ios": "https://dc.lft.to/lastmile_qr_scan", "android": "https://dc.lft.to/lastmile_qr_scan"}}, {"fusion_lat": 0.0, "is_disabled": 0, "lat": 38.924658, "lon": -77.02207066666666, "fusion_lon": 0.0, "bike_id": "f6789f82cde8a9a35f5fb079eec5b178", "type": "electric_scooter", "name": "f6789f82cde8a9a35f5fb079eec5b178", "is_reserved": 0, "rental_uris": {"ios": "https://dc.lft.to/lastmile_qr_scan", "android": "https://dc.lft.to/lastmile_qr_scan"}}, {"fusion_lat": 0.0, "is_disabled": 0, "lat": 38.85245783333333, "lon": -77.114315, "fusion_lon": 0.0, "bike_id": "b9a959baf96d2c46afb456bc0723076f", "type": "electric_bike", "name": "b9a959baf96d2c46afb456bc0723076f", "is_reserved": 0, "rental_uris": {"ios": "https://dc.lft.to/lastmile_qr_scan", "android": "https://dc.lft.to/lastmile_qr_scan"}}, {"fusion_lat": 0.0, "is_disabled": 0, "lat": 38.923274666666664, "lon": -77.056859, "fusion_lon": 0.0, "bike_id": "39ccdf2f76d8135991c7b1c434b8cf86", "type": "electric_scooter", "name": "39ccdf2f76d8135991c7b1c434b8cf86", "is_reserved": 0, "rental_uris": {"ios": "https://dc.lft.to/lastmile_qr_scan", "android": "https://dc.lft.to/lastmile_qr_scan"}}, {"fusion_lat": 0.0, "is_disabled": 0, "lat": 38.912654833333335, "lon": -77.02314983333333, "fusion_lon": 0.0, "bike_id": "fd2faaf993179198d61530f5d5040ce1", "type": "electric_scooter", "name": "fd2faaf993179198d61530f5d5040ce1", "is_reserved": 0, "rental_uris": {"ios": "https://dc.lft.to/lastmile_qr_scan", "android": "https://dc.lft.to/lastmile_qr_scan"}}, {"fusion_lat": 0.0, "is_disabled": 0, "lat": 38.905503833333334, "lon": -77.046973, "fusion_lon": 0.0, "bike_id": "2856de5c55f873c6efca6edfce2119e4", "type": "electric_scooter", "name": "2856de5c55f873c6efca6edfce2119e4", "is_reserved": 0, "rental_uris": {"ios": "https://dc.lft.to/lastmile_qr_scan", "android": "https://dc.lft.to/lastmile_qr_scan"}}, {"fusion_lat": 0.0, "is_disabled": 0, "lat": 38.9087855, "lon": -77.0645605, "fusion_lon": 0.0, "bike_id": "eca25b592a41a9f2d897b91ff4a84039", "type": "electric_scooter", "name": "eca25b592a41a9f2d897b91ff4a84039", "is_reserved": 0, "rental_uris": {"ios": "https://dc.lft.to/lastmile_qr_scan", "android": "https://dc.lft.to/lastmile_qr_scan"}}, {"fusion_lat": 0.0, "is_disabled": 0, "lat": 38.89330266666666, "lon": -76.939315, "fusion_lon": 0.0, "bike_id": "34ba968ff82c2e23c114cf3525bf6d9f", "type": "electric_scooter", "name": "34ba968ff82c2e23c114cf3525bf6d9f", "is_reserved": 0, "rental_uris": {"ios": "https://dc.lft.to/lastmile_qr_scan", "android": "https://dc.lft.to/lastmile_qr_scan"}}, {"fusion_lat": 0.0, "is_disabled": 0, "lat": 38.957493166666666, "lon": -76.98024683333334, "fusion_lon": 0.0, "bike_id": "bb8d3905bf0c6324228bfab532dccf99", "type": "electric_bike", "name": "bb8d3905bf0c6324228bfab532dccf99", "is_reserved": 0, "rental_uris": {"ios": "https://dc.lft.to/lastmile_qr_scan", "android": "https://dc.lft.to/lastmile_qr_scan"}}, {"fusion_lat": 0.0, "is_disabled": 0, "lat": 38.931837333333334, "lon": -77.02351133333333, "fusion_lon": 0.0, "bike_id": "9fa87a07abf060e3f1894acbbce21519", "type": "electric_bike", "name": "9fa87a07abf060e3f1894acbbce21519", "is_reserved": 0, "rental_uris": {"ios": "https://dc.lft.to/lastmile_qr_scan", "android": "https://dc.lft.to/lastmile_qr_scan"}}, {"fusion_lat": 0.0, "is_disabled": 0, "lat": 38.92469716666667, "lon": -77.037939, "fusion_lon": 0.0, "bike_id": "577a76bfa569e52a84f105c66251c507", "type": "electric_scooter", "name": "577a76bfa569e52a84f105c66251c507", "is_reserved": 0, "rental_uris": {"ios": "https://dc.lft.to/lastmile_qr_scan", "android": "https://dc.lft.to/lastmile_qr_scan"}}, {"fusion_lat": 0.0, "is_disabled": 0, "lat": 38.85786183333333, "lon": -77.0996265, "fusion_lon": 0.0, "bike_id": "47057b84025aaddb980422f7e0912442", "type": "electric_bike", "name": "47057b84025aaddb980422f7e0912442", "is_reserved": 0, "rental_uris": {"ios": "https://dc.lft.to/lastmile_qr_scan", "android": "https://dc.lft.to/lastmile_qr_scan"}}, {"fusion_lat": 0.0, "is_disabled": 0, "lat": 38.95587616666667, "lon": -77.02813433333333, "fusion_lon": 0.0, "bike_id": "afa8fe693589362df0c9fad2f878d831", "type": "electric_scooter", "name": "afa8fe693589362df0c9fad2f878d831", "is_reserved": 0, "rental_uris": {"ios": "https://dc.lft.to/lastmile_qr_scan", "android": "https://dc.lft.to/lastmile_qr_scan"}}, {"fusion_lat": 0.0, "is_disabled": 0, "lat": 38.898389, "lon": -77.02859616666667, "fusion_lon": 0.0, "bike_id": "2eb3b0d7f370b69028800fc9b30a18ee", "type": "electric_scooter", "name": "2eb3b0d7f370b69028800fc9b30a18ee", "is_reserved": 0, "rental_uris": {"ios": "https://dc.lft.to/lastmile_qr_scan", "android": "https://dc.lft.to/lastmile_qr_scan"}}, {"fusion_lat": 0.0, "is_disabled": 0, "lat": 38.9158955, "lon": -77.04025683333333, "fusion_lon": 0.0, "bike_id": "f541eb70bd0a790f44e2af2372541214", "type": "electric_scooter", "name": "f541eb70bd0a790f44e2af2372541214", "is_reserved": 0, "rental_uris": {"ios": "https://dc.lft.to/lastmile_qr_scan", "android": "https://dc.lft.to/lastmile_qr_scan"}}, {"fusion_lat": 0.0, "is_disabled": 0, "lat": 38.901542, "lon": -76.98231383333334, "fusion_lon": 0.0, "bike_id": "1d5940e46e5fd3e3e6ccbf190826a5d1", "type": "electric_scooter", "name": "1d5940e46e5fd3e3e6ccbf190826a5d1", "is_reserved": 0, "rental_uris": {"ios": "https://dc.lft.to/lastmile_qr_scan", "android": "https://dc.lft.to/lastmile_qr_scan"}}, {"fusion_lat": 0.0, "is_disabled": 0, "lat": 38.9242725, "lon": -77.021302, "fusion_lon": 0.0, "bike_id": "8111809d9a271cf54127c6c719e3795f", "type": "electric_scooter", "name": "8111809d9a271cf54127c6c719e3795f", "is_reserved": 0, "rental_uris": {"ios": "https://dc.lft.to/lastmile_qr_scan", "android": "https://dc.lft.to/lastmile_qr_scan"}}, {"fusion_lat": 0.0, "is_disabled": 0, "lat": 38.86481883333333, "lon": -76.97748066666666, "fusion_lon": 0.0, "bike_id": "ea2cefffdd574bc571dcae69f55fe3d3", "type": "electric_bike", "name": "ea2cefffdd574bc571dcae69f55fe3d3", "is_reserved": 0, "rental_uris": {"ios": "https://dc.lft.to/lastmile_qr_scan", "android": "https://dc.lft.to/lastmile_qr_scan"}}, {"fusion_lat": 0.0, "is_disabled": 0, "lat": 38.901501, "lon": -77.04871133333333, "fusion_lon": 0.0, "bike_id": "bb5c9e50dceaf0fde74b5f2c7c389654", "type": "electric_scooter", "name": "bb5c9e50dceaf0fde74b5f2c7c389654", "is_reserved": 0, "rental_uris": {"ios": "https://dc.lft.to/lastmile_qr_scan", "android": "https://dc.lft.to/lastmile_qr_scan"}}, {"fusion_lat": 0.0, "is_disabled": 0, "lat": 38.887038, "lon": -77.0136875, "fusion_lon": 0.0, "bike_id": "3472fbe297f2712c71014ebe7f995100", "type": "electric_scooter", "name": "3472fbe297f2712c71014ebe7f995100", "is_reserved": 0, "rental_uris": {"ios": "https://dc.lft.to/lastmile_qr_scan", "android": "https://dc.lft.to/lastmile_qr_scan"}}, {"fusion_lat": 0.0, "is_disabled": 0, "lat": 38.92338816666667, "lon": -77.01903166666666, "fusion_lon": 0.0, "bike_id": "ed7c9a77c4834f8bb6fb845d187e285e", "type": "electric_scooter", "name": "ed7c9a77c4834f8bb6fb845d187e285e", "is_reserved": 0, "rental_uris": {"ios": "https://dc.lft.to/lastmile_qr_scan", "android": "https://dc.lft.to/lastmile_qr_scan"}}, {"fusion_lat": 0.0, "is_disabled": 0, "lat": 38.916906833333336, "lon": -77.03159366666667, "fusion_lon": 0.0, "bike_id": "e559a40ef255021329c8e5046bead434", "type": "electric_scooter", "name": "e559a40ef255021329c8e5046bead434", "is_reserved": 0, "rental_uris": {"ios": "https://dc.lft.to/lastmile_qr_scan", "android": "https://dc.lft.to/lastmile_qr_scan"}}, {"fusion_lat": 0.0, "is_disabled": 0, "lat": 38.84291066666667, "lon": -77.0638, "fusion_lon": 0.0, "bike_id": "6fd57e717a499696e0d82635f16cf280", "type": "electric_bike", "name": "6fd57e717a499696e0d82635f16cf280", "is_reserved": 0, "rental_uris": {"ios": "https://dc.lft.to/lastmile_qr_scan", "android": "https://dc.lft.to/lastmile_qr_scan"}}, {"fusion_lat": 0.0, "is_disabled": 0, "lat": 38.97235533333333, "lon": -77.02712633333333, "fusion_lon": 0.0, "bike_id": "158c962d5dd59a9c5b819b69e48f1067", "type": "electric_scooter", "name": "158c962d5dd59a9c5b819b69e48f1067", "is_reserved": 0, "rental_uris": {"ios": "https://dc.lft.to/lastmile_qr_scan", "android": "https://dc.lft.to/lastmile_qr_scan"}}, {"fusion_lat": 0.0, "is_disabled": 0, "lat": 38.92236883333333, "lon": -77.02986916666667, "fusion_lon": 0.0, "bike_id": "57fd3967ad4c9ccb4e6ddc0eb07417df", "type": "electric_scooter", "name": "57fd3967ad4c9ccb4e6ddc0eb07417df", "is_reserved": 0, "rental_uris": {"ios": "https://dc.lft.to/lastmile_qr_scan", "android": "https://dc.lft.to/lastmile_qr_scan"}}, {"fusion_lat": 0.0, "is_disabled": 0, "lat": 38.99224266666667, "lon": -77.02381, "fusion_lon": 0.0, "bike_id": "f732af725888e31e8fc71a3ab25f86d9", "type": "electric_bike", "name": "f732af725888e31e8fc71a3ab25f86d9", "is_reserved": 0, "rental_uris": {"ios": "https://dc.lft.to/lastmile_qr_scan", "android": "https://dc.lft.to/lastmile_qr_scan"}}, {"fusion_lat": 0.0, "is_disabled": 0, "lat": 38.926883833333335, "lon": -77.02964166666666, "fusion_lon": 0.0, "bike_id": "18f5febf4985ed78e8c45bf8d133556f", "type": "electric_scooter", "name": "18f5febf4985ed78e8c45bf8d133556f", "is_reserved": 0, "rental_uris": {"ios": "https://dc.lft.to/lastmile_qr_scan", "android": "https://dc.lft.to/lastmile_qr_scan"}}, {"fusion_lat": 0.0, "is_disabled": 0, "lat": 38.893528, "lon": -77.003372, "fusion_lon": 0.0, "bike_id": "d7d4f684eafe5865a39ab234fc0fafd4", "type": "electric_scooter", "name": "d7d4f684eafe5865a39ab234fc0fafd4", "is_reserved": 0, "rental_uris": {"ios": "https://dc.lft.to/lastmile_qr_scan", "android": "https://dc.lft.to/lastmile_qr_scan"}}, {"fusion_lat": 0.0, "is_disabled": 0, "lat": 38.90564916666666, "lon": -77.040719, "fusion_lon": 0.0, "bike_id": "d4b74fa7d8917cab60eb973ae2a62af4", "type": "electric_scooter", "name": "d4b74fa7d8917cab60eb973ae2a62af4", "is_reserved": 0, "rental_uris": {"ios": "https://dc.lft.to/lastmile_qr_scan", "android": "https://dc.lft.to/lastmile_qr_scan"}}, {"fusion_lat": 0.0, "is_disabled": 0, "lat": 38.89885316666667, "lon": -77.04767616666666, "fusion_lon": 0.0, "bike_id": "ffb4237db0dabe92e1cbf952c8affe35", "type": "electric_scooter", "name": "ffb4237db0dabe92e1cbf952c8affe35", "is_reserved": 0, "rental_uris": {"ios": "https://dc.lft.to/lastmile_qr_scan", "android": "https://dc.lft.to/lastmile_qr_scan"}}, {"fusion_lat": 0.0, "is_disabled": 0, "lat": 38.903763833333336, "lon": -77.02609516666666, "fusion_lon": 0.0, "bike_id": "8e91c6d5d64aaa407540a290a4978161", "type": "electric_scooter", "name": "8e91c6d5d64aaa407540a290a4978161", "is_reserved": 0, "rental_uris": {"ios": "https://dc.lft.to/lastmile_qr_scan", "android": "https://dc.lft.to/lastmile_qr_scan"}}, {"fusion_lat": 0.0, "is_disabled": 0, "lat": 38.931130833333334, "lon": -77.030104, "fusion_lon": 0.0, "bike_id": "73b92fb465f15bf8e159c8e992d5a881", "type": "electric_scooter", "name": "73b92fb465f15bf8e159c8e992d5a881", "is_reserved": 0, "rental_uris": {"ios": "https://dc.lft.to/lastmile_qr_scan", "android": "https://dc.lft.to/lastmile_qr_scan"}}, {"fusion_lat": 0.0, "is_disabled": 0, "lat": 38.89977783333333, "lon": -77.03167133333334, "fusion_lon": 0.0, "bike_id": "8545c420ac9ce721294769356d05398c", "type": "electric_scooter", "name": "8545c420ac9ce721294769356d05398c", "is_reserved": 0, "rental_uris": {"ios": "https://dc.lft.to/lastmile_qr_scan", "android": "https://dc.lft.to/lastmile_qr_scan"}}, {"fusion_lat": 0.0, "is_disabled": 0, "lat": 38.87285766666667, "lon": -77.00986766666666, "fusion_lon": 0.0, "bike_id": "37666450e577038454a1c6584d225889", "type": "electric_scooter", "name": "37666450e577038454a1c6584d225889", "is_reserved": 0, "rental_uris": {"ios": "https://dc.lft.to/lastmile_qr_scan", "android": "https://dc.lft.to/lastmile_qr_scan"}}, {"fusion_lat": 0.0, "is_disabled": 0, "lat": 38.9371715, "lon": -77.02426933333334, "fusion_lon": 0.0, "bike_id": "5b4e4b96109a38ad5085dbdcf8b525df", "type": "electric_scooter", "name": "5b4e4b96109a38ad5085dbdcf8b525df", "is_reserved": 0, "rental_uris": {"ios": "https://dc.lft.to/lastmile_qr_scan", "android": "https://dc.lft.to/lastmile_qr_scan"}}, {"fusion_lat": 0.0, "is_disabled": 0, "lat": 38.88396216666667, "lon": -76.9951, "fusion_lon": 0.0, "bike_id": "5d68e4168b5ff3df124d7ecc66e66148", "type": "electric_scooter", "name": "5d68e4168b5ff3df124d7ecc66e66148", "is_reserved": 0, "rental_uris": {"ios": "https://dc.lft.to/lastmile_qr_scan", "android": "https://dc.lft.to/lastmile_qr_scan"}}, {"fusion_lat": 0.0, "is_disabled": 0, "lat": 38.9027855, "lon": -77.03441766666667, "fusion_lon": 0.0, "bike_id": "8b1b47dfe1168392ced22c52ac11f3bb", "type": "electric_scooter", "name": "8b1b47dfe1168392ced22c52ac11f3bb", "is_reserved": 0, "rental_uris": {"ios": "https://dc.lft.to/lastmile_qr_scan", "android": "https://dc.lft.to/lastmile_qr_scan"}}, {"fusion_lat": 0.0, "is_disabled": 0, "lat": 38.89651683333334, "lon": -77.02410466666667, "fusion_lon": 0.0, "bike_id": "0a156ca896388a3a3f9b118a9f8607a2", "type": "electric_scooter", "name": "0a156ca896388a3a3f9b118a9f8607a2", "is_reserved": 0, "rental_uris": {"ios": "https://dc.lft.to/lastmile_qr_scan", "android": "https://dc.lft.to/lastmile_qr_scan"}}, {"fusion_lat": 0.0, "is_disabled": 0, "lat": 38.89001016666667, "lon": -77.00347233333333, "fusion_lon": 0.0, "bike_id": "d3d81006cb6f912535a51b4361465afe", "type": "electric_bike", "name": "d3d81006cb6f912535a51b4361465afe", "is_reserved": 0, "rental_uris": {"ios": "https://dc.lft.to/lastmile_qr_scan", "android": "https://dc.lft.to/lastmile_qr_scan"}}, {"fusion_lat": 0.0, "is_disabled": 0, "lat": 38.8751825, "lon": -77.0122895, "fusion_lon": 0.0, "bike_id": "cd39a56b64defdf7c8d326e8fce6fcc0", "type": "electric_scooter", "name": "cd39a56b64defdf7c8d326e8fce6fcc0", "is_reserved": 0, "rental_uris": {"ios": "https://dc.lft.to/lastmile_qr_scan", "android": "https://dc.lft.to/lastmile_qr_scan"}}, {"fusion_lat": 0.0, "is_disabled": 0, "lat": 38.92378433333333, "lon": -77.022603, "fusion_lon": 0.0, "bike_id": "e2af5428e524fad207fc48cc9265a522", "type": "electric_scooter", "name": "e2af5428e524fad207fc48cc9265a522", "is_reserved": 0, "rental_uris": {"ios": "https://dc.lft.to/lastmile_qr_scan", "android": "https://dc.lft.to/lastmile_qr_scan"}}, {"fusion_lat": 0.0, "is_disabled": 0, "lat": 38.903152666666664, "lon": -77.03982133333334, "fusion_lon": 0.0, "bike_id": "3e5d5bce6f589f84b87ab1e57e4abfa3", "type": "electric_scooter", "name": "3e5d5bce6f589f84b87ab1e57e4abfa3", "is_reserved": 0, "rental_uris": {"ios": "https://dc.lft.to/lastmile_qr_scan", "android": "https://dc.lft.to/lastmile_qr_scan"}}, {"fusion_lat": 0.0, "is_disabled": 0, "lat": 38.90372033333333, "lon": -77.04752766666667, "fusion_lon": 0.0, "bike_id": "386da17e5a1d4a7000986bf14beee245", "type": "electric_scooter", "name": "386da17e5a1d4a7000986bf14beee245", "is_reserved": 0, "rental_uris": {"ios": "https://dc.lft.to/lastmile_qr_scan", "android": "https://dc.lft.to/lastmile_qr_scan"}}, {"fusion_lat": 0.0, "is_disabled": 0, "lat": 38.92455316666667, "lon": -77.0379005, "fusion_lon": 0.0, "bike_id": "dec7bbf6e6e4ff27bc46c71ea5b7ed22", "type": "electric_scooter", "name": "dec7bbf6e6e4ff27bc46c71ea5b7ed22", "is_reserved": 0, "rental_uris": {"ios": "https://dc.lft.to/lastmile_qr_scan", "android": "https://dc.lft.to/lastmile_qr_scan"}}, {"fusion_lat": 0.0, "is_disabled": 0, "lat": 38.902505, "lon": -77.03440533333334, "fusion_lon": 0.0, "bike_id": "582897f3bcc4dc71cdd4a6fa64831cce", "type": "electric_scooter", "name": "582897f3bcc4dc71cdd4a6fa64831cce", "is_reserved": 0, "rental_uris": {"ios": "https://dc.lft.to/lastmile_qr_scan", "android": "https://dc.lft.to/lastmile_qr_scan"}}, {"fusion_lat": 0.0, "is_disabled": 0, "lat": 38.92705466666666, "lon": -76.960797, "fusion_lon": 0.0, "bike_id": "932f499ac079b79938a5bdbf66f54a47", "type": "electric_scooter", "name": "932f499ac079b79938a5bdbf66f54a47", "is_reserved": 0, "rental_uris": {"ios": "https://dc.lft.to/lastmile_qr_scan", "android": "https://dc.lft.to/lastmile_qr_scan"}}, {"fusion_lat": 0.0, "is_disabled": 0, "lat": 38.89047216666667, "lon": -76.93752733333334, "fusion_lon": 0.0, "bike_id": "be8bae460616a19e4cb3ef73b7847b53", "type": "electric_scooter", "name": "be8bae460616a19e4cb3ef73b7847b53", "is_reserved": 0, "rental_uris": {"ios": "https://dc.lft.to/lastmile_qr_scan", "android": "https://dc.lft.to/lastmile_qr_scan"}}, {"fusion_lat": 0.0, "is_disabled": 0, "lat": 38.898272, "lon": -77.02385116666666, "fusion_lon": 0.0, "bike_id": "670ac2c15638274e4653921c2a9c466b", "type": "electric_scooter", "name": "670ac2c15638274e4653921c2a9c466b", "is_reserved": 0, "rental_uris": {"ios": "https://dc.lft.to/lastmile_qr_scan", "android": "https://dc.lft.to/lastmile_qr_scan"}}, {"fusion_lat": 0.0, "is_disabled": 0, "lat": 38.89705566666667, "lon": -77.00845766666667, "fusion_lon": 0.0, "bike_id": "a3a52e635fcedd1cddeffa0c8e628216", "type": "electric_scooter", "name": "a3a52e635fcedd1cddeffa0c8e628216", "is_reserved": 0, "rental_uris": {"ios": "https://dc.lft.to/lastmile_qr_scan", "android": "https://dc.lft.to/lastmile_qr_scan"}}, {"fusion_lat": 0.0, "is_disabled": 0, "lat": 38.91704333333333, "lon": -77.02815916666667, "fusion_lon": 0.0, "bike_id": "891804b03e1e9099ab197d657f44069f", "type": "electric_scooter", "name": "891804b03e1e9099ab197d657f44069f", "is_reserved": 0, "rental_uris": {"ios": "https://dc.lft.to/lastmile_qr_scan", "android": "https://dc.lft.to/lastmile_qr_scan"}}, {"fusion_lat": 0.0, "is_disabled": 0, "lat": 38.93120666666667, "lon": -77.0225985, "fusion_lon": 0.0, "bike_id": "e2aecb12aa13759d3a9e5bb052d07251", "type": "electric_scooter", "name": "e2aecb12aa13759d3a9e5bb052d07251", "is_reserved": 0, "rental_uris": {"ios": "https://dc.lft.to/lastmile_qr_scan", "android": "https://dc.lft.to/lastmile_qr_scan"}}, {"fusion_lat": 0.0, "is_disabled": 0, "lat": 38.89624, "lon": -77.02701733333333, "fusion_lon": 0.0, "bike_id": "7138cfb7629103929d179c17268f19f3", "type": "electric_scooter", "name": "7138cfb7629103929d179c17268f19f3", "is_reserved": 0, "rental_uris": {"ios": "https://dc.lft.to/lastmile_qr_scan", "android": "https://dc.lft.to/lastmile_qr_scan"}}, {"fusion_lat": 0.0, "is_disabled": 0, "lat": 38.90616716666667, "lon": -77.0628825, "fusion_lon": 0.0, "bike_id": "f7551cdc72b7dd5aade2c5579643c9e2", "type": "electric_scooter", "name": "f7551cdc72b7dd5aade2c5579643c9e2", "is_reserved": 0, "rental_uris": {"ios": "https://dc.lft.to/lastmile_qr_scan", "android": "https://dc.lft.to/lastmile_qr_scan"}}, {"fusion_lat": 0.0, "is_disabled": 0, "lat": 38.88716133333333, "lon": -77.02827733333334, "fusion_lon": 0.0, "bike_id": "faa5836e709b31cd74bea754d2e199b8", "type": "electric_scooter", "name": "faa5836e709b31cd74bea754d2e199b8", "is_reserved": 0, "rental_uris": {"ios": "https://dc.lft.to/lastmile_qr_scan", "android": "https://dc.lft.to/lastmile_qr_scan"}}, {"fusion_lat": 0.0, "is_disabled": 0, "lat": 38.894881833333336, "lon": -76.94892883333333, "fusion_lon": 0.0, "bike_id": "73cc7dc528b1c8a40166ba046a4bac74", "type": "electric_scooter", "name": "73cc7dc528b1c8a40166ba046a4bac74", "is_reserved": 0, "rental_uris": {"ios": "https://dc.lft.to/lastmile_qr_scan", "android": "https://dc.lft.to/lastmile_qr_scan"}}, {"fusion_lat": 0.0, "is_disabled": 0, "lat": 38.89317333333334, "lon": -76.93969883333334, "fusion_lon": 0.0, "bike_id": "dedf2c28653a0d3c1dda3ee1b7e91e74", "type": "electric_scooter", "name": "dedf2c28653a0d3c1dda3ee1b7e91e74", "is_reserved": 0, "rental_uris": {"ios": "https://dc.lft.to/lastmile_qr_scan", "android": "https://dc.lft.to/lastmile_qr_scan"}}, {"fusion_lat": 0.0, "is_disabled": 0, "lat": 38.902298333333334, "lon": -77.0294895, "fusion_lon": 0.0, "bike_id": "7ac9f6e46710bdd3be46b61782d96b7e", "type": "electric_scooter", "name": "7ac9f6e46710bdd3be46b61782d96b7e", "is_reserved": 0, "rental_uris": {"ios": "https://dc.lft.to/lastmile_qr_scan", "android": "https://dc.lft.to/lastmile_qr_scan"}}, {"fusion_lat": 0.0, "is_disabled": 0, "lat": 38.90171566666667, "lon": -76.94156216666667, "fusion_lon": 0.0, "bike_id": "942b65da4729563bd763029e2952fc07", "type": "electric_scooter", "name": "942b65da4729563bd763029e2952fc07", "is_reserved": 0, "rental_uris": {"ios": "https://dc.lft.to/lastmile_qr_scan", "android": "https://dc.lft.to/lastmile_qr_scan"}}, {"fusion_lat": 0.0, "is_disabled": 0, "lat": 38.919048, "lon": -77.03388416666667, "fusion_lon": 0.0, "bike_id": "236c35eb72ac2485a3a3a37534ea9ec2", "type": "electric_scooter", "name": "236c35eb72ac2485a3a3a37534ea9ec2", "is_reserved": 0, "rental_uris": {"ios": "https://dc.lft.to/lastmile_qr_scan", "android": "https://dc.lft.to/lastmile_qr_scan"}}, {"fusion_lat": 0.0, "is_disabled": 0, "lat": 38.935333166666666, "lon": -77.05813666666667, "fusion_lon": 0.0, "bike_id": "8c5a4a4b714685ab0a190f5ad5f1a7bc", "type": "electric_scooter", "name": "8c5a4a4b714685ab0a190f5ad5f1a7bc", "is_reserved": 0, "rental_uris": {"ios": "https://dc.lft.to/lastmile_qr_scan", "android": "https://dc.lft.to/lastmile_qr_scan"}}, {"fusion_lat": 0.0, "is_disabled": 0, "lat": 38.897037166666664, "lon": -77.01305566666667, "fusion_lon": 0.0, "bike_id": "10b01bd583f9703d4e019f7a0b22ecad", "type": "electric_scooter", "name": "10b01bd583f9703d4e019f7a0b22ecad", "is_reserved": 0, "rental_uris": {"ios": "https://dc.lft.to/lastmile_qr_scan", "android": "https://dc.lft.to/lastmile_qr_scan"}}, {"fusion_lat": 0.0, "is_disabled": 0, "lat": 38.907226666666666, "lon": -77.00326733333333, "fusion_lon": 0.0, "bike_id": "afb8c7f054b443fc81beeafe747d4219", "type": "electric_scooter", "name": "afb8c7f054b443fc81beeafe747d4219", "is_reserved": 0, "rental_uris": {"ios": "https://dc.lft.to/lastmile_qr_scan", "android": "https://dc.lft.to/lastmile_qr_scan"}}, {"fusion_lat": 0.0, "is_disabled": 0, "lat": 38.920693166666666, "lon": -77.022677, "fusion_lon": 0.0, "bike_id": "496247f4725e7150b4eca818436a3881", "type": "electric_scooter", "name": "496247f4725e7150b4eca818436a3881", "is_reserved": 0, "rental_uris": {"ios": "https://dc.lft.to/lastmile_qr_scan", "android": "https://dc.lft.to/lastmile_qr_scan"}}, {"fusion_lat": 0.0, "is_disabled": 0, "lat": 38.92076483333334, "lon": -77.03985966666667, "fusion_lon": 0.0, "bike_id": "7fb3f20765217d537d0675849b623c03", "type": "electric_scooter", "name": "7fb3f20765217d537d0675849b623c03", "is_reserved": 0, "rental_uris": {"ios": "https://dc.lft.to/lastmile_qr_scan", "android": "https://dc.lft.to/lastmile_qr_scan"}}, {"fusion_lat": 0.0, "is_disabled": 0, "lat": 38.904696, "lon": -77.03552583333334, "fusion_lon": 0.0, "bike_id": "dfd323dc296e3680972d8cc4bd57f7fa", "type": "electric_scooter", "name": "dfd323dc296e3680972d8cc4bd57f7fa", "is_reserved": 0, "rental_uris": {"ios": "https://dc.lft.to/lastmile_qr_scan", "android": "https://dc.lft.to/lastmile_qr_scan"}}, {"fusion_lat": 0.0, "is_disabled": 0, "lat": 38.847569, "lon": -77.0537195, "fusion_lon": 0.0, "bike_id": "80665d951e4221b49e337a05162dce91", "type": "electric_bike", "name": "80665d951e4221b49e337a05162dce91", "is_reserved": 0, "rental_uris": {"ios": "https://dc.lft.to/lastmile_qr_scan", "android": "https://dc.lft.to/lastmile_qr_scan"}}, {"fusion_lat": 0.0, "is_disabled": 0, "lat": 38.89224083333333, "lon": -77.03140216666667, "fusion_lon": 0.0, "bike_id": "4933c7c8abfe021903e882fa0209ed7d", "type": "electric_scooter", "name": "4933c7c8abfe021903e882fa0209ed7d", "is_reserved": 0, "rental_uris": {"ios": "https://dc.lft.to/lastmile_qr_scan", "android": "https://dc.lft.to/lastmile_qr_scan"}}, {"fusion_lat": 0.0, "is_disabled": 0, "lat": 38.92308533333333, "lon": -77.029645, "fusion_lon": 0.0, "bike_id": "19932b8fb186e68a2df949babdaed199", "type": "electric_scooter", "name": "19932b8fb186e68a2df949babdaed199", "is_reserved": 0, "rental_uris": {"ios": "https://dc.lft.to/lastmile_qr_scan", "android": "https://dc.lft.to/lastmile_qr_scan"}}, {"fusion_lat": 0.0, "is_disabled": 0, "lat": 38.89515316666667, "lon": -77.04476533333333, "fusion_lon": 0.0, "bike_id": "c1cbbba404f958997474a7033d5eb7a7", "type": "electric_scooter", "name": "c1cbbba404f958997474a7033d5eb7a7", "is_reserved": 0, "rental_uris": {"ios": "https://dc.lft.to/lastmile_qr_scan", "android": "https://dc.lft.to/lastmile_qr_scan"}}, {"fusion_lat": 0.0, "is_disabled": 0, "lat": 38.90848066666667, "lon": -77.07440733333334, "fusion_lon": 0.0, "bike_id": "a1ba81c57005a8aea19b14bfaedeb267", "type": "electric_scooter", "name": "a1ba81c57005a8aea19b14bfaedeb267", "is_reserved": 0, "rental_uris": {"ios": "https://dc.lft.to/lastmile_qr_scan", "android": "https://dc.lft.to/lastmile_qr_scan"}}, {"fusion_lat": 0.0, "is_disabled": 0, "lat": 38.90802683333333, "lon": -77.03396433333333, "fusion_lon": 0.0, "bike_id": "eecaf66669665189f6decd5df5c43d94", "type": "electric_scooter", "name": "eecaf66669665189f6decd5df5c43d94", "is_reserved": 0, "rental_uris": {"ios": "https://dc.lft.to/lastmile_qr_scan", "android": "https://dc.lft.to/lastmile_qr_scan"}}, {"fusion_lat": 0.0, "is_disabled": 0, "lat": 38.90564283333333, "lon": -77.05704883333334, "fusion_lon": 0.0, "bike_id": "2689eee68c2c9b0a647ca5a1d364078f", "type": "electric_scooter", "name": "2689eee68c2c9b0a647ca5a1d364078f", "is_reserved": 0, "rental_uris": {"ios": "https://dc.lft.to/lastmile_qr_scan", "android": "https://dc.lft.to/lastmile_qr_scan"}}, {"fusion_lat": 0.0, "is_disabled": 0, "lat": 38.899548333333335, "lon": -77.04758233333334, "fusion_lon": 0.0, "bike_id": "c6fe7518739bb959a88fb927bb105d8e", "type": "electric_scooter", "name": "c6fe7518739bb959a88fb927bb105d8e", "is_reserved": 0, "rental_uris": {"ios": "https://dc.lft.to/lastmile_qr_scan", "android": "https://dc.lft.to/lastmile_qr_scan"}}, {"fusion_lat": 0.0, "is_disabled": 0, "lat": 38.846711, "lon": -77.1393455, "fusion_lon": 0.0, "bike_id": "5cfb87e591aa83dde14fe6b9ce343a7e", "type": "electric_bike", "name": "5cfb87e591aa83dde14fe6b9ce343a7e", "is_reserved": 0, "rental_uris": {"ios": "https://dc.lft.to/lastmile_qr_scan", "android": "https://dc.lft.to/lastmile_qr_scan"}}, {"fusion_lat": 0.0, "is_disabled": 0, "lat": 38.889663, "lon": -76.98038233333334, "fusion_lon": 0.0, "bike_id": "1ee0e575427ef94c819de876881d0a4d", "type": "electric_scooter", "name": "1ee0e575427ef94c819de876881d0a4d", "is_reserved": 0, "rental_uris": {"ios": "https://dc.lft.to/lastmile_qr_scan", "android": "https://dc.lft.to/lastmile_qr_scan"}}, {"fusion_lat": 0.0, "is_disabled": 0, "lat": 38.915479166666664, "lon": -77.0510145, "fusion_lon": 0.0, "bike_id": "b1f82c333d7c9aafae71cf3f3ca3d084", "type": "electric_scooter", "name": "b1f82c333d7c9aafae71cf3f3ca3d084", "is_reserved": 0, "rental_uris": {"ios": "https://dc.lft.to/lastmile_qr_scan", "android": "https://dc.lft.to/lastmile_qr_scan"}}, {"fusion_lat": 0.0, "is_disabled": 0, "lat": 38.89737366666667, "lon": -77.02986483333333, "fusion_lon": 0.0, "bike_id": "6ebd0a99873616e62f6f0cb906c1aeaf", "type": "electric_scooter", "name": "6ebd0a99873616e62f6f0cb906c1aeaf", "is_reserved": 0, "rental_uris": {"ios": "https://dc.lft.to/lastmile_qr_scan", "android": "https://dc.lft.to/lastmile_qr_scan"}}, {"fusion_lat": 0.0, "is_disabled": 0, "lat": 38.9247975, "lon": -77.02268516666666, "fusion_lon": 0.0, "bike_id": "0e488b94271091aa4cd24f0dedd02d6d", "type": "electric_scooter", "name": "0e488b94271091aa4cd24f0dedd02d6d", "is_reserved": 0, "rental_uris": {"ios": "https://dc.lft.to/lastmile_qr_scan", "android": "https://dc.lft.to/lastmile_qr_scan"}}, {"fusion_lat": 0.0, "is_disabled": 0, "lat": 38.91322533333334, "lon": -77.04541483333334, "fusion_lon": 0.0, "bike_id": "669e1331ad04b248e4bfe9c48e08d436", "type": "electric_scooter", "name": "669e1331ad04b248e4bfe9c48e08d436", "is_reserved": 0, "rental_uris": {"ios": "https://dc.lft.to/lastmile_qr_scan", "android": "https://dc.lft.to/lastmile_qr_scan"}}, {"fusion_lat": 0.0, "is_disabled": 0, "lat": 38.90409283333334, "lon": -77.04368016666666, "fusion_lon": 0.0, "bike_id": "1fe13755ab5adddcf4acccb1c16bd864", "type": "electric_scooter", "name": "1fe13755ab5adddcf4acccb1c16bd864", "is_reserved": 0, "rental_uris": {"ios": "https://dc.lft.to/lastmile_qr_scan", "android": "https://dc.lft.to/lastmile_qr_scan"}}, {"fusion_lat": 0.0, "is_disabled": 0, "lat": 38.878974666666664, "lon": -77.01368883333333, "fusion_lon": 0.0, "bike_id": "04f36a8dfbc154d7752a150b3ea20096", "type": "electric_scooter", "name": "04f36a8dfbc154d7752a150b3ea20096", "is_reserved": 0, "rental_uris": {"ios": "https://dc.lft.to/lastmile_qr_scan", "android": "https://dc.lft.to/lastmile_qr_scan"}}, {"fusion_lat": 0.0, "is_disabled": 0, "lat": 38.90541183333333, "lon": -77.04486, "fusion_lon": 0.0, "bike_id": "6f3cb869261c350584d8921f5de1290f", "type": "electric_scooter", "name": "6f3cb869261c350584d8921f5de1290f", "is_reserved": 0, "rental_uris": {"ios": "https://dc.lft.to/lastmile_qr_scan", "android": "https://dc.lft.to/lastmile_qr_scan"}}, {"fusion_lat": 0.0, "is_disabled": 0, "lat": 38.92436933333333, "lon": -77.02152616666666, "fusion_lon": 0.0, "bike_id": "09764e648d10d9465165946ba867f640", "type": "electric_scooter", "name": "09764e648d10d9465165946ba867f640", "is_reserved": 0, "rental_uris": {"ios": "https://dc.lft.to/lastmile_qr_scan", "android": "https://dc.lft.to/lastmile_qr_scan"}}, {"fusion_lat": 0.0, "is_disabled": 0, "lat": 38.92577933333333, "lon": -76.99489033333333, "fusion_lon": 0.0, "bike_id": "eca4f5e314a8e5e2da24e4f66363a872", "type": "electric_scooter", "name": "eca4f5e314a8e5e2da24e4f66363a872", "is_reserved": 0, "rental_uris": {"ios": "https://dc.lft.to/lastmile_qr_scan", "android": "https://dc.lft.to/lastmile_qr_scan"}}, {"fusion_lat": 0.0, "is_disabled": 0, "lat": 38.938637666666665, "lon": -77.02649916666667, "fusion_lon": 0.0, "bike_id": "654de7d3355ec81a4f011da1c67a61b0", "type": "electric_scooter", "name": "654de7d3355ec81a4f011da1c67a61b0", "is_reserved": 0, "rental_uris": {"ios": "https://dc.lft.to/lastmile_qr_scan", "android": "https://dc.lft.to/lastmile_qr_scan"}}, {"fusion_lat": 0.0, "is_disabled": 0, "lat": 38.862847, "lon": -76.945231, "fusion_lon": 0.0, "bike_id": "57362e1d24882815d637ff22cd2981c3", "type": "electric_bike", "name": "57362e1d24882815d637ff22cd2981c3", "is_reserved": 0, "rental_uris": {"ios": "https://dc.lft.to/lastmile_qr_scan", "android": "https://dc.lft.to/lastmile_qr_scan"}}, {"fusion_lat": 0.0, "is_disabled": 0, "lat": 38.9266835, "lon": -77.027461, "fusion_lon": 0.0, "bike_id": "17809c4795fdb6c80ba3db2bde656315", "type": "electric_scooter", "name": "17809c4795fdb6c80ba3db2bde656315", "is_reserved": 0, "rental_uris": {"ios": "https://dc.lft.to/lastmile_qr_scan", "android": "https://dc.lft.to/lastmile_qr_scan"}}, {"fusion_lat": 0.0, "is_disabled": 0, "lat": 38.9171005, "lon": -77.03866583333334, "fusion_lon": 0.0, "bike_id": "9f32fb5bc6d48a2820a090c8870b7f55", "type": "electric_scooter", "name": "9f32fb5bc6d48a2820a090c8870b7f55", "is_reserved": 0, "rental_uris": {"ios": "https://dc.lft.to/lastmile_qr_scan", "android": "https://dc.lft.to/lastmile_qr_scan"}}, {"fusion_lat": 0.0, "is_disabled": 0, "lat": 38.905147666666664, "lon": -77.0687, "fusion_lon": 0.0, "bike_id": "a120fff08d474abe17648063fd05371a", "type": "electric_scooter", "name": "a120fff08d474abe17648063fd05371a", "is_reserved": 0, "rental_uris": {"ios": "https://dc.lft.to/lastmile_qr_scan", "android": "https://dc.lft.to/lastmile_qr_scan"}}, {"fusion_lat": 0.0, "is_disabled": 0, "lat": 38.9236185, "lon": -77.05131816666666, "fusion_lon": 0.0, "bike_id": "98611bdce9ccb04fda3be61cf891c462", "type": "electric_scooter", "name": "98611bdce9ccb04fda3be61cf891c462", "is_reserved": 0, "rental_uris": {"ios": "https://dc.lft.to/lastmile_qr_scan", "android": "https://dc.lft.to/lastmile_qr_scan"}}, {"fusion_lat": 0.0, "is_disabled": 0, "lat": 38.9289435, "lon": -77.016395, "fusion_lon": 0.0, "bike_id": "e9e6506fb7fcfb55ae93e67c5179fe62", "type": "electric_scooter", "name": "e9e6506fb7fcfb55ae93e67c5179fe62", "is_reserved": 0, "rental_uris": {"ios": "https://dc.lft.to/lastmile_qr_scan", "android": "https://dc.lft.to/lastmile_qr_scan"}}, {"fusion_lat": 0.0, "is_disabled": 0, "lat": 38.924282, "lon": -77.02027016666666, "fusion_lon": 0.0, "bike_id": "51612885a8f21441fb3dd8adc62afd86", "type": "electric_scooter", "name": "51612885a8f21441fb3dd8adc62afd86", "is_reserved": 0, "rental_uris": {"ios": "https://dc.lft.to/lastmile_qr_scan", "android": "https://dc.lft.to/lastmile_qr_scan"}}, {"fusion_lat": 0.0, "is_disabled": 0, "lat": 38.926451666666665, "lon": -77.09021816666667, "fusion_lon": 0.0, "bike_id": "5da7f3e922dc66588bc2f4defb85627c", "type": "electric_bike", "name": "5da7f3e922dc66588bc2f4defb85627c", "is_reserved": 0, "rental_uris": {"ios": "https://dc.lft.to/lastmile_qr_scan", "android": "https://dc.lft.to/lastmile_qr_scan"}}, {"fusion_lat": 0.0, "is_disabled": 0, "lat": 38.903603833333335, "lon": -77.03429616666666, "fusion_lon": 0.0, "bike_id": "27c75436139ae7bbae7669a962978e6c", "type": "electric_scooter", "name": "27c75436139ae7bbae7669a962978e6c", "is_reserved": 0, "rental_uris": {"ios": "https://dc.lft.to/lastmile_qr_scan", "android": "https://dc.lft.to/lastmile_qr_scan"}}, {"fusion_lat": 0.0, "is_disabled": 0, "lat": 38.903832, "lon": -77.04670183333333, "fusion_lon": 0.0, "bike_id": "edff6bcd2f8be6dee4b3a0edce880392", "type": "electric_scooter", "name": "edff6bcd2f8be6dee4b3a0edce880392", "is_reserved": 0, "rental_uris": {"ios": "https://dc.lft.to/lastmile_qr_scan", "android": "https://dc.lft.to/lastmile_qr_scan"}}, {"fusion_lat": 0.0, "is_disabled": 0, "lat": 38.923349333333334, "lon": -77.02713633333333, "fusion_lon": 0.0, "bike_id": "d71435f6b40aef0d8bdf9c5b3cbb3248", "type": "electric_scooter", "name": "d71435f6b40aef0d8bdf9c5b3cbb3248", "is_reserved": 0, "rental_uris": {"ios": "https://dc.lft.to/lastmile_qr_scan", "android": "https://dc.lft.to/lastmile_qr_scan"}}, {"fusion_lat": 0.0, "is_disabled": 0, "lat": 38.92229233333333, "lon": -77.02211933333334, "fusion_lon": 0.0, "bike_id": "d893b174327f220d09d0ce6fbd9a85d2", "type": "electric_scooter", "name": "d893b174327f220d09d0ce6fbd9a85d2", "is_reserved": 0, "rental_uris": {"ios": "https://dc.lft.to/lastmile_qr_scan", "android": "https://dc.lft.to/lastmile_qr_scan"}}, {"fusion_lat": 0.0, "is_disabled": 0, "lat": 38.9010895, "lon": -77.01813916666667, "fusion_lon": 0.0, "bike_id": "447118748e75c2023ca3c44350a1f2db", "type": "electric_scooter", "name": "447118748e75c2023ca3c44350a1f2db", "is_reserved": 0, "rental_uris": {"ios": "https://dc.lft.to/lastmile_qr_scan", "android": "https://dc.lft.to/lastmile_qr_scan"}}, {"fusion_lat": 0.0, "is_disabled": 0, "lat": 38.892321333333335, "lon": -77.03212266666667, "fusion_lon": 0.0, "bike_id": "b3002fd8254a8e4f3d5cc61dc4998059", "type": "electric_scooter", "name": "b3002fd8254a8e4f3d5cc61dc4998059", "is_reserved": 0, "rental_uris": {"ios": "https://dc.lft.to/lastmile_qr_scan", "android": "https://dc.lft.to/lastmile_qr_scan"}}, {"fusion_lat": 0.0, "is_disabled": 0, "lat": 38.896811166666666, "lon": -77.00493483333334, "fusion_lon": 0.0, "bike_id": "18c6fcd0ca66bd9faf74403f5753e496", "type": "electric_scooter", "name": "18c6fcd0ca66bd9faf74403f5753e496", "is_reserved": 0, "rental_uris": {"ios": "https://dc.lft.to/lastmile_qr_scan", "android": "https://dc.lft.to/lastmile_qr_scan"}}, {"fusion_lat": 0.0, "is_disabled": 0, "lat": 38.88384333333333, "lon": -77.0303145, "fusion_lon": 0.0, "bike_id": "28a7e903eb27568fff038f9f3ba63a6a", "type": "electric_bike", "name": "28a7e903eb27568fff038f9f3ba63a6a", "is_reserved": 0, "rental_uris": {"ios": "https://dc.lft.to/lastmile_qr_scan", "android": "https://dc.lft.to/lastmile_qr_scan"}}, {"fusion_lat": 0.0, "is_disabled": 0, "lat": 38.951265666666664, "lon": -77.027312, "fusion_lon": 0.0, "bike_id": "28103a684417331a3aad65477312566d", "type": "electric_scooter", "name": "28103a684417331a3aad65477312566d", "is_reserved": 0, "rental_uris": {"ios": "https://dc.lft.to/lastmile_qr_scan", "android": "https://dc.lft.to/lastmile_qr_scan"}}, {"fusion_lat": 0.0, "is_disabled": 0, "lat": 38.89665566666667, "lon": -76.93210066666667, "fusion_lon": 0.0, "bike_id": "627f0347bdaac00ddb5d8d4ac9cab45b", "type": "electric_scooter", "name": "627f0347bdaac00ddb5d8d4ac9cab45b", "is_reserved": 0, "rental_uris": {"ios": "https://dc.lft.to/lastmile_qr_scan", "android": "https://dc.lft.to/lastmile_qr_scan"}}, {"fusion_lat": 0.0, "is_disabled": 0, "lat": 38.9105245, "lon": -77.04336033333334, "fusion_lon": 0.0, "bike_id": "052077993057271aa0aaf8299580d32b", "type": "electric_scooter", "name": "052077993057271aa0aaf8299580d32b", "is_reserved": 0, "rental_uris": {"ios": "https://dc.lft.to/lastmile_qr_scan", "android": "https://dc.lft.to/lastmile_qr_scan"}}, {"fusion_lat": 0.0, "is_disabled": 0, "lat": 38.9282585, "lon": -77.02280483333334, "fusion_lon": 0.0, "bike_id": "84242ea32133813092f0accb51aa63db", "type": "electric_scooter", "name": "84242ea32133813092f0accb51aa63db", "is_reserved": 0, "rental_uris": {"ios": "https://dc.lft.to/lastmile_qr_scan", "android": "https://dc.lft.to/lastmile_qr_scan"}}, {"fusion_lat": 0.0, "is_disabled": 0, "lat": 38.90358916666667, "lon": -77.03998766666666, "fusion_lon": 0.0, "bike_id": "23bc1b7bfd34cdda1647e3c55a56cfc7", "type": "electric_scooter", "name": "23bc1b7bfd34cdda1647e3c55a56cfc7", "is_reserved": 0, "rental_uris": {"ios": "https://dc.lft.to/lastmile_qr_scan", "android": "https://dc.lft.to/lastmile_qr_scan"}}, {"fusion_lat": 0.0, "is_disabled": 0, "lat": 38.89725333333333, "lon": -76.99512783333333, "fusion_lon": 0.0, "bike_id": "baf1739cbe2f9a2b070263073ad94c03", "type": "electric_scooter", "name": "baf1739cbe2f9a2b070263073ad94c03", "is_reserved": 0, "rental_uris": {"ios": "https://dc.lft.to/lastmile_qr_scan", "android": "https://dc.lft.to/lastmile_qr_scan"}}, {"fusion_lat": 0.0, "is_disabled": 0, "lat": 38.8922225, "lon": -77.04502983333333, "fusion_lon": 0.0, "bike_id": "91753f97c89f680f584c38a373e0b58f", "type": "electric_scooter", "name": "91753f97c89f680f584c38a373e0b58f", "is_reserved": 0, "rental_uris": {"ios": "https://dc.lft.to/lastmile_qr_scan", "android": "https://dc.lft.to/lastmile_qr_scan"}}, {"fusion_lat": 0.0, "is_disabled": 0, "lat": 38.92932316666667, "lon": -77.006754, "fusion_lon": 0.0, "bike_id": "efa984c787fc5eabd366ed1b83e56a10", "type": "electric_scooter", "name": "efa984c787fc5eabd366ed1b83e56a10", "is_reserved": 0, "rental_uris": {"ios": "https://dc.lft.to/lastmile_qr_scan", "android": "https://dc.lft.to/lastmile_qr_scan"}}, {"fusion_lat": 0.0, "is_disabled": 0, "lat": 38.923064333333336, "lon": -77.04216933333333, "fusion_lon": 0.0, "bike_id": "ad8e140c738fbe17ddb4033e35afe552", "type": "electric_scooter", "name": "ad8e140c738fbe17ddb4033e35afe552", "is_reserved": 0, "rental_uris": {"ios": "https://dc.lft.to/lastmile_qr_scan", "android": "https://dc.lft.to/lastmile_qr_scan"}}, {"fusion_lat": 0.0, "is_disabled": 0, "lat": 38.95779133333333, "lon": -77.0283615, "fusion_lon": 0.0, "bike_id": "e90d49878dca6c329a9255ebcb1c351e", "type": "electric_scooter", "name": "e90d49878dca6c329a9255ebcb1c351e", "is_reserved": 0, "rental_uris": {"ios": "https://dc.lft.to/lastmile_qr_scan", "android": "https://dc.lft.to/lastmile_qr_scan"}}, {"fusion_lat": 0.0, "is_disabled": 0, "lat": 38.93460316666667, "lon": -77.0581365, "fusion_lon": 0.0, "bike_id": "7b5714637594b9d579dd6cf72bdd8920", "type": "electric_scooter", "name": "7b5714637594b9d579dd6cf72bdd8920", "is_reserved": 0, "rental_uris": {"ios": "https://dc.lft.to/lastmile_qr_scan", "android": "https://dc.lft.to/lastmile_qr_scan"}}, {"fusion_lat": 0.0, "is_disabled": 0, "lat": 38.901772333333334, "lon": -77.03370166666667, "fusion_lon": 0.0, "bike_id": "21a20c28d1b25e1d5bec45c3ed288f6c", "type": "electric_scooter", "name": "21a20c28d1b25e1d5bec45c3ed288f6c", "is_reserved": 0, "rental_uris": {"ios": "https://dc.lft.to/lastmile_qr_scan", "android": "https://dc.lft.to/lastmile_qr_scan"}}, {"fusion_lat": 0.0, "is_disabled": 0, "lat": 38.90346566666667, "lon": -77.03790183333334, "fusion_lon": 0.0, "bike_id": "2820fe675918b8aafd4f1d8d8e7619d6", "type": "electric_scooter", "name": "2820fe675918b8aafd4f1d8d8e7619d6", "is_reserved": 0, "rental_uris": {"ios": "https://dc.lft.to/lastmile_qr_scan", "android": "https://dc.lft.to/lastmile_qr_scan"}}, {"fusion_lat": 0.0, "is_disabled": 0, "lat": 38.8921945, "lon": -77.02164233333333, "fusion_lon": 0.0, "bike_id": "9c892339ca5ca9e7095be2afd0d5e856", "type": "electric_scooter", "name": "9c892339ca5ca9e7095be2afd0d5e856", "is_reserved": 0, "rental_uris": {"ios": "https://dc.lft.to/lastmile_qr_scan", "android": "https://dc.lft.to/lastmile_qr_scan"}}, {"fusion_lat": 0.0, "is_disabled": 0, "lat": 38.917095333333336, "lon": -77.038689, "fusion_lon": 0.0, "bike_id": "b63a898031b012841d007b07baba19ca", "type": "electric_scooter", "name": "b63a898031b012841d007b07baba19ca", "is_reserved": 0, "rental_uris": {"ios": "https://dc.lft.to/lastmile_qr_scan", "android": "https://dc.lft.to/lastmile_qr_scan"}}, {"fusion_lat": 0.0, "is_disabled": 0, "lat": 38.905671166666664, "lon": -77.03442883333334, "fusion_lon": 0.0, "bike_id": "657a5f40e01a079d867a2615af0669fe", "type": "electric_scooter", "name": "657a5f40e01a079d867a2615af0669fe", "is_reserved": 0, "rental_uris": {"ios": "https://dc.lft.to/lastmile_qr_scan", "android": "https://dc.lft.to/lastmile_qr_scan"}}, {"fusion_lat": 0.0, "is_disabled": 0, "lat": 38.921989333333336, "lon": -77.020321, "fusion_lon": 0.0, "bike_id": "8af1203b1f4e886c284d2de35ae49705", "type": "electric_scooter", "name": "8af1203b1f4e886c284d2de35ae49705", "is_reserved": 0, "rental_uris": {"ios": "https://dc.lft.to/lastmile_qr_scan", "android": "https://dc.lft.to/lastmile_qr_scan"}}, {"fusion_lat": 0.0, "is_disabled": 0, "lat": 38.907092166666665, "lon": -77.042112, "fusion_lon": 0.0, "bike_id": "7d6e71e472a34ac3afab8e3c53b0fe8d", "type": "electric_scooter", "name": "7d6e71e472a34ac3afab8e3c53b0fe8d", "is_reserved": 0, "rental_uris": {"ios": "https://dc.lft.to/lastmile_qr_scan", "android": "https://dc.lft.to/lastmile_qr_scan"}}, {"fusion_lat": 0.0, "is_disabled": 0, "lat": 38.909328, "lon": -77.03191783333334, "fusion_lon": 0.0, "bike_id": "9ca5dca67aaec5d1c35a97f229f01f9d", "type": "electric_scooter", "name": "9ca5dca67aaec5d1c35a97f229f01f9d", "is_reserved": 0, "rental_uris": {"ios": "https://dc.lft.to/lastmile_qr_scan", "android": "https://dc.lft.to/lastmile_qr_scan"}}, {"fusion_lat": 0.0, "is_disabled": 0, "lat": 38.840256333333336, "lon": -76.98862583333333, "fusion_lon": 0.0, "bike_id": "2aa50c3b9e873efa6ac7fe15f0a1ccee", "type": "electric_bike", "name": "2aa50c3b9e873efa6ac7fe15f0a1ccee", "is_reserved": 0, "rental_uris": {"ios": "https://dc.lft.to/lastmile_qr_scan", "android": "https://dc.lft.to/lastmile_qr_scan"}}, {"fusion_lat": 0.0, "is_disabled": 0, "lat": 38.93760283333334, "lon": -76.99057916666666, "fusion_lon": 0.0, "bike_id": "dd930a62dbfba1494796208c239cbc03", "type": "electric_bike", "name": "dd930a62dbfba1494796208c239cbc03", "is_reserved": 0, "rental_uris": {"ios": "https://dc.lft.to/lastmile_qr_scan", "android": "https://dc.lft.to/lastmile_qr_scan"}}, {"fusion_lat": 0.0, "is_disabled": 0, "lat": 38.9069225, "lon": -77.03815883333333, "fusion_lon": 0.0, "bike_id": "1b7f3fdc7387ea959573ff872ce40750", "type": "electric_scooter", "name": "1b7f3fdc7387ea959573ff872ce40750", "is_reserved": 0, "rental_uris": {"ios": "https://dc.lft.to/lastmile_qr_scan", "android": "https://dc.lft.to/lastmile_qr_scan"}}, {"fusion_lat": 0.0, "is_disabled": 0, "lat": 38.9564905, "lon": -77.0123665, "fusion_lon": 0.0, "bike_id": "f555531eae3e7d1f43cdf6f64f866db8", "type": "electric_scooter", "name": "f555531eae3e7d1f43cdf6f64f866db8", "is_reserved": 0, "rental_uris": {"ios": "https://dc.lft.to/lastmile_qr_scan", "android": "https://dc.lft.to/lastmile_qr_scan"}}, {"fusion_lat": 0.0, "is_disabled": 0, "lat": 38.89653166666667, "lon": -77.040655, "fusion_lon": 0.0, "bike_id": "7eb4c97b553d5071622f59ea0194e93c", "type": "electric_scooter", "name": "7eb4c97b553d5071622f59ea0194e93c", "is_reserved": 0, "rental_uris": {"ios": "https://dc.lft.to/lastmile_qr_scan", "android": "https://dc.lft.to/lastmile_qr_scan"}}, {"fusion_lat": 0.0, "is_disabled": 0, "lat": 38.87781016666667, "lon": -76.99411133333334, "fusion_lon": 0.0, "bike_id": "1dad7b6d2b6e9315ff6f0ee3065d83bb", "type": "electric_scooter", "name": "1dad7b6d2b6e9315ff6f0ee3065d83bb", "is_reserved": 0, "rental_uris": {"ios": "https://dc.lft.to/lastmile_qr_scan", "android": "https://dc.lft.to/lastmile_qr_scan"}}, {"fusion_lat": 0.0, "is_disabled": 0, "lat": 38.92667433333333, "lon": -77.06013383333334, "fusion_lon": 0.0, "bike_id": "2516563cf0c732566dcab2752ccca319", "type": "electric_scooter", "name": "2516563cf0c732566dcab2752ccca319", "is_reserved": 0, "rental_uris": {"ios": "https://dc.lft.to/lastmile_qr_scan", "android": "https://dc.lft.to/lastmile_qr_scan"}}, {"fusion_lat": 0.0, "is_disabled": 0, "lat": 38.92043966666667, "lon": -77.01676183333333, "fusion_lon": 0.0, "bike_id": "6d54a8e78b7f82ab94c194c81b4eccef", "type": "electric_scooter", "name": "6d54a8e78b7f82ab94c194c81b4eccef", "is_reserved": 0, "rental_uris": {"ios": "https://dc.lft.to/lastmile_qr_scan", "android": "https://dc.lft.to/lastmile_qr_scan"}}, {"fusion_lat": 0.0, "is_disabled": 0, "lat": 38.9167575, "lon": -77.029626, "fusion_lon": 0.0, "bike_id": "740f7eaef51c860e262eb8a08ed439ba", "type": "electric_scooter", "name": "740f7eaef51c860e262eb8a08ed439ba", "is_reserved": 0, "rental_uris": {"ios": "https://dc.lft.to/lastmile_qr_scan", "android": "https://dc.lft.to/lastmile_qr_scan"}}, {"fusion_lat": 0.0, "is_disabled": 0, "lat": 38.846930666666665, "lon": -76.996237, "fusion_lon": 0.0, "bike_id": "e03c4b3f408805deb8dfb8365100a58b", "type": "electric_bike", "name": "e03c4b3f408805deb8dfb8365100a58b", "is_reserved": 0, "rental_uris": {"ios": "https://dc.lft.to/lastmile_qr_scan", "android": "https://dc.lft.to/lastmile_qr_scan"}}, {"fusion_lat": 0.0, "is_disabled": 0, "lat": 38.93682966666667, "lon": -76.99059416666667, "fusion_lon": 0.0, "bike_id": "bf9d986fc6115bb09ba8f82dc7138aa3", "type": "electric_bike", "name": "bf9d986fc6115bb09ba8f82dc7138aa3", "is_reserved": 0, "rental_uris": {"ios": "https://dc.lft.to/lastmile_qr_scan", "android": "https://dc.lft.to/lastmile_qr_scan"}}, {"fusion_lat": 0.0, "is_disabled": 0, "lat": 38.897340166666666, "lon": -77.03329883333333, "fusion_lon": 0.0, "bike_id": "db2cda232cee04c407dc637a8aa2524f", "type": "electric_scooter", "name": "db2cda232cee04c407dc637a8aa2524f", "is_reserved": 0, "rental_uris": {"ios": "https://dc.lft.to/lastmile_qr_scan", "android": "https://dc.lft.to/lastmile_qr_scan"}}, {"fusion_lat": 0.0, "is_disabled": 0, "lat": 38.902332, "lon": -77.00202583333333, "fusion_lon": 0.0, "bike_id": "c82707e6a1c9be6815e4c4d8e62722e0", "type": "electric_scooter", "name": "c82707e6a1c9be6815e4c4d8e62722e0", "is_reserved": 0, "rental_uris": {"ios": "https://dc.lft.to/lastmile_qr_scan", "android": "https://dc.lft.to/lastmile_qr_scan"}}, {"fusion_lat": 0.0, "is_disabled": 0, "lat": 38.938613833333335, "lon": -77.03045233333333, "fusion_lon": 0.0, "bike_id": "e43298c0aeb108a15f7119e5467a241a", "type": "electric_scooter", "name": "e43298c0aeb108a15f7119e5467a241a", "is_reserved": 0, "rental_uris": {"ios": "https://dc.lft.to/lastmile_qr_scan", "android": "https://dc.lft.to/lastmile_qr_scan"}}, {"fusion_lat": 0.0, "is_disabled": 0, "lat": 38.92456, "lon": -77.03288033333334, "fusion_lon": 0.0, "bike_id": "abbc2df60df597c9b7e4ac01f817a784", "type": "electric_scooter", "name": "abbc2df60df597c9b7e4ac01f817a784", "is_reserved": 0, "rental_uris": {"ios": "https://dc.lft.to/lastmile_qr_scan", "android": "https://dc.lft.to/lastmile_qr_scan"}}, {"fusion_lat": 0.0, "is_disabled": 0, "lat": 38.92950533333333, "lon": -77.05511733333333, "fusion_lon": 0.0, "bike_id": "4c74aaafa4841cc874d01f981c467200", "type": "electric_scooter", "name": "4c74aaafa4841cc874d01f981c467200", "is_reserved": 0, "rental_uris": {"ios": "https://dc.lft.to/lastmile_qr_scan", "android": "https://dc.lft.to/lastmile_qr_scan"}}, {"fusion_lat": 0.0, "is_disabled": 0, "lat": 38.918742333333334, "lon": -76.96438233333333, "fusion_lon": 0.0, "bike_id": "c4592050ca6f765288a07f27eb7c028f", "type": "electric_bike", "name": "c4592050ca6f765288a07f27eb7c028f", "is_reserved": 0, "rental_uris": {"ios": "https://dc.lft.to/lastmile_qr_scan", "android": "https://dc.lft.to/lastmile_qr_scan"}}, {"fusion_lat": 0.0, "is_disabled": 0, "lat": 38.88286433333333, "lon": -76.93244433333334, "fusion_lon": 0.0, "bike_id": "2a20be48142595610f673195d66c3b37", "type": "electric_bike", "name": "2a20be48142595610f673195d66c3b37", "is_reserved": 0, "rental_uris": {"ios": "https://dc.lft.to/lastmile_qr_scan", "android": "https://dc.lft.to/lastmile_qr_scan"}}, {"fusion_lat": 0.0, "is_disabled": 0, "lat": 38.904037, "lon": -77.04653416666666, "fusion_lon": 0.0, "bike_id": "38c8f17ce9f1dd59d1b9cf6482a9b006", "type": "electric_scooter", "name": "38c8f17ce9f1dd59d1b9cf6482a9b006", "is_reserved": 0, "rental_uris": {"ios": "https://dc.lft.to/lastmile_qr_scan", "android": "https://dc.lft.to/lastmile_qr_scan"}}, {"fusion_lat": 0.0, "is_disabled": 0, "lat": 38.962261, "lon": -77.01358066666667, "fusion_lon": 0.0, "bike_id": "dd211168f48a9e32e944c78eedf9be35", "type": "electric_scooter", "name": "dd211168f48a9e32e944c78eedf9be35", "is_reserved": 0, "rental_uris": {"ios": "https://dc.lft.to/lastmile_qr_scan", "android": "https://dc.lft.to/lastmile_qr_scan"}}, {"fusion_lat": 0.0, "is_disabled": 0, "lat": 38.95704033333333, "lon": -76.97375816666667, "fusion_lon": 0.0, "bike_id": "a9d07eea0d43776e15dcabf09fab0f15", "type": "electric_bike", "name": "a9d07eea0d43776e15dcabf09fab0f15", "is_reserved": 0, "rental_uris": {"ios": "https://dc.lft.to/lastmile_qr_scan", "android": "https://dc.lft.to/lastmile_qr_scan"}}, {"fusion_lat": 0.0, "is_disabled": 0, "lat": 38.804797666666666, "lon": -76.99110483333334, "fusion_lon": 0.0, "bike_id": "f9809b3d0fe38d4d8f21400b32b1e73e", "type": "electric_bike", "name": "f9809b3d0fe38d4d8f21400b32b1e73e", "is_reserved": 0, "rental_uris": {"ios": "https://dc.lft.to/lastmile_qr_scan", "android": "https://dc.lft.to/lastmile_qr_scan"}}, {"fusion_lat": 0.0, "is_disabled": 0, "lat": 38.927962666666666, "lon": -77.015624, "fusion_lon": 0.0, "bike_id": "15c4eb3ae3070c0389f6adbea1da89a1", "type": "electric_scooter", "name": "15c4eb3ae3070c0389f6adbea1da89a1", "is_reserved": 0, "rental_uris": {"ios": "https://dc.lft.to/lastmile_qr_scan", "android": "https://dc.lft.to/lastmile_qr_scan"}}, {"fusion_lat": 0.0, "is_disabled": 0, "lat": 38.905277, "lon": -77.00705733333334, "fusion_lon": 0.0, "bike_id": "c6188a6ab46a0adf066017e36383d866", "type": "electric_scooter", "name": "c6188a6ab46a0adf066017e36383d866", "is_reserved": 0, "rental_uris": {"ios": "https://dc.lft.to/lastmile_qr_scan", "android": "https://dc.lft.to/lastmile_qr_scan"}}, {"fusion_lat": 0.0, "is_disabled": 0, "lat": 38.78459316666667, "lon": -77.05438016666666, "fusion_lon": 0.0, "bike_id": "b334a35a2d1d18784e35e57e53db33e0", "type": "electric_bike", "name": "b334a35a2d1d18784e35e57e53db33e0", "is_reserved": 0, "rental_uris": {"ios": "https://dc.lft.to/lastmile_qr_scan", "android": "https://dc.lft.to/lastmile_qr_scan"}}, {"fusion_lat": 0.0, "is_disabled": 0, "lat": 38.90840383333333, "lon": -77.02387, "fusion_lon": 0.0, "bike_id": "44693b82288388f93a346a74d6fc118a", "type": "electric_scooter", "name": "44693b82288388f93a346a74d6fc118a", "is_reserved": 0, "rental_uris": {"ios": "https://dc.lft.to/lastmile_qr_scan", "android": "https://dc.lft.to/lastmile_qr_scan"}}, {"fusion_lat": 0.0, "is_disabled": 0, "lat": 38.86324066666667, "lon": -76.98701883333334, "fusion_lon": 0.0, "bike_id": "ee5dc57a3349fc6fcb72ecee6d22b40c", "type": "electric_bike", "name": "ee5dc57a3349fc6fcb72ecee6d22b40c", "is_reserved": 0, "rental_uris": {"ios": "https://dc.lft.to/lastmile_qr_scan", "android": "https://dc.lft.to/lastmile_qr_scan"}}, {"fusion_lat": 0.0, "is_disabled": 0, "lat": 38.96128816666667, "lon": -77.0318075, "fusion_lon": 0.0, "bike_id": "f491962b2a571b5f9b95371bccf38114", "type": "electric_bike", "name": "f491962b2a571b5f9b95371bccf38114", "is_reserved": 0, "rental_uris": {"ios": "https://dc.lft.to/lastmile_qr_scan", "android": "https://dc.lft.to/lastmile_qr_scan"}}, {"fusion_lat": 0.0, "is_disabled": 0, "lat": 38.8802545, "lon": -76.94325133333334, "fusion_lon": 0.0, "bike_id": "bb9c04fbdf273695a28d1db2e72995e2", "type": "electric_scooter", "name": "bb9c04fbdf273695a28d1db2e72995e2", "is_reserved": 0, "rental_uris": {"ios": "https://dc.lft.to/lastmile_qr_scan", "android": "https://dc.lft.to/lastmile_qr_scan"}}, {"fusion_lat": 0.0, "is_disabled": 0, "lat": 38.89401483333333, "lon": -77.02119816666666, "fusion_lon": 0.0, "bike_id": "343864c88f3320df483ce31625c3287b", "type": "electric_scooter", "name": "343864c88f3320df483ce31625c3287b", "is_reserved": 0, "rental_uris": {"ios": "https://dc.lft.to/lastmile_qr_scan", "android": "https://dc.lft.to/lastmile_qr_scan"}}, {"fusion_lat": 0.0, "is_disabled": 0, "lat": 38.9008405, "lon": -77.01784033333334, "fusion_lon": 0.0, "bike_id": "67ff34aea474338d3bd3725a4757680e", "type": "electric_scooter", "name": "67ff34aea474338d3bd3725a4757680e", "is_reserved": 0, "rental_uris": {"ios": "https://dc.lft.to/lastmile_qr_scan", "android": "https://dc.lft.to/lastmile_qr_scan"}}, {"fusion_lat": 0.0, "is_disabled": 0, "lat": 38.887146333333334, "lon": -76.98345516666667, "fusion_lon": 0.0, "bike_id": "86f338afa23c2b42941796bc07ae5baf", "type": "electric_scooter", "name": "86f338afa23c2b42941796bc07ae5baf", "is_reserved": 0, "rental_uris": {"ios": "https://dc.lft.to/lastmile_qr_scan", "android": "https://dc.lft.to/lastmile_qr_scan"}}, {"fusion_lat": 0.0, "is_disabled": 0, "lat": 38.91880333333334, "lon": -77.0408525, "fusion_lon": 0.0, "bike_id": "897115a909abe06cf92829786ff2f884", "type": "electric_scooter", "name": "897115a909abe06cf92829786ff2f884", "is_reserved": 0, "rental_uris": {"ios": "https://dc.lft.to/lastmile_qr_scan", "android": "https://dc.lft.to/lastmile_qr_scan"}}, {"fusion_lat": 0.0, "is_disabled": 0, "lat": 38.90124566666667, "lon": -77.03261916666666, "fusion_lon": 0.0, "bike_id": "b4d2b3769a4e3582e4dd53647c8c7cc6", "type": "electric_scooter", "name": "b4d2b3769a4e3582e4dd53647c8c7cc6", "is_reserved": 0, "rental_uris": {"ios": "https://dc.lft.to/lastmile_qr_scan", "android": "https://dc.lft.to/lastmile_qr_scan"}}, {"fusion_lat": 0.0, "is_disabled": 0, "lat": 38.80381633333333, "lon": -76.9881685, "fusion_lon": 0.0, "bike_id": "63042b47a1edb4f03b4791c68eeec14c", "type": "electric_bike", "name": "63042b47a1edb4f03b4791c68eeec14c", "is_reserved": 0, "rental_uris": {"ios": "https://dc.lft.to/lastmile_qr_scan", "android": "https://dc.lft.to/lastmile_qr_scan"}}, {"fusion_lat": 0.0, "is_disabled": 0, "lat": 38.8982995, "lon": -77.04546366666666, "fusion_lon": 0.0, "bike_id": "a9ba2739800ce556851ebc4f37b940c3", "type": "electric_scooter", "name": "a9ba2739800ce556851ebc4f37b940c3", "is_reserved": 0, "rental_uris": {"ios": "https://dc.lft.to/lastmile_qr_scan", "android": "https://dc.lft.to/lastmile_qr_scan"}}, {"fusion_lat": 0.0, "is_disabled": 0, "lat": 38.9205655, "lon": -77.01770366666666, "fusion_lon": 0.0, "bike_id": "b912ccc919226effd68117d18f9587c1", "type": "electric_scooter", "name": "b912ccc919226effd68117d18f9587c1", "is_reserved": 0, "rental_uris": {"ios": "https://dc.lft.to/lastmile_qr_scan", "android": "https://dc.lft.to/lastmile_qr_scan"}}, {"fusion_lat": 0.0, "is_disabled": 0, "lat": 38.906775, "lon": -76.98368433333333, "fusion_lon": 0.0, "bike_id": "1b55ab733809d2ca772937500f29779b", "type": "electric_scooter", "name": "1b55ab733809d2ca772937500f29779b", "is_reserved": 0, "rental_uris": {"ios": "https://dc.lft.to/lastmile_qr_scan", "android": "https://dc.lft.to/lastmile_qr_scan"}}, {"fusion_lat": 0.0, "is_disabled": 0, "lat": 38.8619835, "lon": -76.9952585, "fusion_lon": 0.0, "bike_id": "812d1ecaee9e9d97643f2c5758cc3322", "type": "electric_scooter", "name": "812d1ecaee9e9d97643f2c5758cc3322", "is_reserved": 0, "rental_uris": {"ios": "https://dc.lft.to/lastmile_qr_scan", "android": "https://dc.lft.to/lastmile_qr_scan"}}, {"fusion_lat": 0.0, "is_disabled": 0, "lat": 38.92449666666667, "lon": -77.0221635, "fusion_lon": 0.0, "bike_id": "af636fea06951839d5bd19c2da833067", "type": "electric_scooter", "name": "af636fea06951839d5bd19c2da833067", "is_reserved": 0, "rental_uris": {"ios": "https://dc.lft.to/lastmile_qr_scan", "android": "https://dc.lft.to/lastmile_qr_scan"}}, {"fusion_lat": 0.0, "is_disabled": 0, "lat": 38.914100166666664, "lon": -77.02384216666667, "fusion_lon": 0.0, "bike_id": "32d823c066aed5c3c612c8d9ee964098", "type": "electric_scooter", "name": "32d823c066aed5c3c612c8d9ee964098", "is_reserved": 0, "rental_uris": {"ios": "https://dc.lft.to/lastmile_qr_scan", "android": "https://dc.lft.to/lastmile_qr_scan"}}, {"fusion_lat": 0.0, "is_disabled": 0, "lat": 38.921355166666665, "lon": -77.05158366666667, "fusion_lon": 0.0, "bike_id": "6fe1aae259dce12794d510d19d9d4af8", "type": "electric_scooter", "name": "6fe1aae259dce12794d510d19d9d4af8", "is_reserved": 0, "rental_uris": {"ios": "https://dc.lft.to/lastmile_qr_scan", "android": "https://dc.lft.to/lastmile_qr_scan"}}, {"fusion_lat": 0.0, "is_disabled": 0, "lat": 38.91766366666667, "lon": -77.0410055, "fusion_lon": 0.0, "bike_id": "7e1afe14122788158f6fe2501721a713", "type": "electric_scooter", "name": "7e1afe14122788158f6fe2501721a713", "is_reserved": 0, "rental_uris": {"ios": "https://dc.lft.to/lastmile_qr_scan", "android": "https://dc.lft.to/lastmile_qr_scan"}}, {"fusion_lat": 0.0, "is_disabled": 0, "lat": 38.88717666666667, "lon": -77.02827633333334, "fusion_lon": 0.0, "bike_id": "19e33e5693e8869ff9c9b73fee24747c", "type": "electric_scooter", "name": "19e33e5693e8869ff9c9b73fee24747c", "is_reserved": 0, "rental_uris": {"ios": "https://dc.lft.to/lastmile_qr_scan", "android": "https://dc.lft.to/lastmile_qr_scan"}}, {"fusion_lat": 0.0, "is_disabled": 0, "lat": 38.924061, "lon": -77.03554616666666, "fusion_lon": 0.0, "bike_id": "7c5c2fbeb44b0579dd4b33763042f08c", "type": "electric_scooter", "name": "7c5c2fbeb44b0579dd4b33763042f08c", "is_reserved": 0, "rental_uris": {"ios": "https://dc.lft.to/lastmile_qr_scan", "android": "https://dc.lft.to/lastmile_qr_scan"}}, {"fusion_lat": 0.0, "is_disabled": 0, "lat": 38.8972835, "lon": -77.02095866666667, "fusion_lon": 0.0, "bike_id": "4f0ab0ac12d87d09ec24f428da69d27f", "type": "electric_scooter", "name": "4f0ab0ac12d87d09ec24f428da69d27f", "is_reserved": 0, "rental_uris": {"ios": "https://dc.lft.to/lastmile_qr_scan", "android": "https://dc.lft.to/lastmile_qr_scan"}}, {"fusion_lat": 0.0, "is_disabled": 0, "lat": 38.936033333333334, "lon": -77.03195333333333, "fusion_lon": 0.0, "bike_id": "a9e6d01a3a3ead044cf9354c1e8b550f", "type": "electric_scooter", "name": "a9e6d01a3a3ead044cf9354c1e8b550f", "is_reserved": 0, "rental_uris": {"ios": "https://dc.lft.to/lastmile_qr_scan", "android": "https://dc.lft.to/lastmile_qr_scan"}}, {"fusion_lat": 0.0, "is_disabled": 0, "lat": 38.907562, "lon": -77.0453515, "fusion_lon": 0.0, "bike_id": "37ae0f53fd8aa52bae65944c2f322930", "type": "electric_scooter", "name": "37ae0f53fd8aa52bae65944c2f322930", "is_reserved": 0, "rental_uris": {"ios": "https://dc.lft.to/lastmile_qr_scan", "android": "https://dc.lft.to/lastmile_qr_scan"}}, {"fusion_lat": 0.0, "is_disabled": 0, "lat": 38.887034666666665, "lon": -77.0217505, "fusion_lon": 0.0, "bike_id": "1327d99817a570c99ff8afc675357d48", "type": "electric_scooter", "name": "1327d99817a570c99ff8afc675357d48", "is_reserved": 0, "rental_uris": {"ios": "https://dc.lft.to/lastmile_qr_scan", "android": "https://dc.lft.to/lastmile_qr_scan"}}, {"fusion_lat": 0.0, "is_disabled": 0, "lat": 38.894977833333336, "lon": -76.93477783333333, "fusion_lon": 0.0, "bike_id": "a8795221562ff05aea0c0efb94259257", "type": "electric_scooter", "name": "a8795221562ff05aea0c0efb94259257", "is_reserved": 0, "rental_uris": {"ios": "https://dc.lft.to/lastmile_qr_scan", "android": "https://dc.lft.to/lastmile_qr_scan"}}, {"fusion_lat": 0.0, "is_disabled": 0, "lat": 38.8902045, "lon": -76.93730066666667, "fusion_lon": 0.0, "bike_id": "0f3e73245405cdef23cc4127fd47b458", "type": "electric_scooter", "name": "0f3e73245405cdef23cc4127fd47b458", "is_reserved": 0, "rental_uris": {"ios": "https://dc.lft.to/lastmile_qr_scan", "android": "https://dc.lft.to/lastmile_qr_scan"}}, {"fusion_lat": 0.0, "is_disabled": 0, "lat": 38.89842016666667, "lon": -77.01212583333333, "fusion_lon": 0.0, "bike_id": "faad660032cfe20e9d4a67414c8e7d65", "type": "electric_scooter", "name": "faad660032cfe20e9d4a67414c8e7d65", "is_reserved": 0, "rental_uris": {"ios": "https://dc.lft.to/lastmile_qr_scan", "android": "https://dc.lft.to/lastmile_qr_scan"}}, {"fusion_lat": 0.0, "is_disabled": 0, "lat": 38.915461666666666, "lon": -77.04436466666667, "fusion_lon": 0.0, "bike_id": "a999a24dbfeb87a1596c862267a5fcc1", "type": "electric_scooter", "name": "a999a24dbfeb87a1596c862267a5fcc1", "is_reserved": 0, "rental_uris": {"ios": "https://dc.lft.to/lastmile_qr_scan", "android": "https://dc.lft.to/lastmile_qr_scan"}}, {"fusion_lat": 0.0, "is_disabled": 0, "lat": 38.89614733333333, "lon": -77.0191355, "fusion_lon": 0.0, "bike_id": "9077e7d0278e5cda9a8a2f24b091d768", "type": "electric_scooter", "name": "9077e7d0278e5cda9a8a2f24b091d768", "is_reserved": 0, "rental_uris": {"ios": "https://dc.lft.to/lastmile_qr_scan", "android": "https://dc.lft.to/lastmile_qr_scan"}}, {"fusion_lat": 0.0, "is_disabled": 0, "lat": 38.90130816666667, "lon": -77.03374733333334, "fusion_lon": 0.0, "bike_id": "c8ff8cc50226e9d6f9cb01c21b9777f0", "type": "electric_scooter", "name": "c8ff8cc50226e9d6f9cb01c21b9777f0", "is_reserved": 0, "rental_uris": {"ios": "https://dc.lft.to/lastmile_qr_scan", "android": "https://dc.lft.to/lastmile_qr_scan"}}, {"fusion_lat": 0.0, "is_disabled": 0, "lat": 38.91597216666667, "lon": -77.02304583333333, "fusion_lon": 0.0, "bike_id": "faf2f85d9512550dd194aa157429d7dd", "type": "electric_scooter", "name": "faf2f85d9512550dd194aa157429d7dd", "is_reserved": 0, "rental_uris": {"ios": "https://dc.lft.to/lastmile_qr_scan", "android": "https://dc.lft.to/lastmile_qr_scan"}}, {"fusion_lat": 0.0, "is_disabled": 0, "lat": 38.92506783333333, "lon": -77.02285683333334, "fusion_lon": 0.0, "bike_id": "819cc169f61b98e30c10815443bb32df", "type": "electric_scooter", "name": "819cc169f61b98e30c10815443bb32df", "is_reserved": 0, "rental_uris": {"ios": "https://dc.lft.to/lastmile_qr_scan", "android": "https://dc.lft.to/lastmile_qr_scan"}}, {"fusion_lat": 0.0, "is_disabled": 0, "lat": 38.928926, "lon": -77.013763, "fusion_lon": 0.0, "bike_id": "f48d9e96210df45307e32680caae75b9", "type": "electric_scooter", "name": "f48d9e96210df45307e32680caae75b9", "is_reserved": 0, "rental_uris": {"ios": "https://dc.lft.to/lastmile_qr_scan", "android": "https://dc.lft.to/lastmile_qr_scan"}}, {"fusion_lat": 0.0, "is_disabled": 0, "lat": 38.892126, "lon": -77.02371033333333, "fusion_lon": 0.0, "bike_id": "36ebe6423373317cc3e5099cb2de00cc", "type": "electric_scooter", "name": "36ebe6423373317cc3e5099cb2de00cc", "is_reserved": 0, "rental_uris": {"ios": "https://dc.lft.to/lastmile_qr_scan", "android": "https://dc.lft.to/lastmile_qr_scan"}}, {"fusion_lat": 0.0, "is_disabled": 0, "lat": 38.88459666666667, "lon": -77.025559, "fusion_lon": 0.0, "bike_id": "0823a1bc8251182dedf9547ef3ea9bd9", "type": "electric_scooter", "name": "0823a1bc8251182dedf9547ef3ea9bd9", "is_reserved": 0, "rental_uris": {"ios": "https://dc.lft.to/lastmile_qr_scan", "android": "https://dc.lft.to/lastmile_qr_scan"}}, {"fusion_lat": 0.0, "is_disabled": 0, "lat": 38.9203475, "lon": -77.01729116666667, "fusion_lon": 0.0, "bike_id": "72cf453cb165065f43ed8ed43351b550", "type": "electric_scooter", "name": "72cf453cb165065f43ed8ed43351b550", "is_reserved": 0, "rental_uris": {"ios": "https://dc.lft.to/lastmile_qr_scan", "android": "https://dc.lft.to/lastmile_qr_scan"}}, {"fusion_lat": 0.0, "is_disabled": 0, "lat": 38.919081, "lon": -77.02453316666667, "fusion_lon": 0.0, "bike_id": "8471560e9f59ee1f1d66b3ae7c81bca6", "type": "electric_scooter", "name": "8471560e9f59ee1f1d66b3ae7c81bca6", "is_reserved": 0, "rental_uris": {"ios": "https://dc.lft.to/lastmile_qr_scan", "android": "https://dc.lft.to/lastmile_qr_scan"}}, {"fusion_lat": 0.0, "is_disabled": 0, "lat": 38.92225416666667, "lon": -77.02828966666667, "fusion_lon": 0.0, "bike_id": "464a93c8373daeb2374dd691f144b2c4", "type": "electric_scooter", "name": "464a93c8373daeb2374dd691f144b2c4", "is_reserved": 0, "rental_uris": {"ios": "https://dc.lft.to/lastmile_qr_scan", "android": "https://dc.lft.to/lastmile_qr_scan"}}, {"fusion_lat": 0.0, "is_disabled": 0, "lat": 38.92689166666667, "lon": -77.01495716666666, "fusion_lon": 0.0, "bike_id": "cb3cef8f29736a028cc9b05a9aa5884b", "type": "electric_scooter", "name": "cb3cef8f29736a028cc9b05a9aa5884b", "is_reserved": 0, "rental_uris": {"ios": "https://dc.lft.to/lastmile_qr_scan", "android": "https://dc.lft.to/lastmile_qr_scan"}}, {"fusion_lat": 0.0, "is_disabled": 0, "lat": 38.92473783333333, "lon": -77.03929033333333, "fusion_lon": 0.0, "bike_id": "d540fbb95a5b1820add735df7513adf7", "type": "electric_scooter", "name": "d540fbb95a5b1820add735df7513adf7", "is_reserved": 0, "rental_uris": {"ios": "https://dc.lft.to/lastmile_qr_scan", "android": "https://dc.lft.to/lastmile_qr_scan"}}, {"fusion_lat": 0.0, "is_disabled": 0, "lat": 38.9023935, "lon": -77.04262016666667, "fusion_lon": 0.0, "bike_id": "89816714ad24cf95b8c1cd4caee4541b", "type": "electric_scooter", "name": "89816714ad24cf95b8c1cd4caee4541b", "is_reserved": 0, "rental_uris": {"ios": "https://dc.lft.to/lastmile_qr_scan", "android": "https://dc.lft.to/lastmile_qr_scan"}}, {"fusion_lat": 0.0, "is_disabled": 0, "lat": 38.902842166666666, "lon": -77.0467165, "fusion_lon": 0.0, "bike_id": "fa7cbdd50dab169cf26728905c0bd2c9", "type": "electric_scooter", "name": "fa7cbdd50dab169cf26728905c0bd2c9", "is_reserved": 0, "rental_uris": {"ios": "https://dc.lft.to/lastmile_qr_scan", "android": "https://dc.lft.to/lastmile_qr_scan"}}, {"fusion_lat": 0.0, "is_disabled": 0, "lat": 38.90553383333334, "lon": -77.00598283333333, "fusion_lon": 0.0, "bike_id": "a2039f72b66c2575779d340bb7f4803a", "type": "electric_scooter", "name": "a2039f72b66c2575779d340bb7f4803a", "is_reserved": 0, "rental_uris": {"ios": "https://dc.lft.to/lastmile_qr_scan", "android": "https://dc.lft.to/lastmile_qr_scan"}}, {"fusion_lat": 0.0, "is_disabled": 0, "lat": 38.902615, "lon": -77.02825366666667, "fusion_lon": 0.0, "bike_id": "32cb0379e88f242dc2431c77d4e57be0", "type": "electric_scooter", "name": "32cb0379e88f242dc2431c77d4e57be0", "is_reserved": 0, "rental_uris": {"ios": "https://dc.lft.to/lastmile_qr_scan", "android": "https://dc.lft.to/lastmile_qr_scan"}}, {"fusion_lat": 0.0, "is_disabled": 0, "lat": 38.9329225, "lon": -77.02144833333334, "fusion_lon": 0.0, "bike_id": "cf4889de52764aa1560ada87c5c817d9", "type": "electric_scooter", "name": "cf4889de52764aa1560ada87c5c817d9", "is_reserved": 0, "rental_uris": {"ios": "https://dc.lft.to/lastmile_qr_scan", "android": "https://dc.lft.to/lastmile_qr_scan"}}, {"fusion_lat": 0.0, "is_disabled": 0, "lat": 38.916844166666664, "lon": -77.03432433333333, "fusion_lon": 0.0, "bike_id": "74af3a8f8ac4292eb4ba6717a4b2c6b7", "type": "electric_scooter", "name": "74af3a8f8ac4292eb4ba6717a4b2c6b7", "is_reserved": 0, "rental_uris": {"ios": "https://dc.lft.to/lastmile_qr_scan", "android": "https://dc.lft.to/lastmile_qr_scan"}}, {"fusion_lat": 0.0, "is_disabled": 0, "lat": 38.920504333333334, "lon": -77.03393183333333, "fusion_lon": 0.0, "bike_id": "e9abfb82887b6b9ab7c475557b41ff97", "type": "electric_scooter", "name": "e9abfb82887b6b9ab7c475557b41ff97", "is_reserved": 0, "rental_uris": {"ios": "https://dc.lft.to/lastmile_qr_scan", "android": "https://dc.lft.to/lastmile_qr_scan"}}, {"fusion_lat": 0.0, "is_disabled": 0, "lat": 38.89635666666667, "lon": -77.04018533333333, "fusion_lon": 0.0, "bike_id": "a4d1852f30b9fed491a6f65621df3f5a", "type": "electric_scooter", "name": "a4d1852f30b9fed491a6f65621df3f5a", "is_reserved": 0, "rental_uris": {"ios": "https://dc.lft.to/lastmile_qr_scan", "android": "https://dc.lft.to/lastmile_qr_scan"}}, {"fusion_lat": 0.0, "is_disabled": 0, "lat": 38.88686966666667, "lon": -76.97632883333333, "fusion_lon": 0.0, "bike_id": "f89909501a5d8b852b64b37d213118da", "type": "electric_scooter", "name": "f89909501a5d8b852b64b37d213118da", "is_reserved": 0, "rental_uris": {"ios": "https://dc.lft.to/lastmile_qr_scan", "android": "https://dc.lft.to/lastmile_qr_scan"}}, {"fusion_lat": 0.0, "is_disabled": 0, "lat": 38.921131, "lon": -77.02195833333333, "fusion_lon": 0.0, "bike_id": "ef89a19d8830f441b508933cf371f5ae", "type": "electric_scooter", "name": "ef89a19d8830f441b508933cf371f5ae", "is_reserved": 0, "rental_uris": {"ios": "https://dc.lft.to/lastmile_qr_scan", "android": "https://dc.lft.to/lastmile_qr_scan"}}, {"fusion_lat": 0.0, "is_disabled": 0, "lat": 38.905991, "lon": -77.0700575, "fusion_lon": 0.0, "bike_id": "32238fd759afdca1d7a1ae3dbaf8e8b1", "type": "electric_scooter", "name": "32238fd759afdca1d7a1ae3dbaf8e8b1", "is_reserved": 0, "rental_uris": {"ios": "https://dc.lft.to/lastmile_qr_scan", "android": "https://dc.lft.to/lastmile_qr_scan"}}, {"fusion_lat": 0.0, "is_disabled": 0, "lat": 38.925266, "lon": -77.03850783333333, "fusion_lon": 0.0, "bike_id": "9ebd7742c3fd614e35c79a21e368d86d", "type": "electric_scooter", "name": "9ebd7742c3fd614e35c79a21e368d86d", "is_reserved": 0, "rental_uris": {"ios": "https://dc.lft.to/lastmile_qr_scan", "android": "https://dc.lft.to/lastmile_qr_scan"}}, {"fusion_lat": 0.0, "is_disabled": 0, "lat": 38.923601166666664, "lon": -77.05070133333334, "fusion_lon": 0.0, "bike_id": "734f1f5dfebb6f072f7d2a448afb036c", "type": "electric_scooter", "name": "734f1f5dfebb6f072f7d2a448afb036c", "is_reserved": 0, "rental_uris": {"ios": "https://dc.lft.to/lastmile_qr_scan", "android": "https://dc.lft.to/lastmile_qr_scan"}}, {"fusion_lat": 0.0, "is_disabled": 0, "lat": 38.9275425, "lon": -77.0321135, "fusion_lon": 0.0, "bike_id": "f8e67c84e60b5f152158921f71295944", "type": "electric_scooter", "name": "f8e67c84e60b5f152158921f71295944", "is_reserved": 0, "rental_uris": {"ios": "https://dc.lft.to/lastmile_qr_scan", "android": "https://dc.lft.to/lastmile_qr_scan"}}, {"fusion_lat": 0.0, "is_disabled": 0, "lat": 38.933865, "lon": -77.0412775, "fusion_lon": 0.0, "bike_id": "12dc5d7d15f745ccd88492aa154cd0b8", "type": "electric_scooter", "name": "12dc5d7d15f745ccd88492aa154cd0b8", "is_reserved": 0, "rental_uris": {"ios": "https://dc.lft.to/lastmile_qr_scan", "android": "https://dc.lft.to/lastmile_qr_scan"}}, {"fusion_lat": 0.0, "is_disabled": 0, "lat": 38.886148, "lon": -76.977082, "fusion_lon": 0.0, "bike_id": "f302abfd8422321ad084bb151601a2ee", "type": "electric_bike", "name": "f302abfd8422321ad084bb151601a2ee", "is_reserved": 0, "rental_uris": {"ios": "https://dc.lft.to/lastmile_qr_scan", "android": "https://dc.lft.to/lastmile_qr_scan"}}, {"fusion_lat": 0.0, "is_disabled": 0, "lat": 38.89672216666666, "lon": -77.01199283333334, "fusion_lon": 0.0, "bike_id": "04c6248e6885ad8d57ac3e47c84c835c", "type": "electric_scooter", "name": "04c6248e6885ad8d57ac3e47c84c835c", "is_reserved": 0, "rental_uris": {"ios": "https://dc.lft.to/lastmile_qr_scan", "android": "https://dc.lft.to/lastmile_qr_scan"}}, {"fusion_lat": 0.0, "is_disabled": 0, "lat": 38.906433666666665, "lon": -77.04510083333334, "fusion_lon": 0.0, "bike_id": "b82b537c35b0c21720fdaaf52249180b", "type": "electric_bike", "name": "b82b537c35b0c21720fdaaf52249180b", "is_reserved": 0, "rental_uris": {"ios": "https://dc.lft.to/lastmile_qr_scan", "android": "https://dc.lft.to/lastmile_qr_scan"}}, {"fusion_lat": 0.0, "is_disabled": 0, "lat": 38.9040745, "lon": -77.05328816666666, "fusion_lon": 0.0, "bike_id": "84fee7a4a505d32451bb38194d6df33e", "type": "electric_scooter", "name": "84fee7a4a505d32451bb38194d6df33e", "is_reserved": 0, "rental_uris": {"ios": "https://dc.lft.to/lastmile_qr_scan", "android": "https://dc.lft.to/lastmile_qr_scan"}}, {"fusion_lat": 0.0, "is_disabled": 0, "lat": 38.920569666666665, "lon": -77.03472766666667, "fusion_lon": 0.0, "bike_id": "431e6aaa7104f2e2a9c365027a8001ee", "type": "electric_scooter", "name": "431e6aaa7104f2e2a9c365027a8001ee", "is_reserved": 0, "rental_uris": {"ios": "https://dc.lft.to/lastmile_qr_scan", "android": "https://dc.lft.to/lastmile_qr_scan"}}, {"fusion_lat": 0.0, "is_disabled": 0, "lat": 38.9284345, "lon": -77.036307, "fusion_lon": 0.0, "bike_id": "444b22d829da3b291c060fd9dfc9a811", "type": "electric_scooter", "name": "444b22d829da3b291c060fd9dfc9a811", "is_reserved": 0, "rental_uris": {"ios": "https://dc.lft.to/lastmile_qr_scan", "android": "https://dc.lft.to/lastmile_qr_scan"}}, {"fusion_lat": 0.0, "is_disabled": 0, "lat": 38.9402615, "lon": -77.02907833333333, "fusion_lon": 0.0, "bike_id": "5048945f96a3a9879891b48a0fbf30d3", "type": "electric_scooter", "name": "5048945f96a3a9879891b48a0fbf30d3", "is_reserved": 0, "rental_uris": {"ios": "https://dc.lft.to/lastmile_qr_scan", "android": "https://dc.lft.to/lastmile_qr_scan"}}, {"fusion_lat": 0.0, "is_disabled": 0, "lat": 38.92463383333333, "lon": -77.039364, "fusion_lon": 0.0, "bike_id": "4de3fa646d9123d7680cce6ff5e2f445", "type": "electric_scooter", "name": "4de3fa646d9123d7680cce6ff5e2f445", "is_reserved": 0, "rental_uris": {"ios": "https://dc.lft.to/lastmile_qr_scan", "android": "https://dc.lft.to/lastmile_qr_scan"}}, {"fusion_lat": 0.0, "is_disabled": 0, "lat": 38.921647666666665, "lon": -77.01885383333334, "fusion_lon": 0.0, "bike_id": "6402901667fdb022f50f562b26bdcf66", "type": "electric_scooter", "name": "6402901667fdb022f50f562b26bdcf66", "is_reserved": 0, "rental_uris": {"ios": "https://dc.lft.to/lastmile_qr_scan", "android": "https://dc.lft.to/lastmile_qr_scan"}}, {"fusion_lat": 0.0, "is_disabled": 0, "lat": 38.9414085, "lon": -77.02326483333333, "fusion_lon": 0.0, "bike_id": "e8b69c1b83f55e48157d91e109468fc6", "type": "electric_scooter", "name": "e8b69c1b83f55e48157d91e109468fc6", "is_reserved": 0, "rental_uris": {"ios": "https://dc.lft.to/lastmile_qr_scan", "android": "https://dc.lft.to/lastmile_qr_scan"}}, {"fusion_lat": 0.0, "is_disabled": 0, "lat": 38.90222033333333, "lon": -77.0480845, "fusion_lon": 0.0, "bike_id": "39d08ff187d64274402cc5e680470d9a", "type": "electric_scooter", "name": "39d08ff187d64274402cc5e680470d9a", "is_reserved": 0, "rental_uris": {"ios": "https://dc.lft.to/lastmile_qr_scan", "android": "https://dc.lft.to/lastmile_qr_scan"}}, {"fusion_lat": 0.0, "is_disabled": 0, "lat": 38.91121483333333, "lon": -77.036165, "fusion_lon": 0.0, "bike_id": "d0ab680a3be6661a99d4870474b95242", "type": "electric_scooter", "name": "d0ab680a3be6661a99d4870474b95242", "is_reserved": 0, "rental_uris": {"ios": "https://dc.lft.to/lastmile_qr_scan", "android": "https://dc.lft.to/lastmile_qr_scan"}}, {"fusion_lat": 0.0, "is_disabled": 0, "lat": 38.8994315, "lon": -77.03084983333333, "fusion_lon": 0.0, "bike_id": "830c06bb8a418c4cd79731db552dee3c", "type": "electric_scooter", "name": "830c06bb8a418c4cd79731db552dee3c", "is_reserved": 0, "rental_uris": {"ios": "https://dc.lft.to/lastmile_qr_scan", "android": "https://dc.lft.to/lastmile_qr_scan"}}, {"fusion_lat": 0.0, "is_disabled": 0, "lat": 38.906455, "lon": -77.05128416666666, "fusion_lon": 0.0, "bike_id": "9ba9294761d78691ec4d63f3843c0ae9", "type": "electric_scooter", "name": "9ba9294761d78691ec4d63f3843c0ae9", "is_reserved": 0, "rental_uris": {"ios": "https://dc.lft.to/lastmile_qr_scan", "android": "https://dc.lft.to/lastmile_qr_scan"}}, {"fusion_lat": 0.0, "is_disabled": 0, "lat": 38.933556833333334, "lon": -77.085787, "fusion_lon": 0.0, "bike_id": "2c9b17ced1468a76b7a4582a6f13aeb9", "type": "electric_scooter", "name": "2c9b17ced1468a76b7a4582a6f13aeb9", "is_reserved": 0, "rental_uris": {"ios": "https://dc.lft.to/lastmile_qr_scan", "android": "https://dc.lft.to/lastmile_qr_scan"}}, {"fusion_lat": 0.0, "is_disabled": 0, "lat": 38.87666316666667, "lon": -77.0199665, "fusion_lon": 0.0, "bike_id": "a2fcfdc10a0ae5f0919f0551cd26ee35", "type": "electric_scooter", "name": "a2fcfdc10a0ae5f0919f0551cd26ee35", "is_reserved": 0, "rental_uris": {"ios": "https://dc.lft.to/lastmile_qr_scan", "android": "https://dc.lft.to/lastmile_qr_scan"}}, {"fusion_lat": 0.0, "is_disabled": 0, "lat": 38.9167075, "lon": -77.02966416666666, "fusion_lon": 0.0, "bike_id": "cc07e2357e91a01cae13da8eb57ca2c2", "type": "electric_scooter", "name": "cc07e2357e91a01cae13da8eb57ca2c2", "is_reserved": 0, "rental_uris": {"ios": "https://dc.lft.to/lastmile_qr_scan", "android": "https://dc.lft.to/lastmile_qr_scan"}}, {"fusion_lat": 0.0, "is_disabled": 0, "lat": 38.89092466666666, "lon": -76.95460983333334, "fusion_lon": 0.0, "bike_id": "007da31989f50b4d10c1b7beeb947172", "type": "electric_bike", "name": "007da31989f50b4d10c1b7beeb947172", "is_reserved": 0, "rental_uris": {"ios": "https://dc.lft.to/lastmile_qr_scan", "android": "https://dc.lft.to/lastmile_qr_scan"}}, {"fusion_lat": 0.0, "is_disabled": 0, "lat": 38.927970333333334, "lon": -77.02974733333333, "fusion_lon": 0.0, "bike_id": "bb32afe6d7f5539b27cc17ec2ac3888d", "type": "electric_scooter", "name": "bb32afe6d7f5539b27cc17ec2ac3888d", "is_reserved": 0, "rental_uris": {"ios": "https://dc.lft.to/lastmile_qr_scan", "android": "https://dc.lft.to/lastmile_qr_scan"}}, {"fusion_lat": 0.0, "is_disabled": 0, "lat": 38.88701783333333, "lon": -77.02175866666667, "fusion_lon": 0.0, "bike_id": "27b835c257706cb9349f12b788108d3f", "type": "electric_scooter", "name": "27b835c257706cb9349f12b788108d3f", "is_reserved": 0, "rental_uris": {"ios": "https://dc.lft.to/lastmile_qr_scan", "android": "https://dc.lft.to/lastmile_qr_scan"}}, {"fusion_lat": 0.0, "is_disabled": 0, "lat": 38.90716, "lon": -77.04048783333333, "fusion_lon": 0.0, "bike_id": "65f63c58570c2cbf931a93af8c5d50ec", "type": "electric_scooter", "name": "65f63c58570c2cbf931a93af8c5d50ec", "is_reserved": 0, "rental_uris": {"ios": "https://dc.lft.to/lastmile_qr_scan", "android": "https://dc.lft.to/lastmile_qr_scan"}}, {"fusion_lat": 0.0, "is_disabled": 0, "lat": 38.931918, "lon": -77.01864916666666, "fusion_lon": 0.0, "bike_id": "f80c0a4d0487c1438fbd51df30e4341d", "type": "electric_scooter", "name": "f80c0a4d0487c1438fbd51df30e4341d", "is_reserved": 0, "rental_uris": {"ios": "https://dc.lft.to/lastmile_qr_scan", "android": "https://dc.lft.to/lastmile_qr_scan"}}, {"fusion_lat": 0.0, "is_disabled": 0, "lat": 38.931485, "lon": -77.06819833333333, "fusion_lon": 0.0, "bike_id": "d3ba91b4496c7a61102f8c728975bdf2", "type": "electric_scooter", "name": "d3ba91b4496c7a61102f8c728975bdf2", "is_reserved": 0, "rental_uris": {"ios": "https://dc.lft.to/lastmile_qr_scan", "android": "https://dc.lft.to/lastmile_qr_scan"}}, {"fusion_lat": 0.0, "is_disabled": 0, "lat": 38.922522666666666, "lon": -77.0210615, "fusion_lon": 0.0, "bike_id": "0c319bc5e9a6a5fdde163984a85f5b89", "type": "electric_scooter", "name": "0c319bc5e9a6a5fdde163984a85f5b89", "is_reserved": 0, "rental_uris": {"ios": "https://dc.lft.to/lastmile_qr_scan", "android": "https://dc.lft.to/lastmile_qr_scan"}}, {"fusion_lat": 0.0, "is_disabled": 0, "lat": 38.87692833333333, "lon": -77.0176885, "fusion_lon": 0.0, "bike_id": "0066d4f077c60d16161003c33814e83f", "type": "electric_scooter", "name": "0066d4f077c60d16161003c33814e83f", "is_reserved": 0, "rental_uris": {"ios": "https://dc.lft.to/lastmile_qr_scan", "android": "https://dc.lft.to/lastmile_qr_scan"}}, {"fusion_lat": 0.0, "is_disabled": 0, "lat": 38.923208333333335, "lon": -77.019516, "fusion_lon": 0.0, "bike_id": "aacd7169eda2315305169c470434e41c", "type": "electric_scooter", "name": "aacd7169eda2315305169c470434e41c", "is_reserved": 0, "rental_uris": {"ios": "https://dc.lft.to/lastmile_qr_scan", "android": "https://dc.lft.to/lastmile_qr_scan"}}, {"fusion_lat": 0.0, "is_disabled": 0, "lat": 38.902850666666666, "lon": -77.04679733333333, "fusion_lon": 0.0, "bike_id": "cef56cc5ac55723c0d924c348efa4ad0", "type": "electric_scooter", "name": "cef56cc5ac55723c0d924c348efa4ad0", "is_reserved": 0, "rental_uris": {"ios": "https://dc.lft.to/lastmile_qr_scan", "android": "https://dc.lft.to/lastmile_qr_scan"}}, {"fusion_lat": 0.0, "is_disabled": 0, "lat": 39.007174166666665, "lon": -76.981505, "fusion_lon": 0.0, "bike_id": "17eaa8637d195b3fec4efe7a8772dfcf", "type": "electric_bike", "name": "17eaa8637d195b3fec4efe7a8772dfcf", "is_reserved": 0, "rental_uris": {"ios": "https://dc.lft.to/lastmile_qr_scan", "android": "https://dc.lft.to/lastmile_qr_scan"}}, {"fusion_lat": 0.0, "is_disabled": 0, "lat": 38.92050066666667, "lon": -77.01812766666667, "fusion_lon": 0.0, "bike_id": "f55b14f42b4884f7a3cc4c3c6264ced0", "type": "electric_scooter", "name": "f55b14f42b4884f7a3cc4c3c6264ced0", "is_reserved": 0, "rental_uris": {"ios": "https://dc.lft.to/lastmile_qr_scan", "android": "https://dc.lft.to/lastmile_qr_scan"}}, {"fusion_lat": 0.0, "is_disabled": 0, "lat": 38.893642, "lon": -77.0033185, "fusion_lon": 0.0, "bike_id": "9dc6794c43c8177bace56988b0c38e8b", "type": "electric_scooter", "name": "9dc6794c43c8177bace56988b0c38e8b", "is_reserved": 0, "rental_uris": {"ios": "https://dc.lft.to/lastmile_qr_scan", "android": "https://dc.lft.to/lastmile_qr_scan"}}, {"fusion_lat": 0.0, "is_disabled": 0, "lat": 38.927655333333334, "lon": -77.02940233333334, "fusion_lon": 0.0, "bike_id": "4f29e3b7c41b37e1aa7006d173ddf6bb", "type": "electric_scooter", "name": "4f29e3b7c41b37e1aa7006d173ddf6bb", "is_reserved": 0, "rental_uris": {"ios": "https://dc.lft.to/lastmile_qr_scan", "android": "https://dc.lft.to/lastmile_qr_scan"}}, {"fusion_lat": 0.0, "is_disabled": 0, "lat": 38.90267333333333, "lon": -77.01771016666666, "fusion_lon": 0.0, "bike_id": "81b05d8a7973ba28ea4c46625da107b5", "type": "electric_scooter", "name": "81b05d8a7973ba28ea4c46625da107b5", "is_reserved": 0, "rental_uris": {"ios": "https://dc.lft.to/lastmile_qr_scan", "android": "https://dc.lft.to/lastmile_qr_scan"}}, {"fusion_lat": 0.0, "is_disabled": 0, "lat": 38.911336666666664, "lon": -77.06533916666666, "fusion_lon": 0.0, "bike_id": "735b7cbbba1e8bb13d9da4c66cf35566", "type": "electric_scooter", "name": "735b7cbbba1e8bb13d9da4c66cf35566", "is_reserved": 0, "rental_uris": {"ios": "https://dc.lft.to/lastmile_qr_scan", "android": "https://dc.lft.to/lastmile_qr_scan"}}, {"fusion_lat": 0.0, "is_disabled": 0, "lat": 38.896024833333335, "lon": -77.023004, "fusion_lon": 0.0, "bike_id": "8aa1aa6ad5f4560390fe3cf4295cd53d", "type": "electric_scooter", "name": "8aa1aa6ad5f4560390fe3cf4295cd53d", "is_reserved": 0, "rental_uris": {"ios": "https://dc.lft.to/lastmile_qr_scan", "android": "https://dc.lft.to/lastmile_qr_scan"}}, {"fusion_lat": 0.0, "is_disabled": 0, "lat": 38.902749666666665, "lon": -77.038456, "fusion_lon": 0.0, "bike_id": "d8532e0ce5ce94a333c22c4bb955e607", "type": "electric_scooter", "name": "d8532e0ce5ce94a333c22c4bb955e607", "is_reserved": 0, "rental_uris": {"ios": "https://dc.lft.to/lastmile_qr_scan", "android": "https://dc.lft.to/lastmile_qr_scan"}}, {"fusion_lat": 0.0, "is_disabled": 0, "lat": 38.92337916666666, "lon": -77.0190245, "fusion_lon": 0.0, "bike_id": "e4063d913add69222194f181035d747f", "type": "electric_scooter", "name": "e4063d913add69222194f181035d747f", "is_reserved": 0, "rental_uris": {"ios": "https://dc.lft.to/lastmile_qr_scan", "android": "https://dc.lft.to/lastmile_qr_scan"}}, {"fusion_lat": 0.0, "is_disabled": 0, "lat": 38.87802533333333, "lon": -76.9882685, "fusion_lon": 0.0, "bike_id": "aaba7bb788bb46b275ca5da9274ea128", "type": "electric_scooter", "name": "aaba7bb788bb46b275ca5da9274ea128", "is_reserved": 0, "rental_uris": {"ios": "https://dc.lft.to/lastmile_qr_scan", "android": "https://dc.lft.to/lastmile_qr_scan"}}, {"fusion_lat": 0.0, "is_disabled": 0, "lat": 38.92580683333333, "lon": -77.03640916666667, "fusion_lon": 0.0, "bike_id": "783f7fcfb70b1a4ca74ea4596f8f34fb", "type": "electric_scooter", "name": "783f7fcfb70b1a4ca74ea4596f8f34fb", "is_reserved": 0, "rental_uris": {"ios": "https://dc.lft.to/lastmile_qr_scan", "android": "https://dc.lft.to/lastmile_qr_scan"}}, {"fusion_lat": 0.0, "is_disabled": 0, "lat": 38.857985666666664, "lon": -76.987549, "fusion_lon": 0.0, "bike_id": "1fdd5e15c0cc034ba8e1e7e4d9ec2e9e", "type": "electric_bike", "name": "1fdd5e15c0cc034ba8e1e7e4d9ec2e9e", "is_reserved": 0, "rental_uris": {"ios": "https://dc.lft.to/lastmile_qr_scan", "android": "https://dc.lft.to/lastmile_qr_scan"}}, {"fusion_lat": 0.0, "is_disabled": 0, "lat": 38.90239666666667, "lon": -77.03829766666667, "fusion_lon": 0.0, "bike_id": "6d8aef62b4f86e8e8f420558081b604a", "type": "electric_scooter", "name": "6d8aef62b4f86e8e8f420558081b604a", "is_reserved": 0, "rental_uris": {"ios": "https://dc.lft.to/lastmile_qr_scan", "android": "https://dc.lft.to/lastmile_qr_scan"}}, {"fusion_lat": 0.0, "is_disabled": 0, "lat": 38.92987316666667, "lon": -77.023554, "fusion_lon": 0.0, "bike_id": "22df4afa18e20317b381c600ed5f72ff", "type": "electric_scooter", "name": "22df4afa18e20317b381c600ed5f72ff", "is_reserved": 0, "rental_uris": {"ios": "https://dc.lft.to/lastmile_qr_scan", "android": "https://dc.lft.to/lastmile_qr_scan"}}, {"fusion_lat": 0.0, "is_disabled": 0, "lat": 38.94185133333333, "lon": -77.02489466666667, "fusion_lon": 0.0, "bike_id": "65f35d09f0bf6b5e9fe6dcc8fe4cb0c3", "type": "electric_scooter", "name": "65f35d09f0bf6b5e9fe6dcc8fe4cb0c3", "is_reserved": 0, "rental_uris": {"ios": "https://dc.lft.to/lastmile_qr_scan", "android": "https://dc.lft.to/lastmile_qr_scan"}}, {"fusion_lat": 0.0, "is_disabled": 0, "lat": 38.92604083333333, "lon": -77.02155083333334, "fusion_lon": 0.0, "bike_id": "f94add9a5f408d21c570abb368385760", "type": "electric_scooter", "name": "f94add9a5f408d21c570abb368385760", "is_reserved": 0, "rental_uris": {"ios": "https://dc.lft.to/lastmile_qr_scan", "android": "https://dc.lft.to/lastmile_qr_scan"}}, {"fusion_lat": 0.0, "is_disabled": 0, "lat": 38.921977, "lon": -77.04232833333333, "fusion_lon": 0.0, "bike_id": "5ea11ee4bbecf60a251db8441a2d0d0b", "type": "electric_scooter", "name": "5ea11ee4bbecf60a251db8441a2d0d0b", "is_reserved": 0, "rental_uris": {"ios": "https://dc.lft.to/lastmile_qr_scan", "android": "https://dc.lft.to/lastmile_qr_scan"}}, {"fusion_lat": 0.0, "is_disabled": 0, "lat": 38.926955, "lon": -77.02084983333333, "fusion_lon": 0.0, "bike_id": "aa1f8fe996f6f92994c020ebd5c22f4b", "type": "electric_scooter", "name": "aa1f8fe996f6f92994c020ebd5c22f4b", "is_reserved": 0, "rental_uris": {"ios": "https://dc.lft.to/lastmile_qr_scan", "android": "https://dc.lft.to/lastmile_qr_scan"}}, {"fusion_lat": 0.0, "is_disabled": 0, "lat": 38.90521433333333, "lon": -77.06453183333333, "fusion_lon": 0.0, "bike_id": "de903a0826891d71ef32d777c7512c68", "type": "electric_scooter", "name": "de903a0826891d71ef32d777c7512c68", "is_reserved": 0, "rental_uris": {"ios": "https://dc.lft.to/lastmile_qr_scan", "android": "https://dc.lft.to/lastmile_qr_scan"}}, {"fusion_lat": 0.0, "is_disabled": 0, "lat": 38.92239466666667, "lon": -77.036618, "fusion_lon": 0.0, "bike_id": "fc36ade44da267188e3c5f3f83cad220", "type": "electric_scooter", "name": "fc36ade44da267188e3c5f3f83cad220", "is_reserved": 0, "rental_uris": {"ios": "https://dc.lft.to/lastmile_qr_scan", "android": "https://dc.lft.to/lastmile_qr_scan"}}, {"fusion_lat": 0.0, "is_disabled": 0, "lat": 38.89873516666667, "lon": -77.0488515, "fusion_lon": 0.0, "bike_id": "52c0d53ffb90e8c1dcbb3e7643fb3082", "type": "electric_scooter", "name": "52c0d53ffb90e8c1dcbb3e7643fb3082", "is_reserved": 0, "rental_uris": {"ios": "https://dc.lft.to/lastmile_qr_scan", "android": "https://dc.lft.to/lastmile_qr_scan"}}, {"fusion_lat": 0.0, "is_disabled": 0, "lat": 38.89218966666667, "lon": -77.026237, "fusion_lon": 0.0, "bike_id": "2880168c3f64b8b3ac14d6245961e1c5", "type": "electric_scooter", "name": "2880168c3f64b8b3ac14d6245961e1c5", "is_reserved": 0, "rental_uris": {"ios": "https://dc.lft.to/lastmile_qr_scan", "android": "https://dc.lft.to/lastmile_qr_scan"}}, {"fusion_lat": 0.0, "is_disabled": 0, "lat": 38.91253966666667, "lon": -77.0403895, "fusion_lon": 0.0, "bike_id": "5fc954320cdc0b478655ec0a4704668a", "type": "electric_scooter", "name": "5fc954320cdc0b478655ec0a4704668a", "is_reserved": 0, "rental_uris": {"ios": "https://dc.lft.to/lastmile_qr_scan", "android": "https://dc.lft.to/lastmile_qr_scan"}},