{"data": {"bikes": [{"type": "electric_scooter", "name": "4772731d8d24991b86970f51e840421c", "rental_uris": {"ios": "https://dc.lft.to/lastmile_qr_scan", "android": "https://dc.lft.to/lastmile_qr_scan"}, "fusion_lon": 0.0, "lat": 38.95938433333333, "is_disabled": 0, "bike_id": "4772731d8d24991b86970f51e840421c", "fusion_lat": 0.0, "is_reserved": 0, "lon": -77.03120183333333}, {"type": "electric_scooter", "name": "bc57160ed8b2e153d84c774e8b3f0f73", "rental_uris": {"ios": "https://dc.lft.to/lastmile_qr_scan", "android": "https://dc.lft.to/lastmile_qr_scan"}, "fusion_lon": 0.0, "lat": 38.90969583333333, "is_disabled": 0, "bike_id": "bc57160ed8b2e153d84c774e8b3f0f73", "fusion_lat": 0.0, "is_reserved": 0, "lon": -77.01942716666667}, {"type": "electric_scooter", "name": "e668def16827614a62c9968cf9ec2eb9", "rental_uris": {"ios": "https://dc.lft.to/lastmile_qr_scan", "android": "https://dc.lft.to/lastmile_qr_scan"}, "fusion_lon": 0.0, "lat": 38.90432033333333, "is_disabled": 0, "bike_id": "e668def16827614a62c9968cf9ec2eb9", "fusion_lat": 0.0, "is_reserved": 0, "lon": -77.02591433333333}, {"type": "electric_bike", "name": "bcae476e61ce683de67699fba7f25a1c", "rental_uris": {"ios": "https://dc.lft.to/lastmile_qr_scan", "android": "https://dc.lft.to/lastmile_qr_scan"}, "fusion_lon": 0.0, "lat": 38.845081666666665, "is_disabled": 0, "bike_id": "bcae476e61ce683de67699fba7f25a1c", "fusion_lat": 0.0, "is_reserved": 0, "lon": -76.99351383333334}, {"type": "electric_scooter", "name": "9be2139a17dcdc2a749fc0e6693e774e", "rental_uris": {"ios": "https://dc.lft.to/lastmile_qr_scan", "android": "https://dc.lft.to/lastmile_qr_scan"}, "fusion_lon": 0.0, "lat": 38.921245, "is_disabled": 0, "bike_id": "9be2139a17dcdc2a749fc0e6693e774e", "fusion_lat": 0.0, "is_reserved": 0, "lon": -77.025077}, {"type": "electric_scooter", "name": "68fa09ac733f83ef7d2d7352aa0eb0bb", "rental_uris": {"ios": "https://dc.lft.to/lastmile_qr_scan", "android": "https://dc.lft.to/lastmile_qr_scan"}, "fusion_lon": 0.0, "lat": 38.91680433333333, "is_disabled": 0, "bike_id": "68fa09ac733f83ef7d2d7352aa0eb0bb", "fusion_lat": 0.0, "is_reserved": 0, "lon": -77.029574}, {"type": "electric_scooter", "name": "4b1e35bc8b7d25c908c8b7f6e09a01fa", "rental_uris": {"ios": "https://dc.lft.to/lastmile_qr_scan", "android": "https://dc.lft.to/lastmile_qr_scan"}, "fusion_lon": 0.0, "lat": 38.930800166666664, "is_disabled": 0, "bike_id": "4b1e35bc8b7d25c908c8b7f6e09a01fa", "fusion_lat": 0.0, "is_reserved": 0, "lon": -77.02615083333333}, {"type": "electric_scooter", "name": "208c68f8aceebb9a03baac44f81a4609", "rental_uris": {"ios": "https://dc.lft.to/lastmile_qr_scan", "android": "https://dc.lft.to/lastmile_qr_scan"}, "fusion_lon": 0.0, "lat": 38.9066645, "is_disabled": 0, "bike_id": "208c68f8aceebb9a03baac44f81a4609", "fusion_lat": 0.0, "is_reserved": 0, "lon": -77.01091016666666}, {"type": "electric_scooter", "name": "6755b7754eb17c99cc2f4c28172d2c5d", "rental_uris": {"ios": "https://dc.lft.to/lastmile_qr_scan", "android": "https://dc.lft.to/lastmile_qr_scan"}, "fusion_lon": 0.0, "lat": 38.903801, "is_disabled": 0, "bike_id": "6755b7754eb17c99cc2f4c28172d2c5d", "fusion_lat": 0.0, "is_reserved": 0, "lon": -77.04822983333334}, {"type": "electric_scooter", "name": "01919df2b6a1c1792da654bf3ec157ca", "rental_uris": {"ios": "https://dc.lft.to/lastmile_qr_scan", "android": "https://dc.lft.to/lastmile_qr_scan"}, "fusion_lon": 0.0, "lat": 38.919322, "is_disabled": 0, "bike_id": "01919df2b6a1c1792da654bf3ec157ca", "fusion_lat": 0.0, "is_reserved": 0, "lon": -77.02347}, {"type": "electric_scooter", "name": "480e056f9b9076163c54b68f28b6de8b", "rental_uris": {"ios": "https://dc.lft.to/lastmile_qr_scan", "android": "https://dc.lft.to/lastmile_qr_scan"}, "fusion_lon": 0.0, "lat": 38.93132266666667, "is_disabled": 0, "bike_id": "480e056f9b9076163c54b68f28b6de8b", "fusion_lat": 0.0, "is_reserved": 0, "lon": -77.078457}, {"type": "electric_scooter", "name": "a49789702331e34ba2fe17974f5f30fe", "rental_uris": {"ios": "https://dc.lft.to/lastmile_qr_scan", "android": "https://dc.lft.to/lastmile_qr_scan"}, "fusion_lon": 0.0, "lat": 38.92413083333334, "is_disabled": 0, "bike_id": "a49789702331e34ba2fe17974f5f30fe", "fusion_lat": 0.0, "is_reserved": 0, "lon": -77.02013616666666}, {"type": "electric_scooter", "name": "7ca5b085463a4e65015cbc48713398be", "rental_uris": {"ios": "https://dc.lft.to/lastmile_qr_scan", "android": "https://dc.lft.to/lastmile_qr_scan"}, "fusion_lon": 0.0, "lat": 38.907179, "is_disabled": 0, "bike_id": "7ca5b085463a4e65015cbc48713398be", "fusion_lat": 0.0, "is_reserved": 0, "lon": -77.025056}, {"type": "electric_scooter", "name": "6ecdfe3f2900fe4bf940bd84de225093", "rental_uris": {"ios": "https://dc.lft.to/lastmile_qr_scan", "android": "https://dc.lft.to/lastmile_qr_scan"}, "fusion_lon": 0.0, "lat": 38.925917, "is_disabled": 0, "bike_id": "6ecdfe3f2900fe4bf940bd84de225093", "fusion_lat": 0.0, "is_reserved": 0, "lon": -77.02964183333333}, {"type": "electric_scooter", "name": "24f017981ff6a929750f279ae9c4744a", "rental_uris": {"ios": "https://dc.lft.to/lastmile_qr_scan", "android": "https://dc.lft.to/lastmile_qr_scan"}, "fusion_lon": 0.0, "lat": 38.87769433333333, "is_disabled": 0, "bike_id": "24f017981ff6a929750f279ae9c4744a", "fusion_lat": 0.0, "is_reserved": 0, "lon": -77.017794}, {"type": "electric_scooter", "name": "fcd8eb0adfed89fd395e5f774b2156bb", "rental_uris": {"ios": "https://dc.lft.to/lastmile_qr_scan", "android": "https://dc.lft.to/lastmile_qr_scan"}, "fusion_lon": 0.0, "lat": 38.93767783333333, "is_disabled": 0, "bike_id": "fcd8eb0adfed89fd395e5f774b2156bb", "fusion_lat": 0.0, "is_reserved": 0, "lon": -77.02476566666667}, {"type": "electric_scooter", "name": "423942171aa5cda35bf7f58019908568", "rental_uris": {"ios": "https://dc.lft.to/lastmile_qr_scan", "android": "https://dc.lft.to/lastmile_qr_scan"}, "fusion_lon": 0.0, "lat": 38.887395166666664, "is_disabled": 0, "bike_id": "423942171aa5cda35bf7f58019908568", "fusion_lat": 0.0, "is_reserved": 0, "lon": -77.0317285}, {"type": "electric_scooter", "name": "a6a886f00e0de295a767737b4c63f81e", "rental_uris": {"ios": "https://dc.lft.to/lastmile_qr_scan", "android": "https://dc.lft.to/lastmile_qr_scan"}, "fusion_lon": 0.0, "lat": 38.86633833333333, "is_disabled": 0, "bike_id": "a6a886f00e0de295a767737b4c63f81e", "fusion_lat": 0.0, "is_reserved": 0, "lon": -76.98720883333333}, {"type": "electric_scooter", "name": "a8af74b76d1fd0f4d1f21df59bf5792b", "rental_uris": {"ios": "https://dc.lft.to/lastmile_qr_scan", "android": "https://dc.lft.to/lastmile_qr_scan"}, "fusion_lon": 0.0, "lat": 38.89222483333333, "is_disabled": 0, "bike_id": "a8af74b76d1fd0f4d1f21df59bf5792b", "fusion_lat": 0.0, "is_reserved": 0, "lon": -77.0468915}, {"type": "electric_scooter", "name": "1baec4868266e655ea5af23dbe0863a0", "rental_uris": {"ios": "https://dc.lft.to/lastmile_qr_scan", "android": "https://dc.lft.to/lastmile_qr_scan"}, "fusion_lon": 0.0, "lat": 38.9228505, "is_disabled": 0, "bike_id": "1baec4868266e655ea5af23dbe0863a0", "fusion_lat": 0.0, "is_reserved": 0, "lon": -77.0297535}, {"type": "electric_scooter", "name": "94f271c1e11515cb722981908ce397b3", "rental_uris": {"ios": "https://dc.lft.to/lastmile_qr_scan", "android": "https://dc.lft.to/lastmile_qr_scan"}, "fusion_lon": 0.0, "lat": 38.902340333333335, "is_disabled": 0, "bike_id": "94f271c1e11515cb722981908ce397b3", "fusion_lat": 0.0, "is_reserved": 0, "lon": -77.04008933333333}, {"type": "electric_bike", "name": "a9d2780c566b6a2019d0a2f4c3a71d0c", "rental_uris": {"ios": "https://dc.lft.to/lastmile_qr_scan", "android": "https://dc.lft.to/lastmile_qr_scan"}, "fusion_lon": 0.0, "lat": 38.99444916666667, "is_disabled": 0, "bike_id": "a9d2780c566b6a2019d0a2f4c3a71d0c", "fusion_lat": 0.0, "is_reserved": 0, "lon": -76.99588233333333}, {"type": "electric_bike", "name": "a2ebc4657aa84634ad69377f7608ef6c", "rental_uris": {"ios": "https://dc.lft.to/lastmile_qr_scan", "android": "https://dc.lft.to/lastmile_qr_scan"}, "fusion_lon": 0.0, "lat": 38.972394666666666, "is_disabled": 0, "bike_id": "a2ebc4657aa84634ad69377f7608ef6c", "fusion_lat": 0.0, "is_reserved": 0, "lon": -77.027181}, {"type": "electric_scooter", "name": "a94d561376a0cf361bc9353ccf58017f", "rental_uris": {"ios": "https://dc.lft.to/lastmile_qr_scan", "android": "https://dc.lft.to/lastmile_qr_scan"}, "fusion_lon": 0.0, "lat": 38.91416233333333, "is_disabled": 0, "bike_id": "a94d561376a0cf361bc9353ccf58017f", "fusion_lat": 0.0, "is_reserved": 0, "lon": -77.02446316666666}, {"type": "electric_scooter", "name": "bdad868c9e012547afa305ced0d7d5de", "rental_uris": {"ios": "https://dc.lft.to/lastmile_qr_scan", "android": "https://dc.lft.to/lastmile_qr_scan"}, "fusion_lon": 0.0, "lat": 38.880037333333334, "is_disabled": 0, "bike_id": "bdad868c9e012547afa305ced0d7d5de", "fusion_lat": 0.0, "is_reserved": 0, "lon": -76.99496816666667}, {"type": "electric_scooter", "name": "dbe321640b11ed4f032c78ba72f88dd1", "rental_uris": {"ios": "https://dc.lft.to/lastmile_qr_scan", "android": "https://dc.lft.to/lastmile_qr_scan"}, "fusion_lon": 0.0, "lat": 38.887162333333336, "is_disabled": 0, "bike_id": "dbe321640b11ed4f032c78ba72f88dd1", "fusion_lat": 0.0, "is_reserved": 0, "lon": -76.983501}, {"type": "electric_scooter", "name": "e404bc90edbf8646bd0a7aded97b751c", "rental_uris": {"ios": "https://dc.lft.to/lastmile_qr_scan", "android": "https://dc.lft.to/lastmile_qr_scan"}, "fusion_lon": 0.0, "lat": 38.90151483333333, "is_disabled": 0, "bike_id": "e404bc90edbf8646bd0a7aded97b751c", "fusion_lat": 0.0, "is_reserved": 0, "lon": -77.02287883333334}, {"type": "electric_bike", "name": "18074aa35f80742d9d92ea37db153546", "rental_uris": {"ios": "https://dc.lft.to/lastmile_qr_scan", "android": "https://dc.lft.to/lastmile_qr_scan"}, "fusion_lon": 0.0, "lat": 38.94049433333333, "is_disabled": 0, "bike_id": "18074aa35f80742d9d92ea37db153546", "fusion_lat": 0.0, "is_reserved": 0, "lon": -76.9041895}, {"type": "electric_scooter", "name": "8f197d4fe99d156effd880496aa1057e", "rental_uris": {"ios": "https://dc.lft.to/lastmile_qr_scan", "android": "https://dc.lft.to/lastmile_qr_scan"}, "fusion_lon": 0.0, "lat": 38.90978366666667, "is_disabled": 0, "bike_id": "8f197d4fe99d156effd880496aa1057e", "fusion_lat": 0.0, "is_reserved": 0, "lon": -77.0343955}, {"type": "electric_scooter", "name": "8a52fc7aae471b67e6966cff6c35b7e2", "rental_uris": {"ios": "https://dc.lft.to/lastmile_qr_scan", "android": "https://dc.lft.to/lastmile_qr_scan"}, "fusion_lon": 0.0, "lat": 38.91833283333333, "is_disabled": 0, "bike_id": "8a52fc7aae471b67e6966cff6c35b7e2", "fusion_lat": 0.0, "is_reserved": 0, "lon": -77.04009766666667}, {"type": "electric_scooter", "name": "f0760b23250b895605122b773b4e63be", "rental_uris": {"ios": "https://dc.lft.to/lastmile_qr_scan", "android": "https://dc.lft.to/lastmile_qr_scan"}, "fusion_lon": 0.0, "lat": 38.92630116666667, "is_disabled": 0, "bike_id": "f0760b23250b895605122b773b4e63be", "fusion_lat": 0.0, "is_reserved": 0, "lon": -77.03533133333333}, {"type": "electric_scooter", "name": "6156f474be82e1ef62ccc6e429a25a69", "rental_uris": {"ios": "https://dc.lft.to/lastmile_qr_scan", "android": "https://dc.lft.to/lastmile_qr_scan"}, "fusion_lon": 0.0, "lat": 38.892518, "is_disabled": 0, "bike_id": "6156f474be82e1ef62ccc6e429a25a69", "fusion_lat": 0.0, "is_reserved": 0, "lon": -77.03959633333334}, {"type": "electric_scooter", "name": "b6b40d105b84a7dfa86ab17fb0f8658a", "rental_uris": {"ios": "https://dc.lft.to/lastmile_qr_scan", "android": "https://dc.lft.to/lastmile_qr_scan"}, "fusion_lon": 0.0, "lat": 38.88741233333333, "is_disabled": 0, "bike_id": "b6b40d105b84a7dfa86ab17fb0f8658a", "fusion_lat": 0.0, "is_reserved": 0, "lon": -77.02577483333333}, {"type": "electric_scooter", "name": "a1bc9eab54ababc9524a5d4ee7b80b30", "rental_uris": {"ios": "https://dc.lft.to/lastmile_qr_scan", "android": "https://dc.lft.to/lastmile_qr_scan"}, "fusion_lon": 0.0, "lat": 38.89505233333333, "is_disabled": 0, "bike_id": "a1bc9eab54ababc9524a5d4ee7b80b30", "fusion_lat": 0.0, "is_reserved": 0, "lon": -76.9347665}, {"type": "electric_scooter", "name": "49e4f395ed7320f09b546eff685f7008", "rental_uris": {"ios": "https://dc.lft.to/lastmile_qr_scan", "android": "https://dc.lft.to/lastmile_qr_scan"}, "fusion_lon": 0.0, "lat": 38.898632666666664, "is_disabled": 0, "bike_id": "49e4f395ed7320f09b546eff685f7008", "fusion_lat": 0.0, "is_reserved": 0, "lon": -76.94637333333333}, {"type": "electric_scooter", "name": "8d32b33472890b0718e683dbc162a26b", "rental_uris": {"ios": "https://dc.lft.to/lastmile_qr_scan", "android": "https://dc.lft.to/lastmile_qr_scan"}, "fusion_lon": 0.0, "lat": 38.9229925, "is_disabled": 0, "bike_id": "8d32b33472890b0718e683dbc162a26b", "fusion_lat": 0.0, "is_reserved": 0, "lon": -77.04272366666666}, {"type": "electric_scooter", "name": "df13e4a07432dad4f3f3fa9bcfb06d63", "rental_uris": {"ios": "https://dc.lft.to/lastmile_qr_scan", "android": "https://dc.lft.to/lastmile_qr_scan"}, "fusion_lon": 0.0, "lat": 38.9328055, "is_disabled": 0, "bike_id": "df13e4a07432dad4f3f3fa9bcfb06d63", "fusion_lat": 0.0, "is_reserved": 0, "lon": -77.04087366666667}, {"type": "electric_scooter", "name": "b6a5ee36fcbb02dcc6d986114bad2a61", "rental_uris": {"ios": "https://dc.lft.to/lastmile_qr_scan", "android": "https://dc.lft.to/lastmile_qr_scan"}, "fusion_lon": 0.0, "lat": 38.911799, "is_disabled": 0, "bike_id": "b6a5ee36fcbb02dcc6d986114bad2a61", "fusion_lat": 0.0, "is_reserved": 0, "lon": -77.00397466666666}, {"type": "electric_scooter", "name": "51ae4b4aab5602bbfabff7e3fc08c5ff", "rental_uris": {"ios": "https://dc.lft.to/lastmile_qr_scan", "android": "https://dc.lft.to/lastmile_qr_scan"}, "fusion_lon": 0.0, "lat": 38.935252, "is_disabled": 0, "bike_id": "51ae4b4aab5602bbfabff7e3fc08c5ff", "fusion_lat": 0.0, "is_reserved": 0, "lon": -77.07656783333333}, {"type": "electric_scooter", "name": "a560bf66684927dd19c4420f63f9c02b", "rental_uris": {"ios": "https://dc.lft.to/lastmile_qr_scan", "android": "https://dc.lft.to/lastmile_qr_scan"}, "fusion_lon": 0.0, "lat": 38.924667666666664, "is_disabled": 0, "bike_id": "a560bf66684927dd19c4420f63f9c02b", "fusion_lat": 0.0, "is_reserved": 0, "lon": -77.02216833333334}, {"type": "electric_scooter", "name": "e2e7e6c67222c9101f20808176c05538", "rental_uris": {"ios": "https://dc.lft.to/lastmile_qr_scan", "android": "https://dc.lft.to/lastmile_qr_scan"}, "fusion_lon": 0.0, "lat": 38.915670166666665, "is_disabled": 0, "bike_id": "e2e7e6c67222c9101f20808176c05538", "fusion_lat": 0.0, "is_reserved": 0, "lon": -77.031405}, {"type": "electric_scooter", "name": "7cd71a5bbe12ab00fde74baed972df3a", "rental_uris": {"ios": "https://dc.lft.to/lastmile_qr_scan", "android": "https://dc.lft.to/lastmile_qr_scan"}, "fusion_lon": 0.0, "lat": 38.90667083333334, "is_disabled": 0, "bike_id": "7cd71a5bbe12ab00fde74baed972df3a", "fusion_lat": 0.0, "is_reserved": 0, "lon": -77.025918}, {"type": "electric_scooter", "name": "eea4a9d998621ead169118a9e5370866", "rental_uris": {"ios": "https://dc.lft.to/lastmile_qr_scan", "android": "https://dc.lft.to/lastmile_qr_scan"}, "fusion_lon": 0.0, "lat": 38.906772833333335, "is_disabled": 0, "bike_id": "eea4a9d998621ead169118a9e5370866", "fusion_lat": 0.0, "is_reserved": 0, "lon": -77.06135466666667}, {"type": "electric_scooter", "name": "b13155b27510c90a507026ed6a638f61", "rental_uris": {"ios": "https://dc.lft.to/lastmile_qr_scan", "android": "https://dc.lft.to/lastmile_qr_scan"}, "fusion_lon": 0.0, "lat": 38.914386, "is_disabled": 0, "bike_id": "b13155b27510c90a507026ed6a638f61", "fusion_lat": 0.0, "is_reserved": 0, "lon": -77.012088}, {"type": "electric_scooter", "name": "8cbd0e6a418dfafa6911eed9441aaddc", "rental_uris": {"ios": "https://dc.lft.to/lastmile_qr_scan", "android": "https://dc.lft.to/lastmile_qr_scan"}, "fusion_lon": 0.0, "lat": 38.900445833333336, "is_disabled": 0, "bike_id": "8cbd0e6a418dfafa6911eed9441aaddc", "fusion_lat": 0.0, "is_reserved": 0, "lon": -77.00108}, {"type": "electric_scooter", "name": "cd214a97eb6f0863f7b0be17826ef065", "rental_uris": {"ios": "https://dc.lft.to/lastmile_qr_scan", "android": "https://dc.lft.to/lastmile_qr_scan"}, "fusion_lon": 0.0, "lat": 38.912721166666664, "is_disabled": 0, "bike_id": "cd214a97eb6f0863f7b0be17826ef065", "fusion_lat": 0.0, "is_reserved": 0, "lon": -77.022157}, {"type": "electric_scooter", "name": "0932585a19490200aaf1e085113684cb", "rental_uris": {"ios": "https://dc.lft.to/lastmile_qr_scan", "android": "https://dc.lft.to/lastmile_qr_scan"}, "fusion_lon": 0.0, "lat": 38.9322395, "is_disabled": 0, "bike_id": "0932585a19490200aaf1e085113684cb", "fusion_lat": 0.0, "is_reserved": 0, "lon": -77.026885}, {"type": "electric_scooter", "name": "45064c6fae15b1ce8ee158c5665a68a6", "rental_uris": {"ios": "https://dc.lft.to/lastmile_qr_scan", "android": "https://dc.lft.to/lastmile_qr_scan"}, "fusion_lon": 0.0, "lat": 38.925522, "is_disabled": 0, "bike_id": "45064c6fae15b1ce8ee158c5665a68a6", "fusion_lat": 0.0, "is_reserved": 0, "lon": -77.00069783333333}, {"type": "electric_bike", "name": "4678274b0a3dd819e030018ddaf4d0dd", "rental_uris": {"ios": "https://dc.lft.to/lastmile_qr_scan", "android": "https://dc.lft.to/lastmile_qr_scan"}, "fusion_lon": 0.0, "lat": 38.92668466666667, "is_disabled": 0, "bike_id": "4678274b0a3dd819e030018ddaf4d0dd", "fusion_lat": 0.0, "is_reserved": 0, "lon": -77.09850933333334}, {"type": "electric_scooter", "name": "6ad3b4c832efd36eb9bcd1d303e2ac4c", "rental_uris": {"ios": "https://dc.lft.to/lastmile_qr_scan", "android": "https://dc.lft.to/lastmile_qr_scan"}, "fusion_lon": 0.0, "lat": 38.938317166666664, "is_disabled": 0, "bike_id": "6ad3b4c832efd36eb9bcd1d303e2ac4c", "fusion_lat": 0.0, "is_reserved": 0, "lon": -77.08549666666667}, {"type": "electric_scooter", "name": "494fcb2d487f7438ac19281c33979391", "rental_uris": {"ios": "https://dc.lft.to/lastmile_qr_scan", "android": "https://dc.lft.to/lastmile_qr_scan"}, "fusion_lon": 0.0, "lat": 38.91699283333333, "is_disabled": 0, "bike_id": "494fcb2d487f7438ac19281c33979391", "fusion_lat": 0.0, "is_reserved": 0, "lon": -77.00740683333333}, {"type": "electric_bike", "name": "a2675fef3df55362f7155bd8a572467b", "rental_uris": {"ios": "https://dc.lft.to/lastmile_qr_scan", "android": "https://dc.lft.to/lastmile_qr_scan"}, "fusion_lon": 0.0, "lat": 38.95740816666667, "is_disabled": 0, "bike_id": "a2675fef3df55362f7155bd8a572467b", "fusion_lat": 0.0, "is_reserved": 0, "lon": -76.97252683333333}, {"type": "electric_bike", "name": "c9ccb861a40a415662d50586c7739413", "rental_uris": {"ios": "https://dc.lft.to/lastmile_qr_scan", "android": "https://dc.lft.to/lastmile_qr_scan"}, "fusion_lon": 0.0, "lat": 38.95747, "is_disabled": 0, "bike_id": "c9ccb861a40a415662d50586c7739413", "fusion_lat": 0.0, "is_reserved": 0, "lon": -76.972545}, {"type": "electric_scooter", "name": "d2702eef46f031c5d0261718af910ed3", "rental_uris": {"ios": "https://dc.lft.to/lastmile_qr_scan", "android": "https://dc.lft.to/lastmile_qr_scan"}, "fusion_lon": 0.0, "lat": 38.89436833333333, "is_disabled": 0, "bike_id": "d2702eef46f031c5d0261718af910ed3", "fusion_lat": 0.0, "is_reserved": 0, "lon": -77.02633066666667}, {"type": "electric_scooter", "name": "19dc6494e0699bab71501b808b0e7292", "rental_uris": {"ios": "https://dc.lft.to/lastmile_qr_scan", "android": "https://dc.lft.to/lastmile_qr_scan"}, "fusion_lon": 0.0, "lat": 38.89740916666667, "is_disabled": 0, "bike_id": "19dc6494e0699bab71501b808b0e7292", "fusion_lat": 0.0, "is_reserved": 0, "lon": -77.02017333333333}, {"type": "electric_scooter", "name": "2e3ad5b75139e1627766e8b43523d4c1", "rental_uris": {"ios": "https://dc.lft.to/lastmile_qr_scan", "android": "https://dc.lft.to/lastmile_qr_scan"}, "fusion_lon": 0.0, "lat": 38.903814833333335, "is_disabled": 0, "bike_id": "2e3ad5b75139e1627766e8b43523d4c1", "fusion_lat": 0.0, "is_reserved": 0, "lon": -77.03204666666667}, {"type": "electric_scooter", "name": "e12c3012b99bc9d2016f81106c141262", "rental_uris": {"ios": "https://dc.lft.to/lastmile_qr_scan", "android": "https://dc.lft.to/lastmile_qr_scan"}, "fusion_lon": 0.0, "lat": 38.901794, "is_disabled": 0, "bike_id": "e12c3012b99bc9d2016f81106c141262", "fusion_lat": 0.0, "is_reserved": 0, "lon": -76.98063}, {"type": "electric_scooter", "name": "4b229a1d5f1e185eb7660a94d0eb77cb", "rental_uris": {"ios": "https://dc.lft.to/lastmile_qr_scan", "android": "https://dc.lft.to/lastmile_qr_scan"}, "fusion_lon": 0.0, "lat": 38.904487, "is_disabled": 0, "bike_id": "4b229a1d5f1e185eb7660a94d0eb77cb", "fusion_lat": 0.0, "is_reserved": 0, "lon": -77.01895416666666}, {"type": "electric_scooter", "name": "3d8b186b6f51a87e1f84e86c6fe2202b", "rental_uris": {"ios": "https://dc.lft.to/lastmile_qr_scan", "android": "https://dc.lft.to/lastmile_qr_scan"}, "fusion_lon": 0.0, "lat": 38.92975166666667, "is_disabled": 0, "bike_id": "3d8b186b6f51a87e1f84e86c6fe2202b", "fusion_lat": 0.0, "is_reserved": 0, "lon": -77.05506583333333}, {"type": "electric_scooter", "name": "405997b2ff0f6d2c41d5aaaeba6635cb", "rental_uris": {"ios": "https://dc.lft.to/lastmile_qr_scan", "android": "https://dc.lft.to/lastmile_qr_scan"}, "fusion_lon": 0.0, "lat": 38.90279966666667, "is_disabled": 0, "bike_id": "405997b2ff0f6d2c41d5aaaeba6635cb", "fusion_lat": 0.0, "is_reserved": 0, "lon": -77.03506116666667}, {"type": "electric_scooter", "name": "95f31f25863d4393ef5f5a9311d7870c", "rental_uris": {"ios": "https://dc.lft.to/lastmile_qr_scan", "android": "https://dc.lft.to/lastmile_qr_scan"}, "fusion_lon": 0.0, "lat": 38.90166266666667, "is_disabled": 0, "bike_id": "95f31f25863d4393ef5f5a9311d7870c", "fusion_lat": 0.0, "is_reserved": 0, "lon": -77.01307966666667}, {"type": "electric_scooter", "name": "3fa9214f0ff655c5d3c86e65a0149fc9", "rental_uris": {"ios": "https://dc.lft.to/lastmile_qr_scan", "android": "https://dc.lft.to/lastmile_qr_scan"}, "fusion_lon": 0.0, "lat": 38.912456666666664, "is_disabled": 0, "bike_id": "3fa9214f0ff655c5d3c86e65a0149fc9", "fusion_lat": 0.0, "is_reserved": 0, "lon": -76.98786816666667}, {"type": "electric_scooter", "name": "01705ae5154b2ac83a3bafcd009f7753", "rental_uris": {"ios": "https://dc.lft.to/lastmile_qr_scan", "android": "https://dc.lft.to/lastmile_qr_scan"}, "fusion_lon": 0.0, "lat": 38.89223616666666, "is_disabled": 0, "bike_id": "01705ae5154b2ac83a3bafcd009f7753", "fusion_lat": 0.0, "is_reserved": 0, "lon": -77.043715}, {"type": "electric_scooter", "name": "d0b8298cabfcd4ba7258aeb2ede5a4b2", "rental_uris": {"ios": "https://dc.lft.to/lastmile_qr_scan", "android": "https://dc.lft.to/lastmile_qr_scan"}, "fusion_lon": 0.0, "lat": 38.89227783333333, "is_disabled": 0, "bike_id": "d0b8298cabfcd4ba7258aeb2ede5a4b2", "fusion_lat": 0.0, "is_reserved": 0, "lon": -77.03334533333333}, {"type": "electric_scooter", "name": "564e9ff2708ffab47361eb0832b4c108", "rental_uris": {"ios": "https://dc.lft.to/lastmile_qr_scan", "android": "https://dc.lft.to/lastmile_qr_scan"}, "fusion_lon": 0.0, "lat": 38.91340966666667, "is_disabled": 0, "bike_id": "564e9ff2708ffab47361eb0832b4c108", "fusion_lat": 0.0, "is_reserved": 0, "lon": -77.03170716666666}, {"type": "electric_scooter", "name": "a962c53c9e44774198c56efdca434601", "rental_uris": {"ios": "https://dc.lft.to/lastmile_qr_scan", "android": "https://dc.lft.to/lastmile_qr_scan"}, "fusion_lon": 0.0, "lat": 38.865055, "is_disabled": 0, "bike_id": "a962c53c9e44774198c56efdca434601", "fusion_lat": 0.0, "is_reserved": 0, "lon": -76.99002016666667}, {"type": "electric_scooter", "name": "41f4da7961f727a62cfeba6358d30e78", "rental_uris": {"ios": "https://dc.lft.to/lastmile_qr_scan", "android": "https://dc.lft.to/lastmile_qr_scan"}, "fusion_lon": 0.0, "lat": 38.91559016666667, "is_disabled": 0, "bike_id": "41f4da7961f727a62cfeba6358d30e78", "fusion_lat": 0.0, "is_reserved": 0, "lon": -77.02350433333334}, {"type": "electric_scooter", "name": "b4954dae2841f658e3a3eff856125853", "rental_uris": {"ios": "https://dc.lft.to/lastmile_qr_scan", "android": "https://dc.lft.to/lastmile_qr_scan"}, "fusion_lon": 0.0, "lat": 38.897846333333334, "is_disabled": 0, "bike_id": "b4954dae2841f658e3a3eff856125853", "fusion_lat": 0.0, "is_reserved": 0, "lon": -76.931209}, {"type": "electric_scooter", "name": "b15508aefabfe8634e5aa273dea938c0", "rental_uris": {"ios": "https://dc.lft.to/lastmile_qr_scan", "android": "https://dc.lft.to/lastmile_qr_scan"}, "fusion_lon": 0.0, "lat": 38.936067666666666, "is_disabled": 0, "bike_id": "b15508aefabfe8634e5aa273dea938c0", "fusion_lat": 0.0, "is_reserved": 0, "lon": -77.05860283333334}, {"type": "electric_scooter", "name": "2b5373472474fb59697dbe4782f3ffc4", "rental_uris": {"ios": "https://dc.lft.to/lastmile_qr_scan", "android": "https://dc.lft.to/lastmile_qr_scan"}, "fusion_lon": 0.0, "lat": 38.921171333333334, "is_disabled": 0, "bike_id": "2b5373472474fb59697dbe4782f3ffc4", "fusion_lat": 0.0, "is_reserved": 0, "lon": -77.03657583333333}, {"type": "electric_scooter", "name": "76b8d48d5ecd82f5e0da85dbc2135549", "rental_uris": {"ios": "https://dc.lft.to/lastmile_qr_scan", "android": "https://dc.lft.to/lastmile_qr_scan"}, "fusion_lon": 0.0, "lat": 38.9098065, "is_disabled": 0, "bike_id": "76b8d48d5ecd82f5e0da85dbc2135549", "fusion_lat": 0.0, "is_reserved": 0, "lon": -77.03450583333333}, {"type": "electric_scooter", "name": "9ae508719b4eb7da5f64ecd306573f47", "rental_uris": {"ios": "https://dc.lft.to/lastmile_qr_scan", "android": "https://dc.lft.to/lastmile_qr_scan"}, "fusion_lon": 0.0, "lat": 38.922731666666664, "is_disabled": 0, "bike_id": "9ae508719b4eb7da5f64ecd306573f47", "fusion_lat": 0.0, "is_reserved": 0, "lon": -77.03274266666666}, {"type": "electric_scooter", "name": "96a94fdb71b6383d5d760ea10e1c130e", "rental_uris": {"ios": "https://dc.lft.to/lastmile_qr_scan", "android": "https://dc.lft.to/lastmile_qr_scan"}, "fusion_lon": 0.0, "lat": 38.901152333333336, "is_disabled": 0, "bike_id": "96a94fdb71b6383d5d760ea10e1c130e", "fusion_lat": 0.0, "is_reserved": 0, "lon": -77.0464095}, {"type": "electric_scooter", "name": "411081a6488fa2af906badeeb3e31f81", "rental_uris": {"ios": "https://dc.lft.to/lastmile_qr_scan", "android": "https://dc.lft.to/lastmile_qr_scan"}, "fusion_lon": 0.0, "lat": 38.89238483333333, "is_disabled": 0, "bike_id": "411081a6488fa2af906badeeb3e31f81", "fusion_lat": 0.0, "is_reserved": 0, "lon": -77.04872366666666}, {"type": "electric_scooter", "name": "cf1cd18051f5de9daf170f76b55860f1", "rental_uris": {"ios": "https://dc.lft.to/lastmile_qr_scan", "android": "https://dc.lft.to/lastmile_qr_scan"}, "fusion_lon": 0.0, "lat": 38.881341, "is_disabled": 0, "bike_id": "cf1cd18051f5de9daf170f76b55860f1", "fusion_lat": 0.0, "is_reserved": 0, "lon": -77.02706366666666}, {"type": "electric_scooter", "name": "532baede3781788ca1dce219c8445d25", "rental_uris": {"ios": "https://dc.lft.to/lastmile_qr_scan", "android": "https://dc.lft.to/lastmile_qr_scan"}, "fusion_lon": 0.0, "lat": 38.909790666666666, "is_disabled": 0, "bike_id": "532baede3781788ca1dce219c8445d25", "fusion_lat": 0.0, "is_reserved": 0, "lon": -77.034382}, {"type": "electric_scooter", "name": "4050947d1c24c1737685c1424c6badf9", "rental_uris": {"ios": "https://dc.lft.to/lastmile_qr_scan", "android": "https://dc.lft.to/lastmile_qr_scan"}, "fusion_lon": 0.0, "lat": 38.855395333333334, "is_disabled": 0, "bike_id": "4050947d1c24c1737685c1424c6badf9", "fusion_lat": 0.0, "is_reserved": 0, "lon": -76.971741}, {"type": "electric_scooter", "name": "f9d8c47c594d966dfb1214c4c62e42d4", "rental_uris": {"ios": "https://dc.lft.to/lastmile_qr_scan", "android": "https://dc.lft.to/lastmile_qr_scan"}, "fusion_lon": 0.0, "lat": 38.898824166666664, "is_disabled": 0, "bike_id": "f9d8c47c594d966dfb1214c4c62e42d4", "fusion_lat": 0.0, "is_reserved": 0, "lon": -77.0203875}, {"type": "electric_scooter", "name": "acc9744c7a401c9160ae2f6e8439f0f8", "rental_uris": {"ios": "https://dc.lft.to/lastmile_qr_scan", "android": "https://dc.lft.to/lastmile_qr_scan"}, "fusion_lon": 0.0, "lat": 38.90711566666667, "is_disabled": 0, "bike_id": "acc9744c7a401c9160ae2f6e8439f0f8", "fusion_lat": 0.0, "is_reserved": 0, "lon": -77.03447116666666}, {"type": "electric_scooter", "name": "61abadcf175a06a60f896ee33a805c51", "rental_uris": {"ios": "https://dc.lft.to/lastmile_qr_scan", "android": "https://dc.lft.to/lastmile_qr_scan"}, "fusion_lon": 0.0, "lat": 38.87671383333333, "is_disabled": 0, "bike_id": "61abadcf175a06a60f896ee33a805c51", "fusion_lat": 0.0, "is_reserved": 0, "lon": -77.00883783333333}, {"type": "electric_scooter", "name": "d12728ff28e4e7e65a53a73987da238b", "rental_uris": {"ios": "https://dc.lft.to/lastmile_qr_scan", "android": "https://dc.lft.to/lastmile_qr_scan"}, "fusion_lon": 0.0, "lat": 38.920804833333335, "is_disabled": 0, "bike_id": "d12728ff28e4e7e65a53a73987da238b", "fusion_lat": 0.0, "is_reserved": 0, "lon": -77.01394716666667}, {"type": "electric_scooter", "name": "f6b18c2aa40ac771f5cff65f70910b1e", "rental_uris": {"ios": "https://dc.lft.to/lastmile_qr_scan", "android": "https://dc.lft.to/lastmile_qr_scan"}, "fusion_lon": 0.0, "lat": 38.902369166666666, "is_disabled": 0, "bike_id": "f6b18c2aa40ac771f5cff65f70910b1e", "fusion_lat": 0.0, "is_reserved": 0, "lon": -77.05942516666667}, {"type": "electric_scooter", "name": "1ce8d57344fabddcaceea203f0d72a55", "rental_uris": {"ios": "https://dc.lft.to/lastmile_qr_scan", "android": "https://dc.lft.to/lastmile_qr_scan"}, "fusion_lon": 0.0, "lat": 38.90072166666667, "is_disabled": 0, "bike_id": "1ce8d57344fabddcaceea203f0d72a55", "fusion_lat": 0.0, "is_reserved": 0, "lon": -77.045342}, {"type": "electric_scooter", "name": "9342334e7548be66b1ab236cfde30a27", "rental_uris": {"ios": "https://dc.lft.to/lastmile_qr_scan", "android": "https://dc.lft.to/lastmile_qr_scan"}, "fusion_lon": 0.0, "lat": 38.923585, "is_disabled": 0, "bike_id": "9342334e7548be66b1ab236cfde30a27", "fusion_lat": 0.0, "is_reserved": 0, "lon": -77.0505395}, {"type": "electric_scooter", "name": "ef9509108da638db36d4b3cf39bb12a9", "rental_uris": {"ios": "https://dc.lft.to/lastmile_qr_scan", "android": "https://dc.lft.to/lastmile_qr_scan"}, "fusion_lon": 0.0, "lat": 38.927719333333336, "is_disabled": 0, "bike_id": "ef9509108da638db36d4b3cf39bb12a9", "fusion_lat": 0.0, "is_reserved": 0, "lon": -77.02713966666667}, {"type": "electric_scooter", "name": "1e13c1821a51a3d0ff4fa0da2ea27716", "rental_uris": {"ios": "https://dc.lft.to/lastmile_qr_scan", "android": "https://dc.lft.to/lastmile_qr_scan"}, "fusion_lon": 0.0, "lat": 38.88526133333333, "is_disabled": 0, "bike_id": "1e13c1821a51a3d0ff4fa0da2ea27716", "fusion_lat": 0.0, "is_reserved": 0, "lon": -77.01519716666667}, {"type": "electric_scooter", "name": "44cbb91dde528cd594df833ebc9c9ccd", "rental_uris": {"ios": "https://dc.lft.to/lastmile_qr_scan", "android": "https://dc.lft.to/lastmile_qr_scan"}, "fusion_lon": 0.0, "lat": 38.90818766666666, "is_disabled": 0, "bike_id": "44cbb91dde528cd594df833ebc9c9ccd", "fusion_lat": 0.0, "is_reserved": 0, "lon": -77.03472316666667}, {"type": "electric_bike", "name": "fe7b1e635e069cf739df8b4845330cf6", "rental_uris": {"ios": "https://dc.lft.to/lastmile_qr_scan", "android": "https://dc.lft.to/lastmile_qr_scan"}, "fusion_lon": 0.0, "lat": 38.94921733333334, "is_disabled": 0, "bike_id": "fe7b1e635e069cf739df8b4845330cf6", "fusion_lat": 0.0, "is_reserved": 0, "lon": -77.00796966666667}, {"type": "electric_scooter", "name": "87cf5ffc51f9bdffab3be6baefbe2d48", "rental_uris": {"ios": "https://dc.lft.to/lastmile_qr_scan", "android": "https://dc.lft.to/lastmile_qr_scan"}, "fusion_lon": 0.0, "lat": 38.8871985, "is_disabled": 0, "bike_id": "87cf5ffc51f9bdffab3be6baefbe2d48", "fusion_lat": 0.0, "is_reserved": 0, "lon": -76.99688883333333}, {"type": "electric_scooter", "name": "7267095762825a6f07200a08a923601c", "rental_uris": {"ios": "https://dc.lft.to/lastmile_qr_scan", "android": "https://dc.lft.to/lastmile_qr_scan"}, "fusion_lon": 0.0, "lat": 38.87391916666667, "is_disabled": 0, "bike_id": "7267095762825a6f07200a08a923601c", "fusion_lat": 0.0, "is_reserved": 0, "lon": -77.0002985}, {"type": "electric_scooter", "name": "d95ce0c1f26596a5c4831becf8670bc4", "rental_uris": {"ios": "https://dc.lft.to/lastmile_qr_scan", "android": "https://dc.lft.to/lastmile_qr_scan"}, "fusion_lon": 0.0, "lat": 38.910065, "is_disabled": 0, "bike_id": "d95ce0c1f26596a5c4831becf8670bc4", "fusion_lat": 0.0, "is_reserved": 0, "lon": -76.99408216666667}, {"type": "electric_scooter", "name": "811edceb73af8438ced70d3c178b1575", "rental_uris": {"ios": "https://dc.lft.to/lastmile_qr_scan", "android": "https://dc.lft.to/lastmile_qr_scan"}, "fusion_lon": 0.0, "lat": 38.92752133333333, "is_disabled": 0, "bike_id": "811edceb73af8438ced70d3c178b1575", "fusion_lat": 0.0, "is_reserved": 0, "lon": -77.02120733333334}, {"type": "electric_scooter", "name": "f05b875b1844163f21e7078e360c94e4", "rental_uris": {"ios": "https://dc.lft.to/lastmile_qr_scan", "android": "https://dc.lft.to/lastmile_qr_scan"}, "fusion_lon": 0.0, "lat": 38.904377833333335, "is_disabled": 0, "bike_id": "f05b875b1844163f21e7078e360c94e4", "fusion_lat": 0.0, "is_reserved": 0, "lon": -77.05298133333334}, {"type": "electric_scooter", "name": "a1810b0a8606b673b77391ca38a50738", "rental_uris": {"ios": "https://dc.lft.to/lastmile_qr_scan", "android": "https://dc.lft.to/lastmile_qr_scan"}, "fusion_lon": 0.0, "lat": 38.9079135, "is_disabled": 0, "bike_id": "a1810b0a8606b673b77391ca38a50738", "fusion_lat": 0.0, "is_reserved": 0, "lon": -76.994227}, {"type": "electric_scooter", "name": "0c6e1529ecb6ba0d123b87ab2e5076fb", "rental_uris": {"ios": "https://dc.lft.to/lastmile_qr_scan", "android": "https://dc.lft.to/lastmile_qr_scan"}, "fusion_lon": 0.0, "lat": 38.935353, "is_disabled": 0, "bike_id": "0c6e1529ecb6ba0d123b87ab2e5076fb", "fusion_lat": 0.0, "is_reserved": 0, "lon": -77.0235415}, {"type": "electric_scooter", "name": "3ffe5c9ca42299b5d2b2274f18983cf1", "rental_uris": {"ios": "https://dc.lft.to/lastmile_qr_scan", "android": "https://dc.lft.to/lastmile_qr_scan"}, "fusion_lon": 0.0, "lat": 38.895388, "is_disabled": 0, "bike_id": "3ffe5c9ca42299b5d2b2274f18983cf1", "fusion_lat": 0.0, "is_reserved": 0, "lon": -76.948892}, {"type": "electric_scooter", "name": "0226ed544246a7f7cbc8b4bb3e53abe0", "rental_uris": {"ios": "https://dc.lft.to/lastmile_qr_scan", "android": "https://dc.lft.to/lastmile_qr_scan"}, "fusion_lon": 0.0, "lat": 38.898192333333334, "is_disabled": 0, "bike_id": "0226ed544246a7f7cbc8b4bb3e53abe0", "fusion_lat": 0.0, "is_reserved": 0, "lon": -77.033234}, {"type": "electric_scooter", "name": "b762c1d0f597c58bbef408eb8860028e", "rental_uris": {"ios": "https://dc.lft.to/lastmile_qr_scan", "android": "https://dc.lft.to/lastmile_qr_scan"}, "fusion_lon": 0.0, "lat": 38.9015145, "is_disabled": 0, "bike_id": "b762c1d0f597c58bbef408eb8860028e", "fusion_lat": 0.0, "is_reserved": 0, "lon": -76.9902965}, {"type": "electric_scooter", "name": "e01a31cb642207b56f062eb0ad6a0d7d", "rental_uris": {"ios": "https://dc.lft.to/lastmile_qr_scan", "android": "https://dc.lft.to/lastmile_qr_scan"}, "fusion_lon": 0.0, "lat": 38.92342766666667, "is_disabled": 0, "bike_id": "e01a31cb642207b56f062eb0ad6a0d7d", "fusion_lat": 0.0, "is_reserved": 0, "lon": -77.05237116666666}, {"type": "electric_scooter", "name": "1686c8f4adc780eb8947495998a20f45", "rental_uris": {"ios": "https://dc.lft.to/lastmile_qr_scan", "android": "https://dc.lft.to/lastmile_qr_scan"}, "fusion_lon": 0.0, "lat": 38.943005166666666, "is_disabled": 0, "bike_id": "1686c8f4adc780eb8947495998a20f45", "fusion_lat": 0.0, "is_reserved": 0, "lon": -77.02954016666666}, {"type": "electric_scooter", "name": "7934f8ac77bf38b5a1953a263fd2ed30", "rental_uris": {"ios": "https://dc.lft.to/lastmile_qr_scan", "android": "https://dc.lft.to/lastmile_qr_scan"}, "fusion_lon": 0.0, "lat": 38.9211485, "is_disabled": 0, "bike_id": "7934f8ac77bf38b5a1953a263fd2ed30", "fusion_lat": 0.0, "is_reserved": 0, "lon": -77.00914916666666}, {"type": "electric_scooter", "name": "94d7252e8ab349a5edf1613ec85bbe69", "rental_uris": {"ios": "https://dc.lft.to/lastmile_qr_scan", "android": "https://dc.lft.to/lastmile_qr_scan"}, "fusion_lon": 0.0, "lat": 38.9177495, "is_disabled": 0, "bike_id": "94d7252e8ab349a5edf1613ec85bbe69", "fusion_lat": 0.0, "is_reserved": 0, "lon": -77.0231645}, {"type": "electric_scooter", "name": "06e55921813d3a9e2dedf3877ffdf27c", "rental_uris": {"ios": "https://dc.lft.to/lastmile_qr_scan", "android": "https://dc.lft.to/lastmile_qr_scan"}, "fusion_lon": 0.0, "lat": 38.92112016666667, "is_disabled": 0, "bike_id": "06e55921813d3a9e2dedf3877ffdf27c", "fusion_lat": 0.0, "is_reserved": 0, "lon": -77.02408016666666}, {"type": "electric_scooter", "name": "2d9b502f9c4f2c9f64f148335d9c1271", "rental_uris": {"ios": "https://dc.lft.to/lastmile_qr_scan", "android": "https://dc.lft.to/lastmile_qr_scan"}, "fusion_lon": 0.0, "lat": 38.898351166666664, "is_disabled": 0, "bike_id": "2d9b502f9c4f2c9f64f148335d9c1271", "fusion_lat": 0.0, "is_reserved": 0, "lon": -77.00745916666666}, {"type": "electric_scooter", "name": "a13284361041ac9520662bd08f43e0e4", "rental_uris": {"ios": "https://dc.lft.to/lastmile_qr_scan", "android": "https://dc.lft.to/lastmile_qr_scan"}, "fusion_lon": 0.0, "lat": 38.885226333333335, "is_disabled": 0, "bike_id": "a13284361041ac9520662bd08f43e0e4", "fusion_lat": 0.0, "is_reserved": 0, "lon": -76.97707}, {"type": "electric_bike", "name": "317574b140c9c4e3ed9b763fe63df756", "rental_uris": {"ios": "https://dc.lft.to/lastmile_qr_scan", "android": "https://dc.lft.to/lastmile_qr_scan"}, "fusion_lon": 0.0, "lat": 38.909605166666665, "is_disabled": 0, "bike_id": "317574b140c9c4e3ed9b763fe63df756", "fusion_lat": 0.0, "is_reserved": 0, "lon": -77.22888083333333}, {"type": "electric_scooter", "name": "7ceffb5ed1b52e3e5c0a511e485e7c9b", "rental_uris": {"ios": "https://dc.lft.to/lastmile_qr_scan", "android": "https://dc.lft.to/lastmile_qr_scan"}, "fusion_lon": 0.0, "lat": 38.93424266666667, "is_disabled": 0, "bike_id": "7ceffb5ed1b52e3e5c0a511e485e7c9b", "fusion_lat": 0.0, "is_reserved": 0, "lon": -77.04410766666666}, {"type": "electric_scooter", "name": "41b2b325f939e4b4513147f9261f5720", "rental_uris": {"ios": "https://dc.lft.to/lastmile_qr_scan", "android": "https://dc.lft.to/lastmile_qr_scan"}, "fusion_lon": 0.0, "lat": 38.90713366666667, "is_disabled": 0, "bike_id": "41b2b325f939e4b4513147f9261f5720", "fusion_lat": 0.0, "is_reserved": 0, "lon": -77.02944533333333}, {"type": "electric_scooter", "name": "17bbe1ef6c2cf8851bed74ea28d99a49", "rental_uris": {"ios": "https://dc.lft.to/lastmile_qr_scan", "android": "https://dc.lft.to/lastmile_qr_scan"}, "fusion_lon": 0.0, "lat": 38.896661, "is_disabled": 0, "bike_id": "17bbe1ef6c2cf8851bed74ea28d99a49", "fusion_lat": 0.0, "is_reserved": 0, "lon": -77.0546715}, {"type": "electric_scooter", "name": "63c4859e7d4a646effcbcd88b714a421", "rental_uris": {"ios": "https://dc.lft.to/lastmile_qr_scan", "android": "https://dc.lft.to/lastmile_qr_scan"}, "fusion_lon": 0.0, "lat": 38.900190333333335, "is_disabled": 0, "bike_id": "63c4859e7d4a646effcbcd88b714a421", "fusion_lat": 0.0, "is_reserved": 0, "lon": -77.01036316666666}, {"type": "electric_scooter", "name": "e0e6a37b6c006871998baabca83d2299", "rental_uris": {"ios": "https://dc.lft.to/lastmile_qr_scan", "android": "https://dc.lft.to/lastmile_qr_scan"}, "fusion_lon": 0.0, "lat": 38.91106283333333, "is_disabled": 0, "bike_id": "e0e6a37b6c006871998baabca83d2299", "fusion_lat": 0.0, "is_reserved": 0, "lon": -77.00405466666666}, {"type": "electric_scooter", "name": "8e6c3e5080b2326e7c7d773730f804af", "rental_uris": {"ios": "https://dc.lft.to/lastmile_qr_scan", "android": "https://dc.lft.to/lastmile_qr_scan"}, "fusion_lon": 0.0, "lat": 38.893457, "is_disabled": 0, "bike_id": "8e6c3e5080b2326e7c7d773730f804af", "fusion_lat": 0.0, "is_reserved": 0, "lon": -77.0119015}, {"type": "electric_scooter", "name": "e677fffb7fdfdf75b0b3c504b22c7153", "rental_uris": {"ios": "https://dc.lft.to/lastmile_qr_scan", "android": "https://dc.lft.to/lastmile_qr_scan"}, "fusion_lon": 0.0, "lat": 38.91694666666667, "is_disabled": 0, "bike_id": "e677fffb7fdfdf75b0b3c504b22c7153", "fusion_lat": 0.0, "is_reserved": 0, "lon": -77.0305485}, {"type": "electric_scooter", "name": "8e5845c3f4fad2077535294857602a0c", "rental_uris": {"ios": "https://dc.lft.to/lastmile_qr_scan", "android": "https://dc.lft.to/lastmile_qr_scan"}, "fusion_lon": 0.0, "lat": 38.919109166666665, "is_disabled": 0, "bike_id": "8e5845c3f4fad2077535294857602a0c", "fusion_lat": 0.0, "is_reserved": 0, "lon": -77.04469316666666}, {"type": "electric_bike", "name": "3ee713a96fc392accb4f94e20335a3c6", "rental_uris": {"ios": "https://dc.lft.to/lastmile_qr_scan", "android": "https://dc.lft.to/lastmile_qr_scan"}, "fusion_lon": 0.0, "lat": 38.948200666666665, "is_disabled": 0, "bike_id": "3ee713a96fc392accb4f94e20335a3c6", "fusion_lat": 0.0, "is_reserved": 0, "lon": -77.02977283333334}, {"type": "electric_scooter", "name": "3193e19c5120eef6ec8cde2206284a37", "rental_uris": {"ios": "https://dc.lft.to/lastmile_qr_scan", "android": "https://dc.lft.to/lastmile_qr_scan"}, "fusion_lon": 0.0, "lat": 38.89921266666666, "is_disabled": 0, "bike_id": "3193e19c5120eef6ec8cde2206284a37", "fusion_lat": 0.0, "is_reserved": 0, "lon": -76.9854045}, {"type": "electric_scooter", "name": "f843260469f07bdf4269de9c6dfc6077", "rental_uris": {"ios": "https://dc.lft.to/lastmile_qr_scan", "android": "https://dc.lft.to/lastmile_qr_scan"}, "fusion_lon": 0.0, "lat": 38.89706316666667, "is_disabled": 0, "bike_id": "f843260469f07bdf4269de9c6dfc6077", "fusion_lat": 0.0, "is_reserved": 0, "lon": -77.02287283333334}, {"type": "electric_scooter", "name": "f93e632bcab009a6301cdeed01818dc7", "rental_uris": {"ios": "https://dc.lft.to/lastmile_qr_scan", "android": "https://dc.lft.to/lastmile_qr_scan"}, "fusion_lon": 0.0, "lat": 38.855696, "is_disabled": 0, "bike_id": "f93e632bcab009a6301cdeed01818dc7", "fusion_lat": 0.0, "is_reserved": 0, "lon": -76.96649916666667}, {"type": "electric_scooter", "name": "8f186bfe6c823eeb00b1f33f578e251b", "rental_uris": {"ios": "https://dc.lft.to/lastmile_qr_scan", "android": "https://dc.lft.to/lastmile_qr_scan"}, "fusion_lon": 0.0, "lat": 38.92455733333333, "is_disabled": 0, "bike_id": "8f186bfe6c823eeb00b1f33f578e251b", "fusion_lat": 0.0, "is_reserved": 0, "lon": -77.02152916666667}, {"type": "electric_scooter", "name": "c7e304b076d18f22f6020d804374aa81", "rental_uris": {"ios": "https://dc.lft.to/lastmile_qr_scan", "android": "https://dc.lft.to/lastmile_qr_scan"}, "fusion_lon": 0.0, "lat": 38.934427666666664, "is_disabled": 0, "bike_id": "c7e304b076d18f22f6020d804374aa81", "fusion_lat": 0.0, "is_reserved": 0, "lon": -77.0345415}, {"type": "electric_scooter", "name": "50027f3298fba646ecd2086c8d8d5267", "rental_uris": {"ios": "https://dc.lft.to/lastmile_qr_scan", "android": "https://dc.lft.to/lastmile_qr_scan"}, "fusion_lon": 0.0, "lat": 38.9236665, "is_disabled": 0, "bike_id": "50027f3298fba646ecd2086c8d8d5267", "fusion_lat": 0.0, "is_reserved": 0, "lon": -77.0502915}, {"type": "electric_scooter", "name": "4119f624855e455bdc1054b573e33463", "rental_uris": {"ios": "https://dc.lft.to/lastmile_qr_scan", "android": "https://dc.lft.to/lastmile_qr_scan"}, "fusion_lon": 0.0, "lat": 38.9064415, "is_disabled": 0, "bike_id": "4119f624855e455bdc1054b573e33463", "fusion_lat": 0.0, "is_reserved": 0, "lon": -77.03574133333333}, {"type": "electric_scooter", "name": "905ad4ac017582fcfb0b9f05c750f448", "rental_uris": {"ios": "https://dc.lft.to/lastmile_qr_scan", "android": "https://dc.lft.to/lastmile_qr_scan"}, "fusion_lon": 0.0, "lat": 38.94462633333333, "is_disabled": 0, "bike_id": "905ad4ac017582fcfb0b9f05c750f448", "fusion_lat": 0.0, "is_reserved": 0, "lon": -77.00658483333333}, {"type": "electric_scooter", "name": "6be2355bb204589deb276f81dac26c9c", "rental_uris": {"ios": "https://dc.lft.to/lastmile_qr_scan", "android": "https://dc.lft.to/lastmile_qr_scan"}, "fusion_lon": 0.0, "lat": 38.88524116666667, "is_disabled": 0, "bike_id": "6be2355bb204589deb276f81dac26c9c", "fusion_lat": 0.0, "is_reserved": 0, "lon": -77.01512666666666}, {"type": "electric_scooter", "name": "4ba5d289cdcbae05ec9e54f5a6d60c7d", "rental_uris": {"ios": "https://dc.lft.to/lastmile_qr_scan", "android": "https://dc.lft.to/lastmile_qr_scan"}, "fusion_lon": 0.0, "lat": 38.92769166666667, "is_disabled": 0, "bike_id": "4ba5d289cdcbae05ec9e54f5a6d60c7d", "fusion_lat": 0.0, "is_reserved": 0, "lon": -77.02677083333333}, {"type": "electric_scooter", "name": "34bd94ab19cac27299937f072836eab7", "rental_uris": {"ios": "https://dc.lft.to/lastmile_qr_scan", "android": "https://dc.lft.to/lastmile_qr_scan"}, "fusion_lon": 0.0, "lat": 38.901465333333334, "is_disabled": 0, "bike_id": "34bd94ab19cac27299937f072836eab7", "fusion_lat": 0.0, "is_reserved": 0, "lon": -77.0355735}, {"type": "electric_scooter", "name": "105d1965a0529e8d2ee5fb30ec8ed9aa", "rental_uris": {"ios": "https://dc.lft.to/lastmile_qr_scan", "android": "https://dc.lft.to/lastmile_qr_scan"}, "fusion_lon": 0.0, "lat": 38.907924333333334, "is_disabled": 0, "bike_id": "105d1965a0529e8d2ee5fb30ec8ed9aa", "fusion_lat": 0.0, "is_reserved": 0, "lon": -77.031866}, {"type": "electric_scooter", "name": "69183b7ca621524f8b068b2fc50d3bba", "rental_uris": {"ios": "https://dc.lft.to/lastmile_qr_scan", "android": "https://dc.lft.to/lastmile_qr_scan"}, "fusion_lon": 0.0, "lat": 38.913410666666664, "is_disabled": 0, "bike_id": "69183b7ca621524f8b068b2fc50d3bba", "fusion_lat": 0.0, "is_reserved": 0, "lon": -77.03173266666667}, {"type": "electric_scooter", "name": "ea20923980c585549898c6e4de7c59c8", "rental_uris": {"ios": "https://dc.lft.to/lastmile_qr_scan", "android": "https://dc.lft.to/lastmile_qr_scan"}, "fusion_lon": 0.0, "lat": 38.92163333333333, "is_disabled": 0, "bike_id": "ea20923980c585549898c6e4de7c59c8", "fusion_lat": 0.0, "is_reserved": 0, "lon": -77.0338275}, {"type": "electric_scooter", "name": "a8a217586db8c8dd6172ee8acfd824fa", "rental_uris": {"ios": "https://dc.lft.to/lastmile_qr_scan", "android": "https://dc.lft.to/lastmile_qr_scan"}, "fusion_lon": 0.0, "lat": 38.911781166666664, "is_disabled": 0, "bike_id": "a8a217586db8c8dd6172ee8acfd824fa", "fusion_lat": 0.0, "is_reserved": 0, "lon": -77.06095233333333}, {"type": "electric_scooter", "name": "9850b54d0c65e01f787224f267c749fa", "rental_uris": {"ios": "https://dc.lft.to/lastmile_qr_scan", "android": "https://dc.lft.to/lastmile_qr_scan"}, "fusion_lon": 0.0, "lat": 38.908696, "is_disabled": 0, "bike_id": "9850b54d0c65e01f787224f267c749fa", "fusion_lat": 0.0, "is_reserved": 0, "lon": -76.93340483333333}, {"type": "electric_scooter", "name": "75191b17d6c4879680f4ad64b7fbaa46", "rental_uris": {"ios": "https://dc.lft.to/lastmile_qr_scan", "android": "https://dc.lft.to/lastmile_qr_scan"}, "fusion_lon": 0.0, "lat": 38.906658166666666, "is_disabled": 0, "bike_id": "75191b17d6c4879680f4ad64b7fbaa46", "fusion_lat": 0.0, "is_reserved": 0, "lon": -77.0270835}, {"type": "electric_scooter", "name": "289842ce0f47a7a20e6133d9a8796e35", "rental_uris": {"ios": "https://dc.lft.to/lastmile_qr_scan", "android": "https://dc.lft.to/lastmile_qr_scan"}, "fusion_lon": 0.0, "lat": 38.907887333333335, "is_disabled": 0, "bike_id": "289842ce0f47a7a20e6133d9a8796e35", "fusion_lat": 0.0, "is_reserved": 0, "lon": -76.99428833333333}, {"type": "electric_scooter", "name": "968025f59c44a15d74972258f5df31a9", "rental_uris": {"ios": "https://dc.lft.to/lastmile_qr_scan", "android": "https://dc.lft.to/lastmile_qr_scan"}, "fusion_lon": 0.0, "lat": 38.92140583333333, "is_disabled": 0, "bike_id": "968025f59c44a15d74972258f5df31a9", "fusion_lat": 0.0, "is_reserved": 0, "lon": -77.03497166666666}, {"type": "electric_scooter", "name": "2b2908cdb0d77b93fd54f6e52fb4155f", "rental_uris": {"ios": "https://dc.lft.to/lastmile_qr_scan", "android": "https://dc.lft.to/lastmile_qr_scan"}, "fusion_lon": 0.0, "lat": 38.933612833333335, "is_disabled": 0, "bike_id": "2b2908cdb0d77b93fd54f6e52fb4155f", "fusion_lat": 0.0, "is_reserved": 0, "lon": -77.02860216666667}, {"type": "electric_bike", "name": "824d5a783ba6506c72d94ebdfbd47dc8", "rental_uris": {"ios": "https://dc.lft.to/lastmile_qr_scan", "android": "https://dc.lft.to/lastmile_qr_scan"}, "fusion_lon": 0.0, "lat": 38.83158, "is_disabled": 0, "bike_id": "824d5a783ba6506c72d94ebdfbd47dc8", "fusion_lat": 0.0, "is_reserved": 0, "lon": -76.99548183333333}, {"type": "electric_scooter", "name": "32079668b2b2266df4182ed28d93b72a", "rental_uris": {"ios": "https://dc.lft.to/lastmile_qr_scan", "android": "https://dc.lft.to/lastmile_qr_scan"}, "fusion_lon": 0.0, "lat": 38.877, "is_disabled": 0, "bike_id": "32079668b2b2266df4182ed28d93b72a", "fusion_lat": 0.0, "is_reserved": 0, "lon": -77.0038185}, {"type": "electric_bike", "name": "9e7340331b3241a9ae724f6de8d57158", "rental_uris": {"ios": "https://dc.lft.to/lastmile_qr_scan", "android": "https://dc.lft.to/lastmile_qr_scan"}, "fusion_lon": 0.0, "lat": 38.9003305, "is_disabled": 0, "bike_id": "9e7340331b3241a9ae724f6de8d57158", "fusion_lat": 0.0, "is_reserved": 0, "lon": -76.97223116666666}, {"type": "electric_scooter", "name": "354d402b4e31310eb13e04eac8c74559", "rental_uris": {"ios": "https://dc.lft.to/lastmile_qr_scan", "android": "https://dc.lft.to/lastmile_qr_scan"}, "fusion_lon": 0.0, "lat": 38.91537183333333, "is_disabled": 0, "bike_id": "354d402b4e31310eb13e04eac8c74559", "fusion_lat": 0.0, "is_reserved": 0, "lon": -77.01222716666666}, {"type": "electric_scooter", "name": "ce227c46411d31f1c2fbde9103291f76", "rental_uris": {"ios": "https://dc.lft.to/lastmile_qr_scan", "android": "https://dc.lft.to/lastmile_qr_scan"}, "fusion_lon": 0.0, "lat": 38.91396833333334, "is_disabled": 0, "bike_id": "ce227c46411d31f1c2fbde9103291f76", "fusion_lat": 0.0, "is_reserved": 0, "lon": -77.04176083333333}, {"type": "electric_scooter", "name": "ccff2a695f85cbba3967110ded4d9ad4", "rental_uris": {"ios": "https://dc.lft.to/lastmile_qr_scan", "android": "https://dc.lft.to/lastmile_qr_scan"}, "fusion_lon": 0.0, "lat": 38.934127333333336, "is_disabled": 0, "bike_id": "ccff2a695f85cbba3967110ded4d9ad4", "fusion_lat": 0.0, "is_reserved": 0, "lon": -77.0203885}, {"type": "electric_scooter", "name": "b621e8a76fe65411edaf8f8c685eb3e9", "rental_uris": {"ios": "https://dc.lft.to/lastmile_qr_scan", "android": "https://dc.lft.to/lastmile_qr_scan"}, "fusion_lon": 0.0, "lat": 38.880104, "is_disabled": 0, "bike_id": "b621e8a76fe65411edaf8f8c685eb3e9", "fusion_lat": 0.0, "is_reserved": 0, "lon": -77.02518766666667}, {"type": "electric_scooter", "name": "81aefc03e02712edbee3eae580411e4d", "rental_uris": {"ios": "https://dc.lft.to/lastmile_qr_scan", "android": "https://dc.lft.to/lastmile_qr_scan"}, "fusion_lon": 0.0, "lat": 38.921941833333335, "is_disabled": 0, "bike_id": "81aefc03e02712edbee3eae580411e4d", "fusion_lat": 0.0, "is_reserved": 0, "lon": -76.99701916666666}, {"type": "electric_scooter", "name": "6fe0e3e4b1332aef702951644ccff99c", "rental_uris": {"ios": "https://dc.lft.to/lastmile_qr_scan", "android": "https://dc.lft.to/lastmile_qr_scan"}, "fusion_lon": 0.0, "lat": 38.922578, "is_disabled": 0, "bike_id": "6fe0e3e4b1332aef702951644ccff99c", "fusion_lat": 0.0, "is_reserved": 0, "lon": -77.00919783333333}, {"type": "electric_scooter", "name": "835adba4fae886e4989bc31f4f883997", "rental_uris": {"ios": "https://dc.lft.to/lastmile_qr_scan", "android": "https://dc.lft.to/lastmile_qr_scan"}, "fusion_lon": 0.0, "lat": 38.92048783333333, "is_disabled": 0, "bike_id": "835adba4fae886e4989bc31f4f883997", "fusion_lat": 0.0, "is_reserved": 0, "lon": -77.025771}, {"type": "electric_scooter", "name": "a8c65d93ed30c7c98035693ed457185b", "rental_uris": {"ios": "https://dc.lft.to/lastmile_qr_scan", "android": "https://dc.lft.to/lastmile_qr_scan"}, "fusion_lon": 0.0, "lat": 38.89618216666667, "is_disabled": 0, "bike_id": "a8c65d93ed30c7c98035693ed457185b", "fusion_lat": 0.0, "is_reserved": 0, "lon": -76.9797055}, {"type": "electric_scooter", "name": "66dbe930b049f4fdc8397456e391fa60", "rental_uris": {"ios": "https://dc.lft.to/lastmile_qr_scan", "android": "https://dc.lft.to/lastmile_qr_scan"}, "fusion_lon": 0.0, "lat": 38.89620016666667, "is_disabled": 0, "bike_id": "66dbe930b049f4fdc8397456e391fa60", "fusion_lat": 0.0, "is_reserved": 0, "lon": -76.99334233333333}, {"type": "electric_scooter", "name": "d00f510b6c8e64f92938b7f1b1ead66c", "rental_uris": {"ios": "https://dc.lft.to/lastmile_qr_scan", "android": "https://dc.lft.to/lastmile_qr_scan"}, "fusion_lon": 0.0, "lat": 38.90125866666666, "is_disabled": 0, "bike_id": "d00f510b6c8e64f92938b7f1b1ead66c", "fusion_lat": 0.0, "is_reserved": 0, "lon": -77.03637216666667}, {"type": "electric_scooter", "name": "0dde156ade0016f8b87da086f565d535", "rental_uris": {"ios": "https://dc.lft.to/lastmile_qr_scan", "android": "https://dc.lft.to/lastmile_qr_scan"}, "fusion_lon": 0.0, "lat": 38.909581833333334, "is_disabled": 0, "bike_id": "0dde156ade0016f8b87da086f565d535", "fusion_lat": 0.0, "is_reserved": 0, "lon": -77.02276733333333}, {"type": "electric_scooter", "name": "ebd01cb73737fc4fecd919fbe96574b0", "rental_uris": {"ios": "https://dc.lft.to/lastmile_qr_scan", "android": "https://dc.lft.to/lastmile_qr_scan"}, "fusion_lon": 0.0, "lat": 38.86469116666667, "is_disabled": 0, "bike_id": "ebd01cb73737fc4fecd919fbe96574b0", "fusion_lat": 0.0, "is_reserved": 0, "lon": -76.982343}, {"type": "electric_scooter", "name": "43e3fb6a7e81a8c30b001572eec15109", "rental_uris": {"ios": "https://dc.lft.to/lastmile_qr_scan", "android": "https://dc.lft.to/lastmile_qr_scan"}, "fusion_lon": 0.0, "lat": 38.901391, "is_disabled": 0, "bike_id": "43e3fb6a7e81a8c30b001572eec15109", "fusion_lat": 0.0, "is_reserved": 0, "lon": -76.98966466666667}, {"type": "electric_scooter", "name": "6f24ea7c08b849243ca386617164df3c", "rental_uris": {"ios": "https://dc.lft.to/lastmile_qr_scan", "android": "https://dc.lft.to/lastmile_qr_scan"}, "fusion_lon": 0.0, "lat": 38.91008333333333, "is_disabled": 0, "bike_id": "6f24ea7c08b849243ca386617164df3c", "fusion_lat": 0.0, "is_reserved": 0, "lon": -77.02194283333333}, {"type": "electric_scooter", "name": "ced566ec637011e3d6ae705b3c2a2226", "rental_uris": {"ios": "https://dc.lft.to/lastmile_qr_scan", "android": "https://dc.lft.to/lastmile_qr_scan"}, "fusion_lon": 0.0, "lat": 38.861738, "is_disabled": 0, "bike_id": "ced566ec637011e3d6ae705b3c2a2226", "fusion_lat": 0.0, "is_reserved": 0, "lon": -76.99711833333333}, {"type": "electric_scooter", "name": "0986aef6b08cee64930d4cace9830f25", "rental_uris": {"ios": "https://dc.lft.to/lastmile_qr_scan", "android": "https://dc.lft.to/lastmile_qr_scan"}, "fusion_lon": 0.0, "lat": 38.88445466666667, "is_disabled": 0, "bike_id": "0986aef6b08cee64930d4cace9830f25", "fusion_lat": 0.0, "is_reserved": 0, "lon": -76.99629633333333}, {"type": "electric_scooter", "name": "244d0347b0c03d20058843f9b047ce3f", "rental_uris": {"ios": "https://dc.lft.to/lastmile_qr_scan", "android": "https://dc.lft.to/lastmile_qr_scan"}, "fusion_lon": 0.0, "lat": 38.900120333333334, "is_disabled": 0, "bike_id": "244d0347b0c03d20058843f9b047ce3f", "fusion_lat": 0.0, "is_reserved": 0, "lon": -77.027115}, {"type": "electric_scooter", "name": "a66d08c0dd1fa3fa31fd8310eb4e999a", "rental_uris": {"ios": "https://dc.lft.to/lastmile_qr_scan", "android": "https://dc.lft.to/lastmile_qr_scan"}, "fusion_lon": 0.0, "lat": 38.920435833333336, "is_disabled": 0, "bike_id": "a66d08c0dd1fa3fa31fd8310eb4e999a", "fusion_lat": 0.0, "is_reserved": 0, "lon": -77.01801183333333}, {"type": "electric_scooter", "name": "36bb9bf9c4e05c4fc972438d0556f273", "rental_uris": {"ios": "https://dc.lft.to/lastmile_qr_scan", "android": "https://dc.lft.to/lastmile_qr_scan"}, "fusion_lon": 0.0, "lat": 38.898452166666665, "is_disabled": 0, "bike_id": "36bb9bf9c4e05c4fc972438d0556f273", "fusion_lat": 0.0, "is_reserved": 0, "lon": -77.00732866666667}, {"type": "electric_scooter", "name": "0474d627b7c11f89fbc691c4200491ed", "rental_uris": {"ios": "https://dc.lft.to/lastmile_qr_scan", "android": "https://dc.lft.to/lastmile_qr_scan"}, "fusion_lon": 0.0, "lat": 38.88734216666667, "is_disabled": 0, "bike_id": "0474d627b7c11f89fbc691c4200491ed", "fusion_lat": 0.0, "is_reserved": 0, "lon": -77.025812}, {"type": "electric_scooter", "name": "571dae1605694775a0d91864d8a28b5a", "rental_uris": {"ios": "https://dc.lft.to/lastmile_qr_scan", "android": "https://dc.lft.to/lastmile_qr_scan"}, "fusion_lon": 0.0, "lat": 38.90179633333333, "is_disabled": 0, "bike_id": "571dae1605694775a0d91864d8a28b5a", "fusion_lat": 0.0, "is_reserved": 0, "lon": -76.941453}, {"type": "electric_scooter", "name": "dd5813ba5f3ae8323d5b6d3adcdd2583", "rental_uris": {"ios": "https://dc.lft.to/lastmile_qr_scan", "android": "https://dc.lft.to/lastmile_qr_scan"}, "fusion_lon": 0.0, "lat": 38.9222035, "is_disabled": 0, "bike_id": "dd5813ba5f3ae8323d5b6d3adcdd2583", "fusion_lat": 0.0, "is_reserved": 0, "lon": -77.03513633333333}, {"type": "electric_scooter", "name": "ebd316bebbd981b9abfe8e95deae02e5", "rental_uris": {"ios": "https://dc.lft.to/lastmile_qr_scan", "android": "https://dc.lft.to/lastmile_qr_scan"}, "fusion_lon": 0.0, "lat": 38.918468833333336, "is_disabled": 0, "bike_id": "ebd316bebbd981b9abfe8e95deae02e5", "fusion_lat": 0.0, "is_reserved": 0, "lon": -77.01354033333334}, {"type": "electric_scooter", "name": "4ecb808600b04e683fd4daa408b720a3", "rental_uris": {"ios": "https://dc.lft.to/lastmile_qr_scan", "android": "https://dc.lft.to/lastmile_qr_scan"}, "fusion_lon": 0.0, "lat": 38.91775716666667, "is_disabled": 0, "bike_id": "4ecb808600b04e683fd4daa408b720a3", "fusion_lat": 0.0, "is_reserved": 0, "lon": -77.02284633333333}, {"type": "electric_scooter", "name": "4c56a5a5a6aa6611c788ee0197d63bba", "rental_uris": {"ios": "https://dc.lft.to/lastmile_qr_scan", "android": "https://dc.lft.to/lastmile_qr_scan"}, "fusion_lon": 0.0, "lat": 38.931859833333334, "is_disabled": 0, "bike_id": "4c56a5a5a6aa6611c788ee0197d63bba", "fusion_lat": 0.0, "is_reserved": 0, "lon": -77.04306533333333}, {"type": "electric_scooter", "name": "5fae818461aadda276b3a5511e7eada5", "rental_uris": {"ios": "https://dc.lft.to/lastmile_qr_scan", "android": "https://dc.lft.to/lastmile_qr_scan"}, "fusion_lon": 0.0, "lat": 38.93677, "is_disabled": 0, "bike_id": "5fae818461aadda276b3a5511e7eada5", "fusion_lat": 0.0, "is_reserved": 0, "lon": -77.03594966666667}, {"type": "electric_scooter", "name": "e62fa35597005352638a4c4a5d0416ca", "rental_uris": {"ios": "https://dc.lft.to/lastmile_qr_scan", "android": "https://dc.lft.to/lastmile_qr_scan"}, "fusion_lon": 0.0, "lat": 38.89224933333333, "is_disabled": 0, "bike_id": "e62fa35597005352638a4c4a5d0416ca", "fusion_lat": 0.0, "is_reserved": 0, "lon": -77.04331816666667}, {"type": "electric_bike", "name": "a8f2b8e4df9e8f45a7d2a45319f2c55b", "rental_uris": {"ios": "https://dc.lft.to/lastmile_qr_scan", "android": "https://dc.lft.to/lastmile_qr_scan"}, "fusion_lon": 0.0, "lat": 38.898211, "is_disabled": 0, "bike_id": "a8f2b8e4df9e8f45a7d2a45319f2c55b", "fusion_lat": 0.0, "is_reserved": 0, "lon": -77.00601616666667}, {"type": "electric_scooter", "name": "74fc36ac757efc6758a370153be7f369", "rental_uris": {"ios": "https://dc.lft.to/lastmile_qr_scan", "android": "https://dc.lft.to/lastmile_qr_scan"}, "fusion_lon": 0.0, "lat": 38.896823833333336, "is_disabled": 0, "bike_id": "74fc36ac757efc6758a370153be7f369", "fusion_lat": 0.0, "is_reserved": 0, "lon": -77.04676566666667}, {"type": "electric_scooter", "name": "12413b4552c383430baa7b09a8a6971c", "rental_uris": {"ios": "https://dc.lft.to/lastmile_qr_scan", "android": "https://dc.lft.to/lastmile_qr_scan"}, "fusion_lon": 0.0, "lat": 38.903798, "is_disabled": 0, "bike_id": "12413b4552c383430baa7b09a8a6971c", "fusion_lat": 0.0, "is_reserved": 0, "lon": -77.0164475}, {"type": "electric_scooter", "name": "82ddf3d0b9bc82d3943c02b12a9794e3", "rental_uris": {"ios": "https://dc.lft.to/lastmile_qr_scan", "android": "https://dc.lft.to/lastmile_qr_scan"}, "fusion_lon": 0.0, "lat": 38.931148666666665, "is_disabled": 0, "bike_id": "82ddf3d0b9bc82d3943c02b12a9794e3", "fusion_lat": 0.0, "is_reserved": 0, "lon": -77.03813966666667}, {"type": "electric_scooter", "name": "3f7f95e392cda0f736a5411027f2180b", "rental_uris": {"ios": "https://dc.lft.to/lastmile_qr_scan", "android": "https://dc.lft.to/lastmile_qr_scan"}, "fusion_lon": 0.0, "lat": 38.905610833333334, "is_disabled": 0, "bike_id": "3f7f95e392cda0f736a5411027f2180b", "fusion_lat": 0.0, "is_reserved": 0, "lon": -77.01309183333333}, {"type": "electric_scooter", "name": "3f0b3ea2772ed1631f6fe9a8653cf06b", "rental_uris": {"ios": "https://dc.lft.to/lastmile_qr_scan", "android": "https://dc.lft.to/lastmile_qr_scan"}, "fusion_lon": 0.0, "lat": 38.900122, "is_disabled": 0, "bike_id": "3f0b3ea2772ed1631f6fe9a8653cf06b", "fusion_lat": 0.0, "is_reserved": 0, "lon": -76.98850816666666}, {"type": "electric_scooter", "name": "4a97dcb82a34b0a581c7311259f5baf1", "rental_uris": {"ios": "https://dc.lft.to/lastmile_qr_scan", "android": "https://dc.lft.to/lastmile_qr_scan"}, "fusion_lon": 0.0, "lat": 38.883271, "is_disabled": 0, "bike_id": "4a97dcb82a34b0a581c7311259f5baf1", "fusion_lat": 0.0, "is_reserved": 0, "lon": -77.01725766666667}, {"type": "electric_scooter", "name": "6d677b89427bca72023e68bfc84540d0", "rental_uris": {"ios": "https://dc.lft.to/lastmile_qr_scan", "android": "https://dc.lft.to/lastmile_qr_scan"}, "fusion_lon": 0.0, "lat": 38.904785, "is_disabled": 0, "bike_id": "6d677b89427bca72023e68bfc84540d0", "fusion_lat": 0.0, "is_reserved": 0, "lon": -77.03478983333333}, {"type": "electric_scooter", "name": "195d1fe0ca984807604d8d50361c739e", "rental_uris": {"ios": "https://dc.lft.to/lastmile_qr_scan", "android": "https://dc.lft.to/lastmile_qr_scan"}, "fusion_lon": 0.0, "lat": 38.91904616666667, "is_disabled": 0, "bike_id": "195d1fe0ca984807604d8d50361c739e", "fusion_lat": 0.0, "is_reserved": 0, "lon": -77.0410595}, {"type": "electric_bike", "name": "b5eb9f53da79760b895567ac90c64375", "rental_uris": {"ios": "https://dc.lft.to/lastmile_qr_scan", "android": "https://dc.lft.to/lastmile_qr_scan"}, "fusion_lon": 0.0, "lat": 39.052506, "is_disabled": 0, "bike_id": "b5eb9f53da79760b895567ac90c64375", "fusion_lat": 0.0, "is_reserved": 0, "lon": -77.08070166666667}, {"type": "electric_scooter", "name": "23b97abf530f0464971000c8fd7a83ab", "rental_uris": {"ios": "https://dc.lft.to/lastmile_qr_scan", "android": "https://dc.lft.to/lastmile_qr_scan"}, "fusion_lon": 0.0, "lat": 38.90503966666667, "is_disabled": 0, "bike_id": "23b97abf530f0464971000c8fd7a83ab", "fusion_lat": 0.0, "is_reserved": 0, "lon": -77.0294825}, {"type": "electric_scooter", "name": "27357ec08636e0e9cdcc7f1e4a456c2e", "rental_uris": {"ios": "https://dc.lft.to/lastmile_qr_scan", "android": "https://dc.lft.to/lastmile_qr_scan"}, "fusion_lon": 0.0, "lat": 38.89617466666667, "is_disabled": 0, "bike_id": "27357ec08636e0e9cdcc7f1e4a456c2e", "fusion_lat": 0.0, "is_reserved": 0, "lon": -77.0092055}, {"type": "electric_scooter", "name": "2525222828c18ee60473961d44c0eb85", "rental_uris": {"ios": "https://dc.lft.to/lastmile_qr_scan", "android": "https://dc.lft.to/lastmile_qr_scan"}, "fusion_lon": 0.0, "lat": 38.939140333333334, "is_disabled": 0, "bike_id": "2525222828c18ee60473961d44c0eb85", "fusion_lat": 0.0, "is_reserved": 0, "lon": -77.03624533333333}, {"type": "electric_scooter", "name": "25cfdd32beb55ca39be82072857dbb6d", "rental_uris": {"ios": "https://dc.lft.to/lastmile_qr_scan", "android": "https://dc.lft.to/lastmile_qr_scan"}, "fusion_lon": 0.0, "lat": 38.87372466666667, "is_disabled": 0, "bike_id": "25cfdd32beb55ca39be82072857dbb6d", "fusion_lat": 0.0, "is_reserved": 0, "lon": -76.9700365}, {"type": "electric_scooter", "name": "fe05bd924d671f957fbcbf06f007459b", "rental_uris": {"ios": "https://dc.lft.to/lastmile_qr_scan", "android": "https://dc.lft.to/lastmile_qr_scan"}, "fusion_lon": 0.0, "lat": 38.88316716666667, "is_disabled": 0, "bike_id": "fe05bd924d671f957fbcbf06f007459b", "fusion_lat": 0.0, "is_reserved": 0, "lon": -77.01763416666667}, {"type": "electric_scooter", "name": "0aa13aac642049ee272687bae5151c14", "rental_uris": {"ios": "https://dc.lft.to/lastmile_qr_scan", "android": "https://dc.lft.to/lastmile_qr_scan"}, "fusion_lon": 0.0, "lat": 38.89879283333333, "is_disabled": 0, "bike_id": "0aa13aac642049ee272687bae5151c14", "fusion_lat": 0.0, "is_reserved": 0, "lon": -76.93185933333334}, {"type": "electric_scooter", "name": "00ee87e6513294e6f330cc6ea87163a1", "rental_uris": {"ios": "https://dc.lft.to/lastmile_qr_scan", "android": "https://dc.lft.to/lastmile_qr_scan"}, "fusion_lon": 0.0, "lat": 38.87399466666667, "is_disabled": 0, "bike_id": "00ee87e6513294e6f330cc6ea87163a1", "fusion_lat": 0.0, "is_reserved": 0, "lon": -77.0020305}, {"type": "electric_scooter", "name": "4bd74414452aa13bd1eae08c5ea440e2", "rental_uris": {"ios": "https://dc.lft.to/lastmile_qr_scan", "android": "https://dc.lft.to/lastmile_qr_scan"}, "fusion_lon": 0.0, "lat": 38.9205885, "is_disabled": 0, "bike_id": "4bd74414452aa13bd1eae08c5ea440e2", "fusion_lat": 0.0, "is_reserved": 0, "lon": -77.02536333333333}, {"type": "electric_scooter", "name": "dd59e8615a885675826ab24780bc1db2", "rental_uris": {"ios": "https://dc.lft.to/lastmile_qr_scan", "android": "https://dc.lft.to/lastmile_qr_scan"}, "fusion_lon": 0.0, "lat": 38.90980733333333, "is_disabled": 0, "bike_id": "dd59e8615a885675826ab24780bc1db2", "fusion_lat": 0.0, "is_reserved": 0, "lon": -77.0649215}, {"type": "electric_bike", "name": "48e6d4fa11b6435e4f737dc38751a347", "rental_uris": {"ios": "https://dc.lft.to/lastmile_qr_scan", "android": "https://dc.lft.to/lastmile_qr_scan"}, "fusion_lon": 0.0, "lat": 38.81609816666667, "is_disabled": 0, "bike_id": "48e6d4fa11b6435e4f737dc38751a347", "fusion_lat": 0.0, "is_reserved": 0, "lon": -76.99658433333333}, {"type": "electric_bike", "name": "80ec629ead2fdc18d8dd60af220e11f3", "rental_uris": {"ios": "https://dc.lft.to/lastmile_qr_scan", "android": "https://dc.lft.to/lastmile_qr_scan"}, "fusion_lon": 0.0, "lat": 38.898023, "is_disabled": 0, "bike_id": "80ec629ead2fdc18d8dd60af220e11f3", "fusion_lat": 0.0, "is_reserved": 0, "lon": -76.99059316666667}, {"type": "electric_scooter", "name": "8b72ffd027168b82c80f96972dfdf2c6", "rental_uris": {"ios": "https://dc.lft.to/lastmile_qr_scan", "android": "https://dc.lft.to/lastmile_qr_scan"}, "fusion_lon": 0.0, "lat": 38.9091545, "is_disabled": 0, "bike_id": "8b72ffd027168b82c80f96972dfdf2c6", "fusion_lat": 0.0, "is_reserved": 0, "lon": -76.98634483333333}, {"type": "electric_scooter", "name": "fee77a136c9c6c8e308b4d86b377dbe4", "rental_uris": {"ios": "https://dc.lft.to/lastmile_qr_scan", "android": "https://dc.lft.to/lastmile_qr_scan"}, "fusion_lon": 0.0, "lat": 38.89525833333333, "is_disabled": 0, "bike_id": "fee77a136c9c6c8e308b4d86b377dbe4", "fusion_lat": 0.0, "is_reserved": 0, "lon": -77.00202683333333}, {"type": "electric_bike", "name": "1cad6694d71af87ddff96a4db904acf3", "rental_uris": {"ios": "https://dc.lft.to/lastmile_qr_scan", "android": "https://dc.lft.to/lastmile_qr_scan"}, "fusion_lon": 0.0, "lat": 39.014155333333335, "is_disabled": 0, "bike_id": "1cad6694d71af87ddff96a4db904acf3", "fusion_lat": 0.0, "is_reserved": 0, "lon": -77.045003}, {"type": "electric_scooter", "name": "7087a724746d41ca5cda6cecda41f8f7", "rental_uris": {"ios": "https://dc.lft.to/lastmile_qr_scan", "android": "https://dc.lft.to/lastmile_qr_scan"}, "fusion_lon": 0.0, "lat": 38.92045133333333, "is_disabled": 0, "bike_id": "7087a724746d41ca5cda6cecda41f8f7", "fusion_lat": 0.0, "is_reserved": 0, "lon": -77.01793033333334}, {"type": "electric_scooter", "name": "7643f347e29b7a9a7a6f8867eb39a54d", "rental_uris": {"ios": "https://dc.lft.to/lastmile_qr_scan", "android": "https://dc.lft.to/lastmile_qr_scan"}, "fusion_lon": 0.0, "lat": 38.88507833333333, "is_disabled": 0, "bike_id": "7643f347e29b7a9a7a6f8867eb39a54d", "fusion_lat": 0.0, "is_reserved": 0, "lon": -76.99755633333334}, {"type": "electric_bike", "name": "9af0d37e9170c0f2aeffc1aefd3235a8", "rental_uris": {"ios": "https://dc.lft.to/lastmile_qr_scan", "android": "https://dc.lft.to/lastmile_qr_scan"}, "fusion_lon": 0.0, "lat": 38.857914, "is_disabled": 0, "bike_id": "9af0d37e9170c0f2aeffc1aefd3235a8", "fusion_lat": 0.0, "is_reserved": 0, "lon": -77.099605}, {"type": "electric_bike", "name": "6032bc8449c1bda8064101f624bb564d", "rental_uris": {"ios": "https://dc.lft.to/lastmile_qr_scan", "android": "https://dc.lft.to/lastmile_qr_scan"}, "fusion_lon": 0.0, "lat": 38.930472, "is_disabled": 0, "bike_id": "6032bc8449c1bda8064101f624bb564d", "fusion_lat": 0.0, "is_reserved": 0, "lon": -76.95837666666667}, {"type": "electric_scooter", "name": "06464ac582eece3464ef234bc8804d1e", "rental_uris": {"ios": "https://dc.lft.to/lastmile_qr_scan", "android": "https://dc.lft.to/lastmile_qr_scan"}, "fusion_lon": 0.0, "lat": 38.91767866666667, "is_disabled": 0, "bike_id": "06464ac582eece3464ef234bc8804d1e", "fusion_lat": 0.0, "is_reserved": 0, "lon": -77.019209}, {"type": "electric_scooter", "name": "5ec97eb972b88f26a0df5a80b7c16b3d", "rental_uris": {"ios": "https://dc.lft.to/lastmile_qr_scan", "android": "https://dc.lft.to/lastmile_qr_scan"}, "fusion_lon": 0.0, "lat": 38.907383833333334, "is_disabled": 0, "bike_id": "5ec97eb972b88f26a0df5a80b7c16b3d", "fusion_lat": 0.0, "is_reserved": 0, "lon": -77.02693183333334}, {"type": "electric_bike", "name": "58935a42efd9dde4f731884faa770c89", "rental_uris": {"ios": "https://dc.lft.to/lastmile_qr_scan", "android": "https://dc.lft.to/lastmile_qr_scan"}, "fusion_lon": 0.0, "lat": 38.95756733333333, "is_disabled": 0, "bike_id": "58935a42efd9dde4f731884faa770c89", "fusion_lat": 0.0, "is_reserved": 0, "lon": -76.98090633333334}, {"type": "electric_scooter", "name": "ab8d878b8459b360ba6d80a99011a07d", "rental_uris": {"ios": "https://dc.lft.to/lastmile_qr_scan", "android": "https://dc.lft.to/lastmile_qr_scan"}, "fusion_lon": 0.0, "lat": 38.892232, "is_disabled": 0, "bike_id": "ab8d878b8459b360ba6d80a99011a07d", "fusion_lat": 0.0, "is_reserved": 0, "lon": -77.04869383333333}, {"type": "electric_scooter", "name": "564baf857329ebb9d0179ff92b5541a2", "rental_uris": {"ios": "https://dc.lft.to/lastmile_qr_scan", "android": "https://dc.lft.to/lastmile_qr_scan"}, "fusion_lon": 0.0, "lat": 38.89850783333333, "is_disabled": 0, "bike_id": "564baf857329ebb9d0179ff92b5541a2", "fusion_lat": 0.0, "is_reserved": 0, "lon": -77.032602}, {"type": "electric_scooter", "name": "1d3312f6742dcade9a75ab2f5caaf23a", "rental_uris": {"ios": "https://dc.lft.to/lastmile_qr_scan", "android": "https://dc.lft.to/lastmile_qr_scan"}, "fusion_lon": 0.0, "lat": 38.9322625, "is_disabled": 0, "bike_id": "1d3312f6742dcade9a75ab2f5caaf23a", "fusion_lat": 0.0, "is_reserved": 0, "lon": -76.99536816666667}, {"type": "electric_scooter", "name": "68fdbd15feaec2eb7bbf633cf30f39b0", "rental_uris": {"ios": "https://dc.lft.to/lastmile_qr_scan", "android": "https://dc.lft.to/lastmile_qr_scan"}, "fusion_lon": 0.0, "lat": 38.91937133333333, "is_disabled": 0, "bike_id": "68fdbd15feaec2eb7bbf633cf30f39b0", "fusion_lat": 0.0, "is_reserved": 0, "lon": -77.04496883333333}, {"type": "electric_scooter", "name": "93783cb3c3173449fea60f3610a4700c", "rental_uris": {"ios": "https://dc.lft.to/lastmile_qr_scan", "android": "https://dc.lft.to/lastmile_qr_scan"}, "fusion_lon": 0.0, "lat": 38.920302166666666, "is_disabled": 0, "bike_id": "93783cb3c3173449fea60f3610a4700c", "fusion_lat": 0.0, "is_reserved": 0, "lon": -77.02193183333333}, {"type": "electric_bike", "name": "95a84acd2a0586c71aa788548cd23f18", "rental_uris": {"ios": "https://dc.lft.to/lastmile_qr_scan", "android": "https://dc.lft.to/lastmile_qr_scan"}, "fusion_lon": 0.0, "lat": 38.95973983333333, "is_disabled": 0, "bike_id": "95a84acd2a0586c71aa788548cd23f18", "fusion_lat": 0.0, "is_reserved": 0, "lon": -76.981443}, {"type": "electric_scooter", "name": "e30a17d9e872cfccf91b039e4369fbd8", "rental_uris": {"ios": "https://dc.lft.to/lastmile_qr_scan", "android": "https://dc.lft.to/lastmile_qr_scan"}, "fusion_lon": 0.0, "lat": 38.91191233333333, "is_disabled": 0, "bike_id": "e30a17d9e872cfccf91b039e4369fbd8", "fusion_lat": 0.0, "is_reserved": 0, "lon": -77.03264883333334}, {"type": "electric_scooter", "name": "5ffc6a1beb3ad643ca234995fe7ebf56", "rental_uris": {"ios": "https://dc.lft.to/lastmile_qr_scan", "android": "https://dc.lft.to/lastmile_qr_scan"}, "fusion_lon": 0.0, "lat": 38.92481983333333, "is_disabled": 0, "bike_id": "5ffc6a1beb3ad643ca234995fe7ebf56", "fusion_lat": 0.0, "is_reserved": 0, "lon": -77.02755766666667}, {"type": "electric_scooter", "name": "2d47ffc231eb97cdebde13de23a88f9f", "rental_uris": {"ios": "https://dc.lft.to/lastmile_qr_scan", "android": "https://dc.lft.to/lastmile_qr_scan"}, "fusion_lon": 0.0, "lat": 38.89793483333333, "is_disabled": 0, "bike_id": "2d47ffc231eb97cdebde13de23a88f9f", "fusion_lat": 0.0, "is_reserved": 0, "lon": -77.02407533333333}, {"type": "electric_scooter", "name": "aed875a9fe1f2306dbc38d7d72f9fc27", "rental_uris": {"ios": "https://dc.lft.to/lastmile_qr_scan", "android": "https://dc.lft.to/lastmile_qr_scan"}, "fusion_lon": 0.0, "lat": 38.93177683333333, "is_disabled": 0, "bike_id": "aed875a9fe1f2306dbc38d7d72f9fc27", "fusion_lat": 0.0, "is_reserved": 0, "lon": -77.04294466666667}, {"type": "electric_scooter", "name": "8fa53183e3b1c18b39d03767143b303d", "rental_uris": {"ios": "https://dc.lft.to/lastmile_qr_scan", "android": "https://dc.lft.to/lastmile_qr_scan"}, "fusion_lon": 0.0, "lat": 38.90408816666667, "is_disabled": 0, "bike_id": "8fa53183e3b1c18b39d03767143b303d", "fusion_lat": 0.0, "is_reserved": 0, "lon": -76.973285}, {"type": "electric_scooter", "name": "dc75adb6dba661ea813287bf66a2b544", "rental_uris": {"ios": "https://dc.lft.to/lastmile_qr_scan", "android": "https://dc.lft.to/lastmile_qr_scan"}, "fusion_lon": 0.0, "lat": 38.945260833333336, "is_disabled": 0, "bike_id": "dc75adb6dba661ea813287bf66a2b544", "fusion_lat": 0.0, "is_reserved": 0, "lon": -77.06401466666667}, {"type": "electric_scooter", "name": "54f04dc2159af559de18e8a15d259bff", "rental_uris": {"ios": "https://dc.lft.to/lastmile_qr_scan", "android": "https://dc.lft.to/lastmile_qr_scan"}, "fusion_lon": 0.0, "lat": 38.892234333333334, "is_disabled": 0, "bike_id": "54f04dc2159af559de18e8a15d259bff", "fusion_lat": 0.0, "is_reserved": 0, "lon": -77.0451505}, {"type": "electric_scooter", "name": "a0735de65bc799cee34c97d701476a4a", "rental_uris": {"ios": "https://dc.lft.to/lastmile_qr_scan", "android": "https://dc.lft.to/lastmile_qr_scan"}, "fusion_lon": 0.0, "lat": 38.911218166666664, "is_disabled": 0, "bike_id": "a0735de65bc799cee34c97d701476a4a", "fusion_lat": 0.0, "is_reserved": 0, "lon": -77.03561766666667}, {"type": "electric_scooter", "name": "980b28c9620f3b222889ee348a224fc1", "rental_uris": {"ios": "https://dc.lft.to/lastmile_qr_scan", "android": "https://dc.lft.to/lastmile_qr_scan"}, "fusion_lon": 0.0, "lat": 38.9015785, "is_disabled": 0, "bike_id": "980b28c9620f3b222889ee348a224fc1", "fusion_lat": 0.0, "is_reserved": 0, "lon": -77.0355875}, {"type": "electric_scooter", "name": "d82cd0aa30c06aea6866ea35639d6c2c", "rental_uris": {"ios": "https://dc.lft.to/lastmile_qr_scan", "android": "https://dc.lft.to/lastmile_qr_scan"}, "fusion_lon": 0.0, "lat": 38.9077055, "is_disabled": 0, "bike_id": "d82cd0aa30c06aea6866ea35639d6c2c", "fusion_lat": 0.0, "is_reserved": 0, "lon": -77.0327595}, {"type": "electric_scooter", "name": "1fc705492968e17b2a1e8d8381345b0b", "rental_uris": {"ios": "https://dc.lft.to/lastmile_qr_scan", "android": "https://dc.lft.to/lastmile_qr_scan"}, "fusion_lon": 0.0, "lat": 38.892240666666666, "is_disabled": 0, "bike_id": "1fc705492968e17b2a1e8d8381345b0b", "fusion_lat": 0.0, "is_reserved": 0, "lon": -77.03990666666667}, {"type": "electric_scooter", "name": "5b9b68a5a96897488bc043273ba9ba1a", "rental_uris": {"ios": "https://dc.lft.to/lastmile_qr_scan", "android": "https://dc.lft.to/lastmile_qr_scan"}, "fusion_lon": 0.0, "lat": 38.905673166666666, "is_disabled": 0, "bike_id": "5b9b68a5a96897488bc043273ba9ba1a", "fusion_lat": 0.0, "is_reserved": 0, "lon": -77.03452416666667}, {"type": "electric_scooter", "name": "cbc5e330bb0273082a768791aee3507a", "rental_uris": {"ios": "https://dc.lft.to/lastmile_qr_scan", "android": "https://dc.lft.to/lastmile_qr_scan"}, "fusion_lon": 0.0, "lat": 38.887379833333334, "is_disabled": 0, "bike_id": "cbc5e330bb0273082a768791aee3507a", "fusion_lat": 0.0, "is_reserved": 0, "lon": -77.0258075}, {"type": "electric_scooter", "name": "06aa7b0eb0e6c6a3a866ebe271e68531", "rental_uris": {"ios": "https://dc.lft.to/lastmile_qr_scan", "android": "https://dc.lft.to/lastmile_qr_scan"}, "fusion_lon": 0.0, "lat": 38.90374933333333, "is_disabled": 0, "bike_id": "06aa7b0eb0e6c6a3a866ebe271e68531", "fusion_lat": 0.0, "is_reserved": 0, "lon": -77.0500475}, {"type": "electric_scooter", "name": "6129d8f9991a58c127b7c577dc27c2c4", "rental_uris": {"ios": "https://dc.lft.to/lastmile_qr_scan", "android": "https://dc.lft.to/lastmile_qr_scan"}, "fusion_lon": 0.0, "lat": 38.8972765, "is_disabled": 0, "bike_id": "6129d8f9991a58c127b7c577dc27c2c4", "fusion_lat": 0.0, "is_reserved": 0, "lon": -77.002218}, {"type": "electric_scooter", "name": "17f3b7eb3c083201b08cbddfa3db95c9", "rental_uris": {"ios": "https://dc.lft.to/lastmile_qr_scan", "android": "https://dc.lft.to/lastmile_qr_scan"}, "fusion_lon": 0.0, "lat": 38.86683466666667, "is_disabled": 0, "bike_id": "17f3b7eb3c083201b08cbddfa3db95c9", "fusion_lat": 0.0, "is_reserved": 0, "lon": -76.98574216666667}, {"type": "electric_scooter", "name": "5b23b8feceef44302cb4192b6c0a2ca8", "rental_uris": {"ios": "https://dc.lft.to/lastmile_qr_scan", "android": "https://dc.lft.to/lastmile_qr_scan"}, "fusion_lon": 0.0, "lat": 38.914408333333334, "is_disabled": 0, "bike_id": "5b23b8feceef44302cb4192b6c0a2ca8", "fusion_lat": 0.0, "is_reserved": 0, "lon": -77.02198216666666}, {"type": "electric_scooter", "name": "8cdeca10f2091c2ab60b90c29f1e1b33", "rental_uris": {"ios": "https://dc.lft.to/lastmile_qr_scan", "android": "https://dc.lft.to/lastmile_qr_scan"}, "fusion_lon": 0.0, "lat": 38.901309499999996, "is_disabled": 0, "bike_id": "8cdeca10f2091c2ab60b90c29f1e1b33", "fusion_lat": 0.0, "is_reserved": 0, "lon": -77.04994516666666}, {"type": "electric_scooter", "name": "5e7fcbec3bff456bd9828c85cf7cb2b1", "rental_uris": {"ios": "https://dc.lft.to/lastmile_qr_scan", "android": "https://dc.lft.to/lastmile_qr_scan"}, "fusion_lon": 0.0, "lat": 38.9007865, "is_disabled": 0, "bike_id": "5e7fcbec3bff456bd9828c85cf7cb2b1", "fusion_lat": 0.0, "is_reserved": 0, "lon": -77.04786416666667}, {"type": "electric_scooter", "name": "2f4deee858d27916b4b6600a250950c6", "rental_uris": {"ios": "https://dc.lft.to/lastmile_qr_scan", "android": "https://dc.lft.to/lastmile_qr_scan"}, "fusion_lon": 0.0, "lat": 38.9036855, "is_disabled": 0, "bike_id": "2f4deee858d27916b4b6600a250950c6", "fusion_lat": 0.0, "is_reserved": 0, "lon": -77.01631316666666}, {"type": "electric_scooter", "name": "bcc49f2962ced541f2b1a9692e913357", "rental_uris": {"ios": "https://dc.lft.to/lastmile_qr_scan", "android": "https://dc.lft.to/lastmile_qr_scan"}, "fusion_lon": 0.0, "lat": 38.9216435, "is_disabled": 0, "bike_id": "bcc49f2962ced541f2b1a9692e913357", "fusion_lat": 0.0, "is_reserved": 0, "lon": -77.04690333333333}, {"type": "electric_scooter", "name": "9a588acb775e950241b6835b7dadec20", "rental_uris": {"ios": "https://dc.lft.to/lastmile_qr_scan", "android": "https://dc.lft.to/lastmile_qr_scan"}, "fusion_lon": 0.0, "lat": 38.8847015, "is_disabled": 0, "bike_id": "9a588acb775e950241b6835b7dadec20", "fusion_lat": 0.0, "is_reserved": 0, "lon": -77.01507333333333}, {"type": "electric_scooter", "name": "0ea031f3ddffc5e1ad06b63265100c0d", "rental_uris": {"ios": "https://dc.lft.to/lastmile_qr_scan", "android": "https://dc.lft.to/lastmile_qr_scan"}, "fusion_lon": 0.0, "lat": 38.93355583333334, "is_disabled": 0, "bike_id": "0ea031f3ddffc5e1ad06b63265100c0d", "fusion_lat": 0.0, "is_reserved": 0, "lon": -77.07359633333333}, {"type": "electric_scooter", "name": "a3833931a5857462822e891f4180cc98", "rental_uris": {"ios": "https://dc.lft.to/lastmile_qr_scan", "android": "https://dc.lft.to/lastmile_qr_scan"}, "fusion_lon": 0.0, "lat": 38.90362183333333, "is_disabled": 0, "bike_id": "a3833931a5857462822e891f4180cc98", "fusion_lat": 0.0, "is_reserved": 0, "lon": -77.0034235}, {"type": "electric_scooter", "name": "95668f70448a16964ff303e98adb6ee5", "rental_uris": {"ios": "https://dc.lft.to/lastmile_qr_scan", "android": "https://dc.lft.to/lastmile_qr_scan"}, "fusion_lon": 0.0, "lat": 38.90923216666667, "is_disabled": 0, "bike_id": "95668f70448a16964ff303e98adb6ee5", "fusion_lat": 0.0, "is_reserved": 0, "lon": -77.03204883333333}, {"type": "electric_scooter", "name": "b2b25bc71c43bbb53fbcf0f34d45dac3", "rental_uris": {"ios": "https://dc.lft.to/lastmile_qr_scan", "android": "https://dc.lft.to/lastmile_qr_scan"}, "fusion_lon": 0.0, "lat": 38.91283283333333, "is_disabled": 0, "bike_id": "b2b25bc71c43bbb53fbcf0f34d45dac3", "fusion_lat": 0.0, "is_reserved": 0, "lon": -76.984633}, {"type": "electric_scooter", "name": "c0c61a77766771e40ade52c78a1d190e", "rental_uris": {"ios": "https://dc.lft.to/lastmile_qr_scan", "android": "https://dc.lft.to/lastmile_qr_scan"}, "fusion_lon": 0.0, "lat": 38.92370416666667, "is_disabled": 0, "bike_id": "c0c61a77766771e40ade52c78a1d190e", "fusion_lat": 0.0, "is_reserved": 0, "lon": -77.01906566666666}, {"type": "electric_scooter", "name": "3b4c6fe7717382c87f9e6b692ef27d71", "rental_uris": {"ios": "https://dc.lft.to/lastmile_qr_scan", "android": "https://dc.lft.to/lastmile_qr_scan"}, "fusion_lon": 0.0, "lat": 38.92369983333333, "is_disabled": 0, "bike_id": "3b4c6fe7717382c87f9e6b692ef27d71", "fusion_lat": 0.0, "is_reserved": 0, "lon": -77.0502745}, {"type": "electric_scooter", "name": "e4b73dcac6f72314e2ecd5e82474793a", "rental_uris": {"ios": "https://dc.lft.to/lastmile_qr_scan", "android": "https://dc.lft.to/lastmile_qr_scan"}, "fusion_lon": 0.0, "lat": 38.919353, "is_disabled": 0, "bike_id": "e4b73dcac6f72314e2ecd5e82474793a", "fusion_lat": 0.0, "is_reserved": 0, "lon": -77.0206455}, {"type": "electric_scooter", "name": "573dd976127591c16103cb792faaee67", "rental_uris": {"ios": "https://dc.lft.to/lastmile_qr_scan", "android": "https://dc.lft.to/lastmile_qr_scan"}, "fusion_lon": 0.0, "lat": 38.88494216666667, "is_disabled": 0, "bike_id": "573dd976127591c16103cb792faaee67", "fusion_lat": 0.0, "is_reserved": 0, "lon": -77.010854}, {"type": "electric_scooter", "name": "309cfc79dcf4016cdab7506bafeb30de", "rental_uris": {"ios": "https://dc.lft.to/lastmile_qr_scan", "android": "https://dc.lft.to/lastmile_qr_scan"}, "fusion_lon": 0.0, "lat": 38.9564455, "is_disabled": 0, "bike_id": "309cfc79dcf4016cdab7506bafeb30de", "fusion_lat": 0.0, "is_reserved": 0, "lon": -77.02372866666667}, {"type": "electric_scooter", "name": "49df2e812e55f9546651877c4649e97a", "rental_uris": {"ios": "https://dc.lft.to/lastmile_qr_scan", "android": "https://dc.lft.to/lastmile_qr_scan"}, "fusion_lon": 0.0, "lat": 38.904466666666664, "is_disabled": 0, "bike_id": "49df2e812e55f9546651877c4649e97a", "fusion_lat": 0.0, "is_reserved": 0, "lon": -77.028801}, {"type": "electric_bike", "name": "cfd006a7ff13d461a88551826a64b44f", "rental_uris": {"ios": "https://dc.lft.to/lastmile_qr_scan", "android": "https://dc.lft.to/lastmile_qr_scan"}, "fusion_lon": 0.0, "lat": 39.0038295, "is_disabled": 0, "bike_id": "cfd006a7ff13d461a88551826a64b44f", "fusion_lat": 0.0, "is_reserved": 0, "lon": -77.01302133333333}, {"type": "electric_scooter", "name": "581ce139ccff64ee55c58e32ca2ad9cd", "rental_uris": {"ios": "https://dc.lft.to/lastmile_qr_scan", "android": "https://dc.lft.to/lastmile_qr_scan"}, "fusion_lon": 0.0, "lat": 38.911802, "is_disabled": 0, "bike_id": "581ce139ccff64ee55c58e32ca2ad9cd", "fusion_lat": 0.0, "is_reserved": 0, "lon": -77.01124233333333}, {"type": "electric_bike", "name": "c03298e8a901bd381084a535d9786692", "rental_uris": {"ios": "https://dc.lft.to/lastmile_qr_scan", "android": "https://dc.lft.to/lastmile_qr_scan"}, "fusion_lon": 0.0, "lat": 39.012232166666664, "is_disabled": 0, "bike_id": "c03298e8a901bd381084a535d9786692", "fusion_lat": 0.0, "is_reserved": 0, "lon": -77.11078183333333}, {"type": "electric_scooter", "name": "ca547696f67ead01ea7fe1ba62fcc08a", "rental_uris": {"ios": "https://dc.lft.to/lastmile_qr_scan", "android": "https://dc.lft.to/lastmile_qr_scan"}, "fusion_lon": 0.0, "lat": 38.909365, "is_disabled": 0, "bike_id": "ca547696f67ead01ea7fe1ba62fcc08a", "fusion_lat": 0.0, "is_reserved": 0, "lon": -77.02811516666667}, {"type": "electric_scooter", "name": "47efbdb8014ed6000e177723cfb67885", "rental_uris": {"ios": "https://dc.lft.to/lastmile_qr_scan", "android": "https://dc.lft.to/lastmile_qr_scan"}, "fusion_lon": 0.0, "lat": 38.925064666666664, "is_disabled": 0, "bike_id": "47efbdb8014ed6000e177723cfb67885", "fusion_lat": 0.0, "is_reserved": 0, "lon": -77.00233966666667}, {"type": "electric_scooter", "name": "ccf80d21423c85a0ed7229871d537422", "rental_uris": {"ios": "https://dc.lft.to/lastmile_qr_scan", "android": "https://dc.lft.to/lastmile_qr_scan"}, "fusion_lon": 0.0, "lat": 38.89734966666666, "is_disabled": 0, "bike_id": "ccf80d21423c85a0ed7229871d537422", "fusion_lat": 0.0, "is_reserved": 0, "lon": -77.04330666666667}, {"type": "electric_scooter", "name": "17dc6d90756856bcd4cfed4331bb6957", "rental_uris": {"ios": "https://dc.lft.to/lastmile_qr_scan", "android": "https://dc.lft.to/lastmile_qr_scan"}, "fusion_lon": 0.0, "lat": 38.931051833333335, "is_disabled": 0, "bike_id": "17dc6d90756856bcd4cfed4331bb6957", "fusion_lat": 0.0, "is_reserved": 0, "lon": -77.021208}, {"type": "electric_scooter", "name": "1d5800b902ba04ee784085ecc3d693fc", "rental_uris": {"ios": "https://dc.lft.to/lastmile_qr_scan", "android": "https://dc.lft.to/lastmile_qr_scan"}, "fusion_lon": 0.0, "lat": 38.91987066666667, "is_disabled": 0, "bike_id": "1d5800b902ba04ee784085ecc3d693fc", "fusion_lat": 0.0, "is_reserved": 0, "lon": -76.97307166666667}, {"type": "electric_scooter", "name": "fc2c1c450f465d523a4885d9afb6abbd", "rental_uris": {"ios": "https://dc.lft.to/lastmile_qr_scan", "android": "https://dc.lft.to/lastmile_qr_scan"}, "fusion_lon": 0.0, "lat": 38.901141, "is_disabled": 0, "bike_id": "fc2c1c450f465d523a4885d9afb6abbd", "fusion_lat": 0.0, "is_reserved": 0, "lon": -77.0448535}, {"type": "electric_scooter", "name": "79bf412cb8f3860d693caab26bf1b21b", "rental_uris": {"ios": "https://dc.lft.to/lastmile_qr_scan", "android": "https://dc.lft.to/lastmile_qr_scan"}, "fusion_lon": 0.0, "lat": 38.90757283333333, "is_disabled": 0, "bike_id": "79bf412cb8f3860d693caab26bf1b21b", "fusion_lat": 0.0, "is_reserved": 0, "lon": -76.9987045}, {"type": "electric_scooter", "name": "e881a2beff05c838c498913082334171", "rental_uris": {"ios": "https://dc.lft.to/lastmile_qr_scan", "android": "https://dc.lft.to/lastmile_qr_scan"}, "fusion_lon": 0.0, "lat": 38.91637866666667, "is_disabled": 0, "bike_id": "e881a2beff05c838c498913082334171", "fusion_lat": 0.0, "is_reserved": 0, "lon": -77.04789283333334}, {"type": "electric_scooter", "name": "cd6fa7ad3f1ec1035d661775690f8174", "rental_uris": {"ios": "https://dc.lft.to/lastmile_qr_scan", "android": "https://dc.lft.to/lastmile_qr_scan"}, "fusion_lon": 0.0, "lat": 38.93674816666667, "is_disabled": 0, "bike_id": "cd6fa7ad3f1ec1035d661775690f8174", "fusion_lat": 0.0, "is_reserved": 0, "lon": -77.03589116666667}, {"type": "electric_scooter", "name": "e410c6298a098be6fcbb4b81c748bee3", "rental_uris": {"ios": "https://dc.lft.to/lastmile_qr_scan", "android": "https://dc.lft.to/lastmile_qr_scan"}, "fusion_lon": 0.0, "lat": 38.920447333333335, "is_disabled": 0, "bike_id": "e410c6298a098be6fcbb4b81c748bee3", "fusion_lat": 0.0, "is_reserved": 0, "lon": -77.02571816666666}, {"type": "electric_scooter", "name": "016452214f6d6b953959d6a0c927b2b8", "rental_uris": {"ios": "https://dc.lft.to/lastmile_qr_scan", "android": "https://dc.lft.to/lastmile_qr_scan"}, "fusion_lon": 0.0, "lat": 38.85551383333333, "is_disabled": 0, "bike_id": "016452214f6d6b953959d6a0c927b2b8", "fusion_lat": 0.0, "is_reserved": 0, "lon": -76.9875715}, {"type": "electric_scooter", "name": "b7784d795d95093ef4ecf5726a262f6f", "rental_uris": {"ios": "https://dc.lft.to/lastmile_qr_scan", "android": "https://dc.lft.to/lastmile_qr_scan"}, "fusion_lon": 0.0, "lat": 38.917077, "is_disabled": 0, "bike_id": "b7784d795d95093ef4ecf5726a262f6f", "fusion_lat": 0.0, "is_reserved": 0, "lon": -77.0386745}, {"type": "electric_bike", "name": "590168c326c873184304ff2909e6f87b", "rental_uris": {"ios": "https://dc.lft.to/lastmile_qr_scan", "android": "https://dc.lft.to/lastmile_qr_scan"}, "fusion_lon": 0.0, "lat": 38.840843166666666, "is_disabled": 0, "bike_id": "590168c326c873184304ff2909e6f87b", "fusion_lat": 0.0, "is_reserved": 0, "lon": -76.970284}, {"type": "electric_scooter", "name": "13be8445f84abae8a07b75627f953e6b", "rental_uris": {"ios": "https://dc.lft.to/lastmile_qr_scan", "android": "https://dc.lft.to/lastmile_qr_scan"}, "fusion_lon": 0.0, "lat": 38.923007166666665, "is_disabled": 0, "bike_id": "13be8445f84abae8a07b75627f953e6b", "fusion_lat": 0.0, "is_reserved": 0, "lon": -77.042689}, {"type": "electric_scooter", "name": "2a2bf706603cad830d3ee1b4029edd1a", "rental_uris": {"ios": "https://dc.lft.to/lastmile_qr_scan", "android": "https://dc.lft.to/lastmile_qr_scan"}, "fusion_lon": 0.0, "lat": 38.8974125, "is_disabled": 0, "bike_id": "2a2bf706603cad830d3ee1b4029edd1a", "fusion_lat": 0.0, "is_reserved": 0, "lon": -77.00917966666667}, {"type": "electric_bike", "name": "5b7323aba8bea00158b33d4d3d7fe754", "rental_uris": {"ios": "https://dc.lft.to/lastmile_qr_scan", "android": "https://dc.lft.to/lastmile_qr_scan"}, "fusion_lon": 0.0, "lat": 38.883585333333336, "is_disabled": 0, "bike_id": "5b7323aba8bea00158b33d4d3d7fe754", "fusion_lat": 0.0, "is_reserved": 0, "lon": -76.982192}, {"type": "electric_bike", "name": "f4c71e8b878e9d6c2409f208f78c48e7", "rental_uris": {"ios": "https://dc.lft.to/lastmile_qr_scan", "android": "https://dc.lft.to/lastmile_qr_scan"}, "fusion_lon": 0.0, "lat": 38.990521, "is_disabled": 0, "bike_id": "f4c71e8b878e9d6c2409f208f78c48e7", "fusion_lat": 0.0, "is_reserved": 0, "lon": -77.03874616666667}, {"type": "electric_scooter", "name": "71b18099623e63c7826e904f2de76baa", "rental_uris": {"ios": "https://dc.lft.to/lastmile_qr_scan", "android": "https://dc.lft.to/lastmile_qr_scan"}, "fusion_lon": 0.0, "lat": 38.9283965, "is_disabled": 0, "bike_id": "71b18099623e63c7826e904f2de76baa", "fusion_lat": 0.0, "is_reserved": 0, "lon": -77.03652666666666}, {"type": "electric_scooter", "name": "556781f90de355bc9066d53e82481551", "rental_uris": {"ios": "https://dc.lft.to/lastmile_qr_scan", "android": "https://dc.lft.to/lastmile_qr_scan"}, "fusion_lon": 0.0, "lat": 38.90766816666667, "is_disabled": 0, "bike_id": "556781f90de355bc9066d53e82481551", "fusion_lat": 0.0, "is_reserved": 0, "lon": -77.04238183333334}, {"type": "electric_bike", "name": "23854ae78e02497328de2f7f4f0ef9a6", "rental_uris": {"ios": "https://dc.lft.to/lastmile_qr_scan", "android": "https://dc.lft.to/lastmile_qr_scan"}, "fusion_lon": 0.0, "lat": 38.835423, "is_disabled": 0, "bike_id": "23854ae78e02497328de2f7f4f0ef9a6", "fusion_lat": 0.0, "is_reserved": 0, "lon": -76.9873215}, {"type": "electric_scooter", "name": "7c4e12f9353f7115b755280d7257018b", "rental_uris": {"ios": "https://dc.lft.to/lastmile_qr_scan", "android": "https://dc.lft.to/lastmile_qr_scan"}, "fusion_lon": 0.0, "lat": 38.8974005, "is_disabled": 0, "bike_id": "7c4e12f9353f7115b755280d7257018b", "fusion_lat": 0.0, "is_reserved": 0, "lon": -77.04551716666667}, {"type": "electric_scooter", "name": "1073fde630ec37326866e4504b2aa308", "rental_uris": {"ios": "https://dc.lft.to/lastmile_qr_scan", "android": "https://dc.lft.to/lastmile_qr_scan"}, "fusion_lon": 0.0, "lat": 38.88633766666667, "is_disabled": 0, "bike_id": "1073fde630ec37326866e4504b2aa308", "fusion_lat": 0.0, "is_reserved": 0, "lon": -77.01547933333333}, {"type": "electric_scooter", "name": "4edab8c7fca531cafdd1601ec8b33490", "rental_uris": {"ios": "https://dc.lft.to/lastmile_qr_scan", "android": "https://dc.lft.to/lastmile_qr_scan"}, "fusion_lon": 0.0, "lat": 38.91671433333333, "is_disabled": 0, "bike_id": "4edab8c7fca531cafdd1601ec8b33490", "fusion_lat": 0.0, "is_reserved": 0, "lon": -77.0271485}, {"type": "electric_scooter", "name": "86ff2b1c7e37f9f3bcb2444b22616481", "rental_uris": {"ios": "https://dc.lft.to/lastmile_qr_scan", "android": "https://dc.lft.to/lastmile_qr_scan"}, "fusion_lon": 0.0, "lat": 38.84398016666667, "is_disabled": 0, "bike_id": "86ff2b1c7e37f9f3bcb2444b22616481", "fusion_lat": 0.0, "is_reserved": 0, "lon": -76.989461}, {"type": "electric_scooter", "name": "b840c670b0e708138ce6709293421948", "rental_uris": {"ios": "https://dc.lft.to/lastmile_qr_scan", "android": "https://dc.lft.to/lastmile_qr_scan"}, "fusion_lon": 0.0, "lat": 38.923216, "is_disabled": 0, "bike_id": "b840c670b0e708138ce6709293421948", "fusion_lat": 0.0, "is_reserved": 0, "lon": -77.029679}, {"type": "electric_scooter", "name": "75f8b879053b656d23a2128c3df581b1", "rental_uris": {"ios": "https://dc.lft.to/lastmile_qr_scan", "android": "https://dc.lft.to/lastmile_qr_scan"}, "fusion_lon": 0.0, "lat": 38.903724, "is_disabled": 0, "bike_id": "75f8b879053b656d23a2128c3df581b1", "fusion_lat": 0.0, "is_reserved": 0, "lon": -77.03200633333333}, {"type": "electric_scooter", "name": "d8e28da7da529eb4db46265ccea2ae5d", "rental_uris": {"ios": "https://dc.lft.to/lastmile_qr_scan", "android": "https://dc.lft.to/lastmile_qr_scan"}, "fusion_lon": 0.0, "lat": 38.900376666666666, "is_disabled": 0, "bike_id": "d8e28da7da529eb4db46265ccea2ae5d", "fusion_lat": 0.0, "is_reserved": 0, "lon": -77.04021466666667}, {"type": "electric_scooter", "name": "7d8b3d6cb184a9e675e1be1314cdac6d", "rental_uris": {"ios": "https://dc.lft.to/lastmile_qr_scan", "android": "https://dc.lft.to/lastmile_qr_scan"}, "fusion_lon": 0.0, "lat": 38.8922355, "is_disabled": 0, "bike_id": "7d8b3d6cb184a9e675e1be1314cdac6d", "fusion_lat": 0.0, "is_reserved": 0, "lon": -77.04197033333334}, {"type": "electric_scooter", "name": "91069cfb362d4d3a2525bf5eabd35bc7", "rental_uris": {"ios": "https://dc.lft.to/lastmile_qr_scan", "android": "https://dc.lft.to/lastmile_qr_scan"}, "fusion_lon": 0.0, "lat": 38.900186166666664, "is_disabled": 0, "bike_id": "91069cfb362d4d3a2525bf5eabd35bc7", "fusion_lat": 0.0, "is_reserved": 0, "lon": -76.98727883333333}, {"type": "electric_scooter", "name": "ce845fbb43120ca31a96389d1f65a9b6", "rental_uris": {"ios": "https://dc.lft.to/lastmile_qr_scan", "android": "https://dc.lft.to/lastmile_qr_scan"}, "fusion_lon": 0.0, "lat": 38.910395666666666, "is_disabled": 0, "bike_id": "ce845fbb43120ca31a96389d1f65a9b6", "fusion_lat": 0.0, "is_reserved": 0, "lon": -77.01030683333333}, {"type": "electric_scooter", "name": "3f68d7c9d5bfb9103eeac437cd84e0cd", "rental_uris": {"ios": "https://dc.lft.to/lastmile_qr_scan", "android": "https://dc.lft.to/lastmile_qr_scan"}, "fusion_lon": 0.0, "lat": 38.926626, "is_disabled": 0, "bike_id": "3f68d7c9d5bfb9103eeac437cd84e0cd", "fusion_lat": 0.0, "is_reserved": 0, "lon": -77.02305116666666}, {"type": "electric_scooter", "name": "27e5a3c1836f7ca0837cfd62f3864716", "rental_uris": {"ios": "https://dc.lft.to/lastmile_qr_scan", "android": "https://dc.lft.to/lastmile_qr_scan"}, "fusion_lon": 0.0, "lat": 38.924612333333336, "is_disabled": 0, "bike_id": "27e5a3c1836f7ca0837cfd62f3864716", "fusion_lat": 0.0, "is_reserved": 0, "lon": -77.02210216666667}, {"type": "electric_scooter", "name": "4f6ea480c5a5776db2c0545ba26031ba", "rental_uris": {"ios": "https://dc.lft.to/lastmile_qr_scan", "android": "https://dc.lft.to/lastmile_qr_scan"}, "fusion_lon": 0.0, "lat": 38.9124095, "is_disabled": 0, "bike_id": "4f6ea480c5a5776db2c0545ba26031ba", "fusion_lat": 0.0, "is_reserved": 0, "lon": -77.0486735}, {"type": "electric_scooter", "name": "898905a10990d320f81a2fc1c8922496", "rental_uris": {"ios": "https://dc.lft.to/lastmile_qr_scan", "android": "https://dc.lft.to/lastmile_qr_scan"}, "fusion_lon": 0.0, "lat": 38.91685233333333, "is_disabled": 0, "bike_id": "898905a10990d320f81a2fc1c8922496", "fusion_lat": 0.0, "is_reserved": 0, "lon": -77.02948483333333}, {"type": "electric_bike", "name": "a735b64fe05eeba9528151504b7d0c0b", "rental_uris": {"ios": "https://dc.lft.to/lastmile_qr_scan", "android": "https://dc.lft.to/lastmile_qr_scan"}, "fusion_lon": 0.0, "lat": 38.85768233333334, "is_disabled": 0, "bike_id": "a735b64fe05eeba9528151504b7d0c0b", "fusion_lat": 0.0, "is_reserved": 0, "lon": -76.98766916666666}, {"type": "electric_scooter", "name": "d064fc880a293d1093f1d3957ebaa49d", "rental_uris": {"ios": "https://dc.lft.to/lastmile_qr_scan", "android": "https://dc.lft.to/lastmile_qr_scan"}, "fusion_lon": 0.0, "lat": 38.9308205, "is_disabled": 0, "bike_id": "d064fc880a293d1093f1d3957ebaa49d", "fusion_lat": 0.0, "is_reserved": 0, "lon": -77.02808333333333}, {"type": "electric_scooter", "name": "706d0766f76465647c94884f1ab34277", "rental_uris": {"ios": "https://dc.lft.to/lastmile_qr_scan", "android": "https://dc.lft.to/lastmile_qr_scan"}, "fusion_lon": 0.0, "lat": 38.910647, "is_disabled": 0, "bike_id": "706d0766f76465647c94884f1ab34277", "fusion_lat": 0.0, "is_reserved": 0, "lon": -77.00392933333333}, {"type": "electric_scooter", "name": "abf9e28c46b7efed6d5ffd0209c03916", "rental_uris": {"ios": "https://dc.lft.to/lastmile_qr_scan", "android": "https://dc.lft.to/lastmile_qr_scan"}, "fusion_lon": 0.0, "lat": 38.905713666666664, "is_disabled": 0, "bike_id": "abf9e28c46b7efed6d5ffd0209c03916", "fusion_lat": 0.0, "is_reserved": 0, "lon": -77.02416866666667}, {"type": "electric_scooter", "name": "0c157a6ae88de16240e1ad3d6b293f93", "rental_uris": {"ios": "https://dc.lft.to/lastmile_qr_scan", "android": "https://dc.lft.to/lastmile_qr_scan"}, "fusion_lon": 0.0, "lat": 38.92119816666667, "is_disabled": 0, "bike_id": "0c157a6ae88de16240e1ad3d6b293f93", "fusion_lat": 0.0, "is_reserved": 0, "lon": -77.01208416666667}, {"type": "electric_scooter", "name": "573064bf6c81a5b5da852a049517df67", "rental_uris": {"ios": "https://dc.lft.to/lastmile_qr_scan", "android": "https://dc.lft.to/lastmile_qr_scan"}, "fusion_lon": 0.0, "lat": 38.910459833333334, "is_disabled": 0, "bike_id": "573064bf6c81a5b5da852a049517df67", "fusion_lat": 0.0, "is_reserved": 0, "lon": -77.02203666666666}, {"type": "electric_scooter", "name": "1107927138c6cb356eb30b7ad7b48373", "rental_uris": {"ios": "https://dc.lft.to/lastmile_qr_scan", "android": "https://dc.lft.to/lastmile_qr_scan"}, "fusion_lon": 0.0, "lat": 38.916950166666666, "is_disabled": 0, "bike_id": "1107927138c6cb356eb30b7ad7b48373", "fusion_lat": 0.0, "is_reserved": 0, "lon": -77.041107}, {"type": "electric_scooter", "name": "73495b1d0127b9fb956d33ee18eb9d1b", "rental_uris": {"ios": "https://dc.lft.to/lastmile_qr_scan", "android": "https://dc.lft.to/lastmile_qr_scan"}, "fusion_lon": 0.0, "lat": 38.91703166666667, "is_disabled": 0, "bike_id": "73495b1d0127b9fb956d33ee18eb9d1b", "fusion_lat": 0.0, "is_reserved": 0, "lon": -77.0417605}, {"type": "electric_scooter", "name": "afe1b0428f86e7e970d16860c6425c6b", "rental_uris": {"ios": "https://dc.lft.to/lastmile_qr_scan", "android": "https://dc.lft.to/lastmile_qr_scan"}, "fusion_lon": 0.0, "lat": 38.9294345, "is_disabled": 0, "bike_id": "afe1b0428f86e7e970d16860c6425c6b", "fusion_lat": 0.0, "is_reserved": 0, "lon": -77.01889233333333}, {"type": "electric_scooter", "name": "5cd5f5bedf970a243e62d71101dfe38f", "rental_uris": {"ios": "https://dc.lft.to/lastmile_qr_scan", "android": "https://dc.lft.to/lastmile_qr_scan"}, "fusion_lon": 0.0, "lat": 38.90520866666667, "is_disabled": 0, "bike_id": "5cd5f5bedf970a243e62d71101dfe38f", "fusion_lat": 0.0, "is_reserved": 0, "lon": -77.04344533333334}, {"type": "electric_scooter", "name": "5294bac6e58d0bb3e69ba70bad669004", "rental_uris": {"ios": "https://dc.lft.to/lastmile_qr_scan", "android": "https://dc.lft.to/lastmile_qr_scan"}, "fusion_lon": 0.0, "lat": 38.93192333333333, "is_disabled": 0, "bike_id": "5294bac6e58d0bb3e69ba70bad669004", "fusion_lat": 0.0, "is_reserved": 0, "lon": -77.043018},