{"data": {"bikes": [{"rental_uris": {"android": "https://dc.lft.to/lastmile_qr_scan", "ios": "https://dc.lft.to/lastmile_qr_scan"}, "type": "electric_scooter", "lon": -76.98730133333333, "name": "4a64d9dfe26bc2bb7422ab1f514f7d8f", "bike_id": "4a64d9dfe26bc2bb7422ab1f514f7d8f", "fusion_lat": 0.0, "is_reserved": 0, "lat": 38.86708316666667, "fusion_lon": 0.0, "is_disabled": 0}, {"rental_uris": {"android": "https://dc.lft.to/lastmile_qr_scan", "ios": "https://dc.lft.to/lastmile_qr_scan"}, "type": "electric_bike", "lon": -76.97561166666667, "name": "c8ebda0bdbbf9aa7ffbefe72438c5d9e", "bike_id": "c8ebda0bdbbf9aa7ffbefe72438c5d9e", "fusion_lat": 0.0, "is_reserved": 0, "lat": 38.90318516666667, "fusion_lon": 0.0, "is_disabled": 0}, {"rental_uris": {"android": "https://dc.lft.to/lastmile_qr_scan", "ios": "https://dc.lft.to/lastmile_qr_scan"}, "type": "electric_scooter", "lon": -77.04083916666667, "name": "899c6fd2cd572b4ce7b983190920bd4e", "bike_id": "899c6fd2cd572b4ce7b983190920bd4e", "fusion_lat": 0.0, "is_reserved": 0, "lat": 38.907121333333336, "fusion_lon": 0.0, "is_disabled": 0}, {"rental_uris": {"android": "https://dc.lft.to/lastmile_qr_scan", "ios": "https://dc.lft.to/lastmile_qr_scan"}, "type": "electric_scooter", "lon": -77.02659633333333, "name": "e200e5c1a5f51784a242c6720708f06c", "bike_id": "e200e5c1a5f51784a242c6720708f06c", "fusion_lat": 0.0, "is_reserved": 0, "lat": 38.93098333333333, "fusion_lon": 0.0, "is_disabled": 0}, {"rental_uris": {"android": "https://dc.lft.to/lastmile_qr_scan", "ios": "https://dc.lft.to/lastmile_qr_scan"}, "type": "electric_scooter", "lon": -77.0290285, "name": "a1d437d83fe4b313a0f7a2cb51a3ac29", "bike_id": "a1d437d83fe4b313a0f7a2cb51a3ac29", "fusion_lat": 0.0, "is_reserved": 0, "lat": 38.9584745, "fusion_lon": 0.0, "is_disabled": 0}, {"rental_uris": {"android": "https://dc.lft.to/lastmile_qr_scan", "ios": "https://dc.lft.to/lastmile_qr_scan"}, "type": "electric_scooter", "lon": -77.02565066666666, "name": "0ce11ef137cb9e3797cc0fc66e951204", "bike_id": "0ce11ef137cb9e3797cc0fc66e951204", "fusion_lat": 0.0, "is_reserved": 0, "lat": 38.88586433333333, "fusion_lon": 0.0, "is_disabled": 0}, {"rental_uris": {"android": "https://dc.lft.to/lastmile_qr_scan", "ios": "https://dc.lft.to/lastmile_qr_scan"}, "type": "electric_bike", "lon": -77.088272, "name": "af872f85c5f0ed0422a2551c4e2c5fbb", "bike_id": "af872f85c5f0ed0422a2551c4e2c5fbb", "fusion_lat": 0.0, "is_reserved": 0, "lat": 38.90971233333333, "fusion_lon": 0.0, "is_disabled": 0}, {"rental_uris": {"android": "https://dc.lft.to/lastmile_qr_scan", "ios": "https://dc.lft.to/lastmile_qr_scan"}, "type": "electric_scooter", "lon": -77.03869333333333, "name": "5fd47c33cb8bd7bd4267fdba6333159a", "bike_id": "5fd47c33cb8bd7bd4267fdba6333159a", "fusion_lat": 0.0, "is_reserved": 0, "lat": 38.91264133333333, "fusion_lon": 0.0, "is_disabled": 0}, {"rental_uris": {"android": "https://dc.lft.to/lastmile_qr_scan", "ios": "https://dc.lft.to/lastmile_qr_scan"}, "type": "electric_scooter", "lon": -77.02345583333333, "name": "28c270d11402e34b4b1ad7a803f7c7ec", "bike_id": "28c270d11402e34b4b1ad7a803f7c7ec", "fusion_lat": 0.0, "is_reserved": 0, "lat": 38.884947, "fusion_lon": 0.0, "is_disabled": 0}, {"rental_uris": {"android": "https://dc.lft.to/lastmile_qr_scan", "ios": "https://dc.lft.to/lastmile_qr_scan"}, "type": "electric_scooter", "lon": -77.04025733333333, "name": "61519b9eb1a5ead9e0e670b160751e73", "bike_id": "61519b9eb1a5ead9e0e670b160751e73", "fusion_lat": 0.0, "is_reserved": 0, "lat": 38.92203116666666, "fusion_lon": 0.0, "is_disabled": 0}, {"rental_uris": {"android": "https://dc.lft.to/lastmile_qr_scan", "ios": "https://dc.lft.to/lastmile_qr_scan"}, "type": "electric_scooter", "lon": -77.052807, "name": "b0381cab3e3c2b59e35bc6eab5a112e6", "bike_id": "b0381cab3e3c2b59e35bc6eab5a112e6", "fusion_lat": 0.0, "is_reserved": 0, "lat": 38.92255566666667, "fusion_lon": 0.0, "is_disabled": 0}, {"rental_uris": {"android": "https://dc.lft.to/lastmile_qr_scan", "ios": "https://dc.lft.to/lastmile_qr_scan"}, "type": "electric_scooter", "lon": -76.94154233333333, "name": "dee6f8bff33cc8e86b9c70cce68fc757", "bike_id": "dee6f8bff33cc8e86b9c70cce68fc757", "fusion_lat": 0.0, "is_reserved": 0, "lat": 38.883627, "fusion_lon": 0.0, "is_disabled": 0}, {"rental_uris": {"android": "https://dc.lft.to/lastmile_qr_scan", "ios": "https://dc.lft.to/lastmile_qr_scan"}, "type": "electric_scooter", "lon": -77.0019895, "name": "a9d667310eb1b95c4b6bdc564ff30f25", "bike_id": "a9d667310eb1b95c4b6bdc564ff30f25", "fusion_lat": 0.0, "is_reserved": 0, "lat": 38.90233216666667, "fusion_lon": 0.0, "is_disabled": 0}, {"rental_uris": {"android": "https://dc.lft.to/lastmile_qr_scan", "ios": "https://dc.lft.to/lastmile_qr_scan"}, "type": "electric_scooter", "lon": -77.03816433333333, "name": "f790eb3767831feebf5949f81909f47a", "bike_id": "f790eb3767831feebf5949f81909f47a", "fusion_lat": 0.0, "is_reserved": 0, "lat": 38.91417966666667, "fusion_lon": 0.0, "is_disabled": 0}, {"rental_uris": {"android": "https://dc.lft.to/lastmile_qr_scan", "ios": "https://dc.lft.to/lastmile_qr_scan"}, "type": "electric_scooter", "lon": -77.04017966666666, "name": "1544ab72e3fd1f6ad65ed0024c025596", "bike_id": "1544ab72e3fd1f6ad65ed0024c025596", "fusion_lat": 0.0, "is_reserved": 0, "lat": 38.92566883333333, "fusion_lon": 0.0, "is_disabled": 0}, {"rental_uris": {"android": "https://dc.lft.to/lastmile_qr_scan", "ios": "https://dc.lft.to/lastmile_qr_scan"}, "type": "electric_scooter", "lon": -77.045727, "name": "0f0594d78cdbfc636cd63211a5b2645e", "bike_id": "0f0594d78cdbfc636cd63211a5b2645e", "fusion_lat": 0.0, "is_reserved": 0, "lat": 38.90001566666667, "fusion_lon": 0.0, "is_disabled": 0}, {"rental_uris": {"android": "https://dc.lft.to/lastmile_qr_scan", "ios": "https://dc.lft.to/lastmile_qr_scan"}, "type": "electric_bike", "lon": -76.965609, "name": "87d7590ef479a4882b43a53263d1fe71", "bike_id": "87d7590ef479a4882b43a53263d1fe71", "fusion_lat": 0.0, "is_reserved": 0, "lat": 38.950912333333335, "fusion_lon": 0.0, "is_disabled": 0}, {"rental_uris": {"android": "https://dc.lft.to/lastmile_qr_scan", "ios": "https://dc.lft.to/lastmile_qr_scan"}, "type": "electric_scooter", "lon": -77.0783755, "name": "af3713112e2dd93ef8b2a45b4533f535", "bike_id": "af3713112e2dd93ef8b2a45b4533f535", "fusion_lat": 0.0, "is_reserved": 0, "lat": 38.931380833333336, "fusion_lon": 0.0, "is_disabled": 0}, {"rental_uris": {"android": "https://dc.lft.to/lastmile_qr_scan", "ios": "https://dc.lft.to/lastmile_qr_scan"}, "type": "electric_scooter", "lon": -77.03857616666667, "name": "b18a3bec0bf6b59e4f3761ce68e89f16", "bike_id": "b18a3bec0bf6b59e4f3761ce68e89f16", "fusion_lat": 0.0, "is_reserved": 0, "lat": 38.911914, "fusion_lon": 0.0, "is_disabled": 0}, {"rental_uris": {"android": "https://dc.lft.to/lastmile_qr_scan", "ios": "https://dc.lft.to/lastmile_qr_scan"}, "type": "electric_scooter", "lon": -77.050301, "name": "198338f4d9fe95850a84b6d25eddc684", "bike_id": "198338f4d9fe95850a84b6d25eddc684", "fusion_lat": 0.0, "is_reserved": 0, "lat": 38.92362883333333, "fusion_lon": 0.0, "is_disabled": 0}, {"rental_uris": {"android": "https://dc.lft.to/lastmile_qr_scan", "ios": "https://dc.lft.to/lastmile_qr_scan"}, "type": "electric_scooter", "lon": -77.03073433333333, "name": "ea8d95c83909888aa229511cb0d892cc", "bike_id": "ea8d95c83909888aa229511cb0d892cc", "fusion_lat": 0.0, "is_reserved": 0, "lat": 38.922487, "fusion_lon": 0.0, "is_disabled": 0}, {"rental_uris": {"android": "https://dc.lft.to/lastmile_qr_scan", "ios": "https://dc.lft.to/lastmile_qr_scan"}, "type": "electric_scooter", "lon": -77.02962883333333, "name": "784c33fb995fe74f191844f8139c59fb", "bike_id": "784c33fb995fe74f191844f8139c59fb", "fusion_lat": 0.0, "is_reserved": 0, "lat": 38.924609833333335, "fusion_lon": 0.0, "is_disabled": 0}, {"rental_uris": {"android": "https://dc.lft.to/lastmile_qr_scan", "ios": "https://dc.lft.to/lastmile_qr_scan"}, "type": "electric_scooter", "lon": -77.04868783333333, "name": "9f914b478a43f854ead63481880fa551", "bike_id": "9f914b478a43f854ead63481880fa551", "fusion_lat": 0.0, "is_reserved": 0, "lat": 38.904099333333335, "fusion_lon": 0.0, "is_disabled": 0}, {"rental_uris": {"android": "https://dc.lft.to/lastmile_qr_scan", "ios": "https://dc.lft.to/lastmile_qr_scan"}, "type": "electric_scooter", "lon": -76.99023633333333, "name": "8e389cdf2461afae03cbbc14c5cf66f4", "bike_id": "8e389cdf2461afae03cbbc14c5cf66f4", "fusion_lat": 0.0, "is_reserved": 0, "lat": 38.864031, "fusion_lon": 0.0, "is_disabled": 0}, {"rental_uris": {"android": "https://dc.lft.to/lastmile_qr_scan", "ios": "https://dc.lft.to/lastmile_qr_scan"}, "type": "electric_scooter", "lon": -77.04018666666667, "name": "d4b8dc5b4b367658d25bb7237d0dcc57", "bike_id": "d4b8dc5b4b367658d25bb7237d0dcc57", "fusion_lat": 0.0, "is_reserved": 0, "lat": 38.92458766666667, "fusion_lon": 0.0, "is_disabled": 0}, {"rental_uris": {"android": "https://dc.lft.to/lastmile_qr_scan", "ios": "https://dc.lft.to/lastmile_qr_scan"}, "type": "electric_scooter", "lon": -77.047726, "name": "ab1ec63253861bf4c8be6d0b6e5e67c9", "bike_id": "ab1ec63253861bf4c8be6d0b6e5e67c9", "fusion_lat": 0.0, "is_reserved": 0, "lat": 38.917569, "fusion_lon": 0.0, "is_disabled": 0}, {"rental_uris": {"android": "https://dc.lft.to/lastmile_qr_scan", "ios": "https://dc.lft.to/lastmile_qr_scan"}, "type": "electric_scooter", "lon": -77.039076, "name": "d585765986a39d6ffba26f3a9ac6b96c", "bike_id": "d585765986a39d6ffba26f3a9ac6b96c", "fusion_lat": 0.0, "is_reserved": 0, "lat": 38.914212, "fusion_lon": 0.0, "is_disabled": 0}, {"rental_uris": {"android": "https://dc.lft.to/lastmile_qr_scan", "ios": "https://dc.lft.to/lastmile_qr_scan"}, "type": "electric_scooter", "lon": -76.99725083333334, "name": "53ec632f3a3c358dcdbaca3b30dec474", "bike_id": "53ec632f3a3c358dcdbaca3b30dec474", "fusion_lat": 0.0, "is_reserved": 0, "lat": 38.898955666666666, "fusion_lon": 0.0, "is_disabled": 0}, {"rental_uris": {"android": "https://dc.lft.to/lastmile_qr_scan", "ios": "https://dc.lft.to/lastmile_qr_scan"}, "type": "electric_scooter", "lon": -77.041514, "name": "6f140061a9c99e6f2f0f16b31dd355e0", "bike_id": "6f140061a9c99e6f2f0f16b31dd355e0", "fusion_lat": 0.0, "is_reserved": 0, "lat": 38.91964683333333, "fusion_lon": 0.0, "is_disabled": 0}, {"rental_uris": {"android": "https://dc.lft.to/lastmile_qr_scan", "ios": "https://dc.lft.to/lastmile_qr_scan"}, "type": "electric_scooter", "lon": -77.06758416666666, "name": "22bf625b4555de47c3b8890ee5b8280d", "bike_id": "22bf625b4555de47c3b8890ee5b8280d", "fusion_lat": 0.0, "is_reserved": 0, "lat": 38.903577, "fusion_lon": 0.0, "is_disabled": 0}, {"rental_uris": {"android": "https://dc.lft.to/lastmile_qr_scan", "ios": "https://dc.lft.to/lastmile_qr_scan"}, "type": "electric_scooter", "lon": -77.03052383333333, "name": "3ede6fa582bdf6e8e77dd37c0d530d4e", "bike_id": "3ede6fa582bdf6e8e77dd37c0d530d4e", "fusion_lat": 0.0, "is_reserved": 0, "lat": 38.884037166666666, "fusion_lon": 0.0, "is_disabled": 0}, {"rental_uris": {"android": "https://dc.lft.to/lastmile_qr_scan", "ios": "https://dc.lft.to/lastmile_qr_scan"}, "type": "electric_scooter", "lon": -77.005984, "name": "d30ca028c740ab1c1557e64e62089a08", "bike_id": "d30ca028c740ab1c1557e64e62089a08", "fusion_lat": 0.0, "is_reserved": 0, "lat": 38.9081955, "fusion_lon": 0.0, "is_disabled": 0}, {"rental_uris": {"android": "https://dc.lft.to/lastmile_qr_scan", "ios": "https://dc.lft.to/lastmile_qr_scan"}, "type": "electric_scooter", "lon": -77.04873933333333, "name": "65b7d41489af60abb3ca8613dab356bc", "bike_id": "65b7d41489af60abb3ca8613dab356bc", "fusion_lat": 0.0, "is_reserved": 0, "lat": 38.90087366666667, "fusion_lon": 0.0, "is_disabled": 0}, {"rental_uris": {"android": "https://dc.lft.to/lastmile_qr_scan", "ios": "https://dc.lft.to/lastmile_qr_scan"}, "type": "electric_scooter", "lon": -77.0610125, "name": "f05e9a9c92d78bbabf920b9ccd863d2b", "bike_id": "f05e9a9c92d78bbabf920b9ccd863d2b", "fusion_lat": 0.0, "is_reserved": 0, "lat": 38.943661666666664, "fusion_lon": 0.0, "is_disabled": 0}, {"rental_uris": {"android": "https://dc.lft.to/lastmile_qr_scan", "ios": "https://dc.lft.to/lastmile_qr_scan"}, "type": "electric_scooter", "lon": -77.03668683333333, "name": "05f0ed4a98b516c92523cc37c12a1187", "bike_id": "05f0ed4a98b516c92523cc37c12a1187", "fusion_lat": 0.0, "is_reserved": 0, "lat": 38.9027055, "fusion_lon": 0.0, "is_disabled": 0}, {"rental_uris": {"android": "https://dc.lft.to/lastmile_qr_scan", "ios": "https://dc.lft.to/lastmile_qr_scan"}, "type": "electric_scooter", "lon": -77.03176383333333, "name": "2afb216a84217b8e77af20dd1b7f92e0", "bike_id": "2afb216a84217b8e77af20dd1b7f92e0", "fusion_lat": 0.0, "is_reserved": 0, "lat": 38.914155666666666, "fusion_lon": 0.0, "is_disabled": 0}, {"rental_uris": {"android": "https://dc.lft.to/lastmile_qr_scan", "ios": "https://dc.lft.to/lastmile_qr_scan"}, "type": "electric_scooter", "lon": -77.0202605, "name": "9c5ee65ce91043ec5e193f876dd2b668", "bike_id": "9c5ee65ce91043ec5e193f876dd2b668", "fusion_lat": 0.0, "is_reserved": 0, "lat": 38.92449283333333, "fusion_lon": 0.0, "is_disabled": 0}, {"rental_uris": {"android": "https://dc.lft.to/lastmile_qr_scan", "ios": "https://dc.lft.to/lastmile_qr_scan"}, "type": "electric_bike", "lon": -77.02115033333334, "name": "7f49bd4b7ffa5de94d2436415aeedcb4", "bike_id": "7f49bd4b7ffa5de94d2436415aeedcb4", "fusion_lat": 0.0, "is_reserved": 0, "lat": 38.93595416666667, "fusion_lon": 0.0, "is_disabled": 0}, {"rental_uris": {"android": "https://dc.lft.to/lastmile_qr_scan", "ios": "https://dc.lft.to/lastmile_qr_scan"}, "type": "electric_scooter", "lon": -77.043813, "name": "44dda20b071abcda2c4213e568056774", "bike_id": "44dda20b071abcda2c4213e568056774", "fusion_lat": 0.0, "is_reserved": 0, "lat": 38.92359233333333, "fusion_lon": 0.0, "is_disabled": 0}, {"rental_uris": {"android": "https://dc.lft.to/lastmile_qr_scan", "ios": "https://dc.lft.to/lastmile_qr_scan"}, "type": "electric_bike", "lon": -77.1013005, "name": "fd05f38f3701ae502be4c39b0f46ba36", "bike_id": "fd05f38f3701ae502be4c39b0f46ba36", "fusion_lat": 0.0, "is_reserved": 0, "lat": 38.85212216666667, "fusion_lon": 0.0, "is_disabled": 0}, {"rental_uris": {"android": "https://dc.lft.to/lastmile_qr_scan", "ios": "https://dc.lft.to/lastmile_qr_scan"}, "type": "electric_scooter", "lon": -77.030612, "name": "0141ccab88dcb89ddee57583105de861", "bike_id": "0141ccab88dcb89ddee57583105de861", "fusion_lat": 0.0, "is_reserved": 0, "lat": 38.922489666666664, "fusion_lon": 0.0, "is_disabled": 0}, {"rental_uris": {"android": "https://dc.lft.to/lastmile_qr_scan", "ios": "https://dc.lft.to/lastmile_qr_scan"}, "type": "electric_scooter", "lon": -77.03503733333334, "name": "286e868fe5be8d0022839dcf6bd957b9", "bike_id": "286e868fe5be8d0022839dcf6bd957b9", "fusion_lat": 0.0, "is_reserved": 0, "lat": 38.903540166666666, "fusion_lon": 0.0, "is_disabled": 0}, {"rental_uris": {"android": "https://dc.lft.to/lastmile_qr_scan", "ios": "https://dc.lft.to/lastmile_qr_scan"}, "type": "electric_scooter", "lon": -76.99492483333333, "name": "767a2d10c34bbc4c72e219970ad20fa5", "bike_id": "767a2d10c34bbc4c72e219970ad20fa5", "fusion_lat": 0.0, "is_reserved": 0, "lat": 38.86216683333333, "fusion_lon": 0.0, "is_disabled": 0}, {"rental_uris": {"android": "https://dc.lft.to/lastmile_qr_scan", "ios": "https://dc.lft.to/lastmile_qr_scan"}, "type": "electric_scooter", "lon": -77.03391666666667, "name": "68205ff64ef55114b18bd0ea2a38d7cd", "bike_id": "68205ff64ef55114b18bd0ea2a38d7cd", "fusion_lat": 0.0, "is_reserved": 0, "lat": 38.92048783333333, "fusion_lon": 0.0, "is_disabled": 0}, {"rental_uris": {"android": "https://dc.lft.to/lastmile_qr_scan", "ios": "https://dc.lft.to/lastmile_qr_scan"}, "type": "electric_scooter", "lon": -77.02976333333334, "name": "bd34f66e01bd5a9aa800451960fa8dcd", "bike_id": "bd34f66e01bd5a9aa800451960fa8dcd", "fusion_lat": 0.0, "is_reserved": 0, "lat": 38.96224133333333, "fusion_lon": 0.0, "is_disabled": 0}, {"rental_uris": {"android": "https://dc.lft.to/lastmile_qr_scan", "ios": "https://dc.lft.to/lastmile_qr_scan"}, "type": "electric_scooter", "lon": -77.0271575, "name": "55ebd49c2d2a4bb011e03096aa03ae7e", "bike_id": "55ebd49c2d2a4bb011e03096aa03ae7e", "fusion_lat": 0.0, "is_reserved": 0, "lat": 38.90745233333333, "fusion_lon": 0.0, "is_disabled": 0}, {"rental_uris": {"android": "https://dc.lft.to/lastmile_qr_scan", "ios": "https://dc.lft.to/lastmile_qr_scan"}, "type": "electric_bike", "lon": -77.12963733333333, "name": "539e95f7a4d756217aa2ae4e8d68b533", "bike_id": "539e95f7a4d756217aa2ae4e8d68b533", "fusion_lat": 0.0, "is_reserved": 0, "lat": 38.85216616666666, "fusion_lon": 0.0, "is_disabled": 0}, {"rental_uris": {"android": "https://dc.lft.to/lastmile_qr_scan", "ios": "https://dc.lft.to/lastmile_qr_scan"}, "type": "electric_scooter", "lon": -77.03306333333333, "name": "513e60aa9a24396eddcac786bb0a7357", "bike_id": "513e60aa9a24396eddcac786bb0a7357", "fusion_lat": 0.0, "is_reserved": 0, "lat": 38.96819266666667, "fusion_lon": 0.0, "is_disabled": 0}, {"rental_uris": {"android": "https://dc.lft.to/lastmile_qr_scan", "ios": "https://dc.lft.to/lastmile_qr_scan"}, "type": "electric_scooter", "lon": -77.04555216666667, "name": "9341529cf5ca28547c063b1a25092aed", "bike_id": "9341529cf5ca28547c063b1a25092aed", "fusion_lat": 0.0, "is_reserved": 0, "lat": 38.908535666666666, "fusion_lon": 0.0, "is_disabled": 0}, {"rental_uris": {"android": "https://dc.lft.to/lastmile_qr_scan", "ios": "https://dc.lft.to/lastmile_qr_scan"}, "type": "electric_scooter", "lon": -77.03425916666667, "name": "4aafaf71edcb6a3efe090ef215594890", "bike_id": "4aafaf71edcb6a3efe090ef215594890", "fusion_lat": 0.0, "is_reserved": 0, "lat": 38.905696, "fusion_lon": 0.0, "is_disabled": 0}, {"rental_uris": {"android": "https://dc.lft.to/lastmile_qr_scan", "ios": "https://dc.lft.to/lastmile_qr_scan"}, "type": "electric_scooter", "lon": -77.02601116666666, "name": "275cca383d30ff1b08422f989a0a823f", "bike_id": "275cca383d30ff1b08422f989a0a823f", "fusion_lat": 0.0, "is_reserved": 0, "lat": 38.91637216666667, "fusion_lon": 0.0, "is_disabled": 0}, {"rental_uris": {"android": "https://dc.lft.to/lastmile_qr_scan", "ios": "https://dc.lft.to/lastmile_qr_scan"}, "type": "electric_scooter", "lon": -77.0057955, "name": "dd8bf87a345562311164382c89dcc257", "bike_id": "dd8bf87a345562311164382c89dcc257", "fusion_lat": 0.0, "is_reserved": 0, "lat": 38.90573366666667, "fusion_lon": 0.0, "is_disabled": 0}, {"rental_uris": {"android": "https://dc.lft.to/lastmile_qr_scan", "ios": "https://dc.lft.to/lastmile_qr_scan"}, "type": "electric_scooter", "lon": -77.02720183333334, "name": "7c392454affdbcf51165bff14cb9ad33", "bike_id": "7c392454affdbcf51165bff14cb9ad33", "fusion_lat": 0.0, "is_reserved": 0, "lat": 38.92246766666667, "fusion_lon": 0.0, "is_disabled": 0}, {"rental_uris": {"android": "https://dc.lft.to/lastmile_qr_scan", "ios": "https://dc.lft.to/lastmile_qr_scan"}, "type": "electric_scooter", "lon": -77.00929633333334, "name": "42c8998b216db8df0b89ce32d94ea3e4", "bike_id": "42c8998b216db8df0b89ce32d94ea3e4", "fusion_lat": 0.0, "is_reserved": 0, "lat": 38.9125225, "fusion_lon": 0.0, "is_disabled": 0}, {"rental_uris": {"android": "https://dc.lft.to/lastmile_qr_scan", "ios": "https://dc.lft.to/lastmile_qr_scan"}, "type": "electric_bike", "lon": -76.93226316666667, "name": "669c104608fa69b5b8b51eb08dbc09b9", "bike_id": "669c104608fa69b5b8b51eb08dbc09b9", "fusion_lat": 0.0, "is_reserved": 0, "lat": 38.86592016666667, "fusion_lon": 0.0, "is_disabled": 0}, {"rental_uris": {"android": "https://dc.lft.to/lastmile_qr_scan", "ios": "https://dc.lft.to/lastmile_qr_scan"}, "type": "electric_scooter", "lon": -77.07323166666667, "name": "ba813561b298b2fb755d0f73db7b18fd", "bike_id": "ba813561b298b2fb755d0f73db7b18fd", "fusion_lat": 0.0, "is_reserved": 0, "lat": 38.933538, "fusion_lon": 0.0, "is_disabled": 0}, {"rental_uris": {"android": "https://dc.lft.to/lastmile_qr_scan", "ios": "https://dc.lft.to/lastmile_qr_scan"}, "type": "electric_scooter", "lon": -77.0383295, "name": "acd971c1d7fbebd505bc462f5047a5bd", "bike_id": "acd971c1d7fbebd505bc462f5047a5bd", "fusion_lat": 0.0, "is_reserved": 0, "lat": 38.91551416666667, "fusion_lon": 0.0, "is_disabled": 0}, {"rental_uris": {"android": "https://dc.lft.to/lastmile_qr_scan", "ios": "https://dc.lft.to/lastmile_qr_scan"}, "type": "electric_scooter", "lon": -77.03434716666666, "name": "75bc921978bc1255ab0c0d5b9126b257", "bike_id": "75bc921978bc1255ab0c0d5b9126b257", "fusion_lat": 0.0, "is_reserved": 0, "lat": 38.93090133333333, "fusion_lon": 0.0, "is_disabled": 0}, {"rental_uris": {"android": "https://dc.lft.to/lastmile_qr_scan", "ios": "https://dc.lft.to/lastmile_qr_scan"}, "type": "electric_scooter", "lon": -77.0022065, "name": "851c8d31d639b3d8b730b3ca8adde7d1", "bike_id": "851c8d31d639b3d8b730b3ca8adde7d1", "fusion_lat": 0.0, "is_reserved": 0, "lat": 38.95723516666666, "fusion_lon": 0.0, "is_disabled": 0}, {"rental_uris": {"android": "https://dc.lft.to/lastmile_qr_scan", "ios": "https://dc.lft.to/lastmile_qr_scan"}, "type": "electric_scooter", "lon": -77.01818366666667, "name": "0ad0cd3609ebb3f919a672231048bb9e", "bike_id": "0ad0cd3609ebb3f919a672231048bb9e", "fusion_lat": 0.0, "is_reserved": 0, "lat": 38.922244, "fusion_lon": 0.0, "is_disabled": 0}, {"rental_uris": {"android": "https://dc.lft.to/lastmile_qr_scan", "ios": "https://dc.lft.to/lastmile_qr_scan"}, "type": "electric_scooter", "lon": -76.95406466666667, "name": "2ada7a9fd13d5b1c61cb2c6f6f6e47cc", "bike_id": "2ada7a9fd13d5b1c61cb2c6f6f6e47cc", "fusion_lat": 0.0, "is_reserved": 0, "lat": 38.89157433333333, "fusion_lon": 0.0, "is_disabled": 0}, {"rental_uris": {"android": "https://dc.lft.to/lastmile_qr_scan", "ios": "https://dc.lft.to/lastmile_qr_scan"}, "type": "electric_scooter", "lon": -77.043859, "name": "ff36daceb9aabf9e3af83eebeb573093", "bike_id": "ff36daceb9aabf9e3af83eebeb573093", "fusion_lat": 0.0, "is_reserved": 0, "lat": 38.90659, "fusion_lon": 0.0, "is_disabled": 0}, {"rental_uris": {"android": "https://dc.lft.to/lastmile_qr_scan", "ios": "https://dc.lft.to/lastmile_qr_scan"}, "type": "electric_bike", "lon": -77.23304933333333, "name": "e9807bfad474691fc5f02a79cd9e35ef", "bike_id": "e9807bfad474691fc5f02a79cd9e35ef", "fusion_lat": 0.0, "is_reserved": 0, "lat": 38.9250895, "fusion_lon": 0.0, "is_disabled": 0}, {"rental_uris": {"android": "https://dc.lft.to/lastmile_qr_scan", "ios": "https://dc.lft.to/lastmile_qr_scan"}, "type": "electric_scooter", "lon": -77.04007, "name": "ffcbf80617b61a37322ee719f4688282", "bike_id": "ffcbf80617b61a37322ee719f4688282", "fusion_lat": 0.0, "is_reserved": 0, "lat": 38.913045333333336, "fusion_lon": 0.0, "is_disabled": 0}, {"rental_uris": {"android": "https://dc.lft.to/lastmile_qr_scan", "ios": "https://dc.lft.to/lastmile_qr_scan"}, "type": "electric_scooter", "lon": -77.07349316666667, "name": "348bea6bb8e1437c51bd2d161862a9d0", "bike_id": "348bea6bb8e1437c51bd2d161862a9d0", "fusion_lat": 0.0, "is_reserved": 0, "lat": 38.911036833333334, "fusion_lon": 0.0, "is_disabled": 0}, {"rental_uris": {"android": "https://dc.lft.to/lastmile_qr_scan", "ios": "https://dc.lft.to/lastmile_qr_scan"}, "type": "electric_bike", "lon": -76.916565, "name": "686f4bc0d704256395425befe11a9195", "bike_id": "686f4bc0d704256395425befe11a9195", "fusion_lat": 0.0, "is_reserved": 0, "lat": 38.8685505, "fusion_lon": 0.0, "is_disabled": 0}, {"rental_uris": {"android": "https://dc.lft.to/lastmile_qr_scan", "ios": "https://dc.lft.to/lastmile_qr_scan"}, "type": "electric_scooter", "lon": -77.04810766666667, "name": "9bdcbcefa68626c63238bd7c741cd9d9", "bike_id": "9bdcbcefa68626c63238bd7c741cd9d9", "fusion_lat": 0.0, "is_reserved": 0, "lat": 38.9110415, "fusion_lon": 0.0, "is_disabled": 0}, {"rental_uris": {"android": "https://dc.lft.to/lastmile_qr_scan", "ios": "https://dc.lft.to/lastmile_qr_scan"}, "type": "electric_scooter", "lon": -76.94245366666667, "name": "04bbeae1d9dc37c9989d154f5886bb6b", "bike_id": "04bbeae1d9dc37c9989d154f5886bb6b", "fusion_lat": 0.0, "is_reserved": 0, "lat": 38.896811166666666, "fusion_lon": 0.0, "is_disabled": 0}, {"rental_uris": {"android": "https://dc.lft.to/lastmile_qr_scan", "ios": "https://dc.lft.to/lastmile_qr_scan"}, "type": "electric_bike", "lon": -77.12264416666666, "name": "ebdc75e43d59ca6f27cd322278cdc69f", "bike_id": "ebdc75e43d59ca6f27cd322278cdc69f", "fusion_lat": 0.0, "is_reserved": 0, "lat": 38.897319, "fusion_lon": 0.0, "is_disabled": 0}, {"rental_uris": {"android": "https://dc.lft.to/lastmile_qr_scan", "ios": "https://dc.lft.to/lastmile_qr_scan"}, "type": "electric_scooter", "lon": -77.02572983333333, "name": "cecddfd340563024574e139f6ec8ce42", "bike_id": "cecddfd340563024574e139f6ec8ce42", "fusion_lat": 0.0, "is_reserved": 0, "lat": 38.92504133333333, "fusion_lon": 0.0, "is_disabled": 0}, {"rental_uris": {"android": "https://dc.lft.to/lastmile_qr_scan", "ios": "https://dc.lft.to/lastmile_qr_scan"}, "type": "electric_scooter", "lon": -77.06075816666667, "name": "bc206a5ce1b4f504e82eff623ce6e962", "bike_id": "bc206a5ce1b4f504e82eff623ce6e962", "fusion_lat": 0.0, "is_reserved": 0, "lat": 38.90528483333333, "fusion_lon": 0.0, "is_disabled": 0}, {"rental_uris": {"android": "https://dc.lft.to/lastmile_qr_scan", "ios": "https://dc.lft.to/lastmile_qr_scan"}, "type": "electric_scooter", "lon": -77.02504666666667, "name": "2e78bd434d76ca3d44488ed5511c9853", "bike_id": "2e78bd434d76ca3d44488ed5511c9853", "fusion_lat": 0.0, "is_reserved": 0, "lat": 38.941944, "fusion_lon": 0.0, "is_disabled": 0}, {"rental_uris": {"android": "https://dc.lft.to/lastmile_qr_scan", "ios": "https://dc.lft.to/lastmile_qr_scan"}, "type": "electric_scooter", "lon": -77.04017966666666, "name": "7527456e37e582b28cb9c1dbf4ac0d90", "bike_id": "7527456e37e582b28cb9c1dbf4ac0d90", "fusion_lat": 0.0, "is_reserved": 0, "lat": 38.918402666666665, "fusion_lon": 0.0, "is_disabled": 0}, {"rental_uris": {"android": "https://dc.lft.to/lastmile_qr_scan", "ios": "https://dc.lft.to/lastmile_qr_scan"}, "type": "electric_scooter", "lon": -77.0276015, "name": "3df9a79bf99f573f8ec1beed92a10065", "bike_id": "3df9a79bf99f573f8ec1beed92a10065", "fusion_lat": 0.0, "is_reserved": 0, "lat": 38.953968, "fusion_lon": 0.0, "is_disabled": 0}, {"rental_uris": {"android": "https://dc.lft.to/lastmile_qr_scan", "ios": "https://dc.lft.to/lastmile_qr_scan"}, "type": "electric_bike", "lon": -77.02905816666667, "name": "1bf5cb15b3dc1222f9fd348e0c0f460f", "bike_id": "1bf5cb15b3dc1222f9fd348e0c0f460f", "fusion_lat": 0.0, "is_reserved": 0, "lat": 38.891973, "fusion_lon": 0.0, "is_disabled": 0}, {"rental_uris": {"android": "https://dc.lft.to/lastmile_qr_scan", "ios": "https://dc.lft.to/lastmile_qr_scan"}, "type": "electric_scooter", "lon": -77.03214133333333, "name": "3fce7eafa29b64828861f4bd54981399", "bike_id": "3fce7eafa29b64828861f4bd54981399", "fusion_lat": 0.0, "is_reserved": 0, "lat": 38.918635, "fusion_lon": 0.0, "is_disabled": 0}, {"rental_uris": {"android": "https://dc.lft.to/lastmile_qr_scan", "ios": "https://dc.lft.to/lastmile_qr_scan"}, "type": "electric_scooter", "lon": -77.00479766666666, "name": "e57a7234378fdf47ce689a859a51e0a5", "bike_id": "e57a7234378fdf47ce689a859a51e0a5", "fusion_lat": 0.0, "is_reserved": 0, "lat": 38.92587366666667, "fusion_lon": 0.0, "is_disabled": 0}, {"rental_uris": {"android": "https://dc.lft.to/lastmile_qr_scan", "ios": "https://dc.lft.to/lastmile_qr_scan"}, "type": "electric_scooter", "lon": -76.982644, "name": "144818c9738bb740d8a3e03564e6f18d", "bike_id": "144818c9738bb740d8a3e03564e6f18d", "fusion_lat": 0.0, "is_reserved": 0, "lat": 38.863544166666664, "fusion_lon": 0.0, "is_disabled": 0}, {"rental_uris": {"android": "https://dc.lft.to/lastmile_qr_scan", "ios": "https://dc.lft.to/lastmile_qr_scan"}, "type": "electric_scooter", "lon": -76.97618616666666, "name": "22e8b9b62cafdc69583e8cd7c7ac4184", "bike_id": "22e8b9b62cafdc69583e8cd7c7ac4184", "fusion_lat": 0.0, "is_reserved": 0, "lat": 38.93141216666667, "fusion_lon": 0.0, "is_disabled": 0}, {"rental_uris": {"android": "https://dc.lft.to/lastmile_qr_scan", "ios": "https://dc.lft.to/lastmile_qr_scan"}, "type": "electric_bike", "lon": -76.98878366666666, "name": "3c6df5feb7ea47d18a8d49ebad70e64c", "bike_id": "3c6df5feb7ea47d18a8d49ebad70e64c", "fusion_lat": 0.0, "is_reserved": 0, "lat": 38.92113633333334, "fusion_lon": 0.0, "is_disabled": 0}, {"rental_uris": {"android": "https://dc.lft.to/lastmile_qr_scan", "ios": "https://dc.lft.to/lastmile_qr_scan"}, "type": "electric_scooter", "lon": -77.002248, "name": "911830c721d685c0656473019cb0f04d", "bike_id": "911830c721d685c0656473019cb0f04d", "fusion_lat": 0.0, "is_reserved": 0, "lat": 38.903016, "fusion_lon": 0.0, "is_disabled": 0}, {"rental_uris": {"android": "https://dc.lft.to/lastmile_qr_scan", "ios": "https://dc.lft.to/lastmile_qr_scan"}, "type": "electric_bike", "lon": -76.95467266666667, "name": "0223e9a43db607df7a686b3da7bb4c16", "bike_id": "0223e9a43db607df7a686b3da7bb4c16", "fusion_lat": 0.0, "is_reserved": 0, "lat": 38.93570783333333, "fusion_lon": 0.0, "is_disabled": 0}, {"rental_uris": {"android": "https://dc.lft.to/lastmile_qr_scan", "ios": "https://dc.lft.to/lastmile_qr_scan"}, "type": "electric_scooter", "lon": -77.00821033333334, "name": "9890d8db9ba961cfc8ead530706c1aa5", "bike_id": "9890d8db9ba961cfc8ead530706c1aa5", "fusion_lat": 0.0, "is_reserved": 0, "lat": 38.8761955, "fusion_lon": 0.0, "is_disabled": 0}, {"rental_uris": {"android": "https://dc.lft.to/lastmile_qr_scan", "ios": "https://dc.lft.to/lastmile_qr_scan"}, "type": "electric_scooter", "lon": -76.97732116666667, "name": "c0e06a5e8527c519ecfaeb8a9aa30ab1", "bike_id": "c0e06a5e8527c519ecfaeb8a9aa30ab1", "fusion_lat": 0.0, "is_reserved": 0, "lat": 38.87287666666667, "fusion_lon": 0.0, "is_disabled": 0}, {"rental_uris": {"android": "https://dc.lft.to/lastmile_qr_scan", "ios": "https://dc.lft.to/lastmile_qr_scan"}, "type": "electric_scooter", "lon": -77.05522566666667, "name": "51499b1ae2ebb51e8c48d84506757923", "bike_id": "51499b1ae2ebb51e8c48d84506757923", "fusion_lat": 0.0, "is_reserved": 0, "lat": 38.92966033333333, "fusion_lon": 0.0, "is_disabled": 0}, {"rental_uris": {"android": "https://dc.lft.to/lastmile_qr_scan", "ios": "https://dc.lft.to/lastmile_qr_scan"}, "type": "electric_scooter", "lon": -76.98471416666666, "name": "69e148905b5092f1c02a663eb92d93bf", "bike_id": "69e148905b5092f1c02a663eb92d93bf", "fusion_lat": 0.0, "is_reserved": 0, "lat": 38.928906833333336, "fusion_lon": 0.0, "is_disabled": 0}, {"rental_uris": {"android": "https://dc.lft.to/lastmile_qr_scan", "ios": "https://dc.lft.to/lastmile_qr_scan"}, "type": "electric_scooter", "lon": -77.0306735, "name": "237d5506e0cf1300fce917af49000738", "bike_id": "237d5506e0cf1300fce917af49000738", "fusion_lat": 0.0, "is_reserved": 0, "lat": 38.880455, "fusion_lon": 0.0, "is_disabled": 0}, {"rental_uris": {"android": "https://dc.lft.to/lastmile_qr_scan", "ios": "https://dc.lft.to/lastmile_qr_scan"}, "type": "electric_bike", "lon": -77.13186516666667, "name": "4d21716abdce0c7807fb462593fccdf3", "bike_id": "4d21716abdce0c7807fb462593fccdf3", "fusion_lat": 0.0, "is_reserved": 0, "lat": 38.869082166666665, "fusion_lon": 0.0, "is_disabled": 0}, {"rental_uris": {"android": "https://dc.lft.to/lastmile_qr_scan", "ios": "https://dc.lft.to/lastmile_qr_scan"}, "type": "electric_bike", "lon": -76.99761033333333, "name": "2b9445173957ddf43f4125e4e1ce660f", "bike_id": "2b9445173957ddf43f4125e4e1ce660f", "fusion_lat": 0.0, "is_reserved": 0, "lat": 39.00590066666667, "fusion_lon": 0.0, "is_disabled": 0}, {"rental_uris": {"android": "https://dc.lft.to/lastmile_qr_scan", "ios": "https://dc.lft.to/lastmile_qr_scan"}, "type": "electric_scooter", "lon": -77.04677566666666, "name": "52b996abc896ac6d98183482367131a9", "bike_id": "52b996abc896ac6d98183482367131a9", "fusion_lat": 0.0, "is_reserved": 0, "lat": 38.91570733333333, "fusion_lon": 0.0, "is_disabled": 0}, {"rental_uris": {"android": "https://dc.lft.to/lastmile_qr_scan", "ios": "https://dc.lft.to/lastmile_qr_scan"}, "type": "electric_scooter", "lon": -76.9294855, "name": "a9ca516b014b7eddb9732b82cdea835b", "bike_id": "a9ca516b014b7eddb9732b82cdea835b", "fusion_lat": 0.0, "is_reserved": 0, "lat": 38.898800333333334, "fusion_lon": 0.0, "is_disabled": 0}, {"rental_uris": {"android": "https://dc.lft.to/lastmile_qr_scan", "ios": "https://dc.lft.to/lastmile_qr_scan"}, "type": "electric_scooter", "lon": -76.99138216666667, "name": "d55f16334e63c5553984a6fd97136c35", "bike_id": "d55f16334e63c5553984a6fd97136c35", "fusion_lat": 0.0, "is_reserved": 0, "lat": 38.879067666666664, "fusion_lon": 0.0, "is_disabled": 0}, {"rental_uris": {"android": "https://dc.lft.to/lastmile_qr_scan", "ios": "https://dc.lft.to/lastmile_qr_scan"}, "type": "electric_scooter", "lon": -77.00074733333334, "name": "cf213a89cdb9145e45e3da03ae9c4627", "bike_id": "cf213a89cdb9145e45e3da03ae9c4627", "fusion_lat": 0.0, "is_reserved": 0, "lat": 38.8972745, "fusion_lon": 0.0, "is_disabled": 0}, {"rental_uris": {"android": "https://dc.lft.to/lastmile_qr_scan", "ios": "https://dc.lft.to/lastmile_qr_scan"}, "type": "electric_scooter", "lon": -77.04989933333333, "name": "ac8dc4efadfd53cc0f3a2566a85ccdc6", "bike_id": "ac8dc4efadfd53cc0f3a2566a85ccdc6", "fusion_lat": 0.0, "is_reserved": 0, "lat": 38.900710333333336, "fusion_lon": 0.0, "is_disabled": 0}, {"rental_uris": {"android": "https://dc.lft.to/lastmile_qr_scan", "ios": "https://dc.lft.to/lastmile_qr_scan"}, "type": "electric_scooter", "lon": -77.03854933333334, "name": "67ddae7f1caa38d2e04e58255a05ff72", "bike_id": "67ddae7f1caa38d2e04e58255a05ff72", "fusion_lat": 0.0, "is_reserved": 0, "lat": 38.915465, "fusion_lon": 0.0, "is_disabled": 0}, {"rental_uris": {"android": "https://dc.lft.to/lastmile_qr_scan", "ios": "https://dc.lft.to/lastmile_qr_scan"}, "type": "electric_scooter", "lon": -77.03416933333334, "name": "f1d33e2538b7111b9eeb2b422e9ab7d3", "bike_id": "f1d33e2538b7111b9eeb2b422e9ab7d3", "fusion_lat": 0.0, "is_reserved": 0, "lat": 38.929407499999996, "fusion_lon": 0.0, "is_disabled": 0}, {"rental_uris": {"android": "https://dc.lft.to/lastmile_qr_scan", "ios": "https://dc.lft.to/lastmile_qr_scan"}, "type": "electric_scooter", "lon": -77.01210266666666, "name": "060b1a828fb92214993e691d6d7ff921", "bike_id": "060b1a828fb92214993e691d6d7ff921", "fusion_lat": 0.0, "is_reserved": 0, "lat": 38.893293666666665, "fusion_lon": 0.0, "is_disabled": 0}, {"rental_uris": {"android": "https://dc.lft.to/lastmile_qr_scan", "ios": "https://dc.lft.to/lastmile_qr_scan"}, "type": "electric_scooter", "lon": -77.03661516666666, "name": "648ff2fc573730a404993436e79fb505", "bike_id": "648ff2fc573730a404993436e79fb505", "fusion_lat": 0.0, "is_reserved": 0, "lat": 38.921075333333334, "fusion_lon": 0.0, "is_disabled": 0}, {"rental_uris": {"android": "https://dc.lft.to/lastmile_qr_scan", "ios": "https://dc.lft.to/lastmile_qr_scan"}, "type": "electric_bike", "lon": -76.99734833333333, "name": "cd5a5e14f14e5f37c5de8d7e2247a99f", "bike_id": "cd5a5e14f14e5f37c5de8d7e2247a99f", "fusion_lat": 0.0, "is_reserved": 0, "lat": 38.89090016666667, "fusion_lon": 0.0, "is_disabled": 0}, {"rental_uris": {"android": "https://dc.lft.to/lastmile_qr_scan", "ios": "https://dc.lft.to/lastmile_qr_scan"}, "type": "electric_scooter", "lon": -77.02573783333334, "name": "3f112b2ad043f9299ebdc03c98b75af1", "bike_id": "3f112b2ad043f9299ebdc03c98b75af1", "fusion_lat": 0.0, "is_reserved": 0, "lat": 38.89707033333333, "fusion_lon": 0.0, "is_disabled": 0}, {"rental_uris": {"android": "https://dc.lft.to/lastmile_qr_scan", "ios": "https://dc.lft.to/lastmile_qr_scan"}, "type": "electric_scooter", "lon": -77.03439233333333, "name": "03c846c8d268cc6a94375dbb272c93af", "bike_id": "03c846c8d268cc6a94375dbb272c93af", "fusion_lat": 0.0, "is_reserved": 0, "lat": 38.91802233333333, "fusion_lon": 0.0, "is_disabled": 0}, {"rental_uris": {"android": "https://dc.lft.to/lastmile_qr_scan", "ios": "https://dc.lft.to/lastmile_qr_scan"}, "type": "electric_scooter", "lon": -77.0347635, "name": "65088c1043a8796d4278565d88243d63", "bike_id": "65088c1043a8796d4278565d88243d63", "fusion_lat": 0.0, "is_reserved": 0, "lat": 38.9026405, "fusion_lon": 0.0, "is_disabled": 0}, {"rental_uris": {"android": "https://dc.lft.to/lastmile_qr_scan", "ios": "https://dc.lft.to/lastmile_qr_scan"}, "type": "electric_scooter", "lon": -76.99907716666667, "name": "6eda1702f86f001dc78db6fd212a813a", "bike_id": "6eda1702f86f001dc78db6fd212a813a", "fusion_lat": 0.0, "is_reserved": 0, "lat": 38.90025883333333, "fusion_lon": 0.0, "is_disabled": 0}, {"rental_uris": {"android": "https://dc.lft.to/lastmile_qr_scan", "ios": "https://dc.lft.to/lastmile_qr_scan"}, "type": "electric_scooter", "lon": -77.00880233333334, "name": "ba963400657465636436135fafad7d11", "bike_id": "ba963400657465636436135fafad7d11", "fusion_lat": 0.0, "is_reserved": 0, "lat": 38.87629183333333, "fusion_lon": 0.0, "is_disabled": 0}, {"rental_uris": {"android": "https://dc.lft.to/lastmile_qr_scan", "ios": "https://dc.lft.to/lastmile_qr_scan"}, "type": "electric_scooter", "lon": -77.0317605, "name": "024dd777507f657a9922d5916a396ef6", "bike_id": "024dd777507f657a9922d5916a396ef6", "fusion_lat": 0.0, "is_reserved": 0, "lat": 38.914199833333335, "fusion_lon": 0.0, "is_disabled": 0}, {"rental_uris": {"android": "https://dc.lft.to/lastmile_qr_scan", "ios": "https://dc.lft.to/lastmile_qr_scan"}, "type": "electric_scooter", "lon": -77.01206133333334, "name": "7621c4a5c04b9374e1580eba55d04eb0", "bike_id": "7621c4a5c04b9374e1580eba55d04eb0", "fusion_lat": 0.0, "is_reserved": 0, "lat": 38.871518333333334, "fusion_lon": 0.0, "is_disabled": 0}, {"rental_uris": {"android": "https://dc.lft.to/lastmile_qr_scan", "ios": "https://dc.lft.to/lastmile_qr_scan"}, "type": "electric_bike", "lon": -77.09560633333334, "name": "6ac5133d0a83adc35563c7c1c5b3fc90", "bike_id": "6ac5133d0a83adc35563c7c1c5b3fc90", "fusion_lat": 0.0, "is_reserved": 0, "lat": 38.985567, "fusion_lon": 0.0, "is_disabled": 0}, {"rental_uris": {"android": "https://dc.lft.to/lastmile_qr_scan", "ios": "https://dc.lft.to/lastmile_qr_scan"}, "type": "electric_scooter", "lon": -77.039092, "name": "290844ed5013c9d639da384629762624", "bike_id": "290844ed5013c9d639da384629762624", "fusion_lat": 0.0, "is_reserved": 0, "lat": 38.9247545, "fusion_lon": 0.0, "is_disabled": 0}, {"rental_uris": {"android": "https://dc.lft.to/lastmile_qr_scan", "ios": "https://dc.lft.to/lastmile_qr_scan"}, "type": "electric_scooter", "lon": -77.04220683333334, "name": "90d2d448c0ef474f032532039d42cc9e", "bike_id": "90d2d448c0ef474f032532039d42cc9e", "fusion_lat": 0.0, "is_reserved": 0, "lat": 38.9262865, "fusion_lon": 0.0, "is_disabled": 0}, {"rental_uris": {"android": "https://dc.lft.to/lastmile_qr_scan", "ios": "https://dc.lft.to/lastmile_qr_scan"}, "type": "electric_scooter", "lon": -77.04964216666667, "name": "68829d4e2baed6fe4b00e218631d8ca7", "bike_id": "68829d4e2baed6fe4b00e218631d8ca7", "fusion_lat": 0.0, "is_reserved": 0, "lat": 38.912555166666664, "fusion_lon": 0.0, "is_disabled": 0}, {"rental_uris": {"android": "https://dc.lft.to/lastmile_qr_scan", "ios": "https://dc.lft.to/lastmile_qr_scan"}, "type": "electric_scooter", "lon": -77.023439, "name": "4199edd7a96f8669f93ab40283ec23db", "bike_id": "4199edd7a96f8669f93ab40283ec23db", "fusion_lat": 0.0, "is_reserved": 0, "lat": 38.92968483333333, "fusion_lon": 0.0, "is_disabled": 0}, {"rental_uris": {"android": "https://dc.lft.to/lastmile_qr_scan", "ios": "https://dc.lft.to/lastmile_qr_scan"}, "type": "electric_scooter", "lon": -76.98778416666667, "name": "3e6dd265846c675c02ce3db322df36b4", "bike_id": "3e6dd265846c675c02ce3db322df36b4", "fusion_lat": 0.0, "is_reserved": 0, "lat": 38.90027516666667, "fusion_lon": 0.0, "is_disabled": 0}, {"rental_uris": {"android": "https://dc.lft.to/lastmile_qr_scan", "ios": "https://dc.lft.to/lastmile_qr_scan"}, "type": "electric_scooter", "lon": -77.02984183333334, "name": "d7b824b0c4ba39935c377dd42a584acb", "bike_id": "d7b824b0c4ba39935c377dd42a584acb", "fusion_lat": 0.0, "is_reserved": 0, "lat": 38.937522333333334, "fusion_lon": 0.0, "is_disabled": 0}, {"rental_uris": {"android": "https://dc.lft.to/lastmile_qr_scan", "ios": "https://dc.lft.to/lastmile_qr_scan"}, "type": "electric_scooter", "lon": -77.07269266666667, "name": "0f4f89e793419803b2dd9bb500e26e44", "bike_id": "0f4f89e793419803b2dd9bb500e26e44", "fusion_lat": 0.0, "is_reserved": 0, "lat": 38.93482616666667, "fusion_lon": 0.0, "is_disabled": 0}, {"rental_uris": {"android": "https://dc.lft.to/lastmile_qr_scan", "ios": "https://dc.lft.to/lastmile_qr_scan"}, "type": "electric_bike", "lon": -76.92337466666666, "name": "8235e096859abdbe4d5f8a79341b4c73", "bike_id": "8235e096859abdbe4d5f8a79341b4c73", "fusion_lat": 0.0, "is_reserved": 0, "lat": 38.887924166666664, "fusion_lon": 0.0, "is_disabled": 0}, {"rental_uris": {"android": "https://dc.lft.to/lastmile_qr_scan", "ios": "https://dc.lft.to/lastmile_qr_scan"}, "type": "electric_scooter", "lon": -76.99026283333333, "name": "4ea36b5f3fad2924fb8389a64f5edd87", "bike_id": "4ea36b5f3fad2924fb8389a64f5edd87", "fusion_lat": 0.0, "is_reserved": 0, "lat": 38.86406733333333, "fusion_lon": 0.0, "is_disabled": 0}, {"rental_uris": {"android": "https://dc.lft.to/lastmile_qr_scan", "ios": "https://dc.lft.to/lastmile_qr_scan"}, "type": "electric_bike", "lon": -77.02980516666666, "name": "0c70769e04e43148ce84b3fb03e7e2a8", "bike_id": "0c70769e04e43148ce84b3fb03e7e2a8", "fusion_lat": 0.0, "is_reserved": 0, "lat": 38.93700166666667, "fusion_lon": 0.0, "is_disabled": 0}, {"rental_uris": {"android": "https://dc.lft.to/lastmile_qr_scan", "ios": "https://dc.lft.to/lastmile_qr_scan"}, "type": "electric_scooter", "lon": -77.03511466666667, "name": "0f9a702fd12c9d82905c95b390407c4d", "bike_id": "0f9a702fd12c9d82905c95b390407c4d", "fusion_lat": 0.0, "is_reserved": 0, "lat": 38.921444666666666, "fusion_lon": 0.0, "is_disabled": 0}, {"rental_uris": {"android": "https://dc.lft.to/lastmile_qr_scan", "ios": "https://dc.lft.to/lastmile_qr_scan"}, "type": "electric_scooter", "lon": -77.03517533333333, "name": "d0c7c4d7545403722f621d27828d3ec7", "bike_id": "d0c7c4d7545403722f621d27828d3ec7", "fusion_lat": 0.0, "is_reserved": 0, "lat": 38.923362, "fusion_lon": 0.0, "is_disabled": 0}, {"rental_uris": {"android": "https://dc.lft.to/lastmile_qr_scan", "ios": "https://dc.lft.to/lastmile_qr_scan"}, "type": "electric_scooter", "lon": -77.02412116666666, "name": "858babe831edf3ad699913f568596d68", "bike_id": "858babe831edf3ad699913f568596d68", "fusion_lat": 0.0, "is_reserved": 0, "lat": 38.9208555, "fusion_lon": 0.0, "is_disabled": 0}, {"rental_uris": {"android": "https://dc.lft.to/lastmile_qr_scan", "ios": "https://dc.lft.to/lastmile_qr_scan"}, "type": "electric_scooter", "lon": -77.04169166666667, "name": "8d578ac0270af395e699912443752839", "bike_id": "8d578ac0270af395e699912443752839", "fusion_lat": 0.0, "is_reserved": 0, "lat": 38.915871333333335, "fusion_lon": 0.0, "is_disabled": 0}, {"rental_uris": {"android": "https://dc.lft.to/lastmile_qr_scan", "ios": "https://dc.lft.to/lastmile_qr_scan"}, "type": "electric_scooter", "lon": -76.97461683333333, "name": "9d906beddb1391c3b0e086935c142ae2", "bike_id": "9d906beddb1391c3b0e086935c142ae2", "fusion_lat": 0.0, "is_reserved": 0, "lat": 38.88397916666667, "fusion_lon": 0.0, "is_disabled": 0}, {"rental_uris": {"android": "https://dc.lft.to/lastmile_qr_scan", "ios": "https://dc.lft.to/lastmile_qr_scan"}, "type": "electric_scooter", "lon": -77.02697316666666, "name": "409285091d0beee3fccfe991469d98ca", "bike_id": "409285091d0beee3fccfe991469d98ca", "fusion_lat": 0.0, "is_reserved": 0, "lat": 38.90843433333333, "fusion_lon": 0.0, "is_disabled": 0}, {"rental_uris": {"android": "https://dc.lft.to/lastmile_qr_scan", "ios": "https://dc.lft.to/lastmile_qr_scan"}, "type": "electric_scooter", "lon": -77.03442416666667, "name": "10b2e76d7a1699baa52d0bbd5e165761", "bike_id": "10b2e76d7a1699baa52d0bbd5e165761", "fusion_lat": 0.0, "is_reserved": 0, "lat": 38.902612833333336, "fusion_lon": 0.0, "is_disabled": 0}, {"rental_uris": {"android": "https://dc.lft.to/lastmile_qr_scan", "ios": "https://dc.lft.to/lastmile_qr_scan"}, "type": "electric_scooter", "lon": -76.94724083333334, "name": "b9f3dd3ee6281b9bc6838f460a4379c6", "bike_id": "b9f3dd3ee6281b9bc6838f460a4379c6", "fusion_lat": 0.0, "is_reserved": 0, "lat": 38.89734583333333, "fusion_lon": 0.0, "is_disabled": 0}, {"rental_uris": {"android": "https://dc.lft.to/lastmile_qr_scan", "ios": "https://dc.lft.to/lastmile_qr_scan"}, "type": "electric_scooter", "lon": -77.04183483333334, "name": "dcbc2a0b1564cb491a5f5a65d860c2ac", "bike_id": "dcbc2a0b1564cb491a5f5a65d860c2ac", "fusion_lat": 0.0, "is_reserved": 0, "lat": 38.920510666666665, "fusion_lon": 0.0, "is_disabled": 0}, {"rental_uris": {"android": "https://dc.lft.to/lastmile_qr_scan", "ios": "https://dc.lft.to/lastmile_qr_scan"}, "type": "electric_scooter", "lon": -77.00191883333333, "name": "329d014c129e6389ee956060cd26c883", "bike_id": "329d014c129e6389ee956060cd26c883", "fusion_lat": 0.0, "is_reserved": 0, "lat": 38.90024366666667, "fusion_lon": 0.0, "is_disabled": 0}, {"rental_uris": {"android": "https://dc.lft.to/lastmile_qr_scan", "ios": "https://dc.lft.to/lastmile_qr_scan"}, "type": "electric_bike", "lon": -77.06982983333333, "name": "8cb944fdc84fb789170b48f753d08389", "bike_id": "8cb944fdc84fb789170b48f753d08389", "fusion_lat": 0.0, "is_reserved": 0, "lat": 38.9526885, "fusion_lon": 0.0, "is_disabled": 0}, {"rental_uris": {"android": "https://dc.lft.to/lastmile_qr_scan", "ios": "https://dc.lft.to/lastmile_qr_scan"}, "type": "electric_scooter", "lon": -77.01622566666667, "name": "350516097c3c01ef9370e475844252fd", "bike_id": "350516097c3c01ef9370e475844252fd", "fusion_lat": 0.0, "is_reserved": 0, "lat": 38.899642, "fusion_lon": 0.0, "is_disabled": 0}, {"rental_uris": {"android": "https://dc.lft.to/lastmile_qr_scan", "ios": "https://dc.lft.to/lastmile_qr_scan"}, "type": "electric_scooter", "lon": -77.04198916666667, "name": "6fba714771ae5214f65668502b4b8dce", "bike_id": "6fba714771ae5214f65668502b4b8dce", "fusion_lat": 0.0, "is_reserved": 0, "lat": 38.89221766666667, "fusion_lon": 0.0, "is_disabled": 0}, {"rental_uris": {"android": "https://dc.lft.to/lastmile_qr_scan", "ios": "https://dc.lft.to/lastmile_qr_scan"}, "type": "electric_scooter", "lon": -77.00149833333333, "name": "30dd2a36639d8d7fd991a276e3618532", "bike_id": "30dd2a36639d8d7fd991a276e3618532", "fusion_lat": 0.0, "is_reserved": 0, "lat": 38.900238, "fusion_lon": 0.0, "is_disabled": 0}, {"rental_uris": {"android": "https://dc.lft.to/lastmile_qr_scan", "ios": "https://dc.lft.to/lastmile_qr_scan"}, "type": "electric_scooter", "lon": -77.02704966666667, "name": "0ae81391be7a0b6d4f8c65aa3c4c56cf", "bike_id": "0ae81391be7a0b6d4f8c65aa3c4c56cf", "fusion_lat": 0.0, "is_reserved": 0, "lat": 38.92777916666667, "fusion_lon": 0.0, "is_disabled": 0}, {"rental_uris": {"android": "https://dc.lft.to/lastmile_qr_scan", "ios": "https://dc.lft.to/lastmile_qr_scan"}, "type": "electric_scooter", "lon": -76.99033916666667, "name": "908382e315ef2b3646b16438b44e85c7", "bike_id": "908382e315ef2b3646b16438b44e85c7", "fusion_lat": 0.0, "is_reserved": 0, "lat": 38.89850666666667, "fusion_lon": 0.0, "is_disabled": 0}, {"rental_uris": {"android": "https://dc.lft.to/lastmile_qr_scan", "ios": "https://dc.lft.to/lastmile_qr_scan"}, "type": "electric_scooter", "lon": -77.00599133333333, "name": "f13c829229f798f0128a6435f33baf83", "bike_id": "f13c829229f798f0128a6435f33baf83", "fusion_lat": 0.0, "is_reserved": 0, "lat": 38.905612166666664, "fusion_lon": 0.0, "is_disabled": 0}, {"rental_uris": {"android": "https://dc.lft.to/lastmile_qr_scan", "ios": "https://dc.lft.to/lastmile_qr_scan"}, "type": "electric_scooter", "lon": -77.041575, "name": "d0e850930cd4217daefe9c988777ac82", "bike_id": "d0e850930cd4217daefe9c988777ac82", "fusion_lat": 0.0, "is_reserved": 0, "lat": 38.914186, "fusion_lon": 0.0, "is_disabled": 0}, {"rental_uris": {"android": "https://dc.lft.to/lastmile_qr_scan", "ios": "https://dc.lft.to/lastmile_qr_scan"}, "type": "electric_scooter", "lon": -77.04228083333334, "name": "ae8b702e2f321f278a20e7ba0df6e4cd", "bike_id": "ae8b702e2f321f278a20e7ba0df6e4cd", "fusion_lat": 0.0, "is_reserved": 0, "lat": 38.911079666666666, "fusion_lon": 0.0, "is_disabled": 0}, {"rental_uris": {"android": "https://dc.lft.to/lastmile_qr_scan", "ios": "https://dc.lft.to/lastmile_qr_scan"}, "type": "electric_scooter", "lon": -76.9745305, "name": "15274daea97f5e5d18bcd1d6fec88667", "bike_id": "15274daea97f5e5d18bcd1d6fec88667", "fusion_lat": 0.0, "is_reserved": 0, "lat": 38.86369583333333, "fusion_lon": 0.0, "is_disabled": 0}, {"rental_uris": {"android": "https://dc.lft.to/lastmile_qr_scan", "ios": "https://dc.lft.to/lastmile_qr_scan"}, "type": "electric_scooter", "lon": -77.03658316666667, "name": "97d87af159a2cadc865d03c0b193df1c", "bike_id": "97d87af159a2cadc865d03c0b193df1c", "fusion_lat": 0.0, "is_reserved": 0, "lat": 38.91865716666667, "fusion_lon": 0.0, "is_disabled": 0}, {"rental_uris": {"android": "https://dc.lft.to/lastmile_qr_scan", "ios": "https://dc.lft.to/lastmile_qr_scan"}, "type": "electric_scooter", "lon": -76.96428866666666, "name": "e6c4a47af37232f3c89f9538b14b5135", "bike_id": "e6c4a47af37232f3c89f9538b14b5135", "fusion_lat": 0.0, "is_reserved": 0, "lat": 38.9344315, "fusion_lon": 0.0, "is_disabled": 0}, {"rental_uris": {"android": "https://dc.lft.to/lastmile_qr_scan", "ios": "https://dc.lft.to/lastmile_qr_scan"}, "type": "electric_scooter", "lon": -77.03442616666666, "name": "c271987ecfc16936fcd36612fd6f8c63", "bike_id": "c271987ecfc16936fcd36612fd6f8c63", "fusion_lat": 0.0, "is_reserved": 0, "lat": 38.9180255, "fusion_lon": 0.0, "is_disabled": 0}, {"rental_uris": {"android": "https://dc.lft.to/lastmile_qr_scan", "ios": "https://dc.lft.to/lastmile_qr_scan"}, "type": "electric_scooter", "lon": -77.04465516666667, "name": "088ef348d1e32d9713621d4c27a59a58", "bike_id": "088ef348d1e32d9713621d4c27a59a58", "fusion_lat": 0.0, "is_reserved": 0, "lat": 38.918822666666664, "fusion_lon": 0.0, "is_disabled": 0}, {"rental_uris": {"android": "https://dc.lft.to/lastmile_qr_scan", "ios": "https://dc.lft.to/lastmile_qr_scan"}, "type": "electric_scooter", "lon": -77.02704283333334, "name": "9ab62bbdf293d0e3247bedda2089cb90", "bike_id": "9ab62bbdf293d0e3247bedda2089cb90", "fusion_lat": 0.0, "is_reserved": 0, "lat": 38.91818216666667, "fusion_lon": 0.0, "is_disabled": 0}, {"rental_uris": {"android": "https://dc.lft.to/lastmile_qr_scan", "ios": "https://dc.lft.to/lastmile_qr_scan"}, "type": "electric_scooter", "lon": -77.03484283333333, "name": "7d7fc2bbfd5a5ccf66ef287d3ac9280e", "bike_id": "7d7fc2bbfd5a5ccf66ef287d3ac9280e", "fusion_lat": 0.0, "is_reserved": 0, "lat": 38.90328316666667, "fusion_lon": 0.0, "is_disabled": 0}, {"rental_uris": {"android": "https://dc.lft.to/lastmile_qr_scan", "ios": "https://dc.lft.to/lastmile_qr_scan"}, "type": "electric_scooter", "lon": -77.02340916666667, "name": "9431353374b2c190dcdd207349113f54", "bike_id": "9431353374b2c190dcdd207349113f54", "fusion_lat": 0.0, "is_reserved": 0, "lat": 38.962054333333334, "fusion_lon": 0.0, "is_disabled": 0}, {"rental_uris": {"android": "https://dc.lft.to/lastmile_qr_scan", "ios": "https://dc.lft.to/lastmile_qr_scan"}, "type": "electric_scooter", "lon": -77.045657, "name": "035cfd022a3017d8a0d8341657937196", "bike_id": "035cfd022a3017d8a0d8341657937196", "fusion_lat": 0.0, "is_reserved": 0, "lat": 38.91940833333334, "fusion_lon": 0.0, "is_disabled": 0}, {"rental_uris": {"android": "https://dc.lft.to/lastmile_qr_scan", "ios": "https://dc.lft.to/lastmile_qr_scan"}, "type": "electric_scooter", "lon": -76.9948555, "name": "4203149062b277686dd5d2c7cf48ff8e", "bike_id": "4203149062b277686dd5d2c7cf48ff8e", "fusion_lat": 0.0, "is_reserved": 0, "lat": 38.877367, "fusion_lon": 0.0, "is_disabled": 0}, {"rental_uris": {"android": "https://dc.lft.to/lastmile_qr_scan", "ios": "https://dc.lft.to/lastmile_qr_scan"}, "type": "electric_scooter", "lon": -76.989924, "name": "715aeaa026fe3d239651b6b0655beb7d", "bike_id": "715aeaa026fe3d239651b6b0655beb7d", "fusion_lat": 0.0, "is_reserved": 0, "lat": 38.864386833333334, "fusion_lon": 0.0, "is_disabled": 0}, {"rental_uris": {"android": "https://dc.lft.to/lastmile_qr_scan", "ios": "https://dc.lft.to/lastmile_qr_scan"}, "type": "electric_scooter", "lon": -76.94635183333334, "name": "782979489bfe6c38687b36b7ab9c32fc", "bike_id": "782979489bfe6c38687b36b7ab9c32fc", "fusion_lat": 0.0, "is_reserved": 0, "lat": 38.89841166666667, "fusion_lon": 0.0, "is_disabled": 0}, {"rental_uris": {"android": "https://dc.lft.to/lastmile_qr_scan", "ios": "https://dc.lft.to/lastmile_qr_scan"}, "type": "electric_scooter", "lon": -77.02155316666666, "name": "2d0b41e00ce43210b775da79602aaf41", "bike_id": "2d0b41e00ce43210b775da79602aaf41", "fusion_lat": 0.0, "is_reserved": 0, "lat": 38.884735, "fusion_lon": 0.0, "is_disabled": 0}, {"rental_uris": {"android": "https://dc.lft.to/lastmile_qr_scan", "ios": "https://dc.lft.to/lastmile_qr_scan"}, "type": "electric_scooter", "lon": -77.02353666666667, "name": "e0afa39c9c8dd8a024876b792d8bf76d", "bike_id": "e0afa39c9c8dd8a024876b792d8bf76d", "fusion_lat": 0.0, "is_reserved": 0, "lat": 38.89220133333333, "fusion_lon": 0.0, "is_disabled": 0}, {"rental_uris": {"android": "https://dc.lft.to/lastmile_qr_scan", "ios": "https://dc.lft.to/lastmile_qr_scan"}, "type": "electric_scooter", "lon": -77.04166683333334, "name": "1db0cd51276bf3a47ee9df56c7d91f9c", "bike_id": "1db0cd51276bf3a47ee9df56c7d91f9c", "fusion_lat": 0.0, "is_reserved": 0, "lat": 38.91346933333333, "fusion_lon": 0.0, "is_disabled": 0}, {"rental_uris": {"android": "https://dc.lft.to/lastmile_qr_scan", "ios": "https://dc.lft.to/lastmile_qr_scan"}, "type": "electric_scooter", "lon": -77.03678033333334, "name": "f7d6a5b1fc5113d0f2a5052fcba8f3cc", "bike_id": "f7d6a5b1fc5113d0f2a5052fcba8f3cc", "fusion_lat": 0.0, "is_reserved": 0, "lat": 38.936487666666665, "fusion_lon": 0.0, "is_disabled": 0}, {"rental_uris": {"android": "https://dc.lft.to/lastmile_qr_scan", "ios": "https://dc.lft.to/lastmile_qr_scan"}, "type": "electric_bike", "lon": -77.10993066666667, "name": "7df1a33235a1a665fca2c1f6b38da870", "bike_id": "7df1a33235a1a665fca2c1f6b38da870", "fusion_lat": 0.0, "is_reserved": 0, "lat": 38.87050833333333, "fusion_lon": 0.0, "is_disabled": 0}, {"rental_uris": {"android": "https://dc.lft.to/lastmile_qr_scan", "ios": "https://dc.lft.to/lastmile_qr_scan"}, "type": "electric_scooter", "lon": -77.01927066666667, "name": "701b75d5c00d0282669c90744f7412fc", "bike_id": "701b75d5c00d0282669c90744f7412fc", "fusion_lat": 0.0, "is_reserved": 0, "lat": 38.935730166666666, "fusion_lon": 0.0, "is_disabled": 0}, {"rental_uris": {"android": "https://dc.lft.to/lastmile_qr_scan", "ios": "https://dc.lft.to/lastmile_qr_scan"}, "type": "electric_scooter", "lon": -77.005792, "name": "01ac705e49fdd83c4d8e4d93761a085d", "bike_id": "01ac705e49fdd83c4d8e4d93761a085d", "fusion_lat": 0.0, "is_reserved": 0, "lat": 38.87836433333333, "fusion_lon": 0.0, "is_disabled": 0}, {"rental_uris": {"android": "https://dc.lft.to/lastmile_qr_scan", "ios": "https://dc.lft.to/lastmile_qr_scan"}, "type": "electric_scooter", "lon": -77.02536366666666, "name": "d9537671180ca04867c91a92215f84bf", "bike_id": "d9537671180ca04867c91a92215f84bf", "fusion_lat": 0.0, "is_reserved": 0, "lat": 38.9018795, "fusion_lon": 0.0, "is_disabled": 0}, {"rental_uris": {"android": "https://dc.lft.to/lastmile_qr_scan", "ios": "https://dc.lft.to/lastmile_qr_scan"}, "type": "electric_scooter", "lon": -77.02497116666666, "name": "f3f6478805409f1bbe4125591c25d188", "bike_id": "f3f6478805409f1bbe4125591c25d188", "fusion_lat": 0.0, "is_reserved": 0, "lat": 38.932829, "fusion_lon": 0.0, "is_disabled": 0}, {"rental_uris": {"android": "https://dc.lft.to/lastmile_qr_scan", "ios": "https://dc.lft.to/lastmile_qr_scan"}, "type": "electric_scooter", "lon": -77.02713533333333, "name": "605f03e529a627eb4cd0701d5f0213cf", "bike_id": "605f03e529a627eb4cd0701d5f0213cf", "fusion_lat": 0.0, "is_reserved": 0, "lat": 38.90450583333333, "fusion_lon": 0.0, "is_disabled": 0}, {"rental_uris": {"android": "https://dc.lft.to/lastmile_qr_scan", "ios": "https://dc.lft.to/lastmile_qr_scan"}, "type": "electric_scooter", "lon": -76.97824966666667, "name": "8a977e6992aa1d5a140df35fb7f3a68c", "bike_id": "8a977e6992aa1d5a140df35fb7f3a68c", "fusion_lat": 0.0, "is_reserved": 0, "lat": 38.896018833333336, "fusion_lon": 0.0, "is_disabled": 0}, {"rental_uris": {"android": "https://dc.lft.to/lastmile_qr_scan", "ios": "https://dc.lft.to/lastmile_qr_scan"}, "type": "electric_scooter", "lon": -77.02299633333334, "name": "c4abcf10bc1f28c5a58da8848fe8676f", "bike_id": "c4abcf10bc1f28c5a58da8848fe8676f", "fusion_lat": 0.0, "is_reserved": 0, "lat": 38.917936833333336, "fusion_lon": 0.0, "is_disabled": 0}, {"rental_uris": {"android": "https://dc.lft.to/lastmile_qr_scan", "ios": "https://dc.lft.to/lastmile_qr_scan"}, "type": "electric_scooter", "lon": -77.0329255, "name": "5a97f7a7221db82dd46c5d4da6879677", "bike_id": "5a97f7a7221db82dd46c5d4da6879677", "fusion_lat": 0.0, "is_reserved": 0, "lat": 38.9565235, "fusion_lon": 0.0, "is_disabled": 0}, {"rental_uris": {"android": "https://dc.lft.to/lastmile_qr_scan", "ios": "https://dc.lft.to/lastmile_qr_scan"}, "type": "electric_bike", "lon": -77.12737766666666, "name": "c4dbcf173ec1725a5e860555c3155971", "bike_id": "c4dbcf173ec1725a5e860555c3155971", "fusion_lat": 0.0, "is_reserved": 0, "lat": 38.89565983333333, "fusion_lon": 0.0, "is_disabled": 0}, {"rental_uris": {"android": "https://dc.lft.to/lastmile_qr_scan", "ios": "https://dc.lft.to/lastmile_qr_scan"}, "type": "electric_scooter", "lon": -77.0400135, "name": "54ef543e2daa66af5ec5ccc6b2b1831d", "bike_id": "54ef543e2daa66af5ec5ccc6b2b1831d", "fusion_lat": 0.0, "is_reserved": 0, "lat": 38.91803083333333, "fusion_lon": 0.0, "is_disabled": 0}, {"rental_uris": {"android": "https://dc.lft.to/lastmile_qr_scan", "ios": "https://dc.lft.to/lastmile_qr_scan"}, "type": "electric_scooter", "lon": -77.01011266666667, "name": "7f57d44312abbad057e12415777713d6", "bike_id": "7f57d44312abbad057e12415777713d6", "fusion_lat": 0.0, "is_reserved": 0, "lat": 38.86712633333333, "fusion_lon": 0.0, "is_disabled": 0}, {"rental_uris": {"android": "https://dc.lft.to/lastmile_qr_scan", "ios": "https://dc.lft.to/lastmile_qr_scan"}, "type": "electric_scooter", "lon": -77.03982066666667, "name": "c7f4666547d138698786a9c53eb7e91a", "bike_id": "c7f4666547d138698786a9c53eb7e91a", "fusion_lat": 0.0, "is_reserved": 0, "lat": 38.916274333333334, "fusion_lon": 0.0, "is_disabled": 0}, {"rental_uris": {"android": "https://dc.lft.to/lastmile_qr_scan", "ios": "https://dc.lft.to/lastmile_qr_scan"}, "type": "electric_scooter", "lon": -77.036438, "name": "55f966581010a8a42ae4f0c80d5baf50", "bike_id": "55f966581010a8a42ae4f0c80d5baf50", "fusion_lat": 0.0, "is_reserved": 0, "lat": 38.9177265, "fusion_lon": 0.0, "is_disabled": 0}, {"rental_uris": {"android": "https://dc.lft.to/lastmile_qr_scan", "ios": "https://dc.lft.to/lastmile_qr_scan"}, "type": "electric_scooter", "lon": -76.99880966666667, "name": "47bc011957b915fd9dd52e73228ea955", "bike_id": "47bc011957b915fd9dd52e73228ea955", "fusion_lat": 0.0, "is_reserved": 0, "lat": 38.92056766666666, "fusion_lon": 0.0, "is_disabled": 0}, {"rental_uris": {"android": "https://dc.lft.to/lastmile_qr_scan", "ios": "https://dc.lft.to/lastmile_qr_scan"}, "type": "electric_scooter", "lon": -77.05002583333334, "name": "beb70606292775211e3eb39d5619208c", "bike_id": "beb70606292775211e3eb39d5619208c", "fusion_lat": 0.0, "is_reserved": 0, "lat": 38.9042415, "fusion_lon": 0.0, "is_disabled": 0}, {"rental_uris": {"android": "https://dc.lft.to/lastmile_qr_scan", "ios": "https://dc.lft.to/lastmile_qr_scan"}, "type": "electric_scooter", "lon": -76.99364116666666, "name": "f8d3fa1a4167e9d664dbd392a9f5388f", "bike_id": "f8d3fa1a4167e9d664dbd392a9f5388f", "fusion_lat": 0.0, "is_reserved": 0, "lat": 38.90051033333334, "fusion_lon": 0.0, "is_disabled": 0}, {"rental_uris": {"android": "https://dc.lft.to/lastmile_qr_scan", "ios": "https://dc.lft.to/lastmile_qr_scan"}, "type": "electric_scooter", "lon": -76.98845733333333, "name": "18e12c1013b25bc447d164a0190a34b3", "bike_id": "18e12c1013b25bc447d164a0190a34b3", "fusion_lat": 0.0, "is_reserved": 0, "lat": 38.903429333333335, "fusion_lon": 0.0, "is_disabled": 0}, {"rental_uris": {"android": "https://dc.lft.to/lastmile_qr_scan", "ios": "https://dc.lft.to/lastmile_qr_scan"}, "type": "electric_scooter", "lon": -77.02772283333333, "name": "58956edfb7eefd5b86d049b5966d46bd", "bike_id": "58956edfb7eefd5b86d049b5966d46bd", "fusion_lat": 0.0, "is_reserved": 0, "lat": 38.8922185, "fusion_lon": 0.0, "is_disabled": 0}, {"rental_uris": {"android": "https://dc.lft.to/lastmile_qr_scan", "ios": "https://dc.lft.to/lastmile_qr_scan"}, "type": "electric_scooter", "lon": -77.06029, "name": "fa65de61b224715992d20549a8d51e9d", "bike_id": "fa65de61b224715992d20549a8d51e9d", "fusion_lat": 0.0, "is_reserved": 0, "lat": 38.939405, "fusion_lon": 0.0, "is_disabled": 0}, {"rental_uris": {"android": "https://dc.lft.to/lastmile_qr_scan", "ios": "https://dc.lft.to/lastmile_qr_scan"}, "type": "electric_scooter", "lon": -77.05082533333334, "name": "ee7d11e709f1539420ccb91fbb7600be", "bike_id": "ee7d11e709f1539420ccb91fbb7600be", "fusion_lat": 0.0, "is_reserved": 0, "lat": 38.924488833333335, "fusion_lon": 0.0, "is_disabled": 0}, {"rental_uris": {"android": "https://dc.lft.to/lastmile_qr_scan", "ios": "https://dc.lft.to/lastmile_qr_scan"}, "type": "electric_scooter", "lon": -77.02312616666667, "name": "0635d06f4c8b7fe480a88b06c24cd553", "bike_id": "0635d06f4c8b7fe480a88b06c24cd553", "fusion_lat": 0.0, "is_reserved": 0, "lat": 38.908958166666665, "fusion_lon": 0.0, "is_disabled": 0}, {"rental_uris": {"android": "https://dc.lft.to/lastmile_qr_scan", "ios": "https://dc.lft.to/lastmile_qr_scan"}, "type": "electric_scooter", "lon": -77.05147216666667, "name": "a30629505dd6d181b8b6f1554851422c", "bike_id": "a30629505dd6d181b8b6f1554851422c", "fusion_lat": 0.0, "is_reserved": 0, "lat": 38.90442133333333, "fusion_lon": 0.0, "is_disabled": 0}, {"rental_uris": {"android": "https://dc.lft.to/lastmile_qr_scan", "ios": "https://dc.lft.to/lastmile_qr_scan"}, "type": "electric_scooter", "lon": -77.02935716666667, "name": "2ae52eaefa14f8719c4193217f582495", "bike_id": "2ae52eaefa14f8719c4193217f582495", "fusion_lat": 0.0, "is_reserved": 0, "lat": 38.91705783333333, "fusion_lon": 0.0, "is_disabled": 0}, {"rental_uris": {"android": "https://dc.lft.to/lastmile_qr_scan", "ios": "https://dc.lft.to/lastmile_qr_scan"}, "type": "electric_scooter", "lon": -77.02983566666667, "name": "abcc26471911b74b5008284a717e353e", "bike_id": "abcc26471911b74b5008284a717e353e", "fusion_lat": 0.0, "is_reserved": 0, "lat": 38.90729666666667, "fusion_lon": 0.0, "is_disabled": 0}, {"rental_uris": {"android": "https://dc.lft.to/lastmile_qr_scan", "ios": "https://dc.lft.to/lastmile_qr_scan"}, "type": "electric_scooter", "lon": -77.0424375, "name": "9ee63c68b2cfd37c1976951d852a607e", "bike_id": "9ee63c68b2cfd37c1976951d852a607e", "fusion_lat": 0.0, "is_reserved": 0, "lat": 38.9454865, "fusion_lon": 0.0, "is_disabled": 0}, {"rental_uris": {"android": "https://dc.lft.to/lastmile_qr_scan", "ios": "https://dc.lft.to/lastmile_qr_scan"}, "type": "electric_scooter", "lon": -77.03871666666667, "name": "7661ab817b406e0b22143b0c8fa29f90", "bike_id": "7661ab817b406e0b22143b0c8fa29f90", "fusion_lat": 0.0, "is_reserved": 0, "lat": 38.912661666666665, "fusion_lon": 0.0, "is_disabled": 0}, {"rental_uris": {"android": "https://dc.lft.to/lastmile_qr_scan", "ios": "https://dc.lft.to/lastmile_qr_scan"}, "type": "electric_scooter", "lon": -77.063939, "name": "fa3d3209d32fe90c7e3ce5a80264fb01", "bike_id": "fa3d3209d32fe90c7e3ce5a80264fb01", "fusion_lat": 0.0, "is_reserved": 0, "lat": 38.92905316666667, "fusion_lon": 0.0, "is_disabled": 0}, {"rental_uris": {"android": "https://dc.lft.to/lastmile_qr_scan", "ios": "https://dc.lft.to/lastmile_qr_scan"}, "type": "electric_scooter", "lon": -77.00142416666667, "name": "8b1606742b1b555202aba5671715ee9f", "bike_id": "8b1606742b1b555202aba5671715ee9f", "fusion_lat": 0.0, "is_reserved": 0, "lat": 38.9000815, "fusion_lon": 0.0, "is_disabled": 0}, {"rental_uris": {"android": "https://dc.lft.to/lastmile_qr_scan", "ios": "https://dc.lft.to/lastmile_qr_scan"}, "type": "electric_scooter", "lon": -77.02392533333334, "name": "37c8c3edc15d65c598807a28f037ee58", "bike_id": "37c8c3edc15d65c598807a28f037ee58", "fusion_lat": 0.0, "is_reserved": 0, "lat": 38.92070366666667, "fusion_lon": 0.0, "is_disabled": 0}, {"rental_uris": {"android": "https://dc.lft.to/lastmile_qr_scan", "ios": "https://dc.lft.to/lastmile_qr_scan"}, "type": "electric_scooter", "lon": -76.941202, "name": "8a7a125e78479a00a0c999472c7c6938", "bike_id": "8a7a125e78479a00a0c999472c7c6938", "fusion_lat": 0.0, "is_reserved": 0, "lat": 38.907953166666665, "fusion_lon": 0.0, "is_disabled": 0}, {"rental_uris": {"android": "https://dc.lft.to/lastmile_qr_scan", "ios": "https://dc.lft.to/lastmile_qr_scan"}, "type": "electric_scooter", "lon": -77.02803833333333, "name": "582c1e858b33410fa176c8d3c2692f2e", "bike_id": "582c1e858b33410fa176c8d3c2692f2e", "fusion_lat": 0.0, "is_reserved": 0, "lat": 38.919536, "fusion_lon": 0.0, "is_disabled": 0}, {"rental_uris": {"android": "https://dc.lft.to/lastmile_qr_scan", "ios": "https://dc.lft.to/lastmile_qr_scan"}, "type": "electric_scooter", "lon": -77.0321075, "name": "d3079ba68a50bfbd49a5be231f090765", "bike_id": "d3079ba68a50bfbd49a5be231f090765", "fusion_lat": 0.0, "is_reserved": 0, "lat": 38.913416166666664, "fusion_lon": 0.0, "is_disabled": 0}, {"rental_uris": {"android": "https://dc.lft.to/lastmile_qr_scan", "ios": "https://dc.lft.to/lastmile_qr_scan"}, "type": "electric_scooter", "lon": -77.0073985, "name": "f96866fe6bffc511ca0baa8c017f97b2", "bike_id": "f96866fe6bffc511ca0baa8c017f97b2", "fusion_lat": 0.0, "is_reserved": 0, "lat": 38.879061166666666, "fusion_lon": 0.0, "is_disabled": 0}, {"rental_uris": {"android": "https://dc.lft.to/lastmile_qr_scan", "ios": "https://dc.lft.to/lastmile_qr_scan"}, "type": "electric_scooter", "lon": -77.04809633333333, "name": "cfb56e5d384a2f2340eb5b3837a4bb71", "bike_id": "cfb56e5d384a2f2340eb5b3837a4bb71", "fusion_lat": 0.0, "is_reserved": 0, "lat": 38.9191955, "fusion_lon": 0.0, "is_disabled": 0}, {"rental_uris": {"android": "https://dc.lft.to/lastmile_qr_scan", "ios": "https://dc.lft.to/lastmile_qr_scan"}, "type": "electric_scooter", "lon": -77.03872666666666, "name": "8af5ece6f6409426a68d5ee869160e03", "bike_id": "8af5ece6f6409426a68d5ee869160e03", "fusion_lat": 0.0, "is_reserved": 0, "lat": 38.909727333333336, "fusion_lon": 0.0, "is_disabled": 0}, {"rental_uris": {"android": "https://dc.lft.to/lastmile_qr_scan", "ios": "https://dc.lft.to/lastmile_qr_scan"}, "type": "electric_scooter", "lon": -77.02711716666667, "name": "f9d91f7e677d583b8cb57bca139f03e3", "bike_id": "f9d91f7e677d583b8cb57bca139f03e3", "fusion_lat": 0.0, "is_reserved": 0, "lat": 38.92465983333334, "fusion_lon": 0.0, "is_disabled": 0}, {"rental_uris": {"android": "https://dc.lft.to/lastmile_qr_scan", "ios": "https://dc.lft.to/lastmile_qr_scan"}, "type": "electric_scooter", "lon": -77.03042833333333, "name": "f2e9f06efd17ffb296ee4b7915e7b1b0", "bike_id": "f2e9f06efd17ffb296ee4b7915e7b1b0", "fusion_lat": 0.0, "is_reserved": 0, "lat": 38.884003, "fusion_lon": 0.0, "is_disabled": 0}, {"rental_uris": {"android": "https://dc.lft.to/lastmile_qr_scan", "ios": "https://dc.lft.to/lastmile_qr_scan"}, "type": "electric_scooter", "lon": -77.05460233333334, "name": "b722d7bcd46911f87a8cdc57977658c3", "bike_id": "b722d7bcd46911f87a8cdc57977658c3", "fusion_lat": 0.0, "is_reserved": 0, "lat": 38.929019, "fusion_lon": 0.0, "is_disabled": 0}, {"rental_uris": {"android": "https://dc.lft.to/lastmile_qr_scan", "ios": "https://dc.lft.to/lastmile_qr_scan"}, "type": "electric_scooter", "lon": -76.97180233333333, "name": "c68b98db3dde9542ecc53bbe4f916c59", "bike_id": "c68b98db3dde9542ecc53bbe4f916c59", "fusion_lat": 0.0, "is_reserved": 0, "lat": 38.91263516666667, "fusion_lon": 0.0, "is_disabled": 0}, {"rental_uris": {"android": "https://dc.lft.to/lastmile_qr_scan", "ios": "https://dc.lft.to/lastmile_qr_scan"}, "type": "electric_scooter", "lon": -77.0121065, "name": "f05be74915646cb3141811087786cf75", "bike_id": "f05be74915646cb3141811087786cf75", "fusion_lat": 0.0, "is_reserved": 0, "lat": 38.90836433333333, "fusion_lon": 0.0, "is_disabled": 0}, {"rental_uris": {"android": "https://dc.lft.to/lastmile_qr_scan", "ios": "https://dc.lft.to/lastmile_qr_scan"}, "type": "electric_bike", "lon": -77.152663, "name": "3fd443743f95ce4a5947b47cc62b1815", "bike_id": "3fd443743f95ce4a5947b47cc62b1815", "fusion_lat": 0.0, "is_reserved": 0, "lat": 39.1056495, "fusion_lon": 0.0, "is_disabled": 0}, {"rental_uris": {"android": "https://dc.lft.to/lastmile_qr_scan", "ios": "https://dc.lft.to/lastmile_qr_scan"}, "type": "electric_scooter", "lon": -77.03799666666667, "name": "be1fe3ed6e3c226a8e29651f3561b6f3", "bike_id": "be1fe3ed6e3c226a8e29651f3561b6f3", "fusion_lat": 0.0, "is_reserved": 0, "lat": 38.9301105, "fusion_lon": 0.0, "is_disabled": 0}, {"rental_uris": {"android": "https://dc.lft.to/lastmile_qr_scan", "ios": "https://dc.lft.to/lastmile_qr_scan"}, "type": "electric_scooter", "lon": -76.9650375, "name": "695980da5f1b1e9ab8a704a7b8b5a9db", "bike_id": "695980da5f1b1e9ab8a704a7b8b5a9db", "fusion_lat": 0.0, "is_reserved": 0, "lat": 38.876442833333336, "fusion_lon": 0.0, "is_disabled": 0}, {"rental_uris": {"android": "https://dc.lft.to/lastmile_qr_scan", "ios": "https://dc.lft.to/lastmile_qr_scan"}, "type": "electric_scooter", "lon": -76.98323816666667, "name": "653ab5f52ddf43a9dcae6d3960479534", "bike_id": "653ab5f52ddf43a9dcae6d3960479534", "fusion_lat": 0.0, "is_reserved": 0, "lat": 38.86172666666667, "fusion_lon": 0.0, "is_disabled": 0}, {"rental_uris": {"android": "https://dc.lft.to/lastmile_qr_scan", "ios": "https://dc.lft.to/lastmile_qr_scan"}, "type": "electric_bike", "lon": -76.96838816666667, "name": "cdd7859893c53f4b06a792c04fffdb5a", "bike_id": "cdd7859893c53f4b06a792c04fffdb5a", "fusion_lat": 0.0, "is_reserved": 0, "lat": 38.924448, "fusion_lon": 0.0, "is_disabled": 0}, {"rental_uris": {"android": "https://dc.lft.to/lastmile_qr_scan", "ios": "https://dc.lft.to/lastmile_qr_scan"}, "type": "electric_bike", "lon": -76.92996333333333, "name": "51407fb735f93d11232f7e3c17bbeb1e", "bike_id": "51407fb735f93d11232f7e3c17bbeb1e", "fusion_lat": 0.0, "is_reserved": 0, "lat": 38.887989, "fusion_lon": 0.0, "is_disabled": 0}, {"rental_uris": {"android": "https://dc.lft.to/lastmile_qr_scan", "ios": "https://dc.lft.to/lastmile_qr_scan"}, "type": "electric_scooter", "lon": -77.04717316666667, "name": "7bb635a73ba174188c1c7bce28db6b18", "bike_id": "7bb635a73ba174188c1c7bce28db6b18", "fusion_lat": 0.0, "is_reserved": 0, "lat": 38.8996175, "fusion_lon": 0.0, "is_disabled": 0}, {"rental_uris": {"android": "https://dc.lft.to/lastmile_qr_scan", "ios": "https://dc.lft.to/lastmile_qr_scan"}, "type": "electric_scooter", "lon": -77.0726935, "name": "ae7d5c40980ae1567e285657a4756083", "bike_id": "ae7d5c40980ae1567e285657a4756083", "fusion_lat": 0.0, "is_reserved": 0, "lat": 38.9347975, "fusion_lon": 0.0, "is_disabled": 0}, {"rental_uris": {"android": "https://dc.lft.to/lastmile_qr_scan", "ios": "https://dc.lft.to/lastmile_qr_scan"}, "type": "electric_scooter", "lon": -77.07075033333334, "name": "7995e8b096270c4ec985751edc425604", "bike_id": "7995e8b096270c4ec985751edc425604", "fusion_lat": 0.0, "is_reserved": 0, "lat": 38.919357166666664, "fusion_lon": 0.0, "is_disabled": 0}, {"rental_uris": {"android": "https://dc.lft.to/lastmile_qr_scan", "ios": "https://dc.lft.to/lastmile_qr_scan"}, "type": "electric_bike", "lon": -76.96089316666666, "name": "6becee0288480301b45f1daa5708e19a", "bike_id": "6becee0288480301b45f1daa5708e19a", "fusion_lat": 0.0, "is_reserved": 0, "lat": 38.918591666666664, "fusion_lon": 0.0, "is_disabled": 0}, {"rental_uris": {"android": "https://dc.lft.to/lastmile_qr_scan", "ios": "https://dc.lft.to/lastmile_qr_scan"}, "type": "electric_scooter", "lon": -77.0261415, "name": "f61c136570273608734261e699216441", "bike_id": "f61c136570273608734261e699216441", "fusion_lat": 0.0, "is_reserved": 0, "lat": 38.91913183333333, "fusion_lon": 0.0, "is_disabled": 0}, {"rental_uris": {"android": "https://dc.lft.to/lastmile_qr_scan", "ios": "https://dc.lft.to/lastmile_qr_scan"}, "type": "electric_scooter", "lon": -77.0639895, "name": "872547ce3d667b593c47ec061d68a5eb", "bike_id": "872547ce3d667b593c47ec061d68a5eb", "fusion_lat": 0.0, "is_reserved": 0, "lat": 38.944142166666666, "fusion_lon": 0.0, "is_disabled": 0}, {"rental_uris": {"android": "https://dc.lft.to/lastmile_qr_scan", "ios": "https://dc.lft.to/lastmile_qr_scan"}, "type": "electric_bike", "lon": -77.06109633333334, "name": "f4a434841888e2ecc04336e2c15182ec", "bike_id": "f4a434841888e2ecc04336e2c15182ec", "fusion_lat": 0.0, "is_reserved": 0, "lat": 38.9451305, "fusion_lon": 0.0, "is_disabled": 0}, {"rental_uris": {"android": "https://dc.lft.to/lastmile_qr_scan", "ios": "https://dc.lft.to/lastmile_qr_scan"}, "type": "electric_scooter", "lon": -76.98890666666667, "name": "2ca8026ebabe072c4b145f0bd431e333", "bike_id": "2ca8026ebabe072c4b145f0bd431e333", "fusion_lat": 0.0, "is_reserved": 0, "lat": 38.86673016666667, "fusion_lon": 0.0, "is_disabled": 0}, {"rental_uris": {"android": "https://dc.lft.to/lastmile_qr_scan", "ios": "https://dc.lft.to/lastmile_qr_scan"}, "type": "electric_scooter", "lon": -76.94998766666667, "name": "dd4ebd179825afb823a3b69d0a25dd2b", "bike_id": "dd4ebd179825afb823a3b69d0a25dd2b", "fusion_lat": 0.0, "is_reserved": 0, "lat": 38.893894333333336, "fusion_lon": 0.0, "is_disabled": 0}, {"rental_uris": {"android": "https://dc.lft.to/lastmile_qr_scan", "ios": "https://dc.lft.to/lastmile_qr_scan"}, "type": "electric_scooter", "lon": -77.051462, "name": "058582abdd185a0d114cf961ef4f43f9", "bike_id": "058582abdd185a0d114cf961ef4f43f9", "fusion_lat": 0.0, "is_reserved": 0, "lat": 38.89662716666667, "fusion_lon": 0.0, "is_disabled": 0}, {"rental_uris": {"android": "https://dc.lft.to/lastmile_qr_scan", "ios": "https://dc.lft.to/lastmile_qr_scan"}, "type": "electric_scooter", "lon": -77.04989183333333, "name": "b98105d7192409d0d4809d71f79bfce9", "bike_id": "b98105d7192409d0d4809d71f79bfce9", "fusion_lat": 0.0, "is_reserved": 0, "lat": 38.901196166666665, "fusion_lon": 0.0, "is_disabled": 0}, {"rental_uris": {"android": "https://dc.lft.to/lastmile_qr_scan", "ios": "https://dc.lft.to/lastmile_qr_scan"}, "type": "electric_scooter", "lon": -77.019963, "name": "447ba11a559dc24679f2879072dc7810", "bike_id": "447ba11a559dc24679f2879072dc7810", "fusion_lat": 0.0, "is_reserved": 0, "lat": 38.9133125, "fusion_lon": 0.0, "is_disabled": 0}, {"rental_uris": {"android": "https://dc.lft.to/lastmile_qr_scan", "ios": "https://dc.lft.to/lastmile_qr_scan"}, "type": "electric_scooter", "lon": -77.023639, "name": "cf67f5e4dc5318ebd6bce50a9ed5e3f2", "bike_id": "cf67f5e4dc5318ebd6bce50a9ed5e3f2", "fusion_lat": 0.0, "is_reserved": 0, "lat": 38.90728516666667, "fusion_lon": 0.0, "is_disabled": 0}, {"rental_uris": {"android": "https://dc.lft.to/lastmile_qr_scan", "ios": "https://dc.lft.to/lastmile_qr_scan"}, "type": "electric_scooter", "lon": -77.0343675, "name": "03b2d7b06695225ca4cdc55eafbdabf4", "bike_id": "03b2d7b06695225ca4cdc55eafbdabf4", "fusion_lat": 0.0, "is_reserved": 0, "lat": 38.9042595, "fusion_lon": 0.0, "is_disabled": 0}, {"rental_uris": {"android": "https://dc.lft.to/lastmile_qr_scan", "ios": "https://dc.lft.to/lastmile_qr_scan"}, "type": "electric_scooter", "lon": -76.98216866666667, "name": "7b9e1d68671948177275487dd2abe50e", "bike_id": "7b9e1d68671948177275487dd2abe50e", "fusion_lat": 0.0, "is_reserved": 0, "lat": 38.901851666666666, "fusion_lon": 0.0, "is_disabled": 0}, {"rental_uris": {"android": "https://dc.lft.to/lastmile_qr_scan", "ios": "https://dc.lft.to/lastmile_qr_scan"}, "type": "electric_scooter", "lon": -77.03715316666667, "name": "b459b96566d1ea752db050374fe2eca2", "bike_id": "b459b96566d1ea752db050374fe2eca2", "fusion_lat": 0.0, "is_reserved": 0, "lat": 38.91546916666667, "fusion_lon": 0.0, "is_disabled": 0}, {"rental_uris": {"android": "https://dc.lft.to/lastmile_qr_scan", "ios": "https://dc.lft.to/lastmile_qr_scan"}, "type": "electric_bike", "lon": -77.06380816666666, "name": "3d943b8a595014a3ec84d1828de142a8", "bike_id": "3d943b8a595014a3ec84d1828de142a8", "fusion_lat": 0.0, "is_reserved": 0, "lat": 39.017287333333336, "fusion_lon": 0.0, "is_disabled": 0}, {"rental_uris": {"android": "https://dc.lft.to/lastmile_qr_scan", "ios": "https://dc.lft.to/lastmile_qr_scan"}, "type": "electric_scooter", "lon": -76.9343015, "name": "454c14f7ad533b372117e02f9ee100ec", "bike_id": "454c14f7ad533b372117e02f9ee100ec", "fusion_lat": 0.0, "is_reserved": 0, "lat": 38.899671, "fusion_lon": 0.0, "is_disabled": 0}, {"rental_uris": {"android": "https://dc.lft.to/lastmile_qr_scan", "ios": "https://dc.lft.to/lastmile_qr_scan"}, "type": "electric_scooter", "lon": -77.00217516666666, "name": "562170af4e6ae69c97e0fe34d94d74e1", "bike_id": "562170af4e6ae69c97e0fe34d94d74e1", "fusion_lat": 0.0, "is_reserved": 0, "lat": 38.908396833333335, "fusion_lon": 0.0, "is_disabled": 0}, {"rental_uris": {"android": "https://dc.lft.to/lastmile_qr_scan", "ios": "https://dc.lft.to/lastmile_qr_scan"}, "type": "electric_scooter", "lon": -77.002247, "name": "6524e1b869423937d1cca591451583d7", "bike_id": "6524e1b869423937d1cca591451583d7", "fusion_lat": 0.0, "is_reserved": 0, "lat": 38.957285166666665, "fusion_lon": 0.0, "is_disabled": 0}, {"rental_uris": {"android": "https://dc.lft.to/lastmile_qr_scan", "ios": "https://dc.lft.to/lastmile_qr_scan"}, "type": "electric_scooter", "lon": -77.01762266666667, "name": "5d8ed25ab17d2e87de0247aefc1b9079", "bike_id": "5d8ed25ab17d2e87de0247aefc1b9079", "fusion_lat": 0.0, "is_reserved": 0, "lat": 38.872879166666664, "fusion_lon": 0.0, "is_disabled": 0}, {"rental_uris": {"android": "https://dc.lft.to/lastmile_qr_scan", "ios": "https://dc.lft.to/lastmile_qr_scan"}, "type": "electric_scooter", "lon": -76.99001316666667, "name": "4d5a29b38ac95c48fea142220701ef80", "bike_id": "4d5a29b38ac95c48fea142220701ef80", "fusion_lat": 0.0, "is_reserved": 0, "lat": 38.8650375, "fusion_lon": 0.0, "is_disabled": 0}, {"rental_uris": {"android": "https://dc.lft.to/lastmile_qr_scan", "ios": "https://dc.lft.to/lastmile_qr_scan"}, "type": "electric_scooter", "lon": -77.01130583333334, "name": "2ac5e977ce62a58f7a08fe78087c4088", "bike_id": "2ac5e977ce62a58f7a08fe78087c4088", "fusion_lat": 0.0, "is_reserved": 0, "lat": 38.90728466666667, "fusion_lon": 0.0, "is_disabled": 0}, {"rental_uris": {"android": "https://dc.lft.to/lastmile_qr_scan", "ios": "https://dc.lft.to/lastmile_qr_scan"}, "type": "electric_scooter", "lon": -77.05144183333333, "name": "2c34b20be470070745d12a8cd7dfcbc8", "bike_id": "2c34b20be470070745d12a8cd7dfcbc8", "fusion_lat": 0.0, "is_reserved": 0, "lat": 38.9080135, "fusion_lon": 0.0, "is_disabled": 0}, {"rental_uris": {"android": "https://dc.lft.to/lastmile_qr_scan", "ios": "https://dc.lft.to/lastmile_qr_scan"}, "type": "electric_bike", "lon": -76.979071, "name": "ceead0aae3d0cd1953ad995ac3377711", "bike_id": "ceead0aae3d0cd1953ad995ac3377711", "fusion_lat": 0.0, "is_reserved": 0, "lat": 38.88831666666667, "fusion_lon": 0.0, "is_disabled": 0}, {"rental_uris": {"android": "https://dc.lft.to/lastmile_qr_scan", "ios": "https://dc.lft.to/lastmile_qr_scan"}, "type": "electric_scooter", "lon": -77.0528905, "name": "1a81018507621c8d46a754d5684e2aba", "bike_id": "1a81018507621c8d46a754d5684e2aba", "fusion_lat": 0.0, "is_reserved": 0, "lat": 38.927832, "fusion_lon": 0.0, "is_disabled": 0}, {"rental_uris": {"android": "https://dc.lft.to/lastmile_qr_scan", "ios": "https://dc.lft.to/lastmile_qr_scan"}, "type": "electric_scooter", "lon": -77.03906316666666, "name": "b19bca30a3ce81289b259787c9966b58", "bike_id": "b19bca30a3ce81289b259787c9966b58", "fusion_lat": 0.0, "is_reserved": 0, "lat": 38.9224755, "fusion_lon": 0.0, "is_disabled": 0}, {"rental_uris": {"android": "https://dc.lft.to/lastmile_qr_scan", "ios": "https://dc.lft.to/lastmile_qr_scan"}, "type": "electric_scooter", "lon": -77.0286675, "name": "1a38adc71c4b770161cd1ded73b92987", "bike_id": "1a38adc71c4b770161cd1ded73b92987", "fusion_lat": 0.0, "is_reserved": 0, "lat": 38.92223666666667, "fusion_lon": 0.0, "is_disabled": 0}, {"rental_uris": {"android": "https://dc.lft.to/lastmile_qr_scan", "ios": "https://dc.lft.to/lastmile_qr_scan"}, "type": "electric_scooter", "lon": -77.03262083333334, "name": "a5e5988be2413ec4c26a7ed561913ab0", "bike_id": "a5e5988be2413ec4c26a7ed561913ab0", "fusion_lat": 0.0, "is_reserved": 0, "lat": 38.936650666666665, "fusion_lon": 0.0, "is_disabled": 0}, {"rental_uris": {"android": "https://dc.lft.to/lastmile_qr_scan", "ios": "https://dc.lft.to/lastmile_qr_scan"}, "type": "electric_scooter", "lon": -76.94805566666666, "name": "e77f510f014a60412078ba41bd0f67c5", "bike_id": "e77f510f014a60412078ba41bd0f67c5", "fusion_lat": 0.0, "is_reserved": 0, "lat": 38.89345866666667, "fusion_lon": 0.0, "is_disabled": 0}, {"rental_uris": {"android": "https://dc.lft.to/lastmile_qr_scan", "ios": "https://dc.lft.to/lastmile_qr_scan"}, "type": "electric_scooter", "lon": -77.018346, "name": "c5329ca354296ba71e901d8399bf77a6", "bike_id": "c5329ca354296ba71e901d8399bf77a6", "fusion_lat": 0.0, "is_reserved": 0, "lat": 38.90959983333333, "fusion_lon": 0.0, "is_disabled": 0}, {"rental_uris": {"android": "https://dc.lft.to/lastmile_qr_scan", "ios": "https://dc.lft.to/lastmile_qr_scan"}, "type": "electric_scooter", "lon": -76.99606333333334, "name": "8f1b74ea78443591473ae2c9df754fa8", "bike_id": "8f1b74ea78443591473ae2c9df754fa8", "fusion_lat": 0.0, "is_reserved": 0, "lat": 38.8975295, "fusion_lon": 0.0, "is_disabled": 0}, {"rental_uris": {"android": "https://dc.lft.to/lastmile_qr_scan", "ios": "https://dc.lft.to/lastmile_qr_scan"}, "type": "electric_scooter", "lon": -77.02168916666666, "name": "b5618a8aa796e0f2fb981378cf5f746b", "bike_id": "b5618a8aa796e0f2fb981378cf5f746b", "fusion_lat": 0.0, "is_reserved": 0, "lat": 38.8874215, "fusion_lon": 0.0, "is_disabled": 0}, {"rental_uris": {"android": "https://dc.lft.to/lastmile_qr_scan", "ios": "https://dc.lft.to/lastmile_qr_scan"}, "type": "electric_scooter", "lon": -77.03844033333333, "name": "5d6788209cdc1bb139f4d9290dc3c260", "bike_id": "5d6788209cdc1bb139f4d9290dc3c260", "fusion_lat": 0.0, "is_reserved": 0, "lat": 38.9153955, "fusion_lon": 0.0, "is_disabled": 0}, {"rental_uris": {"android": "https://dc.lft.to/lastmile_qr_scan", "ios": "https://dc.lft.to/lastmile_qr_scan"}, "type": "electric_scooter", "lon": -77.02217833333333, "name": "b717b22781e7bdd229634e867816cac9", "bike_id": "b717b22781e7bdd229634e867816cac9", "fusion_lat": 0.0, "is_reserved": 0, "lat": 38.896270666666666, "fusion_lon": 0.0, "is_disabled": 0}, {"rental_uris": {"android": "https://dc.lft.to/lastmile_qr_scan", "ios": "https://dc.lft.to/lastmile_qr_scan"}, "type": "electric_scooter", "lon": -77.0308055, "name": "2d5e1ce1664e1a553af768b898bc3cf3", "bike_id": "2d5e1ce1664e1a553af768b898bc3cf3", "fusion_lat": 0.0, "is_reserved": 0, "lat": 38.927236, "fusion_lon": 0.0, "is_disabled": 0}, {"rental_uris": {"android": "https://dc.lft.to/lastmile_qr_scan", "ios": "https://dc.lft.to/lastmile_qr_scan"}, "type": "electric_bike", "lon": -77.005054, "name": "f36df2dd0e74ea956400e6b688e5843b", "bike_id": "f36df2dd0e74ea956400e6b688e5843b", "fusion_lat": 0.0, "is_reserved": 0, "lat": 38.875318, "fusion_lon": 0.0, "is_disabled": 0}, {"rental_uris": {"android": "https://dc.lft.to/lastmile_qr_scan", "ios": "https://dc.lft.to/lastmile_qr_scan"}, "type": "electric_scooter", "lon": -76.99680366666666, "name": "b80f01ee5fd3391aff76142902a74723", "bike_id": "b80f01ee5fd3391aff76142902a74723", "fusion_lat": 0.0, "is_reserved": 0, "lat": 38.88697633333334, "fusion_lon": 0.0, "is_disabled": 0}, {"rental_uris": {"android": "https://dc.lft.to/lastmile_qr_scan", "ios": "https://dc.lft.to/lastmile_qr_scan"}, "type": "electric_scooter", "lon": -77.02383333333333, "name": "8a6491a10fd641e2b37d88ae51fac73c", "bike_id": "8a6491a10fd641e2b37d88ae51fac73c", "fusion_lat": 0.0, "is_reserved": 0, "lat": 38.9071135, "fusion_lon": 0.0, "is_disabled": 0}, {"rental_uris": {"android": "https://dc.lft.to/lastmile_qr_scan", "ios": "https://dc.lft.to/lastmile_qr_scan"}, "type": "electric_scooter", "lon": -77.04321016666667, "name": "8e3989598023a72f6a7febfa31c6f3a3", "bike_id": "8e3989598023a72f6a7febfa31c6f3a3", "fusion_lat": 0.0, "is_reserved": 0, "lat": 38.892222333333336, "fusion_lon": 0.0, "is_disabled": 0}, {"rental_uris": {"android": "https://dc.lft.to/lastmile_qr_scan", "ios": "https://dc.lft.to/lastmile_qr_scan"}, "type": "electric_scooter", "lon": -77.03785533333334, "name": "ecb13cda428c74e06308d2b977152b2f", "bike_id": "ecb13cda428c74e06308d2b977152b2f", "fusion_lat": 0.0, "is_reserved": 0, "lat": 38.906905, "fusion_lon": 0.0, "is_disabled": 0}, {"rental_uris": {"android": "https://dc.lft.to/lastmile_qr_scan", "ios": "https://dc.lft.to/lastmile_qr_scan"}, "type": "electric_scooter", "lon": -77.06887083333334, "name": "5d3425bf5b641aefe7da220528187c22", "bike_id": "5d3425bf5b641aefe7da220528187c22", "fusion_lat": 0.0, "is_reserved": 0, "lat": 38.905135, "fusion_lon": 0.0, "is_disabled": 0}, {"rental_uris": {"android": "https://dc.lft.to/lastmile_qr_scan", "ios": "https://dc.lft.to/lastmile_qr_scan"}, "type": "electric_bike", "lon": -76.98748933333333, "name": "6ae762dd69cf72fcfbb0ce7ef0ba26b1", "bike_id": "6ae762dd69cf72fcfbb0ce7ef0ba26b1", "fusion_lat": 0.0, "is_reserved": 0, "lat": 38.988183666666664, "fusion_lon": 0.0, "is_disabled": 0}, {"rental_uris": {"android": "https://dc.lft.to/lastmile_qr_scan", "ios": "https://dc.lft.to/lastmile_qr_scan"}, "type": "electric_scooter", "lon": -76.99631083333334, "name": "4902d277dba30e9c57bc7c2903d690ba", "bike_id": "4902d277dba30e9c57bc7c2903d690ba", "fusion_lat": 0.0, "is_reserved": 0, "lat": 38.84619266666667, "fusion_lon": 0.0, "is_disabled": 0}, {"rental_uris": {"android": "https://dc.lft.to/lastmile_qr_scan", "ios": "https://dc.lft.to/lastmile_qr_scan"}, "type": "electric_scooter", "lon": -77.02286083333334, "name": "b71028ed56c473d1e682d9c3beeb6251", "bike_id": "b71028ed56c473d1e682d9c3beeb6251", "fusion_lat": 0.0, "is_reserved": 0, "lat": 38.917755666666665, "fusion_lon": 0.0, "is_disabled": 0}, {"rental_uris": {"android": "https://dc.lft.to/lastmile_qr_scan", "ios": "https://dc.lft.to/lastmile_qr_scan"}, "type": "electric_scooter", "lon": -77.0113675, "name": "b65f25aeb3c1cefa8f7e278796f781c5", "bike_id": "b65f25aeb3c1cefa8f7e278796f781c5", "fusion_lat": 0.0, "is_reserved": 0, "lat": 38.906405666666664, "fusion_lon": 0.0, "is_disabled": 0}, {"rental_uris": {"android": "https://dc.lft.to/lastmile_qr_scan", "ios": "https://dc.lft.to/lastmile_qr_scan"}, "type": "electric_scooter", "lon": -77.01947516666667, "name": "5962347d80ddefb9775a282b8b885e6f", "bike_id": "5962347d80ddefb9775a282b8b885e6f", "fusion_lat": 0.0, "is_reserved": 0, "lat": 38.924166166666666, "fusion_lon": 0.0, "is_disabled": 0}, {"rental_uris": {"android": "https://dc.lft.to/lastmile_qr_scan", "ios": "https://dc.lft.to/lastmile_qr_scan"}, "type": "electric_scooter", "lon": -76.9346645, "name": "7dc79902b2704d0af2528275192dc576", "bike_id": "7dc79902b2704d0af2528275192dc576", "fusion_lat": 0.0, "is_reserved": 0, "lat": 38.901860666666664, "fusion_lon": 0.0, "is_disabled": 0}, {"rental_uris": {"android": "https://dc.lft.to/lastmile_qr_scan", "ios": "https://dc.lft.to/lastmile_qr_scan"}, "type": "electric_scooter", "lon": -76.9977715, "name": "f67dbb8acd72814c93ef277096227954", "bike_id": "f67dbb8acd72814c93ef277096227954", "fusion_lat": 0.0, "is_reserved": 0, "lat": 38.844219833333334, "fusion_lon": 0.0, "is_disabled": 0}, {"rental_uris": {"android": "https://dc.lft.to/lastmile_qr_scan", "ios": "https://dc.lft.to/lastmile_qr_scan"}, "type": "electric_bike", "lon": -76.934538, "name": "f4616fda271fdb0d7b2a2f7063973fa3", "bike_id": "f4616fda271fdb0d7b2a2f7063973fa3", "fusion_lat": 0.0, "is_reserved": 0, "lat": 38.96975666666667, "fusion_lon": 0.0, "is_disabled": 0}, {"rental_uris": {"android": "https://dc.lft.to/lastmile_qr_scan", "ios": "https://dc.lft.to/lastmile_qr_scan"}, "type": "electric_scooter", "lon": -77.02811383333334, "name": "4d19382660e78b72fa0752e183b4c2fe", "bike_id": "4d19382660e78b72fa0752e183b4c2fe", "fusion_lat": 0.0, "is_reserved": 0, "lat": 38.8961095, "fusion_lon": 0.0, "is_disabled": 0}, {"rental_uris": {"android": "https://dc.lft.to/lastmile_qr_scan", "ios": "https://dc.lft.to/lastmile_qr_scan"}, "type": "electric_scooter", "lon": -77.04657616666667, "name": "fb4c2dea1bee69b04f8a4e5ec721eaae", "bike_id": "fb4c2dea1bee69b04f8a4e5ec721eaae", "fusion_lat": 0.0, "is_reserved": 0, "lat": 38.89238816666666, "fusion_lon": 0.0, "is_disabled": 0}, {"rental_uris": {"android": "https://dc.lft.to/lastmile_qr_scan", "ios": "https://dc.lft.to/lastmile_qr_scan"}, "type": "electric_scooter", "lon": -77.02681733333333, "name": "387357fbed77e24d20f688c7b7b647cc", "bike_id": "387357fbed77e24d20f688c7b7b647cc", "fusion_lat": 0.0, "is_reserved": 0, "lat": 38.909611, "fusion_lon": 0.0, "is_disabled": 0}, {"rental_uris": {"android": "https://dc.lft.to/lastmile_qr_scan", "ios": "https://dc.lft.to/lastmile_qr_scan"}, "type": "electric_scooter", "lon": -77.04604533333334, "name": "eef31c7607edef46019d253482448411", "bike_id": "eef31c7607edef46019d253482448411", "fusion_lat": 0.0, "is_reserved": 0, "lat": 38.9067155, "fusion_lon": 0.0, "is_disabled": 0}, {"rental_uris": {"android": "https://dc.lft.to/lastmile_qr_scan", "ios": "https://dc.lft.to/lastmile_qr_scan"}, "type": "electric_bike", "lon": -77.0287655, "name": "affd90ea01e8c68db443eeae388c86a8", "bike_id": "affd90ea01e8c68db443eeae388c86a8", "fusion_lat": 0.0, "is_reserved": 0, "lat": 38.979464666666665, "fusion_lon": 0.0, "is_disabled": 0}, {"rental_uris": {"android": "https://dc.lft.to/lastmile_qr_scan", "ios": "https://dc.lft.to/lastmile_qr_scan"}, "type": "electric_scooter", "lon": -76.94825766666666, "name": "364bc160dc1cc3817a62c2c84e8e2470", "bike_id": "364bc160dc1cc3817a62c2c84e8e2470", "fusion_lat": 0.0, "is_reserved": 0, "lat": 38.88514166666667, "fusion_lon": 0.0, "is_disabled": 0}, {"rental_uris": {"android": "https://dc.lft.to/lastmile_qr_scan", "ios": "https://dc.lft.to/lastmile_qr_scan"}, "type": "electric_scooter", "lon": -77.02415433333333, "name": "335a6482fefcff7dbbe8e932b2ff7188", "bike_id": "335a6482fefcff7dbbe8e932b2ff7188", "fusion_lat": 0.0, "is_reserved": 0, "lat": 38.95732666666667, "fusion_lon": 0.0, "is_disabled": 0}, {"rental_uris": {"android": "https://dc.lft.to/lastmile_qr_scan", "ios": "https://dc.lft.to/lastmile_qr_scan"}, "type": "electric_scooter", "lon": -77.01948866666666, "name": "3ddc36ed5bf64f1b0a632effb0f82ab1", "bike_id": "3ddc36ed5bf64f1b0a632effb0f82ab1", "fusion_lat": 0.0, "is_reserved": 0, "lat": 38.92251233333333, "fusion_lon": 0.0, "is_disabled": 0}, {"rental_uris": {"android": "https://dc.lft.to/lastmile_qr_scan", "ios": "https://dc.lft.to/lastmile_qr_scan"}, "type": "electric_scooter", "lon": -77.03846866666666, "name": "d6c6f10941f907e3daf2964bb6cb6d06", "bike_id": "d6c6f10941f907e3daf2964bb6cb6d06", "fusion_lat": 0.0, "is_reserved": 0, "lat": 38.91210933333333, "fusion_lon": 0.0, "is_disabled": 0}, {"rental_uris": {"android": "https://dc.lft.to/lastmile_qr_scan", "ios": "https://dc.lft.to/lastmile_qr_scan"}, "type": "electric_scooter", "lon": -77.02451433333333, "name": "d2e2f5a3bb21e4b50dff5661080a542b", "bike_id": "d2e2f5a3bb21e4b50dff5661080a542b", "fusion_lat": 0.0, "is_reserved": 0, "lat": 38.93852966666667, "fusion_lon": 0.0, "is_disabled": 0}, {"rental_uris": {"android": "https://dc.lft.to/lastmile_qr_scan", "ios": "https://dc.lft.to/lastmile_qr_scan"}, "type": "electric_scooter", "lon": -77.06282616666667, "name": "e83ce31da313653135393c6be9a518be", "bike_id": "e83ce31da313653135393c6be9a518be", "fusion_lat": 0.0, "is_reserved": 0, "lat": 38.90616983333334, "fusion_lon": 0.0, "is_disabled": 0}, {"rental_uris": {"android": "https://dc.lft.to/lastmile_qr_scan", "ios": "https://dc.lft.to/lastmile_qr_scan"}, "type": "electric_scooter", "lon": -77.041616, "name": "fdae23c9d95702c4808ef7696ec6ec66", "bike_id": "fdae23c9d95702c4808ef7696ec6ec66", "fusion_lat": 0.0, "is_reserved": 0, "lat": 38.89263183333333, "fusion_lon": 0.0, "is_disabled": 0}, {"rental_uris": {"android": "https://dc.lft.to/lastmile_qr_scan", "ios": "https://dc.lft.to/lastmile_qr_scan"}, "type": "electric_scooter", "lon": -77.02196366666666, "name": "57dfedb13cf07ddb1b378bd472333e6f", "bike_id": "57dfedb13cf07ddb1b378bd472333e6f", "fusion_lat": 0.0, "is_reserved": 0, "lat": 38.8950695, "fusion_lon": 0.0, "is_disabled": 0}, {"rental_uris": {"android": "https://dc.lft.to/lastmile_qr_scan", "ios": "https://dc.lft.to/lastmile_qr_scan"}, "type": "electric_scooter", "lon": -76.98602483333333, "name": "d1a28503847ee5c7f45b5c39b89199c0", "bike_id": "d1a28503847ee5c7f45b5c39b89199c0", "fusion_lat": 0.0, "is_reserved": 0, "lat": 38.90010633333333, "fusion_lon": 0.0, "is_disabled": 0}, {"rental_uris": {"android": "https://dc.lft.to/lastmile_qr_scan", "ios": "https://dc.lft.to/lastmile_qr_scan"}, "type": "electric_scooter", "lon": -77.03199233333333, "name": "39424c5e8c232bf353c4f7edd7c31ac2", "bike_id": "39424c5e8c232bf353c4f7edd7c31ac2", "fusion_lat": 0.0, "is_reserved": 0, "lat": 38.92102, "fusion_lon": 0.0, "is_disabled": 0}, {"rental_uris": {"android": "https://dc.lft.to/lastmile_qr_scan", "ios": "https://dc.lft.to/lastmile_qr_scan"}, "type": "electric_scooter", "lon": -77.03857916666666, "name": "fc10f07f99224fc67fd683c2d7f75e9b", "bike_id": "fc10f07f99224fc67fd683c2d7f75e9b", "fusion_lat": 0.0, "is_reserved": 0, "lat": 38.917154, "fusion_lon": 0.0, "is_disabled": 0}, {"rental_uris": {"android": "https://dc.lft.to/lastmile_qr_scan", "ios": "https://dc.lft.to/lastmile_qr_scan"}, "type": "electric_scooter", "lon": -77.02947016666667, "name": "bb1cb71dd75dfbff90aa80ce485f82c2", "bike_id": "bb1cb71dd75dfbff90aa80ce485f82c2", "fusion_lat": 0.0, "is_reserved": 0, "lat": 38.904931166666664, "fusion_lon": 0.0, "is_disabled": 0}, {"rental_uris": {"android": "https://dc.lft.to/lastmile_qr_scan", "ios": "https://dc.lft.to/lastmile_qr_scan"}, "type": "electric_scooter", "lon": -76.99018983333333, "name": "29637fa52cb7cace1b86ddff60750b4d", "bike_id": "29637fa52cb7cace1b86ddff60750b4d", "fusion_lat": 0.0, "is_reserved": 0, "lat": 38.85867483333333, "fusion_lon": 0.0, "is_disabled": 0}, {"rental_uris": {"android": "https://dc.lft.to/lastmile_qr_scan", "ios": "https://dc.lft.to/lastmile_qr_scan"}, "type": "electric_scooter", "lon": -77.0610865, "name": "9d9ddb0128732717b00a7bac6c30451d", "bike_id": "9d9ddb0128732717b00a7bac6c30451d", "fusion_lat": 0.0, "is_reserved": 0, "lat": 38.943179666666666, "fusion_lon": 0.0, "is_disabled": 0}, {"rental_uris": {"android": "https://dc.lft.to/lastmile_qr_scan", "ios": "https://dc.lft.to/lastmile_qr_scan"}, "type": "electric_scooter", "lon": -77.03903533333333, "name": "b9441bf2de3ecd2988f3245e120ba4f5", "bike_id": "b9441bf2de3ecd2988f3245e120ba4f5", "fusion_lat": 0.0, "is_reserved": 0, "lat": 38.914173166666664, "fusion_lon": 0.0, "is_disabled": 0}, {"rental_uris": {"android": "https://dc.lft.to/lastmile_qr_scan", "ios": "https://dc.lft.to/lastmile_qr_scan"}, "type": "electric_scooter", "lon": -76.937519, "name": "2fdd286bfea78688b34c7b2076afe6dd", "bike_id": "2fdd286bfea78688b34c7b2076afe6dd", "fusion_lat": 0.0, "is_reserved": 0, "lat": 38.8904805, "fusion_lon": 0.0, "is_disabled": 0}, {"rental_uris": {"android": "https://dc.lft.to/lastmile_qr_scan", "ios": "https://dc.lft.to/lastmile_qr_scan"}, "type": "electric_scooter", "lon": -76.99763183333333, "name": "fd4c811044ddeff61c50d015f65aa535", "bike_id": "fd4c811044ddeff61c50d015f65aa535", "fusion_lat": 0.0, "is_reserved": 0, "lat": 38.921920166666666, "fusion_lon": 0.0, "is_disabled": 0}, {"rental_uris": {"android": "https://dc.lft.to/lastmile_qr_scan", "ios": "https://dc.lft.to/lastmile_qr_scan"}, "type": "electric_scooter", "lon": -77.03200433333333, "name": "2d6e027552e96860b7533a7b3d4e6fc8", "bike_id": "2d6e027552e96860b7533a7b3d4e6fc8", "fusion_lat": 0.0, "is_reserved": 0, "lat": 38.90750933333333, "fusion_lon": 0.0, "is_disabled": 0}, {"rental_uris": {"android": "https://dc.lft.to/lastmile_qr_scan", "ios": "https://dc.lft.to/lastmile_qr_scan"}, "type": "electric_scooter", "lon": -77.0319985, "name": "5dadbe48a9e9ee1beaedecc61b4e5b80", "bike_id": "5dadbe48a9e9ee1beaedecc61b4e5b80", "fusion_lat": 0.0, "is_reserved": 0, "lat": 38.90764333333333, "fusion_lon": 0.0, "is_disabled": 0}, {"rental_uris": {"android": "https://dc.lft.to/lastmile_qr_scan", "ios": "https://dc.lft.to/lastmile_qr_scan"}, "type": "electric_scooter", "lon": -77.02477733333333, "name": "90b977af61d39be79026caa9acb1d5c7", "bike_id": "90b977af61d39be79026caa9acb1d5c7", "fusion_lat": 0.0, "is_reserved": 0, "lat": 38.93900816666667, "fusion_lon": 0.0, "is_disabled": 0}, {"rental_uris": {"android": "https://dc.lft.to/lastmile_qr_scan", "ios": "https://dc.lft.to/lastmile_qr_scan"}, "type": "electric_scooter", "lon": -77.0399765, "name": "20299f8b1fe32d70944605815497fd43", "bike_id": "20299f8b1fe32d70944605815497fd43", "fusion_lat": 0.0, "is_reserved": 0, "lat": 38.918044333333334, "fusion_lon": 0.0, "is_disabled": 0}, {"rental_uris": {"android": "https://dc.lft.to/lastmile_qr_scan", "ios": "https://dc.lft.to/lastmile_qr_scan"}, "type": "electric_scooter", "lon": -77.02307716666667, "name": "22b756f2c323d517a10552f44b9caa59", "bike_id": "22b756f2c323d517a10552f44b9caa59", "fusion_lat": 0.0, "is_reserved": 0, "lat": 38.91814566666667, "fusion_lon": 0.0, "is_disabled": 0}, {"rental_uris": {"android": "https://dc.lft.to/lastmile_qr_scan", "ios": "https://dc.lft.to/lastmile_qr_scan"}, "type": "electric_scooter", "lon": -77.00280383333333, "name": "33baec05764441cba2d06d7295789b6e", "bike_id": "33baec05764441cba2d06d7295789b6e", "fusion_lat": 0.0, "is_reserved": 0, "lat": 38.914750833333336, "fusion_lon": 0.0, "is_disabled": 0}, {"rental_uris": {"android": "https://dc.lft.to/lastmile_qr_scan", "ios": "https://dc.lft.to/lastmile_qr_scan"}, "type": "electric_scooter", "lon": -77.06159283333334, "name": "fdae38ea8f3cf851af172f53c54fd7f7", "bike_id": "fdae38ea8f3cf851af172f53c54fd7f7", "fusion_lat": 0.0, "is_reserved": 0, "lat": 38.9052335, "fusion_lon": 0.0, "is_disabled": 0}, {"rental_uris": {"android": "https://dc.lft.to/lastmile_qr_scan", "ios": "https://dc.lft.to/lastmile_qr_scan"}, "type": "electric_scooter", "lon": -77.0255155, "name": "417e69f4749d0bac0be4103d049cf921", "bike_id": "417e69f4749d0bac0be4103d049cf921", "fusion_lat": 0.0, "is_reserved": 0, "lat": 38.892248, "fusion_lon": 0.0, "is_disabled": 0}, {"rental_uris": {"android": "https://dc.lft.to/lastmile_qr_scan", "ios": "https://dc.lft.to/lastmile_qr_scan"}, "type": "electric_bike", "lon": -77.18293383333334, "name": "278bc36922e4e8e40cb45677c70a737d", "bike_id": "278bc36922e4e8e40cb45677c70a737d", "fusion_lat": 0.0, "is_reserved": 0, "lat": 38.883401666666664, "fusion_lon": 0.0, "is_disabled": 0}, {"rental_uris": {"android": "https://dc.lft.to/lastmile_qr_scan", "ios": "https://dc.lft.to/lastmile_qr_scan"}, "type": "electric_scooter", "lon": -76.9849675, "name": "bc96fce56e64f6229a2794ac2d345188", "bike_id": "bc96fce56e64f6229a2794ac2d345188", "fusion_lat": 0.0, "is_reserved": 0, "lat": 38.86044533333333, "fusion_lon": 0.0, "is_disabled": 0}, {"rental_uris": {"android": "https://dc.lft.to/lastmile_qr_scan", "ios": "https://dc.lft.to/lastmile_qr_scan"}, "type": "electric_bike", "lon": -76.95202616666667, "name": "9ed06a6f13aa657121a4b6a358832fd5", "bike_id": "9ed06a6f13aa657121a4b6a358832fd5", "fusion_lat": 0.0, "is_reserved": 0, "lat": 38.93664783333333, "fusion_lon": 0.0, "is_disabled": 0},