{"data": {"bikes": [{"bike_id": "1083b30f768d11116ecdb78902c080be", "type": "electric_scooter", "is_disabled": 0, "lat": 38.972367166666665, "rental_uris": {"ios": "https://dc.lft.to/lastmile_qr_scan", "android": "https://dc.lft.to/lastmile_qr_scan"}, "is_reserved": 0, "fusion_lon": 0.0, "fusion_lat": 0.0, "lon": -77.02714533333334, "name": "1083b30f768d11116ecdb78902c080be"}, {"bike_id": "4777f4100285743a4619be2eaae1914a", "type": "electric_scooter", "is_disabled": 0, "lat": 38.905938, "rental_uris": {"ios": "https://dc.lft.to/lastmile_qr_scan", "android": "https://dc.lft.to/lastmile_qr_scan"}, "is_reserved": 0, "fusion_lon": 0.0, "fusion_lat": 0.0, "lon": -77.0034475, "name": "4777f4100285743a4619be2eaae1914a"}, {"bike_id": "108541d31f2cd0e9691c9efb280ed0f0", "type": "electric_scooter", "is_disabled": 0, "lat": 38.878005333333334, "rental_uris": {"ios": "https://dc.lft.to/lastmile_qr_scan", "android": "https://dc.lft.to/lastmile_qr_scan"}, "is_reserved": 0, "fusion_lon": 0.0, "fusion_lat": 0.0, "lon": -76.93089283333333, "name": "108541d31f2cd0e9691c9efb280ed0f0"}, {"bike_id": "618f3a89c4c48d0caff8cc120f93784a", "type": "electric_scooter", "is_disabled": 0, "lat": 38.92529233333333, "rental_uris": {"ios": "https://dc.lft.to/lastmile_qr_scan", "android": "https://dc.lft.to/lastmile_qr_scan"}, "is_reserved": 0, "fusion_lon": 0.0, "fusion_lat": 0.0, "lon": -77.02260016666666, "name": "618f3a89c4c48d0caff8cc120f93784a"}, {"bike_id": "013e5fcb5ac29169fcb8a78a601b0fa7", "type": "electric_scooter", "is_disabled": 0, "lat": 38.9064595, "rental_uris": {"ios": "https://dc.lft.to/lastmile_qr_scan", "android": "https://dc.lft.to/lastmile_qr_scan"}, "is_reserved": 0, "fusion_lon": 0.0, "fusion_lat": 0.0, "lon": -77.053194, "name": "013e5fcb5ac29169fcb8a78a601b0fa7"}, {"bike_id": "d3fd21c4f7985464c0208ed83d496e47", "type": "electric_scooter", "is_disabled": 0, "lat": 38.879046333333335, "rental_uris": {"ios": "https://dc.lft.to/lastmile_qr_scan", "android": "https://dc.lft.to/lastmile_qr_scan"}, "is_reserved": 0, "fusion_lon": 0.0, "fusion_lat": 0.0, "lon": -77.00428233333334, "name": "d3fd21c4f7985464c0208ed83d496e47"}, {"bike_id": "7cbc76037773f520d6dfc3172017cc85", "type": "electric_scooter", "is_disabled": 0, "lat": 38.917738, "rental_uris": {"ios": "https://dc.lft.to/lastmile_qr_scan", "android": "https://dc.lft.to/lastmile_qr_scan"}, "is_reserved": 0, "fusion_lon": 0.0, "fusion_lat": 0.0, "lon": -77.03435466666667, "name": "7cbc76037773f520d6dfc3172017cc85"}, {"bike_id": "cf3d2f4a9dec095dab9fd5c926057005", "type": "electric_scooter", "is_disabled": 0, "lat": 38.9194645, "rental_uris": {"ios": "https://dc.lft.to/lastmile_qr_scan", "android": "https://dc.lft.to/lastmile_qr_scan"}, "is_reserved": 0, "fusion_lon": 0.0, "fusion_lat": 0.0, "lon": -77.0455325, "name": "cf3d2f4a9dec095dab9fd5c926057005"}, {"bike_id": "02e606e1dccdfba3032b50c9a70961c5", "type": "electric_scooter", "is_disabled": 0, "lat": 38.89740583333333, "rental_uris": {"ios": "https://dc.lft.to/lastmile_qr_scan", "android": "https://dc.lft.to/lastmile_qr_scan"}, "is_reserved": 0, "fusion_lon": 0.0, "fusion_lat": 0.0, "lon": -77.02092183333333, "name": "02e606e1dccdfba3032b50c9a70961c5"}, {"bike_id": "322fbbbe906b8cfa8302d8af539cdf40", "type": "electric_scooter", "is_disabled": 0, "lat": 38.92065783333334, "rental_uris": {"ios": "https://dc.lft.to/lastmile_qr_scan", "android": "https://dc.lft.to/lastmile_qr_scan"}, "is_reserved": 0, "fusion_lon": 0.0, "fusion_lat": 0.0, "lon": -77.025993, "name": "322fbbbe906b8cfa8302d8af539cdf40"}, {"bike_id": "fe281625a58000b5e35332b870e10a19", "type": "electric_scooter", "is_disabled": 0, "lat": 38.9444115, "rental_uris": {"ios": "https://dc.lft.to/lastmile_qr_scan", "android": "https://dc.lft.to/lastmile_qr_scan"}, "is_reserved": 0, "fusion_lon": 0.0, "fusion_lat": 0.0, "lon": -77.06350566666667, "name": "fe281625a58000b5e35332b870e10a19"}, {"bike_id": "fb89d9a8d2536f8d57fce050ea14f266", "type": "electric_scooter", "is_disabled": 0, "lat": 38.92124616666667, "rental_uris": {"ios": "https://dc.lft.to/lastmile_qr_scan", "android": "https://dc.lft.to/lastmile_qr_scan"}, "is_reserved": 0, "fusion_lon": 0.0, "fusion_lat": 0.0, "lon": -76.99245266666667, "name": "fb89d9a8d2536f8d57fce050ea14f266"}, {"bike_id": "0ac7febcef5afd3dda38741fc02ca968", "type": "electric_scooter", "is_disabled": 0, "lat": 38.93227666666667, "rental_uris": {"ios": "https://dc.lft.to/lastmile_qr_scan", "android": "https://dc.lft.to/lastmile_qr_scan"}, "is_reserved": 0, "fusion_lon": 0.0, "fusion_lat": 0.0, "lon": -77.03348083333333, "name": "0ac7febcef5afd3dda38741fc02ca968"}, {"bike_id": "a63563f146642684cae311538d43b56c", "type": "electric_bike", "is_disabled": 0, "lat": 38.875524166666665, "rental_uris": {"ios": "https://dc.lft.to/lastmile_qr_scan", "android": "https://dc.lft.to/lastmile_qr_scan"}, "is_reserved": 0, "fusion_lon": 0.0, "fusion_lat": 0.0, "lon": -76.96505783333333, "name": "a63563f146642684cae311538d43b56c"}, {"bike_id": "392554e2cf01a11955b3a065baced919", "type": "electric_scooter", "is_disabled": 0, "lat": 38.90729833333333, "rental_uris": {"ios": "https://dc.lft.to/lastmile_qr_scan", "android": "https://dc.lft.to/lastmile_qr_scan"}, "is_reserved": 0, "fusion_lon": 0.0, "fusion_lat": 0.0, "lon": -77.01134066666667, "name": "392554e2cf01a11955b3a065baced919"}, {"bike_id": "ea6339bfd76f1f52f829d7252e32ba9a", "type": "electric_scooter", "is_disabled": 0, "lat": 38.86467583333334, "rental_uris": {"ios": "https://dc.lft.to/lastmile_qr_scan", "android": "https://dc.lft.to/lastmile_qr_scan"}, "is_reserved": 0, "fusion_lon": 0.0, "fusion_lat": 0.0, "lon": -76.98230216666667, "name": "ea6339bfd76f1f52f829d7252e32ba9a"}, {"bike_id": "841110db05f738f18a84f3aa56c83dd2", "type": "electric_scooter", "is_disabled": 0, "lat": 38.93673183333333, "rental_uris": {"ios": "https://dc.lft.to/lastmile_qr_scan", "android": "https://dc.lft.to/lastmile_qr_scan"}, "is_reserved": 0, "fusion_lon": 0.0, "fusion_lat": 0.0, "lon": -77.03564, "name": "841110db05f738f18a84f3aa56c83dd2"}, {"bike_id": "30d167dcfdb3f7c60fb0dccfef3656e0", "type": "electric_bike", "is_disabled": 0, "lat": 38.983644, "rental_uris": {"ios": "https://dc.lft.to/lastmile_qr_scan", "android": "https://dc.lft.to/lastmile_qr_scan"}, "is_reserved": 0, "fusion_lon": 0.0, "fusion_lat": 0.0, "lon": -76.97210766666667, "name": "30d167dcfdb3f7c60fb0dccfef3656e0"}, {"bike_id": "0813119621ca007fa5338d04be2f8cfc", "type": "electric_scooter", "is_disabled": 0, "lat": 38.862477166666665, "rental_uris": {"ios": "https://dc.lft.to/lastmile_qr_scan", "android": "https://dc.lft.to/lastmile_qr_scan"}, "is_reserved": 0, "fusion_lon": 0.0, "fusion_lat": 0.0, "lon": -76.995, "name": "0813119621ca007fa5338d04be2f8cfc"}, {"bike_id": "5d841cd62002512a9e27b5d541c4ff92", "type": "electric_scooter", "is_disabled": 0, "lat": 38.96203833333333, "rental_uris": {"ios": "https://dc.lft.to/lastmile_qr_scan", "android": "https://dc.lft.to/lastmile_qr_scan"}, "is_reserved": 0, "fusion_lon": 0.0, "fusion_lat": 0.0, "lon": -77.02225766666666, "name": "5d841cd62002512a9e27b5d541c4ff92"}, {"bike_id": "5b43400d43af84c95d9874fcbd2eb121", "type": "electric_scooter", "is_disabled": 0, "lat": 38.89304683333334, "rental_uris": {"ios": "https://dc.lft.to/lastmile_qr_scan", "android": "https://dc.lft.to/lastmile_qr_scan"}, "is_reserved": 0, "fusion_lon": 0.0, "fusion_lat": 0.0, "lon": -77.01242283333333, "name": "5b43400d43af84c95d9874fcbd2eb121"}, {"bike_id": "edde7c82efe14e882ad903163dd145cf", "type": "electric_scooter", "is_disabled": 0, "lat": 38.925978, "rental_uris": {"ios": "https://dc.lft.to/lastmile_qr_scan", "android": "https://dc.lft.to/lastmile_qr_scan"}, "is_reserved": 0, "fusion_lon": 0.0, "fusion_lat": 0.0, "lon": -77.024948, "name": "edde7c82efe14e882ad903163dd145cf"}, {"bike_id": "7b14c8a1ef2d3349b4d45202d914d34a", "type": "electric_scooter", "is_disabled": 0, "lat": 38.904953666666664, "rental_uris": {"ios": "https://dc.lft.to/lastmile_qr_scan", "android": "https://dc.lft.to/lastmile_qr_scan"}, "is_reserved": 0, "fusion_lon": 0.0, "fusion_lat": 0.0, "lon": -77.04842916666666, "name": "7b14c8a1ef2d3349b4d45202d914d34a"}, {"bike_id": "f92d3043408667d1d5d9bb043186108e", "type": "electric_scooter", "is_disabled": 0, "lat": 38.935276333333334, "rental_uris": {"ios": "https://dc.lft.to/lastmile_qr_scan", "android": "https://dc.lft.to/lastmile_qr_scan"}, "is_reserved": 0, "fusion_lon": 0.0, "fusion_lat": 0.0, "lon": -77.0543675, "name": "f92d3043408667d1d5d9bb043186108e"}, {"bike_id": "f94213fa1da9b528f71814d452f657b0", "type": "electric_scooter", "is_disabled": 0, "lat": 38.951159, "rental_uris": {"ios": "https://dc.lft.to/lastmile_qr_scan", "android": "https://dc.lft.to/lastmile_qr_scan"}, "is_reserved": 0, "fusion_lon": 0.0, "fusion_lat": 0.0, "lon": -77.01431166666667, "name": "f94213fa1da9b528f71814d452f657b0"}, {"bike_id": "fb27462809bdabd176c8e6d878f05b11", "type": "electric_scooter", "is_disabled": 0, "lat": 38.866836666666664, "rental_uris": {"ios": "https://dc.lft.to/lastmile_qr_scan", "android": "https://dc.lft.to/lastmile_qr_scan"}, "is_reserved": 0, "fusion_lon": 0.0, "fusion_lat": 0.0, "lon": -76.98578183333333, "name": "fb27462809bdabd176c8e6d878f05b11"}, {"bike_id": "1a5dfbe84a695d852bc1c6c330ad6e31", "type": "electric_bike", "is_disabled": 0, "lat": 38.858681833333335, "rental_uris": {"ios": "https://dc.lft.to/lastmile_qr_scan", "android": "https://dc.lft.to/lastmile_qr_scan"}, "is_reserved": 0, "fusion_lon": 0.0, "fusion_lat": 0.0, "lon": -77.0955755, "name": "1a5dfbe84a695d852bc1c6c330ad6e31"}, {"bike_id": "d075e7176c7fc4ceb1219f249b5922e1", "type": "electric_scooter", "is_disabled": 0, "lat": 38.92611816666667, "rental_uris": {"ios": "https://dc.lft.to/lastmile_qr_scan", "android": "https://dc.lft.to/lastmile_qr_scan"}, "is_reserved": 0, "fusion_lon": 0.0, "fusion_lat": 0.0, "lon": -77.04325083333333, "name": "d075e7176c7fc4ceb1219f249b5922e1"}, {"bike_id": "4a3ccf0a66e8d914226053ad4ef94f3a", "type": "electric_scooter", "is_disabled": 0, "lat": 38.912490166666664, "rental_uris": {"ios": "https://dc.lft.to/lastmile_qr_scan", "android": "https://dc.lft.to/lastmile_qr_scan"}, "is_reserved": 0, "fusion_lon": 0.0, "fusion_lat": 0.0, "lon": -77.03862133333334, "name": "4a3ccf0a66e8d914226053ad4ef94f3a"}, {"bike_id": "f696c760890252c1c1ee49ac6860808c", "type": "electric_scooter", "is_disabled": 0, "lat": 38.895003833333334, "rental_uris": {"ios": "https://dc.lft.to/lastmile_qr_scan", "android": "https://dc.lft.to/lastmile_qr_scan"}, "is_reserved": 0, "fusion_lon": 0.0, "fusion_lat": 0.0, "lon": -76.93472883333334, "name": "f696c760890252c1c1ee49ac6860808c"}, {"bike_id": "20bd076204fbf5a893a81be541f4482c", "type": "electric_scooter", "is_disabled": 0, "lat": 38.92544783333334, "rental_uris": {"ios": "https://dc.lft.to/lastmile_qr_scan", "android": "https://dc.lft.to/lastmile_qr_scan"}, "is_reserved": 0, "fusion_lon": 0.0, "fusion_lat": 0.0, "lon": -77.03352283333334, "name": "20bd076204fbf5a893a81be541f4482c"}, {"bike_id": "631812b58d66528feffd741e704cae8c", "type": "electric_scooter", "is_disabled": 0, "lat": 38.915047666666666, "rental_uris": {"ios": "https://dc.lft.to/lastmile_qr_scan", "android": "https://dc.lft.to/lastmile_qr_scan"}, "is_reserved": 0, "fusion_lon": 0.0, "fusion_lat": 0.0, "lon": -76.98357633333333, "name": "631812b58d66528feffd741e704cae8c"}, {"bike_id": "6d9f2cad39c25929aec9309af8dee596", "type": "electric_scooter", "is_disabled": 0, "lat": 38.91503483333334, "rental_uris": {"ios": "https://dc.lft.to/lastmile_qr_scan", "android": "https://dc.lft.to/lastmile_qr_scan"}, "is_reserved": 0, "fusion_lon": 0.0, "fusion_lat": 0.0, "lon": -77.02289383333333, "name": "6d9f2cad39c25929aec9309af8dee596"}, {"bike_id": "e0d8219f301d80e2c7abc0d1fa8f0b6f", "type": "electric_bike", "is_disabled": 0, "lat": 38.995353333333334, "rental_uris": {"ios": "https://dc.lft.to/lastmile_qr_scan", "android": "https://dc.lft.to/lastmile_qr_scan"}, "is_reserved": 0, "fusion_lon": 0.0, "fusion_lat": 0.0, "lon": -77.069439, "name": "e0d8219f301d80e2c7abc0d1fa8f0b6f"}, {"bike_id": "268978956067378dc1ce2b79f9d279c3", "type": "electric_scooter", "is_disabled": 0, "lat": 38.8997415, "rental_uris": {"ios": "https://dc.lft.to/lastmile_qr_scan", "android": "https://dc.lft.to/lastmile_qr_scan"}, "is_reserved": 0, "fusion_lon": 0.0, "fusion_lat": 0.0, "lon": -77.05572666666667, "name": "268978956067378dc1ce2b79f9d279c3"}, {"bike_id": "dffd46596a7c22f3f19dce8e933bab00", "type": "electric_scooter", "is_disabled": 0, "lat": 38.91191766666667, "rental_uris": {"ios": "https://dc.lft.to/lastmile_qr_scan", "android": "https://dc.lft.to/lastmile_qr_scan"}, "is_reserved": 0, "fusion_lon": 0.0, "fusion_lat": 0.0, "lon": -77.018986, "name": "dffd46596a7c22f3f19dce8e933bab00"}, {"bike_id": "0a1aa2de3a8fa91b3db2a5069670579e", "type": "electric_bike", "is_disabled": 0, "lat": 38.892046, "rental_uris": {"ios": "https://dc.lft.to/lastmile_qr_scan", "android": "https://dc.lft.to/lastmile_qr_scan"}, "is_reserved": 0, "fusion_lon": 0.0, "fusion_lat": 0.0, "lon": -76.976822, "name": "0a1aa2de3a8fa91b3db2a5069670579e"}, {"bike_id": "0b2b1887d7b31f574bb0de3df1948aa1", "type": "electric_scooter", "is_disabled": 0, "lat": 38.918049, "rental_uris": {"ios": "https://dc.lft.to/lastmile_qr_scan", "android": "https://dc.lft.to/lastmile_qr_scan"}, "is_reserved": 0, "fusion_lon": 0.0, "fusion_lat": 0.0, "lon": -77.04545133333333, "name": "0b2b1887d7b31f574bb0de3df1948aa1"}, {"bike_id": "ec080668ebda8a49a713174c0a809a92", "type": "electric_scooter", "is_disabled": 0, "lat": 38.920437666666665, "rental_uris": {"ios": "https://dc.lft.to/lastmile_qr_scan", "android": "https://dc.lft.to/lastmile_qr_scan"}, "is_reserved": 0, "fusion_lon": 0.0, "fusion_lat": 0.0, "lon": -77.02446216666667, "name": "ec080668ebda8a49a713174c0a809a92"}, {"bike_id": "82f94c3d223ba8ec681c13c928141248", "type": "electric_scooter", "is_disabled": 0, "lat": 38.9312005, "rental_uris": {"ios": "https://dc.lft.to/lastmile_qr_scan", "android": "https://dc.lft.to/lastmile_qr_scan"}, "is_reserved": 0, "fusion_lon": 0.0, "fusion_lat": 0.0, "lon": -77.02069116666667, "name": "82f94c3d223ba8ec681c13c928141248"}, {"bike_id": "a4d029240d81c70bd885b7d96c80d0c1", "type": "electric_scooter", "is_disabled": 0, "lat": 38.902653, "rental_uris": {"ios": "https://dc.lft.to/lastmile_qr_scan", "android": "https://dc.lft.to/lastmile_qr_scan"}, "is_reserved": 0, "fusion_lon": 0.0, "fusion_lat": 0.0, "lon": -77.01962433333334, "name": "a4d029240d81c70bd885b7d96c80d0c1"}, {"bike_id": "24dbe55dd57cd490f493f1978e34179c", "type": "electric_scooter", "is_disabled": 0, "lat": 38.86217333333333, "rental_uris": {"ios": "https://dc.lft.to/lastmile_qr_scan", "android": "https://dc.lft.to/lastmile_qr_scan"}, "is_reserved": 0, "fusion_lon": 0.0, "fusion_lat": 0.0, "lon": -76.99483916666667, "name": "24dbe55dd57cd490f493f1978e34179c"}, {"bike_id": "95516a7226101b18ad00f78b76bde67f", "type": "electric_scooter", "is_disabled": 0, "lat": 38.884897, "rental_uris": {"ios": "https://dc.lft.to/lastmile_qr_scan", "android": "https://dc.lft.to/lastmile_qr_scan"}, "is_reserved": 0, "fusion_lon": 0.0, "fusion_lat": 0.0, "lon": -77.0152905, "name": "95516a7226101b18ad00f78b76bde67f"}, {"bike_id": "6442878818c19d8b14e154b0807ae0a8", "type": "electric_scooter", "is_disabled": 0, "lat": 38.956847, "rental_uris": {"ios": "https://dc.lft.to/lastmile_qr_scan", "android": "https://dc.lft.to/lastmile_qr_scan"}, "is_reserved": 0, "fusion_lon": 0.0, "fusion_lat": 0.0, "lon": -77.02398366666667, "name": "6442878818c19d8b14e154b0807ae0a8"}, {"bike_id": "5a40d6b96a1af6836bc0e9987db266c8", "type": "electric_scooter", "is_disabled": 0, "lat": 38.907274666666666, "rental_uris": {"ios": "https://dc.lft.to/lastmile_qr_scan", "android": "https://dc.lft.to/lastmile_qr_scan"}, "is_reserved": 0, "fusion_lon": 0.0, "fusion_lat": 0.0, "lon": -77.0532945, "name": "5a40d6b96a1af6836bc0e9987db266c8"}, {"bike_id": "26086c5801cc2e05bd4f386d3ba65be3", "type": "electric_scooter", "is_disabled": 0, "lat": 38.9204175, "rental_uris": {"ios": "https://dc.lft.to/lastmile_qr_scan", "android": "https://dc.lft.to/lastmile_qr_scan"}, "is_reserved": 0, "fusion_lon": 0.0, "fusion_lat": 0.0, "lon": -77.03467133333334, "name": "26086c5801cc2e05bd4f386d3ba65be3"}, {"bike_id": "4b1840416b7c439c8b514d6ea96220fd", "type": "electric_scooter", "is_disabled": 0, "lat": 38.91108333333333, "rental_uris": {"ios": "https://dc.lft.to/lastmile_qr_scan", "android": "https://dc.lft.to/lastmile_qr_scan"}, "is_reserved": 0, "fusion_lon": 0.0, "fusion_lat": 0.0, "lon": -77.04481716666666, "name": "4b1840416b7c439c8b514d6ea96220fd"}, {"bike_id": "97fd07cd5369c963899cfbc19617918e", "type": "electric_scooter", "is_disabled": 0, "lat": 38.91364433333333, "rental_uris": {"ios": "https://dc.lft.to/lastmile_qr_scan", "android": "https://dc.lft.to/lastmile_qr_scan"}, "is_reserved": 0, "fusion_lon": 0.0, "fusion_lat": 0.0, "lon": -77.04488966666666, "name": "97fd07cd5369c963899cfbc19617918e"}, {"bike_id": "4b748dad43911575e9e2385b1a26c4a3", "type": "electric_scooter", "is_disabled": 0, "lat": 38.897105, "rental_uris": {"ios": "https://dc.lft.to/lastmile_qr_scan", "android": "https://dc.lft.to/lastmile_qr_scan"}, "is_reserved": 0, "fusion_lon": 0.0, "fusion_lat": 0.0, "lon": -77.03327133333333, "name": "4b748dad43911575e9e2385b1a26c4a3"}, {"bike_id": "7971a0b0c6e8fd7b09e8116535062bda", "type": "electric_scooter", "is_disabled": 0, "lat": 38.92525216666667, "rental_uris": {"ios": "https://dc.lft.to/lastmile_qr_scan", "android": "https://dc.lft.to/lastmile_qr_scan"}, "is_reserved": 0, "fusion_lon": 0.0, "fusion_lat": 0.0, "lon": -77.04097066666667, "name": "7971a0b0c6e8fd7b09e8116535062bda"}, {"bike_id": "f258f6c7e4e0ead4006e7763cd6021c0", "type": "electric_scooter", "is_disabled": 0, "lat": 38.903312666666665, "rental_uris": {"ios": "https://dc.lft.to/lastmile_qr_scan", "android": "https://dc.lft.to/lastmile_qr_scan"}, "is_reserved": 0, "fusion_lon": 0.0, "fusion_lat": 0.0, "lon": -76.97584166666667, "name": "f258f6c7e4e0ead4006e7763cd6021c0"}, {"bike_id": "99319f39ec09686b4b17ce639e1cd195", "type": "electric_scooter", "is_disabled": 0, "lat": 38.91708533333333, "rental_uris": {"ios": "https://dc.lft.to/lastmile_qr_scan", "android": "https://dc.lft.to/lastmile_qr_scan"}, "is_reserved": 0, "fusion_lon": 0.0, "fusion_lat": 0.0, "lon": -77.02739216666667, "name": "99319f39ec09686b4b17ce639e1cd195"}, {"bike_id": "285903eb9a635ea3aacf6eaa966fec5c", "type": "electric_scooter", "is_disabled": 0, "lat": 38.93226383333333, "rental_uris": {"ios": "https://dc.lft.to/lastmile_qr_scan", "android": "https://dc.lft.to/lastmile_qr_scan"}, "is_reserved": 0, "fusion_lon": 0.0, "fusion_lat": 0.0, "lon": -77.033908, "name": "285903eb9a635ea3aacf6eaa966fec5c"}, {"bike_id": "e5c035fb25faafe94db40c3bc392b891", "type": "electric_scooter", "is_disabled": 0, "lat": 38.92086466666667, "rental_uris": {"ios": "https://dc.lft.to/lastmile_qr_scan", "android": "https://dc.lft.to/lastmile_qr_scan"}, "is_reserved": 0, "fusion_lon": 0.0, "fusion_lat": 0.0, "lon": -77.02531183333333, "name": "e5c035fb25faafe94db40c3bc392b891"}, {"bike_id": "f87b7dda08c7fc938294ebf02e1208a7", "type": "electric_scooter", "is_disabled": 0, "lat": 38.903046333333336, "rental_uris": {"ios": "https://dc.lft.to/lastmile_qr_scan", "android": "https://dc.lft.to/lastmile_qr_scan"}, "is_reserved": 0, "fusion_lon": 0.0, "fusion_lat": 0.0, "lon": -76.98355833333333, "name": "f87b7dda08c7fc938294ebf02e1208a7"}, {"bike_id": "77b0883b05e9c215b4abd2e4eeb27cac", "type": "electric_scooter", "is_disabled": 0, "lat": 38.90038166666667, "rental_uris": {"ios": "https://dc.lft.to/lastmile_qr_scan", "android": "https://dc.lft.to/lastmile_qr_scan"}, "is_reserved": 0, "fusion_lon": 0.0, "fusion_lat": 0.0, "lon": -77.00085466666667, "name": "77b0883b05e9c215b4abd2e4eeb27cac"}, {"bike_id": "88980a3bb191776df92f83cb92ef395b", "type": "electric_scooter", "is_disabled": 0, "lat": 38.907353666666666, "rental_uris": {"ios": "https://dc.lft.to/lastmile_qr_scan", "android": "https://dc.lft.to/lastmile_qr_scan"}, "is_reserved": 0, "fusion_lon": 0.0, "fusion_lat": 0.0, "lon": -77.04483316666666, "name": "88980a3bb191776df92f83cb92ef395b"}, {"bike_id": "72b4da81a6728995432edfec2db222a2", "type": "electric_scooter", "is_disabled": 0, "lat": 38.92343783333333, "rental_uris": {"ios": "https://dc.lft.to/lastmile_qr_scan", "android": "https://dc.lft.to/lastmile_qr_scan"}, "is_reserved": 0, "fusion_lon": 0.0, "fusion_lat": 0.0, "lon": -77.04299433333334, "name": "72b4da81a6728995432edfec2db222a2"}, {"bike_id": "95b91ee75cec23acb3a1b02330d47650", "type": "electric_scooter", "is_disabled": 0, "lat": 38.91037, "rental_uris": {"ios": "https://dc.lft.to/lastmile_qr_scan", "android": "https://dc.lft.to/lastmile_qr_scan"}, "is_reserved": 0, "fusion_lon": 0.0, "fusion_lat": 0.0, "lon": -77.03823383333334, "name": "95b91ee75cec23acb3a1b02330d47650"}, {"bike_id": "3dd057807eec69749b58d290247891a8", "type": "electric_scooter", "is_disabled": 0, "lat": 38.89665733333333, "rental_uris": {"ios": "https://dc.lft.to/lastmile_qr_scan", "android": "https://dc.lft.to/lastmile_qr_scan"}, "is_reserved": 0, "fusion_lon": 0.0, "fusion_lat": 0.0, "lon": -76.98815066666667, "name": "3dd057807eec69749b58d290247891a8"}, {"bike_id": "6c6a5b47477032cd7ab4fefd48fdf811", "type": "electric_scooter", "is_disabled": 0, "lat": 38.88140666666666, "rental_uris": {"ios": "https://dc.lft.to/lastmile_qr_scan", "android": "https://dc.lft.to/lastmile_qr_scan"}, "is_reserved": 0, "fusion_lon": 0.0, "fusion_lat": 0.0, "lon": -77.01662616666667, "name": "6c6a5b47477032cd7ab4fefd48fdf811"}, {"bike_id": "316f95d919c1e8ea55c65985319ee1b3", "type": "electric_scooter", "is_disabled": 0, "lat": 38.93452, "rental_uris": {"ios": "https://dc.lft.to/lastmile_qr_scan", "android": "https://dc.lft.to/lastmile_qr_scan"}, "is_reserved": 0, "fusion_lon": 0.0, "fusion_lat": 0.0, "lon": -77.03049466666667, "name": "316f95d919c1e8ea55c65985319ee1b3"}, {"bike_id": "25a9b26b07c64f287d8df94b1965d879", "type": "electric_scooter", "is_disabled": 0, "lat": 38.917123, "rental_uris": {"ios": "https://dc.lft.to/lastmile_qr_scan", "android": "https://dc.lft.to/lastmile_qr_scan"}, "is_reserved": 0, "fusion_lon": 0.0, "fusion_lat": 0.0, "lon": -77.0398475, "name": "25a9b26b07c64f287d8df94b1965d879"}, {"bike_id": "8543d8c1f1baa0cfeb0fef20cb8b7b2b", "type": "electric_scooter", "is_disabled": 0, "lat": 38.9068245, "rental_uris": {"ios": "https://dc.lft.to/lastmile_qr_scan", "android": "https://dc.lft.to/lastmile_qr_scan"}, "is_reserved": 0, "fusion_lon": 0.0, "fusion_lat": 0.0, "lon": -77.07139566666666, "name": "8543d8c1f1baa0cfeb0fef20cb8b7b2b"}, {"bike_id": "c2c3c488cff7a2ff07ad081a640553ac", "type": "electric_scooter", "is_disabled": 0, "lat": 38.8707665, "rental_uris": {"ios": "https://dc.lft.to/lastmile_qr_scan", "android": "https://dc.lft.to/lastmile_qr_scan"}, "is_reserved": 0, "fusion_lon": 0.0, "fusion_lat": 0.0, "lon": -76.9890835, "name": "c2c3c488cff7a2ff07ad081a640553ac"}, {"bike_id": "5424b9e1b542d76ee1ab42125b5a71f4", "type": "electric_scooter", "is_disabled": 0, "lat": 38.917451, "rental_uris": {"ios": "https://dc.lft.to/lastmile_qr_scan", "android": "https://dc.lft.to/lastmile_qr_scan"}, "is_reserved": 0, "fusion_lon": 0.0, "fusion_lat": 0.0, "lon": -77.01585183333333, "name": "5424b9e1b542d76ee1ab42125b5a71f4"}, {"bike_id": "439b5d6602ff50f6d6a4159d204cd2eb", "type": "electric_scooter", "is_disabled": 0, "lat": 38.922249, "rental_uris": {"ios": "https://dc.lft.to/lastmile_qr_scan", "android": "https://dc.lft.to/lastmile_qr_scan"}, "is_reserved": 0, "fusion_lon": 0.0, "fusion_lat": 0.0, "lon": -77.023257, "name": "439b5d6602ff50f6d6a4159d204cd2eb"}, {"bike_id": "7112016dfdfd43c717904ea8cfd18f4d", "type": "electric_scooter", "is_disabled": 0, "lat": 38.918420166666664, "rental_uris": {"ios": "https://dc.lft.to/lastmile_qr_scan", "android": "https://dc.lft.to/lastmile_qr_scan"}, "is_reserved": 0, "fusion_lon": 0.0, "fusion_lat": 0.0, "lon": -77.0483075, "name": "7112016dfdfd43c717904ea8cfd18f4d"}, {"bike_id": "c353f99bc641b21d84c345e713462375", "type": "electric_scooter", "is_disabled": 0, "lat": 38.907335333333336, "rental_uris": {"ios": "https://dc.lft.to/lastmile_qr_scan", "android": "https://dc.lft.to/lastmile_qr_scan"}, "is_reserved": 0, "fusion_lon": 0.0, "fusion_lat": 0.0, "lon": -77.0130615, "name": "c353f99bc641b21d84c345e713462375"}, {"bike_id": "4acf1bdecb035875eb2fa82c5c1ec11a", "type": "electric_scooter", "is_disabled": 0, "lat": 38.866856, "rental_uris": {"ios": "https://dc.lft.to/lastmile_qr_scan", "android": "https://dc.lft.to/lastmile_qr_scan"}, "is_reserved": 0, "fusion_lon": 0.0, "fusion_lat": 0.0, "lon": -76.98584183333334, "name": "4acf1bdecb035875eb2fa82c5c1ec11a"}, {"bike_id": "f2da6e133232a45a92f3b9ad2eea73e8", "type": "electric_scooter", "is_disabled": 0, "lat": 38.86684433333333, "rental_uris": {"ios": "https://dc.lft.to/lastmile_qr_scan", "android": "https://dc.lft.to/lastmile_qr_scan"}, "is_reserved": 0, "fusion_lon": 0.0, "fusion_lat": 0.0, "lon": -76.98588366666667, "name": "f2da6e133232a45a92f3b9ad2eea73e8"}, {"bike_id": "e40950fe96fc9d7115f6baa0a03d995b", "type": "electric_scooter", "is_disabled": 0, "lat": 38.912693166666664, "rental_uris": {"ios": "https://dc.lft.to/lastmile_qr_scan", "android": "https://dc.lft.to/lastmile_qr_scan"}, "is_reserved": 0, "fusion_lon": 0.0, "fusion_lat": 0.0, "lon": -77.00497366666667, "name": "e40950fe96fc9d7115f6baa0a03d995b"}, {"bike_id": "03f70d4d1e1a1fe0a671d3b430010593", "type": "electric_scooter", "is_disabled": 0, "lat": 38.934991, "rental_uris": {"ios": "https://dc.lft.to/lastmile_qr_scan", "android": "https://dc.lft.to/lastmile_qr_scan"}, "is_reserved": 0, "fusion_lon": 0.0, "fusion_lat": 0.0, "lon": -77.07395966666667, "name": "03f70d4d1e1a1fe0a671d3b430010593"}, {"bike_id": "d84d6ee681aa32b74a414348dafc3fcb", "type": "electric_scooter", "is_disabled": 0, "lat": 38.938711, "rental_uris": {"ios": "https://dc.lft.to/lastmile_qr_scan", "android": "https://dc.lft.to/lastmile_qr_scan"}, "is_reserved": 0, "fusion_lon": 0.0, "fusion_lat": 0.0, "lon": -77.02654083333333, "name": "d84d6ee681aa32b74a414348dafc3fcb"}, {"bike_id": "214c9620de29fc53b0dc25e77a4e4100", "type": "electric_scooter", "is_disabled": 0, "lat": 38.87655783333334, "rental_uris": {"ios": "https://dc.lft.to/lastmile_qr_scan", "android": "https://dc.lft.to/lastmile_qr_scan"}, "is_reserved": 0, "fusion_lon": 0.0, "fusion_lat": 0.0, "lon": -77.0030605, "name": "214c9620de29fc53b0dc25e77a4e4100"}, {"bike_id": "c47ad69c62b0b23c7244d35e5ba7e57d", "type": "electric_scooter", "is_disabled": 0, "lat": 38.930854, "rental_uris": {"ios": "https://dc.lft.to/lastmile_qr_scan", "android": "https://dc.lft.to/lastmile_qr_scan"}, "is_reserved": 0, "fusion_lon": 0.0, "fusion_lat": 0.0, "lon": -77.0256525, "name": "c47ad69c62b0b23c7244d35e5ba7e57d"}, {"bike_id": "f048e9b73de8931ef2d4fcc573e0ddde", "type": "electric_scooter", "is_disabled": 0, "lat": 38.916719666666665, "rental_uris": {"ios": "https://dc.lft.to/lastmile_qr_scan", "android": "https://dc.lft.to/lastmile_qr_scan"}, "is_reserved": 0, "fusion_lon": 0.0, "fusion_lat": 0.0, "lon": -77.01577966666666, "name": "f048e9b73de8931ef2d4fcc573e0ddde"}, {"bike_id": "cc7fd3628277db9ecec0311d7e48b27a", "type": "electric_scooter", "is_disabled": 0, "lat": 38.90551516666667, "rental_uris": {"ios": "https://dc.lft.to/lastmile_qr_scan", "android": "https://dc.lft.to/lastmile_qr_scan"}, "is_reserved": 0, "fusion_lon": 0.0, "fusion_lat": 0.0, "lon": -76.99617816666667, "name": "cc7fd3628277db9ecec0311d7e48b27a"}, {"bike_id": "713edfd9c32bb552cea3464bc1cdf7b6", "type": "electric_scooter", "is_disabled": 0, "lat": 38.922594, "rental_uris": {"ios": "https://dc.lft.to/lastmile_qr_scan", "android": "https://dc.lft.to/lastmile_qr_scan"}, "is_reserved": 0, "fusion_lon": 0.0, "fusion_lat": 0.0, "lon": -77.038815, "name": "713edfd9c32bb552cea3464bc1cdf7b6"}, {"bike_id": "4043eaabdf3be464fc5f750f94e43b9c", "type": "electric_bike", "is_disabled": 0, "lat": 38.8041205, "rental_uris": {"ios": "https://dc.lft.to/lastmile_qr_scan", "android": "https://dc.lft.to/lastmile_qr_scan"}, "is_reserved": 0, "fusion_lon": 0.0, "fusion_lat": 0.0, "lon": -77.05555066666666, "name": "4043eaabdf3be464fc5f750f94e43b9c"}, {"bike_id": "2083b9b80c97a821f84258aea7d10f51", "type": "electric_scooter", "is_disabled": 0, "lat": 38.909583166666664, "rental_uris": {"ios": "https://dc.lft.to/lastmile_qr_scan", "android": "https://dc.lft.to/lastmile_qr_scan"}, "is_reserved": 0, "fusion_lon": 0.0, "fusion_lat": 0.0, "lon": -77.04865933333333, "name": "2083b9b80c97a821f84258aea7d10f51"}, {"bike_id": "96a5bee91a11ef7b5c44cb060eb01878", "type": "electric_bike", "is_disabled": 0, "lat": 38.8708365, "rental_uris": {"ios": "https://dc.lft.to/lastmile_qr_scan", "android": "https://dc.lft.to/lastmile_qr_scan"}, "is_reserved": 0, "fusion_lon": 0.0, "fusion_lat": 0.0, "lon": -77.0120765, "name": "96a5bee91a11ef7b5c44cb060eb01878"}, {"bike_id": "7549393f8ea895b4b2e30f97193399f6", "type": "electric_bike", "is_disabled": 0, "lat": 38.8075165, "rental_uris": {"ios": "https://dc.lft.to/lastmile_qr_scan", "android": "https://dc.lft.to/lastmile_qr_scan"}, "is_reserved": 0, "fusion_lon": 0.0, "fusion_lat": 0.0, "lon": -77.09451816666666, "name": "7549393f8ea895b4b2e30f97193399f6"}, {"bike_id": "b5d55bc569f86f17664ba22eb8119892", "type": "electric_scooter", "is_disabled": 0, "lat": 38.89528266666667, "rental_uris": {"ios": "https://dc.lft.to/lastmile_qr_scan", "android": "https://dc.lft.to/lastmile_qr_scan"}, "is_reserved": 0, "fusion_lon": 0.0, "fusion_lat": 0.0, "lon": -77.010863, "name": "b5d55bc569f86f17664ba22eb8119892"}, {"bike_id": "f4b861be03bf6fc62abd11a632f83f5e", "type": "electric_scooter", "is_disabled": 0, "lat": 38.9036535, "rental_uris": {"ios": "https://dc.lft.to/lastmile_qr_scan", "android": "https://dc.lft.to/lastmile_qr_scan"}, "is_reserved": 0, "fusion_lon": 0.0, "fusion_lat": 0.0, "lon": -77.029351, "name": "f4b861be03bf6fc62abd11a632f83f5e"}, {"bike_id": "ebbbd8c16173d77d31650b63425ceb0f", "type": "electric_bike", "is_disabled": 0, "lat": 38.952354, "rental_uris": {"ios": "https://dc.lft.to/lastmile_qr_scan", "android": "https://dc.lft.to/lastmile_qr_scan"}, "is_reserved": 0, "fusion_lon": 0.0, "fusion_lat": 0.0, "lon": -77.00762283333333, "name": "ebbbd8c16173d77d31650b63425ceb0f"}, {"bike_id": "180479027a3ff398f501206fa7b011dd", "type": "electric_scooter", "is_disabled": 0, "lat": 38.889329333333336, "rental_uris": {"ios": "https://dc.lft.to/lastmile_qr_scan", "android": "https://dc.lft.to/lastmile_qr_scan"}, "is_reserved": 0, "fusion_lon": 0.0, "fusion_lat": 0.0, "lon": -77.01503133333334, "name": "180479027a3ff398f501206fa7b011dd"}, {"bike_id": "f16c58795e1ccbd274bd8d0873950413", "type": "electric_scooter", "is_disabled": 0, "lat": 38.90494016666667, "rental_uris": {"ios": "https://dc.lft.to/lastmile_qr_scan", "android": "https://dc.lft.to/lastmile_qr_scan"}, "is_reserved": 0, "fusion_lon": 0.0, "fusion_lat": 0.0, "lon": -77.02001183333333, "name": "f16c58795e1ccbd274bd8d0873950413"}, {"bike_id": "6205ee81d9f3e13fbf78ea1eefe6a014", "type": "electric_scooter", "is_disabled": 0, "lat": 38.9233825, "rental_uris": {"ios": "https://dc.lft.to/lastmile_qr_scan", "android": "https://dc.lft.to/lastmile_qr_scan"}, "is_reserved": 0, "fusion_lon": 0.0, "fusion_lat": 0.0, "lon": -77.00187766666667, "name": "6205ee81d9f3e13fbf78ea1eefe6a014"}, {"bike_id": "400e7bb8eebb871ec8d98bf0514d4e50", "type": "electric_scooter", "is_disabled": 0, "lat": 38.93637183333333, "rental_uris": {"ios": "https://dc.lft.to/lastmile_qr_scan", "android": "https://dc.lft.to/lastmile_qr_scan"}, "is_reserved": 0, "fusion_lon": 0.0, "fusion_lat": 0.0, "lon": -77.05884133333333, "name": "400e7bb8eebb871ec8d98bf0514d4e50"}, {"bike_id": "638e4a8441b5ffcaef7880d03501b052", "type": "electric_scooter", "is_disabled": 0, "lat": 38.871073833333334, "rental_uris": {"ios": "https://dc.lft.to/lastmile_qr_scan", "android": "https://dc.lft.to/lastmile_qr_scan"}, "is_reserved": 0, "fusion_lon": 0.0, "fusion_lat": 0.0, "lon": -76.9657455, "name": "638e4a8441b5ffcaef7880d03501b052"}, {"bike_id": "25279323f2a1a69d6e2fad28ed5867aa", "type": "electric_scooter", "is_disabled": 0, "lat": 38.92280216666666, "rental_uris": {"ios": "https://dc.lft.to/lastmile_qr_scan", "android": "https://dc.lft.to/lastmile_qr_scan"}, "is_reserved": 0, "fusion_lon": 0.0, "fusion_lat": 0.0, "lon": -76.9944855, "name": "25279323f2a1a69d6e2fad28ed5867aa"}, {"bike_id": "52f0d90c128690715f6fb3b2dce3e467", "type": "electric_bike", "is_disabled": 0, "lat": 38.95171083333334, "rental_uris": {"ios": "https://dc.lft.to/lastmile_qr_scan", "android": "https://dc.lft.to/lastmile_qr_scan"}, "is_reserved": 0, "fusion_lon": 0.0, "fusion_lat": 0.0, "lon": -76.96390233333334, "name": "52f0d90c128690715f6fb3b2dce3e467"}, {"bike_id": "3e1c3a5b323f8825012431e3a483a81c", "type": "electric_scooter", "is_disabled": 0, "lat": 38.89222, "rental_uris": {"ios": "https://dc.lft.to/lastmile_qr_scan", "android": "https://dc.lft.to/lastmile_qr_scan"}, "is_reserved": 0, "fusion_lon": 0.0, "fusion_lat": 0.0, "lon": -77.02575316666666, "name": "3e1c3a5b323f8825012431e3a483a81c"}, {"bike_id": "bb43757fbb6709ecc51ef6470ab1e502", "type": "electric_scooter", "is_disabled": 0, "lat": 38.913274666666666, "rental_uris": {"ios": "https://dc.lft.to/lastmile_qr_scan", "android": "https://dc.lft.to/lastmile_qr_scan"}, "is_reserved": 0, "fusion_lon": 0.0, "fusion_lat": 0.0, "lon": -77.047292, "name": "bb43757fbb6709ecc51ef6470ab1e502"}, {"bike_id": "5b48d8f7d8781fa0a12bf71efed51cb2", "type": "electric_scooter", "is_disabled": 0, "lat": 38.901860666666664, "rental_uris": {"ios": "https://dc.lft.to/lastmile_qr_scan", "android": "https://dc.lft.to/lastmile_qr_scan"}, "is_reserved": 0, "fusion_lon": 0.0, "fusion_lat": 0.0, "lon": -76.98217566666666, "name": "5b48d8f7d8781fa0a12bf71efed51cb2"}, {"bike_id": "b4589b01c8adc947362da5ed0a683e27", "type": "electric_scooter", "is_disabled": 0, "lat": 38.88097233333333, "rental_uris": {"ios": "https://dc.lft.to/lastmile_qr_scan", "android": "https://dc.lft.to/lastmile_qr_scan"}, "is_reserved": 0, "fusion_lon": 0.0, "fusion_lat": 0.0, "lon": -76.9984365, "name": "b4589b01c8adc947362da5ed0a683e27"}, {"bike_id": "a1688cb61aeacaf8cbc484c35f705c47", "type": "electric_scooter", "is_disabled": 0, "lat": 38.906517666666666, "rental_uris": {"ios": "https://dc.lft.to/lastmile_qr_scan", "android": "https://dc.lft.to/lastmile_qr_scan"}, "is_reserved": 0, "fusion_lon": 0.0, "fusion_lat": 0.0, "lon": -77.053292, "name": "a1688cb61aeacaf8cbc484c35f705c47"}, {"bike_id": "72b0e1378cb307264fb6081f134da586", "type": "electric_scooter", "is_disabled": 0, "lat": 38.9255205, "rental_uris": {"ios": "https://dc.lft.to/lastmile_qr_scan", "android": "https://dc.lft.to/lastmile_qr_scan"}, "is_reserved": 0, "fusion_lon": 0.0, "fusion_lat": 0.0, "lon": -77.043805, "name": "72b0e1378cb307264fb6081f134da586"}, {"bike_id": "cbb392c7bf65b0f33c5f90ff2ac3e047", "type": "electric_scooter", "is_disabled": 0, "lat": 38.944612, "rental_uris": {"ios": "https://dc.lft.to/lastmile_qr_scan", "android": "https://dc.lft.to/lastmile_qr_scan"}, "is_reserved": 0, "fusion_lon": 0.0, "fusion_lat": 0.0, "lon": -77.00655766666667, "name": "cbb392c7bf65b0f33c5f90ff2ac3e047"}, {"bike_id": "219e94aafe85ece7a2747917c36386b5", "type": "electric_scooter", "is_disabled": 0, "lat": 38.92795816666667, "rental_uris": {"ios": "https://dc.lft.to/lastmile_qr_scan", "android": "https://dc.lft.to/lastmile_qr_scan"}, "is_reserved": 0, "fusion_lon": 0.0, "fusion_lat": 0.0, "lon": -77.025971, "name": "219e94aafe85ece7a2747917c36386b5"}, {"bike_id": "adc71fbd0da008997ef17f7881df1af2", "type": "electric_scooter", "is_disabled": 0, "lat": 38.935962, "rental_uris": {"ios": "https://dc.lft.to/lastmile_qr_scan", "android": "https://dc.lft.to/lastmile_qr_scan"}, "is_reserved": 0, "fusion_lon": 0.0, "fusion_lat": 0.0, "lon": -77.0585695, "name": "adc71fbd0da008997ef17f7881df1af2"}, {"bike_id": "9b00956dad008b866c1681ebb86dc8c9", "type": "electric_scooter", "is_disabled": 0, "lat": 38.924055, "rental_uris": {"ios": "https://dc.lft.to/lastmile_qr_scan", "android": "https://dc.lft.to/lastmile_qr_scan"}, "is_reserved": 0, "fusion_lon": 0.0, "fusion_lat": 0.0, "lon": -77.02018616666666, "name": "9b00956dad008b866c1681ebb86dc8c9"}, {"bike_id": "7102eb30f3dae606a5069cf0e8fbc296", "type": "electric_scooter", "is_disabled": 0, "lat": 38.92608666666667, "rental_uris": {"ios": "https://dc.lft.to/lastmile_qr_scan", "android": "https://dc.lft.to/lastmile_qr_scan"}, "is_reserved": 0, "fusion_lon": 0.0, "fusion_lat": 0.0, "lon": -77.02410733333333, "name": "7102eb30f3dae606a5069cf0e8fbc296"}, {"bike_id": "9bba616c189d577bd39ac4712fdadf54", "type": "electric_scooter", "is_disabled": 0, "lat": 38.892329833333335, "rental_uris": {"ios": "https://dc.lft.to/lastmile_qr_scan", "android": "https://dc.lft.to/lastmile_qr_scan"}, "is_reserved": 0, "fusion_lon": 0.0, "fusion_lat": 0.0, "lon": -77.02378716666666, "name": "9bba616c189d577bd39ac4712fdadf54"}, {"bike_id": "61b5bee650254a5668a7c8f10fcfac5d", "type": "electric_scooter", "is_disabled": 0, "lat": 38.91367616666667, "rental_uris": {"ios": "https://dc.lft.to/lastmile_qr_scan", "android": "https://dc.lft.to/lastmile_qr_scan"}, "is_reserved": 0, "fusion_lon": 0.0, "fusion_lat": 0.0, "lon": -77.04556683333334, "name": "61b5bee650254a5668a7c8f10fcfac5d"}, {"bike_id": "9b5f9791134e828565a34368420735a4", "type": "electric_scooter", "is_disabled": 0, "lat": 38.87933983333333, "rental_uris": {"ios": "https://dc.lft.to/lastmile_qr_scan", "android": "https://dc.lft.to/lastmile_qr_scan"}, "is_reserved": 0, "fusion_lon": 0.0, "fusion_lat": 0.0, "lon": -77.01539383333333, "name": "9b5f9791134e828565a34368420735a4"}, {"bike_id": "cac117529bf24a01c29ec237c923a88b", "type": "electric_scooter", "is_disabled": 0, "lat": 38.92599116666667, "rental_uris": {"ios": "https://dc.lft.to/lastmile_qr_scan", "android": "https://dc.lft.to/lastmile_qr_scan"}, "is_reserved": 0, "fusion_lon": 0.0, "fusion_lat": 0.0, "lon": -77.021505, "name": "cac117529bf24a01c29ec237c923a88b"}, {"bike_id": "227078b38d3f14ba2231bd2afd4eb4ab", "type": "electric_scooter", "is_disabled": 0, "lat": 38.9406965, "rental_uris": {"ios": "https://dc.lft.to/lastmile_qr_scan", "android": "https://dc.lft.to/lastmile_qr_scan"}, "is_reserved": 0, "fusion_lon": 0.0, "fusion_lat": 0.0, "lon": -77.05250983333333, "name": "227078b38d3f14ba2231bd2afd4eb4ab"}, {"bike_id": "28a6e481861d697858d727f867a3c35e", "type": "electric_scooter", "is_disabled": 0, "lat": 38.9042635, "rental_uris": {"ios": "https://dc.lft.to/lastmile_qr_scan", "android": "https://dc.lft.to/lastmile_qr_scan"}, "is_reserved": 0, "fusion_lon": 0.0, "fusion_lat": 0.0, "lon": -77.02889566666667, "name": "28a6e481861d697858d727f867a3c35e"}, {"bike_id": "e9f1bac762b099c2b319fa938e578ac2", "type": "electric_scooter", "is_disabled": 0, "lat": 38.898971833333334, "rental_uris": {"ios": "https://dc.lft.to/lastmile_qr_scan", "android": "https://dc.lft.to/lastmile_qr_scan"}, "is_reserved": 0, "fusion_lon": 0.0, "fusion_lat": 0.0, "lon": -76.97606983333333, "name": "e9f1bac762b099c2b319fa938e578ac2"}, {"bike_id": "0451c78cfd13140ffcf8158e2e6b4205", "type": "electric_scooter", "is_disabled": 0, "lat": 38.92336183333333, "rental_uris": {"ios": "https://dc.lft.to/lastmile_qr_scan", "android": "https://dc.lft.to/lastmile_qr_scan"}, "is_reserved": 0, "fusion_lon": 0.0, "fusion_lat": 0.0, "lon": -77.05421016666666, "name": "0451c78cfd13140ffcf8158e2e6b4205"}, {"bike_id": "1312784dfd523c2ac4024711df2e2173", "type": "electric_scooter", "is_disabled": 0, "lat": 38.901892, "rental_uris": {"ios": "https://dc.lft.to/lastmile_qr_scan", "android": "https://dc.lft.to/lastmile_qr_scan"}, "is_reserved": 0, "fusion_lon": 0.0, "fusion_lat": 0.0, "lon": -76.98847816666667, "name": "1312784dfd523c2ac4024711df2e2173"}, {"bike_id": "07022ca7e2fc56a0960933aa4d68377e", "type": "electric_scooter", "is_disabled": 0, "lat": 38.91706683333334, "rental_uris": {"ios": "https://dc.lft.to/lastmile_qr_scan", "android": "https://dc.lft.to/lastmile_qr_scan"}, "is_reserved": 0, "fusion_lon": 0.0, "fusion_lat": 0.0, "lon": -77.09578116666667, "name": "07022ca7e2fc56a0960933aa4d68377e"}, {"bike_id": "688017f979c2c493b967742b235d813b", "type": "electric_scooter", "is_disabled": 0, "lat": 38.90409666666667, "rental_uris": {"ios": "https://dc.lft.to/lastmile_qr_scan", "android": "https://dc.lft.to/lastmile_qr_scan"}, "is_reserved": 0, "fusion_lon": 0.0, "fusion_lat": 0.0, "lon": -76.97329116666667, "name": "688017f979c2c493b967742b235d813b"}, {"bike_id": "bc56016833dcd2031efb755304600609", "type": "electric_bike", "is_disabled": 0, "lat": 38.89957416666667, "rental_uris": {"ios": "https://dc.lft.to/lastmile_qr_scan", "android": "https://dc.lft.to/lastmile_qr_scan"}, "is_reserved": 0, "fusion_lon": 0.0, "fusion_lat": 0.0, "lon": -77.05133066666667, "name": "bc56016833dcd2031efb755304600609"}, {"bike_id": "5ca4b8baca3af3f845eee9874b37a8a4", "type": "electric_bike", "is_disabled": 0, "lat": 38.95687183333333, "rental_uris": {"ios": "https://dc.lft.to/lastmile_qr_scan", "android": "https://dc.lft.to/lastmile_qr_scan"}, "is_reserved": 0, "fusion_lon": 0.0, "fusion_lat": 0.0, "lon": -77.022237, "name": "5ca4b8baca3af3f845eee9874b37a8a4"}, {"bike_id": "ca759d03dbbf422f35ec2d7ce7d40d87", "type": "electric_scooter", "is_disabled": 0, "lat": 38.92314116666667, "rental_uris": {"ios": "https://dc.lft.to/lastmile_qr_scan", "android": "https://dc.lft.to/lastmile_qr_scan"}, "is_reserved": 0, "fusion_lon": 0.0, "fusion_lat": 0.0, "lon": -77.02116833333334, "name": "ca759d03dbbf422f35ec2d7ce7d40d87"}, {"bike_id": "6ce5abc186ea3c232beb57c297f8e532", "type": "electric_scooter", "is_disabled": 0, "lat": 38.918146, "rental_uris": {"ios": "https://dc.lft.to/lastmile_qr_scan", "android": "https://dc.lft.to/lastmile_qr_scan"}, "is_reserved": 0, "fusion_lon": 0.0, "fusion_lat": 0.0, "lon": -77.03127216666667, "name": "6ce5abc186ea3c232beb57c297f8e532"}, {"bike_id": "678a05b80ea625d121d48014983fdb3c", "type": "electric_scooter", "is_disabled": 0, "lat": 38.91459483333333, "rental_uris": {"ios": "https://dc.lft.to/lastmile_qr_scan", "android": "https://dc.lft.to/lastmile_qr_scan"}, "is_reserved": 0, "fusion_lon": 0.0, "fusion_lat": 0.0, "lon": -77.03180916666666, "name": "678a05b80ea625d121d48014983fdb3c"}, {"bike_id": "9a4c7114761e2934f355729f9e2819fc", "type": "electric_scooter", "is_disabled": 0, "lat": 38.92183266666667, "rental_uris": {"ios": "https://dc.lft.to/lastmile_qr_scan", "android": "https://dc.lft.to/lastmile_qr_scan"}, "is_reserved": 0, "fusion_lon": 0.0, "fusion_lat": 0.0, "lon": -77.0191145, "name": "9a4c7114761e2934f355729f9e2819fc"}, {"bike_id": "b92b6aa5f8ee0c939634e031d1712e9d", "type": "electric_scooter", "is_disabled": 0, "lat": 38.915887833333336, "rental_uris": {"ios": "https://dc.lft.to/lastmile_qr_scan", "android": "https://dc.lft.to/lastmile_qr_scan"}, "is_reserved": 0, "fusion_lon": 0.0, "fusion_lat": 0.0, "lon": -77.031725, "name": "b92b6aa5f8ee0c939634e031d1712e9d"}, {"bike_id": "9a7d1e5871504d080f120c06eee98145", "type": "electric_scooter", "is_disabled": 0, "lat": 38.9515435, "rental_uris": {"ios": "https://dc.lft.to/lastmile_qr_scan", "android": "https://dc.lft.to/lastmile_qr_scan"}, "is_reserved": 0, "fusion_lon": 0.0, "fusion_lat": 0.0, "lon": -77.018689, "name": "9a7d1e5871504d080f120c06eee98145"}, {"bike_id": "ed21447219b36fca63ca6b9c770df7a5", "type": "electric_scooter", "is_disabled": 0, "lat": 38.905069, "rental_uris": {"ios": "https://dc.lft.to/lastmile_qr_scan", "android": "https://dc.lft.to/lastmile_qr_scan"}, "is_reserved": 0, "fusion_lon": 0.0, "fusion_lat": 0.0, "lon": -77.02488333333334, "name": "ed21447219b36fca63ca6b9c770df7a5"}, {"bike_id": "3ec25eee8c0a8dbc4c1c61f4835675f7", "type": "electric_scooter", "is_disabled": 0, "lat": 38.957317833333335, "rental_uris": {"ios": "https://dc.lft.to/lastmile_qr_scan", "android": "https://dc.lft.to/lastmile_qr_scan"}, "is_reserved": 0, "fusion_lon": 0.0, "fusion_lat": 0.0, "lon": -77.02399916666667, "name": "3ec25eee8c0a8dbc4c1c61f4835675f7"}, {"bike_id": "bf76f54ab7c1c139d01cd63e2cbff6a1", "type": "electric_scooter", "is_disabled": 0, "lat": 38.922839833333335, "rental_uris": {"ios": "https://dc.lft.to/lastmile_qr_scan", "android": "https://dc.lft.to/lastmile_qr_scan"}, "is_reserved": 0, "fusion_lon": 0.0, "fusion_lat": 0.0, "lon": -76.99448366666667, "name": "bf76f54ab7c1c139d01cd63e2cbff6a1"}, {"bike_id": "d8bf0fd2b0ab8096b9cbf32cbc5063aa", "type": "electric_scooter", "is_disabled": 0, "lat": 38.92372316666667, "rental_uris": {"ios": "https://dc.lft.to/lastmile_qr_scan", "android": "https://dc.lft.to/lastmile_qr_scan"}, "is_reserved": 0, "fusion_lon": 0.0, "fusion_lat": 0.0, "lon": -77.02526616666667, "name": "d8bf0fd2b0ab8096b9cbf32cbc5063aa"}, {"bike_id": "928555080bb6eddd838571344b52bf9c", "type": "electric_scooter", "is_disabled": 0, "lat": 38.86456666666667, "rental_uris": {"ios": "https://dc.lft.to/lastmile_qr_scan", "android": "https://dc.lft.to/lastmile_qr_scan"}, "is_reserved": 0, "fusion_lon": 0.0, "fusion_lat": 0.0, "lon": -77.01269166666667, "name": "928555080bb6eddd838571344b52bf9c"}, {"bike_id": "f0d3f8a9bb5ed81a82bf4377beb659eb", "type": "electric_scooter", "is_disabled": 0, "lat": 38.90957866666667, "rental_uris": {"ios": "https://dc.lft.to/lastmile_qr_scan", "android": "https://dc.lft.to/lastmile_qr_scan"}, "is_reserved": 0, "fusion_lon": 0.0, "fusion_lat": 0.0, "lon": -77.04859066666667, "name": "f0d3f8a9bb5ed81a82bf4377beb659eb"}, {"bike_id": "dd96a0fe3606a77a9177f8257d50bc5d", "type": "electric_scooter", "is_disabled": 0, "lat": 38.88932233333333, "rental_uris": {"ios": "https://dc.lft.to/lastmile_qr_scan", "android": "https://dc.lft.to/lastmile_qr_scan"}, "is_reserved": 0, "fusion_lon": 0.0, "fusion_lat": 0.0, "lon": -77.01502383333333, "name": "dd96a0fe3606a77a9177f8257d50bc5d"}, {"bike_id": "097060d6c4ad745239d51b26e41c0082", "type": "electric_scooter", "is_disabled": 0, "lat": 38.928517, "rental_uris": {"ios": "https://dc.lft.to/lastmile_qr_scan", "android": "https://dc.lft.to/lastmile_qr_scan"}, "is_reserved": 0, "fusion_lon": 0.0, "fusion_lat": 0.0, "lon": -77.0195065, "name": "097060d6c4ad745239d51b26e41c0082"}, {"bike_id": "1ee9b1f0bdd30766c1d15dbd47481c3b", "type": "electric_scooter", "is_disabled": 0, "lat": 38.906106666666666, "rental_uris": {"ios": "https://dc.lft.to/lastmile_qr_scan", "android": "https://dc.lft.to/lastmile_qr_scan"}, "is_reserved": 0, "fusion_lon": 0.0, "fusion_lat": 0.0, "lon": -77.05681983333334, "name": "1ee9b1f0bdd30766c1d15dbd47481c3b"}, {"bike_id": "2a866ef9a33a287def660cbbdc43e6fb", "type": "electric_scooter", "is_disabled": 0, "lat": 38.91659, "rental_uris": {"ios": "https://dc.lft.to/lastmile_qr_scan", "android": "https://dc.lft.to/lastmile_qr_scan"}, "is_reserved": 0, "fusion_lon": 0.0, "fusion_lat": 0.0, "lon": -77.038563, "name": "2a866ef9a33a287def660cbbdc43e6fb"}, {"bike_id": "e48ded14865212fb9ee9d62e1c2ce6e3", "type": "electric_scooter", "is_disabled": 0, "lat": 38.86441033333333, "rental_uris": {"ios": "https://dc.lft.to/lastmile_qr_scan", "android": "https://dc.lft.to/lastmile_qr_scan"}, "is_reserved": 0, "fusion_lon": 0.0, "fusion_lat": 0.0, "lon": -76.98994233333333, "name": "e48ded14865212fb9ee9d62e1c2ce6e3"}, {"bike_id": "3bc7d9b12c879cef72de6bd5d846eb11", "type": "electric_bike", "is_disabled": 0, "lat": 38.880597333333334, "rental_uris": {"ios": "https://dc.lft.to/lastmile_qr_scan", "android": "https://dc.lft.to/lastmile_qr_scan"}, "is_reserved": 0, "fusion_lon": 0.0, "fusion_lat": 0.0, "lon": -76.9623675, "name": "3bc7d9b12c879cef72de6bd5d846eb11"}, {"bike_id": "7bade38d06d769d655f7f48cc96152e6", "type": "electric_scooter", "is_disabled": 0, "lat": 38.91931483333333, "rental_uris": {"ios": "https://dc.lft.to/lastmile_qr_scan", "android": "https://dc.lft.to/lastmile_qr_scan"}, "is_reserved": 0, "fusion_lon": 0.0, "fusion_lat": 0.0, "lon": -77.04497, "name": "7bade38d06d769d655f7f48cc96152e6"}, {"bike_id": "29dc22a55949d9e88d9210c36c122fba", "type": "electric_scooter", "is_disabled": 0, "lat": 38.91003966666667, "rental_uris": {"ios": "https://dc.lft.to/lastmile_qr_scan", "android": "https://dc.lft.to/lastmile_qr_scan"}, "is_reserved": 0, "fusion_lon": 0.0, "fusion_lat": 0.0, "lon": -76.98633983333333, "name": "29dc22a55949d9e88d9210c36c122fba"}, {"bike_id": "f7e666989e965fb2003bf5ae2dd653c4", "type": "electric_scooter", "is_disabled": 0, "lat": 38.92148616666667, "rental_uris": {"ios": "https://dc.lft.to/lastmile_qr_scan", "android": "https://dc.lft.to/lastmile_qr_scan"}, "is_reserved": 0, "fusion_lon": 0.0, "fusion_lat": 0.0, "lon": -77.03529766666666, "name": "f7e666989e965fb2003bf5ae2dd653c4"}, {"bike_id": "17d6df126031ea28fdbbcdf6630d844d", "type": "electric_scooter", "is_disabled": 0, "lat": 38.947882166666666, "rental_uris": {"ios": "https://dc.lft.to/lastmile_qr_scan", "android": "https://dc.lft.to/lastmile_qr_scan"}, "is_reserved": 0, "fusion_lon": 0.0, "fusion_lat": 0.0, "lon": -77.0213165, "name": "17d6df126031ea28fdbbcdf6630d844d"}, {"bike_id": "112f3d6b21ebd56427ef1da3a5635e3f", "type": "electric_bike", "is_disabled": 0, "lat": 38.8727815, "rental_uris": {"ios": "https://dc.lft.to/lastmile_qr_scan", "android": "https://dc.lft.to/lastmile_qr_scan"}, "is_reserved": 0, "fusion_lon": 0.0, "fusion_lat": 0.0, "lon": -77.2331915, "name": "112f3d6b21ebd56427ef1da3a5635e3f"}, {"bike_id": "2721f59a3eabe4f133902fa3070029f6", "type": "electric_scooter", "is_disabled": 0, "lat": 38.91614083333333, "rental_uris": {"ios": "https://dc.lft.to/lastmile_qr_scan", "android": "https://dc.lft.to/lastmile_qr_scan"}, "is_reserved": 0, "fusion_lon": 0.0, "fusion_lat": 0.0, "lon": -77.04862, "name": "2721f59a3eabe4f133902fa3070029f6"}, {"bike_id": "342f3323c9e10f532272bcd53883e40c", "type": "electric_scooter", "is_disabled": 0, "lat": 38.8728725, "rental_uris": {"ios": "https://dc.lft.to/lastmile_qr_scan", "android": "https://dc.lft.to/lastmile_qr_scan"}, "is_reserved": 0, "fusion_lon": 0.0, "fusion_lat": 0.0, "lon": -77.00983816666667, "name": "342f3323c9e10f532272bcd53883e40c"}, {"bike_id": "3919749e6a2c8917498c278f520516c1", "type": "electric_bike", "is_disabled": 0, "lat": 38.910161333333335, "rental_uris": {"ios": "https://dc.lft.to/lastmile_qr_scan", "android": "https://dc.lft.to/lastmile_qr_scan"}, "is_reserved": 0, "fusion_lon": 0.0, "fusion_lat": 0.0, "lon": -77.22797633333333, "name": "3919749e6a2c8917498c278f520516c1"}, {"bike_id": "6ebadf55e37e9fb6ae4e5705a1d7a146", "type": "electric_scooter", "is_disabled": 0, "lat": 38.921319833333335, "rental_uris": {"ios": "https://dc.lft.to/lastmile_qr_scan", "android": "https://dc.lft.to/lastmile_qr_scan"}, "is_reserved": 0, "fusion_lon": 0.0, "fusion_lat": 0.0, "lon": -77.04568533333334, "name": "6ebadf55e37e9fb6ae4e5705a1d7a146"}, {"bike_id": "27826c6c4ec8c2a23059768b5089f12c", "type": "electric_scooter", "is_disabled": 0, "lat": 38.91911983333333, "rental_uris": {"ios": "https://dc.lft.to/lastmile_qr_scan", "android": "https://dc.lft.to/lastmile_qr_scan"}, "is_reserved": 0, "fusion_lon": 0.0, "fusion_lat": 0.0, "lon": -77.0141385, "name": "27826c6c4ec8c2a23059768b5089f12c"}, {"bike_id": "81a4e7f70cccd582c0836e3c8445809e", "type": "electric_scooter", "is_disabled": 0, "lat": 38.936785, "rental_uris": {"ios": "https://dc.lft.to/lastmile_qr_scan", "android": "https://dc.lft.to/lastmile_qr_scan"}, "is_reserved": 0, "fusion_lon": 0.0, "fusion_lat": 0.0, "lon": -77.03622, "name": "81a4e7f70cccd582c0836e3c8445809e"}, {"bike_id": "fec00b8d8c95a05abe5360c8971313e6", "type": "electric_scooter", "is_disabled": 0, "lat": 38.94697333333333, "rental_uris": {"ios": "https://dc.lft.to/lastmile_qr_scan", "android": "https://dc.lft.to/lastmile_qr_scan"}, "is_reserved": 0, "fusion_lon": 0.0, "fusion_lat": 0.0, "lon": -77.01935433333334, "name": "fec00b8d8c95a05abe5360c8971313e6"}, {"bike_id": "30dd1e57ec2d36869a3e02310b21a7d8", "type": "electric_scooter", "is_disabled": 0, "lat": 38.926, "rental_uris": {"ios": "https://dc.lft.to/lastmile_qr_scan", "android": "https://dc.lft.to/lastmile_qr_scan"}, "is_reserved": 0, "fusion_lon": 0.0, "fusion_lat": 0.0, "lon": -77.02493366666667, "name": "30dd1e57ec2d36869a3e02310b21a7d8"}, {"bike_id": "40359c381bb459e4df7d72f831b0a4e8", "type": "electric_scooter", "is_disabled": 0, "lat": 38.91402683333333, "rental_uris": {"ios": "https://dc.lft.to/lastmile_qr_scan", "android": "https://dc.lft.to/lastmile_qr_scan"}, "is_reserved": 0, "fusion_lon": 0.0, "fusion_lat": 0.0, "lon": -77.01555616666667, "name": "40359c381bb459e4df7d72f831b0a4e8"}, {"bike_id": "cd50b525cffab08ca6d9e0dc37d4cde9", "type": "electric_scooter", "is_disabled": 0, "lat": 38.90099816666667, "rental_uris": {"ios": "https://dc.lft.to/lastmile_qr_scan", "android": "https://dc.lft.to/lastmile_qr_scan"}, "is_reserved": 0, "fusion_lon": 0.0, "fusion_lat": 0.0, "lon": -77.05782916666666, "name": "cd50b525cffab08ca6d9e0dc37d4cde9"}, {"bike_id": "6ca24a2a8d4a7a34312253ab53148406", "type": "electric_scooter", "is_disabled": 0, "lat": 38.8696815, "rental_uris": {"ios": "https://dc.lft.to/lastmile_qr_scan", "android": "https://dc.lft.to/lastmile_qr_scan"}, "is_reserved": 0, "fusion_lon": 0.0, "fusion_lat": 0.0, "lon": -76.98172366666667, "name": "6ca24a2a8d4a7a34312253ab53148406"}, {"bike_id": "94c950b1b856bafba4e6fdc3d15533e9", "type": "electric_scooter", "is_disabled": 0, "lat": 38.924431, "rental_uris": {"ios": "https://dc.lft.to/lastmile_qr_scan", "android": "https://dc.lft.to/lastmile_qr_scan"}, "is_reserved": 0, "fusion_lon": 0.0, "fusion_lat": 0.0, "lon": -77.033551, "name": "94c950b1b856bafba4e6fdc3d15533e9"}, {"bike_id": "8e3bd08c8fbf5c6658e511b8db181ff4", "type": "electric_scooter", "is_disabled": 0, "lat": 38.900857, "rental_uris": {"ios": "https://dc.lft.to/lastmile_qr_scan", "android": "https://dc.lft.to/lastmile_qr_scan"}, "is_reserved": 0, "fusion_lon": 0.0, "fusion_lat": 0.0, "lon": -77.01909583333334, "name": "8e3bd08c8fbf5c6658e511b8db181ff4"}, {"bike_id": "e69b0114d681f245e13d9f2e49989f28", "type": "electric_scooter", "is_disabled": 0, "lat": 38.8763455, "rental_uris": {"ios": "https://dc.lft.to/lastmile_qr_scan", "android": "https://dc.lft.to/lastmile_qr_scan"}, "is_reserved": 0, "fusion_lon": 0.0, "fusion_lat": 0.0, "lon": -77.00834233333333, "name": "e69b0114d681f245e13d9f2e49989f28"}, {"bike_id": "3288734ef5c612958a2d452cc64bbdd7", "type": "electric_scooter", "is_disabled": 0, "lat": 38.887149, "rental_uris": {"ios": "https://dc.lft.to/lastmile_qr_scan", "android": "https://dc.lft.to/lastmile_qr_scan"}, "is_reserved": 0, "fusion_lon": 0.0, "fusion_lat": 0.0, "lon": -77.0282875, "name": "3288734ef5c612958a2d452cc64bbdd7"}, {"bike_id": "e77b93db380f2502d9ba8cfa84061abb", "type": "electric_scooter", "is_disabled": 0, "lat": 38.924113166666665, "rental_uris": {"ios": "https://dc.lft.to/lastmile_qr_scan", "android": "https://dc.lft.to/lastmile_qr_scan"}, "is_reserved": 0, "fusion_lon": 0.0, "fusion_lat": 0.0, "lon": -77.05059616666666, "name": "e77b93db380f2502d9ba8cfa84061abb"}, {"bike_id": "8cf56fd7b2b98e71a1ecdd6ad767947c", "type": "electric_bike", "is_disabled": 0, "lat": 38.87474733333333, "rental_uris": {"ios": "https://dc.lft.to/lastmile_qr_scan", "android": "https://dc.lft.to/lastmile_qr_scan"}, "is_reserved": 0, "fusion_lon": 0.0, "fusion_lat": 0.0, "lon": -76.96531083333333, "name": "8cf56fd7b2b98e71a1ecdd6ad767947c"}, {"bike_id": "d0fc0fd17ccf77cb34d59d09993e884c", "type": "electric_scooter", "is_disabled": 0, "lat": 38.90409433333333, "rental_uris": {"ios": "https://dc.lft.to/lastmile_qr_scan", "android": "https://dc.lft.to/lastmile_qr_scan"}, "is_reserved": 0, "fusion_lon": 0.0, "fusion_lat": 0.0, "lon": -77.00586966666667, "name": "d0fc0fd17ccf77cb34d59d09993e884c"}, {"bike_id": "f958c6c82336fb0c9c0ede99c25eaaa6", "type": "electric_scooter", "is_disabled": 0, "lat": 38.89731783333333, "rental_uris": {"ios": "https://dc.lft.to/lastmile_qr_scan", "android": "https://dc.lft.to/lastmile_qr_scan"}, "is_reserved": 0, "fusion_lon": 0.0, "fusion_lat": 0.0, "lon": -77.04851483333333, "name": "f958c6c82336fb0c9c0ede99c25eaaa6"}, {"bike_id": "61105e21aef0e07b2a2209e53dc70dfc", "type": "electric_scooter", "is_disabled": 0, "lat": 38.93186766666667, "rental_uris": {"ios": "https://dc.lft.to/lastmile_qr_scan", "android": "https://dc.lft.to/lastmile_qr_scan"}, "is_reserved": 0, "fusion_lon": 0.0, "fusion_lat": 0.0, "lon": -77.04528116666667, "name": "61105e21aef0e07b2a2209e53dc70dfc"}, {"bike_id": "a5e71c8eebf93d876851aad09732b15a", "type": "electric_scooter", "is_disabled": 0, "lat": 38.89734283333333, "rental_uris": {"ios": "https://dc.lft.to/lastmile_qr_scan", "android": "https://dc.lft.to/lastmile_qr_scan"}, "is_reserved": 0, "fusion_lon": 0.0, "fusion_lat": 0.0, "lon": -76.997542, "name": "a5e71c8eebf93d876851aad09732b15a"}, {"bike_id": "46054d5bdb5e326f9d016470f44dca3c", "type": "electric_scooter", "is_disabled": 0, "lat": 38.900128333333335, "rental_uris": {"ios": "https://dc.lft.to/lastmile_qr_scan", "android": "https://dc.lft.to/lastmile_qr_scan"}, "is_reserved": 0, "fusion_lon": 0.0, "fusion_lat": 0.0, "lon": -77.00214266666667, "name": "46054d5bdb5e326f9d016470f44dca3c"}, {"bike_id": "80b311fff7516d430f812d0a76b49542", "type": "electric_scooter", "is_disabled": 0, "lat": 38.901667333333336, "rental_uris": {"ios": "https://dc.lft.to/lastmile_qr_scan", "android": "https://dc.lft.to/lastmile_qr_scan"}, "is_reserved": 0, "fusion_lon": 0.0, "fusion_lat": 0.0, "lon": -76.930243, "name": "80b311fff7516d430f812d0a76b49542"}, {"bike_id": "14337a30933f615f39339e0c20d6f649", "type": "electric_scooter", "is_disabled": 0, "lat": 38.91460633333333, "rental_uris": {"ios": "https://dc.lft.to/lastmile_qr_scan", "android": "https://dc.lft.to/lastmile_qr_scan"}, "is_reserved": 0, "fusion_lon": 0.0, "fusion_lat": 0.0, "lon": -77.03859716666666, "name": "14337a30933f615f39339e0c20d6f649"}, {"bike_id": "4317ce59babdc8d332b38d1029d09346", "type": "electric_bike", "is_disabled": 0, "lat": 38.8130645, "rental_uris": {"ios": "https://dc.lft.to/lastmile_qr_scan", "android": "https://dc.lft.to/lastmile_qr_scan"}, "is_reserved": 0, "fusion_lon": 0.0, "fusion_lat": 0.0, "lon": -77.10964216666666, "name": "4317ce59babdc8d332b38d1029d09346"}, {"bike_id": "76741051645a0ee78fc374fd7e4fa3b1", "type": "electric_scooter", "is_disabled": 0, "lat": 38.917359833333336, "rental_uris": {"ios": "https://dc.lft.to/lastmile_qr_scan", "android": "https://dc.lft.to/lastmile_qr_scan"}, "is_reserved": 0, "fusion_lon": 0.0, "fusion_lat": 0.0, "lon": -77.0407405, "name": "76741051645a0ee78fc374fd7e4fa3b1"}, {"bike_id": "18233d25871d0e487268ee69d2c0f2fe", "type": "electric_scooter", "is_disabled": 0, "lat": 38.907351, "rental_uris": {"ios": "https://dc.lft.to/lastmile_qr_scan", "android": "https://dc.lft.to/lastmile_qr_scan"}, "is_reserved": 0, "fusion_lon": 0.0, "fusion_lat": 0.0, "lon": -77.02801566666666, "name": "18233d25871d0e487268ee69d2c0f2fe"}, {"bike_id": "58f9be7528b55740c027c452c973130b", "type": "electric_scooter", "is_disabled": 0, "lat": 38.90195416666667, "rental_uris": {"ios": "https://dc.lft.to/lastmile_qr_scan", "android": "https://dc.lft.to/lastmile_qr_scan"}, "is_reserved": 0, "fusion_lon": 0.0, "fusion_lat": 0.0, "lon": -77.020772, "name": "58f9be7528b55740c027c452c973130b"}, {"bike_id": "a55e5a5cfd09bc055016029e4135de9a", "type": "electric_scooter", "is_disabled": 0, "lat": 38.88713383333333, "rental_uris": {"ios": "https://dc.lft.to/lastmile_qr_scan", "android": "https://dc.lft.to/lastmile_qr_scan"}, "is_reserved": 0, "fusion_lon": 0.0, "fusion_lat": 0.0, "lon": -77.028373, "name": "a55e5a5cfd09bc055016029e4135de9a"}, {"bike_id": "0244b7c4c7f4078050f665cbad300b9c", "type": "electric_scooter", "is_disabled": 0, "lat": 38.956313, "rental_uris": {"ios": "https://dc.lft.to/lastmile_qr_scan", "android": "https://dc.lft.to/lastmile_qr_scan"}, "is_reserved": 0, "fusion_lon": 0.0, "fusion_lat": 0.0, "lon": -77.01152966666666, "name": "0244b7c4c7f4078050f665cbad300b9c"}, {"bike_id": "f81ebc73c8003c725f3b15a39bf578aa", "type": "electric_scooter", "is_disabled": 0, "lat": 38.92654483333333, "rental_uris": {"ios": "https://dc.lft.to/lastmile_qr_scan", "android": "https://dc.lft.to/lastmile_qr_scan"}, "is_reserved": 0, "fusion_lon": 0.0, "fusion_lat": 0.0, "lon": -77.0372835, "name": "f81ebc73c8003c725f3b15a39bf578aa"}, {"bike_id": "78df7dff111dace0c3bcd443b6b77c70", "type": "electric_scooter", "is_disabled": 0, "lat": 38.91107216666666, "rental_uris": {"ios": "https://dc.lft.to/lastmile_qr_scan", "android": "https://dc.lft.to/lastmile_qr_scan"}, "is_reserved": 0, "fusion_lon": 0.0, "fusion_lat": 0.0, "lon": -77.034696, "name": "78df7dff111dace0c3bcd443b6b77c70"}, {"bike_id": "66daadc501afffd0a79526b59a6bad28", "type": "electric_bike", "is_disabled": 0, "lat": 38.832358166666666, "rental_uris": {"ios": "https://dc.lft.to/lastmile_qr_scan", "android": "https://dc.lft.to/lastmile_qr_scan"}, "is_reserved": 0, "fusion_lon": 0.0, "fusion_lat": 0.0, "lon": -76.946269, "name": "66daadc501afffd0a79526b59a6bad28"}, {"bike_id": "7f27aeef1717afe1e20794b20ceebf92", "type": "electric_scooter", "is_disabled": 0, "lat": 38.911172666666666, "rental_uris": {"ios": "https://dc.lft.to/lastmile_qr_scan", "android": "https://dc.lft.to/lastmile_qr_scan"}, "is_reserved": 0, "fusion_lon": 0.0, "fusion_lat": 0.0, "lon": -77.042339, "name": "7f27aeef1717afe1e20794b20ceebf92"}, {"bike_id": "bdbfcbf77ff596c41c4153bb20ac7592", "type": "electric_scooter", "is_disabled": 0, "lat": 38.900091833333335, "rental_uris": {"ios": "https://dc.lft.to/lastmile_qr_scan", "android": "https://dc.lft.to/lastmile_qr_scan"}, "is_reserved": 0, "fusion_lon": 0.0, "fusion_lat": 0.0, "lon": -77.04681883333333, "name": "bdbfcbf77ff596c41c4153bb20ac7592"}, {"bike_id": "cfdd31d293d8cc7789d7c8a5293038da", "type": "electric_bike", "is_disabled": 0, "lat": 39.05050383333333, "rental_uris": {"ios": "https://dc.lft.to/lastmile_qr_scan", "android": "https://dc.lft.to/lastmile_qr_scan"}, "is_reserved": 0, "fusion_lon": 0.0, "fusion_lat": 0.0, "lon": -77.05143433333333, "name": "cfdd31d293d8cc7789d7c8a5293038da"}, {"bike_id": "48cf33319b7abfccb881d4ce23b79e74", "type": "electric_scooter", "is_disabled": 0, "lat": 38.9141255, "rental_uris": {"ios": "https://dc.lft.to/lastmile_qr_scan", "android": "https://dc.lft.to/lastmile_qr_scan"}, "is_reserved": 0, "fusion_lon": 0.0, "fusion_lat": 0.0, "lon": -77.02984816666667, "name": "48cf33319b7abfccb881d4ce23b79e74"}, {"bike_id": "ddbfffdbe0f1d60b42bda1004afbdfda", "type": "electric_scooter", "is_disabled": 0, "lat": 38.90424266666667, "rental_uris": {"ios": "https://dc.lft.to/lastmile_qr_scan", "android": "https://dc.lft.to/lastmile_qr_scan"}, "is_reserved": 0, "fusion_lon": 0.0, "fusion_lat": 0.0, "lon": -77.02769583333334, "name": "ddbfffdbe0f1d60b42bda1004afbdfda"}, {"bike_id": "bc815b3e94b979682c3c5dcd8c1e18cb", "type": "electric_scooter", "is_disabled": 0, "lat": 38.917365833333335, "rental_uris": {"ios": "https://dc.lft.to/lastmile_qr_scan", "android": "https://dc.lft.to/lastmile_qr_scan"}, "is_reserved": 0, "fusion_lon": 0.0, "fusion_lat": 0.0, "lon": -77.02697283333333, "name": "bc815b3e94b979682c3c5dcd8c1e18cb"}, {"bike_id": "ad2fa67b7aa7497d75d2edfb9ef8b196", "type": "electric_scooter", "is_disabled": 0, "lat": 38.90013016666666, "rental_uris": {"ios": "https://dc.lft.to/lastmile_qr_scan", "android": "https://dc.lft.to/lastmile_qr_scan"}, "is_reserved": 0, "fusion_lon": 0.0, "fusion_lat": 0.0, "lon": -77.04463333333334, "name": "ad2fa67b7aa7497d75d2edfb9ef8b196"}, {"bike_id": "967fe464e1c658555311fef632d2ea2c", "type": "electric_scooter", "is_disabled": 0, "lat": 38.898038, "rental_uris": {"ios": "https://dc.lft.to/lastmile_qr_scan", "android": "https://dc.lft.to/lastmile_qr_scan"}, "is_reserved": 0, "fusion_lon": 0.0, "fusion_lat": 0.0, "lon": -77.01184366666666, "name": "967fe464e1c658555311fef632d2ea2c"}, {"bike_id": "32bc115532fb05b2f64e1bb1dfdee8df", "type": "electric_scooter", "is_disabled": 0, "lat": 38.932551, "rental_uris": {"ios": "https://dc.lft.to/lastmile_qr_scan", "android": "https://dc.lft.to/lastmile_qr_scan"}, "is_reserved": 0, "fusion_lon": 0.0, "fusion_lat": 0.0, "lon": -77.038549, "name": "32bc115532fb05b2f64e1bb1dfdee8df"}, {"bike_id": "6bd34cb8ffa4fc89dbff00b84a5d42d5", "type": "electric_scooter", "is_disabled": 0, "lat": 38.8933995, "rental_uris": {"ios": "https://dc.lft.to/lastmile_qr_scan", "android": "https://dc.lft.to/lastmile_qr_scan"}, "is_reserved": 0, "fusion_lon": 0.0, "fusion_lat": 0.0, "lon": -77.02827333333333, "name": "6bd34cb8ffa4fc89dbff00b84a5d42d5"}, {"bike_id": "3a50933611f9d6550dae9dd4b39ad4ed", "type": "electric_scooter", "is_disabled": 0, "lat": 38.909592333333336, "rental_uris": {"ios": "https://dc.lft.to/lastmile_qr_scan", "android": "https://dc.lft.to/lastmile_qr_scan"}, "is_reserved": 0, "fusion_lon": 0.0, "fusion_lat": 0.0, "lon": -77.04865083333334, "name": "3a50933611f9d6550dae9dd4b39ad4ed"}, {"bike_id": "1a1a3f738f8e00659453f960952a33f4", "type": "electric_scooter", "is_disabled": 0, "lat": 38.88019666666667, "rental_uris": {"ios": "https://dc.lft.to/lastmile_qr_scan", "android": "https://dc.lft.to/lastmile_qr_scan"}, "is_reserved": 0, "fusion_lon": 0.0, "fusion_lat": 0.0, "lon": -77.02475083333333, "name": "1a1a3f738f8e00659453f960952a33f4"}, {"bike_id": "c7a081eb57376eeb3779e95b633b96da", "type": "electric_scooter", "is_disabled": 0, "lat": 38.89345316666667, "rental_uris": {"ios": "https://dc.lft.to/lastmile_qr_scan", "android": "https://dc.lft.to/lastmile_qr_scan"}, "is_reserved": 0, "fusion_lon": 0.0, "fusion_lat": 0.0, "lon": -76.98087533333333, "name": "c7a081eb57376eeb3779e95b633b96da"}, {"bike_id": "c46fdc0dbeffb88a5b7f202d3d045ef4", "type": "electric_scooter", "is_disabled": 0, "lat": 38.94287533333333, "rental_uris": {"ios": "https://dc.lft.to/lastmile_qr_scan", "android": "https://dc.lft.to/lastmile_qr_scan"}, "is_reserved": 0, "fusion_lon": 0.0, "fusion_lat": 0.0, "lon": -77.00487216666667, "name": "c46fdc0dbeffb88a5b7f202d3d045ef4"}, {"bike_id": "a1e23adb2bd2c472f1059371726d89b6", "type": "electric_scooter", "is_disabled": 0, "lat": 38.873314, "rental_uris": {"ios": "https://dc.lft.to/lastmile_qr_scan", "android": "https://dc.lft.to/lastmile_qr_scan"}, "is_reserved": 0, "fusion_lon": 0.0, "fusion_lat": 0.0, "lon": -77.00057016666666, "name": "a1e23adb2bd2c472f1059371726d89b6"}, {"bike_id": "feb97d1b0074d34734a27d61f445f18a", "type": "electric_scooter", "is_disabled": 0, "lat": 38.91016, "rental_uris": {"ios": "https://dc.lft.to/lastmile_qr_scan", "android": "https://dc.lft.to/lastmile_qr_scan"}, "is_reserved": 0, "fusion_lon": 0.0, "fusion_lat": 0.0, "lon": -77.0527495, "name": "feb97d1b0074d34734a27d61f445f18a"}, {"bike_id": "5c162072f64671ca550ac415718661b0", "type": "electric_scooter", "is_disabled": 0, "lat": 38.893202, "rental_uris": {"ios": "https://dc.lft.to/lastmile_qr_scan", "android": "https://dc.lft.to/lastmile_qr_scan"}, "is_reserved": 0, "fusion_lon": 0.0, "fusion_lat": 0.0, "lon": -77.048766, "name": "5c162072f64671ca550ac415718661b0"}, {"bike_id": "d42ca91e76aa2107dd146e8d70d491c7", "type": "electric_scooter", "is_disabled": 0, "lat": 38.916010666666665, "rental_uris": {"ios": "https://dc.lft.to/lastmile_qr_scan", "android": "https://dc.lft.to/lastmile_qr_scan"}, "is_reserved": 0, "fusion_lon": 0.0, "fusion_lat": 0.0, "lon": -77.01545166666666, "name": "d42ca91e76aa2107dd146e8d70d491c7"}, {"bike_id": "7f236c8d854220bc7fe4cfc528700801", "type": "electric_scooter", "is_disabled": 0, "lat": 38.92737983333333, "rental_uris": {"ios": "https://dc.lft.to/lastmile_qr_scan", "android": "https://dc.lft.to/lastmile_qr_scan"}, "is_reserved": 0, "fusion_lon": 0.0, "fusion_lat": 0.0, "lon": -77.02288716666666, "name": "7f236c8d854220bc7fe4cfc528700801"}, {"bike_id": "5bb8c2c344859d20650173a8c7251c74", "type": "electric_bike", "is_disabled": 0, "lat": 38.87478383333333, "rental_uris": {"ios": "https://dc.lft.to/lastmile_qr_scan", "android": "https://dc.lft.to/lastmile_qr_scan"}, "is_reserved": 0, "fusion_lon": 0.0, "fusion_lat": 0.0, "lon": -76.96534066666666, "name": "5bb8c2c344859d20650173a8c7251c74"}, {"bike_id": "1e7d48fadbcbc1b588a8364e39a4738c", "type": "electric_scooter", "is_disabled": 0, "lat": 38.904012, "rental_uris": {"ios": "https://dc.lft.to/lastmile_qr_scan", "android": "https://dc.lft.to/lastmile_qr_scan"}, "is_reserved": 0, "fusion_lon": 0.0, "fusion_lat": 0.0, "lon": -77.06508533333333, "name": "1e7d48fadbcbc1b588a8364e39a4738c"}, {"bike_id": "9eb35f23d13cb45f02c3ba19ba45348c", "type": "electric_scooter", "is_disabled": 0, "lat": 38.90389666666667, "rental_uris": {"ios": "https://dc.lft.to/lastmile_qr_scan", "android": "https://dc.lft.to/lastmile_qr_scan"}, "is_reserved": 0, "fusion_lon": 0.0, "fusion_lat": 0.0, "lon": -77.01737483333334, "name": "9eb35f23d13cb45f02c3ba19ba45348c"}, {"bike_id": "c6002714b406232a2dfdae9095399669", "type": "electric_scooter", "is_disabled": 0, "lat": 38.90000416666667, "rental_uris": {"ios": "https://dc.lft.to/lastmile_qr_scan", "android": "https://dc.lft.to/lastmile_qr_scan"}, "is_reserved": 0, "fusion_lon": 0.0, "fusion_lat": 0.0, "lon": -76.99626616666667, "name": "c6002714b406232a2dfdae9095399669"}, {"bike_id": "3b1c1d69f86d4c3884453025165036a0", "type": "electric_bike", "is_disabled": 0, "lat": 38.813281333333336, "rental_uris": {"ios": "https://dc.lft.to/lastmile_qr_scan", "android": "https://dc.lft.to/lastmile_qr_scan"}, "is_reserved": 0, "fusion_lon": 0.0, "fusion_lat": 0.0, "lon": -77.05094133333333, "name": "3b1c1d69f86d4c3884453025165036a0"}, {"bike_id": "69f3c96605ac8a4cff8172b79ab99c7c", "type": "electric_scooter", "is_disabled": 0, "lat": 38.917713666666664, "rental_uris": {"ios": "https://dc.lft.to/lastmile_qr_scan", "android": "https://dc.lft.to/lastmile_qr_scan"}, "is_reserved": 0, "fusion_lon": 0.0, "fusion_lat": 0.0, "lon": -77.0345645, "name": "69f3c96605ac8a4cff8172b79ab99c7c"}, {"bike_id": "865cfcfe3d8a5717567099af52faafee", "type": "electric_scooter", "is_disabled": 0, "lat": 38.918118166666666, "rental_uris": {"ios": "https://dc.lft.to/lastmile_qr_scan", "android": "https://dc.lft.to/lastmile_qr_scan"}, "is_reserved": 0, "fusion_lon": 0.0, "fusion_lat": 0.0, "lon": -77.036689, "name": "865cfcfe3d8a5717567099af52faafee"}, {"bike_id": "93087001c21406f091b61f76505243d5", "type": "electric_scooter", "is_disabled": 0, "lat": 38.94187683333333, "rental_uris": {"ios": "https://dc.lft.to/lastmile_qr_scan", "android": "https://dc.lft.to/lastmile_qr_scan"}, "is_reserved": 0, "fusion_lon": 0.0, "fusion_lat": 0.0, "lon": -77.02493283333334, "name": "93087001c21406f091b61f76505243d5"}, {"bike_id": "ceff1701ed4b3c1d7e4f93f079809b0c", "type": "electric_scooter", "is_disabled": 0, "lat": 38.934598333333334, "rental_uris": {"ios": "https://dc.lft.to/lastmile_qr_scan", "android": "https://dc.lft.to/lastmile_qr_scan"}, "is_reserved": 0, "fusion_lon": 0.0, "fusion_lat": 0.0, "lon": -76.9644125, "name": "ceff1701ed4b3c1d7e4f93f079809b0c"}, {"bike_id": "f666b0251dc1a9c0d7a76710053f11e5", "type": "electric_scooter", "is_disabled": 0, "lat": 38.90470583333333, "rental_uris": {"ios": "https://dc.lft.to/lastmile_qr_scan", "android": "https://dc.lft.to/lastmile_qr_scan"}, "is_reserved": 0, "fusion_lon": 0.0, "fusion_lat": 0.0, "lon": -77.05326216666667, "name": "f666b0251dc1a9c0d7a76710053f11e5"}, {"bike_id": "78467dc69f14d9f806716a2cdfa5d030", "type": "electric_scooter", "is_disabled": 0, "lat": 38.9291185, "rental_uris": {"ios": "https://dc.lft.to/lastmile_qr_scan", "android": "https://dc.lft.to/lastmile_qr_scan"}, "is_reserved": 0, "fusion_lon": 0.0, "fusion_lat": 0.0, "lon": -77.03605283333333, "name": "78467dc69f14d9f806716a2cdfa5d030"}, {"bike_id": "4ea005d10c0912423331dbc16bd31b85", "type": "electric_scooter", "is_disabled": 0, "lat": 38.90386566666667, "rental_uris": {"ios": "https://dc.lft.to/lastmile_qr_scan", "android": "https://dc.lft.to/lastmile_qr_scan"}, "is_reserved": 0, "fusion_lon": 0.0, "fusion_lat": 0.0, "lon": -77.0177735, "name": "4ea005d10c0912423331dbc16bd31b85"}, {"bike_id": "8c8785980994198f6218a2cb8cbcb73a", "type": "electric_bike", "is_disabled": 0, "lat": 38.94784533333333, "rental_uris": {"ios": "https://dc.lft.to/lastmile_qr_scan", "android": "https://dc.lft.to/lastmile_qr_scan"}, "is_reserved": 0, "fusion_lon": 0.0, "fusion_lat": 0.0, "lon": -76.97207666666667, "name": "8c8785980994198f6218a2cb8cbcb73a"}, {"bike_id": "8508bc80ac50c83de7389e595fade253", "type": "electric_bike", "is_disabled": 0, "lat": 38.957021833333336, "rental_uris": {"ios": "https://dc.lft.to/lastmile_qr_scan", "android": "https://dc.lft.to/lastmile_qr_scan"}, "is_reserved": 0, "fusion_lon": 0.0, "fusion_lat": 0.0, "lon": -77.0241245, "name": "8508bc80ac50c83de7389e595fade253"}, {"bike_id": "fb21265dea65c6b929fff6f44069b5e7", "type": "electric_scooter", "is_disabled": 0, "lat": 38.907903833333336, "rental_uris": {"ios": "https://dc.lft.to/lastmile_qr_scan", "android": "https://dc.lft.to/lastmile_qr_scan"}, "is_reserved": 0, "fusion_lon": 0.0, "fusion_lat": 0.0, "lon": -77.00952666666667, "name": "fb21265dea65c6b929fff6f44069b5e7"}, {"bike_id": "8fcf5d0c5e48dc4d58c444d901268cdd", "type": "electric_bike", "is_disabled": 0, "lat": 39.024377333333334, "rental_uris": {"ios": "https://dc.lft.to/lastmile_qr_scan", "android": "https://dc.lft.to/lastmile_qr_scan"}, "is_reserved": 0, "fusion_lon": 0.0, "fusion_lat": 0.0, "lon": -77.1309975, "name": "8fcf5d0c5e48dc4d58c444d901268cdd"}, {"bike_id": "ceb8fda72348dac71de32c0f7ab9c2b3", "type": "electric_scooter", "is_disabled": 0, "lat": 38.93976133333334, "rental_uris": {"ios": "https://dc.lft.to/lastmile_qr_scan", "android": "https://dc.lft.to/lastmile_qr_scan"}, "is_reserved": 0, "fusion_lon": 0.0, "fusion_lat": 0.0, "lon": -77.03139883333333, "name": "ceb8fda72348dac71de32c0f7ab9c2b3"}, {"bike_id": "90e32c922d0c5bff2f8aca4a1217b86c", "type": "electric_scooter", "is_disabled": 0, "lat": 38.9258995, "rental_uris": {"ios": "https://dc.lft.to/lastmile_qr_scan", "android": "https://dc.lft.to/lastmile_qr_scan"}, "is_reserved": 0, "fusion_lon": 0.0, "fusion_lat": 0.0, "lon": -77.03918216666666, "name": "90e32c922d0c5bff2f8aca4a1217b86c"}, {"bike_id": "a7724a455f87b330dc08cf802770a14f", "type": "electric_scooter", "is_disabled": 0, "lat": 38.9030465, "rental_uris": {"ios": "https://dc.lft.to/lastmile_qr_scan", "android": "https://dc.lft.to/lastmile_qr_scan"}, "is_reserved": 0, "fusion_lon": 0.0, "fusion_lat": 0.0, "lon": -76.983557, "name": "a7724a455f87b330dc08cf802770a14f"}, {"bike_id": "9716b70919d67fbc180b2db910c75354", "type": "electric_scooter", "is_disabled": 0, "lat": 38.907662333333334, "rental_uris": {"ios": "https://dc.lft.to/lastmile_qr_scan", "android": "https://dc.lft.to/lastmile_qr_scan"}, "is_reserved": 0, "fusion_lon": 0.0, "fusion_lat": 0.0, "lon": -77.01206133333334, "name": "9716b70919d67fbc180b2db910c75354"}, {"bike_id": "72c772df5ba7b3fd4d5e4ac0eacf6676", "type": "electric_scooter", "is_disabled": 0, "lat": 38.915872, "rental_uris": {"ios": "https://dc.lft.to/lastmile_qr_scan", "android": "https://dc.lft.to/lastmile_qr_scan"}, "is_reserved": 0, "fusion_lon": 0.0, "fusion_lat": 0.0, "lon": -77.01140483333333, "name": "72c772df5ba7b3fd4d5e4ac0eacf6676"}, {"bike_id": "38caf148675928a5e46e7a6fda81b507", "type": "electric_scooter", "is_disabled": 0, "lat": 38.951990333333335, "rental_uris": {"ios": "https://dc.lft.to/lastmile_qr_scan", "android": "https://dc.lft.to/lastmile_qr_scan"}, "is_reserved": 0, "fusion_lon": 0.0, "fusion_lat": 0.0, "lon": -77.06792583333333, "name": "38caf148675928a5e46e7a6fda81b507"}, {"bike_id": "3ce0457609aaf2d25085e11f7b15f169", "type": "electric_scooter", "is_disabled": 0, "lat": 38.916957333333336, "rental_uris": {"ios": "https://dc.lft.to/lastmile_qr_scan", "android": "https://dc.lft.to/lastmile_qr_scan"}, "is_reserved": 0, "fusion_lon": 0.0, "fusion_lat": 0.0, "lon": -77.03218833333334, "name": "3ce0457609aaf2d25085e11f7b15f169"}, {"bike_id": "9d52064643f8b0d22d87f28bb2034b7b", "type": "electric_scooter", "is_disabled": 0, "lat": 38.94196616666667, "rental_uris": {"ios": "https://dc.lft.to/lastmile_qr_scan", "android": "https://dc.lft.to/lastmile_qr_scan"}, "is_reserved": 0, "fusion_lon": 0.0, "fusion_lat": 0.0, "lon": -77.02345966666667, "name": "9d52064643f8b0d22d87f28bb2034b7b"}, {"bike_id": "3f98fe3af660ea5ee4fd212c463e0a2b", "type": "electric_bike", "is_disabled": 0, "lat": 38.889148666666664, "rental_uris": {"ios": "https://dc.lft.to/lastmile_qr_scan", "android": "https://dc.lft.to/lastmile_qr_scan"}, "is_reserved": 0, "fusion_lon": 0.0, "fusion_lat": 0.0, "lon": -76.990674, "name": "3f98fe3af660ea5ee4fd212c463e0a2b"}, {"bike_id": "d2ff2c642023a7bd490d35ad47ec24d9", "type": "electric_scooter", "is_disabled": 0, "lat": 38.936159833333335, "rental_uris": {"ios": "https://dc.lft.to/lastmile_qr_scan", "android": "https://dc.lft.to/lastmile_qr_scan"}, "is_reserved": 0, "fusion_lon": 0.0, "fusion_lat": 0.0, "lon": -77.06757333333333, "name": "d2ff2c642023a7bd490d35ad47ec24d9"}, {"bike_id": "e7d9ec766b6e245a1d90add7bbed59ab", "type": "electric_scooter", "is_disabled": 0, "lat": 38.90550833333333, "rental_uris": {"ios": "https://dc.lft.to/lastmile_qr_scan", "android": "https://dc.lft.to/lastmile_qr_scan"}, "is_reserved": 0, "fusion_lon": 0.0, "fusion_lat": 0.0, "lon": -77.00560766666666, "name": "e7d9ec766b6e245a1d90add7bbed59ab"}, {"bike_id": "9bf8adfed6ab2a2148b8d6685e94edf5", "type": "electric_bike", "is_disabled": 0, "lat": 38.87302233333333, "rental_uris": {"ios": "https://dc.lft.to/lastmile_qr_scan", "android": "https://dc.lft.to/lastmile_qr_scan"}, "is_reserved": 0, "fusion_lon": 0.0, "fusion_lat": 0.0, "lon": -77.139196, "name": "9bf8adfed6ab2a2148b8d6685e94edf5"}, {"bike_id": "5ae2f686303d90e6ebf413c20c702bc6", "type": "electric_scooter", "is_disabled": 0, "lat": 38.936165333333335, "rental_uris": {"ios": "https://dc.lft.to/lastmile_qr_scan", "android": "https://dc.lft.to/lastmile_qr_scan"}, "is_reserved": 0, "fusion_lon": 0.0, "fusion_lat": 0.0, "lon": -77.03787233333334, "name": "5ae2f686303d90e6ebf413c20c702bc6"}, {"bike_id": "506b03e4e0e0f898df265db8068b1f16", "type": "electric_scooter", "is_disabled": 0, "lat": 38.9087955, "rental_uris": {"ios": "https://dc.lft.to/lastmile_qr_scan", "android": "https://dc.lft.to/lastmile_qr_scan"}, "is_reserved": 0, "fusion_lon": 0.0, "fusion_lat": 0.0, "lon": -77.02232816666667, "name": "506b03e4e0e0f898df265db8068b1f16"}, {"bike_id": "ddfad4720df06420082d94511e1aa7f8", "type": "electric_scooter", "is_disabled": 0, "lat": 38.9196515, "rental_uris": {"ios": "https://dc.lft.to/lastmile_qr_scan", "android": "https://dc.lft.to/lastmile_qr_scan"}, "is_reserved": 0, "fusion_lon": 0.0, "fusion_lat": 0.0, "lon": -77.03851983333334, "name": "ddfad4720df06420082d94511e1aa7f8"}, {"bike_id": "d1f76f81ecbaa53e33b4e570019320ed", "type": "electric_scooter", "is_disabled": 0, "lat": 38.92044116666667, "rental_uris": {"ios": "https://dc.lft.to/lastmile_qr_scan", "android": "https://dc.lft.to/lastmile_qr_scan"}, "is_reserved": 0, "fusion_lon": 0.0, "fusion_lat": 0.0, "lon": -77.02431766666666, "name": "d1f76f81ecbaa53e33b4e570019320ed"}, {"bike_id": "9a51380e8fb4885ee24a5b725f599678", "type": "electric_scooter", "is_disabled": 0, "lat": 38.896249166666664, "rental_uris": {"ios": "https://dc.lft.to/lastmile_qr_scan", "android": "https://dc.lft.to/lastmile_qr_scan"}, "is_reserved": 0, "fusion_lon": 0.0, "fusion_lat": 0.0, "lon": -77.032924, "name": "9a51380e8fb4885ee24a5b725f599678"}, {"bike_id": "27950e660d256bc3b3b1a77a15ce715b", "type": "electric_bike", "is_disabled": 0, "lat": 39.013694, "rental_uris": {"ios": "https://dc.lft.to/lastmile_qr_scan", "android": "https://dc.lft.to/lastmile_qr_scan"}, "is_reserved": 0, "fusion_lon": 0.0, "fusion_lat": 0.0, "lon": -76.92134283333333, "name": "27950e660d256bc3b3b1a77a15ce715b"}, {"bike_id": "fac320250307cf99de7db3331141f8ec", "type": "electric_scooter", "is_disabled": 0, "lat": 38.92825333333333, "rental_uris": {"ios": "https://dc.lft.to/lastmile_qr_scan", "android": "https://dc.lft.to/lastmile_qr_scan"}, "is_reserved": 0, "fusion_lon": 0.0, "fusion_lat": 0.0, "lon": -77.02255716666667, "name": "fac320250307cf99de7db3331141f8ec"}, {"bike_id": "4fa079514c788d27f89da6af9b54e807", "type": "electric_scooter", "is_disabled": 0, "lat": 38.92443466666667, "rental_uris": {"ios": "https://dc.lft.to/lastmile_qr_scan", "android": "https://dc.lft.to/lastmile_qr_scan"}, "is_reserved": 0, "fusion_lon": 0.0, "fusion_lat": 0.0, "lon": -77.04408333333333, "name": "4fa079514c788d27f89da6af9b54e807"}, {"bike_id": "0dffa35dd48b25d9d2b4f55676b7693a", "type": "electric_scooter", "is_disabled": 0, "lat": 38.916302333333334, "rental_uris": {"ios": "https://dc.lft.to/lastmile_qr_scan", "android": "https://dc.lft.to/lastmile_qr_scan"}, "is_reserved": 0, "fusion_lon": 0.0, "fusion_lat": 0.0, "lon": -77.01074066666666, "name": "0dffa35dd48b25d9d2b4f55676b7693a"}, {"bike_id": "ed115586197daa53fa607ab0c2dd8611", "type": "electric_scooter", "is_disabled": 0, "lat": 38.9008905, "rental_uris": {"ios": "https://dc.lft.to/lastmile_qr_scan", "android": "https://dc.lft.to/lastmile_qr_scan"}, "is_reserved": 0, "fusion_lon": 0.0, "fusion_lat": 0.0, "lon": -77.047511, "name": "ed115586197daa53fa607ab0c2dd8611"}, {"bike_id": "371be721525ae6f6b518b469c7c047ad", "type": "electric_bike", "is_disabled": 0, "lat": 38.956414333333335, "rental_uris": {"ios": "https://dc.lft.to/lastmile_qr_scan", "android": "https://dc.lft.to/lastmile_qr_scan"}, "is_reserved": 0, "fusion_lon": 0.0, "fusion_lat": 0.0, "lon": -76.99791766666667, "name": "371be721525ae6f6b518b469c7c047ad"}, {"bike_id": "5ae9eb3b560ceb3876888e3f47ec5894", "type": "electric_scooter", "is_disabled": 0, "lat": 38.9208985, "rental_uris": {"ios": "https://dc.lft.to/lastmile_qr_scan", "android": "https://dc.lft.to/lastmile_qr_scan"}, "is_reserved": 0, "fusion_lon": 0.0, "fusion_lat": 0.0, "lon": -77.0044125, "name": "5ae9eb3b560ceb3876888e3f47ec5894"}, {"bike_id": "3200887a7146990cd2c303c6afa9c662", "type": "electric_scooter", "is_disabled": 0, "lat": 38.92350616666667, "rental_uris": {"ios": "https://dc.lft.to/lastmile_qr_scan", "android": "https://dc.lft.to/lastmile_qr_scan"}, "is_reserved": 0, "fusion_lon": 0.0, "fusion_lat": 0.0, "lon": -77.02018233333334, "name": "3200887a7146990cd2c303c6afa9c662"}, {"bike_id": "cce90a7729e131394e75e338bc944ed7", "type": "electric_scooter", "is_disabled": 0, "lat": 38.919148166666666, "rental_uris": {"ios": "https://dc.lft.to/lastmile_qr_scan", "android": "https://dc.lft.to/lastmile_qr_scan"}, "is_reserved": 0, "fusion_lon": 0.0, "fusion_lat": 0.0, "lon": -77.03391516666667, "name": "cce90a7729e131394e75e338bc944ed7"}, {"bike_id": "03b780000959dc868c659a5283d5c550", "type": "electric_scooter", "is_disabled": 0, "lat": 38.9055015, "rental_uris": {"ios": "https://dc.lft.to/lastmile_qr_scan", "android": "https://dc.lft.to/lastmile_qr_scan"}, "is_reserved": 0, "fusion_lon": 0.0, "fusion_lat": 0.0, "lon": -77.00596316666666, "name": "03b780000959dc868c659a5283d5c550"}, {"bike_id": "a30abe407696c5c0eb03191f6e12f1ca", "type": "electric_bike", "is_disabled": 0, "lat": 38.8452605, "rental_uris": {"ios": "https://dc.lft.to/lastmile_qr_scan", "android": "https://dc.lft.to/lastmile_qr_scan"}, "is_reserved": 0, "fusion_lon": 0.0, "fusion_lat": 0.0, "lon": -76.97396816666667, "name": "a30abe407696c5c0eb03191f6e12f1ca"}, {"bike_id": "d73c5debf07539cb289a66ad94e2f147", "type": "electric_scooter", "is_disabled": 0, "lat": 38.93206466666667, "rental_uris": {"ios": "https://dc.lft.to/lastmile_qr_scan", "android": "https://dc.lft.to/lastmile_qr_scan"}, "is_reserved": 0, "fusion_lon": 0.0, "fusion_lat": 0.0, "lon": -77.03509083333333, "name": "d73c5debf07539cb289a66ad94e2f147"}, {"bike_id": "56613e0c4ed98f010b3557729f2af6ca", "type": "electric_scooter", "is_disabled": 0, "lat": 38.937694, "rental_uris": {"ios": "https://dc.lft.to/lastmile_qr_scan", "android": "https://dc.lft.to/lastmile_qr_scan"}, "is_reserved": 0, "fusion_lon": 0.0, "fusion_lat": 0.0, "lon": -77.0362685, "name": "56613e0c4ed98f010b3557729f2af6ca"}, {"bike_id": "f3876e1a24f3f8cba02c6147e5594a99", "type": "electric_scooter", "is_disabled": 0, "lat": 38.923205, "rental_uris": {"ios": "https://dc.lft.to/lastmile_qr_scan", "android": "https://dc.lft.to/lastmile_qr_scan"}, "is_reserved": 0, "fusion_lon": 0.0, "fusion_lat": 0.0, "lon": -77.02141316666666, "name": "f3876e1a24f3f8cba02c6147e5594a99"}, {"bike_id": "6359c9564b49d89a884045b1cfac7a12", "type": "electric_scooter", "is_disabled": 0, "lat": 38.911516666666664, "rental_uris": {"ios": "https://dc.lft.to/lastmile_qr_scan", "android": "https://dc.lft.to/lastmile_qr_scan"}, "is_reserved": 0, "fusion_lon": 0.0, "fusion_lat": 0.0, "lon": -77.04424333333333, "name": "6359c9564b49d89a884045b1cfac7a12"}, {"bike_id": "d8ad398709b1bd3efafc92f8f6027bd6", "type": "electric_scooter", "is_disabled": 0, "lat": 38.90078116666667, "rental_uris": {"ios": "https://dc.lft.to/lastmile_qr_scan", "android": "https://dc.lft.to/lastmile_qr_scan"}, "is_reserved": 0, "fusion_lon": 0.0, "fusion_lat": 0.0, "lon": -77.04687416666667, "name": "d8ad398709b1bd3efafc92f8f6027bd6"}, {"bike_id": "ff23ddf6cc8b5eefe8147271bca264b1", "type": "electric_scooter", "is_disabled": 0, "lat": 38.949961333333334, "rental_uris": {"ios": "https://dc.lft.to/lastmile_qr_scan", "android": "https://dc.lft.to/lastmile_qr_scan"}, "is_reserved": 0, "fusion_lon": 0.0, "fusion_lat": 0.0, "lon": -77.00870583333334, "name": "ff23ddf6cc8b5eefe8147271bca264b1"}, {"bike_id": "fc991d3effbf2639e2992569f975823f", "type": "electric_scooter", "is_disabled": 0, "lat": 38.916313333333335, "rental_uris": {"ios": "https://dc.lft.to/lastmile_qr_scan", "android": "https://dc.lft.to/lastmile_qr_scan"}, "is_reserved": 0, "fusion_lon": 0.0, "fusion_lat": 0.0, "lon": -77.02694516666666, "name": "fc991d3effbf2639e2992569f975823f"}, {"bike_id": "79b0ad9fdf5047260ba9b66ef3e2d607", "type": "electric_scooter", "is_disabled": 0, "lat": 38.88766416666667, "rental_uris": {"ios": "https://dc.lft.to/lastmile_qr_scan", "android": "https://dc.lft.to/lastmile_qr_scan"}, "is_reserved": 0, "fusion_lon": 0.0, "fusion_lat": 0.0, "lon": -76.95594166666666, "name": "79b0ad9fdf5047260ba9b66ef3e2d607"}, {"bike_id": "376d83ef91d64a581401b1ed4b82335f", "type": "electric_scooter", "is_disabled": 0, "lat": 38.92853016666667, "rental_uris": {"ios": "https://dc.lft.to/lastmile_qr_scan", "android": "https://dc.lft.to/lastmile_qr_scan"}, "is_reserved": 0, "fusion_lon": 0.0, "fusion_lat": 0.0, "lon": -77.01951816666667, "name": "376d83ef91d64a581401b1ed4b82335f"}, {"bike_id": "02a8cd4a391dede602e9b34b09313011", "type": "electric_scooter", "is_disabled": 0, "lat": 38.90680233333333, "rental_uris": {"ios": "https://dc.lft.to/lastmile_qr_scan", "android": "https://dc.lft.to/lastmile_qr_scan"}, "is_reserved": 0, "fusion_lon": 0.0, "fusion_lat": 0.0, "lon": -77.05324666666667, "name": "02a8cd4a391dede602e9b34b09313011"}, {"bike_id": "33a39f218b88ee0ac4df9bb13574b95f", "type": "electric_scooter", "is_disabled": 0, "lat": 38.92093966666667, "rental_uris": {"ios": "https://dc.lft.to/lastmile_qr_scan", "android": "https://dc.lft.to/lastmile_qr_scan"}, "is_reserved": 0, "fusion_lon": 0.0, "fusion_lat": 0.0, "lon": -77.0252605, "name": "33a39f218b88ee0ac4df9bb13574b95f"}, {"bike_id": "cd1523cc34d91a8edf7c2f83eefc494f", "type": "electric_scooter", "is_disabled": 0, "lat": 38.923614666666666, "rental_uris": {"ios": "https://dc.lft.to/lastmile_qr_scan", "android": "https://dc.lft.to/lastmile_qr_scan"}, "is_reserved": 0, "fusion_lon": 0.0, "fusion_lat": 0.0, "lon": -77.02018683333333, "name": "cd1523cc34d91a8edf7c2f83eefc494f"}, {"bike_id": "9c3e7c236739baba7154c6ede739c117", "type": "electric_scooter", "is_disabled": 0, "lat": 38.9566165, "rental_uris": {"ios": "https://dc.lft.to/lastmile_qr_scan", "android": "https://dc.lft.to/lastmile_qr_scan"}, "is_reserved": 0, "fusion_lon": 0.0, "fusion_lat": 0.0, "lon": -77.0102985, "name": "9c3e7c236739baba7154c6ede739c117"}, {"bike_id": "4321fac14ab06528d9895cfcbbb7ee18", "type": "electric_bike", "is_disabled": 0, "lat": 38.919793166666665, "rental_uris": {"ios": "https://dc.lft.to/lastmile_qr_scan", "android": "https://dc.lft.to/lastmile_qr_scan"}, "is_reserved": 0, "fusion_lon": 0.0, "fusion_lat": 0.0, "lon": -77.00323533333334, "name": "4321fac14ab06528d9895cfcbbb7ee18"}, {"bike_id": "3885bb52e659d5403a7859d62725bace", "type": "electric_scooter", "is_disabled": 0, "lat": 38.91115583333333, "rental_uris": {"ios": "https://dc.lft.to/lastmile_qr_scan", "android": "https://dc.lft.to/lastmile_qr_scan"}, "is_reserved": 0, "fusion_lon": 0.0, "fusion_lat": 0.0, "lon": -77.02234416666667, "name": "3885bb52e659d5403a7859d62725bace"}, {"bike_id": "6667207893c92b6e2955bca58a98993c", "type": "electric_scooter", "is_disabled": 0, "lat": 38.9055915, "rental_uris": {"ios": "https://dc.lft.to/lastmile_qr_scan", "android": "https://dc.lft.to/lastmile_qr_scan"}, "is_reserved": 0, "fusion_lon": 0.0, "fusion_lat": 0.0, "lon": -76.9885475, "name": "6667207893c92b6e2955bca58a98993c"}, {"bike_id": "e4ee61f066775b0b876dfab8a20823f3", "type": "electric_bike", "is_disabled": 0, "lat": 38.83423833333333, "rental_uris": {"ios": "https://dc.lft.to/lastmile_qr_scan", "android": "https://dc.lft.to/lastmile_qr_scan"}, "is_reserved": 0, "fusion_lon": 0.0, "fusion_lat": 0.0, "lon": -77.10350666666666, "name": "e4ee61f066775b0b876dfab8a20823f3"}, {"bike_id": "bb8df7dce8173211d3fe7c03b922b5ec", "type": "electric_scooter", "is_disabled": 0, "lat": 38.90137633333333, "rental_uris": {"ios": "https://dc.lft.to/lastmile_qr_scan", "android": "https://dc.lft.to/lastmile_qr_scan"}, "is_reserved": 0, "fusion_lon": 0.0, "fusion_lat": 0.0, "lon": -77.0150995, "name": "bb8df7dce8173211d3fe7c03b922b5ec"}, {"bike_id": "3989025d6a56f6cf1203d2801bd1f651", "type": "electric_scooter", "is_disabled": 0, "lat": 38.90278266666667, "rental_uris": {"ios": "https://dc.lft.to/lastmile_qr_scan", "android": "https://dc.lft.to/lastmile_qr_scan"}, "is_reserved": 0, "fusion_lon": 0.0, "fusion_lat": 0.0, "lon": -77.00325016666666, "name": "3989025d6a56f6cf1203d2801bd1f651"}, {"bike_id": "a14c0b6e73ace8ba5c9a6a42b447eb67", "type": "electric_scooter", "is_disabled": 0, "lat": 38.92153166666667, "rental_uris": {"ios": "https://dc.lft.to/lastmile_qr_scan", "android": "https://dc.lft.to/lastmile_qr_scan"}, "is_reserved": 0, "fusion_lon": 0.0, "fusion_lat": 0.0, "lon": -77.03532033333333, "name": "a14c0b6e73ace8ba5c9a6a42b447eb67"}, {"bike_id": "b0bc6b5cb8b2e0c84aa7173b1836e323", "type": "electric_bike", "is_disabled": 0, "lat": 38.90834016666667, "rental_uris": {"ios": "https://dc.lft.to/lastmile_qr_scan", "android": "https://dc.lft.to/lastmile_qr_scan"}, "is_reserved": 0, "fusion_lon": 0.0, "fusion_lat": 0.0, "lon": -76.93308216666667, "name": "b0bc6b5cb8b2e0c84aa7173b1836e323"}, {"bike_id": "838b505577a810dde2f190cbbc97a90c", "type": "electric_scooter", "is_disabled": 0, "lat": 38.88405016666667, "rental_uris": {"ios": "https://dc.lft.to/lastmile_qr_scan", "android": "https://dc.lft.to/lastmile_qr_scan"}, "is_reserved": 0, "fusion_lon": 0.0, "fusion_lat": 0.0, "lon": -76.95393133333333, "name": "838b505577a810dde2f190cbbc97a90c"}, {"bike_id": "f64acee7f0b7544a42fcea11f72a6ad0", "type": "electric_scooter", "is_disabled": 0, "lat": 38.90321683333333, "rental_uris": {"ios": "https://dc.lft.to/lastmile_qr_scan", "android": "https://dc.lft.to/lastmile_qr_scan"}, "is_reserved": 0, "fusion_lon": 0.0, "fusion_lat": 0.0, "lon": -76.99419, "name": "f64acee7f0b7544a42fcea11f72a6ad0"}, {"bike_id": "3f2a5a4956014d5c21fa6c375bbd6133", "type": "electric_scooter", "is_disabled": 0, "lat": 38.942068666666664, "rental_uris": {"ios": "https://dc.lft.to/lastmile_qr_scan", "android": "https://dc.lft.to/lastmile_qr_scan"}, "is_reserved": 0, "fusion_lon": 0.0, "fusion_lat": 0.0, "lon": -77.02581016666667, "name": "3f2a5a4956014d5c21fa6c375bbd6133"}, {"bike_id": "a2bcc9e3d7b0bbb801cd965910ca7329", "type": "electric_scooter", "is_disabled": 0, "lat": 38.916896666666666, "rental_uris": {"ios": "https://dc.lft.to/lastmile_qr_scan", "android": "https://dc.lft.to/lastmile_qr_scan"}, "is_reserved": 0, "fusion_lon": 0.0, "fusion_lat": 0.0, "lon": -77.0319485, "name": "a2bcc9e3d7b0bbb801cd965910ca7329"}, {"bike_id": "856a746d73512a2d12af716fb0a1076f", "type": "electric_scooter", "is_disabled": 0, "lat": 38.90567633333333, "rental_uris": {"ios": "https://dc.lft.to/lastmile_qr_scan", "android": "https://dc.lft.to/lastmile_qr_scan"}, "is_reserved": 0, "fusion_lon": 0.0, "fusion_lat": 0.0, "lon": -76.97622566666666, "name": "856a746d73512a2d12af716fb0a1076f"}, {"bike_id": "c3561989c3231abd2bf17f09ea4adb88", "type": "electric_scooter", "is_disabled": 0, "lat": 38.908977666666665, "rental_uris": {"ios": "https://dc.lft.to/lastmile_qr_scan", "android": "https://dc.lft.to/lastmile_qr_scan"}, "is_reserved": 0, "fusion_lon": 0.0, "fusion_lat": 0.0, "lon": -77.04492733333333, "name": "c3561989c3231abd2bf17f09ea4adb88"}, {"bike_id": "944be00d3a67a75cf39e5b07d88b27ab", "type": "electric_scooter", "is_disabled": 0, "lat": 38.902492333333335, "rental_uris": {"ios": "https://dc.lft.to/lastmile_qr_scan", "android": "https://dc.lft.to/lastmile_qr_scan"}, "is_reserved": 0, "fusion_lon": 0.0, "fusion_lat": 0.0, "lon": -77.01859116666667, "name": "944be00d3a67a75cf39e5b07d88b27ab"}, {"bike_id": "008745e19df557f3be899ce060654a35", "type": "electric_scooter", "is_disabled": 0, "lat": 38.922154666666664, "rental_uris": {"ios": "https://dc.lft.to/lastmile_qr_scan", "android": "https://dc.lft.to/lastmile_qr_scan"}, "is_reserved": 0, "fusion_lon": 0.0, "fusion_lat": 0.0, "lon": -77.0423275, "name": "008745e19df557f3be899ce060654a35"}, {"bike_id": "b287a75e596acdeb53448ee1942b820e", "type": "electric_scooter", "is_disabled": 0, "lat": 38.911207833333336, "rental_uris": {"ios": "https://dc.lft.to/lastmile_qr_scan", "android": "https://dc.lft.to/lastmile_qr_scan"}, "is_reserved": 0, "fusion_lon": 0.0, "fusion_lat": 0.0, "lon": -77.03831066666666, "name": "b287a75e596acdeb53448ee1942b820e"}, {"bike_id": "1bca864c1b13da8e30a64de8fb04d2cf", "type": "electric_scooter", "is_disabled": 0, "lat": 38.87094533333333, "rental_uris": {"ios": "https://dc.lft.to/lastmile_qr_scan", "android": "https://dc.lft.to/lastmile_qr_scan"}, "is_reserved": 0, "fusion_lon": 0.0, "fusion_lat": 0.0, "lon": -77.01197133333334, "name": "1bca864c1b13da8e30a64de8fb04d2cf"}, {"bike_id": "e8bf9566efa28557efe56a7d76898baa", "type": "electric_scooter", "is_disabled": 0, "lat": 38.92266683333333, "rental_uris": {"ios": "https://dc.lft.to/lastmile_qr_scan", "android": "https://dc.lft.to/lastmile_qr_scan"}, "is_reserved": 0, "fusion_lon": 0.0, "fusion_lat": 0.0, "lon": -77.03277333333334, "name": "e8bf9566efa28557efe56a7d76898baa"}, {"bike_id": "283df1312db2d2a18a43dc602581186c", "type": "electric_scooter", "is_disabled": 0, "lat": 38.92242316666667, "rental_uris": {"ios": "https://dc.lft.to/lastmile_qr_scan", "android": "https://dc.lft.to/lastmile_qr_scan"}, "is_reserved": 0, "fusion_lon": 0.0, "fusion_lat": 0.0, "lon": -77.07473033333333, "name": "283df1312db2d2a18a43dc602581186c"}, {"bike_id": "747e9863ed0bd924a9f6e9d9749b104d", "type": "electric_scooter", "is_disabled": 0, "lat": 38.938741, "rental_uris": {"ios": "https://dc.lft.to/lastmile_qr_scan", "android": "https://dc.lft.to/lastmile_qr_scan"}, "is_reserved": 0, "fusion_lon": 0.0, "fusion_lat": 0.0, "lon": -77.024417, "name": "747e9863ed0bd924a9f6e9d9749b104d"}, {"bike_id": "df7cc97c6a7eff16d799d1edd040dd97", "type": "electric_scooter", "is_disabled": 0, "lat": 38.91685066666667, "rental_uris": {"ios": "https://dc.lft.to/lastmile_qr_scan", "android": "https://dc.lft.to/lastmile_qr_scan"}, "is_reserved": 0, "fusion_lon": 0.0, "fusion_lat": 0.0, "lon": -77.01576516666667, "name": "df7cc97c6a7eff16d799d1edd040dd97"}, {"bike_id": "ec83d5114754456ea0caabd9bc031383", "type": "electric_scooter", "is_disabled": 0, "lat": 38.916846666666665, "rental_uris": {"ios": "https://dc.lft.to/lastmile_qr_scan", "android": "https://dc.lft.to/lastmile_qr_scan"}, "is_reserved": 0, "fusion_lon": 0.0, "fusion_lat": 0.0, "lon": -77.0226255, "name": "ec83d5114754456ea0caabd9bc031383"}, {"bike_id": "8efa2f4c4c8e609efbed0177f021e6d2", "type": "electric_scooter", "is_disabled": 0, "lat": 38.9141825, "rental_uris": {"ios": "https://dc.lft.to/lastmile_qr_scan", "android": "https://dc.lft.to/lastmile_qr_scan"}, "is_reserved": 0, "fusion_lon": 0.0, "fusion_lat": 0.0, "lon": -77.02287483333333, "name": "8efa2f4c4c8e609efbed0177f021e6d2"}, {"bike_id": "5d9e225e5d72785e25c92c97df207a01", "type": "electric_scooter", "is_disabled": 0, "lat": 38.882683666666665, "rental_uris": {"ios": "https://dc.lft.to/lastmile_qr_scan", "android": "https://dc.lft.to/lastmile_qr_scan"}, "is_reserved": 0, "fusion_lon": 0.0, "fusion_lat": 0.0, "lon": -76.9925295, "name": "5d9e225e5d72785e25c92c97df207a01"}, {"bike_id": "2c379a946a6ab8d6ddee51b77ceba0ca", "type": "electric_scooter", "is_disabled": 0, "lat": 38.91634966666667, "rental_uris": {"ios": "https://dc.lft.to/lastmile_qr_scan", "android": "https://dc.lft.to/lastmile_qr_scan"}, "is_reserved": 0, "fusion_lon": 0.0, "fusion_lat": 0.0, "lon": -77.03986683333333, "name": "2c379a946a6ab8d6ddee51b77ceba0ca"}, {"bike_id": "874c6e21379bb5779791da3db1f20956", "type": "electric_scooter", "is_disabled": 0, "lat": 38.936808166666665, "rental_uris": {"ios": "https://dc.lft.to/lastmile_qr_scan", "android": "https://dc.lft.to/lastmile_qr_scan"}, "is_reserved": 0, "fusion_lon": 0.0, "fusion_lat": 0.0, "lon": -77.03625516666666, "name": "874c6e21379bb5779791da3db1f20956"}, {"bike_id": "57aa26a47b4f7da7870fec3d73523557", "type": "electric_scooter", "is_disabled": 0, "lat": 38.90678316666666, "rental_uris": {"ios": "https://dc.lft.to/lastmile_qr_scan", "android": "https://dc.lft.to/lastmile_qr_scan"}, "is_reserved": 0, "fusion_lon": 0.0, "fusion_lat": 0.0, "lon": -77.0634055, "name": "57aa26a47b4f7da7870fec3d73523557"}, {"bike_id": "d905f2269cdc104111f7f742a35d72c2", "type": "electric_scooter", "is_disabled": 0, "lat": 38.90662366666667, "rental_uris": {"ios": "https://dc.lft.to/lastmile_qr_scan", "android": "https://dc.lft.to/lastmile_qr_scan"}, "is_reserved": 0, "fusion_lon": 0.0, "fusion_lat": 0.0, "lon": -77.046117, "name": "d905f2269cdc104111f7f742a35d72c2"}, {"bike_id": "468f195a61d2c14f46a1713e664b998b", "type": "electric_scooter", "is_disabled": 0, "lat": 38.9191375, "rental_uris": {"ios": "https://dc.lft.to/lastmile_qr_scan", "android": "https://dc.lft.to/lastmile_qr_scan"}, "is_reserved": 0, "fusion_lon": 0.0, "fusion_lat": 0.0, "lon": -77.034151, "name": "468f195a61d2c14f46a1713e664b998b"}, {"bike_id": "e6af72e2b767c84fbb142c6941046a35", "type": "electric_scooter", "is_disabled": 0, "lat": 38.9081955, "rental_uris": {"ios": "https://dc.lft.to/lastmile_qr_scan", "android": "https://dc.lft.to/lastmile_qr_scan"}, "is_reserved": 0, "fusion_lon": 0.0, "fusion_lat": 0.0, "lon": -77.0238315, "name": "e6af72e2b767c84fbb142c6941046a35"}, {"bike_id": "d9fe69305c91502cffc5a3cf8171a384", "type": "electric_scooter", "is_disabled": 0, "lat": 38.92076766666667, "rental_uris": {"ios": "https://dc.lft.to/lastmile_qr_scan", "android": "https://dc.lft.to/lastmile_qr_scan"}, "is_reserved": 0, "fusion_lon": 0.0, "fusion_lat": 0.0, "lon": -77.01454966666667, "name": "d9fe69305c91502cffc5a3cf8171a384"}, {"bike_id": "555a08b1de1aa92dbdde279278a9e2b7", "type": "electric_scooter", "is_disabled": 0, "lat": 38.8668685, "rental_uris": {"ios": "https://dc.lft.to/lastmile_qr_scan", "android": "https://dc.lft.to/lastmile_qr_scan"}, "is_reserved": 0, "fusion_lon": 0.0, "fusion_lat": 0.0, "lon": -76.98583233333333, "name": "555a08b1de1aa92dbdde279278a9e2b7"},