{"data": {"bikes": [{"type": "electric_scooter", "is_reserved": 0, "is_disabled": 0, "fusion_lat": 0.0, "name": "71551ff46b32764f90a415074e5b74b8", "rental_uris": {"android": "https://dc.lft.to/lastmile_qr_scan", "ios": "https://dc.lft.to/lastmile_qr_scan"}, "fusion_lon": 0.0, "lat": 38.891235333333334, "lon": -76.94094133333333, "bike_id": "71551ff46b32764f90a415074e5b74b8"}, {"type": "electric_bike", "is_reserved": 0, "is_disabled": 0, "fusion_lat": 0.0, "name": "8b0a7cad196fad82c76db2afe95c61c9", "rental_uris": {"android": "https://dc.lft.to/lastmile_qr_scan", "ios": "https://dc.lft.to/lastmile_qr_scan"}, "fusion_lon": 0.0, "lat": 39.01590933333333, "lon": -77.04428166666666, "bike_id": "8b0a7cad196fad82c76db2afe95c61c9"}, {"type": "electric_scooter", "is_reserved": 0, "is_disabled": 0, "fusion_lat": 0.0, "name": "ec1fb869e439a11bedf5b492d7779e22", "rental_uris": {"android": "https://dc.lft.to/lastmile_qr_scan", "ios": "https://dc.lft.to/lastmile_qr_scan"}, "fusion_lon": 0.0, "lat": 38.907776, "lon": -77.04875416666667, "bike_id": "ec1fb869e439a11bedf5b492d7779e22"}, {"type": "electric_scooter", "is_reserved": 0, "is_disabled": 0, "fusion_lat": 0.0, "name": "f2d6ca9529cc61995f944879a1298905", "rental_uris": {"android": "https://dc.lft.to/lastmile_qr_scan", "ios": "https://dc.lft.to/lastmile_qr_scan"}, "fusion_lon": 0.0, "lat": 38.910803666666666, "lon": -77.076453, "bike_id": "f2d6ca9529cc61995f944879a1298905"}, {"type": "electric_scooter", "is_reserved": 0, "is_disabled": 0, "fusion_lat": 0.0, "name": "1de04eda233e9eeaf98df57f8d4fba45", "rental_uris": {"android": "https://dc.lft.to/lastmile_qr_scan", "ios": "https://dc.lft.to/lastmile_qr_scan"}, "fusion_lon": 0.0, "lat": 38.900032833333334, "lon": -76.99847383333334, "bike_id": "1de04eda233e9eeaf98df57f8d4fba45"}, {"type": "electric_scooter", "is_reserved": 0, "is_disabled": 0, "fusion_lat": 0.0, "name": "718c95a44a90625577e6cc685681c230", "rental_uris": {"android": "https://dc.lft.to/lastmile_qr_scan", "ios": "https://dc.lft.to/lastmile_qr_scan"}, "fusion_lon": 0.0, "lat": 38.903228666666664, "lon": -77.05172133333333, "bike_id": "718c95a44a90625577e6cc685681c230"}, {"type": "electric_scooter", "is_reserved": 0, "is_disabled": 0, "fusion_lat": 0.0, "name": "66ff5aa8eef96d46850c9df5b593f624", "rental_uris": {"android": "https://dc.lft.to/lastmile_qr_scan", "ios": "https://dc.lft.to/lastmile_qr_scan"}, "fusion_lon": 0.0, "lat": 38.8814075, "lon": -77.02706666666667, "bike_id": "66ff5aa8eef96d46850c9df5b593f624"}, {"type": "electric_scooter", "is_reserved": 0, "is_disabled": 0, "fusion_lat": 0.0, "name": "126afd1039ffd1e853a851e969db892d", "rental_uris": {"android": "https://dc.lft.to/lastmile_qr_scan", "ios": "https://dc.lft.to/lastmile_qr_scan"}, "fusion_lon": 0.0, "lat": 38.90523433333333, "lon": -77.06383033333333, "bike_id": "126afd1039ffd1e853a851e969db892d"}, {"type": "electric_bike", "is_reserved": 0, "is_disabled": 0, "fusion_lat": 0.0, "name": "c0e7ffdb66e4ef80284c84809e439db6", "rental_uris": {"android": "https://dc.lft.to/lastmile_qr_scan", "ios": "https://dc.lft.to/lastmile_qr_scan"}, "fusion_lon": 0.0, "lat": 38.91936916666667, "lon": -76.97086966666667, "bike_id": "c0e7ffdb66e4ef80284c84809e439db6"}, {"type": "electric_scooter", "is_reserved": 0, "is_disabled": 0, "fusion_lat": 0.0, "name": "468bd7a828b1c122489d1ed5d4cd9fb9", "rental_uris": {"android": "https://dc.lft.to/lastmile_qr_scan", "ios": "https://dc.lft.to/lastmile_qr_scan"}, "fusion_lon": 0.0, "lat": 38.9094815, "lon": -77.04662416666666, "bike_id": "468bd7a828b1c122489d1ed5d4cd9fb9"}, {"type": "electric_scooter", "is_reserved": 0, "is_disabled": 0, "fusion_lat": 0.0, "name": "7735391f265917b6d1d9f51aec029008", "rental_uris": {"android": "https://dc.lft.to/lastmile_qr_scan", "ios": "https://dc.lft.to/lastmile_qr_scan"}, "fusion_lon": 0.0, "lat": 38.90423633333333, "lon": -77.05321716666667, "bike_id": "7735391f265917b6d1d9f51aec029008"}, {"type": "electric_scooter", "is_reserved": 0, "is_disabled": 0, "fusion_lat": 0.0, "name": "33d27c66724452bd8710536e3c189281", "rental_uris": {"android": "https://dc.lft.to/lastmile_qr_scan", "ios": "https://dc.lft.to/lastmile_qr_scan"}, "fusion_lon": 0.0, "lat": 38.8960705, "lon": -77.04501016666667, "bike_id": "33d27c66724452bd8710536e3c189281"}, {"type": "electric_scooter", "is_reserved": 0, "is_disabled": 0, "fusion_lat": 0.0, "name": "7947ffb1d9eb9924866bb9c5803ecee5", "rental_uris": {"android": "https://dc.lft.to/lastmile_qr_scan", "ios": "https://dc.lft.to/lastmile_qr_scan"}, "fusion_lon": 0.0, "lat": 38.892228, "lon": -77.04859633333334, "bike_id": "7947ffb1d9eb9924866bb9c5803ecee5"}, {"type": "electric_scooter", "is_reserved": 0, "is_disabled": 0, "fusion_lat": 0.0, "name": "631e83161aa325df117e5cca5ad91d0b", "rental_uris": {"android": "https://dc.lft.to/lastmile_qr_scan", "ios": "https://dc.lft.to/lastmile_qr_scan"}, "fusion_lon": 0.0, "lat": 38.908975833333336, "lon": -77.04321783333333, "bike_id": "631e83161aa325df117e5cca5ad91d0b"}, {"type": "electric_scooter", "is_reserved": 0, "is_disabled": 0, "fusion_lat": 0.0, "name": "cc2295d1b53e080c3dc9ea5bac12f742", "rental_uris": {"android": "https://dc.lft.to/lastmile_qr_scan", "ios": "https://dc.lft.to/lastmile_qr_scan"}, "fusion_lon": 0.0, "lat": 38.934314, "lon": -77.0284265, "bike_id": "cc2295d1b53e080c3dc9ea5bac12f742"}, {"type": "electric_scooter", "is_reserved": 0, "is_disabled": 0, "fusion_lat": 0.0, "name": "ca5858d7fb3932394bf8d5e883cc3904", "rental_uris": {"android": "https://dc.lft.to/lastmile_qr_scan", "ios": "https://dc.lft.to/lastmile_qr_scan"}, "fusion_lon": 0.0, "lat": 38.9064345, "lon": -77.01144133333334, "bike_id": "ca5858d7fb3932394bf8d5e883cc3904"}, {"type": "electric_bike", "is_reserved": 0, "is_disabled": 0, "fusion_lat": 0.0, "name": "e6c73847b68ea51154e006e8f80daf0c", "rental_uris": {"android": "https://dc.lft.to/lastmile_qr_scan", "ios": "https://dc.lft.to/lastmile_qr_scan"}, "fusion_lon": 0.0, "lat": 38.854174, "lon": -76.90967083333334, "bike_id": "e6c73847b68ea51154e006e8f80daf0c"}, {"type": "electric_scooter", "is_reserved": 0, "is_disabled": 0, "fusion_lat": 0.0, "name": "a6ca17b610c71a614a1878b2f4cbc6e3", "rental_uris": {"android": "https://dc.lft.to/lastmile_qr_scan", "ios": "https://dc.lft.to/lastmile_qr_scan"}, "fusion_lon": 0.0, "lat": 38.92606983333334, "lon": -77.05698, "bike_id": "a6ca17b610c71a614a1878b2f4cbc6e3"}, {"type": "electric_bike", "is_reserved": 0, "is_disabled": 0, "fusion_lat": 0.0, "name": "c8cc7da80bc21186fbcfe3f751592b4b", "rental_uris": {"android": "https://dc.lft.to/lastmile_qr_scan", "ios": "https://dc.lft.to/lastmile_qr_scan"}, "fusion_lon": 0.0, "lat": 38.810518, "lon": -77.08508383333333, "bike_id": "c8cc7da80bc21186fbcfe3f751592b4b"}, {"type": "electric_scooter", "is_reserved": 0, "is_disabled": 0, "fusion_lat": 0.0, "name": "cd8045632221bb2dd613f354dc09c84d", "rental_uris": {"android": "https://dc.lft.to/lastmile_qr_scan", "ios": "https://dc.lft.to/lastmile_qr_scan"}, "fusion_lon": 0.0, "lat": 38.88676666666667, "lon": -77.00214766666667, "bike_id": "cd8045632221bb2dd613f354dc09c84d"}, {"type": "electric_scooter", "is_reserved": 0, "is_disabled": 0, "fusion_lat": 0.0, "name": "5f0271e43ea5f9010d505651477f5649", "rental_uris": {"android": "https://dc.lft.to/lastmile_qr_scan", "ios": "https://dc.lft.to/lastmile_qr_scan"}, "fusion_lon": 0.0, "lat": 38.904830833333335, "lon": -77.05340766666667, "bike_id": "5f0271e43ea5f9010d505651477f5649"}, {"type": "electric_scooter", "is_reserved": 0, "is_disabled": 0, "fusion_lat": 0.0, "name": "7ef26841f9151c8f3d7bc3999f134145", "rental_uris": {"android": "https://dc.lft.to/lastmile_qr_scan", "ios": "https://dc.lft.to/lastmile_qr_scan"}, "fusion_lon": 0.0, "lat": 38.88712316666667, "lon": -77.028327, "bike_id": "7ef26841f9151c8f3d7bc3999f134145"}, {"type": "electric_scooter", "is_reserved": 0, "is_disabled": 0, "fusion_lat": 0.0, "name": "19b35239568f8de05724aa7f372d5db9", "rental_uris": {"android": "https://dc.lft.to/lastmile_qr_scan", "ios": "https://dc.lft.to/lastmile_qr_scan"}, "fusion_lon": 0.0, "lat": 38.8442325, "lon": -76.99774683333334, "bike_id": "19b35239568f8de05724aa7f372d5db9"}, {"type": "electric_scooter", "is_reserved": 0, "is_disabled": 0, "fusion_lat": 0.0, "name": "350ba2ee088ddf8eaa99f65e7159eba4", "rental_uris": {"android": "https://dc.lft.to/lastmile_qr_scan", "ios": "https://dc.lft.to/lastmile_qr_scan"}, "fusion_lon": 0.0, "lat": 38.91554, "lon": -77.0097795, "bike_id": "350ba2ee088ddf8eaa99f65e7159eba4"}, {"type": "electric_scooter", "is_reserved": 0, "is_disabled": 0, "fusion_lat": 0.0, "name": "3c3b18491406b10ac5554dad28c2bd2c", "rental_uris": {"android": "https://dc.lft.to/lastmile_qr_scan", "ios": "https://dc.lft.to/lastmile_qr_scan"}, "fusion_lon": 0.0, "lat": 38.9050465, "lon": -77.06660533333333, "bike_id": "3c3b18491406b10ac5554dad28c2bd2c"}, {"type": "electric_scooter", "is_reserved": 0, "is_disabled": 0, "fusion_lat": 0.0, "name": "590a434d026ad4f12fff8be156e02750", "rental_uris": {"android": "https://dc.lft.to/lastmile_qr_scan", "ios": "https://dc.lft.to/lastmile_qr_scan"}, "fusion_lon": 0.0, "lat": 38.95633933333333, "lon": -77.03304033333333, "bike_id": "590a434d026ad4f12fff8be156e02750"}, {"type": "electric_scooter", "is_reserved": 0, "is_disabled": 0, "fusion_lat": 0.0, "name": "4bd62206c4c0de2b983205c92ea0cf1a", "rental_uris": {"android": "https://dc.lft.to/lastmile_qr_scan", "ios": "https://dc.lft.to/lastmile_qr_scan"}, "fusion_lon": 0.0, "lat": 38.90269416666667, "lon": -77.0491, "bike_id": "4bd62206c4c0de2b983205c92ea0cf1a"}, {"type": "electric_scooter", "is_reserved": 0, "is_disabled": 0, "fusion_lat": 0.0, "name": "8472e95515e6faf4ccb4b26d552e4699", "rental_uris": {"android": "https://dc.lft.to/lastmile_qr_scan", "ios": "https://dc.lft.to/lastmile_qr_scan"}, "fusion_lon": 0.0, "lat": 38.9234025, "lon": -77.05072283333334, "bike_id": "8472e95515e6faf4ccb4b26d552e4699"}, {"type": "electric_scooter", "is_reserved": 0, "is_disabled": 0, "fusion_lat": 0.0, "name": "90a82c9c4c380013f40f02908af371e9", "rental_uris": {"android": "https://dc.lft.to/lastmile_qr_scan", "ios": "https://dc.lft.to/lastmile_qr_scan"}, "fusion_lon": 0.0, "lat": 38.9048665, "lon": -77.06785933333333, "bike_id": "90a82c9c4c380013f40f02908af371e9"}, {"type": "electric_scooter", "is_reserved": 0, "is_disabled": 0, "fusion_lat": 0.0, "name": "e87ca3cea4576fb45443f31dc1c4cb3c", "rental_uris": {"android": "https://dc.lft.to/lastmile_qr_scan", "ios": "https://dc.lft.to/lastmile_qr_scan"}, "fusion_lon": 0.0, "lat": 38.871984166666664, "lon": -77.00608866666667, "bike_id": "e87ca3cea4576fb45443f31dc1c4cb3c"}, {"type": "electric_scooter", "is_reserved": 0, "is_disabled": 0, "fusion_lat": 0.0, "name": "10579ca75716977de885527cd9594ffa", "rental_uris": {"android": "https://dc.lft.to/lastmile_qr_scan", "ios": "https://dc.lft.to/lastmile_qr_scan"}, "fusion_lon": 0.0, "lat": 38.90260383333333, "lon": -77.0215015, "bike_id": "10579ca75716977de885527cd9594ffa"}, {"type": "electric_scooter", "is_reserved": 0, "is_disabled": 0, "fusion_lat": 0.0, "name": "f1d4627a7ab4ac971fd0c7ea6d178155", "rental_uris": {"android": "https://dc.lft.to/lastmile_qr_scan", "ios": "https://dc.lft.to/lastmile_qr_scan"}, "fusion_lon": 0.0, "lat": 38.91824666666667, "lon": -77.0384395, "bike_id": "f1d4627a7ab4ac971fd0c7ea6d178155"}, {"type": "electric_scooter", "is_reserved": 0, "is_disabled": 0, "fusion_lat": 0.0, "name": "347a36135a72f1a9840e4bb731d4d1c2", "rental_uris": {"android": "https://dc.lft.to/lastmile_qr_scan", "ios": "https://dc.lft.to/lastmile_qr_scan"}, "fusion_lon": 0.0, "lat": 38.91048166666667, "lon": -77.01520433333333, "bike_id": "347a36135a72f1a9840e4bb731d4d1c2"}, {"type": "electric_scooter", "is_reserved": 0, "is_disabled": 0, "fusion_lat": 0.0, "name": "c3e37b5e42f7ce05041fe51c1707491f", "rental_uris": {"android": "https://dc.lft.to/lastmile_qr_scan", "ios": "https://dc.lft.to/lastmile_qr_scan"}, "fusion_lon": 0.0, "lat": 38.874848, "lon": -77.0012115, "bike_id": "c3e37b5e42f7ce05041fe51c1707491f"}, {"type": "electric_scooter", "is_reserved": 0, "is_disabled": 0, "fusion_lat": 0.0, "name": "de612e3b08afe19f17f1e81997333d3c", "rental_uris": {"android": "https://dc.lft.to/lastmile_qr_scan", "ios": "https://dc.lft.to/lastmile_qr_scan"}, "fusion_lon": 0.0, "lat": 38.88498533333333, "lon": -77.01585233333333, "bike_id": "de612e3b08afe19f17f1e81997333d3c"}, {"type": "electric_scooter", "is_reserved": 0, "is_disabled": 0, "fusion_lat": 0.0, "name": "88c7414075d05dde03c2c981c27755e2", "rental_uris": {"android": "https://dc.lft.to/lastmile_qr_scan", "ios": "https://dc.lft.to/lastmile_qr_scan"}, "fusion_lon": 0.0, "lat": 38.89234866666666, "lon": -77.04644283333333, "bike_id": "88c7414075d05dde03c2c981c27755e2"}, {"type": "electric_scooter", "is_reserved": 0, "is_disabled": 0, "fusion_lat": 0.0, "name": "7dfce2ca5119d44e1cec81d0537e36af", "rental_uris": {"android": "https://dc.lft.to/lastmile_qr_scan", "ios": "https://dc.lft.to/lastmile_qr_scan"}, "fusion_lon": 0.0, "lat": 38.909568666666665, "lon": -77.04649683333334, "bike_id": "7dfce2ca5119d44e1cec81d0537e36af"}, {"type": "electric_scooter", "is_reserved": 0, "is_disabled": 0, "fusion_lat": 0.0, "name": "902a80db047b47b7d0580820c2880368", "rental_uris": {"android": "https://dc.lft.to/lastmile_qr_scan", "ios": "https://dc.lft.to/lastmile_qr_scan"}, "fusion_lon": 0.0, "lat": 38.983673833333334, "lon": -77.02645066666666, "bike_id": "902a80db047b47b7d0580820c2880368"}, {"type": "electric_scooter", "is_reserved": 0, "is_disabled": 0, "fusion_lat": 0.0, "name": "f307e6f1251d4e4a40de86ed3d74ae21", "rental_uris": {"android": "https://dc.lft.to/lastmile_qr_scan", "ios": "https://dc.lft.to/lastmile_qr_scan"}, "fusion_lon": 0.0, "lat": 38.899758, "lon": -77.021494, "bike_id": "f307e6f1251d4e4a40de86ed3d74ae21"}, {"type": "electric_scooter", "is_reserved": 0, "is_disabled": 0, "fusion_lat": 0.0, "name": "47d5b69913d8fed0f83b41de3090d296", "rental_uris": {"android": "https://dc.lft.to/lastmile_qr_scan", "ios": "https://dc.lft.to/lastmile_qr_scan"}, "fusion_lon": 0.0, "lat": 38.90494316666667, "lon": -77.0435415, "bike_id": "47d5b69913d8fed0f83b41de3090d296"}, {"type": "electric_scooter", "is_reserved": 0, "is_disabled": 0, "fusion_lat": 0.0, "name": "9a010e9bd1e05d58e75e77b8922462cc", "rental_uris": {"android": "https://dc.lft.to/lastmile_qr_scan", "ios": "https://dc.lft.to/lastmile_qr_scan"}, "fusion_lon": 0.0, "lat": 38.885155166666664, "lon": -77.02121266666667, "bike_id": "9a010e9bd1e05d58e75e77b8922462cc"}, {"type": "electric_scooter", "is_reserved": 0, "is_disabled": 0, "fusion_lat": 0.0, "name": "4957943c520db1488c60f69d5fbc29ab", "rental_uris": {"android": "https://dc.lft.to/lastmile_qr_scan", "ios": "https://dc.lft.to/lastmile_qr_scan"}, "fusion_lon": 0.0, "lat": 38.91549416666667, "lon": -77.03842216666666, "bike_id": "4957943c520db1488c60f69d5fbc29ab"}, {"type": "electric_bike", "is_reserved": 0, "is_disabled": 0, "fusion_lat": 0.0, "name": "401b0510de7722ac0ac3600c9417729d", "rental_uris": {"android": "https://dc.lft.to/lastmile_qr_scan", "ios": "https://dc.lft.to/lastmile_qr_scan"}, "fusion_lon": 0.0, "lat": 38.94969316666667, "lon": -77.06689733333333, "bike_id": "401b0510de7722ac0ac3600c9417729d"}, {"type": "electric_scooter", "is_reserved": 0, "is_disabled": 0, "fusion_lat": 0.0, "name": "d97bb97bbe22c50dbb166ca556beb5eb", "rental_uris": {"android": "https://dc.lft.to/lastmile_qr_scan", "ios": "https://dc.lft.to/lastmile_qr_scan"}, "fusion_lon": 0.0, "lat": 38.922104833333336, "lon": -77.03296316666666, "bike_id": "d97bb97bbe22c50dbb166ca556beb5eb"}, {"type": "electric_bike", "is_reserved": 0, "is_disabled": 0, "fusion_lat": 0.0, "name": "f03f5e79b649b4f277279e4aa0749729", "rental_uris": {"android": "https://dc.lft.to/lastmile_qr_scan", "ios": "https://dc.lft.to/lastmile_qr_scan"}, "fusion_lon": 0.0, "lat": 39.08856133333333, "lon": -77.17839183333334, "bike_id": "f03f5e79b649b4f277279e4aa0749729"}, {"type": "electric_scooter", "is_reserved": 0, "is_disabled": 0, "fusion_lat": 0.0, "name": "b4e1123651a28dfc21124d0ed426ac4d", "rental_uris": {"android": "https://dc.lft.to/lastmile_qr_scan", "ios": "https://dc.lft.to/lastmile_qr_scan"}, "fusion_lon": 0.0, "lat": 38.907279833333334, "lon": -77.0400945, "bike_id": "b4e1123651a28dfc21124d0ed426ac4d"}, {"type": "electric_scooter", "is_reserved": 0, "is_disabled": 0, "fusion_lat": 0.0, "name": "07a435043ab9aa8d0bdf5aedd0b253e5", "rental_uris": {"android": "https://dc.lft.to/lastmile_qr_scan", "ios": "https://dc.lft.to/lastmile_qr_scan"}, "fusion_lon": 0.0, "lat": 38.92884383333333, "lon": -77.02709783333333, "bike_id": "07a435043ab9aa8d0bdf5aedd0b253e5"}, {"type": "electric_bike", "is_reserved": 0, "is_disabled": 0, "fusion_lat": 0.0, "name": "33a74e47668949a8d909c5288853d4df", "rental_uris": {"android": "https://dc.lft.to/lastmile_qr_scan", "ios": "https://dc.lft.to/lastmile_qr_scan"}, "fusion_lon": 0.0, "lat": 38.92856166666667, "lon": -77.22226183333333, "bike_id": "33a74e47668949a8d909c5288853d4df"}, {"type": "electric_scooter", "is_reserved": 0, "is_disabled": 0, "fusion_lat": 0.0, "name": "013b76994f457987df627fa00721e7f5", "rental_uris": {"android": "https://dc.lft.to/lastmile_qr_scan", "ios": "https://dc.lft.to/lastmile_qr_scan"}, "fusion_lon": 0.0, "lat": 38.92170383333333, "lon": -77.051369, "bike_id": "013b76994f457987df627fa00721e7f5"}, {"type": "electric_scooter", "is_reserved": 0, "is_disabled": 0, "fusion_lat": 0.0, "name": "9b09f3068ec9faf598e72dc1badac1db", "rental_uris": {"android": "https://dc.lft.to/lastmile_qr_scan", "ios": "https://dc.lft.to/lastmile_qr_scan"}, "fusion_lon": 0.0, "lat": 38.89408983333333, "lon": -76.95667916666666, "bike_id": "9b09f3068ec9faf598e72dc1badac1db"}, {"type": "electric_scooter", "is_reserved": 0, "is_disabled": 0, "fusion_lat": 0.0, "name": "c6d9ffcd81c4e978ba77f5cee491a4c9", "rental_uris": {"android": "https://dc.lft.to/lastmile_qr_scan", "ios": "https://dc.lft.to/lastmile_qr_scan"}, "fusion_lon": 0.0, "lat": 38.91547116666667, "lon": -77.038442, "bike_id": "c6d9ffcd81c4e978ba77f5cee491a4c9"}, {"type": "electric_scooter", "is_reserved": 0, "is_disabled": 0, "fusion_lat": 0.0, "name": "fc1bcdc5d98e7b3b117c3eefdafffa81", "rental_uris": {"android": "https://dc.lft.to/lastmile_qr_scan", "ios": "https://dc.lft.to/lastmile_qr_scan"}, "fusion_lon": 0.0, "lat": 38.900275, "lon": -76.9979475, "bike_id": "fc1bcdc5d98e7b3b117c3eefdafffa81"}, {"type": "electric_bike", "is_reserved": 0, "is_disabled": 0, "fusion_lat": 0.0, "name": "24b0344fd1d9f9fbadb8838fbfa5a9c1", "rental_uris": {"android": "https://dc.lft.to/lastmile_qr_scan", "ios": "https://dc.lft.to/lastmile_qr_scan"}, "fusion_lon": 0.0, "lat": 38.9859775, "lon": -77.03756333333334, "bike_id": "24b0344fd1d9f9fbadb8838fbfa5a9c1"}, {"type": "electric_scooter", "is_reserved": 0, "is_disabled": 0, "fusion_lat": 0.0, "name": "c07259677e3fdbd02b85196bf525ee69", "rental_uris": {"android": "https://dc.lft.to/lastmile_qr_scan", "ios": "https://dc.lft.to/lastmile_qr_scan"}, "fusion_lon": 0.0, "lat": 38.893561166666665, "lon": -77.003366, "bike_id": "c07259677e3fdbd02b85196bf525ee69"}, {"type": "electric_scooter", "is_reserved": 0, "is_disabled": 0, "fusion_lat": 0.0, "name": "722f60884dd70b0914a338cbdf3df6ac", "rental_uris": {"android": "https://dc.lft.to/lastmile_qr_scan", "ios": "https://dc.lft.to/lastmile_qr_scan"}, "fusion_lon": 0.0, "lat": 38.900407333333334, "lon": -77.048355, "bike_id": "722f60884dd70b0914a338cbdf3df6ac"}, {"type": "electric_scooter", "is_reserved": 0, "is_disabled": 0, "fusion_lat": 0.0, "name": "c4590867921c07c2f092642be30f7f7c", "rental_uris": {"android": "https://dc.lft.to/lastmile_qr_scan", "ios": "https://dc.lft.to/lastmile_qr_scan"}, "fusion_lon": 0.0, "lat": 38.892201, "lon": -77.0214365, "bike_id": "c4590867921c07c2f092642be30f7f7c"}, {"type": "electric_bike", "is_reserved": 0, "is_disabled": 0, "fusion_lat": 0.0, "name": "266db82d375bf7eef51bd57da9bda061", "rental_uris": {"android": "https://dc.lft.to/lastmile_qr_scan", "ios": "https://dc.lft.to/lastmile_qr_scan"}, "fusion_lon": 0.0, "lat": 38.8522235, "lon": -77.1296555, "bike_id": "266db82d375bf7eef51bd57da9bda061"}, {"type": "electric_bike", "is_reserved": 0, "is_disabled": 0, "fusion_lat": 0.0, "name": "3292f45786fcbf4a5ce3c078444661ad", "rental_uris": {"android": "https://dc.lft.to/lastmile_qr_scan", "ios": "https://dc.lft.to/lastmile_qr_scan"}, "fusion_lon": 0.0, "lat": 38.8659215, "lon": -76.93229333333333, "bike_id": "3292f45786fcbf4a5ce3c078444661ad"}, {"type": "electric_scooter", "is_reserved": 0, "is_disabled": 0, "fusion_lat": 0.0, "name": "79d286207e877f5ddebdf0137c1e21ba", "rental_uris": {"android": "https://dc.lft.to/lastmile_qr_scan", "ios": "https://dc.lft.to/lastmile_qr_scan"}, "fusion_lon": 0.0, "lat": 38.9234025, "lon": -77.01903516666667, "bike_id": "79d286207e877f5ddebdf0137c1e21ba"}, {"type": "electric_scooter", "is_reserved": 0, "is_disabled": 0, "fusion_lat": 0.0, "name": "519a6a3c48c202c23472c135d94e9734", "rental_uris": {"android": "https://dc.lft.to/lastmile_qr_scan", "ios": "https://dc.lft.to/lastmile_qr_scan"}, "fusion_lon": 0.0, "lat": 38.91025533333333, "lon": -77.03445733333334, "bike_id": "519a6a3c48c202c23472c135d94e9734"}, {"type": "electric_scooter", "is_reserved": 0, "is_disabled": 0, "fusion_lat": 0.0, "name": "d57d2cfd21e59a8952db037eb19cc329", "rental_uris": {"android": "https://dc.lft.to/lastmile_qr_scan", "ios": "https://dc.lft.to/lastmile_qr_scan"}, "fusion_lon": 0.0, "lat": 38.916981666666665, "lon": -77.03484783333333, "bike_id": "d57d2cfd21e59a8952db037eb19cc329"}, {"type": "electric_scooter", "is_reserved": 0, "is_disabled": 0, "fusion_lat": 0.0, "name": "63c38a8cd4a99278879be471519c1b8d", "rental_uris": {"android": "https://dc.lft.to/lastmile_qr_scan", "ios": "https://dc.lft.to/lastmile_qr_scan"}, "fusion_lon": 0.0, "lat": 38.9110935, "lon": -77.04503883333334, "bike_id": "63c38a8cd4a99278879be471519c1b8d"}, {"type": "electric_scooter", "is_reserved": 0, "is_disabled": 0, "fusion_lat": 0.0, "name": "9f0969c5b82d1f7c7316c64cf0ab2682", "rental_uris": {"android": "https://dc.lft.to/lastmile_qr_scan", "ios": "https://dc.lft.to/lastmile_qr_scan"}, "fusion_lon": 0.0, "lat": 38.91028983333333, "lon": -77.0344875, "bike_id": "9f0969c5b82d1f7c7316c64cf0ab2682"}, {"type": "electric_scooter", "is_reserved": 0, "is_disabled": 0, "fusion_lat": 0.0, "name": "a376441dcaffc7ddafcf9a65edabf11f", "rental_uris": {"android": "https://dc.lft.to/lastmile_qr_scan", "ios": "https://dc.lft.to/lastmile_qr_scan"}, "fusion_lon": 0.0, "lat": 38.908514, "lon": -77.0319055, "bike_id": "a376441dcaffc7ddafcf9a65edabf11f"}, {"type": "electric_scooter", "is_reserved": 0, "is_disabled": 0, "fusion_lat": 0.0, "name": "bad74a9a2ce1376dbc77dd487a722667", "rental_uris": {"android": "https://dc.lft.to/lastmile_qr_scan", "ios": "https://dc.lft.to/lastmile_qr_scan"}, "fusion_lon": 0.0, "lat": 38.92134216666667, "lon": -77.01797333333333, "bike_id": "bad74a9a2ce1376dbc77dd487a722667"}, {"type": "electric_scooter", "is_reserved": 0, "is_disabled": 0, "fusion_lat": 0.0, "name": "ea5e908297aac5a6b845eebd990f1884", "rental_uris": {"android": "https://dc.lft.to/lastmile_qr_scan", "ios": "https://dc.lft.to/lastmile_qr_scan"}, "fusion_lon": 0.0, "lat": 38.938818833333336, "lon": -77.0328635, "bike_id": "ea5e908297aac5a6b845eebd990f1884"}, {"type": "electric_scooter", "is_reserved": 0, "is_disabled": 0, "fusion_lat": 0.0, "name": "16254eede8025bfab5404f7ee7b025c7", "rental_uris": {"android": "https://dc.lft.to/lastmile_qr_scan", "ios": "https://dc.lft.to/lastmile_qr_scan"}, "fusion_lon": 0.0, "lat": 38.9004055, "lon": -77.0075065, "bike_id": "16254eede8025bfab5404f7ee7b025c7"}, {"type": "electric_bike", "is_reserved": 0, "is_disabled": 0, "fusion_lat": 0.0, "name": "fd23dca55c82c66d228696642751c55b", "rental_uris": {"android": "https://dc.lft.to/lastmile_qr_scan", "ios": "https://dc.lft.to/lastmile_qr_scan"}, "fusion_lon": 0.0, "lat": 38.98466666666667, "lon": -76.95525233333333, "bike_id": "fd23dca55c82c66d228696642751c55b"}, {"type": "electric_scooter", "is_reserved": 0, "is_disabled": 0, "fusion_lat": 0.0, "name": "91b51233b996dcc31edde72d38b9020d", "rental_uris": {"android": "https://dc.lft.to/lastmile_qr_scan", "ios": "https://dc.lft.to/lastmile_qr_scan"}, "fusion_lon": 0.0, "lat": 38.91034916666667, "lon": -77.04332583333333, "bike_id": "91b51233b996dcc31edde72d38b9020d"}, {"type": "electric_bike", "is_reserved": 0, "is_disabled": 0, "fusion_lat": 0.0, "name": "33eb302f97c54862206423e855c0a6c8", "rental_uris": {"android": "https://dc.lft.to/lastmile_qr_scan", "ios": "https://dc.lft.to/lastmile_qr_scan"}, "fusion_lon": 0.0, "lat": 38.958844, "lon": -76.92491516666666, "bike_id": "33eb302f97c54862206423e855c0a6c8"}, {"type": "electric_scooter", "is_reserved": 0, "is_disabled": 0, "fusion_lat": 0.0, "name": "0e7ded7993d981b43faa66cd048fe66e", "rental_uris": {"android": "https://dc.lft.to/lastmile_qr_scan", "ios": "https://dc.lft.to/lastmile_qr_scan"}, "fusion_lon": 0.0, "lat": 38.89280633333333, "lon": -77.05035716666667, "bike_id": "0e7ded7993d981b43faa66cd048fe66e"}, {"type": "electric_scooter", "is_reserved": 0, "is_disabled": 0, "fusion_lat": 0.0, "name": "08b6561e989088fbba5a5e49339e1775", "rental_uris": {"android": "https://dc.lft.to/lastmile_qr_scan", "ios": "https://dc.lft.to/lastmile_qr_scan"}, "fusion_lon": 0.0, "lat": 38.89042633333333, "lon": -76.94075783333334, "bike_id": "08b6561e989088fbba5a5e49339e1775"}, {"type": "electric_scooter", "is_reserved": 0, "is_disabled": 0, "fusion_lat": 0.0, "name": "08780f5f63d688f39e878227eeabdcd5", "rental_uris": {"android": "https://dc.lft.to/lastmile_qr_scan", "ios": "https://dc.lft.to/lastmile_qr_scan"}, "fusion_lon": 0.0, "lat": 38.9305685, "lon": -77.03234633333334, "bike_id": "08780f5f63d688f39e878227eeabdcd5"}, {"type": "electric_scooter", "is_reserved": 0, "is_disabled": 0, "fusion_lat": 0.0, "name": "62f609d1befa9584208facd7c4bcd5da", "rental_uris": {"android": "https://dc.lft.to/lastmile_qr_scan", "ios": "https://dc.lft.to/lastmile_qr_scan"}, "fusion_lon": 0.0, "lat": 38.905687, "lon": -77.043446, "bike_id": "62f609d1befa9584208facd7c4bcd5da"}, {"type": "electric_scooter", "is_reserved": 0, "is_disabled": 0, "fusion_lat": 0.0, "name": "d0372a8c36d0fa13158c83efe70e9402", "rental_uris": {"android": "https://dc.lft.to/lastmile_qr_scan", "ios": "https://dc.lft.to/lastmile_qr_scan"}, "fusion_lon": 0.0, "lat": 38.9080895, "lon": -77.04374766666666, "bike_id": "d0372a8c36d0fa13158c83efe70e9402"}, {"type": "electric_scooter", "is_reserved": 0, "is_disabled": 0, "fusion_lat": 0.0, "name": "a0b056be4457bc676d05f57e43958f2c", "rental_uris": {"android": "https://dc.lft.to/lastmile_qr_scan", "ios": "https://dc.lft.to/lastmile_qr_scan"}, "fusion_lon": 0.0, "lat": 38.87186583333333, "lon": -76.97379883333333, "bike_id": "a0b056be4457bc676d05f57e43958f2c"}, {"type": "electric_scooter", "is_reserved": 0, "is_disabled": 0, "fusion_lat": 0.0, "name": "54a67892d0a7616fff091a603a4dd96c", "rental_uris": {"android": "https://dc.lft.to/lastmile_qr_scan", "ios": "https://dc.lft.to/lastmile_qr_scan"}, "fusion_lon": 0.0, "lat": 38.8814635, "lon": -77.03747216666666, "bike_id": "54a67892d0a7616fff091a603a4dd96c"}, {"type": "electric_scooter", "is_reserved": 0, "is_disabled": 0, "fusion_lat": 0.0, "name": "02f11138bdccc3994474037682e654af", "rental_uris": {"android": "https://dc.lft.to/lastmile_qr_scan", "ios": "https://dc.lft.to/lastmile_qr_scan"}, "fusion_lon": 0.0, "lat": 38.906652666666666, "lon": -76.98787566666667, "bike_id": "02f11138bdccc3994474037682e654af"}, {"type": "electric_scooter", "is_reserved": 0, "is_disabled": 0, "fusion_lat": 0.0, "name": "fc261883c4866389c91ff294404053c0", "rental_uris": {"android": "https://dc.lft.to/lastmile_qr_scan", "ios": "https://dc.lft.to/lastmile_qr_scan"}, "fusion_lon": 0.0, "lat": 38.89998716666667, "lon": -77.05239283333333, "bike_id": "fc261883c4866389c91ff294404053c0"}, {"type": "electric_scooter", "is_reserved": 0, "is_disabled": 0, "fusion_lat": 0.0, "name": "9684b669c2ff8992cef7fa3e0bd3c93f", "rental_uris": {"android": "https://dc.lft.to/lastmile_qr_scan", "ios": "https://dc.lft.to/lastmile_qr_scan"}, "fusion_lon": 0.0, "lat": 38.90649466666667, "lon": -77.04247333333333, "bike_id": "9684b669c2ff8992cef7fa3e0bd3c93f"}, {"type": "electric_scooter", "is_reserved": 0, "is_disabled": 0, "fusion_lat": 0.0, "name": "06bd6e669547db653fad687229f09b35", "rental_uris": {"android": "https://dc.lft.to/lastmile_qr_scan", "ios": "https://dc.lft.to/lastmile_qr_scan"}, "fusion_lon": 0.0, "lat": 38.899651166666665, "lon": -77.04717766666667, "bike_id": "06bd6e669547db653fad687229f09b35"}, {"type": "electric_scooter", "is_reserved": 0, "is_disabled": 0, "fusion_lat": 0.0, "name": "b20e8d282e3f39009c47b7808ead201b", "rental_uris": {"android": "https://dc.lft.to/lastmile_qr_scan", "ios": "https://dc.lft.to/lastmile_qr_scan"}, "fusion_lon": 0.0, "lat": 38.92550383333333, "lon": -77.036638, "bike_id": "b20e8d282e3f39009c47b7808ead201b"}, {"type": "electric_scooter", "is_reserved": 0, "is_disabled": 0, "fusion_lat": 0.0, "name": "3661c637576df9369cb6ec343a5e83ef", "rental_uris": {"android": "https://dc.lft.to/lastmile_qr_scan", "ios": "https://dc.lft.to/lastmile_qr_scan"}, "fusion_lon": 0.0, "lat": 38.89528333333333, "lon": -77.04851583333334, "bike_id": "3661c637576df9369cb6ec343a5e83ef"}, {"type": "electric_scooter", "is_reserved": 0, "is_disabled": 0, "fusion_lat": 0.0, "name": "10b070522517440eeade6c455b5279b8", "rental_uris": {"android": "https://dc.lft.to/lastmile_qr_scan", "ios": "https://dc.lft.to/lastmile_qr_scan"}, "fusion_lon": 0.0, "lat": 38.9056475, "lon": -76.98142383333334, "bike_id": "10b070522517440eeade6c455b5279b8"}, {"type": "electric_scooter", "is_reserved": 0, "is_disabled": 0, "fusion_lat": 0.0, "name": "dccdf0ae542c161f1eadd104bde62cfb", "rental_uris": {"android": "https://dc.lft.to/lastmile_qr_scan", "ios": "https://dc.lft.to/lastmile_qr_scan"}, "fusion_lon": 0.0, "lat": 38.9101145, "lon": -76.99388883333333, "bike_id": "dccdf0ae542c161f1eadd104bde62cfb"}, {"type": "electric_scooter", "is_reserved": 0, "is_disabled": 0, "fusion_lat": 0.0, "name": "315d905d88292cf3a60314a667bb3b8e", "rental_uris": {"android": "https://dc.lft.to/lastmile_qr_scan", "ios": "https://dc.lft.to/lastmile_qr_scan"}, "fusion_lon": 0.0, "lat": 38.912586166666664, "lon": -77.035005, "bike_id": "315d905d88292cf3a60314a667bb3b8e"}, {"type": "electric_scooter", "is_reserved": 0, "is_disabled": 0, "fusion_lat": 0.0, "name": "68971007322a00a9d63ad620c7fc35b9", "rental_uris": {"android": "https://dc.lft.to/lastmile_qr_scan", "ios": "https://dc.lft.to/lastmile_qr_scan"}, "fusion_lon": 0.0, "lat": 38.91675866666667, "lon": -77.02964216666666, "bike_id": "68971007322a00a9d63ad620c7fc35b9"}, {"type": "electric_scooter", "is_reserved": 0, "is_disabled": 0, "fusion_lat": 0.0, "name": "5ea0c68cc387cb39e1644636645cd1a9", "rental_uris": {"android": "https://dc.lft.to/lastmile_qr_scan", "ios": "https://dc.lft.to/lastmile_qr_scan"}, "fusion_lon": 0.0, "lat": 38.892222333333336, "lon": -77.043711, "bike_id": "5ea0c68cc387cb39e1644636645cd1a9"}, {"type": "electric_scooter", "is_reserved": 0, "is_disabled": 0, "fusion_lat": 0.0, "name": "67e2f78b6b05fa06ba45589eeedb727c", "rental_uris": {"android": "https://dc.lft.to/lastmile_qr_scan", "ios": "https://dc.lft.to/lastmile_qr_scan"}, "fusion_lon": 0.0, "lat": 38.92360766666667, "lon": -77.05087916666666, "bike_id": "67e2f78b6b05fa06ba45589eeedb727c"}, {"type": "electric_scooter", "is_reserved": 0, "is_disabled": 0, "fusion_lat": 0.0, "name": "f8ca56f0a93bcef920643d4693e741b3", "rental_uris": {"android": "https://dc.lft.to/lastmile_qr_scan", "ios": "https://dc.lft.to/lastmile_qr_scan"}, "fusion_lon": 0.0, "lat": 38.895595, "lon": -77.02940083333333, "bike_id": "f8ca56f0a93bcef920643d4693e741b3"}, {"type": "electric_scooter", "is_reserved": 0, "is_disabled": 0, "fusion_lat": 0.0, "name": "d34d3f93cc6c5f895ab02922e501e495", "rental_uris": {"android": "https://dc.lft.to/lastmile_qr_scan", "ios": "https://dc.lft.to/lastmile_qr_scan"}, "fusion_lon": 0.0, "lat": 38.8661725, "lon": -76.98664266666667, "bike_id": "d34d3f93cc6c5f895ab02922e501e495"}, {"type": "electric_scooter", "is_reserved": 0, "is_disabled": 0, "fusion_lat": 0.0, "name": "34a4efafe65c4f083027730a3bb9ff18", "rental_uris": {"android": "https://dc.lft.to/lastmile_qr_scan", "ios": "https://dc.lft.to/lastmile_qr_scan"}, "fusion_lon": 0.0, "lat": 38.927876499999996, "lon": -77.03690616666667, "bike_id": "34a4efafe65c4f083027730a3bb9ff18"}, {"type": "electric_bike", "is_reserved": 0, "is_disabled": 0, "fusion_lat": 0.0, "name": "e7771d64664aa7c05b1afbe25301edee", "rental_uris": {"android": "https://dc.lft.to/lastmile_qr_scan", "ios": "https://dc.lft.to/lastmile_qr_scan"}, "fusion_lon": 0.0, "lat": 38.961524833333335, "lon": -77.03237316666667, "bike_id": "e7771d64664aa7c05b1afbe25301edee"}, {"type": "electric_scooter", "is_reserved": 0, "is_disabled": 0, "fusion_lat": 0.0, "name": "90902a8d8a7ee85c4f1d372f85bbf6dc", "rental_uris": {"android": "https://dc.lft.to/lastmile_qr_scan", "ios": "https://dc.lft.to/lastmile_qr_scan"}, "fusion_lon": 0.0, "lat": 38.90258733333334, "lon": -77.0531715, "bike_id": "90902a8d8a7ee85c4f1d372f85bbf6dc"}, {"type": "electric_scooter", "is_reserved": 0, "is_disabled": 0, "fusion_lat": 0.0, "name": "43211fb713dac3667dfa44641ca36752", "rental_uris": {"android": "https://dc.lft.to/lastmile_qr_scan", "ios": "https://dc.lft.to/lastmile_qr_scan"}, "fusion_lon": 0.0, "lat": 38.885883, "lon": -77.00066916666667, "bike_id": "43211fb713dac3667dfa44641ca36752"}, {"type": "electric_scooter", "is_reserved": 0, "is_disabled": 0, "fusion_lat": 0.0, "name": "b42bdfab082ffad71077a573c5421c98", "rental_uris": {"android": "https://dc.lft.to/lastmile_qr_scan", "ios": "https://dc.lft.to/lastmile_qr_scan"}, "fusion_lon": 0.0, "lat": 38.91999366666667, "lon": -77.02370033333334, "bike_id": "b42bdfab082ffad71077a573c5421c98"}, {"type": "electric_scooter", "is_reserved": 0, "is_disabled": 0, "fusion_lat": 0.0, "name": "38e59e0bd40e65119faa7690ce4d6eea", "rental_uris": {"android": "https://dc.lft.to/lastmile_qr_scan", "ios": "https://dc.lft.to/lastmile_qr_scan"}, "fusion_lon": 0.0, "lat": 38.89219766666667, "lon": -77.048012, "bike_id": "38e59e0bd40e65119faa7690ce4d6eea"}, {"type": "electric_scooter", "is_reserved": 0, "is_disabled": 0, "fusion_lat": 0.0, "name": "3aba8ee8e124eecbd140de8a4808b048", "rental_uris": {"android": "https://dc.lft.to/lastmile_qr_scan", "ios": "https://dc.lft.to/lastmile_qr_scan"}, "fusion_lon": 0.0, "lat": 38.890350833333336, "lon": -76.93752866666667, "bike_id": "3aba8ee8e124eecbd140de8a4808b048"}, {"type": "electric_scooter", "is_reserved": 0, "is_disabled": 0, "fusion_lat": 0.0, "name": "defd6fb221a71056a8cb6f38b2356fcb", "rental_uris": {"android": "https://dc.lft.to/lastmile_qr_scan", "ios": "https://dc.lft.to/lastmile_qr_scan"}, "fusion_lon": 0.0, "lat": 38.90834016666667, "lon": -76.9331595, "bike_id": "defd6fb221a71056a8cb6f38b2356fcb"}, {"type": "electric_bike", "is_reserved": 0, "is_disabled": 0, "fusion_lat": 0.0, "name": "78b745f159c1761a2b1344ec7bdfe6e6", "rental_uris": {"android": "https://dc.lft.to/lastmile_qr_scan", "ios": "https://dc.lft.to/lastmile_qr_scan"}, "fusion_lon": 0.0, "lat": 38.8963375, "lon": -77.03336816666666, "bike_id": "78b745f159c1761a2b1344ec7bdfe6e6"}, {"type": "electric_scooter", "is_reserved": 0, "is_disabled": 0, "fusion_lat": 0.0, "name": "d0d1eeb0b1c513edb89768876949603d", "rental_uris": {"android": "https://dc.lft.to/lastmile_qr_scan", "ios": "https://dc.lft.to/lastmile_qr_scan"}, "fusion_lon": 0.0, "lat": 38.90343683333333, "lon": -76.97244616666667, "bike_id": "d0d1eeb0b1c513edb89768876949603d"}, {"type": "electric_scooter", "is_reserved": 0, "is_disabled": 0, "fusion_lat": 0.0, "name": "eb4a37aa24bc5081753befff92d7783f", "rental_uris": {"android": "https://dc.lft.to/lastmile_qr_scan", "ios": "https://dc.lft.to/lastmile_qr_scan"}, "fusion_lon": 0.0, "lat": 38.922382, "lon": -77.0291045, "bike_id": "eb4a37aa24bc5081753befff92d7783f"}, {"type": "electric_scooter", "is_reserved": 0, "is_disabled": 0, "fusion_lat": 0.0, "name": "ea0b9b901946f6a25c55c161153b70fb", "rental_uris": {"android": "https://dc.lft.to/lastmile_qr_scan", "ios": "https://dc.lft.to/lastmile_qr_scan"}, "fusion_lon": 0.0, "lat": 38.900618333333334, "lon": -77.04815633333334, "bike_id": "ea0b9b901946f6a25c55c161153b70fb"}, {"type": "electric_scooter", "is_reserved": 0, "is_disabled": 0, "fusion_lat": 0.0, "name": "f67e963056d5b06a29b1a6ebbc03a092", "rental_uris": {"android": "https://dc.lft.to/lastmile_qr_scan", "ios": "https://dc.lft.to/lastmile_qr_scan"}, "fusion_lon": 0.0, "lat": 38.90447833333333, "lon": -77.059224, "bike_id": "f67e963056d5b06a29b1a6ebbc03a092"}, {"type": "electric_scooter", "is_reserved": 0, "is_disabled": 0, "fusion_lat": 0.0, "name": "d45bde972020ed26dd129123346bb72b", "rental_uris": {"android": "https://dc.lft.to/lastmile_qr_scan", "ios": "https://dc.lft.to/lastmile_qr_scan"}, "fusion_lon": 0.0, "lat": 38.89553, "lon": -76.93384633333334, "bike_id": "d45bde972020ed26dd129123346bb72b"}, {"type": "electric_scooter", "is_reserved": 0, "is_disabled": 0, "fusion_lat": 0.0, "name": "3d8a9c3554d412c55f337d41e0d6be33", "rental_uris": {"android": "https://dc.lft.to/lastmile_qr_scan", "ios": "https://dc.lft.to/lastmile_qr_scan"}, "fusion_lon": 0.0, "lat": 38.926567166666665, "lon": -77.03730366666667, "bike_id": "3d8a9c3554d412c55f337d41e0d6be33"}, {"type": "electric_scooter", "is_reserved": 0, "is_disabled": 0, "fusion_lat": 0.0, "name": "c560a1b22b9da70ef316c943e961cb63", "rental_uris": {"android": "https://dc.lft.to/lastmile_qr_scan", "ios": "https://dc.lft.to/lastmile_qr_scan"}, "fusion_lon": 0.0, "lat": 38.922292666666664, "lon": -77.04379816666666, "bike_id": "c560a1b22b9da70ef316c943e961cb63"}, {"type": "electric_scooter", "is_reserved": 0, "is_disabled": 0, "fusion_lat": 0.0, "name": "84e06b642311ff978fb46009df0dce68", "rental_uris": {"android": "https://dc.lft.to/lastmile_qr_scan", "ios": "https://dc.lft.to/lastmile_qr_scan"}, "fusion_lon": 0.0, "lat": 38.898421666666664, "lon": -77.04278883333333, "bike_id": "84e06b642311ff978fb46009df0dce68"}, {"type": "electric_scooter", "is_reserved": 0, "is_disabled": 0, "fusion_lat": 0.0, "name": "e83fc0fdd175ac797e2befc2e4f278ad", "rental_uris": {"android": "https://dc.lft.to/lastmile_qr_scan", "ios": "https://dc.lft.to/lastmile_qr_scan"}, "fusion_lon": 0.0, "lat": 38.913717, "lon": -77.02000133333334, "bike_id": "e83fc0fdd175ac797e2befc2e4f278ad"}, {"type": "electric_scooter", "is_reserved": 0, "is_disabled": 0, "fusion_lat": 0.0, "name": "17eb7fb2c8a15ef865256b90a3daa682", "rental_uris": {"android": "https://dc.lft.to/lastmile_qr_scan", "ios": "https://dc.lft.to/lastmile_qr_scan"}, "fusion_lon": 0.0, "lat": 38.90739033333333, "lon": -77.00100583333334, "bike_id": "17eb7fb2c8a15ef865256b90a3daa682"}, {"type": "electric_scooter", "is_reserved": 0, "is_disabled": 0, "fusion_lat": 0.0, "name": "4c3037a746e244fcd6a1607b7a8a1dc5", "rental_uris": {"android": "https://dc.lft.to/lastmile_qr_scan", "ios": "https://dc.lft.to/lastmile_qr_scan"}, "fusion_lon": 0.0, "lat": 38.88022733333333, "lon": -76.93138533333334, "bike_id": "4c3037a746e244fcd6a1607b7a8a1dc5"}, {"type": "electric_scooter", "is_reserved": 0, "is_disabled": 0, "fusion_lat": 0.0, "name": "fb5805fc912f3116720fef36a411305a", "rental_uris": {"android": "https://dc.lft.to/lastmile_qr_scan", "ios": "https://dc.lft.to/lastmile_qr_scan"}, "fusion_lon": 0.0, "lat": 38.91701483333333, "lon": -77.03501483333334, "bike_id": "fb5805fc912f3116720fef36a411305a"}, {"type": "electric_scooter", "is_reserved": 0, "is_disabled": 0, "fusion_lat": 0.0, "name": "2c3f2530e746e46ac7e142a4f5aaaf3f", "rental_uris": {"android": "https://dc.lft.to/lastmile_qr_scan", "ios": "https://dc.lft.to/lastmile_qr_scan"}, "fusion_lon": 0.0, "lat": 38.91879766666667, "lon": -77.01589333333334, "bike_id": "2c3f2530e746e46ac7e142a4f5aaaf3f"}, {"type": "electric_scooter", "is_reserved": 0, "is_disabled": 0, "fusion_lat": 0.0, "name": "49c2341c1d5665b9049e883c28b283cc", "rental_uris": {"android": "https://dc.lft.to/lastmile_qr_scan", "ios": "https://dc.lft.to/lastmile_qr_scan"}, "fusion_lon": 0.0, "lat": 38.8921995, "lon": -77.02140133333333, "bike_id": "49c2341c1d5665b9049e883c28b283cc"}, {"type": "electric_scooter", "is_reserved": 0, "is_disabled": 0, "fusion_lat": 0.0, "name": "71c90d9f40db65a8deb4291f92cad35e", "rental_uris": {"android": "https://dc.lft.to/lastmile_qr_scan", "ios": "https://dc.lft.to/lastmile_qr_scan"}, "fusion_lon": 0.0, "lat": 38.904533666666666, "lon": -77.04363866666667, "bike_id": "71c90d9f40db65a8deb4291f92cad35e"}, {"type": "electric_scooter", "is_reserved": 0, "is_disabled": 0, "fusion_lat": 0.0, "name": "06917ea744dd0b13e96c8d667e295258", "rental_uris": {"android": "https://dc.lft.to/lastmile_qr_scan", "ios": "https://dc.lft.to/lastmile_qr_scan"}, "fusion_lon": 0.0, "lat": 38.90036466666667, "lon": -77.00538233333333, "bike_id": "06917ea744dd0b13e96c8d667e295258"}, {"type": "electric_scooter", "is_reserved": 0, "is_disabled": 0, "fusion_lat": 0.0, "name": "0661e982523680b0e80c8a7247c5a1f4", "rental_uris": {"android": "https://dc.lft.to/lastmile_qr_scan", "ios": "https://dc.lft.to/lastmile_qr_scan"}, "fusion_lon": 0.0, "lat": 38.88480083333334, "lon": -77.033556, "bike_id": "0661e982523680b0e80c8a7247c5a1f4"}, {"type": "electric_scooter", "is_reserved": 0, "is_disabled": 0, "fusion_lat": 0.0, "name": "c3c906b5bf31a98407fd67a8c72c8960", "rental_uris": {"android": "https://dc.lft.to/lastmile_qr_scan", "ios": "https://dc.lft.to/lastmile_qr_scan"}, "fusion_lon": 0.0, "lat": 38.926607833333335, "lon": -77.05594283333333, "bike_id": "c3c906b5bf31a98407fd67a8c72c8960"}, {"type": "electric_scooter", "is_reserved": 0, "is_disabled": 0, "fusion_lat": 0.0, "name": "f16c95cee29f4090b0fc6bdad4b1ee0b", "rental_uris": {"android": "https://dc.lft.to/lastmile_qr_scan", "ios": "https://dc.lft.to/lastmile_qr_scan"}, "fusion_lon": 0.0, "lat": 38.920747166666665, "lon": -77.04689466666666, "bike_id": "f16c95cee29f4090b0fc6bdad4b1ee0b"}, {"type": "electric_scooter", "is_reserved": 0, "is_disabled": 0, "fusion_lat": 0.0, "name": "950894ac508196b797cf5606d0bc3c5d", "rental_uris": {"android": "https://dc.lft.to/lastmile_qr_scan", "ios": "https://dc.lft.to/lastmile_qr_scan"}, "fusion_lon": 0.0, "lat": 38.9246905, "lon": -77.05260966666667, "bike_id": "950894ac508196b797cf5606d0bc3c5d"}, {"type": "electric_scooter", "is_reserved": 0, "is_disabled": 0, "fusion_lat": 0.0, "name": "70b76759b696206060bd26c3c6451e50", "rental_uris": {"android": "https://dc.lft.to/lastmile_qr_scan", "ios": "https://dc.lft.to/lastmile_qr_scan"}, "fusion_lon": 0.0, "lat": 38.8740955, "lon": -77.0006515, "bike_id": "70b76759b696206060bd26c3c6451e50"}, {"type": "electric_scooter", "is_reserved": 0, "is_disabled": 0, "fusion_lat": 0.0, "name": "8bd5d8bff960ee6d188c9a502326d08c", "rental_uris": {"android": "https://dc.lft.to/lastmile_qr_scan", "ios": "https://dc.lft.to/lastmile_qr_scan"}, "fusion_lon": 0.0, "lat": 38.886594, "lon": -77.0339345, "bike_id": "8bd5d8bff960ee6d188c9a502326d08c"}, {"type": "electric_bike", "is_reserved": 0, "is_disabled": 0, "fusion_lat": 0.0, "name": "fc9e815facd229016c40c14f441e46e2", "rental_uris": {"android": "https://dc.lft.to/lastmile_qr_scan", "ios": "https://dc.lft.to/lastmile_qr_scan"}, "fusion_lon": 0.0, "lat": 38.880791, "lon": -77.08631933333334, "bike_id": "fc9e815facd229016c40c14f441e46e2"}, {"type": "electric_scooter", "is_reserved": 0, "is_disabled": 0, "fusion_lat": 0.0, "name": "56c86e376fe09078a4d68f11f58b9c8f", "rental_uris": {"android": "https://dc.lft.to/lastmile_qr_scan", "ios": "https://dc.lft.to/lastmile_qr_scan"}, "fusion_lon": 0.0, "lat": 38.90321016666667, "lon": -77.016197, "bike_id": "56c86e376fe09078a4d68f11f58b9c8f"}, {"type": "electric_scooter", "is_reserved": 0, "is_disabled": 0, "fusion_lat": 0.0, "name": "d44c56c51381389204d5129cdb4cc366", "rental_uris": {"android": "https://dc.lft.to/lastmile_qr_scan", "ios": "https://dc.lft.to/lastmile_qr_scan"}, "fusion_lon": 0.0, "lat": 38.92341916666667, "lon": -77.05680516666666, "bike_id": "d44c56c51381389204d5129cdb4cc366"}, {"type": "electric_scooter", "is_reserved": 0, "is_disabled": 0, "fusion_lat": 0.0, "name": "27d484233aaffee2d95ef0ac53775111", "rental_uris": {"android": "https://dc.lft.to/lastmile_qr_scan", "ios": "https://dc.lft.to/lastmile_qr_scan"}, "fusion_lon": 0.0, "lat": 38.928513, "lon": -77.05427833333333, "bike_id": "27d484233aaffee2d95ef0ac53775111"}, {"type": "electric_scooter", "is_reserved": 0, "is_disabled": 0, "fusion_lat": 0.0, "name": "4811c43d4f9c9677229dac108e7632bd", "rental_uris": {"android": "https://dc.lft.to/lastmile_qr_scan", "ios": "https://dc.lft.to/lastmile_qr_scan"}, "fusion_lon": 0.0, "lat": 38.892246166666666, "lon": -77.04860416666666, "bike_id": "4811c43d4f9c9677229dac108e7632bd"}, {"type": "electric_scooter", "is_reserved": 0, "is_disabled": 0, "fusion_lat": 0.0, "name": "43b653fea25d6dadfa9970f4538ad4f1", "rental_uris": {"android": "https://dc.lft.to/lastmile_qr_scan", "ios": "https://dc.lft.to/lastmile_qr_scan"}, "fusion_lon": 0.0, "lat": 38.924428, "lon": -77.04110116666666, "bike_id": "43b653fea25d6dadfa9970f4538ad4f1"}, {"type": "electric_scooter", "is_reserved": 0, "is_disabled": 0, "fusion_lat": 0.0, "name": "de7f35350cc7ca928fac685591b33b12", "rental_uris": {"android": "https://dc.lft.to/lastmile_qr_scan", "ios": "https://dc.lft.to/lastmile_qr_scan"}, "fusion_lon": 0.0, "lat": 38.921471333333336, "lon": -76.9692505, "bike_id": "de7f35350cc7ca928fac685591b33b12"}, {"type": "electric_scooter", "is_reserved": 0, "is_disabled": 0, "fusion_lat": 0.0, "name": "b635b685d1f50452074f413935dd0c70", "rental_uris": {"android": "https://dc.lft.to/lastmile_qr_scan", "ios": "https://dc.lft.to/lastmile_qr_scan"}, "fusion_lon": 0.0, "lat": 38.887653, "lon": -76.95595033333333, "bike_id": "b635b685d1f50452074f413935dd0c70"}, {"type": "electric_scooter", "is_reserved": 0, "is_disabled": 0, "fusion_lat": 0.0, "name": "7fb11425dedfc4db3a360cc2b8a3b69c", "rental_uris": {"android": "https://dc.lft.to/lastmile_qr_scan", "ios": "https://dc.lft.to/lastmile_qr_scan"}, "fusion_lon": 0.0, "lat": 38.921119, "lon": -77.042082, "bike_id": "7fb11425dedfc4db3a360cc2b8a3b69c"}, {"type": "electric_scooter", "is_reserved": 0, "is_disabled": 0, "fusion_lat": 0.0, "name": "4f3a59068903b51b5dfb4d83190cec63", "rental_uris": {"android": "https://dc.lft.to/lastmile_qr_scan", "ios": "https://dc.lft.to/lastmile_qr_scan"}, "fusion_lon": 0.0, "lat": 38.91809683333334, "lon": -77.04441266666667, "bike_id": "4f3a59068903b51b5dfb4d83190cec63"}, {"type": "electric_scooter", "is_reserved": 0, "is_disabled": 0, "fusion_lat": 0.0, "name": "f70954373842e05c7d09d94c63486a4d", "rental_uris": {"android": "https://dc.lft.to/lastmile_qr_scan", "ios": "https://dc.lft.to/lastmile_qr_scan"}, "fusion_lon": 0.0, "lat": 38.90921216666667, "lon": -77.03206083333333, "bike_id": "f70954373842e05c7d09d94c63486a4d"}, {"type": "electric_scooter", "is_reserved": 0, "is_disabled": 0, "fusion_lat": 0.0, "name": "f0bfc3c55505bfaf2b63370e594070de", "rental_uris": {"android": "https://dc.lft.to/lastmile_qr_scan", "ios": "https://dc.lft.to/lastmile_qr_scan"}, "fusion_lon": 0.0, "lat": 38.911928, "lon": -77.060994, "bike_id": "f0bfc3c55505bfaf2b63370e594070de"}, {"type": "electric_scooter", "is_reserved": 0, "is_disabled": 0, "fusion_lat": 0.0, "name": "44d0e1b0e7b13f13c369987c08806b05", "rental_uris": {"android": "https://dc.lft.to/lastmile_qr_scan", "ios": "https://dc.lft.to/lastmile_qr_scan"}, "fusion_lon": 0.0, "lat": 38.9169095, "lon": -77.02898133333333, "bike_id": "44d0e1b0e7b13f13c369987c08806b05"}, {"type": "electric_bike", "is_reserved": 0, "is_disabled": 0, "fusion_lat": 0.0, "name": "a4ddf637da40e07c0bdef9dd5e5124c0", "rental_uris": {"android": "https://dc.lft.to/lastmile_qr_scan", "ios": "https://dc.lft.to/lastmile_qr_scan"}, "fusion_lon": 0.0, "lat": 38.86167, "lon": -76.95067566666667, "bike_id": "a4ddf637da40e07c0bdef9dd5e5124c0"}, {"type": "electric_scooter", "is_reserved": 0, "is_disabled": 0, "fusion_lat": 0.0, "name": "643779f018b8e217a94af65276ec2e36", "rental_uris": {"android": "https://dc.lft.to/lastmile_qr_scan", "ios": "https://dc.lft.to/lastmile_qr_scan"}, "fusion_lon": 0.0, "lat": 38.91710116666667, "lon": -77.0312505, "bike_id": "643779f018b8e217a94af65276ec2e36"}, {"type": "electric_bike", "is_reserved": 0, "is_disabled": 0, "fusion_lat": 0.0, "name": "5e15efadd7530eecb962baa253865e4a", "rental_uris": {"android": "https://dc.lft.to/lastmile_qr_scan", "ios": "https://dc.lft.to/lastmile_qr_scan"}, "fusion_lon": 0.0, "lat": 38.999399, "lon": -77.017675, "bike_id": "5e15efadd7530eecb962baa253865e4a"}, {"type": "electric_scooter", "is_reserved": 0, "is_disabled": 0, "fusion_lat": 0.0, "name": "f3232c00da70167de0114289ff758116", "rental_uris": {"android": "https://dc.lft.to/lastmile_qr_scan", "ios": "https://dc.lft.to/lastmile_qr_scan"}, "fusion_lon": 0.0, "lat": 38.916109166666665, "lon": -77.04878866666667, "bike_id": "f3232c00da70167de0114289ff758116"}, {"type": "electric_bike", "is_reserved": 0, "is_disabled": 0, "fusion_lat": 0.0, "name": "4fa5d2f6e99f8a0b1e315d6659df3604", "rental_uris": {"android": "https://dc.lft.to/lastmile_qr_scan", "ios": "https://dc.lft.to/lastmile_qr_scan"}, "fusion_lon": 0.0, "lat": 38.85514283333333, "lon": -77.12042083333333, "bike_id": "4fa5d2f6e99f8a0b1e315d6659df3604"}, {"type": "electric_scooter", "is_reserved": 0, "is_disabled": 0, "fusion_lat": 0.0, "name": "88c244a0413185e81e72ea27bf7dc0bc", "rental_uris": {"android": "https://dc.lft.to/lastmile_qr_scan", "ios": "https://dc.lft.to/lastmile_qr_scan"}, "fusion_lon": 0.0, "lat": 38.8960785, "lon": -77.045567, "bike_id": "88c244a0413185e81e72ea27bf7dc0bc"}, {"type": "electric_scooter", "is_reserved": 0, "is_disabled": 0, "fusion_lat": 0.0, "name": "44db27d4169dd36e517eaa194d563e23", "rental_uris": {"android": "https://dc.lft.to/lastmile_qr_scan", "ios": "https://dc.lft.to/lastmile_qr_scan"}, "fusion_lon": 0.0, "lat": 38.911855833333334, "lon": -77.03441966666666, "bike_id": "44db27d4169dd36e517eaa194d563e23"}, {"type": "electric_scooter", "is_reserved": 0, "is_disabled": 0, "fusion_lat": 0.0, "name": "93d98b2b28ace09b09a7b5bf40092437", "rental_uris": {"android": "https://dc.lft.to/lastmile_qr_scan", "ios": "https://dc.lft.to/lastmile_qr_scan"}, "fusion_lon": 0.0, "lat": 38.865269, "lon": -76.99036366666667, "bike_id": "93d98b2b28ace09b09a7b5bf40092437"}, {"type": "electric_bike", "is_reserved": 0, "is_disabled": 0, "fusion_lat": 0.0, "name": "4fd9a16287c7c9ee3e7c2f3e968b1399", "rental_uris": {"android": "https://dc.lft.to/lastmile_qr_scan", "ios": "https://dc.lft.to/lastmile_qr_scan"}, "fusion_lon": 0.0, "lat": 38.978999333333334, "lon": -77.004353, "bike_id": "4fd9a16287c7c9ee3e7c2f3e968b1399"}, {"type": "electric_bike", "is_reserved": 0, "is_disabled": 0, "fusion_lat": 0.0, "name": "f6de27b534d2fc79726a2898e95d9366", "rental_uris": {"android": "https://dc.lft.to/lastmile_qr_scan", "ios": "https://dc.lft.to/lastmile_qr_scan"}, "fusion_lon": 0.0, "lat": 38.857890833333336, "lon": -77.09961016666666, "bike_id": "f6de27b534d2fc79726a2898e95d9366"}, {"type": "electric_scooter", "is_reserved": 0, "is_disabled": 0, "fusion_lat": 0.0, "name": "fdf73cbd8afc3c786eaed281ed0caa67", "rental_uris": {"android": "https://dc.lft.to/lastmile_qr_scan", "ios": "https://dc.lft.to/lastmile_qr_scan"}, "fusion_lon": 0.0, "lat": 38.902112833333334, "lon": -77.0237705, "bike_id": "fdf73cbd8afc3c786eaed281ed0caa67"}, {"type": "electric_scooter", "is_reserved": 0, "is_disabled": 0, "fusion_lat": 0.0, "name": "f036a49245b681483461853d6a62be9f", "rental_uris": {"android": "https://dc.lft.to/lastmile_qr_scan", "ios": "https://dc.lft.to/lastmile_qr_scan"}, "fusion_lon": 0.0, "lat": 38.91909233333333, "lon": -77.04631533333334, "bike_id": "f036a49245b681483461853d6a62be9f"}, {"type": "electric_scooter", "is_reserved": 0, "is_disabled": 0, "fusion_lat": 0.0, "name": "5d07bc303c3f29d2b98222c3a5f1143e", "rental_uris": {"android": "https://dc.lft.to/lastmile_qr_scan", "ios": "https://dc.lft.to/lastmile_qr_scan"}, "fusion_lon": 0.0, "lat": 38.876624166666666, "lon": -77.004085, "bike_id": "5d07bc303c3f29d2b98222c3a5f1143e"}, {"type": "electric_scooter", "is_reserved": 0, "is_disabled": 0, "fusion_lat": 0.0, "name": "a96cca88f4e95e58a3c92920854da5bf", "rental_uris": {"android": "https://dc.lft.to/lastmile_qr_scan", "ios": "https://dc.lft.to/lastmile_qr_scan"}, "fusion_lon": 0.0, "lat": 38.91214466666667, "lon": -77.03839883333333, "bike_id": "a96cca88f4e95e58a3c92920854da5bf"}, {"type": "electric_scooter", "is_reserved": 0, "is_disabled": 0, "fusion_lat": 0.0, "name": "4450e5e08507f572d6065f9f031aaa9d", "rental_uris": {"android": "https://dc.lft.to/lastmile_qr_scan", "ios": "https://dc.lft.to/lastmile_qr_scan"}, "fusion_lon": 0.0, "lat": 38.86372133333333, "lon": -76.99061016666667, "bike_id": "4450e5e08507f572d6065f9f031aaa9d"}, {"type": "electric_scooter", "is_reserved": 0, "is_disabled": 0, "fusion_lat": 0.0, "name": "dbf36af02a90fa828bdf8a41403b2e51", "rental_uris": {"android": "https://dc.lft.to/lastmile_qr_scan", "ios": "https://dc.lft.to/lastmile_qr_scan"}, "fusion_lon": 0.0, "lat": 38.910254, "lon": -77.00756166666666, "bike_id": "dbf36af02a90fa828bdf8a41403b2e51"}, {"type": "electric_scooter", "is_reserved": 0, "is_disabled": 0, "fusion_lat": 0.0, "name": "bb4d8e4653778582a3fc68b4b177b6a2", "rental_uris": {"android": "https://dc.lft.to/lastmile_qr_scan", "ios": "https://dc.lft.to/lastmile_qr_scan"}, "fusion_lon": 0.0, "lat": 38.91807166666667, "lon": -77.010163, "bike_id": "bb4d8e4653778582a3fc68b4b177b6a2"}, {"type": "electric_scooter", "is_reserved": 0, "is_disabled": 0, "fusion_lat": 0.0, "name": "b2f17381697206e22a4e93f879c7652e", "rental_uris": {"android": "https://dc.lft.to/lastmile_qr_scan", "ios": "https://dc.lft.to/lastmile_qr_scan"}, "fusion_lon": 0.0, "lat": 38.93907683333333, "lon": -77.06044983333334, "bike_id": "b2f17381697206e22a4e93f879c7652e"}, {"type": "electric_scooter", "is_reserved": 0, "is_disabled": 0, "fusion_lat": 0.0, "name": "92653d17026bad28d05160b9c087c0f3", "rental_uris": {"android": "https://dc.lft.to/lastmile_qr_scan", "ios": "https://dc.lft.to/lastmile_qr_scan"}, "fusion_lon": 0.0, "lat": 38.9259425, "lon": -77.03226783333334, "bike_id": "92653d17026bad28d05160b9c087c0f3"}, {"type": "electric_scooter", "is_reserved": 0, "is_disabled": 0, "fusion_lat": 0.0, "name": "08eabf92755366abe7e6d6a36d7b18cf", "rental_uris": {"android": "https://dc.lft.to/lastmile_qr_scan", "ios": "https://dc.lft.to/lastmile_qr_scan"}, "fusion_lon": 0.0, "lat": 38.901582, "lon": -77.05000383333334, "bike_id": "08eabf92755366abe7e6d6a36d7b18cf"}, {"type": "electric_scooter", "is_reserved": 0, "is_disabled": 0, "fusion_lat": 0.0, "name": "b7d49b97599eca14f9c3f21eddc63d80", "rental_uris": {"android": "https://dc.lft.to/lastmile_qr_scan", "ios": "https://dc.lft.to/lastmile_qr_scan"}, "fusion_lon": 0.0, "lat": 38.92562616666667, "lon": -77.0381725, "bike_id": "b7d49b97599eca14f9c3f21eddc63d80"}, {"type": "electric_scooter", "is_reserved": 0, "is_disabled": 0, "fusion_lat": 0.0, "name": "9b940c906b525503ef3e97c5fca6e2fd", "rental_uris": {"android": "https://dc.lft.to/lastmile_qr_scan", "ios": "https://dc.lft.to/lastmile_qr_scan"}, "fusion_lon": 0.0, "lat": 38.93003983333333, "lon": -77.044411, "bike_id": "9b940c906b525503ef3e97c5fca6e2fd"}, {"type": "electric_scooter", "is_reserved": 0, "is_disabled": 0, "fusion_lat": 0.0, "name": "2b6f130c55c48e81e5c1f36a58c48ea1", "rental_uris": {"android": "https://dc.lft.to/lastmile_qr_scan", "ios": "https://dc.lft.to/lastmile_qr_scan"}, "fusion_lon": 0.0, "lat": 38.90613966666667, "lon": -77.06518233333334, "bike_id": "2b6f130c55c48e81e5c1f36a58c48ea1"}, {"type": "electric_scooter", "is_reserved": 0, "is_disabled": 0, "fusion_lat": 0.0, "name": "e8553b9cc1b2ed7a56b3f9d27ba9d081", "rental_uris": {"android": "https://dc.lft.to/lastmile_qr_scan", "ios": "https://dc.lft.to/lastmile_qr_scan"}, "fusion_lon": 0.0, "lat": 38.90881433333333, "lon": -77.06438166666666, "bike_id": "e8553b9cc1b2ed7a56b3f9d27ba9d081"}, {"type": "electric_scooter", "is_reserved": 0, "is_disabled": 0, "fusion_lat": 0.0, "name": "6868393eb433beb5023909490a54d50c", "rental_uris": {"android": "https://dc.lft.to/lastmile_qr_scan", "ios": "https://dc.lft.to/lastmile_qr_scan"}, "fusion_lon": 0.0, "lat": 38.9007575, "lon": -76.93851016666666, "bike_id": "6868393eb433beb5023909490a54d50c"}, {"type": "electric_scooter", "is_reserved": 0, "is_disabled": 0, "fusion_lat": 0.0, "name": "3b609dd36b5809ea26eea8bdf4b9a039", "rental_uris": {"android": "https://dc.lft.to/lastmile_qr_scan", "ios": "https://dc.lft.to/lastmile_qr_scan"}, "fusion_lon": 0.0, "lat": 38.92541283333333, "lon": -77.040785, "bike_id": "3b609dd36b5809ea26eea8bdf4b9a039"}, {"type": "electric_scooter", "is_reserved": 0, "is_disabled": 0, "fusion_lat": 0.0, "name": "279f1e26f17e9f52f7170efb076cd115", "rental_uris": {"android": "https://dc.lft.to/lastmile_qr_scan", "ios": "https://dc.lft.to/lastmile_qr_scan"}, "fusion_lon": 0.0, "lat": 38.932432166666665, "lon": -77.0308275, "bike_id": "279f1e26f17e9f52f7170efb076cd115"}, {"type": "electric_bike", "is_reserved": 0, "is_disabled": 0, "fusion_lat": 0.0, "name": "5a070bfbb9642ff4f3f2fe5e0c401fc9", "rental_uris": {"android": "https://dc.lft.to/lastmile_qr_scan", "ios": "https://dc.lft.to/lastmile_qr_scan"}, "fusion_lon": 0.0, "lat": 38.92851133333333, "lon": -77.106751, "bike_id": "5a070bfbb9642ff4f3f2fe5e0c401fc9"}, {"type": "electric_scooter", "is_reserved": 0, "is_disabled": 0, "fusion_lat": 0.0, "name": "f558b1630feda235b5816e5cc92f0ce6", "rental_uris": {"android": "https://dc.lft.to/lastmile_qr_scan", "ios": "https://dc.lft.to/lastmile_qr_scan"}, "fusion_lon": 0.0, "lat": 38.924691333333335, "lon": -77.02207133333333, "bike_id": "f558b1630feda235b5816e5cc92f0ce6"}, {"type": "electric_scooter", "is_reserved": 0, "is_disabled": 0, "fusion_lat": 0.0, "name": "bb853abd4ced9012d3d1f4655f3d4b7d", "rental_uris": {"android": "https://dc.lft.to/lastmile_qr_scan", "ios": "https://dc.lft.to/lastmile_qr_scan"}, "fusion_lon": 0.0, "lat": 38.9196365, "lon": -77.041482, "bike_id": "bb853abd4ced9012d3d1f4655f3d4b7d"}, {"type": "electric_bike", "is_reserved": 0, "is_disabled": 0, "fusion_lat": 0.0, "name": "0da5f5c8a99efa5b0f7d84e7e431f9ef", "rental_uris": {"android": "https://dc.lft.to/lastmile_qr_scan", "ios": "https://dc.lft.to/lastmile_qr_scan"}, "fusion_lon": 0.0, "lat": 38.80745866666667, "lon": -77.09431083333334, "bike_id": "0da5f5c8a99efa5b0f7d84e7e431f9ef"}, {"type": "electric_scooter", "is_reserved": 0, "is_disabled": 0, "fusion_lat": 0.0, "name": "9c7866721394ea0ba584a603c43d7d07", "rental_uris": {"android": "https://dc.lft.to/lastmile_qr_scan", "ios": "https://dc.lft.to/lastmile_qr_scan"}, "fusion_lon": 0.0, "lat": 38.93758866666667, "lon": -77.0314, "bike_id": "9c7866721394ea0ba584a603c43d7d07"}, {"type": "electric_scooter", "is_reserved": 0, "is_disabled": 0, "fusion_lat": 0.0, "name": "5fcfa5c8848f559ae01fe69ff33cdbd2", "rental_uris": {"android": "https://dc.lft.to/lastmile_qr_scan", "ios": "https://dc.lft.to/lastmile_qr_scan"}, "fusion_lon": 0.0, "lat": 38.94828966666667, "lon": -77.02424666666667, "bike_id": "5fcfa5c8848f559ae01fe69ff33cdbd2"}, {"type": "electric_scooter", "is_reserved": 0, "is_disabled": 0, "fusion_lat": 0.0, "name": "85b64fbec81a13db0eb3da1e6c806558", "rental_uris": {"android": "https://dc.lft.to/lastmile_qr_scan", "ios": "https://dc.lft.to/lastmile_qr_scan"}, "fusion_lon": 0.0, "lat": 38.902738, "lon": -77.03451166666666, "bike_id": "85b64fbec81a13db0eb3da1e6c806558"}, {"type": "electric_scooter", "is_reserved": 0, "is_disabled": 0, "fusion_lat": 0.0, "name": "931ffa9b64d73a77f80f83713e800182", "rental_uris": {"android": "https://dc.lft.to/lastmile_qr_scan", "ios": "https://dc.lft.to/lastmile_qr_scan"}, "fusion_lon": 0.0, "lat": 38.9030125, "lon": -77.031728, "bike_id": "931ffa9b64d73a77f80f83713e800182"}, {"type": "electric_scooter", "is_reserved": 0, "is_disabled": 0, "fusion_lat": 0.0, "name": "3967323de451afa0c0edabd62f58b3ef", "rental_uris": {"android": "https://dc.lft.to/lastmile_qr_scan", "ios": "https://dc.lft.to/lastmile_qr_scan"}, "fusion_lon": 0.0, "lat": 38.89798016666667, "lon": -77.019005, "bike_id": "3967323de451afa0c0edabd62f58b3ef"}, {"type": "electric_scooter", "is_reserved": 0, "is_disabled": 0, "fusion_lat": 0.0, "name": "a25bf7c3273402926c3b21e95493ab39", "rental_uris": {"android": "https://dc.lft.to/lastmile_qr_scan", "ios": "https://dc.lft.to/lastmile_qr_scan"}, "fusion_lon": 0.0, "lat": 38.92293083333333, "lon": -77.0412985, "bike_id": "a25bf7c3273402926c3b21e95493ab39"}, {"type": "electric_scooter", "is_reserved": 0, "is_disabled": 0, "fusion_lat": 0.0, "name": "4ef57ff07113d87acdfaf607f4b4eaf7", "rental_uris": {"android": "https://dc.lft.to/lastmile_qr_scan", "ios": "https://dc.lft.to/lastmile_qr_scan"}, "fusion_lon": 0.0, "lat": 38.913313, "lon": -77.048155, "bike_id": "4ef57ff07113d87acdfaf607f4b4eaf7"}, {"type": "electric_scooter", "is_reserved": 0, "is_disabled": 0, "fusion_lat": 0.0, "name": "6548f97d2e27538d0fdea7cc8ca979a4", "rental_uris": {"android": "https://dc.lft.to/lastmile_qr_scan", "ios": "https://dc.lft.to/lastmile_qr_scan"}, "fusion_lon": 0.0, "lat": 38.8842985, "lon": -76.99598399999999, "bike_id": "6548f97d2e27538d0fdea7cc8ca979a4"}, {"type": "electric_bike", "is_reserved": 0, "is_disabled": 0, "fusion_lat": 0.0, "name": "cf5a83e3e60a6fb91279ce6987b59d75", "rental_uris": {"android": "https://dc.lft.to/lastmile_qr_scan", "ios": "https://dc.lft.to/lastmile_qr_scan"}, "fusion_lon": 0.0, "lat": 38.91301133333333, "lon": -77.08292333333333, "bike_id": "cf5a83e3e60a6fb91279ce6987b59d75"}, {"type": "electric_scooter", "is_reserved": 0, "is_disabled": 0, "fusion_lat": 0.0, "name": "674af521bb3f2e2ce0f8983840cc288e", "rental_uris": {"android": "https://dc.lft.to/lastmile_qr_scan", "ios": "https://dc.lft.to/lastmile_qr_scan"}, "fusion_lon": 0.0, "lat": 38.9331015, "lon": -77.03443833333333, "bike_id": "674af521bb3f2e2ce0f8983840cc288e"}, {"type": "electric_scooter", "is_reserved": 0, "is_disabled": 0, "fusion_lat": 0.0, "name": "f7ecee0db08b874e13de38860f827089", "rental_uris": {"android": "https://dc.lft.to/lastmile_qr_scan", "ios": "https://dc.lft.to/lastmile_qr_scan"}, "fusion_lon": 0.0, "lat": 38.902114, "lon": -77.038608, "bike_id": "f7ecee0db08b874e13de38860f827089"}, {"type": "electric_scooter", "is_reserved": 0, "is_disabled": 0, "fusion_lat": 0.0, "name": "8cb3529cdb5dfb722dd3894ce06f8fc9", "rental_uris": {"android": "https://dc.lft.to/lastmile_qr_scan", "ios": "https://dc.lft.to/lastmile_qr_scan"}, "fusion_lon": 0.0, "lat": 38.91717166666667, "lon": -77.03115, "bike_id": "8cb3529cdb5dfb722dd3894ce06f8fc9"}, {"type": "electric_scooter", "is_reserved": 0, "is_disabled": 0, "fusion_lat": 0.0, "name": "53bff9592617adf4699fa3eec4849727", "rental_uris": {"android": "https://dc.lft.to/lastmile_qr_scan", "ios": "https://dc.lft.to/lastmile_qr_scan"}, "fusion_lon": 0.0, "lat": 38.90359733333333, "lon": -77.03171083333334, "bike_id": "53bff9592617adf4699fa3eec4849727"}, {"type": "electric_scooter", "is_reserved": 0, "is_disabled": 0, "fusion_lat": 0.0, "name": "161e39db9f5e38cdbd4d8afd73208ce3", "rental_uris": {"android": "https://dc.lft.to/lastmile_qr_scan", "ios": "https://dc.lft.to/lastmile_qr_scan"}, "fusion_lon": 0.0, "lat": 38.92187, "lon": -77.04713983333333, "bike_id": "161e39db9f5e38cdbd4d8afd73208ce3"}, {"type": "electric_scooter", "is_reserved": 0, "is_disabled": 0, "fusion_lat": 0.0, "name": "b88a18cd48aa1814d0fe7a255e406511", "rental_uris": {"android": "https://dc.lft.to/lastmile_qr_scan", "ios": "https://dc.lft.to/lastmile_qr_scan"}, "fusion_lon": 0.0, "lat": 38.896711, "lon": -77.026041, "bike_id": "b88a18cd48aa1814d0fe7a255e406511"}, {"type": "electric_scooter", "is_reserved": 0, "is_disabled": 0, "fusion_lat": 0.0, "name": "c559a05d39362ca79e7565f9571dab35", "rental_uris": {"android": "https://dc.lft.to/lastmile_qr_scan", "ios": "https://dc.lft.to/lastmile_qr_scan"}, "fusion_lon": 0.0, "lat": 38.90555483333333, "lon": -77.02232133333334, "bike_id": "c559a05d39362ca79e7565f9571dab35"}, {"type": "electric_scooter", "is_reserved": 0, "is_disabled": 0, "fusion_lat": 0.0, "name": "267b8043df0fcabf5dd8973077d6cacf", "rental_uris": {"android": "https://dc.lft.to/lastmile_qr_scan", "ios": "https://dc.lft.to/lastmile_qr_scan"}, "fusion_lon": 0.0, "lat": 38.900804666666666, "lon": -77.01284066666666, "bike_id": "267b8043df0fcabf5dd8973077d6cacf"}, {"type": "electric_scooter", "is_reserved": 0, "is_disabled": 0, "fusion_lat": 0.0, "name": "db16e5ba1609007c26ad7f320524e288", "rental_uris": {"android": "https://dc.lft.to/lastmile_qr_scan", "ios": "https://dc.lft.to/lastmile_qr_scan"}, "fusion_lon": 0.0, "lat": 38.953263166666666, "lon": -77.027719, "bike_id": "db16e5ba1609007c26ad7f320524e288"}, {"type": "electric_scooter", "is_reserved": 0, "is_disabled": 0, "fusion_lat": 0.0, "name": "4884a5330de694d17255eda605f4f263", "rental_uris": {"android": "https://dc.lft.to/lastmile_qr_scan", "ios": "https://dc.lft.to/lastmile_qr_scan"}, "fusion_lon": 0.0, "lat": 38.924241, "lon": -77.0563065, "bike_id": "4884a5330de694d17255eda605f4f263"}, {"type": "electric_scooter", "is_reserved": 0, "is_disabled": 0, "fusion_lat": 0.0, "name": "a4a79405b0f9ab509e90c3d317dbd523", "rental_uris": {"android": "https://dc.lft.to/lastmile_qr_scan", "ios": "https://dc.lft.to/lastmile_qr_scan"}, "fusion_lon": 0.0, "lat": 38.912714, "lon": -77.01677583333333, "bike_id": "a4a79405b0f9ab509e90c3d317dbd523"}, {"type": "electric_scooter", "is_reserved": 0, "is_disabled": 0, "fusion_lat": 0.0, "name": "7ee7f1aef91e5f1a6d63911a95e53b37", "rental_uris": {"android": "https://dc.lft.to/lastmile_qr_scan", "ios": "https://dc.lft.to/lastmile_qr_scan"}, "fusion_lon": 0.0, "lat": 38.90536383333333, "lon": -77.0057545, "bike_id": "7ee7f1aef91e5f1a6d63911a95e53b37"}, {"type": "electric_scooter", "is_reserved": 0, "is_disabled": 0, "fusion_lat": 0.0, "name": "0d14e85edc7948054223f6de9761fd0d", "rental_uris": {"android": "https://dc.lft.to/lastmile_qr_scan", "ios": "https://dc.lft.to/lastmile_qr_scan"}, "fusion_lon": 0.0, "lat": 38.8458675, "lon": -76.9816155, "bike_id": "0d14e85edc7948054223f6de9761fd0d"}, {"type": "electric_scooter", "is_reserved": 0, "is_disabled": 0, "fusion_lat": 0.0, "name": "a7163d7c8f1db95b8195dfc007c315ea", "rental_uris": {"android": "https://dc.lft.to/lastmile_qr_scan", "ios": "https://dc.lft.to/lastmile_qr_scan"}, "fusion_lon": 0.0, "lat": 38.9028275, "lon": -77.03859616666666, "bike_id": "a7163d7c8f1db95b8195dfc007c315ea"}, {"type": "electric_scooter", "is_reserved": 0, "is_disabled": 0, "fusion_lat": 0.0, "name": "a8411ee533487860f5c3509fea399ee5", "rental_uris": {"android": "https://dc.lft.to/lastmile_qr_scan", "ios": "https://dc.lft.to/lastmile_qr_scan"}, "fusion_lon": 0.0, "lat": 38.91821133333333, "lon": -77.03169366666667, "bike_id": "a8411ee533487860f5c3509fea399ee5"}, {"type": "electric_scooter", "is_reserved": 0, "is_disabled": 0, "fusion_lat": 0.0, "name": "719f1002349e3df4fe4d847d572bfdc7", "rental_uris": {"android": "https://dc.lft.to/lastmile_qr_scan", "ios": "https://dc.lft.to/lastmile_qr_scan"}, "fusion_lon": 0.0, "lat": 38.93590616666667, "lon": -77.03808066666667, "bike_id": "719f1002349e3df4fe4d847d572bfdc7"}, {"type": "electric_scooter", "is_reserved": 0, "is_disabled": 0, "fusion_lat": 0.0, "name": "7de6f96ca2578cb3169d683f03e4fd03", "rental_uris": {"android": "https://dc.lft.to/lastmile_qr_scan", "ios": "https://dc.lft.to/lastmile_qr_scan"}, "fusion_lon": 0.0, "lat": 38.90387333333334, "lon": -77.038472, "bike_id": "7de6f96ca2578cb3169d683f03e4fd03"}, {"type": "electric_scooter", "is_reserved": 0, "is_disabled": 0, "fusion_lat": 0.0, "name": "9fcbbac9bbf9bda06c67c694cbb5e981", "rental_uris": {"android": "https://dc.lft.to/lastmile_qr_scan", "ios": "https://dc.lft.to/lastmile_qr_scan"}, "fusion_lon": 0.0, "lat": 38.92962333333333, "lon": -77.02795266666666, "bike_id": "9fcbbac9bbf9bda06c67c694cbb5e981"}, {"type": "electric_scooter", "is_reserved": 0, "is_disabled": 0, "fusion_lat": 0.0, "name": "56aebb10ddf9f912252aa1a63bd04f07", "rental_uris": {"android": "https://dc.lft.to/lastmile_qr_scan", "ios": "https://dc.lft.to/lastmile_qr_scan"}, "fusion_lon": 0.0, "lat": 38.889957333333335, "lon": -77.003512, "bike_id": "56aebb10ddf9f912252aa1a63bd04f07"}, {"type": "electric_bike", "is_reserved": 0, "is_disabled": 0, "fusion_lat": 0.0, "name": "800b927ffd9ee5ea8f8f61d98f949cc0", "rental_uris": {"android": "https://dc.lft.to/lastmile_qr_scan", "ios": "https://dc.lft.to/lastmile_qr_scan"}, "fusion_lon": 0.0, "lat": 38.965745, "lon": -76.95479583333334, "bike_id": "800b927ffd9ee5ea8f8f61d98f949cc0"}, {"type": "electric_scooter", "is_reserved": 0, "is_disabled": 0, "fusion_lat": 0.0, "name": "15aec697e7f191068c3ac923f4513c6f", "rental_uris": {"android": "https://dc.lft.to/lastmile_qr_scan", "ios": "https://dc.lft.to/lastmile_qr_scan"}, "fusion_lon": 0.0, "lat": 38.9232835, "lon": -77.054723, "bike_id": "15aec697e7f191068c3ac923f4513c6f"}, {"type": "electric_bike", "is_reserved": 0, "is_disabled": 0, "fusion_lat": 0.0, "name": "70788ee29957228130ce24978ccea620", "rental_uris": {"android": "https://dc.lft.to/lastmile_qr_scan", "ios": "https://dc.lft.to/lastmile_qr_scan"}, "fusion_lon": 0.0, "lat": 38.93959866666667, "lon": -77.360948, "bike_id": "70788ee29957228130ce24978ccea620"}, {"type": "electric_scooter", "is_reserved": 0, "is_disabled": 0, "fusion_lat": 0.0, "name": "8087d4f8984fbcce0c61e23982a52e12", "rental_uris": {"android": "https://dc.lft.to/lastmile_qr_scan", "ios": "https://dc.lft.to/lastmile_qr_scan"}, "fusion_lon": 0.0, "lat": 38.901422, "lon": -77.04889966666667, "bike_id": "8087d4f8984fbcce0c61e23982a52e12"}, {"type": "electric_scooter", "is_reserved": 0, "is_disabled": 0, "fusion_lat": 0.0, "name": "3869fea708b251645c921475d443bc40", "rental_uris": {"android": "https://dc.lft.to/lastmile_qr_scan", "ios": "https://dc.lft.to/lastmile_qr_scan"}, "fusion_lon": 0.0, "lat": 38.8955625, "lon": -76.93078566666667, "bike_id": "3869fea708b251645c921475d443bc40"}, {"type": "electric_scooter", "is_reserved": 0, "is_disabled": 0, "fusion_lat": 0.0, "name": "96f70a203283162ff5e6df4ca4919625", "rental_uris": {"android": "https://dc.lft.to/lastmile_qr_scan", "ios": "https://dc.lft.to/lastmile_qr_scan"}, "fusion_lon": 0.0, "lat": 38.919633833333336, "lon": -77.0395965, "bike_id": "96f70a203283162ff5e6df4ca4919625"}, {"type": "electric_scooter", "is_reserved": 0, "is_disabled": 0, "fusion_lat": 0.0, "name": "be245917ee94253594339f9c73111d5a", "rental_uris": {"android": "https://dc.lft.to/lastmile_qr_scan", "ios": "https://dc.lft.to/lastmile_qr_scan"}, "fusion_lon": 0.0, "lat": 38.908437666666664, "lon": -77.04023883333333, "bike_id": "be245917ee94253594339f9c73111d5a"}, {"type": "electric_scooter", "is_reserved": 0, "is_disabled": 0, "fusion_lat": 0.0, "name": "3a6d8210246b4b59a6c0d8ce20b83f78", "rental_uris": {"android": "https://dc.lft.to/lastmile_qr_scan", "ios": "https://dc.lft.to/lastmile_qr_scan"}, "fusion_lon": 0.0, "lat": 38.87506366666667, "lon": -77.01751866666666, "bike_id": "3a6d8210246b4b59a6c0d8ce20b83f78"}, {"type": "electric_scooter", "is_reserved": 0, "is_disabled": 0, "fusion_lat": 0.0, "name": "2c07bf72112b354ceef44fb81c9156a3", "rental_uris": {"android": "https://dc.lft.to/lastmile_qr_scan", "ios": "https://dc.lft.to/lastmile_qr_scan"}, "fusion_lon": 0.0, "lat": 38.895555, "lon": -77.04674516666667, "bike_id": "2c07bf72112b354ceef44fb81c9156a3"}, {"type": "electric_scooter", "is_reserved": 0, "is_disabled": 0, "fusion_lat": 0.0, "name": "339e11bf171b75f9c54b05c687fbab4f", "rental_uris": {"android": "https://dc.lft.to/lastmile_qr_scan", "ios": "https://dc.lft.to/lastmile_qr_scan"}, "fusion_lon": 0.0, "lat": 38.916936166666666, "lon": -77.02593583333334, "bike_id": "339e11bf171b75f9c54b05c687fbab4f"}, {"type": "electric_scooter", "is_reserved": 0, "is_disabled": 0, "fusion_lat": 0.0, "name": "312da633b24e6a5a0531684de3924555", "rental_uris": {"android": "https://dc.lft.to/lastmile_qr_scan", "ios": "https://dc.lft.to/lastmile_qr_scan"}, "fusion_lon": 0.0, "lat": 38.928588833333336, "lon": -77.01375933333334, "bike_id": "312da633b24e6a5a0531684de3924555"}, {"type": "electric_scooter", "is_reserved": 0, "is_disabled": 0, "fusion_lat": 0.0, "name": "fcb23e04f075caeaa9ed6af2ef1b8e08", "rental_uris": {"android": "https://dc.lft.to/lastmile_qr_scan", "ios": "https://dc.lft.to/lastmile_qr_scan"}, "fusion_lon": 0.0, "lat": 38.90070983333333, "lon": -77.04649783333333, "bike_id": "fcb23e04f075caeaa9ed6af2ef1b8e08"}, {"type": "electric_scooter", "is_reserved": 0, "is_disabled": 0, "fusion_lat": 0.0, "name": "f2361905aeb9e84f3059f0930dbfe149", "rental_uris": {"android": "https://dc.lft.to/lastmile_qr_scan", "ios": "https://dc.lft.to/lastmile_qr_scan"}, "fusion_lon": 0.0, "lat": 38.896804833333334, "lon": -76.996243, "bike_id": "f2361905aeb9e84f3059f0930dbfe149"}, {"type": "electric_bike", "is_reserved": 0, "is_disabled": 0, "fusion_lat": 0.0, "name": "c8538fbec78851be1cba1e82e66d2092", "rental_uris": {"android": "https://dc.lft.to/lastmile_qr_scan", "ios": "https://dc.lft.to/lastmile_qr_scan"}, "fusion_lon": 0.0, "lat": 38.853216833333335, "lon": -76.9800325, "bike_id": "c8538fbec78851be1cba1e82e66d2092"}, {"type": "electric_scooter", "is_reserved": 0, "is_disabled": 0, "fusion_lat": 0.0, "name": "fe1674c93b36db8f9390522dc150ebf9", "rental_uris": {"android": "https://dc.lft.to/lastmile_qr_scan", "ios": "https://dc.lft.to/lastmile_qr_scan"}, "fusion_lon": 0.0, "lat": 38.900782, "lon": -77.039386, "bike_id": "fe1674c93b36db8f9390522dc150ebf9"}, {"type": "electric_scooter", "is_reserved": 0, "is_disabled": 0, "fusion_lat": 0.0, "name": "6300ad6d0df5c2fc0ef030c6cb4aca5a", "rental_uris": {"android": "https://dc.lft.to/lastmile_qr_scan", "ios": "https://dc.lft.to/lastmile_qr_scan"}, "fusion_lon": 0.0, "lat": 38.89917116666667, "lon": -76.93384133333333, "bike_id": "6300ad6d0df5c2fc0ef030c6cb4aca5a"}, {"type": "electric_scooter", "is_reserved": 0, "is_disabled": 0, "fusion_lat": 0.0, "name": "083d26c717c75d1f9e3435d49e31f9ea", "rental_uris": {"android": "https://dc.lft.to/lastmile_qr_scan", "ios": "https://dc.lft.to/lastmile_qr_scan"}, "fusion_lon": 0.0, "lat": 38.895033166666664, "lon": -77.0229655, "bike_id": "083d26c717c75d1f9e3435d49e31f9ea"}, {"type": "electric_scooter", "is_reserved": 0, "is_disabled": 0, "fusion_lat": 0.0, "name": "d5a8af6a58856e36c140f9f8909911bf", "rental_uris": {"android": "https://dc.lft.to/lastmile_qr_scan", "ios": "https://dc.lft.to/lastmile_qr_scan"}, "fusion_lon": 0.0, "lat": 38.88450783333333, "lon": -76.950993, "bike_id": "d5a8af6a58856e36c140f9f8909911bf"}, {"type": "electric_scooter", "is_reserved": 0, "is_disabled": 0, "fusion_lat": 0.0, "name": "9f5746948bce734ec7f1d0afac299681", "rental_uris": {"android": "https://dc.lft.to/lastmile_qr_scan", "ios": "https://dc.lft.to/lastmile_qr_scan"}, "fusion_lon": 0.0, "lat": 38.915494, "lon": -77.03027183333333, "bike_id": "9f5746948bce734ec7f1d0afac299681"}, {"type": "electric_scooter", "is_reserved": 0, "is_disabled": 0, "fusion_lat": 0.0, "name": "70eed2d1a9a723a3ecf8c14d0ed3b81d", "rental_uris": {"android": "https://dc.lft.to/lastmile_qr_scan", "ios": "https://dc.lft.to/lastmile_qr_scan"}, "fusion_lon": 0.0, "lat": 38.9418355, "lon": -77.02490316666666, "bike_id": "70eed2d1a9a723a3ecf8c14d0ed3b81d"}, {"type": "electric_scooter", "is_reserved": 0, "is_disabled": 0, "fusion_lat": 0.0, "name": "41153d7b6f60bb57ea6e5a23d36ebb20", "rental_uris": {"android": "https://dc.lft.to/lastmile_qr_scan", "ios": "https://dc.lft.to/lastmile_qr_scan"}, "fusion_lon": 0.0, "lat": 38.90382533333333, "lon": -77.038862, "bike_id": "41153d7b6f60bb57ea6e5a23d36ebb20"}, {"type": "electric_scooter", "is_reserved": 0, "is_disabled": 0, "fusion_lat": 0.0, "name": "168ebc6956531ce12b92cac3bce1395f", "rental_uris": {"android": "https://dc.lft.to/lastmile_qr_scan", "ios": "https://dc.lft.to/lastmile_qr_scan"}, "fusion_lon": 0.0, "lat": 38.9218715, "lon": -77.03183183333333, "bike_id": "168ebc6956531ce12b92cac3bce1395f"}, {"type": "electric_scooter", "is_reserved": 0, "is_disabled": 0, "fusion_lat": 0.0, "name": "872266df898a2563dd5f6e160548d822", "rental_uris": {"android": "https://dc.lft.to/lastmile_qr_scan", "ios": "https://dc.lft.to/lastmile_qr_scan"}, "fusion_lon": 0.0, "lat": 38.893567, "lon": -77.00335083333333, "bike_id": "872266df898a2563dd5f6e160548d822"}, {"type": "electric_scooter", "is_reserved": 0, "is_disabled": 0, "fusion_lat": 0.0, "name": "f15aa34dc38e3b3c4bf0d9bdb380971d", "rental_uris": {"android": "https://dc.lft.to/lastmile_qr_scan", "ios": "https://dc.lft.to/lastmile_qr_scan"}, "fusion_lon": 0.0, "lat": 38.90362483333333, "lon": -77.050421, "bike_id": "f15aa34dc38e3b3c4bf0d9bdb380971d"}, {"type": "electric_scooter", "is_reserved": 0, "is_disabled": 0, "fusion_lat": 0.0, "name": "91e72c137fb7186735bd5ceff9916eef", "rental_uris": {"android": "https://dc.lft.to/lastmile_qr_scan", "ios": "https://dc.lft.to/lastmile_qr_scan"}, "fusion_lon": 0.0, "lat": 38.926313666666665, "lon": -77.02713016666667, "bike_id": "91e72c137fb7186735bd5ceff9916eef"}, {"type": "electric_scooter", "is_reserved": 0, "is_disabled": 0, "fusion_lat": 0.0, "name": "1c7975d743984e8ef86e38d31c90d74c", "rental_uris": {"android": "https://dc.lft.to/lastmile_qr_scan", "ios": "https://dc.lft.to/lastmile_qr_scan"}, "fusion_lon": 0.0, "lat": 38.9002975, "lon": -76.997914, "bike_id": "1c7975d743984e8ef86e38d31c90d74c"}, {"type": "electric_scooter", "is_reserved": 0, "is_disabled": 0, "fusion_lat": 0.0, "name": "86bf7b91c9a3861a8be4fb73a72c14ae", "rental_uris": {"android": "https://dc.lft.to/lastmile_qr_scan", "ios": "https://dc.lft.to/lastmile_qr_scan"}, "fusion_lon": 0.0, "lat": 38.8925285, "lon": -76.9433275, "bike_id": "86bf7b91c9a3861a8be4fb73a72c14ae"}, {"type": "electric_bike", "is_reserved": 0, "is_disabled": 0, "fusion_lat": 0.0, "name": "5adfff96194d5d4711ef2f32cdb3b560", "rental_uris": {"android": "https://dc.lft.to/lastmile_qr_scan", "ios": "https://dc.lft.to/lastmile_qr_scan"}, "fusion_lon": 0.0, "lat": 38.94915266666667, "lon": -77.007958, "bike_id": "5adfff96194d5d4711ef2f32cdb3b560"}, {"type": "electric_bike", "is_reserved": 0, "is_disabled": 0, "fusion_lat": 0.0, "name": "4f5949dc05d538bc99263e5e058f051b", "rental_uris": {"android": "https://dc.lft.to/lastmile_qr_scan", "ios": "https://dc.lft.to/lastmile_qr_scan"}, "fusion_lon": 0.0, "lat": 38.8714965, "lon": -76.93665666666666, "bike_id": "4f5949dc05d538bc99263e5e058f051b"}, {"type": "electric_scooter", "is_reserved": 0, "is_disabled": 0, "fusion_lat": 0.0, "name": "b15ab3f19e2bc2f33799d8b9430eeecf", "rental_uris": {"android": "https://dc.lft.to/lastmile_qr_scan", "ios": "https://dc.lft.to/lastmile_qr_scan"}, "fusion_lon": 0.0, "lat": 38.911061, "lon": -77.04199966666667, "bike_id": "b15ab3f19e2bc2f33799d8b9430eeecf"}, {"type": "electric_scooter", "is_reserved": 0, "is_disabled": 0, "fusion_lat": 0.0, "name": "ea495a7d64c32b8398f6f55bc733f929", "rental_uris": {"android": "https://dc.lft.to/lastmile_qr_scan", "ios": "https://dc.lft.to/lastmile_qr_scan"}, "fusion_lon": 0.0, "lat": 38.9052365, "lon": -77.06450616666666, "bike_id": "ea495a7d64c32b8398f6f55bc733f929"}, {"type": "electric_scooter", "is_reserved": 0, "is_disabled": 0, "fusion_lat": 0.0, "name": "d1cb1225ff469249e05c3e64f5423c65", "rental_uris": {"android": "https://dc.lft.to/lastmile_qr_scan", "ios": "https://dc.lft.to/lastmile_qr_scan"}, "fusion_lon": 0.0, "lat": 38.92045133333333, "lon": -77.02416933333333, "bike_id": "d1cb1225ff469249e05c3e64f5423c65"}, {"type": "electric_scooter", "is_reserved": 0, "is_disabled": 0, "fusion_lat": 0.0, "name": "c294b38f69b057e1030b2adbfaf81b41", "rental_uris": {"android": "https://dc.lft.to/lastmile_qr_scan", "ios": "https://dc.lft.to/lastmile_qr_scan"}, "fusion_lon": 0.0, "lat": 38.87472266666666, "lon": -77.00551966666667, "bike_id": "c294b38f69b057e1030b2adbfaf81b41"}, {"type": "electric_scooter", "is_reserved": 0, "is_disabled": 0, "fusion_lat": 0.0, "name": "22a5ff27b467353530e1a30ad4aedf62", "rental_uris": {"android": "https://dc.lft.to/lastmile_qr_scan", "ios": "https://dc.lft.to/lastmile_qr_scan"}, "fusion_lon": 0.0, "lat": 38.94429433333333, "lon": -77.06307183333334, "bike_id": "22a5ff27b467353530e1a30ad4aedf62"}, {"type": "electric_scooter", "is_reserved": 0, "is_disabled": 0, "fusion_lat": 0.0, "name": "f7acc5626a9cdeeb2c97f5442a633949", "rental_uris": {"android": "https://dc.lft.to/lastmile_qr_scan", "ios": "https://dc.lft.to/lastmile_qr_scan"}, "fusion_lon": 0.0, "lat": 38.90157383333333, "lon": -77.0254035, "bike_id": "f7acc5626a9cdeeb2c97f5442a633949"}, {"type": "electric_scooter", "is_reserved": 0, "is_disabled": 0, "fusion_lat": 0.0, "name": "d3dc8264cb18aa98ae687e91132c5138", "rental_uris": {"android": "https://dc.lft.to/lastmile_qr_scan", "ios": "https://dc.lft.to/lastmile_qr_scan"}, "fusion_lon": 0.0, "lat": 38.900353333333335, "lon": -77.00196583333333, "bike_id": "d3dc8264cb18aa98ae687e91132c5138"}, {"type": "electric_scooter", "is_reserved": 0, "is_disabled": 0, "fusion_lat": 0.0, "name": "7e6261b52cf5893020209706d159e11b", "rental_uris": {"android": "https://dc.lft.to/lastmile_qr_scan", "ios": "https://dc.lft.to/lastmile_qr_scan"}, "fusion_lon": 0.0, "lat": 38.924691, "lon": -77.05238583333333, "bike_id": "7e6261b52cf5893020209706d159e11b"}, {"type": "electric_scooter", "is_reserved": 0, "is_disabled": 0, "fusion_lat": 0.0, "name": "5d0646d8e1195c0ad43e9d6fd3ca304e", "rental_uris": {"android": "https://dc.lft.to/lastmile_qr_scan", "ios": "https://dc.lft.to/lastmile_qr_scan"}, "fusion_lon": 0.0, "lat": 38.934975333333334, "lon": -77.07240766666666, "bike_id": "5d0646d8e1195c0ad43e9d6fd3ca304e"}, {"type": "electric_scooter", "is_reserved": 0, "is_disabled": 0, "fusion_lat": 0.0, "name": "8e45103ac58e12e9528dbe9d8e6e6bb3", "rental_uris": {"android": "https://dc.lft.to/lastmile_qr_scan", "ios": "https://dc.lft.to/lastmile_qr_scan"}, "fusion_lon": 0.0, "lat": 38.88314233333333, "lon": -77.00938466666666, "bike_id": "8e45103ac58e12e9528dbe9d8e6e6bb3"}, {"type": "electric_scooter", "is_reserved": 0, "is_disabled": 0, "fusion_lat": 0.0, "name": "154abf9c0a2d9acb804955cc85b54d11", "rental_uris": {"android": "https://dc.lft.to/lastmile_qr_scan", "ios": "https://dc.lft.to/lastmile_qr_scan"}, "fusion_lon": 0.0, "lat": 38.91251033333333, "lon": -77.027233, "bike_id": "154abf9c0a2d9acb804955cc85b54d11"}, {"type": "electric_scooter", "is_reserved": 0, "is_disabled": 0, "fusion_lat": 0.0, "name": "6bee791f500c92b219991156a676d77b", "rental_uris": {"android": "https://dc.lft.to/lastmile_qr_scan", "ios": "https://dc.lft.to/lastmile_qr_scan"}, "fusion_lon": 0.0, "lat": 38.900011666666664, "lon": -77.00613766666666, "bike_id": "6bee791f500c92b219991156a676d77b"}, {"type": "electric_scooter", "is_reserved": 0, "is_disabled": 0, "fusion_lat": 0.0, "name": "cf7c1b3f8fc193b5cefc52d444912c9d", "rental_uris": {"android": "https://dc.lft.to/lastmile_qr_scan", "ios": "https://dc.lft.to/lastmile_qr_scan"}, "fusion_lon": 0.0, "lat": 38.9234015, "lon": -77.03537733333333, "bike_id": "cf7c1b3f8fc193b5cefc52d444912c9d"}, {"type": "electric_scooter", "is_reserved": 0, "is_disabled": 0, "fusion_lat": 0.0, "name": "f5e369f2dcc0ae4c47e3959e4b4d075c", "rental_uris": {"android": "https://dc.lft.to/lastmile_qr_scan", "ios": "https://dc.lft.to/lastmile_qr_scan"}, "fusion_lon": 0.0, "lat": 38.89916383333333, "lon": -77.03297983333333, "bike_id": "f5e369f2dcc0ae4c47e3959e4b4d075c"}, {"type": "electric_scooter", "is_reserved": 0, "is_disabled": 0, "fusion_lat": 0.0, "name": "8e868981409806e18236f8e20d967ea5", "rental_uris": {"android": "https://dc.lft.to/lastmile_qr_scan", "ios": "https://dc.lft.to/lastmile_qr_scan"}, "fusion_lon": 0.0, "lat": 38.924379333333334, "lon": -77.04254016666667, "bike_id": "8e868981409806e18236f8e20d967ea5"}, {"type": "electric_scooter", "is_reserved": 0, "is_disabled": 0, "fusion_lat": 0.0, "name": "525f5fcbc917e7b299c1840b391dcbdf", "rental_uris": {"android": "https://dc.lft.to/lastmile_qr_scan", "ios": "https://dc.lft.to/lastmile_qr_scan"}, "fusion_lon": 0.0, "lat": 38.898269166666665, "lon": -77.02680816666667, "bike_id": "525f5fcbc917e7b299c1840b391dcbdf"}, {"type": "electric_scooter", "is_reserved": 0, "is_disabled": 0, "fusion_lat": 0.0, "name": "c8f656073ab587d8eaa4ce9bec535903", "rental_uris": {"android": "https://dc.lft.to/lastmile_qr_scan", "ios": "https://dc.lft.to/lastmile_qr_scan"}, "fusion_lon": 0.0, "lat": 38.92079416666667, "lon": -77.02401433333333, "bike_id": "c8f656073ab587d8eaa4ce9bec535903"}, {"type": "electric_scooter", "is_reserved": 0, "is_disabled": 0, "fusion_lat": 0.0, "name": "dd50974aad3915e713c024b463e856df", "rental_uris": {"android": "https://dc.lft.to/lastmile_qr_scan", "ios": "https://dc.lft.to/lastmile_qr_scan"}, "fusion_lon": 0.0, "lat": 38.928659833333334, "lon": -77.0342695, "bike_id": "dd50974aad3915e713c024b463e856df"}, {"type": "electric_scooter", "is_reserved": 0, "is_disabled": 0, "fusion_lat": 0.0, "name": "f9e64f6b8d4f3fde74796e33fa9fad44", "rental_uris": {"android": "https://dc.lft.to/lastmile_qr_scan", "ios": "https://dc.lft.to/lastmile_qr_scan"}, "fusion_lon": 0.0, "lat": 38.941691166666665, "lon": -77.02536483333333, "bike_id": "f9e64f6b8d4f3fde74796e33fa9fad44"}, {"type": "electric_bike", "is_reserved": 0, "is_disabled": 0, "fusion_lat": 0.0, "name": "6f37fb71e485b034586eae961bac9475", "rental_uris": {"android": "https://dc.lft.to/lastmile_qr_scan", "ios": "https://dc.lft.to/lastmile_qr_scan"}, "fusion_lon": 0.0, "lat": 38.891875666666664, "lon": -77.12259983333334, "bike_id": "6f37fb71e485b034586eae961bac9475"}, {"type": "electric_scooter", "is_reserved": 0, "is_disabled": 0, "fusion_lat": 0.0, "name": "73729ee8afbf4d9d15a86c9d0562e7f4", "rental_uris": {"android": "https://dc.lft.to/lastmile_qr_scan", "ios": "https://dc.lft.to/lastmile_qr_scan"}, "fusion_lon": 0.0, "lat": 38.910172333333335, "lon": -77.0546375, "bike_id": "73729ee8afbf4d9d15a86c9d0562e7f4"}, {"type": "electric_scooter", "is_reserved": 0, "is_disabled": 0, "fusion_lat": 0.0, "name": "ae51a39a44f427f9648638756f33702f", "rental_uris": {"android": "https://dc.lft.to/lastmile_qr_scan", "ios": "https://dc.lft.to/lastmile_qr_scan"}, "fusion_lon": 0.0, "lat": 38.89374316666667, "lon": -77.0479165, "bike_id": "ae51a39a44f427f9648638756f33702f"}, {"type": "electric_scooter", "is_reserved": 0, "is_disabled": 0, "fusion_lat": 0.0, "name": "5ebe1e5b7c37c2316a14b65abef4e6f5", "rental_uris": {"android": "https://dc.lft.to/lastmile_qr_scan", "ios": "https://dc.lft.to/lastmile_qr_scan"}, "fusion_lon": 0.0, "lat": 38.89923316666667, "lon": -77.0035165, "bike_id": "5ebe1e5b7c37c2316a14b65abef4e6f5"}, {"type": "electric_scooter", "is_reserved": 0, "is_disabled": 0, "fusion_lat": 0.0, "name": "4e6967f101e40f3f44918e02b1a2b785", "rental_uris": {"android": "https://dc.lft.to/lastmile_qr_scan", "ios": "https://dc.lft.to/lastmile_qr_scan"}, "fusion_lon": 0.0, "lat": 38.89064166666667, "lon": -76.943334, "bike_id": "4e6967f101e40f3f44918e02b1a2b785"}, {"type": "electric_scooter", "is_reserved": 0, "is_disabled": 0, "fusion_lat": 0.0, "name": "ba55e387ee18b9d0441ee0f96fa2f935", "rental_uris": {"android": "https://dc.lft.to/lastmile_qr_scan", "ios": "https://dc.lft.to/lastmile_qr_scan"}, "fusion_lon": 0.0, "lat": 38.90776683333333, "lon": -77.03833083333333, "bike_id": "ba55e387ee18b9d0441ee0f96fa2f935"}, {"type": "electric_scooter", "is_reserved": 0, "is_disabled": 0, "fusion_lat": 0.0, "name": "f1b896400617b39aff080b9b310785fe", "rental_uris": {"android": "https://dc.lft.to/lastmile_qr_scan", "ios": "https://dc.lft.to/lastmile_qr_scan"}, "fusion_lon": 0.0, "lat": 38.92448783333333, "lon": -77.02161266666667, "bike_id": "f1b896400617b39aff080b9b310785fe"}, {"type": "electric_scooter", "is_reserved": 0, "is_disabled": 0, "fusion_lat": 0.0, "name": "157016fbf673c8c5276e6053348616b0", "rental_uris": {"android": "https://dc.lft.to/lastmile_qr_scan", "ios": "https://dc.lft.to/lastmile_qr_scan"}, "fusion_lon": 0.0, "lat": 38.858092666666664, "lon": -76.98653583333333, "bike_id": "157016fbf673c8c5276e6053348616b0"}, {"type": "electric_bike", "is_reserved": 0, "is_disabled": 0, "fusion_lat": 0.0, "name": "3a7de29fda3f2fdb009f6d66e6f567b1", "rental_uris": {"android": "https://dc.lft.to/lastmile_qr_scan", "ios": "https://dc.lft.to/lastmile_qr_scan"}, "fusion_lon": 0.0, "lat": 38.866125833333335, "lon": -76.94575383333333, "bike_id": "3a7de29fda3f2fdb009f6d66e6f567b1"}, {"type": "electric_bike", "is_reserved": 0, "is_disabled": 0, "fusion_lat": 0.0, "name": "07c30f5f11398129c8a6f623bd1b14d7", "rental_uris": {"android": "https://dc.lft.to/lastmile_qr_scan", "ios": "https://dc.lft.to/lastmile_qr_scan"}, "fusion_lon": 0.0, "lat": 38.9246265, "lon": -77.20840266666667, "bike_id": "07c30f5f11398129c8a6f623bd1b14d7"}, {"type": "electric_scooter", "is_reserved": 0, "is_disabled": 0, "fusion_lat": 0.0, "name": "c435c30f552889372e566395b22adfe2", "rental_uris": {"android": "https://dc.lft.to/lastmile_qr_scan", "ios": "https://dc.lft.to/lastmile_qr_scan"}, "fusion_lon": 0.0, "lat": 38.937166166666664, "lon": -77.02421416666667, "bike_id": "c435c30f552889372e566395b22adfe2"}, {"type": "electric_scooter", "is_reserved": 0, "is_disabled": 0, "fusion_lat": 0.0, "name": "6e214c8cdaa34ad0843f2ac08eccfa55", "rental_uris": {"android": "https://dc.lft.to/lastmile_qr_scan", "ios": "https://dc.lft.to/lastmile_qr_scan"}, "fusion_lon": 0.0, "lat": 38.9100305, "lon": -77.034512, "bike_id": "6e214c8cdaa34ad0843f2ac08eccfa55"}, {"type": "electric_scooter", "is_reserved": 0, "is_disabled": 0, "fusion_lat": 0.0, "name": "b125f2aa25d165432174392f24579e72", "rental_uris": {"android": "https://dc.lft.to/lastmile_qr_scan", "ios": "https://dc.lft.to/lastmile_qr_scan"}, "fusion_lon": 0.0, "lat": 38.874688666666664, "lon": -77.00547683333333, "bike_id": "b125f2aa25d165432174392f24579e72"}, {"type": "electric_scooter", "is_reserved": 0, "is_disabled": 0, "fusion_lat": 0.0, "name": "40f818ad439c99a8fbc61683ab0e18dc", "rental_uris": {"android": "https://dc.lft.to/lastmile_qr_scan", "ios": "https://dc.lft.to/lastmile_qr_scan"}, "fusion_lon": 0.0, "lat": 38.89744733333333, "lon": -77.0450465, "bike_id": "40f818ad439c99a8fbc61683ab0e18dc"}, {"type": "electric_scooter", "is_reserved": 0, "is_disabled": 0, "fusion_lat": 0.0, "name": "05862285e8cf5fc338150dee2a27ae0e", "rental_uris": {"android": "https://dc.lft.to/lastmile_qr_scan", "ios": "https://dc.lft.to/lastmile_qr_scan"}, "fusion_lon": 0.0, "lat": 38.903561333333336, "lon": -77.04336466666666, "bike_id": "05862285e8cf5fc338150dee2a27ae0e"}, {"type": "electric_scooter", "is_reserved": 0, "is_disabled": 0, "fusion_lat": 0.0, "name": "2fe8edf8a7c029c9f16e63bf21fe79c8", "rental_uris": {"android": "https://dc.lft.to/lastmile_qr_scan", "ios": "https://dc.lft.to/lastmile_qr_scan"}, "fusion_lon": 0.0, "lat": 38.9219535, "lon": -77.03807966666666, "bike_id": "2fe8edf8a7c029c9f16e63bf21fe79c8"}, {"type": "electric_scooter", "is_reserved": 0, "is_disabled": 0, "fusion_lat": 0.0, "name": "4d5d45dfccdffe72b2b69875d6196f61", "rental_uris": {"android": "https://dc.lft.to/lastmile_qr_scan", "ios": "https://dc.lft.to/lastmile_qr_scan"}, "fusion_lon": 0.0, "lat": 38.906714, "lon": -77.0005775, "bike_id": "4d5d45dfccdffe72b2b69875d6196f61"}, {"type": "electric_bike", "is_reserved": 0, "is_disabled": 0, "fusion_lat": 0.0, "name": "b4d602d29b361f207235bde89c32e124", "rental_uris": {"android": "https://dc.lft.to/lastmile_qr_scan", "ios": "https://dc.lft.to/lastmile_qr_scan"}, "fusion_lon": 0.0, "lat": 38.96575083333333, "lon": -77.01628416666667, "bike_id": "b4d602d29b361f207235bde89c32e124"}, {"type": "electric_scooter", "is_reserved": 0, "is_disabled": 0, "fusion_lat": 0.0, "name": "8a7e99a94342fddd53a96bf2581baa8b", "rental_uris": {"android": "https://dc.lft.to/lastmile_qr_scan", "ios": "https://dc.lft.to/lastmile_qr_scan"}, "fusion_lon": 0.0, "lat": 38.928628833333335, "lon": -77.03239533333333, "bike_id": "8a7e99a94342fddd53a96bf2581baa8b"}, {"type": "electric_scooter", "is_reserved": 0, "is_disabled": 0, "fusion_lat": 0.0, "name": "607b5ac70b575355e6b2f6c2e066a5ec", "rental_uris": {"android": "https://dc.lft.to/lastmile_qr_scan", "ios": "https://dc.lft.to/lastmile_qr_scan"}, "fusion_lon": 0.0, "lat": 38.9042745, "lon": -77.03272433333333, "bike_id": "607b5ac70b575355e6b2f6c2e066a5ec"}, {"type": "electric_scooter", "is_reserved": 0, "is_disabled": 0, "fusion_lat": 0.0, "name": "18e6e32a1433430c29eec3f720f57f96", "rental_uris": {"android": "https://dc.lft.to/lastmile_qr_scan", "ios": "https://dc.lft.to/lastmile_qr_scan"}, "fusion_lon": 0.0, "lat": 38.9003315, "lon": -77.001691, "bike_id": "18e6e32a1433430c29eec3f720f57f96"}, {"type": "electric_scooter", "is_reserved": 0, "is_disabled": 0, "fusion_lat": 0.0, "name": "09a33dd259f5abe067dfed45f435a00d", "rental_uris": {"android": "https://dc.lft.to/lastmile_qr_scan", "ios": "https://dc.lft.to/lastmile_qr_scan"}, "fusion_lon": 0.0, "lat": 38.928616, "lon": -77.0344255, "bike_id": "09a33dd259f5abe067dfed45f435a00d"}, {"type": "electric_scooter", "is_reserved": 0, "is_disabled": 0, "fusion_lat": 0.0, "name": "0c7c37fb42f8b8c1552b3071865cd1bb", "rental_uris": {"android": "https://dc.lft.to/lastmile_qr_scan", "ios": "https://dc.lft.to/lastmile_qr_scan"}, "fusion_lon": 0.0, "lat": 38.900181833333335, "lon": -76.997443, "bike_id": "0c7c37fb42f8b8c1552b3071865cd1bb"}, {"type": "electric_scooter", "is_reserved": 0, "is_disabled": 0, "fusion_lat": 0.0, "name": "db63009a5bab77d827527578b1cbd388", "rental_uris": {"android": "https://dc.lft.to/lastmile_qr_scan", "ios": "https://dc.lft.to/lastmile_qr_scan"}, "fusion_lon": 0.0, "lat": 38.918536, "lon": -77.04491483333334, "bike_id": "db63009a5bab77d827527578b1cbd388"}, {"type": "electric_scooter", "is_reserved": 0, "is_disabled": 0, "fusion_lat": 0.0, "name": "b542236fe61bcc08c6843bbcfbb61896", "rental_uris": {"android": "https://dc.lft.to/lastmile_qr_scan", "ios": "https://dc.lft.to/lastmile_qr_scan"}, "fusion_lon": 0.0, "lat": 38.905008333333335, "lon": -76.99012466666667, "bike_id": "b542236fe61bcc08c6843bbcfbb61896"}, {"type": "electric_scooter", "is_reserved": 0, "is_disabled": 0, "fusion_lat": 0.0, "name": "e4f77a6a52b3de62e6b88b9c6239cee4", "rental_uris": {"android": "https://dc.lft.to/lastmile_qr_scan", "ios": "https://dc.lft.to/lastmile_qr_scan"}, "fusion_lon": 0.0, "lat": 38.9421305, "lon": -77.0202385, "bike_id": "e4f77a6a52b3de62e6b88b9c6239cee4"}, {"type": "electric_scooter", "is_reserved": 0, "is_disabled": 0, "fusion_lat": 0.0, "name": "55c3fedba8989c845ba0cdba2d62e9e6", "rental_uris": {"android": "https://dc.lft.to/lastmile_qr_scan", "ios": "https://dc.lft.to/lastmile_qr_scan"}, "fusion_lon": 0.0, "lat": 38.904228, "lon": -76.99072433333333, "bike_id": "55c3fedba8989c845ba0cdba2d62e9e6"}, {"type": "electric_scooter", "is_reserved": 0, "is_disabled": 0, "fusion_lat": 0.0, "name": "90c0df1a566f51a4cf02eac5ee2bd2e9", "rental_uris": {"android": "https://dc.lft.to/lastmile_qr_scan", "ios": "https://dc.lft.to/lastmile_qr_scan"}, "fusion_lon": 0.0, "lat": 38.90016133333334, "lon": -77.0448925, "bike_id": "90c0df1a566f51a4cf02eac5ee2bd2e9"}, {"type": "electric_scooter", "is_reserved": 0, "is_disabled": 0, "fusion_lat": 0.0, "name": "9cb920cadd0864c7f15a3645b91f2f61", "rental_uris": {"android": "https://dc.lft.to/lastmile_qr_scan", "ios": "https://dc.lft.to/lastmile_qr_scan"}, "fusion_lon": 0.0, "lat": 38.91123916666667, "lon": -77.0318375, "bike_id": "9cb920cadd0864c7f15a3645b91f2f61"}, {"type": "electric_scooter", "is_reserved": 0, "is_disabled": 0, "fusion_lat": 0.0, "name": "56d36d554a74553da274b1d75f6ff03e", "rental_uris": {"android": "https://dc.lft.to/lastmile_qr_scan", "ios": "https://dc.lft.to/lastmile_qr_scan"}, "fusion_lon": 0.0, "lat": 38.960279166666666, "lon": -77.02831666666667, "bike_id": "56d36d554a74553da274b1d75f6ff03e"}, {"type": "electric_scooter", "is_reserved": 0, "is_disabled": 0, "fusion_lat": 0.0, "name": "f999963358305038ae89be7bbe348e83", "rental_uris": {"android": "https://dc.lft.to/lastmile_qr_scan", "ios": "https://dc.lft.to/lastmile_qr_scan"}, "fusion_lon": 0.0, "lat": 38.904935333333334, "lon": -77.04679116666667, "bike_id": "f999963358305038ae89be7bbe348e83"}, {"type": "electric_scooter", "is_reserved": 0, "is_disabled": 0, "fusion_lat": 0.0, "name": "1216858b487231d48a9a19664ee0d21a", "rental_uris": {"android": "https://dc.lft.to/lastmile_qr_scan", "ios": "https://dc.lft.to/lastmile_qr_scan"}, "fusion_lon": 0.0, "lat": 38.9217825, "lon": -77.0423065, "bike_id": "1216858b487231d48a9a19664ee0d21a"}, {"type": "electric_scooter", "is_reserved": 0, "is_disabled": 0, "fusion_lat": 0.0, "name": "696119efafa819b65a0445b746c9fd38", "rental_uris": {"android": "https://dc.lft.to/lastmile_qr_scan", "ios": "https://dc.lft.to/lastmile_qr_scan"}, "fusion_lon": 0.0, "lat": 38.897739, "lon": -76.97728466666666, "bike_id": "696119efafa819b65a0445b746c9fd38"}, {"type": "electric_bike", "is_reserved": 0, "is_disabled": 0, "fusion_lat": 0.0, "name": "038babbb8d785400122b03532a06929c", "rental_uris": {"android": "https://dc.lft.to/lastmile_qr_scan", "ios": "https://dc.lft.to/lastmile_qr_scan"}, "fusion_lon": 0.0, "lat": 39.030481333333334, "lon": -77.09486983333333, "bike_id": "038babbb8d785400122b03532a06929c"}, {"type": "electric_scooter", "is_reserved": 0, "is_disabled": 0, "fusion_lat": 0.0, "name": "fa4ae5c4633fa0a9c6249111f55230d8", "rental_uris": {"android": "https://dc.lft.to/lastmile_qr_scan", "ios": "https://dc.lft.to/lastmile_qr_scan"}, "fusion_lon": 0.0, "lat": 38.923247, "lon": -77.039017, "bike_id": "fa4ae5c4633fa0a9c6249111f55230d8"}, {"type": "electric_scooter", "is_reserved": 0, "is_disabled": 0, "fusion_lat": 0.0, "name": "ca42dca46dbff9c599d7a370845664f5", "rental_uris": {"android": "https://dc.lft.to/lastmile_qr_scan", "ios": "https://dc.lft.to/lastmile_qr_scan"}, "fusion_lon": 0.0, "lat": 38.90775266666667, "lon": -77.03208916666667, "bike_id": "ca42dca46dbff9c599d7a370845664f5"}, {"type": "electric_scooter", "is_reserved": 0, "is_disabled": 0, "fusion_lat": 0.0, "name": "9c64e2194deb929e762a150b8d83a9a8", "rental_uris": {"android": "https://dc.lft.to/lastmile_qr_scan", "ios": "https://dc.lft.to/lastmile_qr_scan"}, "fusion_lon": 0.0, "lat": 38.9154835, "lon": -77.03506733333333, "bike_id": "9c64e2194deb929e762a150b8d83a9a8"}, {"type": "electric_scooter", "is_reserved": 0, "is_disabled": 0, "fusion_lat": 0.0, "name": "dc686d3cc28d11d252031db20b03ab7a", "rental_uris": {"android": "https://dc.lft.to/lastmile_qr_scan", "ios": "https://dc.lft.to/lastmile_qr_scan"}, "fusion_lon": 0.0, "lat": 38.89466866666667, "lon": -76.993855, "bike_id": "dc686d3cc28d11d252031db20b03ab7a"}, {"type": "electric_scooter", "is_reserved": 0, "is_disabled": 0, "fusion_lat": 0.0, "name": "7a035c4254bcb4794fc6bdff10221cc2", "rental_uris": {"android": "https://dc.lft.to/lastmile_qr_scan", "ios": "https://dc.lft.to/lastmile_qr_scan"}, "fusion_lon": 0.0, "lat": 38.91698783333333, "lon": -77.02892816666666, "bike_id": "7a035c4254bcb4794fc6bdff10221cc2"}, {"type": "electric_scooter", "is_reserved": 0, "is_disabled": 0, "fusion_lat": 0.0, "name": "deec4bf1bfedca667911933bc750de8f", "rental_uris": {"android": "https://dc.lft.to/lastmile_qr_scan", "ios": "https://dc.lft.to/lastmile_qr_scan"}, "fusion_lon": 0.0, "lat": 38.92332533333333, "lon": -77.04327166666667, "bike_id": "deec4bf1bfedca667911933bc750de8f"}, {"type": "electric_scooter", "is_reserved": 0, "is_disabled": 0, "fusion_lat": 0.0, "name": "564a8b27f99e99341028ea8a54e68848", "rental_uris": {"android": "https://dc.lft.to/lastmile_qr_scan", "ios": "https://dc.lft.to/lastmile_qr_scan"},