{"data": {"bikes": [{"fusion_lat": 0.0, "name": "218926d5e41538cfffcc23f0f42e466e", "is_disabled": 0, "rental_uris": {"android": "https://dc.lft.to/lastmile_qr_scan", "ios": "https://dc.lft.to/lastmile_qr_scan"}, "fusion_lon": 0.0, "lat": 38.9285975, "bike_id": "218926d5e41538cfffcc23f0f42e466e", "type": "electric_scooter", "is_reserved": 0, "lon": -77.03103866666666}, {"fusion_lat": 0.0, "name": "7600185e3ffc822cf6ecad83d81ba1d7", "is_disabled": 0, "rental_uris": {"android": "https://dc.lft.to/lastmile_qr_scan", "ios": "https://dc.lft.to/lastmile_qr_scan"}, "fusion_lon": 0.0, "lat": 38.9574085, "bike_id": "7600185e3ffc822cf6ecad83d81ba1d7", "type": "electric_bike", "is_reserved": 0, "lon": -76.980815}, {"fusion_lat": 0.0, "name": "1fa32217d49eec9b89fba18b8bde3bbe", "is_disabled": 0, "rental_uris": {"android": "https://dc.lft.to/lastmile_qr_scan", "ios": "https://dc.lft.to/lastmile_qr_scan"}, "fusion_lon": 0.0, "lat": 38.921973666666666, "bike_id": "1fa32217d49eec9b89fba18b8bde3bbe", "type": "electric_scooter", "is_reserved": 0, "lon": -77.08084683333334}, {"fusion_lat": 0.0, "name": "35ec3aabaa626e24ed61d8cb625f8ddc", "is_disabled": 0, "rental_uris": {"android": "https://dc.lft.to/lastmile_qr_scan", "ios": "https://dc.lft.to/lastmile_qr_scan"}, "fusion_lon": 0.0, "lat": 38.911197333333334, "bike_id": "35ec3aabaa626e24ed61d8cb625f8ddc", "type": "electric_scooter", "is_reserved": 0, "lon": -77.02237183333334}, {"fusion_lat": 0.0, "name": "6c4f34de47ce73d2b033ca0c0c240498", "is_disabled": 0, "rental_uris": {"android": "https://dc.lft.to/lastmile_qr_scan", "ios": "https://dc.lft.to/lastmile_qr_scan"}, "fusion_lon": 0.0, "lat": 38.8991005, "bike_id": "6c4f34de47ce73d2b033ca0c0c240498", "type": "electric_scooter", "is_reserved": 0, "lon": -76.93353816666666}, {"fusion_lat": 0.0, "name": "fdb8c58aaad343036e4594b12331b1b2", "is_disabled": 0, "rental_uris": {"android": "https://dc.lft.to/lastmile_qr_scan", "ios": "https://dc.lft.to/lastmile_qr_scan"}, "fusion_lon": 0.0, "lat": 38.93606833333333, "bike_id": "fdb8c58aaad343036e4594b12331b1b2", "type": "electric_scooter", "is_reserved": 0, "lon": -77.03197016666667}, {"fusion_lat": 0.0, "name": "17ae18ff31622e498b39d26c0c58f743", "is_disabled": 0, "rental_uris": {"android": "https://dc.lft.to/lastmile_qr_scan", "ios": "https://dc.lft.to/lastmile_qr_scan"}, "fusion_lon": 0.0, "lat": 38.959793833333336, "bike_id": "17ae18ff31622e498b39d26c0c58f743", "type": "electric_bike", "is_reserved": 0, "lon": -76.98150716666666}, {"fusion_lat": 0.0, "name": "706175e2f84c45f7d82d6f21da155045", "is_disabled": 0, "rental_uris": {"android": "https://dc.lft.to/lastmile_qr_scan", "ios": "https://dc.lft.to/lastmile_qr_scan"}, "fusion_lon": 0.0, "lat": 38.92703016666667, "bike_id": "706175e2f84c45f7d82d6f21da155045", "type": "electric_scooter", "is_reserved": 0, "lon": -77.02429733333334}, {"fusion_lat": 0.0, "name": "79ee47c3264450471f3bc044db4f2edc", "is_disabled": 0, "rental_uris": {"android": "https://dc.lft.to/lastmile_qr_scan", "ios": "https://dc.lft.to/lastmile_qr_scan"}, "fusion_lon": 0.0, "lat": 38.9143535, "bike_id": "79ee47c3264450471f3bc044db4f2edc", "type": "electric_scooter", "is_reserved": 0, "lon": -76.99353866666667}, {"fusion_lat": 0.0, "name": "c1321539c219842f6cd4ee5a85dbf3b1", "is_disabled": 0, "rental_uris": {"android": "https://dc.lft.to/lastmile_qr_scan", "ios": "https://dc.lft.to/lastmile_qr_scan"}, "fusion_lon": 0.0, "lat": 38.911186, "bike_id": "c1321539c219842f6cd4ee5a85dbf3b1", "type": "electric_scooter", "is_reserved": 0, "lon": -77.03723616666667}, {"fusion_lat": 0.0, "name": "d92acdb55e645d1d0b5bbd5861a354ce", "is_disabled": 0, "rental_uris": {"android": "https://dc.lft.to/lastmile_qr_scan", "ios": "https://dc.lft.to/lastmile_qr_scan"}, "fusion_lon": 0.0, "lat": 38.90412533333333, "bike_id": "d92acdb55e645d1d0b5bbd5861a354ce", "type": "electric_scooter", "is_reserved": 0, "lon": -77.0250925}, {"fusion_lat": 0.0, "name": "370ed50eef8264da82b0ef65e7f4cb70", "is_disabled": 0, "rental_uris": {"android": "https://dc.lft.to/lastmile_qr_scan", "ios": "https://dc.lft.to/lastmile_qr_scan"}, "fusion_lon": 0.0, "lat": 38.90036966666667, "bike_id": "370ed50eef8264da82b0ef65e7f4cb70", "type": "electric_bike", "is_reserved": 0, "lon": -76.97225583333334}, {"fusion_lat": 0.0, "name": "9e7be79b12a910f9f419f46e24b416fb", "is_disabled": 0, "rental_uris": {"android": "https://dc.lft.to/lastmile_qr_scan", "ios": "https://dc.lft.to/lastmile_qr_scan"}, "fusion_lon": 0.0, "lat": 38.92962966666666, "bike_id": "9e7be79b12a910f9f419f46e24b416fb", "type": "electric_scooter", "is_reserved": 0, "lon": -76.99171016666666}, {"fusion_lat": 0.0, "name": "52bedf2d5e891a8c876ac29bfb36cdfc", "is_disabled": 0, "rental_uris": {"android": "https://dc.lft.to/lastmile_qr_scan", "ios": "https://dc.lft.to/lastmile_qr_scan"}, "fusion_lon": 0.0, "lat": 38.87700183333333, "bike_id": "52bedf2d5e891a8c876ac29bfb36cdfc", "type": "electric_scooter", "is_reserved": 0, "lon": -77.00408283333333}, {"fusion_lat": 0.0, "name": "be65095ca1b5e014bc5b1410b0947559", "is_disabled": 0, "rental_uris": {"android": "https://dc.lft.to/lastmile_qr_scan", "ios": "https://dc.lft.to/lastmile_qr_scan"}, "fusion_lon": 0.0, "lat": 38.919279333333336, "bike_id": "be65095ca1b5e014bc5b1410b0947559", "type": "electric_scooter", "is_reserved": 0, "lon": -77.02520383333334}, {"fusion_lat": 0.0, "name": "41e013ffecaeb281adca97e2000c6b51", "is_disabled": 0, "rental_uris": {"android": "https://dc.lft.to/lastmile_qr_scan", "ios": "https://dc.lft.to/lastmile_qr_scan"}, "fusion_lon": 0.0, "lat": 38.913216166666665, "bike_id": "41e013ffecaeb281adca97e2000c6b51", "type": "electric_scooter", "is_reserved": 0, "lon": -77.01207866666667}, {"fusion_lat": 0.0, "name": "3660c58b777c573731b7a990aa2dde6a", "is_disabled": 0, "rental_uris": {"android": "https://dc.lft.to/lastmile_qr_scan", "ios": "https://dc.lft.to/lastmile_qr_scan"}, "fusion_lon": 0.0, "lat": 38.96679316666667, "bike_id": "3660c58b777c573731b7a990aa2dde6a", "type": "electric_bike", "is_reserved": 0, "lon": -77.02308166666667}, {"fusion_lat": 0.0, "name": "21bcf6ce3ad7494b71db218219ada928", "is_disabled": 0, "rental_uris": {"android": "https://dc.lft.to/lastmile_qr_scan", "ios": "https://dc.lft.to/lastmile_qr_scan"}, "fusion_lon": 0.0, "lat": 38.922550666666666, "bike_id": "21bcf6ce3ad7494b71db218219ada928", "type": "electric_scooter", "is_reserved": 0, "lon": -77.0091475}, {"fusion_lat": 0.0, "name": "65e9fe5036b37be37dd71c07c50e0196", "is_disabled": 0, "rental_uris": {"android": "https://dc.lft.to/lastmile_qr_scan", "ios": "https://dc.lft.to/lastmile_qr_scan"}, "fusion_lon": 0.0, "lat": 38.931778333333334, "bike_id": "65e9fe5036b37be37dd71c07c50e0196", "type": "electric_scooter", "is_reserved": 0, "lon": -77.03790566666666}, {"fusion_lat": 0.0, "name": "69eb12173245713ac6743c62d57fd526", "is_disabled": 0, "rental_uris": {"android": "https://dc.lft.to/lastmile_qr_scan", "ios": "https://dc.lft.to/lastmile_qr_scan"}, "fusion_lon": 0.0, "lat": 38.9169495, "bike_id": "69eb12173245713ac6743c62d57fd526", "type": "electric_scooter", "is_reserved": 0, "lon": -77.0351415}, {"fusion_lat": 0.0, "name": "1b840aacfb5f010b97e07ea6f75824e6", "is_disabled": 0, "rental_uris": {"android": "https://dc.lft.to/lastmile_qr_scan", "ios": "https://dc.lft.to/lastmile_qr_scan"}, "fusion_lon": 0.0, "lat": 38.832053, "bike_id": "1b840aacfb5f010b97e07ea6f75824e6", "type": "electric_bike", "is_reserved": 0, "lon": -76.996729}, {"fusion_lat": 0.0, "name": "217ea2aede6d2bdf94d56b9e5f4535f6", "is_disabled": 0, "rental_uris": {"android": "https://dc.lft.to/lastmile_qr_scan", "ios": "https://dc.lft.to/lastmile_qr_scan"}, "fusion_lon": 0.0, "lat": 38.898186833333334, "bike_id": "217ea2aede6d2bdf94d56b9e5f4535f6", "type": "electric_scooter", "is_reserved": 0, "lon": -77.04660683333333}, {"fusion_lat": 0.0, "name": "e4c98f35cf688103255083dce24133c5", "is_disabled": 0, "rental_uris": {"android": "https://dc.lft.to/lastmile_qr_scan", "ios": "https://dc.lft.to/lastmile_qr_scan"}, "fusion_lon": 0.0, "lat": 38.90969416666667, "bike_id": "e4c98f35cf688103255083dce24133c5", "type": "electric_scooter", "is_reserved": 0, "lon": -77.03376566666667}, {"fusion_lat": 0.0, "name": "8b99cc1071d88091ac33648ca6ab1379", "is_disabled": 0, "rental_uris": {"android": "https://dc.lft.to/lastmile_qr_scan", "ios": "https://dc.lft.to/lastmile_qr_scan"}, "fusion_lon": 0.0, "lat": 38.924759333333334, "bike_id": "8b99cc1071d88091ac33648ca6ab1379", "type": "electric_scooter", "is_reserved": 0, "lon": -77.02273466666666}, {"fusion_lat": 0.0, "name": "2a7d15e2c89c60f2c0058335e58abfcb", "is_disabled": 0, "rental_uris": {"android": "https://dc.lft.to/lastmile_qr_scan", "ios": "https://dc.lft.to/lastmile_qr_scan"}, "fusion_lon": 0.0, "lat": 38.92335116666667, "bike_id": "2a7d15e2c89c60f2c0058335e58abfcb", "type": "electric_scooter", "is_reserved": 0, "lon": -77.04303533333334}, {"fusion_lat": 0.0, "name": "8b1112ebde87300b789a2cc3e80d9f59", "is_disabled": 0, "rental_uris": {"android": "https://dc.lft.to/lastmile_qr_scan", "ios": "https://dc.lft.to/lastmile_qr_scan"}, "fusion_lon": 0.0, "lat": 38.903158, "bike_id": "8b1112ebde87300b789a2cc3e80d9f59", "type": "electric_scooter", "is_reserved": 0, "lon": -76.97800383333333}, {"fusion_lat": 0.0, "name": "ad8c89c1c2c45bc73e814af0923991e3", "is_disabled": 0, "rental_uris": {"android": "https://dc.lft.to/lastmile_qr_scan", "ios": "https://dc.lft.to/lastmile_qr_scan"}, "fusion_lon": 0.0, "lat": 38.92875766666667, "bike_id": "ad8c89c1c2c45bc73e814af0923991e3", "type": "electric_scooter", "is_reserved": 0, "lon": -77.03341866666666}, {"fusion_lat": 0.0, "name": "9a16cfb4a71521fa49df5fd51081d8ca", "is_disabled": 0, "rental_uris": {"android": "https://dc.lft.to/lastmile_qr_scan", "ios": "https://dc.lft.to/lastmile_qr_scan"}, "fusion_lon": 0.0, "lat": 38.880232, "bike_id": "9a16cfb4a71521fa49df5fd51081d8ca", "type": "electric_scooter", "is_reserved": 0, "lon": -76.93118916666667}, {"fusion_lat": 0.0, "name": "91ab7698d4e698886c64349ad5b6f33d", "is_disabled": 0, "rental_uris": {"android": "https://dc.lft.to/lastmile_qr_scan", "ios": "https://dc.lft.to/lastmile_qr_scan"}, "fusion_lon": 0.0, "lat": 38.901569, "bike_id": "91ab7698d4e698886c64349ad5b6f33d", "type": "electric_scooter", "is_reserved": 0, "lon": -77.01851916666666}, {"fusion_lat": 0.0, "name": "858ccd100ef32ecd29c015e4a07b0c88", "is_disabled": 0, "rental_uris": {"android": "https://dc.lft.to/lastmile_qr_scan", "ios": "https://dc.lft.to/lastmile_qr_scan"}, "fusion_lon": 0.0, "lat": 38.88872666666666, "bike_id": "858ccd100ef32ecd29c015e4a07b0c88", "type": "electric_scooter", "is_reserved": 0, "lon": -76.984536}, {"fusion_lat": 0.0, "name": "95690799119e1f0ca3f6d54f82af0303", "is_disabled": 0, "rental_uris": {"android": "https://dc.lft.to/lastmile_qr_scan", "ios": "https://dc.lft.to/lastmile_qr_scan"}, "fusion_lon": 0.0, "lat": 38.919751, "bike_id": "95690799119e1f0ca3f6d54f82af0303", "type": "electric_scooter", "is_reserved": 0, "lon": -77.00111116666666}, {"fusion_lat": 0.0, "name": "98bc14ef0d6c59a4b4d17ea5061bff4f", "is_disabled": 0, "rental_uris": {"android": "https://dc.lft.to/lastmile_qr_scan", "ios": "https://dc.lft.to/lastmile_qr_scan"}, "fusion_lon": 0.0, "lat": 38.87920483333333, "bike_id": "98bc14ef0d6c59a4b4d17ea5061bff4f", "type": "electric_scooter", "is_reserved": 0, "lon": -76.99508016666667}, {"fusion_lat": 0.0, "name": "fe0a8ffb547af2b2bb1c9f587b4d236d", "is_disabled": 0, "rental_uris": {"android": "https://dc.lft.to/lastmile_qr_scan", "ios": "https://dc.lft.to/lastmile_qr_scan"}, "fusion_lon": 0.0, "lat": 38.901882, "bike_id": "fe0a8ffb547af2b2bb1c9f587b4d236d", "type": "electric_scooter", "is_reserved": 0, "lon": -76.9289925}, {"fusion_lat": 0.0, "name": "6a54e5fed920fc63feb42ed14a457f18", "is_disabled": 0, "rental_uris": {"android": "https://dc.lft.to/lastmile_qr_scan", "ios": "https://dc.lft.to/lastmile_qr_scan"}, "fusion_lon": 0.0, "lat": 38.90979266666667, "bike_id": "6a54e5fed920fc63feb42ed14a457f18", "type": "electric_scooter", "is_reserved": 0, "lon": -77.03401983333333}, {"fusion_lat": 0.0, "name": "a78247eb226d864cb02831db3d044ac8", "is_disabled": 0, "rental_uris": {"android": "https://dc.lft.to/lastmile_qr_scan", "ios": "https://dc.lft.to/lastmile_qr_scan"}, "fusion_lon": 0.0, "lat": 38.855110833333335, "bike_id": "a78247eb226d864cb02831db3d044ac8", "type": "electric_bike", "is_reserved": 0, "lon": -77.105378}, {"fusion_lat": 0.0, "name": "c502253e3615c586dabb24563364e751", "is_disabled": 0, "rental_uris": {"android": "https://dc.lft.to/lastmile_qr_scan", "ios": "https://dc.lft.to/lastmile_qr_scan"}, "fusion_lon": 0.0, "lat": 38.88747033333333, "bike_id": "c502253e3615c586dabb24563364e751", "type": "electric_scooter", "is_reserved": 0, "lon": -76.99624133333333}, {"fusion_lat": 0.0, "name": "9f57f949e047feab51dae5c87dd4cae5", "is_disabled": 0, "rental_uris": {"android": "https://dc.lft.to/lastmile_qr_scan", "ios": "https://dc.lft.to/lastmile_qr_scan"}, "fusion_lon": 0.0, "lat": 38.91551116666667, "bike_id": "9f57f949e047feab51dae5c87dd4cae5", "type": "electric_scooter", "is_reserved": 0, "lon": -77.01203083333333}, {"fusion_lat": 0.0, "name": "59131eb9fec18ee5221bfc3a87dac4d9", "is_disabled": 0, "rental_uris": {"android": "https://dc.lft.to/lastmile_qr_scan", "ios": "https://dc.lft.to/lastmile_qr_scan"}, "fusion_lon": 0.0, "lat": 38.897862, "bike_id": "59131eb9fec18ee5221bfc3a87dac4d9", "type": "electric_scooter", "is_reserved": 0, "lon": -77.0334485}, {"fusion_lat": 0.0, "name": "d82b036fb8d526a9336c855c83d2a75b", "is_disabled": 0, "rental_uris": {"android": "https://dc.lft.to/lastmile_qr_scan", "ios": "https://dc.lft.to/lastmile_qr_scan"}, "fusion_lon": 0.0, "lat": 38.90566883333334, "bike_id": "d82b036fb8d526a9336c855c83d2a75b", "type": "electric_scooter", "is_reserved": 0, "lon": -77.03841033333333}, {"fusion_lat": 0.0, "name": "cd7ce64d99a121e3ca8e2528bf7a1649", "is_disabled": 0, "rental_uris": {"android": "https://dc.lft.to/lastmile_qr_scan", "ios": "https://dc.lft.to/lastmile_qr_scan"}, "fusion_lon": 0.0, "lat": 38.916068333333335, "bike_id": "cd7ce64d99a121e3ca8e2528bf7a1649", "type": "electric_scooter", "is_reserved": 0, "lon": -77.0321655}, {"fusion_lat": 0.0, "name": "6fb6ad4ec47b74f325e34feafa9afcc1", "is_disabled": 0, "rental_uris": {"android": "https://dc.lft.to/lastmile_qr_scan", "ios": "https://dc.lft.to/lastmile_qr_scan"}, "fusion_lon": 0.0, "lat": 38.916649, "bike_id": "6fb6ad4ec47b74f325e34feafa9afcc1", "type": "electric_scooter", "is_reserved": 0, "lon": -77.02822866666666}, {"fusion_lat": 0.0, "name": "24fb1dbbd8e3ccc8e7ef6d16645325e3", "is_disabled": 0, "rental_uris": {"android": "https://dc.lft.to/lastmile_qr_scan", "ios": "https://dc.lft.to/lastmile_qr_scan"}, "fusion_lon": 0.0, "lat": 38.8975465, "bike_id": "24fb1dbbd8e3ccc8e7ef6d16645325e3", "type": "electric_scooter", "is_reserved": 0, "lon": -77.02789}, {"fusion_lat": 0.0, "name": "f36aaf7f0f350d584c37a32aed682d69", "is_disabled": 0, "rental_uris": {"android": "https://dc.lft.to/lastmile_qr_scan", "ios": "https://dc.lft.to/lastmile_qr_scan"}, "fusion_lon": 0.0, "lat": 38.94660916666667, "bike_id": "f36aaf7f0f350d584c37a32aed682d69", "type": "electric_bike", "is_reserved": 0, "lon": -77.00694183333333}, {"fusion_lat": 0.0, "name": "b1704e8e9b48ed1675b804cbafad7b13", "is_disabled": 0, "rental_uris": {"android": "https://dc.lft.to/lastmile_qr_scan", "ios": "https://dc.lft.to/lastmile_qr_scan"}, "fusion_lon": 0.0, "lat": 38.8921385, "bike_id": "b1704e8e9b48ed1675b804cbafad7b13", "type": "electric_scooter", "is_reserved": 0, "lon": -77.03199016666667}, {"fusion_lat": 0.0, "name": "0202bf0002a4ef37ea8e2130ed7c160d", "is_disabled": 0, "rental_uris": {"android": "https://dc.lft.to/lastmile_qr_scan", "ios": "https://dc.lft.to/lastmile_qr_scan"}, "fusion_lon": 0.0, "lat": 38.907884, "bike_id": "0202bf0002a4ef37ea8e2130ed7c160d", "type": "electric_scooter", "is_reserved": 0, "lon": -77.03199933333333}, {"fusion_lat": 0.0, "name": "8e633a70eef4220f1545749c52f43a13", "is_disabled": 0, "rental_uris": {"android": "https://dc.lft.to/lastmile_qr_scan", "ios": "https://dc.lft.to/lastmile_qr_scan"}, "fusion_lon": 0.0, "lat": 38.906810166666666, "bike_id": "8e633a70eef4220f1545749c52f43a13", "type": "electric_scooter", "is_reserved": 0, "lon": -77.0239635}, {"fusion_lat": 0.0, "name": "fda595d3de6c9bd4b82d6a562f9dbcc2", "is_disabled": 0, "rental_uris": {"android": "https://dc.lft.to/lastmile_qr_scan", "ios": "https://dc.lft.to/lastmile_qr_scan"}, "fusion_lon": 0.0, "lat": 38.862642, "bike_id": "fda595d3de6c9bd4b82d6a562f9dbcc2", "type": "electric_bike", "is_reserved": 0, "lon": -76.98349533333334}, {"fusion_lat": 0.0, "name": "4c29d8bf550dc2b6fdf6aece640cd6fb", "is_disabled": 0, "rental_uris": {"android": "https://dc.lft.to/lastmile_qr_scan", "ios": "https://dc.lft.to/lastmile_qr_scan"}, "fusion_lon": 0.0, "lat": 38.88620233333333, "bike_id": "4c29d8bf550dc2b6fdf6aece640cd6fb", "type": "electric_scooter", "is_reserved": 0, "lon": -77.01985366666666}, {"fusion_lat": 0.0, "name": "4a46e1c6d12f1b7db93c340be91d08df", "is_disabled": 0, "rental_uris": {"android": "https://dc.lft.to/lastmile_qr_scan", "ios": "https://dc.lft.to/lastmile_qr_scan"}, "fusion_lon": 0.0, "lat": 38.9954, "bike_id": "4a46e1c6d12f1b7db93c340be91d08df", "type": "electric_bike", "is_reserved": 0, "lon": -77.07440933333334}, {"fusion_lat": 0.0, "name": "0925b3ab7b4f23161f0c4d78d6ee3b9f", "is_disabled": 0, "rental_uris": {"android": "https://dc.lft.to/lastmile_qr_scan", "ios": "https://dc.lft.to/lastmile_qr_scan"}, "fusion_lon": 0.0, "lat": 38.9284595, "bike_id": "0925b3ab7b4f23161f0c4d78d6ee3b9f", "type": "electric_scooter", "is_reserved": 0, "lon": -76.9798275}, {"fusion_lat": 0.0, "name": "418be7c4015d5b0bc15ed5bfefed195f", "is_disabled": 0, "rental_uris": {"android": "https://dc.lft.to/lastmile_qr_scan", "ios": "https://dc.lft.to/lastmile_qr_scan"}, "fusion_lon": 0.0, "lat": 38.90685033333333, "bike_id": "418be7c4015d5b0bc15ed5bfefed195f", "type": "electric_scooter", "is_reserved": 0, "lon": -77.04205}, {"fusion_lat": 0.0, "name": "c4f4f222a97d3ef9ec769f4b72236991", "is_disabled": 0, "rental_uris": {"android": "https://dc.lft.to/lastmile_qr_scan", "ios": "https://dc.lft.to/lastmile_qr_scan"}, "fusion_lon": 0.0, "lat": 38.9236545, "bike_id": "c4f4f222a97d3ef9ec769f4b72236991", "type": "electric_scooter", "is_reserved": 0, "lon": -77.04250333333333}, {"fusion_lat": 0.0, "name": "75d657ed49e6db10b79402fd2d1aff9d", "is_disabled": 0, "rental_uris": {"android": "https://dc.lft.to/lastmile_qr_scan", "ios": "https://dc.lft.to/lastmile_qr_scan"}, "fusion_lon": 0.0, "lat": 38.883838, "bike_id": "75d657ed49e6db10b79402fd2d1aff9d", "type": "electric_scooter", "is_reserved": 0, "lon": -76.9960815}, {"fusion_lat": 0.0, "name": "67334c7242a8dbb409fe750a065a65ac", "is_disabled": 0, "rental_uris": {"android": "https://dc.lft.to/lastmile_qr_scan", "ios": "https://dc.lft.to/lastmile_qr_scan"}, "fusion_lon": 0.0, "lat": 38.935200333333334, "bike_id": "67334c7242a8dbb409fe750a065a65ac", "type": "electric_scooter", "is_reserved": 0, "lon": -77.03089833333334}, {"fusion_lat": 0.0, "name": "222b7676f25c48ffe1931ca63e835c3f", "is_disabled": 0, "rental_uris": {"android": "https://dc.lft.to/lastmile_qr_scan", "ios": "https://dc.lft.to/lastmile_qr_scan"}, "fusion_lon": 0.0, "lat": 38.94230566666667, "bike_id": "222b7676f25c48ffe1931ca63e835c3f", "type": "electric_scooter", "is_reserved": 0, "lon": -77.01384833333333}, {"fusion_lat": 0.0, "name": "9b83fc42404a4b6e30018d098e307cde", "is_disabled": 0, "rental_uris": {"android": "https://dc.lft.to/lastmile_qr_scan", "ios": "https://dc.lft.to/lastmile_qr_scan"}, "fusion_lon": 0.0, "lat": 38.9207945, "bike_id": "9b83fc42404a4b6e30018d098e307cde", "type": "electric_bike", "is_reserved": 0, "lon": -76.9894385}, {"fusion_lat": 0.0, "name": "06b95c76f9be6ec48e3c2556e2017cb8", "is_disabled": 0, "rental_uris": {"android": "https://dc.lft.to/lastmile_qr_scan", "ios": "https://dc.lft.to/lastmile_qr_scan"}, "fusion_lon": 0.0, "lat": 38.897437833333335, "bike_id": "06b95c76f9be6ec48e3c2556e2017cb8", "type": "electric_scooter", "is_reserved": 0, "lon": -77.00333116666667}, {"fusion_lat": 0.0, "name": "e7b74fa103fd632155a45379135a8993", "is_disabled": 0, "rental_uris": {"android": "https://dc.lft.to/lastmile_qr_scan", "ios": "https://dc.lft.to/lastmile_qr_scan"}, "fusion_lon": 0.0, "lat": 38.88515566666667, "bike_id": "e7b74fa103fd632155a45379135a8993", "type": "electric_scooter", "is_reserved": 0, "lon": -77.01502016666667}, {"fusion_lat": 0.0, "name": "310ea7a8bccc62b5f021547978002ffb", "is_disabled": 0, "rental_uris": {"android": "https://dc.lft.to/lastmile_qr_scan", "ios": "https://dc.lft.to/lastmile_qr_scan"}, "fusion_lon": 0.0, "lat": 38.8933655, "bike_id": "310ea7a8bccc62b5f021547978002ffb", "type": "electric_scooter", "is_reserved": 0, "lon": -77.02239066666667}, {"fusion_lat": 0.0, "name": "857c492f31f78e1b26a00d580c4cba28", "is_disabled": 0, "rental_uris": {"android": "https://dc.lft.to/lastmile_qr_scan", "ios": "https://dc.lft.to/lastmile_qr_scan"}, "fusion_lon": 0.0, "lat": 38.901118, "bike_id": "857c492f31f78e1b26a00d580c4cba28", "type": "electric_scooter", "is_reserved": 0, "lon": -77.0516765}, {"fusion_lat": 0.0, "name": "f05672ad39733386d5c5aff538d55090", "is_disabled": 0, "rental_uris": {"android": "https://dc.lft.to/lastmile_qr_scan", "ios": "https://dc.lft.to/lastmile_qr_scan"}, "fusion_lon": 0.0, "lat": 38.9068625, "bike_id": "f05672ad39733386d5c5aff538d55090", "type": "electric_scooter", "is_reserved": 0, "lon": -77.00018216666666}, {"fusion_lat": 0.0, "name": "4bd778379e8abff4a339c2f9aa5efca0", "is_disabled": 0, "rental_uris": {"android": "https://dc.lft.to/lastmile_qr_scan", "ios": "https://dc.lft.to/lastmile_qr_scan"}, "fusion_lon": 0.0, "lat": 38.902727666666664, "bike_id": "4bd778379e8abff4a339c2f9aa5efca0", "type": "electric_scooter", "is_reserved": 0, "lon": -77.01738833333333}, {"fusion_lat": 0.0, "name": "2a67f486652c1214db420a3bb1a65ea6", "is_disabled": 0, "rental_uris": {"android": "https://dc.lft.to/lastmile_qr_scan", "ios": "https://dc.lft.to/lastmile_qr_scan"}, "fusion_lon": 0.0, "lat": 38.887253, "bike_id": "2a67f486652c1214db420a3bb1a65ea6", "type": "electric_scooter", "is_reserved": 0, "lon": -76.98359916666666}, {"fusion_lat": 0.0, "name": "08c866426eab2c46dbe66b48794e6090", "is_disabled": 0, "rental_uris": {"android": "https://dc.lft.to/lastmile_qr_scan", "ios": "https://dc.lft.to/lastmile_qr_scan"}, "fusion_lon": 0.0, "lat": 38.936609833333335, "bike_id": "08c866426eab2c46dbe66b48794e6090", "type": "electric_scooter", "is_reserved": 0, "lon": -77.03052083333333}, {"fusion_lat": 0.0, "name": "3906e3b9b991fac6433f85e9767fc195", "is_disabled": 0, "rental_uris": {"android": "https://dc.lft.to/lastmile_qr_scan", "ios": "https://dc.lft.to/lastmile_qr_scan"}, "fusion_lon": 0.0, "lat": 38.90523566666667, "bike_id": "3906e3b9b991fac6433f85e9767fc195", "type": "electric_scooter", "is_reserved": 0, "lon": -77.06458066666667}, {"fusion_lat": 0.0, "name": "025f19a47f9319af40ef9cafdd138f40", "is_disabled": 0, "rental_uris": {"android": "https://dc.lft.to/lastmile_qr_scan", "ios": "https://dc.lft.to/lastmile_qr_scan"}, "fusion_lon": 0.0, "lat": 38.901226, "bike_id": "025f19a47f9319af40ef9cafdd138f40", "type": "electric_scooter", "is_reserved": 0, "lon": -77.06039516666667}, {"fusion_lat": 0.0, "name": "fc9d629f5290b470bad6e82b6147cd65", "is_disabled": 0, "rental_uris": {"android": "https://dc.lft.to/lastmile_qr_scan", "ios": "https://dc.lft.to/lastmile_qr_scan"}, "fusion_lon": 0.0, "lat": 38.9345705, "bike_id": "fc9d629f5290b470bad6e82b6147cd65", "type": "electric_scooter", "is_reserved": 0, "lon": -77.0234175}, {"fusion_lat": 0.0, "name": "c67a06c48a32434d6c4d52eb47cdf9f4", "is_disabled": 0, "rental_uris": {"android": "https://dc.lft.to/lastmile_qr_scan", "ios": "https://dc.lft.to/lastmile_qr_scan"}, "fusion_lon": 0.0, "lat": 38.882599, "bike_id": "c67a06c48a32434d6c4d52eb47cdf9f4", "type": "electric_scooter", "is_reserved": 0, "lon": -76.994916}, {"fusion_lat": 0.0, "name": "506d5625f9ab0b52acda5b12d3059d76", "is_disabled": 0, "rental_uris": {"android": "https://dc.lft.to/lastmile_qr_scan", "ios": "https://dc.lft.to/lastmile_qr_scan"}, "fusion_lon": 0.0, "lat": 38.86344033333334, "bike_id": "506d5625f9ab0b52acda5b12d3059d76", "type": "electric_bike", "is_reserved": 0, "lon": -76.98716383333333}, {"fusion_lat": 0.0, "name": "1129b2f492dacbcd93930963bf1d1b07", "is_disabled": 0, "rental_uris": {"android": "https://dc.lft.to/lastmile_qr_scan", "ios": "https://dc.lft.to/lastmile_qr_scan"}, "fusion_lon": 0.0, "lat": 38.865562833333335, "bike_id": "1129b2f492dacbcd93930963bf1d1b07", "type": "electric_scooter", "is_reserved": 0, "lon": -76.98352583333333}, {"fusion_lat": 0.0, "name": "cb84f70608e59228e0fda8a7981ee07c", "is_disabled": 0, "rental_uris": {"android": "https://dc.lft.to/lastmile_qr_scan", "ios": "https://dc.lft.to/lastmile_qr_scan"}, "fusion_lon": 0.0, "lat": 38.8045385, "bike_id": "cb84f70608e59228e0fda8a7981ee07c", "type": "electric_bike", "is_reserved": 0, "lon": -77.1322945}, {"fusion_lat": 0.0, "name": "e4a19cd45139509658526a868cbfc4e0", "is_disabled": 0, "rental_uris": {"android": "https://dc.lft.to/lastmile_qr_scan", "ios": "https://dc.lft.to/lastmile_qr_scan"}, "fusion_lon": 0.0, "lat": 38.92459916666667, "bike_id": "e4a19cd45139509658526a868cbfc4e0", "type": "electric_scooter", "is_reserved": 0, "lon": -77.02701666666667}, {"fusion_lat": 0.0, "name": "182fa20a417e31a3b51e0bc9fe81d4a8", "is_disabled": 0, "rental_uris": {"android": "https://dc.lft.to/lastmile_qr_scan", "ios": "https://dc.lft.to/lastmile_qr_scan"}, "fusion_lon": 0.0, "lat": 38.89612416666667, "bike_id": "182fa20a417e31a3b51e0bc9fe81d4a8", "type": "electric_scooter", "is_reserved": 0, "lon": -76.94814783333334}, {"fusion_lat": 0.0, "name": "a0473aded864cd3a2224e845f4960e68", "is_disabled": 0, "rental_uris": {"android": "https://dc.lft.to/lastmile_qr_scan", "ios": "https://dc.lft.to/lastmile_qr_scan"}, "fusion_lon": 0.0, "lat": 38.90881783333333, "bike_id": "a0473aded864cd3a2224e845f4960e68", "type": "electric_scooter", "is_reserved": 0, "lon": -77.0228475}, {"fusion_lat": 0.0, "name": "becccce5dedcad72d5c7611321a8f3cd", "is_disabled": 0, "rental_uris": {"android": "https://dc.lft.to/lastmile_qr_scan", "ios": "https://dc.lft.to/lastmile_qr_scan"}, "fusion_lon": 0.0, "lat": 38.911186666666666, "bike_id": "becccce5dedcad72d5c7611321a8f3cd", "type": "electric_scooter", "is_reserved": 0, "lon": -77.03262833333334}, {"fusion_lat": 0.0, "name": "23af53390b599f134b8fab4ff9f0d1a1", "is_disabled": 0, "rental_uris": {"android": "https://dc.lft.to/lastmile_qr_scan", "ios": "https://dc.lft.to/lastmile_qr_scan"}, "fusion_lon": 0.0, "lat": 38.9035875, "bike_id": "23af53390b599f134b8fab4ff9f0d1a1", "type": "electric_scooter", "is_reserved": 0, "lon": -77.00741966666666}, {"fusion_lat": 0.0, "name": "0ca850f0bdd744ecd57a4939682f8e52", "is_disabled": 0, "rental_uris": {"android": "https://dc.lft.to/lastmile_qr_scan", "ios": "https://dc.lft.to/lastmile_qr_scan"}, "fusion_lon": 0.0, "lat": 38.908955, "bike_id": "0ca850f0bdd744ecd57a4939682f8e52", "type": "electric_scooter", "is_reserved": 0, "lon": -77.032086}, {"fusion_lat": 0.0, "name": "6cb6558b593bcf184823861181c70a89", "is_disabled": 0, "rental_uris": {"android": "https://dc.lft.to/lastmile_qr_scan", "ios": "https://dc.lft.to/lastmile_qr_scan"}, "fusion_lon": 0.0, "lat": 38.98391133333333, "bike_id": "6cb6558b593bcf184823861181c70a89", "type": "electric_scooter", "is_reserved": 0, "lon": -77.0262775}, {"fusion_lat": 0.0, "name": "527507ed0c824e0f49193aad79f45d30", "is_disabled": 0, "rental_uris": {"android": "https://dc.lft.to/lastmile_qr_scan", "ios": "https://dc.lft.to/lastmile_qr_scan"}, "fusion_lon": 0.0, "lat": 38.904347, "bike_id": "527507ed0c824e0f49193aad79f45d30", "type": "electric_scooter", "is_reserved": 0, "lon": -77.02967383333333}, {"fusion_lat": 0.0, "name": "97631e1b4227d7bdf4df7a602d250d92", "is_disabled": 0, "rental_uris": {"android": "https://dc.lft.to/lastmile_qr_scan", "ios": "https://dc.lft.to/lastmile_qr_scan"}, "fusion_lon": 0.0, "lat": 38.92791966666667, "bike_id": "97631e1b4227d7bdf4df7a602d250d92", "type": "electric_scooter", "is_reserved": 0, "lon": -76.99559033333334}, {"fusion_lat": 0.0, "name": "ab0e260c4cc345c6b4fec27056f5d641", "is_disabled": 0, "rental_uris": {"android": "https://dc.lft.to/lastmile_qr_scan", "ios": "https://dc.lft.to/lastmile_qr_scan"}, "fusion_lon": 0.0, "lat": 38.92150016666667, "bike_id": "ab0e260c4cc345c6b4fec27056f5d641", "type": "electric_scooter", "is_reserved": 0, "lon": -77.038669}, {"fusion_lat": 0.0, "name": "ba4842baa560721b7dcb19758eaa592c", "is_disabled": 0, "rental_uris": {"android": "https://dc.lft.to/lastmile_qr_scan", "ios": "https://dc.lft.to/lastmile_qr_scan"}, "fusion_lon": 0.0, "lat": 38.89986566666666, "bike_id": "ba4842baa560721b7dcb19758eaa592c", "type": "electric_scooter", "is_reserved": 0, "lon": -77.027162}, {"fusion_lat": 0.0, "name": "b2675dc32e083284f21205945aa9be1a", "is_disabled": 0, "rental_uris": {"android": "https://dc.lft.to/lastmile_qr_scan", "ios": "https://dc.lft.to/lastmile_qr_scan"}, "fusion_lon": 0.0, "lat": 38.94523866666667, "bike_id": "b2675dc32e083284f21205945aa9be1a", "type": "electric_scooter", "is_reserved": 0, "lon": -77.02272283333333}, {"fusion_lat": 0.0, "name": "7c6c9d141131faeb790e272d93496695", "is_disabled": 0, "rental_uris": {"android": "https://dc.lft.to/lastmile_qr_scan", "ios": "https://dc.lft.to/lastmile_qr_scan"}, "fusion_lon": 0.0, "lat": 38.9190875, "bike_id": "7c6c9d141131faeb790e272d93496695", "type": "electric_scooter", "is_reserved": 0, "lon": -77.0121925}, {"fusion_lat": 0.0, "name": "08f3d8ca3088b8a06b47381796af38a0", "is_disabled": 0, "rental_uris": {"android": "https://dc.lft.to/lastmile_qr_scan", "ios": "https://dc.lft.to/lastmile_qr_scan"}, "fusion_lon": 0.0, "lat": 38.93500566666667, "bike_id": "08f3d8ca3088b8a06b47381796af38a0", "type": "electric_scooter", "is_reserved": 0, "lon": -77.07383366666667}, {"fusion_lat": 0.0, "name": "2dc008ab6f84cec770a5f98f45b39da2", "is_disabled": 0, "rental_uris": {"android": "https://dc.lft.to/lastmile_qr_scan", "ios": "https://dc.lft.to/lastmile_qr_scan"}, "fusion_lon": 0.0, "lat": 38.906605666666664, "bike_id": "2dc008ab6f84cec770a5f98f45b39da2", "type": "electric_scooter", "is_reserved": 0, "lon": -77.00886983333334}, {"fusion_lat": 0.0, "name": "019f9d375407bdfa7f355b748c575e96", "is_disabled": 0, "rental_uris": {"android": "https://dc.lft.to/lastmile_qr_scan", "ios": "https://dc.lft.to/lastmile_qr_scan"}, "fusion_lon": 0.0, "lat": 38.88734216666667, "bike_id": "019f9d375407bdfa7f355b748c575e96", "type": "electric_scooter", "is_reserved": 0, "lon": -77.0153365}, {"fusion_lat": 0.0, "name": "2720ab7013563fa178beabeb6c230bc5", "is_disabled": 0, "rental_uris": {"android": "https://dc.lft.to/lastmile_qr_scan", "ios": "https://dc.lft.to/lastmile_qr_scan"}, "fusion_lon": 0.0, "lat": 38.886356666666664, "bike_id": "2720ab7013563fa178beabeb6c230bc5", "type": "electric_scooter", "is_reserved": 0, "lon": -77.019512}, {"fusion_lat": 0.0, "name": "344e54ea551fafa3df01b8fe5f0451d8", "is_disabled": 0, "rental_uris": {"android": "https://dc.lft.to/lastmile_qr_scan", "ios": "https://dc.lft.to/lastmile_qr_scan"}, "fusion_lon": 0.0, "lat": 38.90891416666667, "bike_id": "344e54ea551fafa3df01b8fe5f0451d8", "type": "electric_scooter", "is_reserved": 0, "lon": -76.998748}, {"fusion_lat": 0.0, "name": "852f33d06127ff78a824862e79480940", "is_disabled": 0, "rental_uris": {"android": "https://dc.lft.to/lastmile_qr_scan", "ios": "https://dc.lft.to/lastmile_qr_scan"}, "fusion_lon": 0.0, "lat": 38.88612, "bike_id": "852f33d06127ff78a824862e79480940", "type": "electric_scooter", "is_reserved": 0, "lon": -77.01250483333334}, {"fusion_lat": 0.0, "name": "f690b9dbb29ea43f6b309e5c50ad337c", "is_disabled": 0, "rental_uris": {"android": "https://dc.lft.to/lastmile_qr_scan", "ios": "https://dc.lft.to/lastmile_qr_scan"}, "fusion_lon": 0.0, "lat": 38.90512866666667, "bike_id": "f690b9dbb29ea43f6b309e5c50ad337c", "type": "electric_scooter", "is_reserved": 0, "lon": -77.06892366666666}, {"fusion_lat": 0.0, "name": "07318c53d47870a1021bffae5dbf5880", "is_disabled": 0, "rental_uris": {"android": "https://dc.lft.to/lastmile_qr_scan", "ios": "https://dc.lft.to/lastmile_qr_scan"}, "fusion_lon": 0.0, "lat": 38.918595833333335, "bike_id": "07318c53d47870a1021bffae5dbf5880", "type": "electric_scooter", "is_reserved": 0, "lon": -76.96111833333333}, {"fusion_lat": 0.0, "name": "b69322536fd4d28a8c912d5af2ec1467", "is_disabled": 0, "rental_uris": {"android": "https://dc.lft.to/lastmile_qr_scan", "ios": "https://dc.lft.to/lastmile_qr_scan"}, "fusion_lon": 0.0, "lat": 38.932138333333334, "bike_id": "b69322536fd4d28a8c912d5af2ec1467", "type": "electric_scooter", "is_reserved": 0, "lon": -77.03515233333333}, {"fusion_lat": 0.0, "name": "50ae88e2a0da15e0f8b1e26068d1a1c2", "is_disabled": 0, "rental_uris": {"android": "https://dc.lft.to/lastmile_qr_scan", "ios": "https://dc.lft.to/lastmile_qr_scan"}, "fusion_lon": 0.0, "lat": 38.917088666666665, "bike_id": "50ae88e2a0da15e0f8b1e26068d1a1c2", "type": "electric_scooter", "is_reserved": 0, "lon": -77.02888966666667}, {"fusion_lat": 0.0, "name": "85c6b0df6386afb0748bf5fffc8cf200", "is_disabled": 0, "rental_uris": {"android": "https://dc.lft.to/lastmile_qr_scan", "ios": "https://dc.lft.to/lastmile_qr_scan"}, "fusion_lon": 0.0, "lat": 38.915405166666666, "bike_id": "85c6b0df6386afb0748bf5fffc8cf200", "type": "electric_scooter", "is_reserved": 0, "lon": -76.9836615}, {"fusion_lat": 0.0, "name": "8ba748017dc01c2733d727ae6b308d07", "is_disabled": 0, "rental_uris": {"android": "https://dc.lft.to/lastmile_qr_scan", "ios": "https://dc.lft.to/lastmile_qr_scan"}, "fusion_lon": 0.0, "lat": 38.92321966666667, "bike_id": "8ba748017dc01c2733d727ae6b308d07", "type": "electric_scooter", "is_reserved": 0, "lon": -77.028967}, {"fusion_lat": 0.0, "name": "105cce86454bc70e3ab329e1252aa373", "is_disabled": 0, "rental_uris": {"android": "https://dc.lft.to/lastmile_qr_scan", "ios": "https://dc.lft.to/lastmile_qr_scan"}, "fusion_lon": 0.0, "lat": 38.91660366666667, "bike_id": "105cce86454bc70e3ab329e1252aa373", "type": "electric_scooter", "is_reserved": 0, "lon": -77.02801566666666}, {"fusion_lat": 0.0, "name": "fa86a7acb972bfe1acd6ce16402c6649", "is_disabled": 0, "rental_uris": {"android": "https://dc.lft.to/lastmile_qr_scan", "ios": "https://dc.lft.to/lastmile_qr_scan"}, "fusion_lon": 0.0, "lat": 38.896106333333336, "bike_id": "fa86a7acb972bfe1acd6ce16402c6649", "type": "electric_scooter", "is_reserved": 0, "lon": -77.0092905}, {"fusion_lat": 0.0, "name": "a8c9a83e0bf77d44b7323c7453c03dfd", "is_disabled": 0, "rental_uris": {"android": "https://dc.lft.to/lastmile_qr_scan", "ios": "https://dc.lft.to/lastmile_qr_scan"}, "fusion_lon": 0.0, "lat": 38.900690833333336, "bike_id": "a8c9a83e0bf77d44b7323c7453c03dfd", "type": "electric_scooter", "is_reserved": 0, "lon": -77.05426366666667}, {"fusion_lat": 0.0, "name": "bf4ae877cf32cf36072f94f79352ba91", "is_disabled": 0, "rental_uris": {"android": "https://dc.lft.to/lastmile_qr_scan", "ios": "https://dc.lft.to/lastmile_qr_scan"}, "fusion_lon": 0.0, "lat": 38.919227, "bike_id": "bf4ae877cf32cf36072f94f79352ba91", "type": "electric_scooter", "is_reserved": 0, "lon": -77.00973116666667}, {"fusion_lat": 0.0, "name": "0b79890d467c1108ca5f0efca93746bd", "is_disabled": 0, "rental_uris": {"android": "https://dc.lft.to/lastmile_qr_scan", "ios": "https://dc.lft.to/lastmile_qr_scan"}, "fusion_lon": 0.0, "lat": 38.89222916666667, "bike_id": "0b79890d467c1108ca5f0efca93746bd", "type": "electric_scooter", "is_reserved": 0, "lon": -77.02419883333333}, {"fusion_lat": 0.0, "name": "81dc52cc7dc99585e559fd8338f0fc66", "is_disabled": 0, "rental_uris": {"android": "https://dc.lft.to/lastmile_qr_scan", "ios": "https://dc.lft.to/lastmile_qr_scan"}, "fusion_lon": 0.0, "lat": 38.90223366666667, "bike_id": "81dc52cc7dc99585e559fd8338f0fc66", "type": "electric_scooter", "is_reserved": 0, "lon": -77.02364066666667}, {"fusion_lat": 0.0, "name": "85844f6642cb50cb79ba54d447124dc5", "is_disabled": 0, "rental_uris": {"android": "https://dc.lft.to/lastmile_qr_scan", "ios": "https://dc.lft.to/lastmile_qr_scan"}, "fusion_lon": 0.0, "lat": 38.898307, "bike_id": "85844f6642cb50cb79ba54d447124dc5", "type": "electric_scooter", "is_reserved": 0, "lon": -76.94651233333333}, {"fusion_lat": 0.0, "name": "bd66317018f68993d19c26714279f1d1", "is_disabled": 0, "rental_uris": {"android": "https://dc.lft.to/lastmile_qr_scan", "ios": "https://dc.lft.to/lastmile_qr_scan"}, "fusion_lon": 0.0, "lat": 38.840560333333336, "bike_id": "bd66317018f68993d19c26714279f1d1", "type": "electric_scooter", "is_reserved": 0, "lon": -76.976664}, {"fusion_lat": 0.0, "name": "e088878a90905e4b526a68e085cc8d4e", "is_disabled": 0, "rental_uris": {"android": "https://dc.lft.to/lastmile_qr_scan", "ios": "https://dc.lft.to/lastmile_qr_scan"}, "fusion_lon": 0.0, "lat": 38.8475665, "bike_id": "e088878a90905e4b526a68e085cc8d4e", "type": "electric_bike", "is_reserved": 0, "lon": -76.99499433333334}, {"fusion_lat": 0.0, "name": "0a40fb153df1c53c8367bf7f394e3d67", "is_disabled": 0, "rental_uris": {"android": "https://dc.lft.to/lastmile_qr_scan", "ios": "https://dc.lft.to/lastmile_qr_scan"}, "fusion_lon": 0.0, "lat": 38.8983395, "bike_id": "0a40fb153df1c53c8367bf7f394e3d67", "type": "electric_scooter", "is_reserved": 0, "lon": -76.931787}, {"fusion_lat": 0.0, "name": "3a1ce158c36b2065bbf791529ea4ace8", "is_disabled": 0, "rental_uris": {"android": "https://dc.lft.to/lastmile_qr_scan", "ios": "https://dc.lft.to/lastmile_qr_scan"}, "fusion_lon": 0.0, "lat": 38.9112045, "bike_id": "3a1ce158c36b2065bbf791529ea4ace8", "type": "electric_scooter", "is_reserved": 0, "lon": -77.02204683333333}, {"fusion_lat": 0.0, "name": "353392867ca044dd7115401df7aec34a", "is_disabled": 0, "rental_uris": {"android": "https://dc.lft.to/lastmile_qr_scan", "ios": "https://dc.lft.to/lastmile_qr_scan"}, "fusion_lon": 0.0, "lat": 38.904557, "bike_id": "353392867ca044dd7115401df7aec34a", "type": "electric_bike", "is_reserved": 0, "lon": -76.9743015}, {"fusion_lat": 0.0, "name": "b616c3fbe1dd969a2edaedcd1b0e1a37", "is_disabled": 0, "rental_uris": {"android": "https://dc.lft.to/lastmile_qr_scan", "ios": "https://dc.lft.to/lastmile_qr_scan"}, "fusion_lon": 0.0, "lat": 39.014179666666664, "bike_id": "b616c3fbe1dd969a2edaedcd1b0e1a37", "type": "electric_bike", "is_reserved": 0, "lon": -77.04499183333333}, {"fusion_lat": 0.0, "name": "bb14c6cbcd81d9820c483723ef2d52e1", "is_disabled": 0, "rental_uris": {"android": "https://dc.lft.to/lastmile_qr_scan", "ios": "https://dc.lft.to/lastmile_qr_scan"}, "fusion_lon": 0.0, "lat": 38.816090833333334, "bike_id": "bb14c6cbcd81d9820c483723ef2d52e1", "type": "electric_bike", "is_reserved": 0, "lon": -76.99657316666666}, {"fusion_lat": 0.0, "name": "842bb9c4dcb63e66f115c73e4258b765", "is_disabled": 0, "rental_uris": {"android": "https://dc.lft.to/lastmile_qr_scan", "ios": "https://dc.lft.to/lastmile_qr_scan"}, "fusion_lon": 0.0, "lat": 38.900619, "bike_id": "842bb9c4dcb63e66f115c73e4258b765", "type": "electric_scooter", "is_reserved": 0, "lon": -76.98716083333333}, {"fusion_lat": 0.0, "name": "890ddc999aca379f1ed658a1408e7a84", "is_disabled": 0, "rental_uris": {"android": "https://dc.lft.to/lastmile_qr_scan", "ios": "https://dc.lft.to/lastmile_qr_scan"}, "fusion_lon": 0.0, "lat": 38.8851355, "bike_id": "890ddc999aca379f1ed658a1408e7a84", "type": "electric_scooter", "is_reserved": 0, "lon": -76.99747333333333}, {"fusion_lat": 0.0, "name": "cde1111516b28031e8c3ba555e3e9891", "is_disabled": 0, "rental_uris": {"android": "https://dc.lft.to/lastmile_qr_scan", "ios": "https://dc.lft.to/lastmile_qr_scan"}, "fusion_lon": 0.0, "lat": 38.90982833333333, "bike_id": "cde1111516b28031e8c3ba555e3e9891", "type": "electric_scooter", "is_reserved": 0, "lon": -77.03334433333333}, {"fusion_lat": 0.0, "name": "bc5c3ab0df8270c19339b7d5203e28b9", "is_disabled": 0, "rental_uris": {"android": "https://dc.lft.to/lastmile_qr_scan", "ios": "https://dc.lft.to/lastmile_qr_scan"}, "fusion_lon": 0.0, "lat": 38.92159766666666, "bike_id": "bc5c3ab0df8270c19339b7d5203e28b9", "type": "electric_scooter", "is_reserved": 0, "lon": -77.02076733333334}, {"fusion_lat": 0.0, "name": "536cf59d8a190c641b9f6596b7f0818a", "is_disabled": 0, "rental_uris": {"android": "https://dc.lft.to/lastmile_qr_scan", "ios": "https://dc.lft.to/lastmile_qr_scan"}, "fusion_lon": 0.0, "lat": 38.906865, "bike_id": "536cf59d8a190c641b9f6596b7f0818a", "type": "electric_scooter", "is_reserved": 0, "lon": -77.04201783333333}, {"fusion_lat": 0.0, "name": "e4f771a78d93b220a13a12d6403ce563", "is_disabled": 0, "rental_uris": {"android": "https://dc.lft.to/lastmile_qr_scan", "ios": "https://dc.lft.to/lastmile_qr_scan"}, "fusion_lon": 0.0, "lat": 38.879667, "bike_id": "e4f771a78d93b220a13a12d6403ce563", "type": "electric_scooter", "is_reserved": 0, "lon": -77.02346966666667}, {"fusion_lat": 0.0, "name": "d9bd69a43c66320a076a6f60a28af65b", "is_disabled": 0, "rental_uris": {"android": "https://dc.lft.to/lastmile_qr_scan", "ios": "https://dc.lft.to/lastmile_qr_scan"}, "fusion_lon": 0.0, "lat": 38.849164333333334, "bike_id": "d9bd69a43c66320a076a6f60a28af65b", "type": "electric_bike", "is_reserved": 0, "lon": -77.07927983333333}, {"fusion_lat": 0.0, "name": "e1dfdcc2301c8c91ce8b07f980b82162", "is_disabled": 0, "rental_uris": {"android": "https://dc.lft.to/lastmile_qr_scan", "ios": "https://dc.lft.to/lastmile_qr_scan"}, "fusion_lon": 0.0, "lat": 38.916338, "bike_id": "e1dfdcc2301c8c91ce8b07f980b82162", "type": "electric_scooter", "is_reserved": 0, "lon": -77.02964083333333}, {"fusion_lat": 0.0, "name": "49f4b99d855f82b4ba33880a88a25695", "is_disabled": 0, "rental_uris": {"android": "https://dc.lft.to/lastmile_qr_scan", "ios": "https://dc.lft.to/lastmile_qr_scan"}, "fusion_lon": 0.0, "lat": 38.90487233333333, "bike_id": "49f4b99d855f82b4ba33880a88a25695", "type": "electric_scooter", "is_reserved": 0, "lon": -76.94965066666667}, {"fusion_lat": 0.0, "name": "0e920c3ded4e10183caae245833252d2", "is_disabled": 0, "rental_uris": {"android": "https://dc.lft.to/lastmile_qr_scan", "ios": "https://dc.lft.to/lastmile_qr_scan"}, "fusion_lon": 0.0, "lat": 38.988157, "bike_id": "0e920c3ded4e10183caae245833252d2", "type": "electric_bike", "is_reserved": 0, "lon": -77.02663083333333}, {"fusion_lat": 0.0, "name": "eee8d9204faae5bfe4da7e87d477e977", "is_disabled": 0, "rental_uris": {"android": "https://dc.lft.to/lastmile_qr_scan", "ios": "https://dc.lft.to/lastmile_qr_scan"}, "fusion_lon": 0.0, "lat": 38.90137583333333, "bike_id": "eee8d9204faae5bfe4da7e87d477e977", "type": "electric_scooter", "is_reserved": 0, "lon": -77.03946433333333}, {"fusion_lat": 0.0, "name": "a40d760c498b0d317a33212834f9e0ea", "is_disabled": 0, "rental_uris": {"android": "https://dc.lft.to/lastmile_qr_scan", "ios": "https://dc.lft.to/lastmile_qr_scan"}, "fusion_lon": 0.0, "lat": 38.90552816666667, "bike_id": "a40d760c498b0d317a33212834f9e0ea", "type": "electric_scooter", "is_reserved": 0, "lon": -77.007551}, {"fusion_lat": 0.0, "name": "3a06c7ee75c99f5f8e9c624435d0626a", "is_disabled": 0, "rental_uris": {"android": "https://dc.lft.to/lastmile_qr_scan", "ios": "https://dc.lft.to/lastmile_qr_scan"}, "fusion_lon": 0.0, "lat": 38.9279185, "bike_id": "3a06c7ee75c99f5f8e9c624435d0626a", "type": "electric_scooter", "is_reserved": 0, "lon": -76.9555965}, {"fusion_lat": 0.0, "name": "7de8cb1d9f91a7cba9ddbbfcd10a2fbb", "is_disabled": 0, "rental_uris": {"android": "https://dc.lft.to/lastmile_qr_scan", "ios": "https://dc.lft.to/lastmile_qr_scan"}, "fusion_lon": 0.0, "lat": 38.903918, "bike_id": "7de8cb1d9f91a7cba9ddbbfcd10a2fbb", "type": "electric_scooter", "is_reserved": 0, "lon": -77.04386566666666}, {"fusion_lat": 0.0, "name": "5b2bc5156a1f22ce193f2e6ed891913c", "is_disabled": 0, "rental_uris": {"android": "https://dc.lft.to/lastmile_qr_scan", "ios": "https://dc.lft.to/lastmile_qr_scan"}, "fusion_lon": 0.0, "lat": 38.92445216666667, "bike_id": "5b2bc5156a1f22ce193f2e6ed891913c", "type": "electric_scooter", "is_reserved": 0, "lon": -77.05246216666667}, {"fusion_lat": 0.0, "name": "d5a6271ed54d65b25f91dc3fbc8f00d4", "is_disabled": 0, "rental_uris": {"android": "https://dc.lft.to/lastmile_qr_scan", "ios": "https://dc.lft.to/lastmile_qr_scan"}, "fusion_lon": 0.0, "lat": 38.92720766666667, "bike_id": "d5a6271ed54d65b25f91dc3fbc8f00d4", "type": "electric_scooter", "is_reserved": 0, "lon": -77.0601405}, {"fusion_lat": 0.0, "name": "9a13df3c98408bcc6fc4d5f11db9adb4", "is_disabled": 0, "rental_uris": {"android": "https://dc.lft.to/lastmile_qr_scan", "ios": "https://dc.lft.to/lastmile_qr_scan"}, "fusion_lon": 0.0, "lat": 38.94920483333333, "bike_id": "9a13df3c98408bcc6fc4d5f11db9adb4", "type": "electric_scooter", "is_reserved": 0, "lon": -77.01853816666667}, {"fusion_lat": 0.0, "name": "679f281671c99c7860a0d60dad79ec26", "is_disabled": 0, "rental_uris": {"android": "https://dc.lft.to/lastmile_qr_scan", "ios": "https://dc.lft.to/lastmile_qr_scan"}, "fusion_lon": 0.0, "lat": 38.882482, "bike_id": "679f281671c99c7860a0d60dad79ec26", "type": "electric_bike", "is_reserved": 0, "lon": -76.962596}, {"fusion_lat": 0.0, "name": "3257ef298d143c76742b335b5e870092", "is_disabled": 0, "rental_uris": {"android": "https://dc.lft.to/lastmile_qr_scan", "ios": "https://dc.lft.to/lastmile_qr_scan"}, "fusion_lon": 0.0, "lat": 38.875745333333334, "bike_id": "3257ef298d143c76742b335b5e870092", "type": "electric_scooter", "is_reserved": 0, "lon": -77.00938483333333}, {"fusion_lat": 0.0, "name": "a93418434c5c23d37c80a5eb914c935e", "is_disabled": 0, "rental_uris": {"android": "https://dc.lft.to/lastmile_qr_scan", "ios": "https://dc.lft.to/lastmile_qr_scan"}, "fusion_lon": 0.0, "lat": 38.910465, "bike_id": "a93418434c5c23d37c80a5eb914c935e", "type": "electric_scooter", "is_reserved": 0, "lon": -77.04087483333333}, {"fusion_lat": 0.0, "name": "4106f461c39b52c3dc622dd420d9a9ac", "is_disabled": 0, "rental_uris": {"android": "https://dc.lft.to/lastmile_qr_scan", "ios": "https://dc.lft.to/lastmile_qr_scan"}, "fusion_lon": 0.0, "lat": 38.911183666666666, "bike_id": "4106f461c39b52c3dc622dd420d9a9ac", "type": "electric_scooter", "is_reserved": 0, "lon": -77.02197283333334}, {"fusion_lat": 0.0, "name": "e6b8e5d57bd436960f091f182f66988d", "is_disabled": 0, "rental_uris": {"android": "https://dc.lft.to/lastmile_qr_scan", "ios": "https://dc.lft.to/lastmile_qr_scan"}, "fusion_lon": 0.0, "lat": 38.88594466666667, "bike_id": "e6b8e5d57bd436960f091f182f66988d", "type": "electric_scooter", "is_reserved": 0, "lon": -77.01721116666667}, {"fusion_lat": 0.0, "name": "a7ae4225799345b3d23ea34d7aa26123", "is_disabled": 0, "rental_uris": {"android": "https://dc.lft.to/lastmile_qr_scan", "ios": "https://dc.lft.to/lastmile_qr_scan"}, "fusion_lon": 0.0, "lat": 38.892300166666665, "bike_id": "a7ae4225799345b3d23ea34d7aa26123", "type": "electric_scooter", "is_reserved": 0, "lon": -77.03168566666666}, {"fusion_lat": 0.0, "name": "12bbbf6fcee8e66b83cdabdeea8f2459", "is_disabled": 0, "rental_uris": {"android": "https://dc.lft.to/lastmile_qr_scan", "ios": "https://dc.lft.to/lastmile_qr_scan"}, "fusion_lon": 0.0, "lat": 38.90628133333333, "bike_id": "12bbbf6fcee8e66b83cdabdeea8f2459", "type": "electric_scooter", "is_reserved": 0, "lon": -77.0240325}, {"fusion_lat": 0.0, "name": "6c2a70cecf6bf61d420695f7d082ea18", "is_disabled": 0, "rental_uris": {"android": "https://dc.lft.to/lastmile_qr_scan", "ios": "https://dc.lft.to/lastmile_qr_scan"}, "fusion_lon": 0.0, "lat": 38.95056966666667, "bike_id": "6c2a70cecf6bf61d420695f7d082ea18", "type": "electric_scooter", "is_reserved": 0, "lon": -77.0802935}, {"fusion_lat": 0.0, "name": "6ddb7bbb24a8155742127d25ff17f5ee", "is_disabled": 0, "rental_uris": {"android": "https://dc.lft.to/lastmile_qr_scan", "ios": "https://dc.lft.to/lastmile_qr_scan"}, "fusion_lon": 0.0, "lat": 38.92288683333334, "bike_id": "6ddb7bbb24a8155742127d25ff17f5ee", "type": "electric_bike", "is_reserved": 0, "lon": -77.02246016666666}, {"fusion_lat": 0.0, "name": "138aa5e51433cc48a84afc718b2f264b", "is_disabled": 0, "rental_uris": {"android": "https://dc.lft.to/lastmile_qr_scan", "ios": "https://dc.lft.to/lastmile_qr_scan"}, "fusion_lon": 0.0, "lat": 38.933969833333336, "bike_id": "138aa5e51433cc48a84afc718b2f264b", "type": "electric_scooter", "is_reserved": 0, "lon": -77.05750266666666}, {"fusion_lat": 0.0, "name": "b3817818804af2523d7c7783944c1462", "is_disabled": 0, "rental_uris": {"android": "https://dc.lft.to/lastmile_qr_scan", "ios": "https://dc.lft.to/lastmile_qr_scan"}, "fusion_lon": 0.0, "lat": 38.916957833333335, "bike_id": "b3817818804af2523d7c7783944c1462", "type": "electric_scooter", "is_reserved": 0, "lon": -77.025951}, {"fusion_lat": 0.0, "name": "616dabeb3425c016f4b196d0a2fd263b", "is_disabled": 0, "rental_uris": {"android": "https://dc.lft.to/lastmile_qr_scan", "ios": "https://dc.lft.to/lastmile_qr_scan"}, "fusion_lon": 0.0, "lat": 38.96812466666667, "bike_id": "616dabeb3425c016f4b196d0a2fd263b", "type": "electric_bike", "is_reserved": 0, "lon": -76.95522716666666}, {"fusion_lat": 0.0, "name": "687a6a12c9f8e567531440e52a3406e3", "is_disabled": 0, "rental_uris": {"android": "https://dc.lft.to/lastmile_qr_scan", "ios": "https://dc.lft.to/lastmile_qr_scan"}, "fusion_lon": 0.0, "lat": 38.90528616666667, "bike_id": "687a6a12c9f8e567531440e52a3406e3", "type": "electric_scooter", "is_reserved": 0, "lon": -77.057704}, {"fusion_lat": 0.0, "name": "cefce390bbf9e2ec22e3177e2978cbdf", "is_disabled": 0, "rental_uris": {"android": "https://dc.lft.to/lastmile_qr_scan", "ios": "https://dc.lft.to/lastmile_qr_scan"}, "fusion_lon": 0.0, "lat": 38.79470533333333, "bike_id": "cefce390bbf9e2ec22e3177e2978cbdf", "type": "electric_bike", "is_reserved": 0, "lon": -76.99246833333333}, {"fusion_lat": 0.0, "name": "b59371366b3fb5f96d4f9ebb618e7e6a", "is_disabled": 0, "rental_uris": {"android": "https://dc.lft.to/lastmile_qr_scan", "ios": "https://dc.lft.to/lastmile_qr_scan"}, "fusion_lon": 0.0, "lat": 38.93577783333333, "bike_id": "b59371366b3fb5f96d4f9ebb618e7e6a", "type": "electric_scooter", "is_reserved": 0, "lon": -77.0244405}, {"fusion_lat": 0.0, "name": "121d53f0a07acccb7d558ab89a03871a", "is_disabled": 0, "rental_uris": {"android": "https://dc.lft.to/lastmile_qr_scan", "ios": "https://dc.lft.to/lastmile_qr_scan"}, "fusion_lon": 0.0, "lat": 38.90043416666666, "bike_id": "121d53f0a07acccb7d558ab89a03871a", "type": "electric_scooter", "is_reserved": 0, "lon": -77.05619983333334}, {"fusion_lat": 0.0, "name": "f98ff048c9165dcd292264d5e0303ed3", "is_disabled": 0, "rental_uris": {"android": "https://dc.lft.to/lastmile_qr_scan", "ios": "https://dc.lft.to/lastmile_qr_scan"}, "fusion_lon": 0.0, "lat": 38.907514666666664, "bike_id": "f98ff048c9165dcd292264d5e0303ed3", "type": "electric_scooter", "is_reserved": 0, "lon": -77.06320916666667}, {"fusion_lat": 0.0, "name": "f0da2fb8e22893fed620e085afcb44e4", "is_disabled": 0, "rental_uris": {"android": "https://dc.lft.to/lastmile_qr_scan", "ios": "https://dc.lft.to/lastmile_qr_scan"}, "fusion_lon": 0.0, "lat": 38.9027, "bike_id": "f0da2fb8e22893fed620e085afcb44e4", "type": "electric_scooter", "is_reserved": 0, "lon": -77.03446733333334}, {"fusion_lat": 0.0, "name": "d14e616d939a026257c036b5564a7314", "is_disabled": 0, "rental_uris": {"android": "https://dc.lft.to/lastmile_qr_scan", "ios": "https://dc.lft.to/lastmile_qr_scan"}, "fusion_lon": 0.0, "lat": 38.89730316666667, "bike_id": "d14e616d939a026257c036b5564a7314", "type": "electric_scooter", "is_reserved": 0, "lon": -76.947016}, {"fusion_lat": 0.0, "name": "e6cfceb0d74e5614d44f951aac41d65f", "is_disabled": 0, "rental_uris": {"android": "https://dc.lft.to/lastmile_qr_scan", "ios": "https://dc.lft.to/lastmile_qr_scan"}, "fusion_lon": 0.0, "lat": 38.917557333333335, "bike_id": "e6cfceb0d74e5614d44f951aac41d65f", "type": "electric_scooter", "is_reserved": 0, "lon": -77.0271375}, {"fusion_lat": 0.0, "name": "854e4e5387a1a9b4b0b28be93edc3424", "is_disabled": 0, "rental_uris": {"android": "https://dc.lft.to/lastmile_qr_scan", "ios": "https://dc.lft.to/lastmile_qr_scan"}, "fusion_lon": 0.0, "lat": 38.919013166666666, "bike_id": "854e4e5387a1a9b4b0b28be93edc3424", "type": "electric_scooter", "is_reserved": 0, "lon": -77.02756483333333}, {"fusion_lat": 0.0, "name": "42606b21441026b0a991a8337402f874", "is_disabled": 0, "rental_uris": {"android": "https://dc.lft.to/lastmile_qr_scan", "ios": "https://dc.lft.to/lastmile_qr_scan"}, "fusion_lon": 0.0, "lat": 38.9181525, "bike_id": "42606b21441026b0a991a8337402f874", "type": "electric_bike", "is_reserved": 0, "lon": -77.02477516666667}, {"fusion_lat": 0.0, "name": "6f249f7a004e023df2f56951b731830e", "is_disabled": 0, "rental_uris": {"android": "https://dc.lft.to/lastmile_qr_scan", "ios": "https://dc.lft.to/lastmile_qr_scan"}, "fusion_lon": 0.0, "lat": 38.9003655, "bike_id": "6f249f7a004e023df2f56951b731830e", "type": "electric_scooter", "is_reserved": 0, "lon": -77.0582375}, {"fusion_lat": 0.0, "name": "2d98f945ab6811da3f651610a1c33621", "is_disabled": 0, "rental_uris": {"android": "https://dc.lft.to/lastmile_qr_scan", "ios": "https://dc.lft.to/lastmile_qr_scan"}, "fusion_lon": 0.0, "lat": 38.92908966666667, "bike_id": "2d98f945ab6811da3f651610a1c33621", "type": "electric_scooter", "is_reserved": 0, "lon": -77.03285066666666}, {"fusion_lat": 0.0, "name": "e895fa67ee8505e4aee48d85d6ee534c", "is_disabled": 0, "rental_uris": {"android": "https://dc.lft.to/lastmile_qr_scan", "ios": "https://dc.lft.to/lastmile_qr_scan"}, "fusion_lon": 0.0, "lat": 38.82458366666667, "bike_id": "e895fa67ee8505e4aee48d85d6ee534c", "type": "electric_bike", "is_reserved": 0, "lon": -77.00793516666667}, {"fusion_lat": 0.0, "name": "abb46d093ad0c6dae78cbdc318e0083b", "is_disabled": 0, "rental_uris": {"android": "https://dc.lft.to/lastmile_qr_scan", "ios": "https://dc.lft.to/lastmile_qr_scan"}, "fusion_lon": 0.0, "lat": 38.899150666666664, "bike_id": "abb46d093ad0c6dae78cbdc318e0083b", "type": "electric_scooter", "is_reserved": 0, "lon": -76.94549333333333}, {"fusion_lat": 0.0, "name": "ec11ac1b9f48439b5eb364a97fc692a8", "is_disabled": 0, "rental_uris": {"android": "https://dc.lft.to/lastmile_qr_scan", "ios": "https://dc.lft.to/lastmile_qr_scan"}, "fusion_lon": 0.0, "lat": 38.876795, "bike_id": "ec11ac1b9f48439b5eb364a97fc692a8", "type": "electric_scooter", "is_reserved": 0, "lon": -77.0074305}, {"fusion_lat": 0.0, "name": "37d3669307a5e2d3408ed3d9c1ccb7b9", "is_disabled": 0, "rental_uris": {"android": "https://dc.lft.to/lastmile_qr_scan", "ios": "https://dc.lft.to/lastmile_qr_scan"}, "fusion_lon": 0.0, "lat": 38.91363616666667, "bike_id": "37d3669307a5e2d3408ed3d9c1ccb7b9", "type": "electric_scooter", "is_reserved": 0, "lon": -77.04554983333334}, {"fusion_lat": 0.0, "name": "b550018eb8b59dec935c93fbfd292587", "is_disabled": 0, "rental_uris": {"android": "https://dc.lft.to/lastmile_qr_scan", "ios": "https://dc.lft.to/lastmile_qr_scan"}, "fusion_lon": 0.0, "lat": 38.90522383333333, "bike_id": "b550018eb8b59dec935c93fbfd292587", "type": "electric_scooter", "is_reserved": 0, "lon": -77.05653116666667}, {"fusion_lat": 0.0, "name": "e98992fcea92b6997810e10cc3bb13dd", "is_disabled": 0, "rental_uris": {"android": "https://dc.lft.to/lastmile_qr_scan", "ios": "https://dc.lft.to/lastmile_qr_scan"}, "fusion_lon": 0.0, "lat": 38.914386, "bike_id": "e98992fcea92b6997810e10cc3bb13dd", "type": "electric_scooter", "is_reserved": 0, "lon": -77.02294066666667}, {"fusion_lat": 0.0, "name": "3daedaefdfd9e5dcfb8b07bccca3c2a2", "is_disabled": 0, "rental_uris": {"android": "https://dc.lft.to/lastmile_qr_scan", "ios": "https://dc.lft.to/lastmile_qr_scan"}, "fusion_lon": 0.0, "lat": 38.90019783333334, "bike_id": "3daedaefdfd9e5dcfb8b07bccca3c2a2", "type": "electric_scooter", "is_reserved": 0, "lon": -77.00670666666667}, {"fusion_lat": 0.0, "name": "5ec3d9bec0d03b6d61b3968699593ec0", "is_disabled": 0, "rental_uris": {"android": "https://dc.lft.to/lastmile_qr_scan", "ios": "https://dc.lft.to/lastmile_qr_scan"}, "fusion_lon": 0.0, "lat": 38.87886816666666, "bike_id": "5ec3d9bec0d03b6d61b3968699593ec0", "type": "electric_scooter", "is_reserved": 0, "lon": -77.02232233333334}, {"fusion_lat": 0.0, "name": "c59e6e00a0e7e8a7fea55f524829ad84", "is_disabled": 0, "rental_uris": {"android": "https://dc.lft.to/lastmile_qr_scan", "ios": "https://dc.lft.to/lastmile_qr_scan"}, "fusion_lon": 0.0, "lat": 38.903801, "bike_id": "c59e6e00a0e7e8a7fea55f524829ad84", "type": "electric_scooter", "is_reserved": 0, "lon": -77.036606}, {"fusion_lat": 0.0, "name": "f1250d40901f5b9169754e38bc5e9cc7", "is_disabled": 0, "rental_uris": {"android": "https://dc.lft.to/lastmile_qr_scan", "ios": "https://dc.lft.to/lastmile_qr_scan"}, "fusion_lon": 0.0, "lat": 38.8876785, "bike_id": "f1250d40901f5b9169754e38bc5e9cc7", "type": "electric_scooter", "is_reserved": 0, "lon": -76.97753366666667}, {"fusion_lat": 0.0, "name": "dacc582a31193f316a29f13081a49e09", "is_disabled": 0, "rental_uris": {"android": "https://dc.lft.to/lastmile_qr_scan", "ios": "https://dc.lft.to/lastmile_qr_scan"}, "fusion_lon": 0.0, "lat": 38.924987, "bike_id": "dacc582a31193f316a29f13081a49e09", "type": "electric_scooter", "is_reserved": 0, "lon": -77.0523175}, {"fusion_lat": 0.0, "name": "70a64c1c5c297f734814c01e91656596", "is_disabled": 0, "rental_uris": {"android": "https://dc.lft.to/lastmile_qr_scan", "ios": "https://dc.lft.to/lastmile_qr_scan"}, "fusion_lon": 0.0, "lat": 38.90955316666667, "bike_id": "70a64c1c5c297f734814c01e91656596", "type": "electric_scooter", "is_reserved": 0, "lon": -76.98551}, {"fusion_lat": 0.0, "name": "95d0e9772bbf9206367620fa2b036e61", "is_disabled": 0, "rental_uris": {"android": "https://dc.lft.to/lastmile_qr_scan", "ios": "https://dc.lft.to/lastmile_qr_scan"}, "fusion_lon": 0.0, "lat": 38.89905983333333, "bike_id": "95d0e9772bbf9206367620fa2b036e61", "type": "electric_scooter", "is_reserved": 0, "lon": -77.0402085}, {"fusion_lat": 0.0, "name": "b883f311c92e3a3b38cf0a48590c99b3", "is_disabled": 0, "rental_uris": {"android": "https://dc.lft.to/lastmile_qr_scan", "ios": "https://dc.lft.to/lastmile_qr_scan"}, "fusion_lon": 0.0, "lat": 38.896706, "bike_id": "b883f311c92e3a3b38cf0a48590c99b3", "type": "electric_scooter", "is_reserved": 0, "lon": -76.93207233333334}, {"fusion_lat": 0.0, "name": "efa57f0d2669431567fb973609fb9182", "is_disabled": 0, "rental_uris": {"android": "https://dc.lft.to/lastmile_qr_scan", "ios": "https://dc.lft.to/lastmile_qr_scan"}, "fusion_lon": 0.0, "lat": 38.902369166666666, "bike_id": "efa57f0d2669431567fb973609fb9182", "type": "electric_scooter", "is_reserved": 0, "lon": -77.060861}, {"fusion_lat": 0.0, "name": "6dcbf73a0b6b5330a12eab75d8029a8c", "is_disabled": 0, "rental_uris": {"android": "https://dc.lft.to/lastmile_qr_scan", "ios": "https://dc.lft.to/lastmile_qr_scan"}, "fusion_lon": 0.0, "lat": 38.90649783333333, "bike_id": "6dcbf73a0b6b5330a12eab75d8029a8c", "type": "electric_scooter", "is_reserved": 0, "lon": -77.04867683333333}, {"fusion_lat": 0.0, "name": "52d5962a46ff6000ae4454ecc56ce19e", "is_disabled": 0, "rental_uris": {"android": "https://dc.lft.to/lastmile_qr_scan", "ios": "https://dc.lft.to/lastmile_qr_scan"}, "fusion_lon": 0.0, "lat": 38.871777333333334, "bike_id": "52d5962a46ff6000ae4454ecc56ce19e", "type": "electric_scooter", "is_reserved": 0, "lon": -77.00615933333333}, {"fusion_lat": 0.0, "name": "c7b628b5af9193e9c953887af78b2bd3", "is_disabled": 0, "rental_uris": {"android": "https://dc.lft.to/lastmile_qr_scan", "ios": "https://dc.lft.to/lastmile_qr_scan"}, "fusion_lon": 0.0, "lat": 38.93490333333333, "bike_id": "c7b628b5af9193e9c953887af78b2bd3", "type": "electric_scooter", "is_reserved": 0, "lon": -77.0453005}, {"fusion_lat": 0.0, "name": "47aeb182cb4e7037f173777dd78a9118", "is_disabled": 0, "rental_uris": {"android": "https://dc.lft.to/lastmile_qr_scan", "ios": "https://dc.lft.to/lastmile_qr_scan"}, "fusion_lon": 0.0, "lat": 38.89225733333333, "bike_id": "47aeb182cb4e7037f173777dd78a9118", "type": "electric_scooter", "is_reserved": 0, "lon": -77.0241525}, {"fusion_lat": 0.0, "name": "04c61d0c508b3c881f92c85e581e10a1", "is_disabled": 0, "rental_uris": {"android": "https://dc.lft.to/lastmile_qr_scan", "ios": "https://dc.lft.to/lastmile_qr_scan"}, "fusion_lon": 0.0, "lat": 38.923779, "bike_id": "04c61d0c508b3c881f92c85e581e10a1", "type": "electric_scooter", "is_reserved": 0, "lon": -77.0306165}, {"fusion_lat": 0.0, "name": "aaf545fbeec6aa1ad6621e8c8d3e9175", "is_disabled": 0, "rental_uris": {"android": "https://dc.lft.to/lastmile_qr_scan", "ios": "https://dc.lft.to/lastmile_qr_scan"}, "fusion_lon": 0.0, "lat": 38.91354033333333, "bike_id": "aaf545fbeec6aa1ad6621e8c8d3e9175", "type": "electric_scooter", "is_reserved": 0, "lon": -77.04352933333334}, {"fusion_lat": 0.0, "name": "a7924d3d2411bde8b93b6f0e3a7677fd", "is_disabled": 0, "rental_uris": {"android": "https://dc.lft.to/lastmile_qr_scan", "ios": "https://dc.lft.to/lastmile_qr_scan"}, "fusion_lon": 0.0, "lat": 38.92452683333333, "bike_id": "a7924d3d2411bde8b93b6f0e3a7677fd", "type": "electric_scooter", "is_reserved": 0, "lon": -77.02405083333333}, {"fusion_lat": 0.0, "name": "24526665a8f22f852e4b7c1907766bdf", "is_disabled": 0, "rental_uris": {"android": "https://dc.lft.to/lastmile_qr_scan", "ios": "https://dc.lft.to/lastmile_qr_scan"}, "fusion_lon": 0.0, "lat": 38.915221, "bike_id": "24526665a8f22f852e4b7c1907766bdf", "type": "electric_scooter", "is_reserved": 0, "lon": -77.07275083333333}, {"fusion_lat": 0.0, "name": "db2ccde5e1921274997dd3f40acd702e", "is_disabled": 0, "rental_uris": {"android": "https://dc.lft.to/lastmile_qr_scan", "ios": "https://dc.lft.to/lastmile_qr_scan"}, "fusion_lon": 0.0, "lat": 38.92345866666667, "bike_id": "db2ccde5e1921274997dd3f40acd702e", "type": "electric_scooter", "is_reserved": 0, "lon": -77.020167}, {"fusion_lat": 0.0, "name": "1d00576e8f3424a9afba02956a0291b6", "is_disabled": 0, "rental_uris": {"android": "https://dc.lft.to/lastmile_qr_scan", "ios": "https://dc.lft.to/lastmile_qr_scan"}, "fusion_lon": 0.0, "lat": 38.90623266666667, "bike_id": "1d00576e8f3424a9afba02956a0291b6", "type": "electric_scooter", "is_reserved": 0, "lon": -76.99329116666667}, {"fusion_lat": 0.0, "name": "193e8fcf0edfc968770a98e3740c1de2", "is_disabled": 0, "rental_uris": {"android": "https://dc.lft.to/lastmile_qr_scan", "ios": "https://dc.lft.to/lastmile_qr_scan"}, "fusion_lon": 0.0, "lat": 38.9261635, "bike_id": "193e8fcf0edfc968770a98e3740c1de2", "type": "electric_scooter", "is_reserved": 0, "lon": -77.0396985}, {"fusion_lat": 0.0, "name": "c0c05b7165b1d56d8b9524006089a43e", "is_disabled": 0, "rental_uris": {"android": "https://dc.lft.to/lastmile_qr_scan", "ios": "https://dc.lft.to/lastmile_qr_scan"}, "fusion_lon": 0.0, "lat": 38.80753416666667, "bike_id": "c0c05b7165b1d56d8b9524006089a43e", "type": "electric_bike", "is_reserved": 0, "lon": -77.094529}, {"fusion_lat": 0.0, "name": "b76ab9a53b9c96a57ded0cb515e496a2", "is_disabled": 0, "rental_uris": {"android": "https://dc.lft.to/lastmile_qr_scan", "ios": "https://dc.lft.to/lastmile_qr_scan"}, "fusion_lon": 0.0, "lat": 38.8559435, "bike_id": "b76ab9a53b9c96a57ded0cb515e496a2", "type": "electric_scooter", "is_reserved": 0, "lon": -76.972635}, {"fusion_lat": 0.0, "name": "a1b71db07729a4b7f97124b974fd5538", "is_disabled": 0, "rental_uris": {"android": "https://dc.lft.to/lastmile_qr_scan", "ios": "https://dc.lft.to/lastmile_qr_scan"}, "fusion_lon": 0.0, "lat": 38.898283666666664, "bike_id": "a1b71db07729a4b7f97124b974fd5538", "type": "electric_scooter", "is_reserved": 0, "lon": -77.04648833333333}, {"fusion_lat": 0.0, "name": "e5b9f489f98d322b7d894d8fe37f77d4", "is_disabled": 0, "rental_uris": {"android": "https://dc.lft.to/lastmile_qr_scan", "ios": "https://dc.lft.to/lastmile_qr_scan"}, "fusion_lon": 0.0, "lat": 38.930019333333334, "bike_id": "e5b9f489f98d322b7d894d8fe37f77d4", "type": "electric_scooter", "is_reserved": 0, "lon": -77.03256033333334}, {"fusion_lat": 0.0, "name": "9f4429fd31a0bb653ee24cfad7a62791", "is_disabled": 0, "rental_uris": {"android": "https://dc.lft.to/lastmile_qr_scan", "ios": "https://dc.lft.to/lastmile_qr_scan"}, "fusion_lon": 0.0, "lat": 38.86332083333333, "bike_id": "9f4429fd31a0bb653ee24cfad7a62791", "type": "electric_bike", "is_reserved": 0, "lon": -76.98719916666667}, {"fusion_lat": 0.0, "name": "66dcc440fdbd709a2d919d4d48ff621f", "is_disabled": 0, "rental_uris": {"android": "https://dc.lft.to/lastmile_qr_scan", "ios": "https://dc.lft.to/lastmile_qr_scan"}, "fusion_lon": 0.0, "lat": 38.890090666666666, "bike_id": "66dcc440fdbd709a2d919d4d48ff621f", "type": "electric_scooter", "is_reserved": 0, "lon": -76.93737683333333}, {"fusion_lat": 0.0, "name": "80f9f2b8f156b79b1595ece6222d3222", "is_disabled": 0, "rental_uris": {"android": "https://dc.lft.to/lastmile_qr_scan", "ios": "https://dc.lft.to/lastmile_qr_scan"}, "fusion_lon": 0.0, "lat": 38.892208833333335, "bike_id": "80f9f2b8f156b79b1595ece6222d3222", "type": "electric_scooter", "is_reserved": 0, "lon": -77.032021}, {"fusion_lat": 0.0, "name": "c1d33055471e25339f9a5ce0bcd59a73", "is_disabled": 0, "rental_uris": {"android": "https://dc.lft.to/lastmile_qr_scan", "ios": "https://dc.lft.to/lastmile_qr_scan"}, "fusion_lon": 0.0, "lat": 38.937675166666665, "bike_id": "c1d33055471e25339f9a5ce0bcd59a73", "type": "electric_scooter", "is_reserved": 0, "lon": -77.02078366666667}, {"fusion_lat": 0.0, "name": "723a739eae24d9aa9505dbfd151b28f0", "is_disabled": 0, "rental_uris": {"android": "https://dc.lft.to/lastmile_qr_scan", "ios": "https://dc.lft.to/lastmile_qr_scan"}, "fusion_lon": 0.0, "lat": 38.86261583333334, "bike_id": "723a739eae24d9aa9505dbfd151b28f0", "type": "electric_bike", "is_reserved": 0, "lon": -76.98354566666667}, {"fusion_lat": 0.0, "name": "f88b42d422dd7266c77eddb389e27feb", "is_disabled": 0, "rental_uris": {"android": "https://dc.lft.to/lastmile_qr_scan", "ios": "https://dc.lft.to/lastmile_qr_scan"}, "fusion_lon": 0.0, "lat": 38.9314585, "bike_id": "f88b42d422dd7266c77eddb389e27feb", "type": "electric_scooter", "is_reserved": 0, "lon": -77.038269}, {"fusion_lat": 0.0, "name": "c10b9d49921dce22bf8f6e5e9e51fd1a", "is_disabled": 0, "rental_uris": {"android": "https://dc.lft.to/lastmile_qr_scan", "ios": "https://dc.lft.to/lastmile_qr_scan"}, "fusion_lon": 0.0, "lat": 38.91395933333333, "bike_id": "c10b9d49921dce22bf8f6e5e9e51fd1a", "type": "electric_scooter", "is_reserved": 0, "lon": -77.04179116666667}, {"fusion_lat": 0.0, "name": "74297b3c9a86b8186ac3c7d216efcd86", "is_disabled": 0, "rental_uris": {"android": "https://dc.lft.to/lastmile_qr_scan", "ios": "https://dc.lft.to/lastmile_qr_scan"}, "fusion_lon": 0.0, "lat": 38.881544166666664, "bike_id": "74297b3c9a86b8186ac3c7d216efcd86", "type": "electric_scooter", "is_reserved": 0, "lon": -77.02754}, {"fusion_lat": 0.0, "name": "3cf403984ee23ff2a805e1c99c609b8d", "is_disabled": 0, "rental_uris": {"android": "https://dc.lft.to/lastmile_qr_scan", "ios": "https://dc.lft.to/lastmile_qr_scan"}, "fusion_lon": 0.0, "lat": 38.93044, "bike_id": "3cf403984ee23ff2a805e1c99c609b8d", "type": "electric_scooter", "is_reserved": 0, "lon": -77.03613383333334}, {"fusion_lat": 0.0, "name": "626242d0234dd349dbe6a1f2c8dca0d7", "is_disabled": 0, "rental_uris": {"android": "https://dc.lft.to/lastmile_qr_scan", "ios": "https://dc.lft.to/lastmile_qr_scan"}, "fusion_lon": 0.0, "lat": 38.919751833333336, "bike_id": "626242d0234dd349dbe6a1f2c8dca0d7", "type": "electric_scooter", "is_reserved": 0, "lon": -77.04187366666666}, {"fusion_lat": 0.0, "name": "25f41f8dc1e8d5f1a98a1db84f3c9843", "is_disabled": 0, "rental_uris": {"android": "https://dc.lft.to/lastmile_qr_scan", "ios": "https://dc.lft.to/lastmile_qr_scan"}, "fusion_lon": 0.0, "lat": 38.871798, "bike_id": "25f41f8dc1e8d5f1a98a1db84f3c9843", "type": "electric_scooter", "is_reserved": 0, "lon": -77.00617533333333}, {"fusion_lat": 0.0, "name": "0d5a99bca4e7132e3731f2edf1905a79", "is_disabled": 0, "rental_uris": {"android": "https://dc.lft.to/lastmile_qr_scan", "ios": "https://dc.lft.to/lastmile_qr_scan"}, "fusion_lon": 0.0, "lat": 38.905622, "bike_id": "0d5a99bca4e7132e3731f2edf1905a79", "type": "electric_scooter", "is_reserved": 0, "lon": -77.0131005}, {"fusion_lat": 0.0, "name": "47d705ad16ab6a0261b1cfffca1c8144", "is_disabled": 0, "rental_uris": {"android": "https://dc.lft.to/lastmile_qr_scan", "ios": "https://dc.lft.to/lastmile_qr_scan"}, "fusion_lon": 0.0, "lat": 38.929775166666666, "bike_id": "47d705ad16ab6a0261b1cfffca1c8144", "type": "electric_scooter", "is_reserved": 0, "lon": -77.0326055}, {"fusion_lat": 0.0, "name": "5435ce44915613f1b9c5d6ac95ba1311", "is_disabled": 0, "rental_uris": {"android": "https://dc.lft.to/lastmile_qr_scan", "ios": "https://dc.lft.to/lastmile_qr_scan"}, "fusion_lon": 0.0, "lat": 38.85798066666667, "bike_id": "5435ce44915613f1b9c5d6ac95ba1311", "type": "electric_bike", "is_reserved": 0, "lon": -77.12013433333334}, {"fusion_lat": 0.0, "name": "f355007b0e5362f041f00c6d4bbac3da", "is_disabled": 0, "rental_uris": {"android": "https://dc.lft.to/lastmile_qr_scan", "ios": "https://dc.lft.to/lastmile_qr_scan"}, "fusion_lon": 0.0, "lat": 38.93065283333333, "bike_id": "f355007b0e5362f041f00c6d4bbac3da", "type": "electric_scooter", "is_reserved": 0, "lon": -77.02976466666667}, {"fusion_lat": 0.0, "name": "9fc42d9fb48b4d979de54843522a90f4", "is_disabled": 0, "rental_uris": {"android": "https://dc.lft.to/lastmile_qr_scan", "ios": "https://dc.lft.to/lastmile_qr_scan"}, "fusion_lon": 0.0, "lat": 38.942045666666665, "bike_id": "9fc42d9fb48b4d979de54843522a90f4", "type": "electric_bike", "is_reserved": 0, "lon": -77.01827983333334}, {"fusion_lat": 0.0, "name": "096904dd5b93682c87c43634db3c665d", "is_disabled": 0, "rental_uris": {"android": "https://dc.lft.to/lastmile_qr_scan", "ios": "https://dc.lft.to/lastmile_qr_scan"}, "fusion_lon": 0.0, "lat": 38.88025016666667, "bike_id": "096904dd5b93682c87c43634db3c665d", "type": "electric_bike", "is_reserved": 0, "lon": -77.02528566666666}, {"fusion_lat": 0.0, "name": "f3559e78dc00dfc5196400b0da2c97f6", "is_disabled": 0, "rental_uris": {"android": "https://dc.lft.to/lastmile_qr_scan", "ios": "https://dc.lft.to/lastmile_qr_scan"}, "fusion_lon": 0.0, "lat": 38.90891666666667, "bike_id": "f3559e78dc00dfc5196400b0da2c97f6", "type": "electric_scooter", "is_reserved": 0, "lon": -77.06426}, {"fusion_lat": 0.0, "name": "8e99a43e251902e9b639b5f7820f59ea", "is_disabled": 0, "rental_uris": {"android": "https://dc.lft.to/lastmile_qr_scan", "ios": "https://dc.lft.to/lastmile_qr_scan"}, "fusion_lon": 0.0, "lat": 38.91734483333333, "bike_id": "8e99a43e251902e9b639b5f7820f59ea", "type": "electric_scooter", "is_reserved": 0, "lon": -77.031902}, {"fusion_lat": 0.0, "name": "8dfaeb191c95485d3a2284c2e8e6dceb", "is_disabled": 0, "rental_uris": {"android": "https://dc.lft.to/lastmile_qr_scan", "ios": "https://dc.lft.to/lastmile_qr_scan"}, "fusion_lon": 0.0, "lat": 38.904082333333335, "bike_id": "8dfaeb191c95485d3a2284c2e8e6dceb", "type": "electric_scooter", "is_reserved": 0, "lon": -77.0177985}, {"fusion_lat": 0.0, "name": "8fc86f36ecee0fc112c098cbe732e63d", "is_disabled": 0, "rental_uris": {"android": "https://dc.lft.to/lastmile_qr_scan", "ios": "https://dc.lft.to/lastmile_qr_scan"}, "fusion_lon": 0.0, "lat": 38.907838166666664, "bike_id": "8fc86f36ecee0fc112c098cbe732e63d", "type": "electric_scooter", "is_reserved": 0, "lon": -77.01108366666666}, {"fusion_lat": 0.0, "name": "86b240aba43de76e4c14cd96d0f36efb", "is_disabled": 0, "rental_uris": {"android": "https://dc.lft.to/lastmile_qr_scan", "ios": "https://dc.lft.to/lastmile_qr_scan"}, "fusion_lon": 0.0, "lat": 38.91804966666667, "bike_id": "86b240aba43de76e4c14cd96d0f36efb", "type": "electric_scooter", "is_reserved": 0, "lon": -77.0366155}, {"fusion_lat": 0.0, "name": "5b6df8c1d37a1556a05828b5ce0facf8", "is_disabled": 0, "rental_uris": {"android": "https://dc.lft.to/lastmile_qr_scan", "ios": "https://dc.lft.to/lastmile_qr_scan"}, "fusion_lon": 0.0, "lat": 38.9419485, "bike_id": "5b6df8c1d37a1556a05828b5ce0facf8", "type": "electric_scooter", "is_reserved": 0, "lon": -77.02594666666667}, {"fusion_lat": 0.0, "name": "e7d6d53cd809d97cb6180bc22c63c303", "is_disabled": 0, "rental_uris": {"android": "https://dc.lft.to/lastmile_qr_scan", "ios": "https://dc.lft.to/lastmile_qr_scan"}, "fusion_lon": 0.0, "lat": 38.90032083333333, "bike_id": "e7d6d53cd809d97cb6180bc22c63c303", "type": "electric_scooter", "is_reserved": 0, "lon": -77.00190916666666}, {"fusion_lat": 0.0, "name": "7b7d188f2dae07ecbab34e724b18ea78", "is_disabled": 0, "rental_uris": {"android": "https://dc.lft.to/lastmile_qr_scan", "ios": "https://dc.lft.to/lastmile_qr_scan"}, "fusion_lon": 0.0, "lat": 38.92217333333333, "bike_id": "7b7d188f2dae07ecbab34e724b18ea78", "type": "electric_bike", "is_reserved": 0, "lon": -77.20139533333334}, {"fusion_lat": 0.0, "name": "3dab8d449b506f6922930b81570668c0", "is_disabled": 0, "rental_uris": {"android": "https://dc.lft.to/lastmile_qr_scan", "ios": "https://dc.lft.to/lastmile_qr_scan"}, "fusion_lon": 0.0, "lat": 38.94971316666667, "bike_id": "3dab8d449b506f6922930b81570668c0", "type": "electric_scooter", "is_reserved": 0, "lon": -77.080826}, {"fusion_lat": 0.0, "name": "f0b425ed5959296b37ffef935e0f2a02", "is_disabled": 0, "rental_uris": {"android": "https://dc.lft.to/lastmile_qr_scan", "ios": "https://dc.lft.to/lastmile_qr_scan"}, "fusion_lon": 0.0, "lat": 38.943778, "bike_id": "f0b425ed5959296b37ffef935e0f2a02", "type": "electric_scooter", "is_reserved": 0, "lon": -77.06351166666667}, {"fusion_lat": 0.0, "name": "e90e3f18a4e8605a1804d7db146bcfaa", "is_disabled": 0, "rental_uris": {"android": "https://dc.lft.to/lastmile_qr_scan", "ios": "https://dc.lft.to/lastmile_qr_scan"}, "fusion_lon": 0.0, "lat": 38.892532833333334, "bike_id": "e90e3f18a4e8605a1804d7db146bcfaa", "type": "electric_scooter", "is_reserved": 0, "lon": -77.03378683333334}, {"fusion_lat": 0.0, "name": "5190bbffc8ed2f8be84d4aa7a6abf695", "is_disabled": 0, "rental_uris": {"android": "https://dc.lft.to/lastmile_qr_scan", "ios": "https://dc.lft.to/lastmile_qr_scan"}, "fusion_lon": 0.0, "lat": 38.8999385, "bike_id": "5190bbffc8ed2f8be84d4aa7a6abf695", "type": "electric_scooter", "is_reserved": 0, "lon": -77.040492}, {"fusion_lat": 0.0, "name": "6e266f18969c40693816ae8b882b45fa", "is_disabled": 0, "rental_uris": {"android": "https://dc.lft.to/lastmile_qr_scan", "ios": "https://dc.lft.to/lastmile_qr_scan"}, "fusion_lon": 0.0, "lat": 38.92384216666667, "bike_id": "6e266f18969c40693816ae8b882b45fa", "type": "electric_scooter", "is_reserved": 0, "lon": -77.07537383333333}, {"fusion_lat": 0.0, "name": "5c5a32ea1ae6cf9a78d2fd33716ae5ce", "is_disabled": 0, "rental_uris": {"android": "https://dc.lft.to/lastmile_qr_scan", "ios": "https://dc.lft.to/lastmile_qr_scan"}, "fusion_lon": 0.0, "lat": 38.921317, "bike_id": "5c5a32ea1ae6cf9a78d2fd33716ae5ce", "type": "electric_scooter", "is_reserved": 0, "lon": -77.044373}, {"fusion_lat": 0.0, "name": "772d7c055c12ac5664c7759e9e749d8b", "is_disabled": 0, "rental_uris": {"android": "https://dc.lft.to/lastmile_qr_scan", "ios": "https://dc.lft.to/lastmile_qr_scan"}, "fusion_lon": 0.0, "lat": 38.845886666666665, "bike_id": "772d7c055c12ac5664c7759e9e749d8b", "type": "electric_bike", "is_reserved": 0, "lon": -76.98166683333334}, {"fusion_lat": 0.0, "name": "8d2ed67317eae525871b29ebc5360c8b", "is_disabled": 0, "rental_uris": {"android": "https://dc.lft.to/lastmile_qr_scan", "ios": "https://dc.lft.to/lastmile_qr_scan"}, "fusion_lon": 0.0, "lat": 38.918058, "bike_id": "8d2ed67317eae525871b29ebc5360c8b", "type": "electric_scooter", "is_reserved": 0, "lon": -77.0366465}, {"fusion_lat": 0.0, "name": "194853e8d524240bfc7bfec16028c697", "is_disabled": 0, "rental_uris": {"android": "https://dc.lft.to/lastmile_qr_scan", "ios": "https://dc.lft.to/lastmile_qr_scan"}, "fusion_lon": 0.0, "lat": 38.94188616666667, "bike_id": "194853e8d524240bfc7bfec16028c697", "type": "electric_scooter", "is_reserved": 0, "lon": -77.0240865}, {"fusion_lat": 0.0, "name": "885f586aa37c2bd61c10b071009742ca", "is_disabled": 0, "rental_uris": {"android": "https://dc.lft.to/lastmile_qr_scan", "ios": "https://dc.lft.to/lastmile_qr_scan"}, "fusion_lon": 0.0, "lat": 38.90751566666667, "bike_id": "885f586aa37c2bd61c10b071009742ca", "type": "electric_scooter", "is_reserved": 0, "lon": -77.0238125}, {"fusion_lat": 0.0, "name": "68ce860b59505809da074616551d1e35", "is_disabled": 0, "rental_uris": {"android": "https://dc.lft.to/lastmile_qr_scan", "ios": "https://dc.lft.to/lastmile_qr_scan"}, "fusion_lon": 0.0, "lat": 38.904146, "bike_id": "68ce860b59505809da074616551d1e35", "type": "electric_scooter", "is_reserved": 0, "lon": -77.0240605}, {"fusion_lat": 0.0, "name": "322ecba405ad87268e20a04fcfe81ec9", "is_disabled": 0, "rental_uris": {"android": "https://dc.lft.to/lastmile_qr_scan", "ios": "https://dc.lft.to/lastmile_qr_scan"}, "fusion_lon": 0.0, "lat": 38.90755083333333, "bike_id": "322ecba405ad87268e20a04fcfe81ec9", "type": "electric_scooter", "is_reserved": 0, "lon": -77.0385175}, {"fusion_lat": 0.0, "name": "05b645378188c1c0ce7504187bc8fc6d", "is_disabled": 0, "rental_uris": {"android": "https://dc.lft.to/lastmile_qr_scan", "ios": "https://dc.lft.to/lastmile_qr_scan"}, "fusion_lon": 0.0, "lat": 38.90777766666667, "bike_id": "05b645378188c1c0ce7504187bc8fc6d", "type": "electric_scooter", "is_reserved": 0, "lon": -77.029513}, {"fusion_lat": 0.0, "name": "876b5bc31703539ef2901b3dc2f33b25", "is_disabled": 0, "rental_uris": {"android": "https://dc.lft.to/lastmile_qr_scan", "ios": "https://dc.lft.to/lastmile_qr_scan"}, "fusion_lon": 0.0, "lat": 38.9138715, "bike_id": "876b5bc31703539ef2901b3dc2f33b25", "type": "electric_scooter", "is_reserved": 0, "lon": -77.03319466666666}, {"fusion_lat": 0.0, "name": "f59c55899719f8e817975f74bb09338c", "is_disabled": 0, "rental_uris": {"android": "https://dc.lft.to/lastmile_qr_scan", "ios": "https://dc.lft.to/lastmile_qr_scan"}, "fusion_lon": 0.0, "lat": 38.917949, "bike_id": "f59c55899719f8e817975f74bb09338c", "type": "electric_scooter", "is_reserved": 0, "lon": -77.009139}, {"fusion_lat": 0.0, "name": "516d2ae22117d66d663fea3063dee924", "is_disabled": 0, "rental_uris": {"android": "https://dc.lft.to/lastmile_qr_scan", "ios": "https://dc.lft.to/lastmile_qr_scan"}, "fusion_lon": 0.0, "lat": 38.899050833333334, "bike_id": "516d2ae22117d66d663fea3063dee924", "type": "electric_scooter", "is_reserved": 0, "lon": -77.0567495}, {"fusion_lat": 0.0, "name": "be5401214992728a86d975439bd5c291", "is_disabled": 0, "rental_uris": {"android": "https://dc.lft.to/lastmile_qr_scan", "ios": "https://dc.lft.to/lastmile_qr_scan"}, "fusion_lon": 0.0, "lat": 38.89166866666667, "bike_id": "be5401214992728a86d975439bd5c291", "type": "electric_scooter", "is_reserved": 0, "lon": -76.99461733333334}, {"fusion_lat": 0.0, "name": "ac15fa2cc55547a4de1450e3f2a9ebff", "is_disabled": 0, "rental_uris": {"android": "https://dc.lft.to/lastmile_qr_scan", "ios": "https://dc.lft.to/lastmile_qr_scan"}, "fusion_lon": 0.0, "lat": 38.93197033333333, "bike_id": "ac15fa2cc55547a4de1450e3f2a9ebff", "type": "electric_scooter", "is_reserved": 0, "lon": -77.02799266666666}, {"fusion_lat": 0.0, "name": "3e9f89edb7380848cd207bafc61dff45", "is_disabled": 0, "rental_uris": {"android": "https://dc.lft.to/lastmile_qr_scan", "ios": "https://dc.lft.to/lastmile_qr_scan"}, "fusion_lon": 0.0, "lat": 38.899150666666664, "bike_id": "3e9f89edb7380848cd207bafc61dff45", "type": "electric_scooter", "is_reserved": 0, "lon": -77.0034445}, {"fusion_lat": 0.0, "name": "f1769a1ae0be76d6eba0ada79adf31d5", "is_disabled": 0, "rental_uris": {"android": "https://dc.lft.to/lastmile_qr_scan", "ios": "https://dc.lft.to/lastmile_qr_scan"}, "fusion_lon": 0.0, "lat": 38.956420333333334, "bike_id": "f1769a1ae0be76d6eba0ada79adf31d5", "type": "electric_scooter", "is_reserved": 0, "lon": -77.02415416666666}, {"fusion_lat": 0.0, "name": "d0ffac2777746b9eaf2992434ece8d55", "is_disabled": 0, "rental_uris": {"android": "https://dc.lft.to/lastmile_qr_scan", "ios": "https://dc.lft.to/lastmile_qr_scan"}, "fusion_lon": 0.0, "lat": 38.89522733333333, "bike_id": "d0ffac2777746b9eaf2992434ece8d55", "type": "electric_scooter", "is_reserved": 0, "lon": -77.0119835}, {"fusion_lat": 0.0, "name": "b22f380b1c487fbca204fa573a4edf71", "is_disabled": 0, "rental_uris": {"android": "https://dc.lft.to/lastmile_qr_scan", "ios": "https://dc.lft.to/lastmile_qr_scan"}, "fusion_lon": 0.0, "lat": 38.916832166666666, "bike_id": "b22f380b1c487fbca204fa573a4edf71", "type": "electric_scooter", "is_reserved": 0, "lon": -77.0368815}, {"fusion_lat": 0.0, "name": "7fc58fc91b40f7f324c0277c96e5770c", "is_disabled": 0, "rental_uris": {"android": "https://dc.lft.to/lastmile_qr_scan", "ios": "https://dc.lft.to/lastmile_qr_scan"}, "fusion_lon": 0.0, "lat": 38.902124, "bike_id": "7fc58fc91b40f7f324c0277c96e5770c", "type": "electric_scooter", "is_reserved": 0, "lon": -77.02125833333334}, {"fusion_lat": 0.0, "name": "6e278bc164f3cf50e0ed1f49cc33dab0", "is_disabled": 0, "rental_uris": {"android": "https://dc.lft.to/lastmile_qr_scan", "ios": "https://dc.lft.to/lastmile_qr_scan"}, "fusion_lon": 0.0, "lat": 38.9098985, "bike_id": "6e278bc164f3cf50e0ed1f49cc33dab0", "type": "electric_scooter", "is_reserved": 0, "lon": -77.03384433333333}, {"fusion_lat": 0.0, "name": "c26195ea06105adb7be02975eb94eff3", "is_disabled": 0, "rental_uris": {"android": "https://dc.lft.to/lastmile_qr_scan", "ios": "https://dc.lft.to/lastmile_qr_scan"}, "fusion_lon": 0.0, "lat": 38.90254733333333, "bike_id": "c26195ea06105adb7be02975eb94eff3", "type": "electric_scooter", "is_reserved": 0, "lon": -77.0455655}, {"fusion_lat": 0.0, "name": "4c62ea7ba7aa75db023f7c7d676af868", "is_disabled": 0, "rental_uris": {"android": "https://dc.lft.to/lastmile_qr_scan", "ios": "https://dc.lft.to/lastmile_qr_scan"}, "fusion_lon": 0.0, "lat": 38.905117, "bike_id": "4c62ea7ba7aa75db023f7c7d676af868", "type": "electric_scooter", "is_reserved": 0, "lon": -77.06385133333333}, {"fusion_lat": 0.0, "name": "dec5cf07fbeb07d80cb8d846b4aa48e9", "is_disabled": 0, "rental_uris": {"android": "https://dc.lft.to/lastmile_qr_scan", "ios": "https://dc.lft.to/lastmile_qr_scan"}, "fusion_lon": 0.0, "lat": 38.8724745, "bike_id": "dec5cf07fbeb07d80cb8d846b4aa48e9", "type": "electric_scooter", "is_reserved": 0, "lon": -76.97726016666667}, {"fusion_lat": 0.0, "name": "8c326fbc593d8305b0ef91b6096ee66a", "is_disabled": 0, "rental_uris": {"android": "https://dc.lft.to/lastmile_qr_scan", "ios": "https://dc.lft.to/lastmile_qr_scan"}, "fusion_lon": 0.0, "lat": 38.90977733333333, "bike_id": "8c326fbc593d8305b0ef91b6096ee66a", "type": "electric_scooter", "is_reserved": 0, "lon": -77.00900983333334}, {"fusion_lat": 0.0, "name": "177d28d43d013d5d125ef1788a3d1d21", "is_disabled": 0, "rental_uris": {"android": "https://dc.lft.to/lastmile_qr_scan", "ios": "https://dc.lft.to/lastmile_qr_scan"}, "fusion_lon": 0.0, "lat": 38.90580466666667, "bike_id": "177d28d43d013d5d125ef1788a3d1d21", "type": "electric_scooter", "is_reserved": 0, "lon": -77.0088575}, {"fusion_lat": 0.0, "name": "c6fbb1fba6521ba599b77770a98f2fd8", "is_disabled": 0, "rental_uris": {"android": "https://dc.lft.to/lastmile_qr_scan", "ios": "https://dc.lft.to/lastmile_qr_scan"}, "fusion_lon": 0.0, "lat": 38.87389783333333, "bike_id": "c6fbb1fba6521ba599b77770a98f2fd8", "type": "electric_scooter", "is_reserved": 0, "lon": -76.99999016666666}, {"fusion_lat": 0.0, "name": "4f7a7381c5e0c65312ad5fef2afb4ddf", "is_disabled": 0, "rental_uris": {"android": "https://dc.lft.to/lastmile_qr_scan", "ios": "https://dc.lft.to/lastmile_qr_scan"}, "fusion_lon": 0.0, "lat": 38.9274165, "bike_id": "4f7a7381c5e0c65312ad5fef2afb4ddf", "type": "electric_scooter", "is_reserved": 0, "lon": -77.02434983333333}, {"fusion_lat": 0.0, "name": "37dae0aadc282f057d42e7be6dfe0ad2", "is_disabled": 0, "rental_uris": {"android": "https://dc.lft.to/lastmile_qr_scan", "ios": "https://dc.lft.to/lastmile_qr_scan"}, "fusion_lon": 0.0, "lat": 38.90023816666667, "bike_id": "37dae0aadc282f057d42e7be6dfe0ad2", "type": "electric_scooter", "is_reserved": 0, "lon": -77.033294}, {"fusion_lat": 0.0, "name": "f99d35ed37649b19971e2170e8039bd5", "is_disabled": 0, "rental_uris": {"android": "https://dc.lft.to/lastmile_qr_scan", "ios": "https://dc.lft.to/lastmile_qr_scan"}, "fusion_lon": 0.0, "lat": 38.917036, "bike_id": "f99d35ed37649b19971e2170e8039bd5", "type": "electric_scooter", "is_reserved": 0, "lon": -77.02888883333334}, {"fusion_lat": 0.0, "name": "39443ce442823b844a9f1ba2f1d9d294", "is_disabled": 0, "rental_uris": {"android": "https://dc.lft.to/lastmile_qr_scan", "ios": "https://dc.lft.to/lastmile_qr_scan"}, "fusion_lon": 0.0, "lat": 38.88328033333333, "bike_id": "39443ce442823b844a9f1ba2f1d9d294", "type": "electric_scooter", "is_reserved": 0, "lon": -77.0176525}, {"fusion_lat": 0.0, "name": "69d5a90443494eda5c750eb7b7fd69ac", "is_disabled": 0, "rental_uris": {"android": "https://dc.lft.to/lastmile_qr_scan", "ios": "https://dc.lft.to/lastmile_qr_scan"}, "fusion_lon": 0.0, "lat": 39.0525375, "bike_id": "69d5a90443494eda5c750eb7b7fd69ac", "type": "electric_bike", "is_reserved": 0, "lon": -77.080646}, {"fusion_lat": 0.0, "name": "585aa98391d5fb19bab7b98680fcf4d4", "is_disabled": 0, "rental_uris": {"android": "https://dc.lft.to/lastmile_qr_scan", "ios": "https://dc.lft.to/lastmile_qr_scan"}, "fusion_lon": 0.0, "lat": 38.896192666666664, "bike_id": "585aa98391d5fb19bab7b98680fcf4d4", "type": "electric_scooter", "is_reserved": 0, "lon": -77.00924833333333}, {"fusion_lat": 0.0, "name": "43fd0ce000b042d30229f011a25a03a5", "is_disabled": 0, "rental_uris": {"android": "https://dc.lft.to/lastmile_qr_scan", "ios": "https://dc.lft.to/lastmile_qr_scan"}, "fusion_lon": 0.0, "lat": 38.86247983333333, "bike_id": "43fd0ce000b042d30229f011a25a03a5", "type": "electric_scooter", "is_reserved": 0, "lon": -76.99499133333333}, {"fusion_lat": 0.0, "name": "a5ff7c13277baf508971371ac4e1379c", "is_disabled": 0, "rental_uris": {"android": "https://dc.lft.to/lastmile_qr_scan", "ios": "https://dc.lft.to/lastmile_qr_scan"}, "fusion_lon": 0.0, "lat": 38.8992805, "bike_id": "a5ff7c13277baf508971371ac4e1379c", "type": "electric_scooter", "is_reserved": 0, "lon": -77.0035555}, {"fusion_lat": 0.0, "name": "bed01d51bd95e99cc328b40deca6311d", "is_disabled": 0, "rental_uris": {"android": "https://dc.lft.to/lastmile_qr_scan", "ios": "https://dc.lft.to/lastmile_qr_scan"}, "fusion_lon": 0.0, "lat": 38.9352095, "bike_id": "bed01d51bd95e99cc328b40deca6311d", "type": "electric_scooter", "is_reserved": 0, "lon": -77.07261666666666}, {"fusion_lat": 0.0, "name": "64b601cad4888109cf343d2afd49419f", "is_disabled": 0, "rental_uris": {"android": "https://dc.lft.to/lastmile_qr_scan", "ios": "https://dc.lft.to/lastmile_qr_scan"}, "fusion_lon": 0.0, "lat": 38.898949333333334, "bike_id": "64b601cad4888109cf343d2afd49419f", "type": "electric_scooter", "is_reserved": 0, "lon": -77.0393335}, {"fusion_lat": 0.0, "name": "c6b808d6e8fe00cad1d2aef15ac07191", "is_disabled": 0, "rental_uris": {"android": "https://dc.lft.to/lastmile_qr_scan", "ios": "https://dc.lft.to/lastmile_qr_scan"}, "fusion_lon": 0.0, "lat": 38.8987535, "bike_id": "c6b808d6e8fe00cad1d2aef15ac07191", "type": "electric_scooter", "is_reserved": 0, "lon": -76.931876}, {"fusion_lat": 0.0, "name": "b196b91be45f54782f62770c6724a155", "is_disabled": 0, "rental_uris": {"android": "https://dc.lft.to/lastmile_qr_scan", "ios": "https://dc.lft.to/lastmile_qr_scan"}, "fusion_lon": 0.0, "lat": 38.903205, "bike_id": "b196b91be45f54782f62770c6724a155", "type": "electric_scooter", "is_reserved": 0, "lon": -77.02276066666667}, {"fusion_lat": 0.0, "name": "ff911ccb950ec3618e547dc6314a6979", "is_disabled": 0, "rental_uris": {"android": "https://dc.lft.to/lastmile_qr_scan", "ios": "https://dc.lft.to/lastmile_qr_scan"}, "fusion_lon": 0.0, "lat": 38.883248, "bike_id": "ff911ccb950ec3618e547dc6314a6979", "type": "electric_scooter", "is_reserved": 0, "lon": -77.017382}, {"fusion_lat": 0.0, "name": "adc29644f921ac0608ac2b8cdecccda2", "is_disabled": 0, "rental_uris": {"android": "https://dc.lft.to/lastmile_qr_scan", "ios": "https://dc.lft.to/lastmile_qr_scan"}, "fusion_lon": 0.0, "lat": 38.86138833333333, "bike_id": "adc29644f921ac0608ac2b8cdecccda2", "type": "electric_bike", "is_reserved": 0, "lon": -76.97170483333333}, {"fusion_lat": 0.0, "name": "97ca470f0c58dd55b33e27cce8821680", "is_disabled": 0, "rental_uris": {"android": "https://dc.lft.to/lastmile_qr_scan", "ios": "https://dc.lft.to/lastmile_qr_scan"}, "fusion_lon": 0.0, "lat": 38.94293, "bike_id": "97ca470f0c58dd55b33e27cce8821680", "type": "electric_scooter", "is_reserved": 0, "lon": -77.02172866666666}, {"fusion_lat": 0.0, "name": "ba97249fb9a0859e2facf0ee190988ce", "is_disabled": 0, "rental_uris": {"android": "https://dc.lft.to/lastmile_qr_scan", "ios": "https://dc.lft.to/lastmile_qr_scan"}, "fusion_lon": 0.0, "lat": 38.905020666666665, "bike_id": "ba97249fb9a0859e2facf0ee190988ce", "type": "electric_scooter", "is_reserved": 0, "lon": -76.97957316666667}, {"fusion_lat": 0.0, "name": "eb784b5ec9264090676b5812e82493e6", "is_disabled": 0, "rental_uris": {"android": "https://dc.lft.to/lastmile_qr_scan", "ios": "https://dc.lft.to/lastmile_qr_scan"}, "fusion_lon": 0.0, "lat": 38.92419066666667, "bike_id": "eb784b5ec9264090676b5812e82493e6", "type": "electric_scooter", "is_reserved": 0, "lon": -77.0201655}, {"fusion_lat": 0.0, "name": "1fd9132e7d3faf18c7d068bb8c9409f1", "is_disabled": 0, "rental_uris": {"android": "https://dc.lft.to/lastmile_qr_scan", "ios": "https://dc.lft.to/lastmile_qr_scan"}, "fusion_lon": 0.0, "lat": 38.900350333333336, "bike_id": "1fd9132e7d3faf18c7d068bb8c9409f1", "type": "electric_scooter", "is_reserved": 0, "lon": -76.99274816666667}, {"fusion_lat": 0.0, "name": "07cf07111291f50781a2a8d05ac784bd", "is_disabled": 0, "rental_uris": {"android": "https://dc.lft.to/lastmile_qr_scan", "ios": "https://dc.lft.to/lastmile_qr_scan"}, "fusion_lon": 0.0, "lat": 38.926577, "bike_id": "07cf07111291f50781a2a8d05ac784bd", "type": "electric_scooter", "is_reserved": 0, "lon": -77.02430633333333}, {"fusion_lat": 0.0, "name": "4ca5535a76a987e0967d0c05c0337122", "is_disabled": 0, "rental_uris": {"android": "https://dc.lft.to/lastmile_qr_scan", "ios": "https://dc.lft.to/lastmile_qr_scan"}, "fusion_lon": 0.0, "lat": 38.9118055, "bike_id": "4ca5535a76a987e0967d0c05c0337122", "type": "electric_scooter", "is_reserved": 0, "lon": -77.06863583333333}, {"fusion_lat": 0.0, "name": "84508c49842049d93c0b3be7a955795a", "is_disabled": 0, "rental_uris": {"android": "https://dc.lft.to/lastmile_qr_scan", "ios": "https://dc.lft.to/lastmile_qr_scan"}, "fusion_lon": 0.0, "lat": 38.898992666666665, "bike_id": "84508c49842049d93c0b3be7a955795a", "type": "electric_scooter", "is_reserved": 0, "lon": -76.97620566666667}, {"fusion_lat": 0.0, "name": "74f2dcf149e808f171199d98b4d52184", "is_disabled": 0, "rental_uris": {"android": "https://dc.lft.to/lastmile_qr_scan", "ios": "https://dc.lft.to/lastmile_qr_scan"}, "fusion_lon": 0.0, "lat": 38.92261333333333, "bike_id": "74f2dcf149e808f171199d98b4d52184", "type": "electric_scooter", "is_reserved": 0, "lon": -77.01846866666666}, {"fusion_lat": 0.0, "name": "9ee104b29d1260dd53ab7c9f0554f94c", "is_disabled": 0, "rental_uris": {"android": "https://dc.lft.to/lastmile_qr_scan", "ios": "https://dc.lft.to/lastmile_qr_scan"}, "fusion_lon": 0.0, "lat": 38.937304833333336, "bike_id": "9ee104b29d1260dd53ab7c9f0554f94c", "type": "electric_scooter", "is_reserved": 0, "lon": -77.019227}, {"fusion_lat": 0.0, "name": "efc489e839a0b91816e9c4e928602daf", "is_disabled": 0, "rental_uris": {"android": "https://dc.lft.to/lastmile_qr_scan", "ios": "https://dc.lft.to/lastmile_qr_scan"}, "fusion_lon": 0.0, "lat": 38.892222333333336, "bike_id": "efc489e839a0b91816e9c4e928602daf", "type": "electric_scooter", "is_reserved": 0, "lon": -77.04863416666667}, {"fusion_lat": 0.0, "name": "e5e297135818b4058254a355ca61195a", "is_disabled": 0, "rental_uris": {"android": "https://dc.lft.to/lastmile_qr_scan", "ios": "https://dc.lft.to/lastmile_qr_scan"}, "fusion_lon": 0.0, "lat": 38.93522733333333, "bike_id": "e5e297135818b4058254a355ca61195a", "type": "electric_scooter", "is_reserved": 0, "lon": -77.07298583333333}, {"fusion_lat": 0.0, "name": "e5b6e6ef414fadd3eb2f0e5fa7f64b69", "is_disabled": 0, "rental_uris": {"android": "https://dc.lft.to/lastmile_qr_scan", "ios": "https://dc.lft.to/lastmile_qr_scan"}, "fusion_lon": 0.0, "lat": 38.91223083333333, "bike_id": "e5b6e6ef414fadd3eb2f0e5fa7f64b69", "type": "electric_scooter", "is_reserved": 0, "lon": -77.04479483333333}, {"fusion_lat": 0.0, "name": "df362ac980eb857a86cdfd3429e24d4d", "is_disabled": 0, "rental_uris": {"android": "https://dc.lft.to/lastmile_qr_scan", "ios": "https://dc.lft.to/lastmile_qr_scan"}, "fusion_lon": 0.0, "lat": 38.90158016666667, "bike_id": "df362ac980eb857a86cdfd3429e24d4d", "type": "electric_scooter", "is_reserved": 0, "lon": -77.02029266666666}, {"fusion_lat": 0.0, "name": "b29060dde72ec6d1ecd4fbcb3472e261", "is_disabled": 0, "rental_uris": {"android": "https://dc.lft.to/lastmile_qr_scan", "ios": "https://dc.lft.to/lastmile_qr_scan"}, "fusion_lon": 0.0, "lat": 38.91786916666667, "bike_id": "b29060dde72ec6d1ecd4fbcb3472e261", "type": "electric_scooter", "is_reserved": 0, "lon": -77.02310583333333}, {"fusion_lat": 0.0, "name": "80c32fbcf47f73fd1d5c8908bcda55d9", "is_disabled": 0, "rental_uris": {"android": "https://dc.lft.to/lastmile_qr_scan", "ios": "https://dc.lft.to/lastmile_qr_scan"}, "fusion_lon": 0.0, "lat": 38.883925166666664, "bike_id": "80c32fbcf47f73fd1d5c8908bcda55d9", "type": "electric_scooter", "is_reserved": 0, "lon": -76.93060266666667}, {"fusion_lat": 0.0, "name": "1a3b2877e0bafd6dee7939124db29db2", "is_disabled": 0, "rental_uris": {"android": "https://dc.lft.to/lastmile_qr_scan", "ios": "https://dc.lft.to/lastmile_qr_scan"}, "fusion_lon": 0.0, "lat": 38.92152333333333, "bike_id": "1a3b2877e0bafd6dee7939124db29db2", "type": "electric_scooter", "is_reserved": 0, "lon": -77.0386925}, {"fusion_lat": 0.0, "name": "4ec5a787ab7c6a2efda4583ebc678099", "is_disabled": 0, "rental_uris": {"android": "https://dc.lft.to/lastmile_qr_scan", "ios": "https://dc.lft.to/lastmile_qr_scan"}, "fusion_lon": 0.0, "lat": 38.91693566666667, "bike_id": "4ec5a787ab7c6a2efda4583ebc678099", "type": "electric_scooter", "is_reserved": 0, "lon": -77.0259795}, {"fusion_lat": 0.0, "name": "1a3d094908da670482e04104f67fbebf", "is_disabled": 0, "rental_uris": {"android": "https://dc.lft.to/lastmile_qr_scan", "ios": "https://dc.lft.to/lastmile_qr_scan"}, "fusion_lon": 0.0, "lat": 38.933906666666665, "bike_id": "1a3d094908da670482e04104f67fbebf", "type": "electric_scooter", "is_reserved": 0, "lon": -77.02852}, {"fusion_lat": 0.0, "name": "ee14853fea38ee9dc7e8ce3772a0ca24", "is_disabled": 0, "rental_uris": {"android": "https://dc.lft.to/lastmile_qr_scan", "ios": "https://dc.lft.to/lastmile_qr_scan"}, "fusion_lon": 0.0, "lat": 38.9408505, "bike_id": "ee14853fea38ee9dc7e8ce3772a0ca24", "type": "electric_scooter", "is_reserved": 0, "lon": -77.06179933333334}, {"fusion_lat": 0.0, "name": "388022893034117a3a263852a3cb2d8b", "is_disabled": 0, "rental_uris": {"android": "https://dc.lft.to/lastmile_qr_scan", "ios": "https://dc.lft.to/lastmile_qr_scan"}, "fusion_lon": 0.0, "lat": 38.93358883333333, "bike_id": "388022893034117a3a263852a3cb2d8b", "type": "electric_scooter", "is_reserved": 0, "lon": -77.034324}, {"fusion_lat": 0.0, "name": "ff2f89f8e6fadc763d61d6519928ba7f", "is_disabled": 0, "rental_uris": {"android": "https://dc.lft.to/lastmile_qr_scan", "ios": "https://dc.lft.to/lastmile_qr_scan"}, "fusion_lon": 0.0, "lat": 38.857694333333335, "bike_id": "ff2f89f8e6fadc763d61d6519928ba7f", "type": "electric_bike", "is_reserved": 0, "lon": -76.98766116666667}, {"fusion_lat": 0.0, "name": "712bdeaa63a06f18a816c889c9b1772e", "is_disabled": 0, "rental_uris": {"android": "https://dc.lft.to/lastmile_qr_scan", "ios": "https://dc.lft.to/lastmile_qr_scan"}, "fusion_lon": 0.0, "lat": 38.903714, "bike_id": "712bdeaa63a06f18a816c889c9b1772e", "type": "electric_scooter", "is_reserved": 0, "lon": -77.01636916666666}, {"fusion_lat": 0.0, "name": "1b3dba51c3a64fb8eb03bdc393443840", "is_disabled": 0, "rental_uris": {"android": "https://dc.lft.to/lastmile_qr_scan", "ios": "https://dc.lft.to/lastmile_qr_scan"}, "fusion_lon": 0.0, "lat": 38.87909066666667, "bike_id": "1b3dba51c3a64fb8eb03bdc393443840", "type": "electric_scooter", "is_reserved": 0, "lon": -77.00892233333333}, {"fusion_lat": 0.0, "name": "56b93f444ed50c574ade7277e2a15a6c", "is_disabled": 0, "rental_uris": {"android": "https://dc.lft.to/lastmile_qr_scan", "ios": "https://dc.lft.to/lastmile_qr_scan"}, "fusion_lon": 0.0, "lat": 38.921913833333335, "bike_id": "56b93f444ed50c574ade7277e2a15a6c", "type": "electric_scooter", "is_reserved": 0, "lon": -76.99756033333334}, {"fusion_lat": 0.0, "name": "871beacb63729e4a30a77d12ae5ca3ea", "is_disabled": 0, "rental_uris": {"android": "https://dc.lft.to/lastmile_qr_scan", "ios": "https://dc.lft.to/lastmile_qr_scan"}, "fusion_lon": 0.0, "lat": 38.92862683333333, "bike_id": "871beacb63729e4a30a77d12ae5ca3ea", "type": "electric_scooter", "is_reserved": 0, "lon": -77.03499316666667}, {"fusion_lat": 0.0, "name": "f23714cf2c670ae2e9806ed72d545736", "is_disabled": 0, "rental_uris": {"android": "https://dc.lft.to/lastmile_qr_scan", "ios": "https://dc.lft.to/lastmile_qr_scan"}, "fusion_lon": 0.0, "lat": 38.89879783333333, "bike_id": "f23714cf2c670ae2e9806ed72d545736", "type": "electric_scooter", "is_reserved": 0, "lon": -76.9318635}, {"fusion_lat": 0.0, "name": "1ba1fbd29faf8432268f21fab5eae31a", "is_disabled": 0, "rental_uris": {"android": "https://dc.lft.to/lastmile_qr_scan", "ios": "https://dc.lft.to/lastmile_qr_scan"}, "fusion_lon": 0.0, "lat": 38.9317945, "bike_id": "1ba1fbd29faf8432268f21fab5eae31a", "type": "electric_scooter", "is_reserved": 0, "lon": -77.04301266666667}, {"fusion_lat": 0.0, "name": "ef11c13bdc3c40e3984cb0d8b238ce67", "is_disabled": 0, "rental_uris": {"android": "https://dc.lft.to/lastmile_qr_scan", "ios": "https://dc.lft.to/lastmile_qr_scan"}, "fusion_lon": 0.0, "lat": 38.90972083333333, "bike_id": "ef11c13bdc3c40e3984cb0d8b238ce67", "type": "electric_scooter", "is_reserved": 0, "lon": -77.03331966666667}, {"fusion_lat": 0.0, "name": "731caee1d078b50ad05b3b1eae7a2d70", "is_disabled": 0, "rental_uris": {"android": "https://dc.lft.to/lastmile_qr_scan", "ios": "https://dc.lft.to/lastmile_qr_scan"}, "fusion_lon": 0.0, "lat": 38.923822333333334, "bike_id": "731caee1d078b50ad05b3b1eae7a2d70", "type": "electric_scooter", "is_reserved": 0, "lon": -77.02880516666667}, {"fusion_lat": 0.0, "name": "25ae1241276cb66c236a64ad763e2b11", "is_disabled": 0, "rental_uris": {"android": "https://dc.lft.to/lastmile_qr_scan", "ios": "https://dc.lft.to/lastmile_qr_scan"}, "fusion_lon": 0.0, "lat": 38.921830666666665, "bike_id": "25ae1241276cb66c236a64ad763e2b11", "type": "electric_scooter", "is_reserved": 0, "lon": -77.02533133333333}, {"fusion_lat": 0.0, "name": "b51dc78f1848a30d61e50f09ea7367b5", "is_disabled": 0, "rental_uris": {"android": "https://dc.lft.to/lastmile_qr_scan", "ios": "https://dc.lft.to/lastmile_qr_scan"}, "fusion_lon": 0.0, "lat": 38.92856283333333, "bike_id": "b51dc78f1848a30d61e50f09ea7367b5", "type": "electric_scooter", "is_reserved": 0, "lon": -77.01404666666667}, {"fusion_lat": 0.0, "name": "70e86f75f510a9e4fd3513cbeda9a939", "is_disabled": 0, "rental_uris": {"android": "https://dc.lft.to/lastmile_qr_scan", "ios": "https://dc.lft.to/lastmile_qr_scan"}, "fusion_lon": 0.0, "lat": 38.902337833333334, "bike_id": "70e86f75f510a9e4fd3513cbeda9a939", "type": "electric_bike", "is_reserved": 0, "lon": -77.02299233333333}, {"fusion_lat": 0.0, "name": "ec39634e7af1c5bdc75c31122e59f425", "is_disabled": 0, "rental_uris": {"android": "https://dc.lft.to/lastmile_qr_scan", "ios": "https://dc.lft.to/lastmile_qr_scan"},