{"data": {"bikes": [{"bike_id": "6b223c724f71d7c29a15a3641b85144b", "fusion_lon": 0.0, "type": "electric_scooter", "name": "6b223c724f71d7c29a15a3641b85144b", "rental_uris": {"android": "https://dc.lft.to/lastmile_qr_scan", "ios": "https://dc.lft.to/lastmile_qr_scan"}, "fusion_lat": 0.0, "lat": 38.896200666666665, "is_disabled": 0, "lon": -76.99937983333334, "is_reserved": 0}, {"bike_id": "ba0b8579464494c3b575111c47a2d401", "fusion_lon": 0.0, "type": "electric_scooter", "name": "ba0b8579464494c3b575111c47a2d401", "rental_uris": {"android": "https://dc.lft.to/lastmile_qr_scan", "ios": "https://dc.lft.to/lastmile_qr_scan"}, "fusion_lat": 0.0, "lat": 38.88428616666667, "is_disabled": 0, "lon": -77.0238375, "is_reserved": 0}, {"bike_id": "23f718e2ba32330710603617debf1ffb", "fusion_lon": 0.0, "type": "electric_scooter", "name": "23f718e2ba32330710603617debf1ffb", "rental_uris": {"android": "https://dc.lft.to/lastmile_qr_scan", "ios": "https://dc.lft.to/lastmile_qr_scan"}, "fusion_lat": 0.0, "lat": 38.95842316666667, "is_disabled": 0, "lon": -77.02906166666666, "is_reserved": 0}, {"bike_id": "e8c39091625212a9aa73ada5518f5b41", "fusion_lon": 0.0, "type": "electric_bike", "name": "e8c39091625212a9aa73ada5518f5b41", "rental_uris": {"android": "https://dc.lft.to/lastmile_qr_scan", "ios": "https://dc.lft.to/lastmile_qr_scan"}, "fusion_lat": 0.0, "lat": 38.909712166666665, "is_disabled": 0, "lon": -77.088267, "is_reserved": 0}, {"bike_id": "1aa7efeb18fd211ca17fd982ddfcfe08", "fusion_lon": 0.0, "type": "electric_scooter", "name": "1aa7efeb18fd211ca17fd982ddfcfe08", "rental_uris": {"android": "https://dc.lft.to/lastmile_qr_scan", "ios": "https://dc.lft.to/lastmile_qr_scan"}, "fusion_lat": 0.0, "lat": 38.92379, "is_disabled": 0, "lon": -77.04085083333334, "is_reserved": 0}, {"bike_id": "13b61acaa80f1df16ccece36fd7695a2", "fusion_lon": 0.0, "type": "electric_scooter", "name": "13b61acaa80f1df16ccece36fd7695a2", "rental_uris": {"android": "https://dc.lft.to/lastmile_qr_scan", "ios": "https://dc.lft.to/lastmile_qr_scan"}, "fusion_lat": 0.0, "lat": 38.92444616666667, "is_disabled": 0, "lon": -77.03887283333333, "is_reserved": 0}, {"bike_id": "fca6a1e30b048f183a00f7a4e0f19245", "fusion_lon": 0.0, "type": "electric_scooter", "name": "fca6a1e30b048f183a00f7a4e0f19245", "rental_uris": {"android": "https://dc.lft.to/lastmile_qr_scan", "ios": "https://dc.lft.to/lastmile_qr_scan"}, "fusion_lat": 0.0, "lat": 38.867100666666666, "is_disabled": 0, "lon": -76.98735183333334, "is_reserved": 0}, {"bike_id": "1cefe14223f67589b1c9d87780860179", "fusion_lon": 0.0, "type": "electric_scooter", "name": "1cefe14223f67589b1c9d87780860179", "rental_uris": {"android": "https://dc.lft.to/lastmile_qr_scan", "ios": "https://dc.lft.to/lastmile_qr_scan"}, "fusion_lat": 0.0, "lat": 38.899918666666665, "is_disabled": 0, "lon": -77.01970633333333, "is_reserved": 0}, {"bike_id": "ec0fd0e54d2476f2512c972f4fb8fd36", "fusion_lon": 0.0, "type": "electric_scooter", "name": "ec0fd0e54d2476f2512c972f4fb8fd36", "rental_uris": {"android": "https://dc.lft.to/lastmile_qr_scan", "ios": "https://dc.lft.to/lastmile_qr_scan"}, "fusion_lat": 0.0, "lat": 38.92291566666667, "is_disabled": 0, "lon": -77.03645216666666, "is_reserved": 0}, {"bike_id": "cc1937714b549b6951e32c454a65e61d", "fusion_lon": 0.0, "type": "electric_scooter", "name": "cc1937714b549b6951e32c454a65e61d", "rental_uris": {"android": "https://dc.lft.to/lastmile_qr_scan", "ios": "https://dc.lft.to/lastmile_qr_scan"}, "fusion_lat": 0.0, "lat": 38.902695333333334, "is_disabled": 0, "lon": -77.03220533333334, "is_reserved": 0}, {"bike_id": "fbd7116337cbefb7140995a0aa85483a", "fusion_lon": 0.0, "type": "electric_scooter", "name": "fbd7116337cbefb7140995a0aa85483a", "rental_uris": {"android": "https://dc.lft.to/lastmile_qr_scan", "ios": "https://dc.lft.to/lastmile_qr_scan"}, "fusion_lat": 0.0, "lat": 38.909478666666665, "is_disabled": 0, "lon": -77.0320965, "is_reserved": 0}, {"bike_id": "cb48a7c24c9f1cea66386cfcc8a1c1eb", "fusion_lon": 0.0, "type": "electric_scooter", "name": "cb48a7c24c9f1cea66386cfcc8a1c1eb", "rental_uris": {"android": "https://dc.lft.to/lastmile_qr_scan", "ios": "https://dc.lft.to/lastmile_qr_scan"}, "fusion_lat": 0.0, "lat": 38.91495666666667, "is_disabled": 0, "lon": -77.01211266666667, "is_reserved": 0}, {"bike_id": "827ffe4dd4d651f6092b9309da0acd40", "fusion_lon": 0.0, "type": "electric_bike", "name": "827ffe4dd4d651f6092b9309da0acd40", "rental_uris": {"android": "https://dc.lft.to/lastmile_qr_scan", "ios": "https://dc.lft.to/lastmile_qr_scan"}, "fusion_lat": 0.0, "lat": 38.953223666666666, "is_disabled": 0, "lon": -76.95442083333333, "is_reserved": 0}, {"bike_id": "9efc760ce554ab76b89d4998a440118e", "fusion_lon": 0.0, "type": "electric_scooter", "name": "9efc760ce554ab76b89d4998a440118e", "rental_uris": {"android": "https://dc.lft.to/lastmile_qr_scan", "ios": "https://dc.lft.to/lastmile_qr_scan"}, "fusion_lat": 0.0, "lat": 38.900198, "is_disabled": 0, "lon": -77.00165416666667, "is_reserved": 0}, {"bike_id": "3d61684daccf9c30c18d1714f2cf3330", "fusion_lon": 0.0, "type": "electric_scooter", "name": "3d61684daccf9c30c18d1714f2cf3330", "rental_uris": {"android": "https://dc.lft.to/lastmile_qr_scan", "ios": "https://dc.lft.to/lastmile_qr_scan"}, "fusion_lat": 0.0, "lat": 38.909184333333336, "is_disabled": 0, "lon": -77.07279883333334, "is_reserved": 0}, {"bike_id": "ffecffe4dca668f633b41a47f3fed7f7", "fusion_lon": 0.0, "type": "electric_scooter", "name": "ffecffe4dca668f633b41a47f3fed7f7", "rental_uris": {"android": "https://dc.lft.to/lastmile_qr_scan", "ios": "https://dc.lft.to/lastmile_qr_scan"}, "fusion_lat": 0.0, "lat": 38.88738683333333, "is_disabled": 0, "lon": -77.023195, "is_reserved": 0}, {"bike_id": "0f9db970eb6cb7a23e109efd33e12e12", "fusion_lon": 0.0, "type": "electric_scooter", "name": "0f9db970eb6cb7a23e109efd33e12e12", "rental_uris": {"android": "https://dc.lft.to/lastmile_qr_scan", "ios": "https://dc.lft.to/lastmile_qr_scan"}, "fusion_lat": 0.0, "lat": 38.90019566666667, "is_disabled": 0, "lon": -77.0457715, "is_reserved": 0}, {"bike_id": "c170b46741600863f7c08872dc3b3150", "fusion_lon": 0.0, "type": "electric_scooter", "name": "c170b46741600863f7c08872dc3b3150", "rental_uris": {"android": "https://dc.lft.to/lastmile_qr_scan", "ios": "https://dc.lft.to/lastmile_qr_scan"}, "fusion_lat": 0.0, "lat": 38.899807, "is_disabled": 0, "lon": -76.99273516666666, "is_reserved": 0}, {"bike_id": "4eb784b6a52bb78242fdbd66e29a405c", "fusion_lon": 0.0, "type": "electric_scooter", "name": "4eb784b6a52bb78242fdbd66e29a405c", "rental_uris": {"android": "https://dc.lft.to/lastmile_qr_scan", "ios": "https://dc.lft.to/lastmile_qr_scan"}, "fusion_lat": 0.0, "lat": 38.92460483333333, "is_disabled": 0, "lon": -77.0296535, "is_reserved": 0}, {"bike_id": "473dfc7f651e424898fe07d777a2661b", "fusion_lon": 0.0, "type": "electric_scooter", "name": "473dfc7f651e424898fe07d777a2661b", "rental_uris": {"android": "https://dc.lft.to/lastmile_qr_scan", "ios": "https://dc.lft.to/lastmile_qr_scan"}, "fusion_lat": 0.0, "lat": 38.931452, "is_disabled": 0, "lon": -77.078501, "is_reserved": 0}, {"bike_id": "e97fb6028c279314139bc6911d979702", "fusion_lon": 0.0, "type": "electric_scooter", "name": "e97fb6028c279314139bc6911d979702", "rental_uris": {"android": "https://dc.lft.to/lastmile_qr_scan", "ios": "https://dc.lft.to/lastmile_qr_scan"}, "fusion_lat": 0.0, "lat": 38.898658, "is_disabled": 0, "lon": -76.94668216666666, "is_reserved": 0}, {"bike_id": "2004e936e3e0f8fda42d5ea525eb2909", "fusion_lon": 0.0, "type": "electric_scooter", "name": "2004e936e3e0f8fda42d5ea525eb2909", "rental_uris": {"android": "https://dc.lft.to/lastmile_qr_scan", "ios": "https://dc.lft.to/lastmile_qr_scan"}, "fusion_lat": 0.0, "lat": 38.9142015, "is_disabled": 0, "lon": -77.00209666666667, "is_reserved": 0}, {"bike_id": "b7e2c3c7db49b24d6b01472e7d811527", "fusion_lon": 0.0, "type": "electric_scooter", "name": "b7e2c3c7db49b24d6b01472e7d811527", "rental_uris": {"android": "https://dc.lft.to/lastmile_qr_scan", "ios": "https://dc.lft.to/lastmile_qr_scan"}, "fusion_lat": 0.0, "lat": 38.90813466666667, "is_disabled": 0, "lon": -77.0394745, "is_reserved": 0}, {"bike_id": "02be54228ca8b5edf32711f7d11af6e3", "fusion_lon": 0.0, "type": "electric_scooter", "name": "02be54228ca8b5edf32711f7d11af6e3", "rental_uris": {"android": "https://dc.lft.to/lastmile_qr_scan", "ios": "https://dc.lft.to/lastmile_qr_scan"}, "fusion_lat": 0.0, "lat": 38.89602816666667, "is_disabled": 0, "lon": -77.0116465, "is_reserved": 0}, {"bike_id": "e0d1b0c8cd5dcde398a00837d7a88db1", "fusion_lon": 0.0, "type": "electric_scooter", "name": "e0d1b0c8cd5dcde398a00837d7a88db1", "rental_uris": {"android": "https://dc.lft.to/lastmile_qr_scan", "ios": "https://dc.lft.to/lastmile_qr_scan"}, "fusion_lat": 0.0, "lat": 38.921351, "is_disabled": 0, "lon": -77.04686216666667, "is_reserved": 0}, {"bike_id": "3163e326af23ebdd14ce973fe0a50d19", "fusion_lon": 0.0, "type": "electric_scooter", "name": "3163e326af23ebdd14ce973fe0a50d19", "rental_uris": {"android": "https://dc.lft.to/lastmile_qr_scan", "ios": "https://dc.lft.to/lastmile_qr_scan"}, "fusion_lat": 0.0, "lat": 38.91154866666667, "is_disabled": 0, "lon": -77.03203066666667, "is_reserved": 0}, {"bike_id": "9fcc2f94ca68bad1c5e26d46177e5e1b", "fusion_lon": 0.0, "type": "electric_scooter", "name": "9fcc2f94ca68bad1c5e26d46177e5e1b", "rental_uris": {"android": "https://dc.lft.to/lastmile_qr_scan", "ios": "https://dc.lft.to/lastmile_qr_scan"}, "fusion_lat": 0.0, "lat": 38.906419666666665, "is_disabled": 0, "lon": -77.02498883333334, "is_reserved": 0}, {"bike_id": "c9eb2cc4676137e81566738a9cffe1b7", "fusion_lon": 0.0, "type": "electric_scooter", "name": "c9eb2cc4676137e81566738a9cffe1b7", "rental_uris": {"android": "https://dc.lft.to/lastmile_qr_scan", "ios": "https://dc.lft.to/lastmile_qr_scan"}, "fusion_lat": 0.0, "lat": 38.905777666666665, "is_disabled": 0, "lon": -77.051336, "is_reserved": 0}, {"bike_id": "d0e033da0acb5fe7af02f96677e60d5e", "fusion_lon": 0.0, "type": "electric_scooter", "name": "d0e033da0acb5fe7af02f96677e60d5e", "rental_uris": {"android": "https://dc.lft.to/lastmile_qr_scan", "ios": "https://dc.lft.to/lastmile_qr_scan"}, "fusion_lat": 0.0, "lat": 38.903790666666666, "is_disabled": 0, "lon": -77.01640916666666, "is_reserved": 0}, {"bike_id": "7e1400886c8bc6962dc92401c702464a", "fusion_lon": 0.0, "type": "electric_scooter", "name": "7e1400886c8bc6962dc92401c702464a", "rental_uris": {"android": "https://dc.lft.to/lastmile_qr_scan", "ios": "https://dc.lft.to/lastmile_qr_scan"}, "fusion_lat": 0.0, "lat": 38.905088666666664, "is_disabled": 0, "lon": -77.04065083333333, "is_reserved": 0}, {"bike_id": "0b3a0e9506958ce67072e38b17b65943", "fusion_lon": 0.0, "type": "electric_scooter", "name": "0b3a0e9506958ce67072e38b17b65943", "rental_uris": {"android": "https://dc.lft.to/lastmile_qr_scan", "ios": "https://dc.lft.to/lastmile_qr_scan"}, "fusion_lat": 0.0, "lat": 38.901710333333334, "is_disabled": 0, "lon": -77.02224983333333, "is_reserved": 0}, {"bike_id": "22e5989ec04f14f492cf0563d33fadd8", "fusion_lon": 0.0, "type": "electric_scooter", "name": "22e5989ec04f14f492cf0563d33fadd8", "rental_uris": {"android": "https://dc.lft.to/lastmile_qr_scan", "ios": "https://dc.lft.to/lastmile_qr_scan"}, "fusion_lat": 0.0, "lat": 38.894822, "is_disabled": 0, "lon": -76.99520483333333, "is_reserved": 0}, {"bike_id": "58bd6656958fda1db4a1bdcafb25759b", "fusion_lon": 0.0, "type": "electric_bike", "name": "58bd6656958fda1db4a1bdcafb25759b", "rental_uris": {"android": "https://dc.lft.to/lastmile_qr_scan", "ios": "https://dc.lft.to/lastmile_qr_scan"}, "fusion_lat": 0.0, "lat": 38.852165166666666, "is_disabled": 0, "lon": -77.12962316666666, "is_reserved": 0}, {"bike_id": "acf3e30a839b2d1f9bf3a11af6768af4", "fusion_lon": 0.0, "type": "electric_scooter", "name": "acf3e30a839b2d1f9bf3a11af6768af4", "rental_uris": {"android": "https://dc.lft.to/lastmile_qr_scan", "ios": "https://dc.lft.to/lastmile_qr_scan"}, "fusion_lat": 0.0, "lat": 38.91318366666667, "is_disabled": 0, "lon": -77.0454395, "is_reserved": 0}, {"bike_id": "6e974b6936ff8f28ca069b115224a96c", "fusion_lon": 0.0, "type": "electric_scooter", "name": "6e974b6936ff8f28ca069b115224a96c", "rental_uris": {"android": "https://dc.lft.to/lastmile_qr_scan", "ios": "https://dc.lft.to/lastmile_qr_scan"}, "fusion_lat": 0.0, "lat": 38.915434833333336, "is_disabled": 0, "lon": -77.034629, "is_reserved": 0}, {"bike_id": "71fb49df18ffe8019f674858ed9bb94d", "fusion_lon": 0.0, "type": "electric_scooter", "name": "71fb49df18ffe8019f674858ed9bb94d", "rental_uris": {"android": "https://dc.lft.to/lastmile_qr_scan", "ios": "https://dc.lft.to/lastmile_qr_scan"}, "fusion_lat": 0.0, "lat": 38.92481166666666, "is_disabled": 0, "lon": -77.02792616666666, "is_reserved": 0}, {"bike_id": "b31390e9e3ac14ea7751878422201bf1", "fusion_lon": 0.0, "type": "electric_scooter", "name": "b31390e9e3ac14ea7751878422201bf1", "rental_uris": {"android": "https://dc.lft.to/lastmile_qr_scan", "ios": "https://dc.lft.to/lastmile_qr_scan"}, "fusion_lat": 0.0, "lat": 38.9056345, "is_disabled": 0, "lon": -77.006128, "is_reserved": 0}, {"bike_id": "eaa97094bb7d991ea9d0a53b96d2d3c7", "fusion_lon": 0.0, "type": "electric_scooter", "name": "eaa97094bb7d991ea9d0a53b96d2d3c7", "rental_uris": {"android": "https://dc.lft.to/lastmile_qr_scan", "ios": "https://dc.lft.to/lastmile_qr_scan"}, "fusion_lat": 0.0, "lat": 38.955633166666665, "is_disabled": 0, "lon": -77.006361, "is_reserved": 0}, {"bike_id": "9b03fe437cdac83af55b292862a1080b", "fusion_lon": 0.0, "type": "electric_scooter", "name": "9b03fe437cdac83af55b292862a1080b", "rental_uris": {"android": "https://dc.lft.to/lastmile_qr_scan", "ios": "https://dc.lft.to/lastmile_qr_scan"}, "fusion_lat": 0.0, "lat": 38.94132283333333, "is_disabled": 0, "lon": -77.09206283333333, "is_reserved": 0}, {"bike_id": "6b4d8621ef5f42fb2d2a9163e1712a05", "fusion_lon": 0.0, "type": "electric_bike", "name": "6b4d8621ef5f42fb2d2a9163e1712a05", "rental_uris": {"android": "https://dc.lft.to/lastmile_qr_scan", "ios": "https://dc.lft.to/lastmile_qr_scan"}, "fusion_lat": 0.0, "lat": 38.8659335, "is_disabled": 0, "lon": -76.93233283333333, "is_reserved": 0}, {"bike_id": "47b0b256158b5aa062b77e188abc6833", "fusion_lon": 0.0, "type": "electric_scooter", "name": "47b0b256158b5aa062b77e188abc6833", "rental_uris": {"android": "https://dc.lft.to/lastmile_qr_scan", "ios": "https://dc.lft.to/lastmile_qr_scan"}, "fusion_lat": 0.0, "lat": 38.90069716666667, "is_disabled": 0, "lon": -77.002112, "is_reserved": 0}, {"bike_id": "708ffdcb39a8447699318c8b39ac4f75", "fusion_lon": 0.0, "type": "electric_scooter", "name": "708ffdcb39a8447699318c8b39ac4f75", "rental_uris": {"android": "https://dc.lft.to/lastmile_qr_scan", "ios": "https://dc.lft.to/lastmile_qr_scan"}, "fusion_lat": 0.0, "lat": 38.917499666666664, "is_disabled": 0, "lon": -77.024915, "is_reserved": 0}, {"bike_id": "3c7b9d2c772575eef8dd98f5e4dc865a", "fusion_lon": 0.0, "type": "electric_scooter", "name": "3c7b9d2c772575eef8dd98f5e4dc865a", "rental_uris": {"android": "https://dc.lft.to/lastmile_qr_scan", "ios": "https://dc.lft.to/lastmile_qr_scan"}, "fusion_lat": 0.0, "lat": 38.90477633333333, "is_disabled": 0, "lon": -76.97323666666666, "is_reserved": 0}, {"bike_id": "9903338db4d3ebcd0ee8215044216a63", "fusion_lon": 0.0, "type": "electric_bike", "name": "9903338db4d3ebcd0ee8215044216a63", "rental_uris": {"android": "https://dc.lft.to/lastmile_qr_scan", "ios": "https://dc.lft.to/lastmile_qr_scan"}, "fusion_lat": 0.0, "lat": 38.963034, "is_disabled": 0, "lon": -77.011081, "is_reserved": 0}, {"bike_id": "75b3fe47114310719c0aa2583b33fe2e", "fusion_lon": 0.0, "type": "electric_scooter", "name": "75b3fe47114310719c0aa2583b33fe2e", "rental_uris": {"android": "https://dc.lft.to/lastmile_qr_scan", "ios": "https://dc.lft.to/lastmile_qr_scan"}, "fusion_lat": 0.0, "lat": 38.9027245, "is_disabled": 0, "lon": -77.03469116666666, "is_reserved": 0}, {"bike_id": "a93e112508a9246ff685eb763b87f54c", "fusion_lon": 0.0, "type": "electric_scooter", "name": "a93e112508a9246ff685eb763b87f54c", "rental_uris": {"android": "https://dc.lft.to/lastmile_qr_scan", "ios": "https://dc.lft.to/lastmile_qr_scan"}, "fusion_lat": 0.0, "lat": 38.91820083333333, "is_disabled": 0, "lon": -77.04002516666667, "is_reserved": 0}, {"bike_id": "496809195e10eae71cd13962f48f8e96", "fusion_lon": 0.0, "type": "electric_scooter", "name": "496809195e10eae71cd13962f48f8e96", "rental_uris": {"android": "https://dc.lft.to/lastmile_qr_scan", "ios": "https://dc.lft.to/lastmile_qr_scan"}, "fusion_lat": 0.0, "lat": 38.91539866666667, "is_disabled": 0, "lon": -77.0384755, "is_reserved": 0}, {"bike_id": "6e3a4850b5bd9f5ba7db1b3aba8de92c", "fusion_lon": 0.0, "type": "electric_scooter", "name": "6e3a4850b5bd9f5ba7db1b3aba8de92c", "rental_uris": {"android": "https://dc.lft.to/lastmile_qr_scan", "ios": "https://dc.lft.to/lastmile_qr_scan"}, "fusion_lat": 0.0, "lat": 38.899914, "is_disabled": 0, "lon": -77.0290695, "is_reserved": 0}, {"bike_id": "1f501aad0eed7cfbc586cda0001d11c8", "fusion_lon": 0.0, "type": "electric_scooter", "name": "1f501aad0eed7cfbc586cda0001d11c8", "rental_uris": {"android": "https://dc.lft.to/lastmile_qr_scan", "ios": "https://dc.lft.to/lastmile_qr_scan"}, "fusion_lat": 0.0, "lat": 38.87693016666667, "is_disabled": 0, "lon": -77.01740833333334, "is_reserved": 0}, {"bike_id": "b83f2c7be88473c30be72d9bc43c580e", "fusion_lon": 0.0, "type": "electric_bike", "name": "b83f2c7be88473c30be72d9bc43c580e", "rental_uris": {"android": "https://dc.lft.to/lastmile_qr_scan", "ios": "https://dc.lft.to/lastmile_qr_scan"}, "fusion_lat": 0.0, "lat": 38.891804666666665, "is_disabled": 0, "lon": -76.95031683333333, "is_reserved": 0}, {"bike_id": "f44b71202e5fa6212aa3be61bb81d23e", "fusion_lon": 0.0, "type": "electric_scooter", "name": "f44b71202e5fa6212aa3be61bb81d23e", "rental_uris": {"android": "https://dc.lft.to/lastmile_qr_scan", "ios": "https://dc.lft.to/lastmile_qr_scan"}, "fusion_lat": 0.0, "lat": 38.90482316666667, "is_disabled": 0, "lon": -76.9869325, "is_reserved": 0}, {"bike_id": "c45f352a13178ad0707c1254d94c35d6", "fusion_lon": 0.0, "type": "electric_scooter", "name": "c45f352a13178ad0707c1254d94c35d6", "rental_uris": {"android": "https://dc.lft.to/lastmile_qr_scan", "ios": "https://dc.lft.to/lastmile_qr_scan"}, "fusion_lat": 0.0, "lat": 38.90409283333334, "is_disabled": 0, "lon": -77.00139016666667, "is_reserved": 0}, {"bike_id": "7c8cea9d76627c1bb3a8140bd371d7b6", "fusion_lon": 0.0, "type": "electric_scooter", "name": "7c8cea9d76627c1bb3a8140bd371d7b6", "rental_uris": {"android": "https://dc.lft.to/lastmile_qr_scan", "ios": "https://dc.lft.to/lastmile_qr_scan"}, "fusion_lat": 0.0, "lat": 38.92085133333333, "is_disabled": 0, "lon": -77.07566, "is_reserved": 0}, {"bike_id": "34ee04f72d9df59e0baa9bd9ddc393fb", "fusion_lon": 0.0, "type": "electric_bike", "name": "34ee04f72d9df59e0baa9bd9ddc393fb", "rental_uris": {"android": "https://dc.lft.to/lastmile_qr_scan", "ios": "https://dc.lft.to/lastmile_qr_scan"}, "fusion_lat": 0.0, "lat": 38.891881, "is_disabled": 0, "lon": -77.12266733333334, "is_reserved": 0}, {"bike_id": "94d33d333d68806b3514fd731cfacb9b", "fusion_lon": 0.0, "type": "electric_scooter", "name": "94d33d333d68806b3514fd731cfacb9b", "rental_uris": {"android": "https://dc.lft.to/lastmile_qr_scan", "ios": "https://dc.lft.to/lastmile_qr_scan"}, "fusion_lat": 0.0, "lat": 38.87915483333333, "is_disabled": 0, "lon": -76.99163533333333, "is_reserved": 0}, {"bike_id": "49bf2662252f781df23c6f2cf6098a00", "fusion_lon": 0.0, "type": "electric_bike", "name": "49bf2662252f781df23c6f2cf6098a00", "rental_uris": {"android": "https://dc.lft.to/lastmile_qr_scan", "ios": "https://dc.lft.to/lastmile_qr_scan"}, "fusion_lat": 0.0, "lat": 38.828736, "is_disabled": 0, "lon": -77.11227333333333, "is_reserved": 0}, {"bike_id": "56618f7d417353458e534abd193f02b0", "fusion_lon": 0.0, "type": "electric_bike", "name": "56618f7d417353458e534abd193f02b0", "rental_uris": {"android": "https://dc.lft.to/lastmile_qr_scan", "ios": "https://dc.lft.to/lastmile_qr_scan"}, "fusion_lat": 0.0, "lat": 38.955473833333336, "is_disabled": 0, "lon": -76.93539916666667, "is_reserved": 0}, {"bike_id": "0368bace1d79dc68f19326ab1323f429", "fusion_lon": 0.0, "type": "electric_scooter", "name": "0368bace1d79dc68f19326ab1323f429", "rental_uris": {"android": "https://dc.lft.to/lastmile_qr_scan", "ios": "https://dc.lft.to/lastmile_qr_scan"}, "fusion_lat": 0.0, "lat": 38.957213333333335, "is_disabled": 0, "lon": -77.03572516666667, "is_reserved": 0}, {"bike_id": "6e31403f43d51018e2ce3096519687bc", "fusion_lon": 0.0, "type": "electric_scooter", "name": "6e31403f43d51018e2ce3096519687bc", "rental_uris": {"android": "https://dc.lft.to/lastmile_qr_scan", "ios": "https://dc.lft.to/lastmile_qr_scan"}, "fusion_lat": 0.0, "lat": 38.902531833333335, "is_disabled": 0, "lon": -77.047711, "is_reserved": 0}, {"bike_id": "004243e3024d2095bf8dd084d2c01f91", "fusion_lon": 0.0, "type": "electric_scooter", "name": "004243e3024d2095bf8dd084d2c01f91", "rental_uris": {"android": "https://dc.lft.to/lastmile_qr_scan", "ios": "https://dc.lft.to/lastmile_qr_scan"}, "fusion_lat": 0.0, "lat": 38.905546333333334, "is_disabled": 0, "lon": -77.01099366666666, "is_reserved": 0}, {"bike_id": "e6b9dee4529caa096f20bf249cc5d74e", "fusion_lon": 0.0, "type": "electric_scooter", "name": "e6b9dee4529caa096f20bf249cc5d74e", "rental_uris": {"android": "https://dc.lft.to/lastmile_qr_scan", "ios": "https://dc.lft.to/lastmile_qr_scan"}, "fusion_lat": 0.0, "lat": 38.89223166666667, "is_disabled": 0, "lon": -77.04870316666667, "is_reserved": 0}, {"bike_id": "1a0646bdec7cba490541a7bd073451f4", "fusion_lon": 0.0, "type": "electric_bike", "name": "1a0646bdec7cba490541a7bd073451f4", "rental_uris": {"android": "https://dc.lft.to/lastmile_qr_scan", "ios": "https://dc.lft.to/lastmile_qr_scan"}, "fusion_lat": 0.0, "lat": 38.831916, "is_disabled": 0, "lon": -77.07690683333334, "is_reserved": 0}, {"bike_id": "c2987981096aedd0c934032656ea49a2", "fusion_lon": 0.0, "type": "electric_scooter", "name": "c2987981096aedd0c934032656ea49a2", "rental_uris": {"android": "https://dc.lft.to/lastmile_qr_scan", "ios": "https://dc.lft.to/lastmile_qr_scan"}, "fusion_lat": 0.0, "lat": 38.90279, "is_disabled": 0, "lon": -77.03481933333333, "is_reserved": 0}, {"bike_id": "55563abfc2a91ec5a06919b045510f0c", "fusion_lon": 0.0, "type": "electric_scooter", "name": "55563abfc2a91ec5a06919b045510f0c", "rental_uris": {"android": "https://dc.lft.to/lastmile_qr_scan", "ios": "https://dc.lft.to/lastmile_qr_scan"}, "fusion_lat": 0.0, "lat": 38.95610466666667, "is_disabled": 0, "lon": -77.02818033333334, "is_reserved": 0}, {"bike_id": "7279165d530d1e32f3b9dc175da85bf1", "fusion_lon": 0.0, "type": "electric_bike", "name": "7279165d530d1e32f3b9dc175da85bf1", "rental_uris": {"android": "https://dc.lft.to/lastmile_qr_scan", "ios": "https://dc.lft.to/lastmile_qr_scan"}, "fusion_lat": 0.0, "lat": 38.944287333333335, "is_disabled": 0, "lon": -76.98740233333334, "is_reserved": 0}, {"bike_id": "17ed3f20ec8e9823f21ede7b4de8fc96", "fusion_lon": 0.0, "type": "electric_scooter", "name": "17ed3f20ec8e9823f21ede7b4de8fc96", "rental_uris": {"android": "https://dc.lft.to/lastmile_qr_scan", "ios": "https://dc.lft.to/lastmile_qr_scan"}, "fusion_lat": 0.0, "lat": 38.92415966666667, "is_disabled": 0, "lon": -77.05646466666667, "is_reserved": 0}, {"bike_id": "14b1d883d37cc5fde43e49f07742bb12", "fusion_lon": 0.0, "type": "electric_scooter", "name": "14b1d883d37cc5fde43e49f07742bb12", "rental_uris": {"android": "https://dc.lft.to/lastmile_qr_scan", "ios": "https://dc.lft.to/lastmile_qr_scan"}, "fusion_lat": 0.0, "lat": 38.90366983333333, "is_disabled": 0, "lon": -77.067569, "is_reserved": 0}, {"bike_id": "9c7faa309785dd24d91bd9b098aa162d", "fusion_lon": 0.0, "type": "electric_scooter", "name": "9c7faa309785dd24d91bd9b098aa162d", "rental_uris": {"android": "https://dc.lft.to/lastmile_qr_scan", "ios": "https://dc.lft.to/lastmile_qr_scan"}, "fusion_lat": 0.0, "lat": 38.912609833333335, "is_disabled": 0, "lon": -77.04554083333333, "is_reserved": 0}, {"bike_id": "6ffb44198a251bdf999a86d8f67f1f84", "fusion_lon": 0.0, "type": "electric_scooter", "name": "6ffb44198a251bdf999a86d8f67f1f84", "rental_uris": {"android": "https://dc.lft.to/lastmile_qr_scan", "ios": "https://dc.lft.to/lastmile_qr_scan"}, "fusion_lat": 0.0, "lat": 38.90216783333334, "is_disabled": 0, "lon": -77.04781566666666, "is_reserved": 0}, {"bike_id": "4513584cc19b3fcc4d694e166cf5d92d", "fusion_lon": 0.0, "type": "electric_scooter", "name": "4513584cc19b3fcc4d694e166cf5d92d", "rental_uris": {"android": "https://dc.lft.to/lastmile_qr_scan", "ios": "https://dc.lft.to/lastmile_qr_scan"}, "fusion_lat": 0.0, "lat": 38.901062333333336, "is_disabled": 0, "lon": -77.0487455, "is_reserved": 0}, {"bike_id": "6ddf6acde8e01c97c9c595bd0c210c0b", "fusion_lon": 0.0, "type": "electric_scooter", "name": "6ddf6acde8e01c97c9c595bd0c210c0b", "rental_uris": {"android": "https://dc.lft.to/lastmile_qr_scan", "ios": "https://dc.lft.to/lastmile_qr_scan"}, "fusion_lat": 0.0, "lat": 38.89963616666667, "is_disabled": 0, "lon": -76.93432933333334, "is_reserved": 0}, {"bike_id": "90547d94697602a166393d1fe0ab468d", "fusion_lon": 0.0, "type": "electric_scooter", "name": "90547d94697602a166393d1fe0ab468d", "rental_uris": {"android": "https://dc.lft.to/lastmile_qr_scan", "ios": "https://dc.lft.to/lastmile_qr_scan"}, "fusion_lat": 0.0, "lat": 38.908017666666666, "is_disabled": 0, "lon": -77.051476, "is_reserved": 0}, {"bike_id": "3a4615601e976f0adaf7963e3ba7ea77", "fusion_lon": 0.0, "type": "electric_scooter", "name": "3a4615601e976f0adaf7963e3ba7ea77", "rental_uris": {"android": "https://dc.lft.to/lastmile_qr_scan", "ios": "https://dc.lft.to/lastmile_qr_scan"}, "fusion_lat": 0.0, "lat": 38.93348233333333, "is_disabled": 0, "lon": -76.99440183333333, "is_reserved": 0}, {"bike_id": "02eeea28d930f014746ec2ab1187bb54", "fusion_lon": 0.0, "type": "electric_scooter", "name": "02eeea28d930f014746ec2ab1187bb54", "rental_uris": {"android": "https://dc.lft.to/lastmile_qr_scan", "ios": "https://dc.lft.to/lastmile_qr_scan"}, "fusion_lat": 0.0, "lat": 38.93666733333333, "is_disabled": 0, "lon": -77.03265383333333, "is_reserved": 0}, {"bike_id": "a392cda46662dbebd93b2b014fd3861c", "fusion_lon": 0.0, "type": "electric_scooter", "name": "a392cda46662dbebd93b2b014fd3861c", "rental_uris": {"android": "https://dc.lft.to/lastmile_qr_scan", "ios": "https://dc.lft.to/lastmile_qr_scan"}, "fusion_lat": 0.0, "lat": 38.923564666666664, "is_disabled": 0, "lon": -77.05036216666667, "is_reserved": 0}, {"bike_id": "1ece67a594c1daccb521dd02b5407d02", "fusion_lon": 0.0, "type": "electric_scooter", "name": "1ece67a594c1daccb521dd02b5407d02", "rental_uris": {"android": "https://dc.lft.to/lastmile_qr_scan", "ios": "https://dc.lft.to/lastmile_qr_scan"}, "fusion_lat": 0.0, "lat": 38.90137433333334, "is_disabled": 0, "lon": -76.99423833333333, "is_reserved": 0}, {"bike_id": "d2f1af211fbfc0fb857c5555c987a22a", "fusion_lon": 0.0, "type": "electric_scooter", "name": "d2f1af211fbfc0fb857c5555c987a22a", "rental_uris": {"android": "https://dc.lft.to/lastmile_qr_scan", "ios": "https://dc.lft.to/lastmile_qr_scan"}, "fusion_lat": 0.0, "lat": 38.91479116666667, "is_disabled": 0, "lon": -77.01461716666667, "is_reserved": 0}, {"bike_id": "f874dc6d23ee43b5f7d3663e921de980", "fusion_lon": 0.0, "type": "electric_scooter", "name": "f874dc6d23ee43b5f7d3663e921de980", "rental_uris": {"android": "https://dc.lft.to/lastmile_qr_scan", "ios": "https://dc.lft.to/lastmile_qr_scan"}, "fusion_lat": 0.0, "lat": 38.904571, "is_disabled": 0, "lon": -77.03475766666666, "is_reserved": 0}, {"bike_id": "99b89485c3619e13816785df387bd5b8", "fusion_lon": 0.0, "type": "electric_scooter", "name": "99b89485c3619e13816785df387bd5b8", "rental_uris": {"android": "https://dc.lft.to/lastmile_qr_scan", "ios": "https://dc.lft.to/lastmile_qr_scan"}, "fusion_lat": 0.0, "lat": 38.892382166666664, "is_disabled": 0, "lon": -77.02803066666667, "is_reserved": 0}, {"bike_id": "ac12635402a8efaeedd31a95488c193b", "fusion_lon": 0.0, "type": "electric_bike", "name": "ac12635402a8efaeedd31a95488c193b", "rental_uris": {"android": "https://dc.lft.to/lastmile_qr_scan", "ios": "https://dc.lft.to/lastmile_qr_scan"}, "fusion_lat": 0.0, "lat": 38.973815333333334, "is_disabled": 0, "lon": -77.06477133333334, "is_reserved": 0}, {"bike_id": "42c2b5080df9e3c8205e2115e5409545", "fusion_lon": 0.0, "type": "electric_scooter", "name": "42c2b5080df9e3c8205e2115e5409545", "rental_uris": {"android": "https://dc.lft.to/lastmile_qr_scan", "ios": "https://dc.lft.to/lastmile_qr_scan"}, "fusion_lat": 0.0, "lat": 38.902524166666666, "is_disabled": 0, "lon": -77.02658966666667, "is_reserved": 0}, {"bike_id": "6077beb843e0784c3f511fac2455d671", "fusion_lon": 0.0, "type": "electric_scooter", "name": "6077beb843e0784c3f511fac2455d671", "rental_uris": {"android": "https://dc.lft.to/lastmile_qr_scan", "ios": "https://dc.lft.to/lastmile_qr_scan"}, "fusion_lat": 0.0, "lat": 38.929873666666666, "is_disabled": 0, "lon": -77.010567, "is_reserved": 0}, {"bike_id": "6c6843082ea88299cbf962b8fe566917", "fusion_lon": 0.0, "type": "electric_scooter", "name": "6c6843082ea88299cbf962b8fe566917", "rental_uris": {"android": "https://dc.lft.to/lastmile_qr_scan", "ios": "https://dc.lft.to/lastmile_qr_scan"}, "fusion_lat": 0.0, "lat": 38.907176666666665, "is_disabled": 0, "lon": -77.02885666666667, "is_reserved": 0}, {"bike_id": "f69e1736d3f71e900643576ef3d0dda7", "fusion_lon": 0.0, "type": "electric_scooter", "name": "f69e1736d3f71e900643576ef3d0dda7", "rental_uris": {"android": "https://dc.lft.to/lastmile_qr_scan", "ios": "https://dc.lft.to/lastmile_qr_scan"}, "fusion_lat": 0.0, "lat": 38.87920116666667, "is_disabled": 0, "lon": -76.99171083333333, "is_reserved": 0}, {"bike_id": "ab2964c57e9ec9d79caf1944217905ca", "fusion_lon": 0.0, "type": "electric_scooter", "name": "ab2964c57e9ec9d79caf1944217905ca", "rental_uris": {"android": "https://dc.lft.to/lastmile_qr_scan", "ios": "https://dc.lft.to/lastmile_qr_scan"}, "fusion_lat": 0.0, "lat": 38.92065783333334, "is_disabled": 0, "lon": -77.04386683333334, "is_reserved": 0}, {"bike_id": "a739ab79b7aba7bc41ad7acec3fb7e62", "fusion_lon": 0.0, "type": "electric_scooter", "name": "a739ab79b7aba7bc41ad7acec3fb7e62", "rental_uris": {"android": "https://dc.lft.to/lastmile_qr_scan", "ios": "https://dc.lft.to/lastmile_qr_scan"}, "fusion_lat": 0.0, "lat": 38.918433, "is_disabled": 0, "lon": -76.96558066666667, "is_reserved": 0}, {"bike_id": "626de966e483bb7807cec8f67def1de2", "fusion_lon": 0.0, "type": "electric_scooter", "name": "626de966e483bb7807cec8f67def1de2", "rental_uris": {"android": "https://dc.lft.to/lastmile_qr_scan", "ios": "https://dc.lft.to/lastmile_qr_scan"}, "fusion_lat": 0.0, "lat": 38.9214645, "is_disabled": 0, "lon": -77.03388016666666, "is_reserved": 0}, {"bike_id": "0116b815f00414f36727d7b227f0be39", "fusion_lon": 0.0, "type": "electric_scooter", "name": "0116b815f00414f36727d7b227f0be39", "rental_uris": {"android": "https://dc.lft.to/lastmile_qr_scan", "ios": "https://dc.lft.to/lastmile_qr_scan"}, "fusion_lat": 0.0, "lat": 38.898380333333336, "is_disabled": 0, "lon": -77.03930933333334, "is_reserved": 0}, {"bike_id": "9b5dc6aa75bd88a965584b553e6e6971", "fusion_lon": 0.0, "type": "electric_scooter", "name": "9b5dc6aa75bd88a965584b553e6e6971", "rental_uris": {"android": "https://dc.lft.to/lastmile_qr_scan", "ios": "https://dc.lft.to/lastmile_qr_scan"}, "fusion_lat": 0.0, "lat": 38.872439166666666, "is_disabled": 0, "lon": -77.010633, "is_reserved": 0}, {"bike_id": "356f5f6337e7fd9864c4b68df9b0bd7e", "fusion_lon": 0.0, "type": "electric_scooter", "name": "356f5f6337e7fd9864c4b68df9b0bd7e", "rental_uris": {"android": "https://dc.lft.to/lastmile_qr_scan", "ios": "https://dc.lft.to/lastmile_qr_scan"}, "fusion_lat": 0.0, "lat": 38.93881183333333, "is_disabled": 0, "lon": -77.02482816666667, "is_reserved": 0}, {"bike_id": "98ac95a8a82ca456129c4c82bf45bfe1", "fusion_lon": 0.0, "type": "electric_scooter", "name": "98ac95a8a82ca456129c4c82bf45bfe1", "rental_uris": {"android": "https://dc.lft.to/lastmile_qr_scan", "ios": "https://dc.lft.to/lastmile_qr_scan"}, "fusion_lat": 0.0, "lat": 38.900285333333336, "is_disabled": 0, "lon": -76.996222, "is_reserved": 0}, {"bike_id": "b214ec787e87317a5a906181c9b75b93", "fusion_lon": 0.0, "type": "electric_scooter", "name": "b214ec787e87317a5a906181c9b75b93", "rental_uris": {"android": "https://dc.lft.to/lastmile_qr_scan", "ios": "https://dc.lft.to/lastmile_qr_scan"}, "fusion_lat": 0.0, "lat": 38.91700933333333, "is_disabled": 0, "lon": -77.00799733333334, "is_reserved": 0}, {"bike_id": "362b8c3651060f3a7eb199255da4cad1", "fusion_lon": 0.0, "type": "electric_scooter", "name": "362b8c3651060f3a7eb199255da4cad1", "rental_uris": {"android": "https://dc.lft.to/lastmile_qr_scan", "ios": "https://dc.lft.to/lastmile_qr_scan"}, "fusion_lat": 0.0, "lat": 38.91718566666667, "is_disabled": 0, "lon": -77.03863733333333, "is_reserved": 0}, {"bike_id": "7a773d13b72bbc7ce0441fcb5168cbc3", "fusion_lon": 0.0, "type": "electric_scooter", "name": "7a773d13b72bbc7ce0441fcb5168cbc3", "rental_uris": {"android": "https://dc.lft.to/lastmile_qr_scan", "ios": "https://dc.lft.to/lastmile_qr_scan"}, "fusion_lat": 0.0, "lat": 38.926437, "is_disabled": 0, "lon": -77.036982, "is_reserved": 0}, {"bike_id": "324945f04906396582ef1947a4cf9bf3", "fusion_lon": 0.0, "type": "electric_bike", "name": "324945f04906396582ef1947a4cf9bf3", "rental_uris": {"android": "https://dc.lft.to/lastmile_qr_scan", "ios": "https://dc.lft.to/lastmile_qr_scan"}, "fusion_lat": 0.0, "lat": 38.895747166666666, "is_disabled": 0, "lon": -76.97624683333333, "is_reserved": 0}, {"bike_id": "45d69c24cf691840bd2d0c881f5b64d2", "fusion_lon": 0.0, "type": "electric_scooter", "name": "45d69c24cf691840bd2d0c881f5b64d2", "rental_uris": {"android": "https://dc.lft.to/lastmile_qr_scan", "ios": "https://dc.lft.to/lastmile_qr_scan"}, "fusion_lat": 0.0, "lat": 38.92842066666667, "is_disabled": 0, "lon": -77.015942, "is_reserved": 0}, {"bike_id": "85f1495701aaf6061fca600a143994f5", "fusion_lon": 0.0, "type": "electric_scooter", "name": "85f1495701aaf6061fca600a143994f5", "rental_uris": {"android": "https://dc.lft.to/lastmile_qr_scan", "ios": "https://dc.lft.to/lastmile_qr_scan"}, "fusion_lat": 0.0, "lat": 38.92343016666667, "is_disabled": 0, "lon": -77.01901716666667, "is_reserved": 0}, {"bike_id": "1b4e2dda9bb3da3e16dfb83e914e1a33", "fusion_lon": 0.0, "type": "electric_scooter", "name": "1b4e2dda9bb3da3e16dfb83e914e1a33", "rental_uris": {"android": "https://dc.lft.to/lastmile_qr_scan", "ios": "https://dc.lft.to/lastmile_qr_scan"}, "fusion_lat": 0.0, "lat": 38.906659, "is_disabled": 0, "lon": -77.073026, "is_reserved": 0}, {"bike_id": "3af662c720771f594c122df531a35d35", "fusion_lon": 0.0, "type": "electric_scooter", "name": "3af662c720771f594c122df531a35d35", "rental_uris": {"android": "https://dc.lft.to/lastmile_qr_scan", "ios": "https://dc.lft.to/lastmile_qr_scan"}, "fusion_lat": 0.0, "lat": 38.91633366666667, "is_disabled": 0, "lon": -77.02562166666667, "is_reserved": 0}, {"bike_id": "0d5d0c35d68730963747340f598a208a", "fusion_lon": 0.0, "type": "electric_scooter", "name": "0d5d0c35d68730963747340f598a208a", "rental_uris": {"android": "https://dc.lft.to/lastmile_qr_scan", "ios": "https://dc.lft.to/lastmile_qr_scan"}, "fusion_lat": 0.0, "lat": 38.8982615, "is_disabled": 0, "lon": -76.94652483333333, "is_reserved": 0}, {"bike_id": "a53cabf3af571ec182101e99260c8f5a", "fusion_lon": 0.0, "type": "electric_scooter", "name": "a53cabf3af571ec182101e99260c8f5a", "rental_uris": {"android": "https://dc.lft.to/lastmile_qr_scan", "ios": "https://dc.lft.to/lastmile_qr_scan"}, "fusion_lat": 0.0, "lat": 38.917542833333336, "is_disabled": 0, "lon": -77.0161005, "is_reserved": 0}, {"bike_id": "a3791e3232d065687f93c5f820093733", "fusion_lon": 0.0, "type": "electric_scooter", "name": "a3791e3232d065687f93c5f820093733", "rental_uris": {"android": "https://dc.lft.to/lastmile_qr_scan", "ios": "https://dc.lft.to/lastmile_qr_scan"}, "fusion_lat": 0.0, "lat": 38.8954985, "is_disabled": 0, "lon": -77.00920316666667, "is_reserved": 0}, {"bike_id": "7e7528fb32c4754551f1dde6aae81932", "fusion_lon": 0.0, "type": "electric_scooter", "name": "7e7528fb32c4754551f1dde6aae81932", "rental_uris": {"android": "https://dc.lft.to/lastmile_qr_scan", "ios": "https://dc.lft.to/lastmile_qr_scan"}, "fusion_lat": 0.0, "lat": 38.90958933333334, "is_disabled": 0, "lon": -77.03271433333333, "is_reserved": 0}, {"bike_id": "68642bd8dbe4ac4716e206009b6da0b2", "fusion_lon": 0.0, "type": "electric_scooter", "name": "68642bd8dbe4ac4716e206009b6da0b2", "rental_uris": {"android": "https://dc.lft.to/lastmile_qr_scan", "ios": "https://dc.lft.to/lastmile_qr_scan"}, "fusion_lat": 0.0, "lat": 38.924897, "is_disabled": 0, "lon": -77.02142233333333, "is_reserved": 0}, {"bike_id": "5a8b5a228e1a66278a7b26773209646c", "fusion_lon": 0.0, "type": "electric_scooter", "name": "5a8b5a228e1a66278a7b26773209646c", "rental_uris": {"android": "https://dc.lft.to/lastmile_qr_scan", "ios": "https://dc.lft.to/lastmile_qr_scan"}, "fusion_lat": 0.0, "lat": 38.89884333333333, "is_disabled": 0, "lon": -76.98575366666667, "is_reserved": 0}, {"bike_id": "6ceb98e3fa16a81015a499d943190b64", "fusion_lon": 0.0, "type": "electric_scooter", "name": "6ceb98e3fa16a81015a499d943190b64", "rental_uris": {"android": "https://dc.lft.to/lastmile_qr_scan", "ios": "https://dc.lft.to/lastmile_qr_scan"}, "fusion_lat": 0.0, "lat": 38.912572833333336, "is_disabled": 0, "lon": -77.040976, "is_reserved": 0}, {"bike_id": "01ca13d81bd625bb8040f893594a7e2b", "fusion_lon": 0.0, "type": "electric_scooter", "name": "01ca13d81bd625bb8040f893594a7e2b", "rental_uris": {"android": "https://dc.lft.to/lastmile_qr_scan", "ios": "https://dc.lft.to/lastmile_qr_scan"}, "fusion_lat": 0.0, "lat": 38.89767116666667, "is_disabled": 0, "lon": -76.970012, "is_reserved": 0}, {"bike_id": "d54f6cc98ed41a0f364b2a57e86da8df", "fusion_lon": 0.0, "type": "electric_scooter", "name": "d54f6cc98ed41a0f364b2a57e86da8df", "rental_uris": {"android": "https://dc.lft.to/lastmile_qr_scan", "ios": "https://dc.lft.to/lastmile_qr_scan"}, "fusion_lat": 0.0, "lat": 38.9387805, "is_disabled": 0, "lon": -77.02486866666666, "is_reserved": 0}, {"bike_id": "123d1055bec496dbc39e137808b65540", "fusion_lon": 0.0, "type": "electric_bike", "name": "123d1055bec496dbc39e137808b65540", "rental_uris": {"android": "https://dc.lft.to/lastmile_qr_scan", "ios": "https://dc.lft.to/lastmile_qr_scan"}, "fusion_lat": 0.0, "lat": 38.874888166666665, "is_disabled": 0, "lon": -77.04903733333333, "is_reserved": 0}, {"bike_id": "da3c850583582e75733ec45a8b6ff74c", "fusion_lon": 0.0, "type": "electric_scooter", "name": "da3c850583582e75733ec45a8b6ff74c", "rental_uris": {"android": "https://dc.lft.to/lastmile_qr_scan", "ios": "https://dc.lft.to/lastmile_qr_scan"}, "fusion_lat": 0.0, "lat": 38.91975383333333, "is_disabled": 0, "lon": -77.03976783333333, "is_reserved": 0}, {"bike_id": "4a3d7fdf87a0da063dcfcf13bcd669d1", "fusion_lon": 0.0, "type": "electric_scooter", "name": "4a3d7fdf87a0da063dcfcf13bcd669d1", "rental_uris": {"android": "https://dc.lft.to/lastmile_qr_scan", "ios": "https://dc.lft.to/lastmile_qr_scan"}, "fusion_lat": 0.0, "lat": 38.911884, "is_disabled": 0, "lon": -77.01814733333333, "is_reserved": 0}, {"bike_id": "40f62612edceb4ccd19166b7dc16a33e", "fusion_lon": 0.0, "type": "electric_scooter", "name": "40f62612edceb4ccd19166b7dc16a33e", "rental_uris": {"android": "https://dc.lft.to/lastmile_qr_scan", "ios": "https://dc.lft.to/lastmile_qr_scan"}, "fusion_lat": 0.0, "lat": 38.900115666666665, "is_disabled": 0, "lon": -76.991255, "is_reserved": 0}, {"bike_id": "4e79708260facce9dbca4bde23dbc971", "fusion_lon": 0.0, "type": "electric_bike", "name": "4e79708260facce9dbca4bde23dbc971", "rental_uris": {"android": "https://dc.lft.to/lastmile_qr_scan", "ios": "https://dc.lft.to/lastmile_qr_scan"}, "fusion_lat": 0.0, "lat": 38.9906075, "is_disabled": 0, "lon": -77.10033933333334, "is_reserved": 0}, {"bike_id": "cc22933d1e464c78696e6018b2e3cead", "fusion_lon": 0.0, "type": "electric_scooter", "name": "cc22933d1e464c78696e6018b2e3cead", "rental_uris": {"android": "https://dc.lft.to/lastmile_qr_scan", "ios": "https://dc.lft.to/lastmile_qr_scan"}, "fusion_lat": 0.0, "lat": 38.907142666666665, "is_disabled": 0, "lon": -77.00599416666667, "is_reserved": 0}, {"bike_id": "401c67b9c9e0eaaefbe1b0d8ca136b71", "fusion_lon": 0.0, "type": "electric_scooter", "name": "401c67b9c9e0eaaefbe1b0d8ca136b71", "rental_uris": {"android": "https://dc.lft.to/lastmile_qr_scan", "ios": "https://dc.lft.to/lastmile_qr_scan"}, "fusion_lat": 0.0, "lat": 38.911690166666666, "is_disabled": 0, "lon": -77.031877, "is_reserved": 0}, {"bike_id": "1a1ed84ec58e13bc11a5bb91b9b43ac3", "fusion_lon": 0.0, "type": "electric_scooter", "name": "1a1ed84ec58e13bc11a5bb91b9b43ac3", "rental_uris": {"android": "https://dc.lft.to/lastmile_qr_scan", "ios": "https://dc.lft.to/lastmile_qr_scan"}, "fusion_lat": 0.0, "lat": 38.906923666666664, "is_disabled": 0, "lon": -77.01000883333333, "is_reserved": 0}, {"bike_id": "53845492645e7a46483faec01ff39b3d", "fusion_lon": 0.0, "type": "electric_scooter", "name": "53845492645e7a46483faec01ff39b3d", "rental_uris": {"android": "https://dc.lft.to/lastmile_qr_scan", "ios": "https://dc.lft.to/lastmile_qr_scan"}, "fusion_lat": 0.0, "lat": 38.93271166666667, "is_disabled": 0, "lon": -77.04434466666666, "is_reserved": 0}, {"bike_id": "a46f2d462e8bb9b1d22855039bf222ba", "fusion_lon": 0.0, "type": "electric_scooter", "name": "a46f2d462e8bb9b1d22855039bf222ba", "rental_uris": {"android": "https://dc.lft.to/lastmile_qr_scan", "ios": "https://dc.lft.to/lastmile_qr_scan"}, "fusion_lat": 0.0, "lat": 38.91708083333333, "is_disabled": 0, "lon": -77.03867833333334, "is_reserved": 0}, {"bike_id": "2fb41cba46aa59768a951f19dc1117a1", "fusion_lon": 0.0, "type": "electric_scooter", "name": "2fb41cba46aa59768a951f19dc1117a1", "rental_uris": {"android": "https://dc.lft.to/lastmile_qr_scan", "ios": "https://dc.lft.to/lastmile_qr_scan"}, "fusion_lat": 0.0, "lat": 38.9101105, "is_disabled": 0, "lon": -77.05264166666667, "is_reserved": 0}, {"bike_id": "6f417c407339f106c4c8f2fcf6962474", "fusion_lon": 0.0, "type": "electric_scooter", "name": "6f417c407339f106c4c8f2fcf6962474", "rental_uris": {"android": "https://dc.lft.to/lastmile_qr_scan", "ios": "https://dc.lft.to/lastmile_qr_scan"}, "fusion_lat": 0.0, "lat": 38.89734883333333, "is_disabled": 0, "lon": -77.05562966666666, "is_reserved": 0}, {"bike_id": "051a68207ef50360e46c2b170cb75a15", "fusion_lon": 0.0, "type": "electric_scooter", "name": "051a68207ef50360e46c2b170cb75a15", "rental_uris": {"android": "https://dc.lft.to/lastmile_qr_scan", "ios": "https://dc.lft.to/lastmile_qr_scan"}, "fusion_lat": 0.0, "lat": 38.9114065, "is_disabled": 0, "lon": -77.02807833333334, "is_reserved": 0}, {"bike_id": "f46fbf01383984806cb5e5e2973e7e08", "fusion_lon": 0.0, "type": "electric_scooter", "name": "f46fbf01383984806cb5e5e2973e7e08", "rental_uris": {"android": "https://dc.lft.to/lastmile_qr_scan", "ios": "https://dc.lft.to/lastmile_qr_scan"}, "fusion_lat": 0.0, "lat": 38.90946, "is_disabled": 0, "lon": -77.03203783333333, "is_reserved": 0}, {"bike_id": "bf69d2eddff1248314f06bf0766a161c", "fusion_lon": 0.0, "type": "electric_scooter", "name": "bf69d2eddff1248314f06bf0766a161c", "rental_uris": {"android": "https://dc.lft.to/lastmile_qr_scan", "ios": "https://dc.lft.to/lastmile_qr_scan"}, "fusion_lat": 0.0, "lat": 38.89389366666666, "is_disabled": 0, "lon": -77.0232795, "is_reserved": 0}, {"bike_id": "1d55aebd9d3a724acb69e5d5cbdfdfff", "fusion_lon": 0.0, "type": "electric_bike", "name": "1d55aebd9d3a724acb69e5d5cbdfdfff", "rental_uris": {"android": "https://dc.lft.to/lastmile_qr_scan", "ios": "https://dc.lft.to/lastmile_qr_scan"}, "fusion_lat": 0.0, "lat": 38.850616, "is_disabled": 0, "lon": -76.973321, "is_reserved": 0}, {"bike_id": "1ea163962a64e4d5a512f0c6849bb961", "fusion_lon": 0.0, "type": "electric_scooter", "name": "1ea163962a64e4d5a512f0c6849bb961", "rental_uris": {"android": "https://dc.lft.to/lastmile_qr_scan", "ios": "https://dc.lft.to/lastmile_qr_scan"}, "fusion_lat": 0.0, "lat": 38.906720166666666, "is_disabled": 0, "lon": -77.0245945, "is_reserved": 0}, {"bike_id": "989285f19235c3d997da1f5854da681c", "fusion_lon": 0.0, "type": "electric_scooter", "name": "989285f19235c3d997da1f5854da681c", "rental_uris": {"android": "https://dc.lft.to/lastmile_qr_scan", "ios": "https://dc.lft.to/lastmile_qr_scan"}, "fusion_lat": 0.0, "lat": 38.928772, "is_disabled": 0, "lon": -77.02711166666667, "is_reserved": 0}, {"bike_id": "7bec89ecd986403d2423046eca58027d", "fusion_lon": 0.0, "type": "electric_scooter", "name": "7bec89ecd986403d2423046eca58027d", "rental_uris": {"android": "https://dc.lft.to/lastmile_qr_scan", "ios": "https://dc.lft.to/lastmile_qr_scan"}, "fusion_lat": 0.0, "lat": 38.918329666666665, "is_disabled": 0, "lon": -77.0320965, "is_reserved": 0}, {"bike_id": "0c30c9c54034efb51cc27a3f0cad216d", "fusion_lon": 0.0, "type": "electric_scooter", "name": "0c30c9c54034efb51cc27a3f0cad216d", "rental_uris": {"android": "https://dc.lft.to/lastmile_qr_scan", "ios": "https://dc.lft.to/lastmile_qr_scan"}, "fusion_lat": 0.0, "lat": 38.93414583333333, "is_disabled": 0, "lon": -77.02472383333334, "is_reserved": 0}, {"bike_id": "c0df6b5fd7d2085bf0a96488927679be", "fusion_lon": 0.0, "type": "electric_scooter", "name": "c0df6b5fd7d2085bf0a96488927679be", "rental_uris": {"android": "https://dc.lft.to/lastmile_qr_scan", "ios": "https://dc.lft.to/lastmile_qr_scan"}, "fusion_lat": 0.0, "lat": 38.9188435, "is_disabled": 0, "lon": -77.03769216666667, "is_reserved": 0}, {"bike_id": "298c9b340446c8b1aed8eb32790a839e", "fusion_lon": 0.0, "type": "electric_scooter", "name": "298c9b340446c8b1aed8eb32790a839e", "rental_uris": {"android": "https://dc.lft.to/lastmile_qr_scan", "ios": "https://dc.lft.to/lastmile_qr_scan"}, "fusion_lat": 0.0, "lat": 38.90588566666667, "is_disabled": 0, "lon": -77.070172, "is_reserved": 0}, {"bike_id": "2092832aaf269ffeee2f966974ac12ce", "fusion_lon": 0.0, "type": "electric_scooter", "name": "2092832aaf269ffeee2f966974ac12ce", "rental_uris": {"android": "https://dc.lft.to/lastmile_qr_scan", "ios": "https://dc.lft.to/lastmile_qr_scan"}, "fusion_lat": 0.0, "lat": 38.91025916666667, "is_disabled": 0, "lon": -77.02205283333333, "is_reserved": 0}, {"bike_id": "8912aa6f3e1d965f9cf13aec4fdf212d", "fusion_lon": 0.0, "type": "electric_scooter", "name": "8912aa6f3e1d965f9cf13aec4fdf212d", "rental_uris": {"android": "https://dc.lft.to/lastmile_qr_scan", "ios": "https://dc.lft.to/lastmile_qr_scan"}, "fusion_lat": 0.0, "lat": 38.90379883333333, "is_disabled": 0, "lon": -77.03334433333333, "is_reserved": 0}, {"bike_id": "ae6e00e912cee852a4bee8270693e2ef", "fusion_lon": 0.0, "type": "electric_scooter", "name": "ae6e00e912cee852a4bee8270693e2ef", "rental_uris": {"android": "https://dc.lft.to/lastmile_qr_scan", "ios": "https://dc.lft.to/lastmile_qr_scan"}, "fusion_lat": 0.0, "lat": 38.9096495, "is_disabled": 0, "lon": -77.02413133333333, "is_reserved": 0}, {"bike_id": "ada3d9a24931dc692da7507a174583c6", "fusion_lon": 0.0, "type": "electric_scooter", "name": "ada3d9a24931dc692da7507a174583c6", "rental_uris": {"android": "https://dc.lft.to/lastmile_qr_scan", "ios": "https://dc.lft.to/lastmile_qr_scan"}, "fusion_lat": 0.0, "lat": 38.90020533333333, "is_disabled": 0, "lon": -77.01700583333333, "is_reserved": 0}, {"bike_id": "e59a55af541a8b4bc64a3e45ed379e4b", "fusion_lon": 0.0, "type": "electric_scooter", "name": "e59a55af541a8b4bc64a3e45ed379e4b", "rental_uris": {"android": "https://dc.lft.to/lastmile_qr_scan", "ios": "https://dc.lft.to/lastmile_qr_scan"}, "fusion_lat": 0.0, "lat": 38.884293666666665, "is_disabled": 0, "lon": -76.95757233333333, "is_reserved": 0}, {"bike_id": "31d3eb8b5b3a87d6b6f3fbaaaf86bcf5", "fusion_lon": 0.0, "type": "electric_scooter", "name": "31d3eb8b5b3a87d6b6f3fbaaaf86bcf5", "rental_uris": {"android": "https://dc.lft.to/lastmile_qr_scan", "ios": "https://dc.lft.to/lastmile_qr_scan"}, "fusion_lat": 0.0, "lat": 38.91574516666667, "is_disabled": 0, "lon": -77.04675883333333, "is_reserved": 0}, {"bike_id": "f384ca0d941d78c015b9079a4e7fce5b", "fusion_lon": 0.0, "type": "electric_bike", "name": "f384ca0d941d78c015b9079a4e7fce5b", "rental_uris": {"android": "https://dc.lft.to/lastmile_qr_scan", "ios": "https://dc.lft.to/lastmile_qr_scan"}, "fusion_lat": 0.0, "lat": 38.99664166666667, "is_disabled": 0, "lon": -77.037987, "is_reserved": 0}, {"bike_id": "8bcf101996cdb19cff919726926a404a", "fusion_lon": 0.0, "type": "electric_bike", "name": "8bcf101996cdb19cff919726926a404a", "rental_uris": {"android": "https://dc.lft.to/lastmile_qr_scan", "ios": "https://dc.lft.to/lastmile_qr_scan"}, "fusion_lat": 0.0, "lat": 38.898850333333336, "is_disabled": 0, "lon": -76.9839495, "is_reserved": 0}, {"bike_id": "3ba11acfb72c7f83a91edc571a0843ce", "fusion_lon": 0.0, "type": "electric_scooter", "name": "3ba11acfb72c7f83a91edc571a0843ce", "rental_uris": {"android": "https://dc.lft.to/lastmile_qr_scan", "ios": "https://dc.lft.to/lastmile_qr_scan"}, "fusion_lat": 0.0, "lat": 38.88837983333333, "is_disabled": 0, "lon": -77.049074, "is_reserved": 0}, {"bike_id": "628d2639e857dacb1f04f8b7350207fd", "fusion_lon": 0.0, "type": "electric_scooter", "name": "628d2639e857dacb1f04f8b7350207fd", "rental_uris": {"android": "https://dc.lft.to/lastmile_qr_scan", "ios": "https://dc.lft.to/lastmile_qr_scan"}, "fusion_lat": 0.0, "lat": 38.8804045, "is_disabled": 0, "lon": -77.03070133333334, "is_reserved": 0}, {"bike_id": "98a6e15cf8207175237828ffcf2bce4c", "fusion_lon": 0.0, "type": "electric_scooter", "name": "98a6e15cf8207175237828ffcf2bce4c", "rental_uris": {"android": "https://dc.lft.to/lastmile_qr_scan", "ios": "https://dc.lft.to/lastmile_qr_scan"}, "fusion_lat": 0.0, "lat": 38.929466833333336, "is_disabled": 0, "lon": -77.0342525, "is_reserved": 0}, {"bike_id": "11cba54953312ebc60fbb7fc7b72648d", "fusion_lon": 0.0, "type": "electric_bike", "name": "11cba54953312ebc60fbb7fc7b72648d", "rental_uris": {"android": "https://dc.lft.to/lastmile_qr_scan", "ios": "https://dc.lft.to/lastmile_qr_scan"}, "fusion_lat": 0.0, "lat": 38.869013833333334, "is_disabled": 0, "lon": -77.1318415, "is_reserved": 0}, {"bike_id": "0dbbbb51d85c67316f8a9bd14bfeeb59", "fusion_lon": 0.0, "type": "electric_scooter", "name": "0dbbbb51d85c67316f8a9bd14bfeeb59", "rental_uris": {"android": "https://dc.lft.to/lastmile_qr_scan", "ios": "https://dc.lft.to/lastmile_qr_scan"}, "fusion_lat": 0.0, "lat": 38.8789905, "is_disabled": 0, "lon": -76.99155116666667, "is_reserved": 0}, {"bike_id": "267d947df0a0d92a9f2e6dac09c17086", "fusion_lon": 0.0, "type": "electric_scooter", "name": "267d947df0a0d92a9f2e6dac09c17086", "rental_uris": {"android": "https://dc.lft.to/lastmile_qr_scan", "ios": "https://dc.lft.to/lastmile_qr_scan"}, "fusion_lat": 0.0, "lat": 38.91682133333333, "is_disabled": 0, "lon": -77.02954, "is_reserved": 0}, {"bike_id": "e4b7d4b301b288194cb11f6f208b928c", "fusion_lon": 0.0, "type": "electric_scooter", "name": "e4b7d4b301b288194cb11f6f208b928c", "rental_uris": {"android": "https://dc.lft.to/lastmile_qr_scan", "ios": "https://dc.lft.to/lastmile_qr_scan"}, "fusion_lat": 0.0, "lat": 38.91224666666667, "is_disabled": 0, "lon": -77.04510083333334, "is_reserved": 0}, {"bike_id": "b36ab66b0acc836fc26e0090717d1e95", "fusion_lon": 0.0, "type": "electric_scooter", "name": "b36ab66b0acc836fc26e0090717d1e95", "rental_uris": {"android": "https://dc.lft.to/lastmile_qr_scan", "ios": "https://dc.lft.to/lastmile_qr_scan"}, "fusion_lat": 0.0, "lat": 38.921286333333335, "is_disabled": 0, "lon": -77.04425516666667, "is_reserved": 0}, {"bike_id": "a7405beab41db3b00d8dfb3e7621424b", "fusion_lon": 0.0, "type": "electric_scooter", "name": "a7405beab41db3b00d8dfb3e7621424b", "rental_uris": {"android": "https://dc.lft.to/lastmile_qr_scan", "ios": "https://dc.lft.to/lastmile_qr_scan"}, "fusion_lat": 0.0, "lat": 38.881887166666665, "is_disabled": 0, "lon": -77.00356983333333, "is_reserved": 0}, {"bike_id": "93662d1f3fcd49e1095c3b3ee044937d", "fusion_lon": 0.0, "type": "electric_scooter", "name": "93662d1f3fcd49e1095c3b3ee044937d", "rental_uris": {"android": "https://dc.lft.to/lastmile_qr_scan", "ios": "https://dc.lft.to/lastmile_qr_scan"}, "fusion_lat": 0.0, "lat": 38.928775333333334, "is_disabled": 0, "lon": -77.0329685, "is_reserved": 0}, {"bike_id": "91b7be35c84dd4a024e2eca6787583ce", "fusion_lon": 0.0, "type": "electric_scooter", "name": "91b7be35c84dd4a024e2eca6787583ce", "rental_uris": {"android": "https://dc.lft.to/lastmile_qr_scan", "ios": "https://dc.lft.to/lastmile_qr_scan"}, "fusion_lat": 0.0, "lat": 38.9008995, "is_disabled": 0, "lon": -76.99494283333334, "is_reserved": 0}, {"bike_id": "f051dd10dcaa554ba91a5b6d484594d8", "fusion_lon": 0.0, "type": "electric_bike", "name": "f051dd10dcaa554ba91a5b6d484594d8", "rental_uris": {"android": "https://dc.lft.to/lastmile_qr_scan", "ios": "https://dc.lft.to/lastmile_qr_scan"}, "fusion_lat": 0.0, "lat": 38.869762333333334, "is_disabled": 0, "lon": -77.13232733333334, "is_reserved": 0}, {"bike_id": "227cfbcace1081b63ee92889505951a6", "fusion_lon": 0.0, "type": "electric_scooter", "name": "227cfbcace1081b63ee92889505951a6", "rental_uris": {"android": "https://dc.lft.to/lastmile_qr_scan", "ios": "https://dc.lft.to/lastmile_qr_scan"}, "fusion_lat": 0.0, "lat": 38.899570833333335, "is_disabled": 0, "lon": -77.01624383333333, "is_reserved": 0}, {"bike_id": "19045143f9dcc8dd73cef5932080bb49", "fusion_lon": 0.0, "type": "electric_scooter", "name": "19045143f9dcc8dd73cef5932080bb49", "rental_uris": {"android": "https://dc.lft.to/lastmile_qr_scan", "ios": "https://dc.lft.to/lastmile_qr_scan"}, "fusion_lat": 0.0, "lat": 38.88380266666667, "is_disabled": 0, "lon": -76.98545183333333, "is_reserved": 0}, {"bike_id": "b579e5a04115f6475a23485ded3a381d", "fusion_lon": 0.0, "type": "electric_scooter", "name": "b579e5a04115f6475a23485ded3a381d", "rental_uris": {"android": "https://dc.lft.to/lastmile_qr_scan", "ios": "https://dc.lft.to/lastmile_qr_scan"}, "fusion_lat": 0.0, "lat": 38.918068166666664, "is_disabled": 0, "lon": -77.03439233333333, "is_reserved": 0}, {"bike_id": "c0733e49995727171af0fb281a7fb0d1", "fusion_lon": 0.0, "type": "electric_scooter", "name": "c0733e49995727171af0fb281a7fb0d1", "rental_uris": {"android": "https://dc.lft.to/lastmile_qr_scan", "ios": "https://dc.lft.to/lastmile_qr_scan"}, "fusion_lat": 0.0, "lat": 38.89781, "is_disabled": 0, "lon": -77.00746416666667, "is_reserved": 0}, {"bike_id": "763b360710141a55c0f72aa5b978e7ba", "fusion_lon": 0.0, "type": "electric_scooter", "name": "763b360710141a55c0f72aa5b978e7ba", "rental_uris": {"android": "https://dc.lft.to/lastmile_qr_scan", "ios": "https://dc.lft.to/lastmile_qr_scan"}, "fusion_lat": 0.0, "lat": 38.911933, "is_disabled": 0, "lon": -77.01885966666667, "is_reserved": 0}, {"bike_id": "027ceae833958fa0024b4e9758126fb4", "fusion_lon": 0.0, "type": "electric_scooter", "name": "027ceae833958fa0024b4e9758126fb4", "rental_uris": {"android": "https://dc.lft.to/lastmile_qr_scan", "ios": "https://dc.lft.to/lastmile_qr_scan"}, "fusion_lat": 0.0, "lat": 38.90103466666667, "is_disabled": 0, "lon": -77.0392515, "is_reserved": 0}, {"bike_id": "f9ce61ed3751c0dc404d957e5141dd47", "fusion_lon": 0.0, "type": "electric_scooter", "name": "f9ce61ed3751c0dc404d957e5141dd47", "rental_uris": {"android": "https://dc.lft.to/lastmile_qr_scan", "ios": "https://dc.lft.to/lastmile_qr_scan"}, "fusion_lat": 0.0, "lat": 38.947856333333334, "is_disabled": 0, "lon": -77.06754983333333, "is_reserved": 0}, {"bike_id": "050d69c371c68f82fd9e329c7e6c42f4", "fusion_lon": 0.0, "type": "electric_scooter", "name": "050d69c371c68f82fd9e329c7e6c42f4", "rental_uris": {"android": "https://dc.lft.to/lastmile_qr_scan", "ios": "https://dc.lft.to/lastmile_qr_scan"}, "fusion_lat": 0.0, "lat": 38.92269116666667, "is_disabled": 0, "lon": -76.99779283333334, "is_reserved": 0}, {"bike_id": "d1d037971431b41950a6e8b97a9f9631", "fusion_lon": 0.0, "type": "electric_scooter", "name": "d1d037971431b41950a6e8b97a9f9631", "rental_uris": {"android": "https://dc.lft.to/lastmile_qr_scan", "ios": "https://dc.lft.to/lastmile_qr_scan"}, "fusion_lat": 0.0, "lat": 38.91263416666666, "is_disabled": 0, "lon": -77.03833683333333, "is_reserved": 0}, {"bike_id": "e35989eec84efd6450c28c6aa69fb415", "fusion_lon": 0.0, "type": "electric_scooter", "name": "e35989eec84efd6450c28c6aa69fb415", "rental_uris": {"android": "https://dc.lft.to/lastmile_qr_scan", "ios": "https://dc.lft.to/lastmile_qr_scan"}, "fusion_lat": 0.0, "lat": 38.900158, "is_disabled": 0, "lon": -77.04497116666667, "is_reserved": 0}, {"bike_id": "e35441ec7ba3f46391dfc34776a7bd19", "fusion_lon": 0.0, "type": "electric_scooter", "name": "e35441ec7ba3f46391dfc34776a7bd19", "rental_uris": {"android": "https://dc.lft.to/lastmile_qr_scan", "ios": "https://dc.lft.to/lastmile_qr_scan"}, "fusion_lat": 0.0, "lat": 38.86478316666667, "is_disabled": 0, "lon": -76.983733, "is_reserved": 0}, {"bike_id": "6dc58d6fc9c19326d08b7c3d56ece0d0", "fusion_lon": 0.0, "type": "electric_bike", "name": "6dc58d6fc9c19326d08b7c3d56ece0d0", "rental_uris": {"android": "https://dc.lft.to/lastmile_qr_scan", "ios": "https://dc.lft.to/lastmile_qr_scan"}, "fusion_lat": 0.0, "lat": 38.85241416666667, "is_disabled": 0, "lon": -77.11432133333334, "is_reserved": 0}, {"bike_id": "da412139374ad1ede542b9c36e214230", "fusion_lon": 0.0, "type": "electric_scooter", "name": "da412139374ad1ede542b9c36e214230", "rental_uris": {"android": "https://dc.lft.to/lastmile_qr_scan", "ios": "https://dc.lft.to/lastmile_qr_scan"}, "fusion_lat": 0.0, "lat": 38.923697833333335, "is_disabled": 0, "lon": -77.04035366666666, "is_reserved": 0}, {"bike_id": "b98763c9c0cd2697db5a89b13a6da47d", "fusion_lon": 0.0, "type": "electric_scooter", "name": "b98763c9c0cd2697db5a89b13a6da47d", "rental_uris": {"android": "https://dc.lft.to/lastmile_qr_scan", "ios": "https://dc.lft.to/lastmile_qr_scan"}, "fusion_lat": 0.0, "lat": 38.91735666666667, "is_disabled": 0, "lon": -77.02120733333334, "is_reserved": 0}, {"bike_id": "b84c041569297531d721c9a4bb3f569f", "fusion_lon": 0.0, "type": "electric_scooter", "name": "b84c041569297531d721c9a4bb3f569f", "rental_uris": {"android": "https://dc.lft.to/lastmile_qr_scan", "ios": "https://dc.lft.to/lastmile_qr_scan"}, "fusion_lat": 0.0, "lat": 38.934792, "is_disabled": 0, "lon": -77.03582133333333, "is_reserved": 0}, {"bike_id": "872491d32a86ea97e0affba58d00349c", "fusion_lon": 0.0, "type": "electric_scooter", "name": "872491d32a86ea97e0affba58d00349c", "rental_uris": {"android": "https://dc.lft.to/lastmile_qr_scan", "ios": "https://dc.lft.to/lastmile_qr_scan"}, "fusion_lat": 0.0, "lat": 38.94090816666667, "is_disabled": 0, "lon": -77.02526966666667, "is_reserved": 0}, {"bike_id": "a4927ad9a8c2f14f56fbe7d5de55ac3f", "fusion_lon": 0.0, "type": "electric_scooter", "name": "a4927ad9a8c2f14f56fbe7d5de55ac3f", "rental_uris": {"android": "https://dc.lft.to/lastmile_qr_scan", "ios": "https://dc.lft.to/lastmile_qr_scan"}, "fusion_lat": 0.0, "lat": 38.9222385, "is_disabled": 0, "lon": -77.03300283333333, "is_reserved": 0}, {"bike_id": "69be2ee3dc320bdda78404d2041b1b3f", "fusion_lon": 0.0, "type": "electric_scooter", "name": "69be2ee3dc320bdda78404d2041b1b3f", "rental_uris": {"android": "https://dc.lft.to/lastmile_qr_scan", "ios": "https://dc.lft.to/lastmile_qr_scan"}, "fusion_lat": 0.0, "lat": 38.9096075, "is_disabled": 0, "lon": -77.02284816666666, "is_reserved": 0}, {"bike_id": "8399ebbf59f812f9e143084bafb0f620", "fusion_lon": 0.0, "type": "electric_bike", "name": "8399ebbf59f812f9e143084bafb0f620", "rental_uris": {"android": "https://dc.lft.to/lastmile_qr_scan", "ios": "https://dc.lft.to/lastmile_qr_scan"}, "fusion_lat": 0.0, "lat": 38.877516166666666, "is_disabled": 0, "lon": -76.97989616666666, "is_reserved": 0}, {"bike_id": "8696723f0ae5798046018021003eae9c", "fusion_lon": 0.0, "type": "electric_scooter", "name": "8696723f0ae5798046018021003eae9c", "rental_uris": {"android": "https://dc.lft.to/lastmile_qr_scan", "ios": "https://dc.lft.to/lastmile_qr_scan"}, "fusion_lat": 0.0, "lat": 38.90573066666666, "is_disabled": 0, "lon": -77.03789883333333, "is_reserved": 0}, {"bike_id": "c2ae9a892f2559c9ab3110f6064d6e5f", "fusion_lon": 0.0, "type": "electric_scooter", "name": "c2ae9a892f2559c9ab3110f6064d6e5f", "rental_uris": {"android": "https://dc.lft.to/lastmile_qr_scan", "ios": "https://dc.lft.to/lastmile_qr_scan"}, "fusion_lat": 0.0, "lat": 38.934289166666666, "is_disabled": 0, "lon": -77.03454333333333, "is_reserved": 0}, {"bike_id": "6f02a60d045481231163d8d967cdfd4d", "fusion_lon": 0.0, "type": "electric_scooter", "name": "6f02a60d045481231163d8d967cdfd4d", "rental_uris": {"android": "https://dc.lft.to/lastmile_qr_scan", "ios": "https://dc.lft.to/lastmile_qr_scan"}, "fusion_lat": 0.0, "lat": 38.87794316666667, "is_disabled": 0, "lon": -77.00127583333334, "is_reserved": 0}, {"bike_id": "92644a78a4946acb235d4408a7fb47b5", "fusion_lon": 0.0, "type": "electric_scooter", "name": "92644a78a4946acb235d4408a7fb47b5", "rental_uris": {"android": "https://dc.lft.to/lastmile_qr_scan", "ios": "https://dc.lft.to/lastmile_qr_scan"}, "fusion_lat": 0.0, "lat": 38.907892333333336, "is_disabled": 0, "lon": -77.032138, "is_reserved": 0}, {"bike_id": "024a96e4fa8cbaa53b8aae622a4b81fd", "fusion_lon": 0.0, "type": "electric_scooter", "name": "024a96e4fa8cbaa53b8aae622a4b81fd", "rental_uris": {"android": "https://dc.lft.to/lastmile_qr_scan", "ios": "https://dc.lft.to/lastmile_qr_scan"}, "fusion_lat": 0.0, "lat": 38.928038666666666, "is_disabled": 0, "lon": -77.03362883333334, "is_reserved": 0}, {"bike_id": "beb928363ad454bb8d091993e76693e3", "fusion_lon": 0.0, "type": "electric_bike", "name": "beb928363ad454bb8d091993e76693e3", "rental_uris": {"android": "https://dc.lft.to/lastmile_qr_scan", "ios": "https://dc.lft.to/lastmile_qr_scan"}, "fusion_lat": 0.0, "lat": 38.9660245, "is_disabled": 0, "lon": -76.98335366666667, "is_reserved": 0}, {"bike_id": "ba8e2e52dbe20ba52fcb916818a2dc92", "fusion_lon": 0.0, "type": "electric_scooter", "name": "ba8e2e52dbe20ba52fcb916818a2dc92", "rental_uris": {"android": "https://dc.lft.to/lastmile_qr_scan", "ios": "https://dc.lft.to/lastmile_qr_scan"}, "fusion_lat": 0.0, "lat": 38.93683016666667, "is_disabled": 0, "lon": -77.03285116666666, "is_reserved": 0}, {"bike_id": "f227bf21f20c2ee96e2b129808b9cee0", "fusion_lon": 0.0, "type": "electric_bike", "name": "f227bf21f20c2ee96e2b129808b9cee0", "rental_uris": {"android": "https://dc.lft.to/lastmile_qr_scan", "ios": "https://dc.lft.to/lastmile_qr_scan"}, "fusion_lat": 0.0, "lat": 38.918078, "is_disabled": 0, "lon": -77.10183266666667, "is_reserved": 0}, {"bike_id": "1ce3a505b0a541106c2ecd5c7e07cca8", "fusion_lon": 0.0, "type": "electric_scooter", "name": "1ce3a505b0a541106c2ecd5c7e07cca8", "rental_uris": {"android": "https://dc.lft.to/lastmile_qr_scan", "ios": "https://dc.lft.to/lastmile_qr_scan"}, "fusion_lat": 0.0, "lat": 38.90475033333333, "is_disabled": 0, "lon": -76.99611, "is_reserved": 0}, {"bike_id": "992919d51853823e2905a7e42e5d7330", "fusion_lon": 0.0, "type": "electric_scooter", "name": "992919d51853823e2905a7e42e5d7330", "rental_uris": {"android": "https://dc.lft.to/lastmile_qr_scan", "ios": "https://dc.lft.to/lastmile_qr_scan"}, "fusion_lat": 0.0, "lat": 38.8983255, "is_disabled": 0, "lon": -77.03345966666667, "is_reserved": 0}, {"bike_id": "0743e91d330b7e119c8176d96ca9eca2", "fusion_lon": 0.0, "type": "electric_bike", "name": "0743e91d330b7e119c8176d96ca9eca2", "rental_uris": {"android": "https://dc.lft.to/lastmile_qr_scan", "ios": "https://dc.lft.to/lastmile_qr_scan"}, "fusion_lat": 0.0, "lat": 38.896683833333334, "is_disabled": 0, "lon": -76.98123733333334, "is_reserved": 0}, {"bike_id": "a9ed4d359827acc267cafde5049cfac8", "fusion_lon": 0.0, "type": "electric_scooter", "name": "a9ed4d359827acc267cafde5049cfac8", "rental_uris": {"android": "https://dc.lft.to/lastmile_qr_scan", "ios": "https://dc.lft.to/lastmile_qr_scan"}, "fusion_lat": 0.0, "lat": 38.88710916666667, "is_disabled": 0, "lon": -77.02206516666666, "is_reserved": 0}, {"bike_id": "ca736bb48d90677bbad92d523ca402e8", "fusion_lon": 0.0, "type": "electric_scooter", "name": "ca736bb48d90677bbad92d523ca402e8", "rental_uris": {"android": "https://dc.lft.to/lastmile_qr_scan", "ios": "https://dc.lft.to/lastmile_qr_scan"}, "fusion_lat": 0.0, "lat": 38.8849545, "is_disabled": 0, "lon": -77.006191, "is_reserved": 0}, {"bike_id": "03fbe7240f17ef47bc605109501f227a", "fusion_lon": 0.0, "type": "electric_scooter", "name": "03fbe7240f17ef47bc605109501f227a", "rental_uris": {"android": "https://dc.lft.to/lastmile_qr_scan", "ios": "https://dc.lft.to/lastmile_qr_scan"}, "fusion_lat": 0.0, "lat": 38.92599533333333, "is_disabled": 0, "lon": -77.02157, "is_reserved": 0}, {"bike_id": "99634e875bc73255a9ea9ec30998bccf", "fusion_lon": 0.0, "type": "electric_bike", "name": "99634e875bc73255a9ea9ec30998bccf", "rental_uris": {"android": "https://dc.lft.to/lastmile_qr_scan", "ios": "https://dc.lft.to/lastmile_qr_scan"}, "fusion_lat": 0.0, "lat": 38.8122715, "is_disabled": 0, "lon": -77.11224533333333, "is_reserved": 0}, {"bike_id": "b34854f6fc4fbce05ea0428cd4e01996", "fusion_lon": 0.0, "type": "electric_scooter", "name": "b34854f6fc4fbce05ea0428cd4e01996", "rental_uris": {"android": "https://dc.lft.to/lastmile_qr_scan", "ios": "https://dc.lft.to/lastmile_qr_scan"}, "fusion_lat": 0.0, "lat": 38.9181635, "is_disabled": 0, "lon": -77.04013833333333, "is_reserved": 0}, {"bike_id": "ae96f971fad144b71d7a85d12ddae00e", "fusion_lon": 0.0, "type": "electric_scooter", "name": "ae96f971fad144b71d7a85d12ddae00e", "rental_uris": {"android": "https://dc.lft.to/lastmile_qr_scan", "ios": "https://dc.lft.to/lastmile_qr_scan"}, "fusion_lat": 0.0, "lat": 38.882130833333335, "is_disabled": 0, "lon": -76.986854, "is_reserved": 0}, {"bike_id": "056fc634f1e195f82c75f601bd25e70f", "fusion_lon": 0.0, "type": "electric_scooter", "name": "056fc634f1e195f82c75f601bd25e70f", "rental_uris": {"android": "https://dc.lft.to/lastmile_qr_scan", "ios": "https://dc.lft.to/lastmile_qr_scan"}, "fusion_lat": 0.0, "lat": 38.9038985, "is_disabled": 0, "lon": -76.99006366666667, "is_reserved": 0}, {"bike_id": "82dd89bf74bdec4a38c4220f9185fb5f", "fusion_lon": 0.0, "type": "electric_scooter", "name": "82dd89bf74bdec4a38c4220f9185fb5f", "rental_uris": {"android": "https://dc.lft.to/lastmile_qr_scan", "ios": "https://dc.lft.to/lastmile_qr_scan"}, "fusion_lat": 0.0, "lat": 38.91846183333333, "is_disabled": 0, "lon": -76.96560416666667, "is_reserved": 0}, {"bike_id": "2753005ba2e784ec6c97e09043bfdc3b", "fusion_lon": 0.0, "type": "electric_scooter", "name": "2753005ba2e784ec6c97e09043bfdc3b", "rental_uris": {"android": "https://dc.lft.to/lastmile_qr_scan", "ios": "https://dc.lft.to/lastmile_qr_scan"}, "fusion_lat": 0.0, "lat": 38.90168966666667, "is_disabled": 0, "lon": -77.02404583333333, "is_reserved": 0}, {"bike_id": "d2f2d56e3779d7e14a885c0b7875f490", "fusion_lon": 0.0, "type": "electric_scooter", "name": "d2f2d56e3779d7e14a885c0b7875f490", "rental_uris": {"android": "https://dc.lft.to/lastmile_qr_scan", "ios": "https://dc.lft.to/lastmile_qr_scan"}, "fusion_lat": 0.0, "lat": 38.91033983333333, "is_disabled": 0, "lon": -77.03293583333334, "is_reserved": 0}, {"bike_id": "d149927d7f9e07c43f1161f696032758", "fusion_lon": 0.0, "type": "electric_scooter", "name": "d149927d7f9e07c43f1161f696032758", "rental_uris": {"android": "https://dc.lft.to/lastmile_qr_scan", "ios": "https://dc.lft.to/lastmile_qr_scan"}, "fusion_lat": 0.0, "lat": 38.939811, "is_disabled": 0, "lon": -77.032816, "is_reserved": 0}, {"bike_id": "5252a599014bfd3732658144dede5831", "fusion_lon": 0.0, "type": "electric_scooter", "name": "5252a599014bfd3732658144dede5831", "rental_uris": {"android": "https://dc.lft.to/lastmile_qr_scan", "ios": "https://dc.lft.to/lastmile_qr_scan"}, "fusion_lat": 0.0, "lat": 38.96135916666667, "is_disabled": 0, "lon": -77.0280705, "is_reserved": 0}, {"bike_id": "4439de1f6c52900f09c9648041881964", "fusion_lon": 0.0, "type": "electric_scooter", "name": "4439de1f6c52900f09c9648041881964", "rental_uris": {"android": "https://dc.lft.to/lastmile_qr_scan", "ios": "https://dc.lft.to/lastmile_qr_scan"}, "fusion_lat": 0.0, "lat": 38.9056755, "is_disabled": 0, "lon": -76.97633816666666, "is_reserved": 0}, {"bike_id": "8b1af832c7932545ca066a6e6141c1cc", "fusion_lon": 0.0, "type": "electric_scooter", "name": "8b1af832c7932545ca066a6e6141c1cc", "rental_uris": {"android": "https://dc.lft.to/lastmile_qr_scan", "ios": "https://dc.lft.to/lastmile_qr_scan"}, "fusion_lat": 0.0, "lat": 38.914890166666666, "is_disabled": 0, "lon": -77.04823366666666, "is_reserved": 0}, {"bike_id": "141c7cbba3884c5102363ea8cc628c1d", "fusion_lon": 0.0, "type": "electric_scooter", "name": "141c7cbba3884c5102363ea8cc628c1d", "rental_uris": {"android": "https://dc.lft.to/lastmile_qr_scan", "ios": "https://dc.lft.to/lastmile_qr_scan"}, "fusion_lat": 0.0, "lat": 38.91806916666667, "is_disabled": 0, "lon": -77.03438, "is_reserved": 0}, {"bike_id": "fb72b2b3c27a7a9db865f3e495448c0a", "fusion_lon": 0.0, "type": "electric_scooter", "name": "fb72b2b3c27a7a9db865f3e495448c0a", "rental_uris": {"android": "https://dc.lft.to/lastmile_qr_scan", "ios": "https://dc.lft.to/lastmile_qr_scan"}, "fusion_lat": 0.0, "lat": 38.9347625, "is_disabled": 0, "lon": -77.06534033333334, "is_reserved": 0}, {"bike_id": "86e6037d53a78d57edc3077e90d938fc", "fusion_lon": 0.0, "type": "electric_scooter", "name": "86e6037d53a78d57edc3077e90d938fc", "rental_uris": {"android": "https://dc.lft.to/lastmile_qr_scan", "ios": "https://dc.lft.to/lastmile_qr_scan"}, "fusion_lat": 0.0, "lat": 38.902956, "is_disabled": 0, "lon": -77.02119766666667, "is_reserved": 0}, {"bike_id": "03b9704687eeaa7271472be6fc5ba9c6", "fusion_lon": 0.0, "type": "electric_scooter", "name": "03b9704687eeaa7271472be6fc5ba9c6", "rental_uris": {"android": "https://dc.lft.to/lastmile_qr_scan", "ios": "https://dc.lft.to/lastmile_qr_scan"}, "fusion_lat": 0.0, "lat": 38.9336485, "is_disabled": 0, "lon": -77.0573655, "is_reserved": 0}, {"bike_id": "6079eef6a0cc208c5bf654d4b8e66774", "fusion_lon": 0.0, "type": "electric_scooter", "name": "6079eef6a0cc208c5bf654d4b8e66774", "rental_uris": {"android": "https://dc.lft.to/lastmile_qr_scan", "ios": "https://dc.lft.to/lastmile_qr_scan"}, "fusion_lat": 0.0, "lat": 38.862201, "is_disabled": 0, "lon": -76.99466383333333, "is_reserved": 0}, {"bike_id": "4c3f90462a697bfe1a5767fe9823067a", "fusion_lon": 0.0, "type": "electric_scooter", "name": "4c3f90462a697bfe1a5767fe9823067a", "rental_uris": {"android": "https://dc.lft.to/lastmile_qr_scan", "ios": "https://dc.lft.to/lastmile_qr_scan"}, "fusion_lat": 0.0, "lat": 38.91402716666666, "is_disabled": 0, "lon": -77.04184716666667, "is_reserved": 0}, {"bike_id": "546e6bb89bf72c9d2410f05614534b97", "fusion_lon": 0.0, "type": "electric_bike", "name": "546e6bb89bf72c9d2410f05614534b97", "rental_uris": {"android": "https://dc.lft.to/lastmile_qr_scan", "ios": "https://dc.lft.to/lastmile_qr_scan"}, "fusion_lat": 0.0, "lat": 38.99452183333333, "is_disabled": 0, "lon": -76.90818783333333, "is_reserved": 0}, {"bike_id": "986aba663128bb4cdf84db22f65a100c", "fusion_lon": 0.0, "type": "electric_scooter", "name": "986aba663128bb4cdf84db22f65a100c", "rental_uris": {"android": "https://dc.lft.to/lastmile_qr_scan", "ios": "https://dc.lft.to/lastmile_qr_scan"}, "fusion_lat": 0.0, "lat": 38.929708833333336, "is_disabled": 0, "lon": -77.032077, "is_reserved": 0}, {"bike_id": "7ab0e0d62161c8bf2733099befc824b3", "fusion_lon": 0.0, "type": "electric_scooter", "name": "7ab0e0d62161c8bf2733099befc824b3", "rental_uris": {"android": "https://dc.lft.to/lastmile_qr_scan", "ios": "https://dc.lft.to/lastmile_qr_scan"}, "fusion_lat": 0.0, "lat": 38.880341666666666, "is_disabled": 0, "lon": -76.9951495, "is_reserved": 0}, {"bike_id": "3a3bfa898534eae740e81ef3fcc95796", "fusion_lon": 0.0, "type": "electric_scooter", "name": "3a3bfa898534eae740e81ef3fcc95796", "rental_uris": {"android": "https://dc.lft.to/lastmile_qr_scan", "ios": "https://dc.lft.to/lastmile_qr_scan"}, "fusion_lat": 0.0, "lat": 38.897593, "is_disabled": 0, "lon": -77.00355883333333, "is_reserved": 0}, {"bike_id": "31f7cf16b6486981e766ee5a01a4bc17", "fusion_lon": 0.0, "type": "electric_bike", "name": "31f7cf16b6486981e766ee5a01a4bc17", "rental_uris": {"android": "https://dc.lft.to/lastmile_qr_scan", "ios": "https://dc.lft.to/lastmile_qr_scan"}, "fusion_lat": 0.0, "lat": 38.88008266666667, "is_disabled": 0, "lon": -76.91596133333333, "is_reserved": 0}, {"bike_id": "69d648eac5e8a207beccc55a928282f1", "fusion_lon": 0.0, "type": "electric_scooter", "name": "69d648eac5e8a207beccc55a928282f1", "rental_uris": {"android": "https://dc.lft.to/lastmile_qr_scan", "ios": "https://dc.lft.to/lastmile_qr_scan"}, "fusion_lat": 0.0, "lat": 38.90266283333333, "is_disabled": 0, "lon": -77.021836, "is_reserved": 0}, {"bike_id": "15a5f698b485a668d10736ab77139fba", "fusion_lon": 0.0, "type": "electric_bike", "name": "15a5f698b485a668d10736ab77139fba", "rental_uris": {"android": "https://dc.lft.to/lastmile_qr_scan", "ios": "https://dc.lft.to/lastmile_qr_scan"}, "fusion_lat": 0.0, "lat": 38.8453855, "is_disabled": 0, "lon": -76.9879065, "is_reserved": 0}, {"bike_id": "2925ceb5a3443ad04d0fe056ba72521c", "fusion_lon": 0.0, "type": "electric_scooter", "name": "2925ceb5a3443ad04d0fe056ba72521c", "rental_uris": {"android": "https://dc.lft.to/lastmile_qr_scan", "ios": "https://dc.lft.to/lastmile_qr_scan"}, "fusion_lat": 0.0, "lat": 38.91333266666667, "is_disabled": 0, "lon": -77.0482045, "is_reserved": 0}, {"bike_id": "6074fa92919cbaec041edd7876ea6ebc", "fusion_lon": 0.0, "type": "electric_scooter", "name": "6074fa92919cbaec041edd7876ea6ebc", "rental_uris": {"android": "https://dc.lft.to/lastmile_qr_scan", "ios": "https://dc.lft.to/lastmile_qr_scan"}, "fusion_lat": 0.0, "lat": 38.907497166666666, "is_disabled": 0, "lon": -77.03171516666667, "is_reserved": 0}, {"bike_id": "a3e4306dd7562fbfe4011103db4b1190", "fusion_lon": 0.0, "type": "electric_scooter", "name": "a3e4306dd7562fbfe4011103db4b1190", "rental_uris": {"android": "https://dc.lft.to/lastmile_qr_scan", "ios": "https://dc.lft.to/lastmile_qr_scan"}, "fusion_lat": 0.0, "lat": 38.898934, "is_disabled": 0, "lon": -76.97852416666667, "is_reserved": 0}, {"bike_id": "c72401696e6fb1ae8cfaebaded3ac6dd", "fusion_lon": 0.0, "type": "electric_scooter", "name": "c72401696e6fb1ae8cfaebaded3ac6dd", "rental_uris": {"android": "https://dc.lft.to/lastmile_qr_scan", "ios": "https://dc.lft.to/lastmile_qr_scan"}, "fusion_lat": 0.0, "lat": 38.876406, "is_disabled": 0, "lon": -77.00350466666667, "is_reserved": 0}, {"bike_id": "5ce550cffc359767f8770b133e13f376", "fusion_lon": 0.0, "type": "electric_bike", "name": "5ce550cffc359767f8770b133e13f376", "rental_uris": {"android": "https://dc.lft.to/lastmile_qr_scan", "ios": "https://dc.lft.to/lastmile_qr_scan"}, "fusion_lat": 0.0, "lat": 38.999638166666664, "is_disabled": 0, "lon": -77.0512215, "is_reserved": 0}, {"bike_id": "acb16d23689f5c8c74b4b4b62cf9b471", "fusion_lon": 0.0, "type": "electric_scooter", "name": "acb16d23689f5c8c74b4b4b62cf9b471", "rental_uris": {"android": "https://dc.lft.to/lastmile_qr_scan", "ios": "https://dc.lft.to/lastmile_qr_scan"}, "fusion_lat": 0.0, "lat": 38.917807833333335, "is_disabled": 0, "lon": -76.973319, "is_reserved": 0}, {"bike_id": "e64cde656bed299c4098357d30669246", "fusion_lon": 0.0, "type": "electric_bike", "name": "e64cde656bed299c4098357d30669246", "rental_uris": {"android": "https://dc.lft.to/lastmile_qr_scan", "ios": "https://dc.lft.to/lastmile_qr_scan"}, "fusion_lat": 0.0, "lat": 39.115108666666664, "is_disabled": 0, "lon": -77.19551766666666, "is_reserved": 0}, {"bike_id": "acc8f09f1f8213d5ed98a21898ca477d", "fusion_lon": 0.0, "type": "electric_scooter", "name": "acc8f09f1f8213d5ed98a21898ca477d", "rental_uris": {"android": "https://dc.lft.to/lastmile_qr_scan", "ios": "https://dc.lft.to/lastmile_qr_scan"}, "fusion_lat": 0.0, "lat": 38.91418933333333, "is_disabled": 0, "lon": -77.03013466666667, "is_reserved": 0}, {"bike_id": "24b83d1ecac28d82142a8d6c014719cb", "fusion_lon": 0.0, "type": "electric_scooter", "name": "24b83d1ecac28d82142a8d6c014719cb", "rental_uris": {"android": "https://dc.lft.to/lastmile_qr_scan", "ios": "https://dc.lft.to/lastmile_qr_scan"}, "fusion_lat": 0.0, "lat": 38.9532675, "is_disabled": 0, "lon": -77.0165625, "is_reserved": 0}, {"bike_id": "cc842d7b55b16acdecf137088300cc6f", "fusion_lon": 0.0, "type": "electric_scooter", "name": "cc842d7b55b16acdecf137088300cc6f", "rental_uris": {"android": "https://dc.lft.to/lastmile_qr_scan", "ios": "https://dc.lft.to/lastmile_qr_scan"}, "fusion_lat": 0.0, "lat": 38.912030666666666, "is_disabled": 0, "lon": -77.02953, "is_reserved": 0}, {"bike_id": "d592c6da68c064f2416d52dbc38d3f2d", "fusion_lon": 0.0, "type": "electric_scooter", "name": "d592c6da68c064f2416d52dbc38d3f2d", "rental_uris": {"android": "https://dc.lft.to/lastmile_qr_scan", "ios": "https://dc.lft.to/lastmile_qr_scan"}, "fusion_lat": 0.0, "lat": 38.9201955, "is_disabled": 0, "lon": -76.99566183333333, "is_reserved": 0}, {"bike_id": "f6f0178de61c770f8d434e789883aa6f", "fusion_lon": 0.0, "type": "electric_scooter", "name": "f6f0178de61c770f8d434e789883aa6f", "rental_uris": {"android": "https://dc.lft.to/lastmile_qr_scan", "ios": "https://dc.lft.to/lastmile_qr_scan"}, "fusion_lat": 0.0, "lat": 38.922701, "is_disabled": 0, "lon": -76.99772283333333, "is_reserved": 0}, {"bike_id": "d205bfed01169775afd435e8413b2963", "fusion_lon": 0.0, "type": "electric_bike", "name": "d205bfed01169775afd435e8413b2963", "rental_uris": {"android": "https://dc.lft.to/lastmile_qr_scan", "ios": "https://dc.lft.to/lastmile_qr_scan"}, "fusion_lat": 0.0, "lat": 38.93562433333334, "is_disabled": 0, "lon": -76.9546565, "is_reserved": 0}, {"bike_id": "5af4ae67a9bfd95375fb626bc35c325b", "fusion_lon": 0.0, "type": "electric_scooter", "name": "5af4ae67a9bfd95375fb626bc35c325b", "rental_uris": {"android": "https://dc.lft.to/lastmile_qr_scan", "ios": "https://dc.lft.to/lastmile_qr_scan"}, "fusion_lat": 0.0, "lat": 38.898486166666665, "is_disabled": 0, "lon": -76.99036416666667, "is_reserved": 0}, {"bike_id": "017bd42ce1feb932679cc13b0ee0cc9d", "fusion_lon": 0.0, "type": "electric_bike", "name": "017bd42ce1feb932679cc13b0ee0cc9d", "rental_uris": {"android": "https://dc.lft.to/lastmile_qr_scan", "ios": "https://dc.lft.to/lastmile_qr_scan"}, "fusion_lat": 0.0, "lat": 38.938584666666664, "is_disabled": 0, "lon": -77.04236616666667, "is_reserved": 0}, {"bike_id": "d14fa81ede3e11cd8f0aba4feb686f52", "fusion_lon": 0.0, "type": "electric_scooter", "name": "d14fa81ede3e11cd8f0aba4feb686f52", "rental_uris": {"android": "https://dc.lft.to/lastmile_qr_scan", "ios": "https://dc.lft.to/lastmile_qr_scan"}, "fusion_lat": 0.0, "lat": 38.92016266666667, "is_disabled": 0, "lon": -77.03159016666666, "is_reserved": 0}, {"bike_id": "9213cdf5b4b15a5ea98d36a1f5e4fbe6", "fusion_lon": 0.0, "type": "electric_scooter", "name": "9213cdf5b4b15a5ea98d36a1f5e4fbe6", "rental_uris": {"android": "https://dc.lft.to/lastmile_qr_scan", "ios": "https://dc.lft.to/lastmile_qr_scan"}, "fusion_lat": 0.0, "lat": 38.9087405, "is_disabled": 0, "lon": -77.01837066666667, "is_reserved": 0}, {"bike_id": "63441eb5d197e29b227f7183784b9c91", "fusion_lon": 0.0, "type": "electric_bike", "name": "63441eb5d197e29b227f7183784b9c91", "rental_uris": {"android": "https://dc.lft.to/lastmile_qr_scan", "ios": "https://dc.lft.to/lastmile_qr_scan"}, "fusion_lat": 0.0, "lat": 38.962214, "is_disabled": 0, "lon": -77.02633183333333, "is_reserved": 0}, {"bike_id": "f43ec1b03396bdc45cfcf10e53814922", "fusion_lon": 0.0, "type": "electric_scooter", "name": "f43ec1b03396bdc45cfcf10e53814922", "rental_uris": {"android": "https://dc.lft.to/lastmile_qr_scan", "ios": "https://dc.lft.to/lastmile_qr_scan"}, "fusion_lat": 0.0, "lat": 38.91345966666667, "is_disabled": 0, "lon": -77.039757, "is_reserved": 0}, {"bike_id": "37480486f2e43fff62872308da3c7d8a", "fusion_lon": 0.0, "type": "electric_scooter", "name": "37480486f2e43fff62872308da3c7d8a", "rental_uris": {"android": "https://dc.lft.to/lastmile_qr_scan", "ios": "https://dc.lft.to/lastmile_qr_scan"}, "fusion_lat": 0.0, "lat": 38.885099333333336, "is_disabled": 0, "lon": -77.0335935, "is_reserved": 0}, {"bike_id": "13816af32e483b3a4ea0b31a5fe20f40", "fusion_lon": 0.0, "type": "electric_scooter", "name": "13816af32e483b3a4ea0b31a5fe20f40", "rental_uris": {"android": "https://dc.lft.to/lastmile_qr_scan", "ios": "https://dc.lft.to/lastmile_qr_scan"}, "fusion_lat": 0.0, "lat": 38.95657816666667, "is_disabled": 0, "lon": -77.03334366666667, "is_reserved": 0}, {"bike_id": "e31d9a80d6b4c1d00ad9f867db9d7f85", "fusion_lon": 0.0, "type": "electric_scooter", "name": "e31d9a80d6b4c1d00ad9f867db9d7f85", "rental_uris": {"android": "https://dc.lft.to/lastmile_qr_scan", "ios": "https://dc.lft.to/lastmile_qr_scan"}, "fusion_lat": 0.0, "lat": 38.940946, "is_disabled": 0, "lon": -77.02537916666667, "is_reserved": 0}, {"bike_id": "c1aa8e2cb995b4e7b65113bfac7fe3cc", "fusion_lon": 0.0, "type": "electric_scooter", "name": "c1aa8e2cb995b4e7b65113bfac7fe3cc", "rental_uris": {"android": "https://dc.lft.to/lastmile_qr_scan", "ios": "https://dc.lft.to/lastmile_qr_scan"}, "fusion_lat": 0.0, "lat": 38.88600316666667, "is_disabled": 0, "lon": -76.994597, "is_reserved": 0}, {"bike_id": "118ed895a6103574aa0947f0cd9a7de4", "fusion_lon": 0.0, "type": "electric_scooter", "name": "118ed895a6103574aa0947f0cd9a7de4", "rental_uris": {"android": "https://dc.lft.to/lastmile_qr_scan", "ios": "https://dc.lft.to/lastmile_qr_scan"}, "fusion_lat": 0.0, "lat": 38.90954333333333, "is_disabled": 0, "lon": -77.02389233333334, "is_reserved": 0}, {"bike_id": "f8fa2de6afdeaf586703c9d46d4a4dd1", "fusion_lon": 0.0, "type": "electric_bike", "name": "f8fa2de6afdeaf586703c9d46d4a4dd1", "rental_uris": {"android": "https://dc.lft.to/lastmile_qr_scan", "ios": "https://dc.lft.to/lastmile_qr_scan"}, "fusion_lat": 0.0, "lat": 39.0884255, "is_disabled": 0, "lon": -77.17802516666667, "is_reserved": 0}, {"bike_id": "20923aa782662824ae4a7bf86a9a746d", "fusion_lon": 0.0, "type": "electric_bike", "name": "20923aa782662824ae4a7bf86a9a746d", "rental_uris": {"android": "https://dc.lft.to/lastmile_qr_scan", "ios": "https://dc.lft.to/lastmile_qr_scan"}, "fusion_lat": 0.0, "lat": 38.856173, "is_disabled": 0, "lon": -77.0854515, "is_reserved": 0}, {"bike_id": "ec665c8da430bb8937d91c754f6c3135", "fusion_lon": 0.0, "type": "electric_scooter", "name": "ec665c8da430bb8937d91c754f6c3135", "rental_uris": {"android": "https://dc.lft.to/lastmile_qr_scan", "ios": "https://dc.lft.to/lastmile_qr_scan"}, "fusion_lat": 0.0, "lat": 38.86675983333333, "is_disabled": 0, "lon": -76.98891033333334, "is_reserved": 0}, {"bike_id": "f2f7b7432947cef17479d6e0b6f25d43", "fusion_lon": 0.0, "type": "electric_scooter", "name": "f2f7b7432947cef17479d6e0b6f25d43", "rental_uris": {"android": "https://dc.lft.to/lastmile_qr_scan", "ios": "https://dc.lft.to/lastmile_qr_scan"}, "fusion_lat": 0.0, "lat": 38.9506705, "is_disabled": 0, "lon": -77.06537233333333, "is_reserved": 0}, {"bike_id": "85bdafee2f8e7acb20f2ce5a574a5674", "fusion_lon": 0.0, "type": "electric_scooter", "name": "85bdafee2f8e7acb20f2ce5a574a5674", "rental_uris": {"android": "https://dc.lft.to/lastmile_qr_scan", "ios": "https://dc.lft.to/lastmile_qr_scan"}, "fusion_lat": 0.0, "lat": 38.8926965, "is_disabled": 0, "lon": -77.020379, "is_reserved": 0}, {"bike_id": "ab8da4d8c628d551bed2c19985dd25de", "fusion_lon": 0.0, "type": "electric_scooter", "name": "ab8da4d8c628d551bed2c19985dd25de", "rental_uris": {"android": "https://dc.lft.to/lastmile_qr_scan", "ios": "https://dc.lft.to/lastmile_qr_scan"}, "fusion_lat": 0.0, "lat": 38.896188333333335, "is_disabled": 0, "lon": -76.9993475, "is_reserved": 0}, {"bike_id": "fffec493d8b63a45cdd1a760b44cfbbf", "fusion_lon": 0.0, "type": "electric_scooter", "name": "fffec493d8b63a45cdd1a760b44cfbbf", "rental_uris": {"android": "https://dc.lft.to/lastmile_qr_scan", "ios": "https://dc.lft.to/lastmile_qr_scan"}, "fusion_lat": 0.0, "lat": 38.90564966666667, "is_disabled": 0, "lon": -77.062726, "is_reserved": 0}, {"bike_id": "d7c9e42a55e0ad40773bc1d4c64aefff", "fusion_lon": 0.0, "type": "electric_scooter", "name": "d7c9e42a55e0ad40773bc1d4c64aefff", "rental_uris": {"android": "https://dc.lft.to/lastmile_qr_scan", "ios": "https://dc.lft.to/lastmile_qr_scan"}, "fusion_lat": 0.0, "lat": 38.93323683333333, "is_disabled": 0, "lon": -77.03794, "is_reserved": 0}, {"bike_id": "84c81d7fd9487f895a8d9c9321a8c314", "fusion_lon": 0.0, "type": "electric_scooter", "name": "84c81d7fd9487f895a8d9c9321a8c314", "rental_uris": {"android": "https://dc.lft.to/lastmile_qr_scan", "ios": "https://dc.lft.to/lastmile_qr_scan"}, "fusion_lat": 0.0, "lat": 38.894054, "is_disabled": 0, "lon": -76.98564483333334, "is_reserved": 0}, {"bike_id": "bdc4ef1f5c9cd0ee54fb6bacd766c0c8", "fusion_lon": 0.0, "type": "electric_scooter", "name": "bdc4ef1f5c9cd0ee54fb6bacd766c0c8", "rental_uris": {"android": "https://dc.lft.to/lastmile_qr_scan", "ios": "https://dc.lft.to/lastmile_qr_scan"}, "fusion_lat": 0.0, "lat": 38.92507833333333, "is_disabled": 0, "lon": -77.0258215, "is_reserved": 0}, {"bike_id": "bedf112460bb9dca3b7dc7c7782a3262", "fusion_lon": 0.0, "type": "electric_scooter", "name": "bedf112460bb9dca3b7dc7c7782a3262", "rental_uris": {"android": "https://dc.lft.to/lastmile_qr_scan", "ios": "https://dc.lft.to/lastmile_qr_scan"}, "fusion_lat": 0.0, "lat": 38.904237333333334, "is_disabled": 0, "lon": -77.0288695, "is_reserved": 0}, {"bike_id": "f15d2c4a7ae10efe9c7aae4497cf000d", "fusion_lon": 0.0, "type": "electric_scooter", "name": "f15d2c4a7ae10efe9c7aae4497cf000d", "rental_uris": {"android": "https://dc.lft.to/lastmile_qr_scan", "ios": "https://dc.lft.to/lastmile_qr_scan"}, "fusion_lat": 0.0, "lat": 38.919149166666664, "is_disabled": 0, "lon": -77.021376, "is_reserved": 0}, {"bike_id": "4eadcfcbd12afd6e6b3c06c2340418be", "fusion_lon": 0.0, "type": "electric_scooter", "name": "4eadcfcbd12afd6e6b3c06c2340418be", "rental_uris": {"android": "https://dc.lft.to/lastmile_qr_scan", "ios": "https://dc.lft.to/lastmile_qr_scan"}, "fusion_lat": 0.0, "lat": 38.9512985, "is_disabled": 0, "lon": -77.02727166666666, "is_reserved": 0}, {"bike_id": "f8451fb06d63b75a8d1b2f9ed2c6d60e", "fusion_lon": 0.0, "type": "electric_scooter", "name": "f8451fb06d63b75a8d1b2f9ed2c6d60e", "rental_uris": {"android": "https://dc.lft.to/lastmile_qr_scan", "ios": "https://dc.lft.to/lastmile_qr_scan"}, "fusion_lat": 0.0, "lat": 38.91556466666667, "is_disabled": 0, "lon": -77.02434, "is_reserved": 0}, {"bike_id": "7d1dc426eebfcaefb032c60a81ead2cd", "fusion_lon": 0.0, "type": "electric_scooter", "name": "7d1dc426eebfcaefb032c60a81ead2cd", "rental_uris": {"android": "https://dc.lft.to/lastmile_qr_scan", "ios": "https://dc.lft.to/lastmile_qr_scan"}, "fusion_lat": 0.0, "lat": 38.923783, "is_disabled": 0, "lon": -77.040875, "is_reserved": 0}, {"bike_id": "8d94acd64d65ab75635b92e3a8ebe539", "fusion_lon": 0.0, "type": "electric_scooter", "name": "8d94acd64d65ab75635b92e3a8ebe539", "rental_uris": {"android": "https://dc.lft.to/lastmile_qr_scan", "ios": "https://dc.lft.to/lastmile_qr_scan"}, "fusion_lat": 0.0, "lat": 38.9358925, "is_disabled": 0, "lon": -77.03368883333333, "is_reserved": 0}, {"bike_id": "d7b592741ef941a4ec6f3182c6158d9e", "fusion_lon": 0.0, "type": "electric_scooter", "name": "d7b592741ef941a4ec6f3182c6158d9e", "rental_uris": {"android": "https://dc.lft.to/lastmile_qr_scan", "ios": "https://dc.lft.to/lastmile_qr_scan"}, "fusion_lat": 0.0, "lat": 38.903841166666666, "is_disabled": 0, "lon": -77.04389183333333, "is_reserved": 0}, {"bike_id": "3bcf5dc3e28a88d0980908b0f59078bf", "fusion_lon": 0.0, "type": "electric_bike", "name": "3bcf5dc3e28a88d0980908b0f59078bf", "rental_uris": {"android": "https://dc.lft.to/lastmile_qr_scan", "ios": "https://dc.lft.to/lastmile_qr_scan"}, "fusion_lat": 0.0, "lat": 38.924946, "is_disabled": 0, "lon": -77.05760116666667, "is_reserved": 0}, {"bike_id": "53f12b021c043b97a34485f50e61de68", "fusion_lon": 0.0, "type": "electric_scooter", "name": "53f12b021c043b97a34485f50e61de68", "rental_uris": {"android": "https://dc.lft.to/lastmile_qr_scan", "ios": "https://dc.lft.to/lastmile_qr_scan"}, "fusion_lat": 0.0, "lat": 38.917605333333334, "is_disabled": 0, "lon": -77.0391725, "is_reserved": 0}, {"bike_id": "d5b404ade1f5bc272354085d637fc1df", "fusion_lon": 0.0, "type": "electric_bike", "name": "d5b404ade1f5bc272354085d637fc1df", "rental_uris": {"android": "https://dc.lft.to/lastmile_qr_scan", "ios": "https://dc.lft.to/lastmile_qr_scan"}, "fusion_lat": 0.0, "lat": 38.8922405, "is_disabled": 0, "lon": -77.107688, "is_reserved": 0}, {"bike_id": "1d7bb896268f09c20ea7938df2c62e42", "fusion_lon": 0.0, "type": "electric_bike", "name": "1d7bb896268f09c20ea7938df2c62e42", "rental_uris": {"android": "https://dc.lft.to/lastmile_qr_scan", "ios": "https://dc.lft.to/lastmile_qr_scan"}, "fusion_lat": 0.0, "lat": 38.868572, "is_disabled": 0, "lon": -76.9165335, "is_reserved": 0}, {"bike_id": "dc4d9d027dee166875c3cc49570eeaec", "fusion_lon": 0.0, "type": "electric_scooter", "name": "dc4d9d027dee166875c3cc49570eeaec", "rental_uris": {"android": "https://dc.lft.to/lastmile_qr_scan", "ios": "https://dc.lft.to/lastmile_qr_scan"}, "fusion_lat": 0.0, "lat": 38.904267833333336, "is_disabled": 0, "lon": -77.03128183333334, "is_reserved": 0}, {"bike_id": "a010119566f7ad2314b00cd4621c7a83", "fusion_lon": 0.0, "type": "electric_bike", "name": "a010119566f7ad2314b00cd4621c7a83", "rental_uris": {"android": "https://dc.lft.to/lastmile_qr_scan", "ios": "https://dc.lft.to/lastmile_qr_scan"}, "fusion_lat": 0.0, "lat": 38.841313, "is_disabled": 0, "lon": -77.06316383333333, "is_reserved": 0}, {"bike_id": "36aa0d157918ade9230bf4aee9675f8d", "fusion_lon": 0.0, "type": "electric_scooter", "name": "36aa0d157918ade9230bf4aee9675f8d", "rental_uris": {"android": "https://dc.lft.to/lastmile_qr_scan", "ios": "https://dc.lft.to/lastmile_qr_scan"}, "fusion_lat": 0.0, "lat": 38.93210116666667, "is_disabled": 0, "lon": -77.03271433333333, "is_reserved": 0}, {"bike_id": "ffd6406279fe8de3e0ee381d57abe634", "fusion_lon": 0.0, "type": "electric_scooter", "name": "ffd6406279fe8de3e0ee381d57abe634", "rental_uris": {"android": "https://dc.lft.to/lastmile_qr_scan", "ios": "https://dc.lft.to/lastmile_qr_scan"}, "fusion_lat": 0.0, "lat": 38.89694383333333, "is_disabled": 0, "lon": -77.02124066666667, "is_reserved": 0}, {"bike_id": "7458509c6a9e102c13797ff6f760fd22", "fusion_lon": 0.0, "type": "electric_scooter", "name": "7458509c6a9e102c13797ff6f760fd22", "rental_uris": {"android": "https://dc.lft.to/lastmile_qr_scan", "ios": "https://dc.lft.to/lastmile_qr_scan"}, "fusion_lat": 0.0, "lat": 38.92865333333334, "is_disabled": 0, "lon": -77.02739733333334, "is_reserved": 0}, {"bike_id": "0c2534e105127449f42a121521a16751", "fusion_lon": 0.0, "type": "electric_scooter", "name": "0c2534e105127449f42a121521a16751", "rental_uris": {"android": "https://dc.lft.to/lastmile_qr_scan", "ios": "https://dc.lft.to/lastmile_qr_scan"}, "fusion_lat": 0.0, "lat": 38.887451666666664, "is_disabled": 0, "lon": -77.02575933333334, "is_reserved": 0}, {"bike_id": "629c206e226293282c128fdf86d1912b", "fusion_lon": 0.0, "type": "electric_scooter", "name": "629c206e226293282c128fdf86d1912b", "rental_uris": {"android": "https://dc.lft.to/lastmile_qr_scan", "ios": "https://dc.lft.to/lastmile_qr_scan"}, "fusion_lat": 0.0, "lat": 38.909466333333334, "is_disabled": 0, "lon": -76.99907916666666, "is_reserved": 0}, {"bike_id": "889e0b86ba7b5552f4640930c02d3694", "fusion_lon": 0.0, "type": "electric_scooter", "name": "889e0b86ba7b5552f4640930c02d3694", "rental_uris": {"android": "https://dc.lft.to/lastmile_qr_scan", "ios": "https://dc.lft.to/lastmile_qr_scan"}, "fusion_lat": 0.0, "lat": 38.90387533333333, "is_disabled": 0, "lon": -77.04063133333334, "is_reserved": 0}, {"bike_id": "6025d40f0c4e9be770697c867ffcf5b3", "fusion_lon": 0.0, "type": "electric_scooter", "name": "6025d40f0c4e9be770697c867ffcf5b3", "rental_uris": {"android": "https://dc.lft.to/lastmile_qr_scan", "ios": "https://dc.lft.to/lastmile_qr_scan"}, "fusion_lat": 0.0, "lat": 38.9269135, "is_disabled": 0, "lon": -77.02272366666666, "is_reserved": 0}, {"bike_id": "bcf48519cba0c4203db5f4f5b1d47162", "fusion_lon": 0.0, "type": "electric_scooter", "name": "bcf48519cba0c4203db5f4f5b1d47162", "rental_uris": {"android": "https://dc.lft.to/lastmile_qr_scan", "ios": "https://dc.lft.to/lastmile_qr_scan"}, "fusion_lat": 0.0, "lat": 38.923328, "is_disabled": 0, "lon": -77.03581633333333, "is_reserved": 0}, {"bike_id": "df13e356a8f51a91fcb28b26167089cf", "fusion_lon": 0.0, "type": "electric_bike", "name": "df13e356a8f51a91fcb28b26167089cf", "rental_uris": {"android": "https://dc.lft.to/lastmile_qr_scan", "ios": "https://dc.lft.to/lastmile_qr_scan"}, "fusion_lat": 0.0, "lat": 38.802946166666665, "is_disabled": 0, "lon": -77.03992966666667, "is_reserved": 0}, {"bike_id": "723ad54b2b39c7d2cb2f002933647acd", "fusion_lon": 0.0, "type": "electric_scooter", "name": "723ad54b2b39c7d2cb2f002933647acd", "rental_uris": {"android": "https://dc.lft.to/lastmile_qr_scan", "ios": "https://dc.lft.to/lastmile_qr_scan"}, "fusion_lat": 0.0, "lat": 38.844729, "is_disabled": 0, "lon": -76.99512683333333, "is_reserved": 0}, {"bike_id": "b190ab29687d62798a6273f11e0bbce2", "fusion_lon": 0.0, "type": "electric_scooter", "name": "b190ab29687d62798a6273f11e0bbce2", "rental_uris": {"android": "https://dc.lft.to/lastmile_qr_scan", "ios": "https://dc.lft.to/lastmile_qr_scan"}, "fusion_lat": 0.0, "lat": 38.928320666666664, "is_disabled": 0, "lon": -77.02162216666666, "is_reserved": 0}, {"bike_id": "bf430307f46cb59e5e9f04346d684303", "fusion_lon": 0.0, "type": "electric_scooter", "name": "bf430307f46cb59e5e9f04346d684303", "rental_uris": {"android": "https://dc.lft.to/lastmile_qr_scan", "ios": "https://dc.lft.to/lastmile_qr_scan"}, "fusion_lat": 0.0, "lat": 38.91764933333333, "is_disabled": 0, "lon": -77.01882283333333, "is_reserved": 0}, {"bike_id": "c4ec44c24e5657d72796a22c223622bd", "fusion_lon": 0.0, "type": "electric_scooter", "name": "c4ec44c24e5657d72796a22c223622bd", "rental_uris": {"android": "https://dc.lft.to/lastmile_qr_scan", "ios": "https://dc.lft.to/lastmile_qr_scan"}, "fusion_lat": 0.0, "lat": 38.96624116666667, "is_disabled": 0, "lon": -77.02749366666667, "is_reserved": 0}, {"bike_id": "7d5dba26885d2a4d8e92bd187b5f9517", "fusion_lon": 0.0, "type": "electric_scooter", "name": "7d5dba26885d2a4d8e92bd187b5f9517", "rental_uris": {"android": "https://dc.lft.to/lastmile_qr_scan", "ios": "https://dc.lft.to/lastmile_qr_scan"}, "fusion_lat": 0.0, "lat": 38.86372816666667, "is_disabled": 0, "lon": -76.9745925, "is_reserved": 0}, {"bike_id": "8476f4ef310df215d392def89c10b7f6", "fusion_lon": 0.0, "type": "electric_scooter", "name": "8476f4ef310df215d392def89c10b7f6", "rental_uris": {"android": "https://dc.lft.to/lastmile_qr_scan", "ios": "https://dc.lft.to/lastmile_qr_scan"}, "fusion_lat": 0.0, "lat": 38.88104033333333, "is_disabled": 0, "lon": -77.02645533333333, "is_reserved": 0}, {"bike_id": "14bb193be1f0d4841553e2a07e76cd4e", "fusion_lon": 0.0, "type": "electric_scooter", "name": "14bb193be1f0d4841553e2a07e76cd4e", "rental_uris": {"android": "https://dc.lft.to/lastmile_qr_scan", "ios": "https://dc.lft.to/lastmile_qr_scan"}, "fusion_lat": 0.0, "lat": 38.90508833333333, "is_disabled": 0, "lon": -77.04341483333333, "is_reserved": 0}, {"bike_id": "76563ff3638df089c019f52fe17b6571", "fusion_lon": 0.0, "type": "electric_scooter", "name": "76563ff3638df089c019f52fe17b6571", "rental_uris": {"android": "https://dc.lft.to/lastmile_qr_scan", "ios": "https://dc.lft.to/lastmile_qr_scan"}, "fusion_lat": 0.0, "lat": 38.90212866666667, "is_disabled": 0, "lon": -77.0480745, "is_reserved": 0}, {"bike_id": "0fb36717edb506a75ab9afdd82d32c4b", "fusion_lon": 0.0, "type": "electric_scooter", "name": "0fb36717edb506a75ab9afdd82d32c4b", "rental_uris": {"android": "https://dc.lft.to/lastmile_qr_scan", "ios": "https://dc.lft.to/lastmile_qr_scan"}, "fusion_lat": 0.0, "lat": 38.8983825, "is_disabled": 0, "lon": -77.03313083333333, "is_reserved": 0}, {"bike_id": "fa7b00f164d5935a4a129fc13be0ab7b", "fusion_lon": 0.0, "type": "electric_scooter", "name": "fa7b00f164d5935a4a129fc13be0ab7b", "rental_uris": {"android": "https://dc.lft.to/lastmile_qr_scan", "ios": "https://dc.lft.to/lastmile_qr_scan"}, "fusion_lat": 0.0, "lat": 38.911041166666664, "is_disabled": 0, "lon": -77.04231333333334, "is_reserved": 0}, {"bike_id": "ae9ef36b6d75a1a3d1136bc169bdb9b2", "fusion_lon": 0.0, "type": "electric_scooter", "name": "ae9ef36b6d75a1a3d1136bc169bdb9b2", "rental_uris": {"android": "https://dc.lft.to/lastmile_qr_scan", "ios": "https://dc.lft.to/lastmile_qr_scan"}, "fusion_lat": 0.0, "lat": 38.899034666666665, "is_disabled": 0, "lon": -77.02405283333333, "is_reserved": 0}, {"bike_id": "6f021a2602858d16a0c4f35cced31633", "fusion_lon": 0.0, "type": "electric_scooter", "name": "6f021a2602858d16a0c4f35cced31633", "rental_uris": {"android": "https://dc.lft.to/lastmile_qr_scan", "ios": "https://dc.lft.to/lastmile_qr_scan"}, "fusion_lat": 0.0, "lat": 38.9249795, "is_disabled": 0, "lon": -77.04336083333334, "is_reserved": 0}, {"bike_id": "eec2476b83d8d11703e778c18e476b67", "fusion_lon": 0.0, "type": "electric_scooter", "name": "eec2476b83d8d11703e778c18e476b67", "rental_uris": {"android": "https://dc.lft.to/lastmile_qr_scan", "ios": "https://dc.lft.to/lastmile_qr_scan"}, "fusion_lat": 0.0, "lat": 38.8802065, "is_disabled": 0, "lon": -76.98828533333334, "is_reserved": 0}, {"bike_id": "6cc048b85de631816d8a6f8fb4184f62", "fusion_lon": 0.0, "type": "electric_scooter", "name": "6cc048b85de631816d8a6f8fb4184f62", "rental_uris": {"android": "https://dc.lft.to/lastmile_qr_scan", "ios": "https://dc.lft.to/lastmile_qr_scan"}, "fusion_lat": 0.0, "lat": 38.902731, "is_disabled": 0, "lon": -77.03471366666666, "is_reserved": 0}, {"bike_id": "820eed81d04e4c86d6911c1f1cf23bc3", "fusion_lon": 0.0, "type": "electric_bike", "name": "820eed81d04e4c86d6911c1f1cf23bc3", "rental_uris": {"android": "https://dc.lft.to/lastmile_qr_scan", "ios": "https://dc.lft.to/lastmile_qr_scan"}, "fusion_lat": 0.0, "lat": 38.855394833333335, "is_disabled": 0, "lon": -77.1071765, "is_reserved": 0}, {"bike_id": "076c209501ec124617a183b4ec6bb837", "fusion_lon": 0.0, "type": "electric_bike", "name": "076c209501ec124617a183b4ec6bb837", "rental_uris": {"android": "https://dc.lft.to/lastmile_qr_scan", "ios": "https://dc.lft.to/lastmile_qr_scan"}, "fusion_lat": 0.0, "lat": 38.992201666666666, "is_disabled": 0, "lon": -76.87773133333333, "is_reserved": 0}, {"bike_id": "7c4e4e14120419c15256425ff74dcd36", "fusion_lon": 0.0, "type": "electric_scooter", "name": "7c4e4e14120419c15256425ff74dcd36", "rental_uris": {"android": "https://dc.lft.to/lastmile_qr_scan", "ios": "https://dc.lft.to/lastmile_qr_scan"}, "fusion_lat": 0.0, "lat": 38.907191166666664, "is_disabled": 0, "lon": -77.0450625, "is_reserved": 0}, {"bike_id": "f2688090098f7676d73487d69344d109", "fusion_lon": 0.0, "type": "electric_scooter", "name": "f2688090098f7676d73487d69344d109", "rental_uris": {"android": "https://dc.lft.to/lastmile_qr_scan", "ios": "https://dc.lft.to/lastmile_qr_scan"}, "fusion_lat": 0.0, "lat": 38.899269833333335, "is_disabled": 0, "lon": -77.05522516666667, "is_reserved": 0}, {"bike_id": "af676927036b9b4fabbbcb10ba2f6565", "fusion_lon": 0.0, "type": "electric_scooter", "name": "af676927036b9b4fabbbcb10ba2f6565", "rental_uris": {"android": "https://dc.lft.to/lastmile_qr_scan", "ios": "https://dc.lft.to/lastmile_qr_scan"}, "fusion_lat": 0.0, "lat": 38.900225666666664, "is_disabled": 0, "lon": -76.98786916666667, "is_reserved": 0},