{"data": {"bikes": [{"lat": 38.899286000000004, "is_disabled": 0, "type": "electric_scooter", "lon": -77.02178233333333, "bike_id": "75b688ba66572f3c0c4acfee5474a68d", "fusion_lat": 0.0, "name": "75b688ba66572f3c0c4acfee5474a68d", "is_reserved": 0, "rental_uris": {"android": "https://dc.lft.to/lastmile_qr_scan", "ios": "https://dc.lft.to/lastmile_qr_scan"}, "fusion_lon": 0.0}, {"lat": 38.933502, "is_disabled": 0, "type": "electric_scooter", "lon": -77.0586455, "bike_id": "7ef9fac8c8ad616be6e51176bee3b6b1", "fusion_lat": 0.0, "name": "7ef9fac8c8ad616be6e51176bee3b6b1", "is_reserved": 0, "rental_uris": {"android": "https://dc.lft.to/lastmile_qr_scan", "ios": "https://dc.lft.to/lastmile_qr_scan"}, "fusion_lon": 0.0}, {"lat": 38.8977255, "is_disabled": 0, "type": "electric_scooter", "lon": -77.0514445, "bike_id": "f0e526683f2ca08b3f91a112a886da53", "fusion_lat": 0.0, "name": "f0e526683f2ca08b3f91a112a886da53", "is_reserved": 0, "rental_uris": {"android": "https://dc.lft.to/lastmile_qr_scan", "ios": "https://dc.lft.to/lastmile_qr_scan"}, "fusion_lon": 0.0}, {"lat": 38.897099, "is_disabled": 0, "type": "electric_scooter", "lon": -77.0072305, "bike_id": "15956c897e7230f27bf0177af58d3ee6", "fusion_lat": 0.0, "name": "15956c897e7230f27bf0177af58d3ee6", "is_reserved": 0, "rental_uris": {"android": "https://dc.lft.to/lastmile_qr_scan", "ios": "https://dc.lft.to/lastmile_qr_scan"}, "fusion_lon": 0.0}, {"lat": 38.91713166666667, "is_disabled": 0, "type": "electric_scooter", "lon": -77.03857416666666, "bike_id": "36ab6582c5d6ecc1f8f7736800f54f27", "fusion_lat": 0.0, "name": "36ab6582c5d6ecc1f8f7736800f54f27", "is_reserved": 0, "rental_uris": {"android": "https://dc.lft.to/lastmile_qr_scan", "ios": "https://dc.lft.to/lastmile_qr_scan"}, "fusion_lon": 0.0}, {"lat": 38.922970666666664, "is_disabled": 0, "type": "electric_scooter", "lon": -77.041426, "bike_id": "c14478fd201fcd78cd92c96d95c3634a", "fusion_lat": 0.0, "name": "c14478fd201fcd78cd92c96d95c3634a", "is_reserved": 0, "rental_uris": {"android": "https://dc.lft.to/lastmile_qr_scan", "ios": "https://dc.lft.to/lastmile_qr_scan"}, "fusion_lon": 0.0}, {"lat": 38.92311733333333, "is_disabled": 0, "type": "electric_scooter", "lon": -77.03961216666667, "bike_id": "135382412c55a6b00a83e83dac1102ce", "fusion_lat": 0.0, "name": "135382412c55a6b00a83e83dac1102ce", "is_reserved": 0, "rental_uris": {"android": "https://dc.lft.to/lastmile_qr_scan", "ios": "https://dc.lft.to/lastmile_qr_scan"}, "fusion_lon": 0.0}, {"lat": 38.86646533333333, "is_disabled": 0, "type": "electric_scooter", "lon": -76.98886316666666, "bike_id": "0c22b8a90b74d0ad1b5825b7ced9f577", "fusion_lat": 0.0, "name": "0c22b8a90b74d0ad1b5825b7ced9f577", "is_reserved": 0, "rental_uris": {"android": "https://dc.lft.to/lastmile_qr_scan", "ios": "https://dc.lft.to/lastmile_qr_scan"}, "fusion_lon": 0.0}, {"lat": 38.917072833333336, "is_disabled": 0, "type": "electric_scooter", "lon": -77.03216866666666, "bike_id": "c9b4dba37982dc97fa1412d10c8b676c", "fusion_lat": 0.0, "name": "c9b4dba37982dc97fa1412d10c8b676c", "is_reserved": 0, "rental_uris": {"android": "https://dc.lft.to/lastmile_qr_scan", "ios": "https://dc.lft.to/lastmile_qr_scan"}, "fusion_lon": 0.0}, {"lat": 38.92486233333333, "is_disabled": 0, "type": "electric_scooter", "lon": -77.05216833333333, "bike_id": "01329febd75bb2dd7e10d6dbc6a58047", "fusion_lat": 0.0, "name": "01329febd75bb2dd7e10d6dbc6a58047", "is_reserved": 0, "rental_uris": {"android": "https://dc.lft.to/lastmile_qr_scan", "ios": "https://dc.lft.to/lastmile_qr_scan"}, "fusion_lon": 0.0}, {"lat": 38.905714333333336, "is_disabled": 0, "type": "electric_scooter", "lon": -76.98873433333333, "bike_id": "4866908320fd98faa59c9384aa4379f7", "fusion_lat": 0.0, "name": "4866908320fd98faa59c9384aa4379f7", "is_reserved": 0, "rental_uris": {"android": "https://dc.lft.to/lastmile_qr_scan", "ios": "https://dc.lft.to/lastmile_qr_scan"}, "fusion_lon": 0.0}, {"lat": 38.91182416666667, "is_disabled": 0, "type": "electric_scooter", "lon": -77.03863733333333, "bike_id": "11bf7c9fbacf3ab9addeb26829b61bdf", "fusion_lat": 0.0, "name": "11bf7c9fbacf3ab9addeb26829b61bdf", "is_reserved": 0, "rental_uris": {"android": "https://dc.lft.to/lastmile_qr_scan", "ios": "https://dc.lft.to/lastmile_qr_scan"}, "fusion_lon": 0.0}, {"lat": 39.02433416666667, "is_disabled": 0, "type": "electric_bike", "lon": -77.13102016666667, "bike_id": "a501747ae1d665ad0764040dc2940ac6", "fusion_lat": 0.0, "name": "a501747ae1d665ad0764040dc2940ac6", "is_reserved": 0, "rental_uris": {"android": "https://dc.lft.to/lastmile_qr_scan", "ios": "https://dc.lft.to/lastmile_qr_scan"}, "fusion_lon": 0.0}, {"lat": 38.94520466666667, "is_disabled": 0, "type": "electric_scooter", "lon": -77.06392466666667, "bike_id": "97e150c225a469d410c4a7704dfff3a0", "fusion_lat": 0.0, "name": "97e150c225a469d410c4a7704dfff3a0", "is_reserved": 0, "rental_uris": {"android": "https://dc.lft.to/lastmile_qr_scan", "ios": "https://dc.lft.to/lastmile_qr_scan"}, "fusion_lon": 0.0}, {"lat": 38.9111855, "is_disabled": 0, "type": "electric_scooter", "lon": -77.03834483333333, "bike_id": "bc7baf5f56144d728aa0e20e9a5ce499", "fusion_lat": 0.0, "name": "bc7baf5f56144d728aa0e20e9a5ce499", "is_reserved": 0, "rental_uris": {"android": "https://dc.lft.to/lastmile_qr_scan", "ios": "https://dc.lft.to/lastmile_qr_scan"}, "fusion_lon": 0.0}, {"lat": 38.965033166666664, "is_disabled": 0, "type": "electric_bike", "lon": -76.93849883333333, "bike_id": "d11499235dfd353a54bf119ab190ee58", "fusion_lat": 0.0, "name": "d11499235dfd353a54bf119ab190ee58", "is_reserved": 0, "rental_uris": {"android": "https://dc.lft.to/lastmile_qr_scan", "ios": "https://dc.lft.to/lastmile_qr_scan"}, "fusion_lon": 0.0}, {"lat": 38.910509166666664, "is_disabled": 0, "type": "electric_scooter", "lon": -77.04095483333333, "bike_id": "fe1616c766bb770a8c34fe6594d71036", "fusion_lat": 0.0, "name": "fe1616c766bb770a8c34fe6594d71036", "is_reserved": 0, "rental_uris": {"android": "https://dc.lft.to/lastmile_qr_scan", "ios": "https://dc.lft.to/lastmile_qr_scan"}, "fusion_lon": 0.0}, {"lat": 38.885842833333335, "is_disabled": 0, "type": "electric_scooter", "lon": -77.01225883333333, "bike_id": "eb44e3384dee2493db45bacf69da8152", "fusion_lat": 0.0, "name": "eb44e3384dee2493db45bacf69da8152", "is_reserved": 0, "rental_uris": {"android": "https://dc.lft.to/lastmile_qr_scan", "ios": "https://dc.lft.to/lastmile_qr_scan"}, "fusion_lon": 0.0}, {"lat": 38.862321333333334, "is_disabled": 0, "type": "electric_scooter", "lon": -76.99548816666666, "bike_id": "9ffe2f0846121d13fea4cdbf92c46998", "fusion_lat": 0.0, "name": "9ffe2f0846121d13fea4cdbf92c46998", "is_reserved": 0, "rental_uris": {"android": "https://dc.lft.to/lastmile_qr_scan", "ios": "https://dc.lft.to/lastmile_qr_scan"}, "fusion_lon": 0.0}, {"lat": 38.9361605, "is_disabled": 0, "type": "electric_scooter", "lon": -77.0321515, "bike_id": "a3c8cf9735e33d0e3649923e5fe6d038", "fusion_lat": 0.0, "name": "a3c8cf9735e33d0e3649923e5fe6d038", "is_reserved": 0, "rental_uris": {"android": "https://dc.lft.to/lastmile_qr_scan", "ios": "https://dc.lft.to/lastmile_qr_scan"}, "fusion_lon": 0.0}, {"lat": 38.90777116666667, "is_disabled": 0, "type": "electric_scooter", "lon": -77.03863533333333, "bike_id": "d257972e52ef6acd5545a5ab923e0410", "fusion_lat": 0.0, "name": "d257972e52ef6acd5545a5ab923e0410", "is_reserved": 0, "rental_uris": {"android": "https://dc.lft.to/lastmile_qr_scan", "ios": "https://dc.lft.to/lastmile_qr_scan"}, "fusion_lon": 0.0}, {"lat": 39.030434, "is_disabled": 0, "type": "electric_bike", "lon": -77.09476533333333, "bike_id": "18d256c0ab5d53017ee9bd1e8b366f89", "fusion_lat": 0.0, "name": "18d256c0ab5d53017ee9bd1e8b366f89", "is_reserved": 0, "rental_uris": {"android": "https://dc.lft.to/lastmile_qr_scan", "ios": "https://dc.lft.to/lastmile_qr_scan"}, "fusion_lon": 0.0}, {"lat": 38.87208966666667, "is_disabled": 0, "type": "electric_scooter", "lon": -77.017669, "bike_id": "14f7f93cad9b36297648c81ea8e4aafd", "fusion_lat": 0.0, "name": "14f7f93cad9b36297648c81ea8e4aafd", "is_reserved": 0, "rental_uris": {"android": "https://dc.lft.to/lastmile_qr_scan", "ios": "https://dc.lft.to/lastmile_qr_scan"}, "fusion_lon": 0.0}, {"lat": 38.89979666666667, "is_disabled": 0, "type": "electric_scooter", "lon": -77.0335245, "bike_id": "54d1584661a2f9d3bb87ca82bdb420b5", "fusion_lat": 0.0, "name": "54d1584661a2f9d3bb87ca82bdb420b5", "is_reserved": 0, "rental_uris": {"android": "https://dc.lft.to/lastmile_qr_scan", "ios": "https://dc.lft.to/lastmile_qr_scan"}, "fusion_lon": 0.0}, {"lat": 38.91685416666667, "is_disabled": 0, "type": "electric_scooter", "lon": -77.02949283333334, "bike_id": "9c8acb693351ac55174a3a449d4de81d", "fusion_lat": 0.0, "name": "9c8acb693351ac55174a3a449d4de81d", "is_reserved": 0, "rental_uris": {"android": "https://dc.lft.to/lastmile_qr_scan", "ios": "https://dc.lft.to/lastmile_qr_scan"}, "fusion_lon": 0.0}, {"lat": 38.927475333333334, "is_disabled": 0, "type": "electric_scooter", "lon": -77.02978216666666, "bike_id": "cb400eaeb3f3f5855f9c49c896a42749", "fusion_lat": 0.0, "name": "cb400eaeb3f3f5855f9c49c896a42749", "is_reserved": 0, "rental_uris": {"android": "https://dc.lft.to/lastmile_qr_scan", "ios": "https://dc.lft.to/lastmile_qr_scan"}, "fusion_lon": 0.0}, {"lat": 38.864539666666666, "is_disabled": 0, "type": "electric_bike", "lon": -76.94541616666666, "bike_id": "041c54e0762c7a8082fb4e0b4ca3a407", "fusion_lat": 0.0, "name": "041c54e0762c7a8082fb4e0b4ca3a407", "is_reserved": 0, "rental_uris": {"android": "https://dc.lft.to/lastmile_qr_scan", "ios": "https://dc.lft.to/lastmile_qr_scan"}, "fusion_lon": 0.0}, {"lat": 38.8545005, "is_disabled": 0, "type": "electric_scooter", "lon": -76.98576833333334, "bike_id": "a48a28e233c21a1c865a199dd65295d9", "fusion_lat": 0.0, "name": "a48a28e233c21a1c865a199dd65295d9", "is_reserved": 0, "rental_uris": {"android": "https://dc.lft.to/lastmile_qr_scan", "ios": "https://dc.lft.to/lastmile_qr_scan"}, "fusion_lon": 0.0}, {"lat": 38.90262533333333, "is_disabled": 0, "type": "electric_scooter", "lon": -77.03369566666667, "bike_id": "c4dc302226ba3135e24dda53f926a5f1", "fusion_lat": 0.0, "name": "c4dc302226ba3135e24dda53f926a5f1", "is_reserved": 0, "rental_uris": {"android": "https://dc.lft.to/lastmile_qr_scan", "ios": "https://dc.lft.to/lastmile_qr_scan"}, "fusion_lon": 0.0}, {"lat": 38.92251483333333, "is_disabled": 0, "type": "electric_scooter", "lon": -77.02730633333333, "bike_id": "53766d0ef401869a7796de6ceadf9bb9", "fusion_lat": 0.0, "name": "53766d0ef401869a7796de6ceadf9bb9", "is_reserved": 0, "rental_uris": {"android": "https://dc.lft.to/lastmile_qr_scan", "ios": "https://dc.lft.to/lastmile_qr_scan"}, "fusion_lon": 0.0}, {"lat": 38.9103, "is_disabled": 0, "type": "electric_scooter", "lon": -76.99812883333334, "bike_id": "4f38bdc807ef69009c5451a38afc1f0c", "fusion_lat": 0.0, "name": "4f38bdc807ef69009c5451a38afc1f0c", "is_reserved": 0, "rental_uris": {"android": "https://dc.lft.to/lastmile_qr_scan", "ios": "https://dc.lft.to/lastmile_qr_scan"}, "fusion_lon": 0.0}, {"lat": 38.90207733333333, "is_disabled": 0, "type": "electric_scooter", "lon": -77.02373033333333, "bike_id": "ab96c73d1fb67d40a421dca3b614deec", "fusion_lat": 0.0, "name": "ab96c73d1fb67d40a421dca3b614deec", "is_reserved": 0, "rental_uris": {"android": "https://dc.lft.to/lastmile_qr_scan", "ios": "https://dc.lft.to/lastmile_qr_scan"}, "fusion_lon": 0.0}, {"lat": 38.8714665, "is_disabled": 0, "type": "electric_bike", "lon": -76.93702633333334, "bike_id": "9cda4157266dab5848a6be3cf75a2695", "fusion_lat": 0.0, "name": "9cda4157266dab5848a6be3cf75a2695", "is_reserved": 0, "rental_uris": {"android": "https://dc.lft.to/lastmile_qr_scan", "ios": "https://dc.lft.to/lastmile_qr_scan"}, "fusion_lon": 0.0}, {"lat": 38.907889833333336, "is_disabled": 0, "type": "electric_scooter", "lon": -77.02283783333333, "bike_id": "43ffb8b740d49a88037ed720edd06353", "fusion_lat": 0.0, "name": "43ffb8b740d49a88037ed720edd06353", "is_reserved": 0, "rental_uris": {"android": "https://dc.lft.to/lastmile_qr_scan", "ios": "https://dc.lft.to/lastmile_qr_scan"}, "fusion_lon": 0.0}, {"lat": 38.8897255, "is_disabled": 0, "type": "electric_scooter", "lon": -76.97937133333333, "bike_id": "b154709b49748ea8766af2805ffa2ad6", "fusion_lat": 0.0, "name": "b154709b49748ea8766af2805ffa2ad6", "is_reserved": 0, "rental_uris": {"android": "https://dc.lft.to/lastmile_qr_scan", "ios": "https://dc.lft.to/lastmile_qr_scan"}, "fusion_lon": 0.0}, {"lat": 38.916134666666665, "is_disabled": 0, "type": "electric_scooter", "lon": -77.029566, "bike_id": "bccaee8f5eedd91c6bad13d7dd065e30", "fusion_lat": 0.0, "name": "bccaee8f5eedd91c6bad13d7dd065e30", "is_reserved": 0, "rental_uris": {"android": "https://dc.lft.to/lastmile_qr_scan", "ios": "https://dc.lft.to/lastmile_qr_scan"}, "fusion_lon": 0.0}, {"lat": 38.922454, "is_disabled": 0, "type": "electric_scooter", "lon": -77.00260983333334, "bike_id": "2b52292272268663073a7fa648a1d87c", "fusion_lat": 0.0, "name": "2b52292272268663073a7fa648a1d87c", "is_reserved": 0, "rental_uris": {"android": "https://dc.lft.to/lastmile_qr_scan", "ios": "https://dc.lft.to/lastmile_qr_scan"}, "fusion_lon": 0.0}, {"lat": 38.9580665, "is_disabled": 0, "type": "electric_scooter", "lon": -77.0315995, "bike_id": "af74dc0aafacd132e6292cccc5998d40", "fusion_lat": 0.0, "name": "af74dc0aafacd132e6292cccc5998d40", "is_reserved": 0, "rental_uris": {"android": "https://dc.lft.to/lastmile_qr_scan", "ios": "https://dc.lft.to/lastmile_qr_scan"}, "fusion_lon": 0.0}, {"lat": 38.95613866666667, "is_disabled": 0, "type": "electric_scooter", "lon": -77.0277675, "bike_id": "fc3314b9fad4e60668ebf08c5a1aead9", "fusion_lat": 0.0, "name": "fc3314b9fad4e60668ebf08c5a1aead9", "is_reserved": 0, "rental_uris": {"android": "https://dc.lft.to/lastmile_qr_scan", "ios": "https://dc.lft.to/lastmile_qr_scan"}, "fusion_lon": 0.0}, {"lat": 38.917669833333335, "is_disabled": 0, "type": "electric_scooter", "lon": -77.0231615, "bike_id": "008198f29f888ed4f931c62588d922e6", "fusion_lat": 0.0, "name": "008198f29f888ed4f931c62588d922e6", "is_reserved": 0, "rental_uris": {"android": "https://dc.lft.to/lastmile_qr_scan", "ios": "https://dc.lft.to/lastmile_qr_scan"}, "fusion_lon": 0.0}, {"lat": 38.9628625, "is_disabled": 0, "type": "electric_bike", "lon": -77.0325745, "bike_id": "3e6eaf959376476ecb8281119ea0b341", "fusion_lat": 0.0, "name": "3e6eaf959376476ecb8281119ea0b341", "is_reserved": 0, "rental_uris": {"android": "https://dc.lft.to/lastmile_qr_scan", "ios": "https://dc.lft.to/lastmile_qr_scan"}, "fusion_lon": 0.0}, {"lat": 38.92329633333333, "is_disabled": 0, "type": "electric_bike", "lon": -77.05685183333334, "bike_id": "a19909484f6fc761d2c03f42f4dad631", "fusion_lat": 0.0, "name": "a19909484f6fc761d2c03f42f4dad631", "is_reserved": 0, "rental_uris": {"android": "https://dc.lft.to/lastmile_qr_scan", "ios": "https://dc.lft.to/lastmile_qr_scan"}, "fusion_lon": 0.0}, {"lat": 38.91315683333333, "is_disabled": 0, "type": "electric_scooter", "lon": -77.03643116666667, "bike_id": "e7bf95ee3b875255e65eecf925cbdd72", "fusion_lat": 0.0, "name": "e7bf95ee3b875255e65eecf925cbdd72", "is_reserved": 0, "rental_uris": {"android": "https://dc.lft.to/lastmile_qr_scan", "ios": "https://dc.lft.to/lastmile_qr_scan"}, "fusion_lon": 0.0}, {"lat": 38.898521833333334, "is_disabled": 0, "type": "electric_scooter", "lon": -76.99032116666666, "bike_id": "e4a08791cba2656de662736949ecb180", "fusion_lat": 0.0, "name": "e4a08791cba2656de662736949ecb180", "is_reserved": 0, "rental_uris": {"android": "https://dc.lft.to/lastmile_qr_scan", "ios": "https://dc.lft.to/lastmile_qr_scan"}, "fusion_lon": 0.0}, {"lat": 38.902133166666665, "is_disabled": 0, "type": "electric_scooter", "lon": -76.94590583333333, "bike_id": "d691972e4f01caf1988ba9bfb990601a", "fusion_lat": 0.0, "name": "d691972e4f01caf1988ba9bfb990601a", "is_reserved": 0, "rental_uris": {"android": "https://dc.lft.to/lastmile_qr_scan", "ios": "https://dc.lft.to/lastmile_qr_scan"}, "fusion_lon": 0.0}, {"lat": 38.95538466666667, "is_disabled": 0, "type": "electric_bike", "lon": -77.017783, "bike_id": "2f92789cb2654952ce181035ed24478e", "fusion_lat": 0.0, "name": "2f92789cb2654952ce181035ed24478e", "is_reserved": 0, "rental_uris": {"android": "https://dc.lft.to/lastmile_qr_scan", "ios": "https://dc.lft.to/lastmile_qr_scan"}, "fusion_lon": 0.0}, {"lat": 38.930095, "is_disabled": 0, "type": "electric_bike", "lon": -77.21649866666667, "bike_id": "40abdcd98c77e9e77f589f3233397698", "fusion_lat": 0.0, "name": "40abdcd98c77e9e77f589f3233397698", "is_reserved": 0, "rental_uris": {"android": "https://dc.lft.to/lastmile_qr_scan", "ios": "https://dc.lft.to/lastmile_qr_scan"}, "fusion_lon": 0.0}, {"lat": 38.89779683333333, "is_disabled": 0, "type": "electric_scooter", "lon": -77.04357833333333, "bike_id": "38a5480b3cea9e2eef0b99ba002aa6a2", "fusion_lat": 0.0, "name": "38a5480b3cea9e2eef0b99ba002aa6a2", "is_reserved": 0, "rental_uris": {"android": "https://dc.lft.to/lastmile_qr_scan", "ios": "https://dc.lft.to/lastmile_qr_scan"}, "fusion_lon": 0.0}, {"lat": 38.9156565, "is_disabled": 0, "type": "electric_scooter", "lon": -77.04665383333334, "bike_id": "84030f8052fe0990c40da98b3c9a9749", "fusion_lat": 0.0, "name": "84030f8052fe0990c40da98b3c9a9749", "is_reserved": 0, "rental_uris": {"android": "https://dc.lft.to/lastmile_qr_scan", "ios": "https://dc.lft.to/lastmile_qr_scan"}, "fusion_lon": 0.0}, {"lat": 38.8720895, "is_disabled": 0, "type": "electric_bike", "lon": -77.01524483333333, "bike_id": "51fc422310598cf7f32e7004f5b3af81", "fusion_lat": 0.0, "name": "51fc422310598cf7f32e7004f5b3af81", "is_reserved": 0, "rental_uris": {"android": "https://dc.lft.to/lastmile_qr_scan", "ios": "https://dc.lft.to/lastmile_qr_scan"}, "fusion_lon": 0.0}, {"lat": 38.93145116666667, "is_disabled": 0, "type": "electric_scooter", "lon": -77.0282275, "bike_id": "1c3640522d8d6f761b58f75c635308a2", "fusion_lat": 0.0, "name": "1c3640522d8d6f761b58f75c635308a2", "is_reserved": 0, "rental_uris": {"android": "https://dc.lft.to/lastmile_qr_scan", "ios": "https://dc.lft.to/lastmile_qr_scan"}, "fusion_lon": 0.0}, {"lat": 38.90246883333333, "is_disabled": 0, "type": "electric_scooter", "lon": -77.017578, "bike_id": "1e5be9a485867342d810e25f17b7bd46", "fusion_lat": 0.0, "name": "1e5be9a485867342d810e25f17b7bd46", "is_reserved": 0, "rental_uris": {"android": "https://dc.lft.to/lastmile_qr_scan", "ios": "https://dc.lft.to/lastmile_qr_scan"}, "fusion_lon": 0.0}, {"lat": 38.9217055, "is_disabled": 0, "type": "electric_scooter", "lon": -77.0424315, "bike_id": "87bb0d86309bea7d1808d80145a5c474", "fusion_lat": 0.0, "name": "87bb0d86309bea7d1808d80145a5c474", "is_reserved": 0, "rental_uris": {"android": "https://dc.lft.to/lastmile_qr_scan", "ios": "https://dc.lft.to/lastmile_qr_scan"}, "fusion_lon": 0.0}, {"lat": 38.91710783333333, "is_disabled": 0, "type": "electric_scooter", "lon": -77.03215633333333, "bike_id": "5def8dd284b358acf2c919e53b586ab0", "fusion_lat": 0.0, "name": "5def8dd284b358acf2c919e53b586ab0", "is_reserved": 0, "rental_uris": {"android": "https://dc.lft.to/lastmile_qr_scan", "ios": "https://dc.lft.to/lastmile_qr_scan"}, "fusion_lon": 0.0}, {"lat": 38.8627005, "is_disabled": 0, "type": "electric_scooter", "lon": -76.99245866666666, "bike_id": "d399313823b8f4769022d988d07d882c", "fusion_lat": 0.0, "name": "d399313823b8f4769022d988d07d882c", "is_reserved": 0, "rental_uris": {"android": "https://dc.lft.to/lastmile_qr_scan", "ios": "https://dc.lft.to/lastmile_qr_scan"}, "fusion_lon": 0.0}, {"lat": 38.91963666666667, "is_disabled": 0, "type": "electric_scooter", "lon": -77.032076, "bike_id": "04baeb84cf4a1f2a70399fd3de0c2d29", "fusion_lat": 0.0, "name": "04baeb84cf4a1f2a70399fd3de0c2d29", "is_reserved": 0, "rental_uris": {"android": "https://dc.lft.to/lastmile_qr_scan", "ios": "https://dc.lft.to/lastmile_qr_scan"}, "fusion_lon": 0.0}, {"lat": 38.91317766666667, "is_disabled": 0, "type": "electric_scooter", "lon": -77.03215466666667, "bike_id": "cb85a571bfaf1a113b55e3846bbeb555", "fusion_lat": 0.0, "name": "cb85a571bfaf1a113b55e3846bbeb555", "is_reserved": 0, "rental_uris": {"android": "https://dc.lft.to/lastmile_qr_scan", "ios": "https://dc.lft.to/lastmile_qr_scan"}, "fusion_lon": 0.0}, {"lat": 38.90545783333334, "is_disabled": 0, "type": "electric_scooter", "lon": -77.00570833333333, "bike_id": "fa810c5a45bf32fd3bec77e1414b2a05", "fusion_lat": 0.0, "name": "fa810c5a45bf32fd3bec77e1414b2a05", "is_reserved": 0, "rental_uris": {"android": "https://dc.lft.to/lastmile_qr_scan", "ios": "https://dc.lft.to/lastmile_qr_scan"}, "fusion_lon": 0.0}, {"lat": 38.935691, "is_disabled": 0, "type": "electric_scooter", "lon": -77.0326475, "bike_id": "3cae60bbc12f509b320ad9ec099ea3f3", "fusion_lat": 0.0, "name": "3cae60bbc12f509b320ad9ec099ea3f3", "is_reserved": 0, "rental_uris": {"android": "https://dc.lft.to/lastmile_qr_scan", "ios": "https://dc.lft.to/lastmile_qr_scan"}, "fusion_lon": 0.0}, {"lat": 38.949435, "is_disabled": 0, "type": "electric_scooter", "lon": -77.0202415, "bike_id": "6d05453b45933d24084dc36baf5bc882", "fusion_lat": 0.0, "name": "6d05453b45933d24084dc36baf5bc882", "is_reserved": 0, "rental_uris": {"android": "https://dc.lft.to/lastmile_qr_scan", "ios": "https://dc.lft.to/lastmile_qr_scan"}, "fusion_lon": 0.0}, {"lat": 38.89647516666667, "is_disabled": 0, "type": "electric_scooter", "lon": -77.00788933333334, "bike_id": "10338569ce9812e8acf79e7fd7439af8", "fusion_lat": 0.0, "name": "10338569ce9812e8acf79e7fd7439af8", "is_reserved": 0, "rental_uris": {"android": "https://dc.lft.to/lastmile_qr_scan", "ios": "https://dc.lft.to/lastmile_qr_scan"}, "fusion_lon": 0.0}, {"lat": 38.90483566666666, "is_disabled": 0, "type": "electric_scooter", "lon": -77.05732183333333, "bike_id": "a0dfbaba1fcc8f4de8578a6340f4445f", "fusion_lat": 0.0, "name": "a0dfbaba1fcc8f4de8578a6340f4445f", "is_reserved": 0, "rental_uris": {"android": "https://dc.lft.to/lastmile_qr_scan", "ios": "https://dc.lft.to/lastmile_qr_scan"}, "fusion_lon": 0.0}, {"lat": 38.912070166666666, "is_disabled": 0, "type": "electric_scooter", "lon": -77.038438, "bike_id": "8a8498fd49b75b28c5b109a05c7657f0", "fusion_lat": 0.0, "name": "8a8498fd49b75b28c5b109a05c7657f0", "is_reserved": 0, "rental_uris": {"android": "https://dc.lft.to/lastmile_qr_scan", "ios": "https://dc.lft.to/lastmile_qr_scan"}, "fusion_lon": 0.0}, {"lat": 38.9190945, "is_disabled": 0, "type": "electric_scooter", "lon": -77.04629216666666, "bike_id": "5a2eab39e8036a404b551c784e755d31", "fusion_lat": 0.0, "name": "5a2eab39e8036a404b551c784e755d31", "is_reserved": 0, "rental_uris": {"android": "https://dc.lft.to/lastmile_qr_scan", "ios": "https://dc.lft.to/lastmile_qr_scan"}, "fusion_lon": 0.0}, {"lat": 38.90963583333333, "is_disabled": 0, "type": "electric_scooter", "lon": -77.03728933333333, "bike_id": "62a2240adfc84d0d17b91de9f9b3e1f0", "fusion_lat": 0.0, "name": "62a2240adfc84d0d17b91de9f9b3e1f0", "is_reserved": 0, "rental_uris": {"android": "https://dc.lft.to/lastmile_qr_scan", "ios": "https://dc.lft.to/lastmile_qr_scan"}, "fusion_lon": 0.0}, {"lat": 38.90412883333333, "is_disabled": 0, "type": "electric_scooter", "lon": -77.04330983333334, "bike_id": "2e822fa748fa44e76eca599945134e36", "fusion_lat": 0.0, "name": "2e822fa748fa44e76eca599945134e36", "is_reserved": 0, "rental_uris": {"android": "https://dc.lft.to/lastmile_qr_scan", "ios": "https://dc.lft.to/lastmile_qr_scan"}, "fusion_lon": 0.0}, {"lat": 38.865284333333335, "is_disabled": 0, "type": "electric_scooter", "lon": -76.99035083333334, "bike_id": "c84a40fbbc9e880695cdb29e0c875d4c", "fusion_lat": 0.0, "name": "c84a40fbbc9e880695cdb29e0c875d4c", "is_reserved": 0, "rental_uris": {"android": "https://dc.lft.to/lastmile_qr_scan", "ios": "https://dc.lft.to/lastmile_qr_scan"}, "fusion_lon": 0.0}, {"lat": 38.86373583333334, "is_disabled": 0, "type": "electric_scooter", "lon": -76.99061566666667, "bike_id": "b8f7fcd605ca90769a9bdd7080af2d4a", "fusion_lat": 0.0, "name": "b8f7fcd605ca90769a9bdd7080af2d4a", "is_reserved": 0, "rental_uris": {"android": "https://dc.lft.to/lastmile_qr_scan", "ios": "https://dc.lft.to/lastmile_qr_scan"}, "fusion_lon": 0.0}, {"lat": 38.91287466666667, "is_disabled": 0, "type": "electric_scooter", "lon": -77.04515833333333, "bike_id": "09395442f725993f49b27ee1653db152", "fusion_lat": 0.0, "name": "09395442f725993f49b27ee1653db152", "is_reserved": 0, "rental_uris": {"android": "https://dc.lft.to/lastmile_qr_scan", "ios": "https://dc.lft.to/lastmile_qr_scan"}, "fusion_lon": 0.0}, {"lat": 38.899552166666666, "is_disabled": 0, "type": "electric_scooter", "lon": -77.02128416666666, "bike_id": "fb7fad410348b53f23eefc39f3e4ab86", "fusion_lat": 0.0, "name": "fb7fad410348b53f23eefc39f3e4ab86", "is_reserved": 0, "rental_uris": {"android": "https://dc.lft.to/lastmile_qr_scan", "ios": "https://dc.lft.to/lastmile_qr_scan"}, "fusion_lon": 0.0}, {"lat": 38.87678483333333, "is_disabled": 0, "type": "electric_scooter", "lon": -77.0178625, "bike_id": "647003f412706ff6bb9718c95976ed57", "fusion_lat": 0.0, "name": "647003f412706ff6bb9718c95976ed57", "is_reserved": 0, "rental_uris": {"android": "https://dc.lft.to/lastmile_qr_scan", "ios": "https://dc.lft.to/lastmile_qr_scan"}, "fusion_lon": 0.0}, {"lat": 38.89720333333333, "is_disabled": 0, "type": "electric_scooter", "lon": -77.0258115, "bike_id": "5b5d724bf44527af651acb7df738a218", "fusion_lat": 0.0, "name": "5b5d724bf44527af651acb7df738a218", "is_reserved": 0, "rental_uris": {"android": "https://dc.lft.to/lastmile_qr_scan", "ios": "https://dc.lft.to/lastmile_qr_scan"}, "fusion_lon": 0.0}, {"lat": 38.898221666666664, "is_disabled": 0, "type": "electric_scooter", "lon": -77.00578366666667, "bike_id": "8d86dc779657a4322a91985ecae2839e", "fusion_lat": 0.0, "name": "8d86dc779657a4322a91985ecae2839e", "is_reserved": 0, "rental_uris": {"android": "https://dc.lft.to/lastmile_qr_scan", "ios": "https://dc.lft.to/lastmile_qr_scan"}, "fusion_lon": 0.0}, {"lat": 38.897157, "is_disabled": 0, "type": "electric_scooter", "lon": -77.02578033333333, "bike_id": "74220433448e2330d48ef174c774f65a", "fusion_lat": 0.0, "name": "74220433448e2330d48ef174c774f65a", "is_reserved": 0, "rental_uris": {"android": "https://dc.lft.to/lastmile_qr_scan", "ios": "https://dc.lft.to/lastmile_qr_scan"}, "fusion_lon": 0.0}, {"lat": 38.9096565, "is_disabled": 0, "type": "electric_scooter", "lon": -77.04800416666667, "bike_id": "96c3b415b941e7198cb4b5e9b9fb3ee9", "fusion_lat": 0.0, "name": "96c3b415b941e7198cb4b5e9b9fb3ee9", "is_reserved": 0, "rental_uris": {"android": "https://dc.lft.to/lastmile_qr_scan", "ios": "https://dc.lft.to/lastmile_qr_scan"}, "fusion_lon": 0.0}, {"lat": 38.90038466666667, "is_disabled": 0, "type": "electric_scooter", "lon": -77.033756, "bike_id": "65e9cee13adb5440c0eac1ed05d69e28", "fusion_lat": 0.0, "name": "65e9cee13adb5440c0eac1ed05d69e28", "is_reserved": 0, "rental_uris": {"android": "https://dc.lft.to/lastmile_qr_scan", "ios": "https://dc.lft.to/lastmile_qr_scan"}, "fusion_lon": 0.0}, {"lat": 38.91614333333333, "is_disabled": 0, "type": "electric_scooter", "lon": -77.04860983333333, "bike_id": "96bf454672f9422e86cee3e3902fd9a7", "fusion_lat": 0.0, "name": "96bf454672f9422e86cee3e3902fd9a7", "is_reserved": 0, "rental_uris": {"android": "https://dc.lft.to/lastmile_qr_scan", "ios": "https://dc.lft.to/lastmile_qr_scan"}, "fusion_lon": 0.0}, {"lat": 38.860452, "is_disabled": 0, "type": "electric_scooter", "lon": -77.05750433333333, "bike_id": "63afd6a4b56f30e02bcfe23052c6e230", "fusion_lat": 0.0, "name": "63afd6a4b56f30e02bcfe23052c6e230", "is_reserved": 0, "rental_uris": {"android": "https://dc.lft.to/lastmile_qr_scan", "ios": "https://dc.lft.to/lastmile_qr_scan"}, "fusion_lon": 0.0}, {"lat": 38.901799833333335, "is_disabled": 0, "type": "electric_scooter", "lon": -77.022947, "bike_id": "c163b9c808e12f41e86518968150dcf0", "fusion_lat": 0.0, "name": "c163b9c808e12f41e86518968150dcf0", "is_reserved": 0, "rental_uris": {"android": "https://dc.lft.to/lastmile_qr_scan", "ios": "https://dc.lft.to/lastmile_qr_scan"}, "fusion_lon": 0.0}, {"lat": 38.922393166666666, "is_disabled": 0, "type": "electric_scooter", "lon": -77.0457035, "bike_id": "15e19f0331c4d30e55aea3224bc50c43", "fusion_lat": 0.0, "name": "15e19f0331c4d30e55aea3224bc50c43", "is_reserved": 0, "rental_uris": {"android": "https://dc.lft.to/lastmile_qr_scan", "ios": "https://dc.lft.to/lastmile_qr_scan"}, "fusion_lon": 0.0}, {"lat": 38.903167833333335, "is_disabled": 0, "type": "electric_scooter", "lon": -77.03747, "bike_id": "5ad4bc6703012eecdb578d90268d88cc", "fusion_lat": 0.0, "name": "5ad4bc6703012eecdb578d90268d88cc", "is_reserved": 0, "rental_uris": {"android": "https://dc.lft.to/lastmile_qr_scan", "ios": "https://dc.lft.to/lastmile_qr_scan"}, "fusion_lon": 0.0}, {"lat": 38.9386195, "is_disabled": 0, "type": "electric_scooter", "lon": -77.02562416666666, "bike_id": "e10b591a7fe9da20ac83d23e05f5e836", "fusion_lat": 0.0, "name": "e10b591a7fe9da20ac83d23e05f5e836", "is_reserved": 0, "rental_uris": {"android": "https://dc.lft.to/lastmile_qr_scan", "ios": "https://dc.lft.to/lastmile_qr_scan"}, "fusion_lon": 0.0}, {"lat": 38.91601466666667, "is_disabled": 0, "type": "electric_scooter", "lon": -77.03846883333334, "bike_id": "b161e3dc9ac64b0c3811c892dbef6d89", "fusion_lat": 0.0, "name": "b161e3dc9ac64b0c3811c892dbef6d89", "is_reserved": 0, "rental_uris": {"android": "https://dc.lft.to/lastmile_qr_scan", "ios": "https://dc.lft.to/lastmile_qr_scan"}, "fusion_lon": 0.0}, {"lat": 38.90525233333334, "is_disabled": 0, "type": "electric_scooter", "lon": -77.0605755, "bike_id": "b7d90234ab0e93744233b7e638b9a6a8", "fusion_lat": 0.0, "name": "b7d90234ab0e93744233b7e638b9a6a8", "is_reserved": 0, "rental_uris": {"android": "https://dc.lft.to/lastmile_qr_scan", "ios": "https://dc.lft.to/lastmile_qr_scan"}, "fusion_lon": 0.0}, {"lat": 38.918602666666665, "is_disabled": 0, "type": "electric_scooter", "lon": -77.04592233333334, "bike_id": "6009475b48d7962cf03bc3558eac666b", "fusion_lat": 0.0, "name": "6009475b48d7962cf03bc3558eac666b", "is_reserved": 0, "rental_uris": {"android": "https://dc.lft.to/lastmile_qr_scan", "ios": "https://dc.lft.to/lastmile_qr_scan"}, "fusion_lon": 0.0}, {"lat": 38.89546516666667, "is_disabled": 0, "type": "electric_scooter", "lon": -77.0110405, "bike_id": "ab86b399aef935110fd01a963e3fdb4f", "fusion_lat": 0.0, "name": "ab86b399aef935110fd01a963e3fdb4f", "is_reserved": 0, "rental_uris": {"android": "https://dc.lft.to/lastmile_qr_scan", "ios": "https://dc.lft.to/lastmile_qr_scan"}, "fusion_lon": 0.0}, {"lat": 38.9722865, "is_disabled": 0, "type": "electric_bike", "lon": -76.9934045, "bike_id": "c45031515f1b209060ecb1c016cb6b26", "fusion_lat": 0.0, "name": "c45031515f1b209060ecb1c016cb6b26", "is_reserved": 0, "rental_uris": {"android": "https://dc.lft.to/lastmile_qr_scan", "ios": "https://dc.lft.to/lastmile_qr_scan"}, "fusion_lon": 0.0}, {"lat": 38.9050925, "is_disabled": 0, "type": "electric_scooter", "lon": -77.04737966666667, "bike_id": "818fa4c42da047b9df05dc3ec0a56c8b", "fusion_lat": 0.0, "name": "818fa4c42da047b9df05dc3ec0a56c8b", "is_reserved": 0, "rental_uris": {"android": "https://dc.lft.to/lastmile_qr_scan", "ios": "https://dc.lft.to/lastmile_qr_scan"}, "fusion_lon": 0.0}, {"lat": 38.9195175, "is_disabled": 0, "type": "electric_scooter", "lon": -76.9808175, "bike_id": "1cde15ac6409859d8e1bac4392e05688", "fusion_lat": 0.0, "name": "1cde15ac6409859d8e1bac4392e05688", "is_reserved": 0, "rental_uris": {"android": "https://dc.lft.to/lastmile_qr_scan", "ios": "https://dc.lft.to/lastmile_qr_scan"}, "fusion_lon": 0.0}, {"lat": 38.81430966666667, "is_disabled": 0, "type": "electric_bike", "lon": -77.11891783333333, "bike_id": "b27f137926d43d26d79321097d6654f8", "fusion_lat": 0.0, "name": "b27f137926d43d26d79321097d6654f8", "is_reserved": 0, "rental_uris": {"android": "https://dc.lft.to/lastmile_qr_scan", "ios": "https://dc.lft.to/lastmile_qr_scan"}, "fusion_lon": 0.0}, {"lat": 38.880313666666666, "is_disabled": 0, "type": "electric_scooter", "lon": -77.00572716666667, "bike_id": "37e82a0d3de31461104be38e96d2b86a", "fusion_lat": 0.0, "name": "37e82a0d3de31461104be38e96d2b86a", "is_reserved": 0, "rental_uris": {"android": "https://dc.lft.to/lastmile_qr_scan", "ios": "https://dc.lft.to/lastmile_qr_scan"}, "fusion_lon": 0.0}, {"lat": 38.8661515, "is_disabled": 0, "type": "electric_scooter", "lon": -76.9866025, "bike_id": "37d3d11cf025b8d3032aef0cda094a6c", "fusion_lat": 0.0, "name": "37d3d11cf025b8d3032aef0cda094a6c", "is_reserved": 0, "rental_uris": {"android": "https://dc.lft.to/lastmile_qr_scan", "ios": "https://dc.lft.to/lastmile_qr_scan"}, "fusion_lon": 0.0}, {"lat": 38.90598216666667, "is_disabled": 0, "type": "electric_scooter", "lon": -77.02384233333333, "bike_id": "1dbbbecd8c3c44ba5fe599ebcaf21abe", "fusion_lat": 0.0, "name": "1dbbbecd8c3c44ba5fe599ebcaf21abe", "is_reserved": 0, "rental_uris": {"android": "https://dc.lft.to/lastmile_qr_scan", "ios": "https://dc.lft.to/lastmile_qr_scan"}, "fusion_lon": 0.0}, {"lat": 38.9083685, "is_disabled": 0, "type": "electric_scooter", "lon": -77.02954716666666, "bike_id": "6d41abfa53d880c8aa4ba413d1add37c", "fusion_lat": 0.0, "name": "6d41abfa53d880c8aa4ba413d1add37c", "is_reserved": 0, "rental_uris": {"android": "https://dc.lft.to/lastmile_qr_scan", "ios": "https://dc.lft.to/lastmile_qr_scan"}, "fusion_lon": 0.0}, {"lat": 38.90631966666667, "is_disabled": 0, "type": "electric_scooter", "lon": -77.01371433333334, "bike_id": "26256c57535dcedb51d6ed33f777cc64", "fusion_lat": 0.0, "name": "26256c57535dcedb51d6ed33f777cc64", "is_reserved": 0, "rental_uris": {"android": "https://dc.lft.to/lastmile_qr_scan", "ios": "https://dc.lft.to/lastmile_qr_scan"}, "fusion_lon": 0.0}, {"lat": 38.94039866666667, "is_disabled": 0, "type": "electric_scooter", "lon": -77.029057, "bike_id": "7a8dfa00c547f3b32079852084ce446f", "fusion_lat": 0.0, "name": "7a8dfa00c547f3b32079852084ce446f", "is_reserved": 0, "rental_uris": {"android": "https://dc.lft.to/lastmile_qr_scan", "ios": "https://dc.lft.to/lastmile_qr_scan"}, "fusion_lon": 0.0}, {"lat": 38.87663416666667, "is_disabled": 0, "type": "electric_scooter", "lon": -77.00415366666667, "bike_id": "27054a1abf039c0dad8e7d72319b395f", "fusion_lat": 0.0, "name": "27054a1abf039c0dad8e7d72319b395f", "is_reserved": 0, "rental_uris": {"android": "https://dc.lft.to/lastmile_qr_scan", "ios": "https://dc.lft.to/lastmile_qr_scan"}, "fusion_lon": 0.0}, {"lat": 38.845929, "is_disabled": 0, "type": "electric_bike", "lon": -77.07679, "bike_id": "f73089b351f251deef8aca621e7a0eb1", "fusion_lat": 0.0, "name": "f73089b351f251deef8aca621e7a0eb1", "is_reserved": 0, "rental_uris": {"android": "https://dc.lft.to/lastmile_qr_scan", "ios": "https://dc.lft.to/lastmile_qr_scan"}, "fusion_lon": 0.0}, {"lat": 38.905040166666666, "is_disabled": 0, "type": "electric_scooter", "lon": -77.064541, "bike_id": "372fa1082b498b47bd1e6f5794772ee4", "fusion_lat": 0.0, "name": "372fa1082b498b47bd1e6f5794772ee4", "is_reserved": 0, "rental_uris": {"android": "https://dc.lft.to/lastmile_qr_scan", "ios": "https://dc.lft.to/lastmile_qr_scan"}, "fusion_lon": 0.0}, {"lat": 38.92902466666666, "is_disabled": 0, "type": "electric_scooter", "lon": -77.0326105, "bike_id": "e3e7ec887ebf5fa3e5d88ab9fa256bae", "fusion_lat": 0.0, "name": "e3e7ec887ebf5fa3e5d88ab9fa256bae", "is_reserved": 0, "rental_uris": {"android": "https://dc.lft.to/lastmile_qr_scan", "ios": "https://dc.lft.to/lastmile_qr_scan"}, "fusion_lon": 0.0}, {"lat": 38.9368185, "is_disabled": 0, "type": "electric_scooter", "lon": -77.03575, "bike_id": "0032ba40663e7ccfe5538725e0f65349", "fusion_lat": 0.0, "name": "0032ba40663e7ccfe5538725e0f65349", "is_reserved": 0, "rental_uris": {"android": "https://dc.lft.to/lastmile_qr_scan", "ios": "https://dc.lft.to/lastmile_qr_scan"}, "fusion_lon": 0.0}, {"lat": 38.88513966666667, "is_disabled": 0, "type": "electric_scooter", "lon": -77.00569433333334, "bike_id": "44bec44f23c0193b3685fac394e4ad36", "fusion_lat": 0.0, "name": "44bec44f23c0193b3685fac394e4ad36", "is_reserved": 0, "rental_uris": {"android": "https://dc.lft.to/lastmile_qr_scan", "ios": "https://dc.lft.to/lastmile_qr_scan"}, "fusion_lon": 0.0}, {"lat": 38.900780166666664, "is_disabled": 0, "type": "electric_scooter", "lon": -77.05311716666667, "bike_id": "f4eba18dbd984f61bc2110c420b97c55", "fusion_lat": 0.0, "name": "f4eba18dbd984f61bc2110c420b97c55", "is_reserved": 0, "rental_uris": {"android": "https://dc.lft.to/lastmile_qr_scan", "ios": "https://dc.lft.to/lastmile_qr_scan"}, "fusion_lon": 0.0}, {"lat": 38.94628066666667, "is_disabled": 0, "type": "electric_scooter", "lon": -77.0184495, "bike_id": "60f00b7d020c98b500056b9a9bd4a93b", "fusion_lat": 0.0, "name": "60f00b7d020c98b500056b9a9bd4a93b", "is_reserved": 0, "rental_uris": {"android": "https://dc.lft.to/lastmile_qr_scan", "ios": "https://dc.lft.to/lastmile_qr_scan"}, "fusion_lon": 0.0}, {"lat": 38.9220195, "is_disabled": 0, "type": "electric_scooter", "lon": -77.04252083333333, "bike_id": "842ec3bdbb08f90e8d12323415e69b7c", "fusion_lat": 0.0, "name": "842ec3bdbb08f90e8d12323415e69b7c", "is_reserved": 0, "rental_uris": {"android": "https://dc.lft.to/lastmile_qr_scan", "ios": "https://dc.lft.to/lastmile_qr_scan"}, "fusion_lon": 0.0}, {"lat": 38.923192666666665, "is_disabled": 0, "type": "electric_scooter", "lon": -77.0390185, "bike_id": "ba5a53c40855d863fb752a063a855dc9", "fusion_lat": 0.0, "name": "ba5a53c40855d863fb752a063a855dc9", "is_reserved": 0, "rental_uris": {"android": "https://dc.lft.to/lastmile_qr_scan", "ios": "https://dc.lft.to/lastmile_qr_scan"}, "fusion_lon": 0.0}, {"lat": 38.895113333333335, "is_disabled": 0, "type": "electric_scooter", "lon": -77.04362533333334, "bike_id": "8a6d5a9bcc8f27b5507906a499193315", "fusion_lat": 0.0, "name": "8a6d5a9bcc8f27b5507906a499193315", "is_reserved": 0, "rental_uris": {"android": "https://dc.lft.to/lastmile_qr_scan", "ios": "https://dc.lft.to/lastmile_qr_scan"}, "fusion_lon": 0.0}, {"lat": 39.030453333333334, "is_disabled": 0, "type": "electric_bike", "lon": -77.094792, "bike_id": "352d330108b654ce397126d56a2cd70a", "fusion_lat": 0.0, "name": "352d330108b654ce397126d56a2cd70a", "is_reserved": 0, "rental_uris": {"android": "https://dc.lft.to/lastmile_qr_scan", "ios": "https://dc.lft.to/lastmile_qr_scan"}, "fusion_lon": 0.0}, {"lat": 38.90138983333333, "is_disabled": 0, "type": "electric_scooter", "lon": -77.00068916666666, "bike_id": "1f6edfb240e614af1dba29bff40a70f3", "fusion_lat": 0.0, "name": "1f6edfb240e614af1dba29bff40a70f3", "is_reserved": 0, "rental_uris": {"android": "https://dc.lft.to/lastmile_qr_scan", "ios": "https://dc.lft.to/lastmile_qr_scan"}, "fusion_lon": 0.0}, {"lat": 38.909704833333336, "is_disabled": 0, "type": "electric_scooter", "lon": -77.0451395, "bike_id": "3aa0556aebce1033949abe106838e019", "fusion_lat": 0.0, "name": "3aa0556aebce1033949abe106838e019", "is_reserved": 0, "rental_uris": {"android": "https://dc.lft.to/lastmile_qr_scan", "ios": "https://dc.lft.to/lastmile_qr_scan"}, "fusion_lon": 0.0}, {"lat": 38.92183683333333, "is_disabled": 0, "type": "electric_scooter", "lon": -77.042347, "bike_id": "68dca83e4424ad81eb4539f6234fe0b9", "fusion_lat": 0.0, "name": "68dca83e4424ad81eb4539f6234fe0b9", "is_reserved": 0, "rental_uris": {"android": "https://dc.lft.to/lastmile_qr_scan", "ios": "https://dc.lft.to/lastmile_qr_scan"}, "fusion_lon": 0.0}, {"lat": 38.90729016666667, "is_disabled": 0, "type": "electric_scooter", "lon": -77.048312, "bike_id": "c0088ea85c1beb350ab90df44e675b76", "fusion_lat": 0.0, "name": "c0088ea85c1beb350ab90df44e675b76", "is_reserved": 0, "rental_uris": {"android": "https://dc.lft.to/lastmile_qr_scan", "ios": "https://dc.lft.to/lastmile_qr_scan"}, "fusion_lon": 0.0}, {"lat": 38.91775166666667, "is_disabled": 0, "type": "electric_scooter", "lon": -77.02876183333333, "bike_id": "bf1fd6302a726401114f0ae28037c68b", "fusion_lat": 0.0, "name": "bf1fd6302a726401114f0ae28037c68b", "is_reserved": 0, "rental_uris": {"android": "https://dc.lft.to/lastmile_qr_scan", "ios": "https://dc.lft.to/lastmile_qr_scan"}, "fusion_lon": 0.0}, {"lat": 38.87637616666667, "is_disabled": 0, "type": "electric_scooter", "lon": -76.99321366666666, "bike_id": "894437367f67bf245c3de35a7c0e6474", "fusion_lat": 0.0, "name": "894437367f67bf245c3de35a7c0e6474", "is_reserved": 0, "rental_uris": {"android": "https://dc.lft.to/lastmile_qr_scan", "ios": "https://dc.lft.to/lastmile_qr_scan"}, "fusion_lon": 0.0}, {"lat": 38.9285535, "is_disabled": 0, "type": "electric_bike", "lon": -77.2220395, "bike_id": "7c925c950e5f8c3fdea30d3ca210d095", "fusion_lat": 0.0, "name": "7c925c950e5f8c3fdea30d3ca210d095", "is_reserved": 0, "rental_uris": {"android": "https://dc.lft.to/lastmile_qr_scan", "ios": "https://dc.lft.to/lastmile_qr_scan"}, "fusion_lon": 0.0}, {"lat": 38.9054385, "is_disabled": 0, "type": "electric_scooter", "lon": -77.02204233333333, "bike_id": "b4317ab60b42f1dce8032f7958da3a5a", "fusion_lat": 0.0, "name": "b4317ab60b42f1dce8032f7958da3a5a", "is_reserved": 0, "rental_uris": {"android": "https://dc.lft.to/lastmile_qr_scan", "ios": "https://dc.lft.to/lastmile_qr_scan"}, "fusion_lon": 0.0}, {"lat": 38.92300816666667, "is_disabled": 0, "type": "electric_bike", "lon": -77.02352766666667, "bike_id": "f64888e16f5488a099ef4c490c8cbbb0", "fusion_lat": 0.0, "name": "f64888e16f5488a099ef4c490c8cbbb0", "is_reserved": 0, "rental_uris": {"android": "https://dc.lft.to/lastmile_qr_scan", "ios": "https://dc.lft.to/lastmile_qr_scan"}, "fusion_lon": 0.0}, {"lat": 38.8819375, "is_disabled": 0, "type": "electric_scooter", "lon": -76.995047, "bike_id": "8d11c1f430aab66d59f8e7dceed89f0d", "fusion_lat": 0.0, "name": "8d11c1f430aab66d59f8e7dceed89f0d", "is_reserved": 0, "rental_uris": {"android": "https://dc.lft.to/lastmile_qr_scan", "ios": "https://dc.lft.to/lastmile_qr_scan"}, "fusion_lon": 0.0}, {"lat": 38.925937, "is_disabled": 0, "type": "electric_scooter", "lon": -77.02438716666667, "bike_id": "2cd44b397030911e2b6b7383f0470ca5", "fusion_lat": 0.0, "name": "2cd44b397030911e2b6b7383f0470ca5", "is_reserved": 0, "rental_uris": {"android": "https://dc.lft.to/lastmile_qr_scan", "ios": "https://dc.lft.to/lastmile_qr_scan"}, "fusion_lon": 0.0}, {"lat": 39.08857716666667, "is_disabled": 0, "type": "electric_bike", "lon": -77.17841016666667, "bike_id": "69e5b4f1968ae05826f992335fe5d01d", "fusion_lat": 0.0, "name": "69e5b4f1968ae05826f992335fe5d01d", "is_reserved": 0, "rental_uris": {"android": "https://dc.lft.to/lastmile_qr_scan", "ios": "https://dc.lft.to/lastmile_qr_scan"}, "fusion_lon": 0.0}, {"lat": 38.90510316666666, "is_disabled": 0, "type": "electric_scooter", "lon": -77.043415, "bike_id": "0b826d2efcf12852714f827d36fa423e", "fusion_lat": 0.0, "name": "0b826d2efcf12852714f827d36fa423e", "is_reserved": 0, "rental_uris": {"android": "https://dc.lft.to/lastmile_qr_scan", "ios": "https://dc.lft.to/lastmile_qr_scan"}, "fusion_lon": 0.0}, {"lat": 38.91633616666667, "is_disabled": 0, "type": "electric_scooter", "lon": -77.04624333333334, "bike_id": "1e2f15f7163c5e0eb22a9442034ad51c", "fusion_lat": 0.0, "name": "1e2f15f7163c5e0eb22a9442034ad51c", "is_reserved": 0, "rental_uris": {"android": "https://dc.lft.to/lastmile_qr_scan", "ios": "https://dc.lft.to/lastmile_qr_scan"}, "fusion_lon": 0.0}, {"lat": 38.959213166666665, "is_disabled": 0, "type": "electric_bike", "lon": -77.03117033333334, "bike_id": "f2487723d877cb0828233106a69e635c", "fusion_lat": 0.0, "name": "f2487723d877cb0828233106a69e635c", "is_reserved": 0, "rental_uris": {"android": "https://dc.lft.to/lastmile_qr_scan", "ios": "https://dc.lft.to/lastmile_qr_scan"}, "fusion_lon": 0.0}, {"lat": 38.895951, "is_disabled": 0, "type": "electric_scooter", "lon": -77.02911933333333, "bike_id": "18215369b7d46cb59f48b039d8f92fac", "fusion_lat": 0.0, "name": "18215369b7d46cb59f48b039d8f92fac", "is_reserved": 0, "rental_uris": {"android": "https://dc.lft.to/lastmile_qr_scan", "ios": "https://dc.lft.to/lastmile_qr_scan"}, "fusion_lon": 0.0}, {"lat": 38.899595, "is_disabled": 0, "type": "electric_bike", "lon": -77.05500433333333, "bike_id": "52f80b9d4bceb22af07b426e844cc0ba", "fusion_lat": 0.0, "name": "52f80b9d4bceb22af07b426e844cc0ba", "is_reserved": 0, "rental_uris": {"android": "https://dc.lft.to/lastmile_qr_scan", "ios": "https://dc.lft.to/lastmile_qr_scan"}, "fusion_lon": 0.0}, {"lat": 38.98366016666667, "is_disabled": 0, "type": "electric_scooter", "lon": -77.02646333333334, "bike_id": "2fa2baf323f1f6c7c5ad8c6815b84ea7", "fusion_lat": 0.0, "name": "2fa2baf323f1f6c7c5ad8c6815b84ea7", "is_reserved": 0, "rental_uris": {"android": "https://dc.lft.to/lastmile_qr_scan", "ios": "https://dc.lft.to/lastmile_qr_scan"}, "fusion_lon": 0.0}, {"lat": 38.92480483333333, "is_disabled": 0, "type": "electric_bike", "lon": -77.0304155, "bike_id": "63378a4ae1c2e8148bb1c549a046bd8a", "fusion_lat": 0.0, "name": "63378a4ae1c2e8148bb1c549a046bd8a", "is_reserved": 0, "rental_uris": {"android": "https://dc.lft.to/lastmile_qr_scan", "ios": "https://dc.lft.to/lastmile_qr_scan"}, "fusion_lon": 0.0}, {"lat": 38.931873333333336, "is_disabled": 0, "type": "electric_scooter", "lon": -77.028245, "bike_id": "9d17ea2bed9dce022c679966cc14d0d7", "fusion_lat": 0.0, "name": "9d17ea2bed9dce022c679966cc14d0d7", "is_reserved": 0, "rental_uris": {"android": "https://dc.lft.to/lastmile_qr_scan", "ios": "https://dc.lft.to/lastmile_qr_scan"}, "fusion_lon": 0.0}, {"lat": 38.93653466666667, "is_disabled": 0, "type": "electric_scooter", "lon": -77.02392416666666, "bike_id": "d496cc5ae110692e6c3d208168fdb2e5", "fusion_lat": 0.0, "name": "d496cc5ae110692e6c3d208168fdb2e5", "is_reserved": 0, "rental_uris": {"android": "https://dc.lft.to/lastmile_qr_scan", "ios": "https://dc.lft.to/lastmile_qr_scan"}, "fusion_lon": 0.0}, {"lat": 38.90075266666667, "is_disabled": 0, "type": "electric_scooter", "lon": -77.04986833333334, "bike_id": "68b99d5fcff432f9ff93b4db6ae58767", "fusion_lat": 0.0, "name": "68b99d5fcff432f9ff93b4db6ae58767", "is_reserved": 0, "rental_uris": {"android": "https://dc.lft.to/lastmile_qr_scan", "ios": "https://dc.lft.to/lastmile_qr_scan"}, "fusion_lon": 0.0}, {"lat": 38.891017166666664, "is_disabled": 0, "type": "electric_scooter", "lon": -76.95236833333334, "bike_id": "9760b106e76c49357255277ee2cf1c6b", "fusion_lat": 0.0, "name": "9760b106e76c49357255277ee2cf1c6b", "is_reserved": 0, "rental_uris": {"android": "https://dc.lft.to/lastmile_qr_scan", "ios": "https://dc.lft.to/lastmile_qr_scan"}, "fusion_lon": 0.0}, {"lat": 38.94296633333333, "is_disabled": 0, "type": "electric_scooter", "lon": -77.077034, "bike_id": "238a2144bd16b230f395966082e34836", "fusion_lat": 0.0, "name": "238a2144bd16b230f395966082e34836", "is_reserved": 0, "rental_uris": {"android": "https://dc.lft.to/lastmile_qr_scan", "ios": "https://dc.lft.to/lastmile_qr_scan"}, "fusion_lon": 0.0}, {"lat": 38.900614166666664, "is_disabled": 0, "type": "electric_scooter", "lon": -76.933864, "bike_id": "072f335569e76638c4861fb85e3b402e", "fusion_lat": 0.0, "name": "072f335569e76638c4861fb85e3b402e", "is_reserved": 0, "rental_uris": {"android": "https://dc.lft.to/lastmile_qr_scan", "ios": "https://dc.lft.to/lastmile_qr_scan"}, "fusion_lon": 0.0}, {"lat": 39.00000216666667, "is_disabled": 0, "type": "electric_bike", "lon": -76.92495166666667, "bike_id": "614cf1ec9f6b8c70c5a4ecbaa943e5bf", "fusion_lat": 0.0, "name": "614cf1ec9f6b8c70c5a4ecbaa943e5bf", "is_reserved": 0, "rental_uris": {"android": "https://dc.lft.to/lastmile_qr_scan", "ios": "https://dc.lft.to/lastmile_qr_scan"}, "fusion_lon": 0.0}, {"lat": 38.89223066666667, "is_disabled": 0, "type": "electric_scooter", "lon": -77.03189333333333, "bike_id": "631c56ea4c845dcbee05df57846faf6b", "fusion_lat": 0.0, "name": "631c56ea4c845dcbee05df57846faf6b", "is_reserved": 0, "rental_uris": {"android": "https://dc.lft.to/lastmile_qr_scan", "ios": "https://dc.lft.to/lastmile_qr_scan"}, "fusion_lon": 0.0}, {"lat": 38.91934066666666, "is_disabled": 0, "type": "electric_scooter", "lon": -77.08130033333333, "bike_id": "17d918cc78ac24252e47b532999ff587", "fusion_lat": 0.0, "name": "17d918cc78ac24252e47b532999ff587", "is_reserved": 0, "rental_uris": {"android": "https://dc.lft.to/lastmile_qr_scan", "ios": "https://dc.lft.to/lastmile_qr_scan"}, "fusion_lon": 0.0}, {"lat": 38.91689933333333, "is_disabled": 0, "type": "electric_scooter", "lon": -77.02956583333334, "bike_id": "5a84143a6f8623666b3208b4fb79bf4b", "fusion_lat": 0.0, "name": "5a84143a6f8623666b3208b4fb79bf4b", "is_reserved": 0, "rental_uris": {"android": "https://dc.lft.to/lastmile_qr_scan", "ios": "https://dc.lft.to/lastmile_qr_scan"}, "fusion_lon": 0.0}, {"lat": 38.90724483333334, "is_disabled": 0, "type": "electric_scooter", "lon": -77.04785933333334, "bike_id": "a2cd047a1df0493c1142c2a31e87b6eb", "fusion_lat": 0.0, "name": "a2cd047a1df0493c1142c2a31e87b6eb", "is_reserved": 0, "rental_uris": {"android": "https://dc.lft.to/lastmile_qr_scan", "ios": "https://dc.lft.to/lastmile_qr_scan"}, "fusion_lon": 0.0}, {"lat": 38.84293316666667, "is_disabled": 0, "type": "electric_scooter", "lon": -76.99944016666667, "bike_id": "17f5575204595ae67439fa3a96ed5624", "fusion_lat": 0.0, "name": "17f5575204595ae67439fa3a96ed5624", "is_reserved": 0, "rental_uris": {"android": "https://dc.lft.to/lastmile_qr_scan", "ios": "https://dc.lft.to/lastmile_qr_scan"}, "fusion_lon": 0.0}, {"lat": 38.90045283333333, "is_disabled": 0, "type": "electric_scooter", "lon": -77.0440895, "bike_id": "99f9aa163686942a41e5ea32cffa9122", "fusion_lat": 0.0, "name": "99f9aa163686942a41e5ea32cffa9122", "is_reserved": 0, "rental_uris": {"android": "https://dc.lft.to/lastmile_qr_scan", "ios": "https://dc.lft.to/lastmile_qr_scan"}, "fusion_lon": 0.0}, {"lat": 38.899509, "is_disabled": 0, "type": "electric_scooter", "lon": -77.04098016666667, "bike_id": "50d7a6659c0ba70478007580c2feac05", "fusion_lat": 0.0, "name": "50d7a6659c0ba70478007580c2feac05", "is_reserved": 0, "rental_uris": {"android": "https://dc.lft.to/lastmile_qr_scan", "ios": "https://dc.lft.to/lastmile_qr_scan"}, "fusion_lon": 0.0}, {"lat": 38.85997, "is_disabled": 0, "type": "electric_scooter", "lon": -76.98540516666667, "bike_id": "97764db575b5fe2027f629ef07dc152f", "fusion_lat": 0.0, "name": "97764db575b5fe2027f629ef07dc152f", "is_reserved": 0, "rental_uris": {"android": "https://dc.lft.to/lastmile_qr_scan", "ios": "https://dc.lft.to/lastmile_qr_scan"}, "fusion_lon": 0.0}, {"lat": 38.912228, "is_disabled": 0, "type": "electric_scooter", "lon": -77.0344365, "bike_id": "186a92a887be448d80de208bd0216cf5", "fusion_lat": 0.0, "name": "186a92a887be448d80de208bd0216cf5", "is_reserved": 0, "rental_uris": {"android": "https://dc.lft.to/lastmile_qr_scan", "ios": "https://dc.lft.to/lastmile_qr_scan"}, "fusion_lon": 0.0}, {"lat": 38.900340166666666, "is_disabled": 0, "type": "electric_scooter", "lon": -77.00203883333333, "bike_id": "6c064a9a583f7dc10befd1f341ded4e9", "fusion_lat": 0.0, "name": "6c064a9a583f7dc10befd1f341ded4e9", "is_reserved": 0, "rental_uris": {"android": "https://dc.lft.to/lastmile_qr_scan", "ios": "https://dc.lft.to/lastmile_qr_scan"}, "fusion_lon": 0.0}, {"lat": 38.90507816666667, "is_disabled": 0, "type": "electric_scooter", "lon": -77.0645665, "bike_id": "68ec61e068e6f31e096cae1b5618f639", "fusion_lat": 0.0, "name": "68ec61e068e6f31e096cae1b5618f639", "is_reserved": 0, "rental_uris": {"android": "https://dc.lft.to/lastmile_qr_scan", "ios": "https://dc.lft.to/lastmile_qr_scan"}, "fusion_lon": 0.0}, {"lat": 38.94094333333334, "is_disabled": 0, "type": "electric_scooter", "lon": -77.03279416666666, "bike_id": "39662086d174bf696396c6cb0c401256", "fusion_lat": 0.0, "name": "39662086d174bf696396c6cb0c401256", "is_reserved": 0, "rental_uris": {"android": "https://dc.lft.to/lastmile_qr_scan", "ios": "https://dc.lft.to/lastmile_qr_scan"}, "fusion_lon": 0.0}, {"lat": 38.9506855, "is_disabled": 0, "type": "electric_scooter", "lon": -77.066563, "bike_id": "cca36c7ed66f09454c6d5eecaf361082", "fusion_lat": 0.0, "name": "cca36c7ed66f09454c6d5eecaf361082", "is_reserved": 0, "rental_uris": {"android": "https://dc.lft.to/lastmile_qr_scan", "ios": "https://dc.lft.to/lastmile_qr_scan"}, "fusion_lon": 0.0}, {"lat": 38.90576816666667, "is_disabled": 0, "type": "electric_scooter", "lon": -77.0220835, "bike_id": "358789eb91884214b0693ffa753ad798", "fusion_lat": 0.0, "name": "358789eb91884214b0693ffa753ad798", "is_reserved": 0, "rental_uris": {"android": "https://dc.lft.to/lastmile_qr_scan", "ios": "https://dc.lft.to/lastmile_qr_scan"}, "fusion_lon": 0.0}, {"lat": 38.90148416666667, "is_disabled": 0, "type": "electric_scooter", "lon": -77.01813483333333, "bike_id": "cb10c0ffd28fefaf57cc41ae8d23ba5c", "fusion_lat": 0.0, "name": "cb10c0ffd28fefaf57cc41ae8d23ba5c", "is_reserved": 0, "rental_uris": {"android": "https://dc.lft.to/lastmile_qr_scan", "ios": "https://dc.lft.to/lastmile_qr_scan"}, "fusion_lon": 0.0}, {"lat": 38.92878433333333, "is_disabled": 0, "type": "electric_scooter", "lon": -77.03334233333334, "bike_id": "af6e6a07dffd0754f1938e6bf72b740a", "fusion_lat": 0.0, "name": "af6e6a07dffd0754f1938e6bf72b740a", "is_reserved": 0, "rental_uris": {"android": "https://dc.lft.to/lastmile_qr_scan", "ios": "https://dc.lft.to/lastmile_qr_scan"}, "fusion_lon": 0.0}, {"lat": 38.876304, "is_disabled": 0, "type": "electric_scooter", "lon": -76.96522483333334, "bike_id": "e4f1267ee1161baebd2f943ece017f6f", "fusion_lat": 0.0, "name": "e4f1267ee1161baebd2f943ece017f6f", "is_reserved": 0, "rental_uris": {"android": "https://dc.lft.to/lastmile_qr_scan", "ios": "https://dc.lft.to/lastmile_qr_scan"}, "fusion_lon": 0.0}, {"lat": 38.89239966666667, "is_disabled": 0, "type": "electric_scooter", "lon": -77.0395655, "bike_id": "b9a4bf478384638bae11abffd583151f", "fusion_lat": 0.0, "name": "b9a4bf478384638bae11abffd583151f", "is_reserved": 0, "rental_uris": {"android": "https://dc.lft.to/lastmile_qr_scan", "ios": "https://dc.lft.to/lastmile_qr_scan"}, "fusion_lon": 0.0}, {"lat": 38.89813383333333, "is_disabled": 0, "type": "electric_scooter", "lon": -77.02416533333333, "bike_id": "bdbaa239c03165302300144d43119246", "fusion_lat": 0.0, "name": "bdbaa239c03165302300144d43119246", "is_reserved": 0, "rental_uris": {"android": "https://dc.lft.to/lastmile_qr_scan", "ios": "https://dc.lft.to/lastmile_qr_scan"}, "fusion_lon": 0.0}, {"lat": 38.91954166666667, "is_disabled": 0, "type": "electric_scooter", "lon": -76.96972083333333, "bike_id": "7acbce520c79db6d321938881f1ed99e", "fusion_lat": 0.0, "name": "7acbce520c79db6d321938881f1ed99e", "is_reserved": 0, "rental_uris": {"android": "https://dc.lft.to/lastmile_qr_scan", "ios": "https://dc.lft.to/lastmile_qr_scan"}, "fusion_lon": 0.0}, {"lat": 38.909848333333336, "is_disabled": 0, "type": "electric_scooter", "lon": -77.02263766666667, "bike_id": "7e502897846208503e708a20d88442b7", "fusion_lat": 0.0, "name": "7e502897846208503e708a20d88442b7", "is_reserved": 0, "rental_uris": {"android": "https://dc.lft.to/lastmile_qr_scan", "ios": "https://dc.lft.to/lastmile_qr_scan"}, "fusion_lon": 0.0}, {"lat": 38.90274616666667, "is_disabled": 0, "type": "electric_scooter", "lon": -76.97408, "bike_id": "e18cccedb91d5f170ff09bb9c3dbc273", "fusion_lat": 0.0, "name": "e18cccedb91d5f170ff09bb9c3dbc273", "is_reserved": 0, "rental_uris": {"android": "https://dc.lft.to/lastmile_qr_scan", "ios": "https://dc.lft.to/lastmile_qr_scan"}, "fusion_lon": 0.0}, {"lat": 38.87461166666667, "is_disabled": 0, "type": "electric_scooter", "lon": -77.00935683333333, "bike_id": "f83ed2ef07e345ac84ce70a0d085fc8c", "fusion_lat": 0.0, "name": "f83ed2ef07e345ac84ce70a0d085fc8c", "is_reserved": 0, "rental_uris": {"android": "https://dc.lft.to/lastmile_qr_scan", "ios": "https://dc.lft.to/lastmile_qr_scan"}, "fusion_lon": 0.0}, {"lat": 38.918157666666666, "is_disabled": 0, "type": "electric_scooter", "lon": -77.012753, "bike_id": "a86428511a999688a37baee2488944a9", "fusion_lat": 0.0, "name": "a86428511a999688a37baee2488944a9", "is_reserved": 0, "rental_uris": {"android": "https://dc.lft.to/lastmile_qr_scan", "ios": "https://dc.lft.to/lastmile_qr_scan"}, "fusion_lon": 0.0}, {"lat": 38.8706595, "is_disabled": 0, "type": "electric_scooter", "lon": -77.008397, "bike_id": "de9d5e0e5aa07a3c5af83610c8d8aa8c", "fusion_lat": 0.0, "name": "de9d5e0e5aa07a3c5af83610c8d8aa8c", "is_reserved": 0, "rental_uris": {"android": "https://dc.lft.to/lastmile_qr_scan", "ios": "https://dc.lft.to/lastmile_qr_scan"}, "fusion_lon": 0.0}, {"lat": 38.89717066666667, "is_disabled": 0, "type": "electric_scooter", "lon": -77.02137466666667, "bike_id": "09ac0671d64ca619c22d9f1e484b28e7", "fusion_lat": 0.0, "name": "09ac0671d64ca619c22d9f1e484b28e7", "is_reserved": 0, "rental_uris": {"android": "https://dc.lft.to/lastmile_qr_scan", "ios": "https://dc.lft.to/lastmile_qr_scan"}, "fusion_lon": 0.0}, {"lat": 38.918928333333334, "is_disabled": 0, "type": "electric_scooter", "lon": -77.0412525, "bike_id": "aae17d202d59ebb8bf05d7e7405d020b", "fusion_lat": 0.0, "name": "aae17d202d59ebb8bf05d7e7405d020b", "is_reserved": 0, "rental_uris": {"android": "https://dc.lft.to/lastmile_qr_scan", "ios": "https://dc.lft.to/lastmile_qr_scan"}, "fusion_lon": 0.0}, {"lat": 38.919801, "is_disabled": 0, "type": "electric_scooter", "lon": -77.0238815, "bike_id": "8f76228ecc50100f683e4f13d1a2aaa4", "fusion_lat": 0.0, "name": "8f76228ecc50100f683e4f13d1a2aaa4", "is_reserved": 0, "rental_uris": {"android": "https://dc.lft.to/lastmile_qr_scan", "ios": "https://dc.lft.to/lastmile_qr_scan"}, "fusion_lon": 0.0}, {"lat": 38.91418816666667, "is_disabled": 0, "type": "electric_scooter", "lon": -77.03174733333333, "bike_id": "678125b05d1f5161916badec5dd61c4e", "fusion_lat": 0.0, "name": "678125b05d1f5161916badec5dd61c4e", "is_reserved": 0, "rental_uris": {"android": "https://dc.lft.to/lastmile_qr_scan", "ios": "https://dc.lft.to/lastmile_qr_scan"}, "fusion_lon": 0.0}, {"lat": 38.917671166666665, "is_disabled": 0, "type": "electric_scooter", "lon": -77.02272416666666, "bike_id": "3d66d4d4bb80a6270e62398bdc2dd82a", "fusion_lat": 0.0, "name": "3d66d4d4bb80a6270e62398bdc2dd82a", "is_reserved": 0, "rental_uris": {"android": "https://dc.lft.to/lastmile_qr_scan", "ios": "https://dc.lft.to/lastmile_qr_scan"}, "fusion_lon": 0.0}, {"lat": 38.91718066666667, "is_disabled": 0, "type": "electric_scooter", "lon": -77.031154, "bike_id": "ec7bf4fba2fd5202281fc6e8b6c95cda", "fusion_lat": 0.0, "name": "ec7bf4fba2fd5202281fc6e8b6c95cda", "is_reserved": 0, "rental_uris": {"android": "https://dc.lft.to/lastmile_qr_scan", "ios": "https://dc.lft.to/lastmile_qr_scan"}, "fusion_lon": 0.0}, {"lat": 38.903854833333334, "is_disabled": 0, "type": "electric_scooter", "lon": -77.044579, "bike_id": "c61f63d87f1c61eb338f6d835a3772b7", "fusion_lat": 0.0, "name": "c61f63d87f1c61eb338f6d835a3772b7", "is_reserved": 0, "rental_uris": {"android": "https://dc.lft.to/lastmile_qr_scan", "ios": "https://dc.lft.to/lastmile_qr_scan"}, "fusion_lon": 0.0}, {"lat": 38.90374716666667, "is_disabled": 0, "type": "electric_scooter", "lon": -77.03986333333333, "bike_id": "ac1b72fa14b045171f9f7b52df442e1e", "fusion_lat": 0.0, "name": "ac1b72fa14b045171f9f7b52df442e1e", "is_reserved": 0, "rental_uris": {"android": "https://dc.lft.to/lastmile_qr_scan", "ios": "https://dc.lft.to/lastmile_qr_scan"}, "fusion_lon": 0.0}, {"lat": 38.918760666666664, "is_disabled": 0, "type": "electric_scooter", "lon": -77.0350495, "bike_id": "4e37680d0e4d82b6c36b4bac1e31f139", "fusion_lat": 0.0, "name": "4e37680d0e4d82b6c36b4bac1e31f139", "is_reserved": 0, "rental_uris": {"android": "https://dc.lft.to/lastmile_qr_scan", "ios": "https://dc.lft.to/lastmile_qr_scan"}, "fusion_lon": 0.0}, {"lat": 38.91550816666667, "is_disabled": 0, "type": "electric_scooter", "lon": -77.00973483333334, "bike_id": "5087dbf9f3c2dc14077f010b6fa39ae0", "fusion_lat": 0.0, "name": "5087dbf9f3c2dc14077f010b6fa39ae0", "is_reserved": 0, "rental_uris": {"android": "https://dc.lft.to/lastmile_qr_scan", "ios": "https://dc.lft.to/lastmile_qr_scan"}, "fusion_lon": 0.0}, {"lat": 38.854317, "is_disabled": 0, "type": "electric_bike", "lon": -76.90969133333333, "bike_id": "a967a7296a4e4999b4df468cb0946525", "fusion_lat": 0.0, "name": "a967a7296a4e4999b4df468cb0946525", "is_reserved": 0, "rental_uris": {"android": "https://dc.lft.to/lastmile_qr_scan", "ios": "https://dc.lft.to/lastmile_qr_scan"}, "fusion_lon": 0.0}, {"lat": 38.8105285, "is_disabled": 0, "type": "electric_bike", "lon": -77.08505816666667, "bike_id": "bbd356432c014b6e95ee5f529acfc7f6", "fusion_lat": 0.0, "name": "bbd356432c014b6e95ee5f529acfc7f6", "is_reserved": 0, "rental_uris": {"android": "https://dc.lft.to/lastmile_qr_scan", "ios": "https://dc.lft.to/lastmile_qr_scan"}, "fusion_lon": 0.0}, {"lat": 38.92380583333333, "is_disabled": 0, "type": "electric_scooter", "lon": -77.02768116666667, "bike_id": "1c2e6e3232241db135d6bb7545efe265", "fusion_lat": 0.0, "name": "1c2e6e3232241db135d6bb7545efe265", "is_reserved": 0, "rental_uris": {"android": "https://dc.lft.to/lastmile_qr_scan", "ios": "https://dc.lft.to/lastmile_qr_scan"}, "fusion_lon": 0.0}, {"lat": 38.844234666666665, "is_disabled": 0, "type": "electric_scooter", "lon": -76.99776366666667, "bike_id": "c9fabd1a8dfb65e6f408e9bfa3f058bc", "fusion_lat": 0.0, "name": "c9fabd1a8dfb65e6f408e9bfa3f058bc", "is_reserved": 0, "rental_uris": {"android": "https://dc.lft.to/lastmile_qr_scan", "ios": "https://dc.lft.to/lastmile_qr_scan"}, "fusion_lon": 0.0}, {"lat": 38.904891666666664, "is_disabled": 0, "type": "electric_scooter", "lon": -76.99543733333333, "bike_id": "c06f558cef224b985814d89598d1c2bb", "fusion_lat": 0.0, "name": "c06f558cef224b985814d89598d1c2bb", "is_reserved": 0, "rental_uris": {"android": "https://dc.lft.to/lastmile_qr_scan", "ios": "https://dc.lft.to/lastmile_qr_scan"}, "fusion_lon": 0.0}, {"lat": 38.8829135, "is_disabled": 0, "type": "electric_bike", "lon": -76.98793266666667, "bike_id": "154bd2a7152fba88778728947a280934", "fusion_lat": 0.0, "name": "154bd2a7152fba88778728947a280934", "is_reserved": 0, "rental_uris": {"android": "https://dc.lft.to/lastmile_qr_scan", "ios": "https://dc.lft.to/lastmile_qr_scan"}, "fusion_lon": 0.0}, {"lat": 38.919733, "is_disabled": 0, "type": "electric_scooter", "lon": -77.02378033333333, "bike_id": "f0a6e199f3fbc770c82dbd04ad438709", "fusion_lat": 0.0, "name": "f0a6e199f3fbc770c82dbd04ad438709", "is_reserved": 0, "rental_uris": {"android": "https://dc.lft.to/lastmile_qr_scan", "ios": "https://dc.lft.to/lastmile_qr_scan"}, "fusion_lon": 0.0}, {"lat": 38.94595483333333, "is_disabled": 0, "type": "electric_scooter", "lon": -77.07036466666666, "bike_id": "adf8ea869b0855e0404324c0808ac031", "fusion_lat": 0.0, "name": "adf8ea869b0855e0404324c0808ac031", "is_reserved": 0, "rental_uris": {"android": "https://dc.lft.to/lastmile_qr_scan", "ios": "https://dc.lft.to/lastmile_qr_scan"}, "fusion_lon": 0.0}, {"lat": 38.907754833333335, "is_disabled": 0, "type": "electric_scooter", "lon": -77.03858, "bike_id": "fad344e57dee21e2cb15b1ab59f9a632", "fusion_lat": 0.0, "name": "fad344e57dee21e2cb15b1ab59f9a632", "is_reserved": 0, "rental_uris": {"android": "https://dc.lft.to/lastmile_qr_scan", "ios": "https://dc.lft.to/lastmile_qr_scan"}, "fusion_lon": 0.0}, {"lat": 38.917804, "is_disabled": 0, "type": "electric_scooter", "lon": -77.02275733333333, "bike_id": "b4affffe6579bfa53b256c39e043f223", "fusion_lat": 0.0, "name": "b4affffe6579bfa53b256c39e043f223", "is_reserved": 0, "rental_uris": {"android": "https://dc.lft.to/lastmile_qr_scan", "ios": "https://dc.lft.to/lastmile_qr_scan"}, "fusion_lon": 0.0}, {"lat": 38.926096, "is_disabled": 0, "type": "electric_scooter", "lon": -77.0569575, "bike_id": "5e964c5939d847a4fee07dc6d2e011f4", "fusion_lat": 0.0, "name": "5e964c5939d847a4fee07dc6d2e011f4", "is_reserved": 0, "rental_uris": {"android": "https://dc.lft.to/lastmile_qr_scan", "ios": "https://dc.lft.to/lastmile_qr_scan"}, "fusion_lon": 0.0}, {"lat": 38.9210445, "is_disabled": 0, "type": "electric_scooter", "lon": -77.04207183333334, "bike_id": "72999abce31e726040946744933321ba", "fusion_lat": 0.0, "name": "72999abce31e726040946744933321ba", "is_reserved": 0, "rental_uris": {"android": "https://dc.lft.to/lastmile_qr_scan", "ios": "https://dc.lft.to/lastmile_qr_scan"}, "fusion_lon": 0.0}, {"lat": 38.89366733333333, "is_disabled": 0, "type": "electric_scooter", "lon": -76.99111416666666, "bike_id": "87085a0bbd3fee2d23bd3202b6c0dc5e", "fusion_lat": 0.0, "name": "87085a0bbd3fee2d23bd3202b6c0dc5e", "is_reserved": 0, "rental_uris": {"android": "https://dc.lft.to/lastmile_qr_scan", "ios": "https://dc.lft.to/lastmile_qr_scan"}, "fusion_lon": 0.0}, {"lat": 38.8995815, "is_disabled": 0, "type": "electric_scooter", "lon": -77.04089816666666, "bike_id": "9bef9a589ab2a8bce4a25b8bdb1eaf8c", "fusion_lat": 0.0, "name": "9bef9a589ab2a8bce4a25b8bdb1eaf8c", "is_reserved": 0, "rental_uris": {"android": "https://dc.lft.to/lastmile_qr_scan", "ios": "https://dc.lft.to/lastmile_qr_scan"}, "fusion_lon": 0.0}, {"lat": 38.950027, "is_disabled": 0, "type": "electric_scooter", "lon": -77.01561916666667, "bike_id": "9f94bd1c31f6bc442143f7717141a37f", "fusion_lat": 0.0, "name": "9f94bd1c31f6bc442143f7717141a37f", "is_reserved": 0, "rental_uris": {"android": "https://dc.lft.to/lastmile_qr_scan", "ios": "https://dc.lft.to/lastmile_qr_scan"}, "fusion_lon": 0.0}, {"lat": 38.924268833333336, "is_disabled": 0, "type": "electric_scooter", "lon": -77.05182066666667, "bike_id": "9357acf090eb461593bff9e77bea483a", "fusion_lat": 0.0, "name": "9357acf090eb461593bff9e77bea483a", "is_reserved": 0, "rental_uris": {"android": "https://dc.lft.to/lastmile_qr_scan", "ios": "https://dc.lft.to/lastmile_qr_scan"}, "fusion_lon": 0.0}, {"lat": 38.916000833333335, "is_disabled": 0, "type": "electric_scooter", "lon": -77.02404516666667, "bike_id": "2a9e2848eda012b4d1c638961c45f5ff", "fusion_lat": 0.0, "name": "2a9e2848eda012b4d1c638961c45f5ff", "is_reserved": 0, "rental_uris": {"android": "https://dc.lft.to/lastmile_qr_scan", "ios": "https://dc.lft.to/lastmile_qr_scan"}, "fusion_lon": 0.0}, {"lat": 38.90867816666667, "is_disabled": 0, "type": "electric_scooter", "lon": -77.04667533333334, "bike_id": "396964be8575565958d85e3346741f7b", "fusion_lat": 0.0, "name": "396964be8575565958d85e3346741f7b", "is_reserved": 0, "rental_uris": {"android": "https://dc.lft.to/lastmile_qr_scan", "ios": "https://dc.lft.to/lastmile_qr_scan"}, "fusion_lon": 0.0}, {"lat": 38.91991866666667, "is_disabled": 0, "type": "electric_scooter", "lon": -76.97304, "bike_id": "d009b6f47969f99e11b1ceb8ece0f5f1", "fusion_lat": 0.0, "name": "d009b6f47969f99e11b1ceb8ece0f5f1", "is_reserved": 0, "rental_uris": {"android": "https://dc.lft.to/lastmile_qr_scan", "ios": "https://dc.lft.to/lastmile_qr_scan"}, "fusion_lon": 0.0}, {"lat": 38.903963833333336, "is_disabled": 0, "type": "electric_scooter", "lon": -77.0629875, "bike_id": "09712908cc3db8cbd394e88aa7c99633", "fusion_lat": 0.0, "name": "09712908cc3db8cbd394e88aa7c99633", "is_reserved": 0, "rental_uris": {"android": "https://dc.lft.to/lastmile_qr_scan", "ios": "https://dc.lft.to/lastmile_qr_scan"}, "fusion_lon": 0.0}, {"lat": 38.950768333333336, "is_disabled": 0, "type": "electric_scooter", "lon": -77.008735, "bike_id": "edb9426952a4c594e0225128f58e9e0d", "fusion_lat": 0.0, "name": "edb9426952a4c594e0225128f58e9e0d", "is_reserved": 0, "rental_uris": {"android": "https://dc.lft.to/lastmile_qr_scan", "ios": "https://dc.lft.to/lastmile_qr_scan"}, "fusion_lon": 0.0}, {"lat": 38.96014133333333, "is_disabled": 0, "type": "electric_bike", "lon": -77.0172895, "bike_id": "95f0e567b391761cb4251beac38bde47", "fusion_lat": 0.0, "name": "95f0e567b391761cb4251beac38bde47", "is_reserved": 0, "rental_uris": {"android": "https://dc.lft.to/lastmile_qr_scan", "ios": "https://dc.lft.to/lastmile_qr_scan"}, "fusion_lon": 0.0}, {"lat": 38.89973716666667, "is_disabled": 0, "type": "electric_scooter", "lon": -77.02292916666667, "bike_id": "3be9dbc11349a01dff1a0cb8a081e6ab", "fusion_lat": 0.0, "name": "3be9dbc11349a01dff1a0cb8a081e6ab", "is_reserved": 0, "rental_uris": {"android": "https://dc.lft.to/lastmile_qr_scan", "ios": "https://dc.lft.to/lastmile_qr_scan"}, "fusion_lon": 0.0}, {"lat": 38.95405133333333, "is_disabled": 0, "type": "electric_scooter", "lon": -77.02752233333334, "bike_id": "a7b2757acb5e7e65fd5110b2a6f6d4ab", "fusion_lat": 0.0, "name": "a7b2757acb5e7e65fd5110b2a6f6d4ab", "is_reserved": 0, "rental_uris": {"android": "https://dc.lft.to/lastmile_qr_scan", "ios": "https://dc.lft.to/lastmile_qr_scan"}, "fusion_lon": 0.0}, {"lat": 39.02935766666667, "is_disabled": 0, "type": "electric_bike", "lon": -77.0492625, "bike_id": "2cd150b1b7eae4f618e916a5d5d047ef", "fusion_lat": 0.0, "name": "2cd150b1b7eae4f618e916a5d5d047ef", "is_reserved": 0, "rental_uris": {"android": "https://dc.lft.to/lastmile_qr_scan", "ios": "https://dc.lft.to/lastmile_qr_scan"}, "fusion_lon": 0.0}, {"lat": 38.87661, "is_disabled": 0, "type": "electric_scooter", "lon": -77.00432383333333, "bike_id": "97324a80f95e13dc7d9bf39948197478", "fusion_lat": 0.0, "name": "97324a80f95e13dc7d9bf39948197478", "is_reserved": 0, "rental_uris": {"android": "https://dc.lft.to/lastmile_qr_scan", "ios": "https://dc.lft.to/lastmile_qr_scan"}, "fusion_lon": 0.0}, {"lat": 38.959275833333336, "is_disabled": 0, "type": "electric_bike", "lon": -77.03122216666667, "bike_id": "7b47a7157a3879e84f9c63cb5fa79dfe", "fusion_lat": 0.0, "name": "7b47a7157a3879e84f9c63cb5fa79dfe", "is_reserved": 0, "rental_uris": {"android": "https://dc.lft.to/lastmile_qr_scan", "ios": "https://dc.lft.to/lastmile_qr_scan"}, "fusion_lon": 0.0}, {"lat": 38.91724133333334, "is_disabled": 0, "type": "electric_scooter", "lon": -77.04105666666666, "bike_id": "0122bedc64c897d4e69b0a1c12a548e1", "fusion_lat": 0.0, "name": "0122bedc64c897d4e69b0a1c12a548e1", "is_reserved": 0, "rental_uris": {"android": "https://dc.lft.to/lastmile_qr_scan", "ios": "https://dc.lft.to/lastmile_qr_scan"}, "fusion_lon": 0.0}, {"lat": 38.919846166666666, "is_disabled": 0, "type": "electric_scooter", "lon": -76.9730945, "bike_id": "a8871c52d50bb7faa4ac7b7298f32e25", "fusion_lat": 0.0, "name": "a8871c52d50bb7faa4ac7b7298f32e25", "is_reserved": 0, "rental_uris": {"android": "https://dc.lft.to/lastmile_qr_scan", "ios": "https://dc.lft.to/lastmile_qr_scan"}, "fusion_lon": 0.0}, {"lat": 38.884718, "is_disabled": 0, "type": "electric_scooter", "lon": -76.9926355, "bike_id": "7635efd55a9074c95bc8e33fd5a8493a", "fusion_lat": 0.0, "name": "7635efd55a9074c95bc8e33fd5a8493a", "is_reserved": 0, "rental_uris": {"android": "https://dc.lft.to/lastmile_qr_scan", "ios": "https://dc.lft.to/lastmile_qr_scan"}, "fusion_lon": 0.0}, {"lat": 38.88083966666667, "is_disabled": 0, "type": "electric_scooter", "lon": -76.98532116666667, "bike_id": "c6e97fc5d1905a6c63719e66fd3ea7de", "fusion_lat": 0.0, "name": "c6e97fc5d1905a6c63719e66fd3ea7de", "is_reserved": 0, "rental_uris": {"android": "https://dc.lft.to/lastmile_qr_scan", "ios": "https://dc.lft.to/lastmile_qr_scan"}, "fusion_lon": 0.0}, {"lat": 38.908595, "is_disabled": 0, "type": "electric_bike", "lon": -77.08074716666667, "bike_id": "55579a36e39bf1f5c180bd650559d9e7", "fusion_lat": 0.0, "name": "55579a36e39bf1f5c180bd650559d9e7", "is_reserved": 0, "rental_uris": {"android": "https://dc.lft.to/lastmile_qr_scan", "ios": "https://dc.lft.to/lastmile_qr_scan"}, "fusion_lon": 0.0}, {"lat": 38.9003035, "is_disabled": 0, "type": "electric_scooter", "lon": -76.99676766666667, "bike_id": "79468bc8a326f8496bb8e8dae319ed75", "fusion_lat": 0.0, "name": "79468bc8a326f8496bb8e8dae319ed75", "is_reserved": 0, "rental_uris": {"android": "https://dc.lft.to/lastmile_qr_scan", "ios": "https://dc.lft.to/lastmile_qr_scan"}, "fusion_lon": 0.0}, {"lat": 38.90437083333333, "is_disabled": 0, "type": "electric_scooter", "lon": -77.0532955, "bike_id": "fd00698bbe3c3171d1cddd0463e3e756", "fusion_lat": 0.0, "name": "fd00698bbe3c3171d1cddd0463e3e756", "is_reserved": 0, "rental_uris": {"android": "https://dc.lft.to/lastmile_qr_scan", "ios": "https://dc.lft.to/lastmile_qr_scan"}, "fusion_lon": 0.0}, {"lat": 38.9391945, "is_disabled": 0, "type": "electric_scooter", "lon": -77.06674033333333, "bike_id": "59fb4772bee4c05354bf70a524b8abbd", "fusion_lat": 0.0, "name": "59fb4772bee4c05354bf70a524b8abbd", "is_reserved": 0, "rental_uris": {"android": "https://dc.lft.to/lastmile_qr_scan", "ios": "https://dc.lft.to/lastmile_qr_scan"}, "fusion_lon": 0.0}, {"lat": 38.89276733333333, "is_disabled": 0, "type": "electric_scooter", "lon": -77.0318265, "bike_id": "4abb6c690759f12cc240861f3e95e524", "fusion_lat": 0.0, "name": "4abb6c690759f12cc240861f3e95e524", "is_reserved": 0, "rental_uris": {"android": "https://dc.lft.to/lastmile_qr_scan", "ios": "https://dc.lft.to/lastmile_qr_scan"}, "fusion_lon": 0.0}, {"lat": 38.921314, "is_disabled": 0, "type": "electric_scooter", "lon": -77.0456855, "bike_id": "d656fddb8d99686e7b5093afdb9a9b7f", "fusion_lat": 0.0, "name": "d656fddb8d99686e7b5093afdb9a9b7f", "is_reserved": 0, "rental_uris": {"android": "https://dc.lft.to/lastmile_qr_scan", "ios": "https://dc.lft.to/lastmile_qr_scan"}, "fusion_lon": 0.0}, {"lat": 38.92154033333333, "is_disabled": 0, "type": "electric_scooter", "lon": -77.03358866666666, "bike_id": "5e864a04d282a1696fcbc4f09827dc16", "fusion_lat": 0.0, "name": "5e864a04d282a1696fcbc4f09827dc16", "is_reserved": 0, "rental_uris": {"android": "https://dc.lft.to/lastmile_qr_scan", "ios": "https://dc.lft.to/lastmile_qr_scan"}, "fusion_lon": 0.0}, {"lat": 38.86710466666667, "is_disabled": 0, "type": "electric_scooter", "lon": -76.98727433333333, "bike_id": "01aed57b216ea89374016f13cb53b8c7", "fusion_lat": 0.0, "name": "01aed57b216ea89374016f13cb53b8c7", "is_reserved": 0, "rental_uris": {"android": "https://dc.lft.to/lastmile_qr_scan", "ios": "https://dc.lft.to/lastmile_qr_scan"}, "fusion_lon": 0.0}, {"lat": 38.895973833333336, "is_disabled": 0, "type": "electric_scooter", "lon": -77.01226716666666, "bike_id": "c575f64874c8385347ecf61011f492e8", "fusion_lat": 0.0, "name": "c575f64874c8385347ecf61011f492e8", "is_reserved": 0, "rental_uris": {"android": "https://dc.lft.to/lastmile_qr_scan", "ios": "https://dc.lft.to/lastmile_qr_scan"}, "fusion_lon": 0.0}, {"lat": 38.908641833333334, "is_disabled": 0, "type": "electric_bike", "lon": -76.940094, "bike_id": "505589e63ec49e330e35a27335a059ab", "fusion_lat": 0.0, "name": "505589e63ec49e330e35a27335a059ab", "is_reserved": 0, "rental_uris": {"android": "https://dc.lft.to/lastmile_qr_scan", "ios": "https://dc.lft.to/lastmile_qr_scan"}, "fusion_lon": 0.0}, {"lat": 38.922033, "is_disabled": 0, "type": "electric_scooter", "lon": -77.0401205, "bike_id": "b9326e4225d8b2cbb39772a69debbfbe", "fusion_lat": 0.0, "name": "b9326e4225d8b2cbb39772a69debbfbe", "is_reserved": 0, "rental_uris": {"android": "https://dc.lft.to/lastmile_qr_scan", "ios": "https://dc.lft.to/lastmile_qr_scan"}, "fusion_lon": 0.0}, {"lat": 38.9151575, "is_disabled": 0, "type": "electric_scooter", "lon": -77.0384205, "bike_id": "9ed2f42512f93c20b41a7253adfedbf0", "fusion_lat": 0.0, "name": "9ed2f42512f93c20b41a7253adfedbf0", "is_reserved": 0, "rental_uris": {"android": "https://dc.lft.to/lastmile_qr_scan", "ios": "https://dc.lft.to/lastmile_qr_scan"}, "fusion_lon": 0.0}, {"lat": 38.87690966666667, "is_disabled": 0, "type": "electric_bike", "lon": -77.01200133333333, "bike_id": "68a675ccbe5753ee634922363a61727d", "fusion_lat": 0.0, "name": "68a675ccbe5753ee634922363a61727d", "is_reserved": 0, "rental_uris": {"android": "https://dc.lft.to/lastmile_qr_scan", "ios": "https://dc.lft.to/lastmile_qr_scan"}, "fusion_lon": 0.0}, {"lat": 38.99612666666667, "is_disabled": 0, "type": "electric_scooter", "lon": -77.0320185, "bike_id": "107e4e91174a75fed23d5a1321b32503", "fusion_lat": 0.0, "name": "107e4e91174a75fed23d5a1321b32503", "is_reserved": 0, "rental_uris": {"android": "https://dc.lft.to/lastmile_qr_scan", "ios": "https://dc.lft.to/lastmile_qr_scan"}, "fusion_lon": 0.0}, {"lat": 38.89407166666667, "is_disabled": 0, "type": "electric_scooter", "lon": -76.9566525, "bike_id": "596525c72df42a597b2d3e289cd37893", "fusion_lat": 0.0, "name": "596525c72df42a597b2d3e289cd37893", "is_reserved": 0, "rental_uris": {"android": "https://dc.lft.to/lastmile_qr_scan", "ios": "https://dc.lft.to/lastmile_qr_scan"}, "fusion_lon": 0.0}, {"lat": 38.90727016666666, "is_disabled": 0, "type": "electric_scooter", "lon": -76.998187, "bike_id": "80d5e04cd30c772fc01d1e746c980024", "fusion_lat": 0.0, "name": "80d5e04cd30c772fc01d1e746c980024", "is_reserved": 0, "rental_uris": {"android": "https://dc.lft.to/lastmile_qr_scan", "ios": "https://dc.lft.to/lastmile_qr_scan"}, "fusion_lon": 0.0}, {"lat": 38.93310983333333, "is_disabled": 0, "type": "electric_scooter", "lon": -77.0344755, "bike_id": "8363b27dd9f7679b35bb967b1361cbc3", "fusion_lat": 0.0, "name": "8363b27dd9f7679b35bb967b1361cbc3", "is_reserved": 0, "rental_uris": {"android": "https://dc.lft.to/lastmile_qr_scan", "ios": "https://dc.lft.to/lastmile_qr_scan"}, "fusion_lon": 0.0}, {"lat": 38.90467433333333, "is_disabled": 0, "type": "electric_scooter", "lon": -77.007727, "bike_id": "5a64aed8e9cb1871c82f67cbe62a390b", "fusion_lat": 0.0, "name": "5a64aed8e9cb1871c82f67cbe62a390b", "is_reserved": 0, "rental_uris": {"android": "https://dc.lft.to/lastmile_qr_scan", "ios": "https://dc.lft.to/lastmile_qr_scan"}, "fusion_lon": 0.0}, {"lat": 38.91332, "is_disabled": 0, "type": "electric_scooter", "lon": -77.04817116666666, "bike_id": "98a0846d229274f21d917babfd64760a", "fusion_lat": 0.0, "name": "98a0846d229274f21d917babfd64760a", "is_reserved": 0, "rental_uris": {"android": "https://dc.lft.to/lastmile_qr_scan", "ios": "https://dc.lft.to/lastmile_qr_scan"}, "fusion_lon": 0.0}, {"lat": 38.906567, "is_disabled": 0, "type": "electric_scooter", "lon": -77.03844233333334, "bike_id": "1ed1ee31058dd67d8317a3dfbfbe6281", "fusion_lat": 0.0, "name": "1ed1ee31058dd67d8317a3dfbfbe6281", "is_reserved": 0, "rental_uris": {"android": "https://dc.lft.to/lastmile_qr_scan", "ios": "https://dc.lft.to/lastmile_qr_scan"}, "fusion_lon": 0.0}, {"lat": 38.9025275, "is_disabled": 0, "type": "electric_scooter", "lon": -77.04593433333334, "bike_id": "356d7a7b60fac807905476ba147d1c16", "fusion_lat": 0.0, "name": "356d7a7b60fac807905476ba147d1c16", "is_reserved": 0, "rental_uris": {"android": "https://dc.lft.to/lastmile_qr_scan", "ios": "https://dc.lft.to/lastmile_qr_scan"}, "fusion_lon": 0.0}, {"lat": 38.8640095, "is_disabled": 0, "type": "electric_bike", "lon": -76.97436366666666, "bike_id": "025b8f4f03cc1dbb9bc3f986c7b3f5f5", "fusion_lat": 0.0, "name": "025b8f4f03cc1dbb9bc3f986c7b3f5f5", "is_reserved": 0, "rental_uris": {"android": "https://dc.lft.to/lastmile_qr_scan", "ios": "https://dc.lft.to/lastmile_qr_scan"}, "fusion_lon": 0.0}, {"lat": 38.90975533333334, "is_disabled": 0, "type": "electric_scooter", "lon": -77.045234, "bike_id": "710a4c8a530c27853681be09717c6b75", "fusion_lat": 0.0, "name": "710a4c8a530c27853681be09717c6b75", "is_reserved": 0, "rental_uris": {"android": "https://dc.lft.to/lastmile_qr_scan", "ios": "https://dc.lft.to/lastmile_qr_scan"}, "fusion_lon": 0.0}, {"lat": 38.90315483333333, "is_disabled": 0, "type": "electric_scooter", "lon": -77.020582, "bike_id": "445b4d5d7460c1f3e96e4f493fb5a3c7", "fusion_lat": 0.0, "name": "445b4d5d7460c1f3e96e4f493fb5a3c7", "is_reserved": 0, "rental_uris": {"android": "https://dc.lft.to/lastmile_qr_scan", "ios": "https://dc.lft.to/lastmile_qr_scan"}, "fusion_lon": 0.0}, {"lat": 38.909682333333336, "is_disabled": 0, "type": "electric_scooter", "lon": -76.98468116666666, "bike_id": "bc41ebf8c4ab4ed97f53e377e54d549e", "fusion_lat": 0.0, "name": "bc41ebf8c4ab4ed97f53e377e54d549e", "is_reserved": 0, "rental_uris": {"android": "https://dc.lft.to/lastmile_qr_scan", "ios": "https://dc.lft.to/lastmile_qr_scan"}, "fusion_lon": 0.0}, {"lat": 39.03412066666667, "is_disabled": 0, "type": "electric_bike", "lon": -77.04210766666667, "bike_id": "a413f3269e45252930250d73c9f59abc", "fusion_lat": 0.0, "name": "a413f3269e45252930250d73c9f59abc", "is_reserved": 0, "rental_uris": {"android": "https://dc.lft.to/lastmile_qr_scan", "ios": "https://dc.lft.to/lastmile_qr_scan"}, "fusion_lon": 0.0}, {"lat": 38.90387716666667, "is_disabled": 0, "type": "electric_scooter", "lon": -77.04454783333334, "bike_id": "ebf869402caf3b340cd96f7c2fd8bc2a", "fusion_lat": 0.0, "name": "ebf869402caf3b340cd96f7c2fd8bc2a", "is_reserved": 0, "rental_uris": {"android": "https://dc.lft.to/lastmile_qr_scan", "ios": "https://dc.lft.to/lastmile_qr_scan"}, "fusion_lon": 0.0}, {"lat": 38.898174, "is_disabled": 0, "type": "electric_scooter", "lon": -77.03015583333334, "bike_id": "92cc25c12fa53578bdbff69fe6f4cc33", "fusion_lat": 0.0, "name": "92cc25c12fa53578bdbff69fe6f4cc33", "is_reserved": 0, "rental_uris": {"android": "https://dc.lft.to/lastmile_qr_scan", "ios": "https://dc.lft.to/lastmile_qr_scan"}, "fusion_lon": 0.0}, {"lat": 38.898330333333334, "is_disabled": 0, "type": "electric_scooter", "lon": -77.04335066666667, "bike_id": "8903a25a96a684d4e946effbf60c9dd4", "fusion_lat": 0.0, "name": "8903a25a96a684d4e946effbf60c9dd4", "is_reserved": 0, "rental_uris": {"android": "https://dc.lft.to/lastmile_qr_scan", "ios": "https://dc.lft.to/lastmile_qr_scan"}, "fusion_lon": 0.0}, {"lat": 38.89620883333333, "is_disabled": 0, "type": "electric_scooter", "lon": -76.99847933333334, "bike_id": "cc1bf7e397dc12453b0cccb446873081", "fusion_lat": 0.0, "name": "cc1bf7e397dc12453b0cccb446873081", "is_reserved": 0, "rental_uris": {"android": "https://dc.lft.to/lastmile_qr_scan", "ios": "https://dc.lft.to/lastmile_qr_scan"}, "fusion_lon": 0.0}, {"lat": 38.917085666666665, "is_disabled": 0, "type": "electric_scooter", "lon": -77.035006, "bike_id": "1dbbbd7ddab80368010b27d798c0ee07", "fusion_lat": 0.0, "name": "1dbbbd7ddab80368010b27d798c0ee07", "is_reserved": 0, "rental_uris": {"android": "https://dc.lft.to/lastmile_qr_scan", "ios": "https://dc.lft.to/lastmile_qr_scan"}, "fusion_lon": 0.0}, {"lat": 38.917343, "is_disabled": 0, "type": "electric_bike", "lon": -77.0080005, "bike_id": "be01697615c535e79edd0430476c3a41", "fusion_lat": 0.0, "name": "be01697615c535e79edd0430476c3a41", "is_reserved": 0, "rental_uris": {"android": "https://dc.lft.to/lastmile_qr_scan", "ios": "https://dc.lft.to/lastmile_qr_scan"}, "fusion_lon": 0.0}, {"lat": 38.902009, "is_disabled": 0, "type": "electric_scooter", "lon": -77.02366883333333, "bike_id": "2e90785c5631c8e70e8fa4737877709e", "fusion_lat": 0.0, "name": "2e90785c5631c8e70e8fa4737877709e", "is_reserved": 0, "rental_uris": {"android": "https://dc.lft.to/lastmile_qr_scan", "ios": "https://dc.lft.to/lastmile_qr_scan"}, "fusion_lon": 0.0}, {"lat": 38.900946166666664, "is_disabled": 0, "type": "electric_scooter", "lon": -77.01360366666667, "bike_id": "b2791407fa3147eb329938057b19debe", "fusion_lat": 0.0, "name": "b2791407fa3147eb329938057b19debe", "is_reserved": 0, "rental_uris": {"android": "https://dc.lft.to/lastmile_qr_scan", "ios": "https://dc.lft.to/lastmile_qr_scan"}, "fusion_lon": 0.0}, {"lat": 38.893283, "is_disabled": 0, "type": "electric_scooter", "lon": -76.92995066666667, "bike_id": "78f8a9ce6c85cf15698534c85ae27f3e", "fusion_lat": 0.0, "name": "78f8a9ce6c85cf15698534c85ae27f3e", "is_reserved": 0, "rental_uris": {"android": "https://dc.lft.to/lastmile_qr_scan", "ios": "https://dc.lft.to/lastmile_qr_scan"}, "fusion_lon": 0.0}, {"lat": 38.88769683333334, "is_disabled": 0, "type": "electric_scooter", "lon": -77.02851216666667, "bike_id": "d4faceebdff5d7ed0cde08ddff332af5", "fusion_lat": 0.0, "name": "d4faceebdff5d7ed0cde08ddff332af5", "is_reserved": 0, "rental_uris": {"android": "https://dc.lft.to/lastmile_qr_scan", "ios": "https://dc.lft.to/lastmile_qr_scan"}, "fusion_lon": 0.0}, {"lat": 38.9463905, "is_disabled": 0, "type": "electric_scooter", "lon": -77.019371, "bike_id": "4957f51abcf0ea46f70d696e26ed6a7d", "fusion_lat": 0.0, "name": "4957f51abcf0ea46f70d696e26ed6a7d", "is_reserved": 0, "rental_uris": {"android": "https://dc.lft.to/lastmile_qr_scan", "ios": "https://dc.lft.to/lastmile_qr_scan"}, "fusion_lon": 0.0}, {"lat": 38.91421666666667, "is_disabled": 0, "type": "electric_scooter", "lon": -77.03174883333334, "bike_id": "d15798f53b50f1c38b59c63f82fd4e52", "fusion_lat": 0.0, "name": "d15798f53b50f1c38b59c63f82fd4e52", "is_reserved": 0, "rental_uris": {"android": "https://dc.lft.to/lastmile_qr_scan", "ios": "https://dc.lft.to/lastmile_qr_scan"}, "fusion_lon": 0.0}, {"lat": 38.8762815, "is_disabled": 0, "type": "electric_scooter", "lon": -76.96525983333333, "bike_id": "a66e8211692a8652e79e8da24ff58444", "fusion_lat": 0.0, "name": "a66e8211692a8652e79e8da24ff58444", "is_reserved": 0, "rental_uris": {"android": "https://dc.lft.to/lastmile_qr_scan", "ios": "https://dc.lft.to/lastmile_qr_scan"}, "fusion_lon": 0.0}, {"lat": 38.86660083333334, "is_disabled": 0, "type": "electric_scooter", "lon": -76.99013933333333, "bike_id": "76292fa2d5805eb7f115125dd2385b09", "fusion_lat": 0.0, "name": "76292fa2d5805eb7f115125dd2385b09", "is_reserved": 0, "rental_uris": {"android": "https://dc.lft.to/lastmile_qr_scan", "ios": "https://dc.lft.to/lastmile_qr_scan"}, "fusion_lon": 0.0}, {"lat": 38.892778, "is_disabled": 0, "type": "electric_scooter", "lon": -77.03178, "bike_id": "4179324116eadfa71f070d09bdd1d9e9", "fusion_lat": 0.0, "name": "4179324116eadfa71f070d09bdd1d9e9", "is_reserved": 0, "rental_uris": {"android": "https://dc.lft.to/lastmile_qr_scan", "ios": "https://dc.lft.to/lastmile_qr_scan"}, "fusion_lon": 0.0}, {"lat": 38.9082025, "is_disabled": 0, "type": "electric_scooter", "lon": -76.94146933333333, "bike_id": "e58f39c533360847f72aacd9862e2ce3", "fusion_lat": 0.0, "name": "e58f39c533360847f72aacd9862e2ce3", "is_reserved": 0, "rental_uris": {"android": "https://dc.lft.to/lastmile_qr_scan", "ios": "https://dc.lft.to/lastmile_qr_scan"}, "fusion_lon": 0.0}, {"lat": 38.90456016666667, "is_disabled": 0, "type": "electric_scooter", "lon": -77.02948266666667, "bike_id": "83a810a79d4ce187aeb2a32a769d2881", "fusion_lat": 0.0, "name": "83a810a79d4ce187aeb2a32a769d2881", "is_reserved": 0, "rental_uris": {"android": "https://dc.lft.to/lastmile_qr_scan", "ios": "https://dc.lft.to/lastmile_qr_scan"}, "fusion_lon": 0.0}, {"lat": 38.924833, "is_disabled": 0, "type": "electric_scooter", "lon": -77.02724783333333, "bike_id": "69b194add93478b07195544c734ced97", "fusion_lat": 0.0, "name": "69b194add93478b07195544c734ced97", "is_reserved": 0, "rental_uris": {"android": "https://dc.lft.to/lastmile_qr_scan", "ios": "https://dc.lft.to/lastmile_qr_scan"}, "fusion_lon": 0.0}, {"lat": 38.90497833333333, "is_disabled": 0, "type": "electric_scooter", "lon": -77.0091965, "bike_id": "1cbfc19b6a408a70762a32e2e4873da4", "fusion_lat": 0.0, "name": "1cbfc19b6a408a70762a32e2e4873da4", "is_reserved": 0, "rental_uris": {"android": "https://dc.lft.to/lastmile_qr_scan", "ios": "https://dc.lft.to/lastmile_qr_scan"}, "fusion_lon": 0.0}, {"lat": 38.94475466666667, "is_disabled": 0, "type": "electric_scooter", "lon": -77.02223483333333, "bike_id": "d3e45ca27759c5daceef106a91e80ca3", "fusion_lat": 0.0, "name": "d3e45ca27759c5daceef106a91e80ca3", "is_reserved": 0, "rental_uris": {"android": "https://dc.lft.to/lastmile_qr_scan", "ios": "https://dc.lft.to/lastmile_qr_scan"}, "fusion_lon": 0.0}, {"lat": 38.917161666666665, "is_disabled": 0, "type": "electric_scooter", "lon": -77.04079716666666, "bike_id": "5f60d1964fff5e11e7ed9e3f0513594f", "fusion_lat": 0.0, "name": "5f60d1964fff5e11e7ed9e3f0513594f", "is_reserved": 0, "rental_uris": {"android": "https://dc.lft.to/lastmile_qr_scan", "ios": "https://dc.lft.to/lastmile_qr_scan"}, "fusion_lon": 0.0}, {"lat": 38.8961375, "is_disabled": 0, "type": "electric_scooter", "lon": -77.02184516666667, "bike_id": "377b452321e2653ce68717ae4e00c7b7", "fusion_lat": 0.0, "name": "377b452321e2653ce68717ae4e00c7b7", "is_reserved": 0, "rental_uris": {"android": "https://dc.lft.to/lastmile_qr_scan", "ios": "https://dc.lft.to/lastmile_qr_scan"}, "fusion_lon": 0.0}, {"lat": 38.914547166666665, "is_disabled": 0, "type": "electric_scooter", "lon": -77.02178833333333, "bike_id": "0117c1fc90df7ebfcfad7102a866bf0c", "fusion_lat": 0.0, "name": "0117c1fc90df7ebfcfad7102a866bf0c", "is_reserved": 0, "rental_uris": {"android": "https://dc.lft.to/lastmile_qr_scan", "ios": "https://dc.lft.to/lastmile_qr_scan"}, "fusion_lon": 0.0}, {"lat": 38.92798416666667, "is_disabled": 0, "type": "electric_scooter", "lon": -77.04314283333333, "bike_id": "0366cbacaf3dfb0162e458b61eeb7c18", "fusion_lat": 0.0, "name": "0366cbacaf3dfb0162e458b61eeb7c18", "is_reserved": 0, "rental_uris": {"android": "https://dc.lft.to/lastmile_qr_scan", "ios": "https://dc.lft.to/lastmile_qr_scan"}, "fusion_lon": 0.0}, {"lat": 38.855086166666666, "is_disabled": 0, "type": "electric_bike", "lon": -77.12019766666667, "bike_id": "f66829c76dc67ca308e477c8c376098f", "fusion_lat": 0.0, "name": "f66829c76dc67ca308e477c8c376098f", "is_reserved": 0, "rental_uris": {"android": "https://dc.lft.to/lastmile_qr_scan", "ios": "https://dc.lft.to/lastmile_qr_scan"}, "fusion_lon": 0.0}, {"lat": 38.9097535, "is_disabled": 0, "type": "electric_scooter", "lon": -77.0238535, "bike_id": "f7e293a81cac4a38f69bfbf645474be8", "fusion_lat": 0.0, "name": "f7e293a81cac4a38f69bfbf645474be8", "is_reserved": 0, "rental_uris": {"android": "https://dc.lft.to/lastmile_qr_scan", "ios": "https://dc.lft.to/lastmile_qr_scan"}, "fusion_lon": 0.0}, {"lat": 38.89745666666666, "is_disabled": 0, "type": "electric_scooter", "lon": -77.025766, "bike_id": "0f94b83cc671cc9cf2fd1ad6d4052614", "fusion_lat": 0.0, "name": "0f94b83cc671cc9cf2fd1ad6d4052614", "is_reserved": 0, "rental_uris": {"android": "https://dc.lft.to/lastmile_qr_scan", "ios": "https://dc.lft.to/lastmile_qr_scan"}, "fusion_lon": 0.0}, {"lat": 38.91814183333334, "is_disabled": 0, "type": "electric_scooter", "lon": -77.02477666666667, "bike_id": "7c39d9c826966a39e0ebf0d246a21cc5", "fusion_lat": 0.0, "name": "7c39d9c826966a39e0ebf0d246a21cc5", "is_reserved": 0, "rental_uris": {"android": "https://dc.lft.to/lastmile_qr_scan", "ios": "https://dc.lft.to/lastmile_qr_scan"}, "fusion_lon": 0.0}, {"lat": 38.896484666666666, "is_disabled": 0, "type": "electric_scooter", "lon": -77.02307966666666, "bike_id": "003d73680730b7fcddf22bee442a694a", "fusion_lat": 0.0, "name": "003d73680730b7fcddf22bee442a694a", "is_reserved": 0, "rental_uris": {"android": "https://dc.lft.to/lastmile_qr_scan", "ios": "https://dc.lft.to/lastmile_qr_scan"}, "fusion_lon": 0.0}, {"lat": 38.92466266666667, "is_disabled": 0, "type": "electric_scooter", "lon": -77.05234183333333, "bike_id": "b991331a8be118d57f723d7735b65cd3", "fusion_lat": 0.0, "name": "b991331a8be118d57f723d7735b65cd3", "is_reserved": 0, "rental_uris": {"android": "https://dc.lft.to/lastmile_qr_scan", "ios": "https://dc.lft.to/lastmile_qr_scan"}, "fusion_lon": 0.0}, {"lat": 38.91688516666667, "is_disabled": 0, "type": "electric_scooter", "lon": -77.02284433333334, "bike_id": "86017101044b0442e378487166469e58", "fusion_lat": 0.0, "name": "86017101044b0442e378487166469e58", "is_reserved": 0, "rental_uris": {"android": "https://dc.lft.to/lastmile_qr_scan", "ios": "https://dc.lft.to/lastmile_qr_scan"}, "fusion_lon": 0.0}, {"lat": 38.90433266666667, "is_disabled": 0, "type": "electric_scooter", "lon": -77.05331083333333, "bike_id": "4b7a0c688e40af86babdedf196ebb873", "fusion_lat": 0.0, "name": "4b7a0c688e40af86babdedf196ebb873", "is_reserved": 0, "rental_uris": {"android": "https://dc.lft.to/lastmile_qr_scan", "ios": "https://dc.lft.to/lastmile_qr_scan"}, "fusion_lon": 0.0}, {"lat": 38.906173833333334, "is_disabled": 0, "type": "electric_scooter", "lon": -77.01285366666667, "bike_id": "b0ef21887aff89826fdf88960ba6b808", "fusion_lat": 0.0, "name": "b0ef21887aff89826fdf88960ba6b808", "is_reserved": 0, "rental_uris": {"android": "https://dc.lft.to/lastmile_qr_scan", "ios": "https://dc.lft.to/lastmile_qr_scan"}, "fusion_lon": 0.0}, {"lat": 38.8851975, "is_disabled": 0, "type": "electric_scooter", "lon": -77.00271483333333, "bike_id": "2595362c8dd5be525249ab94f3931f54", "fusion_lat": 0.0, "name": "2595362c8dd5be525249ab94f3931f54", "is_reserved": 0, "rental_uris": {"android": "https://dc.lft.to/lastmile_qr_scan", "ios": "https://dc.lft.to/lastmile_qr_scan"}, "fusion_lon": 0.0}, {"lat": 38.900386166666664, "is_disabled": 0, "type": "electric_scooter", "lon": -76.988346, "bike_id": "43fbea78938f45b41ac6aa175778840c", "fusion_lat": 0.0, "name": "43fbea78938f45b41ac6aa175778840c", "is_reserved": 0, "rental_uris": {"android": "https://dc.lft.to/lastmile_qr_scan", "ios": "https://dc.lft.to/lastmile_qr_scan"}, "fusion_lon": 0.0}, {"lat": 38.895723333333336, "is_disabled": 0, "type": "electric_scooter", "lon": -77.03347933333333, "bike_id": "dd1a59fddb12739fb534504522acbdbe", "fusion_lat": 0.0, "name": "dd1a59fddb12739fb534504522acbdbe", "is_reserved": 0, "rental_uris": {"android": "https://dc.lft.to/lastmile_qr_scan", "ios": "https://dc.lft.to/lastmile_qr_scan"}, "fusion_lon": 0.0}, {"lat": 38.8978145, "is_disabled": 0, "type": "electric_bike", "lon": -76.90433, "bike_id": "de967303e8c541df658236482ec3f9c3", "fusion_lat": 0.0, "name": "de967303e8c541df658236482ec3f9c3", "is_reserved": 0, "rental_uris": {"android": "https://dc.lft.to/lastmile_qr_scan", "ios": "https://dc.lft.to/lastmile_qr_scan"}, "fusion_lon": 0.0}, {"lat": 38.89971516666667, "is_disabled": 0, "type": "electric_scooter", "lon": -77.05092333333333, "bike_id": "69c6d44f0bfe1794af6cdf731452be06", "fusion_lat": 0.0, "name": "69c6d44f0bfe1794af6cdf731452be06", "is_reserved": 0, "rental_uris": {"android": "https://dc.lft.to/lastmile_qr_scan", "ios": "https://dc.lft.to/lastmile_qr_scan"}, "fusion_lon": 0.0}, {"lat": 38.866277333333336, "is_disabled": 0, "type": "electric_scooter", "lon": -76.987162, "bike_id": "78860afde24f749fc0b35c9581a543ac", "fusion_lat": 0.0, "name": "78860afde24f749fc0b35c9581a543ac", "is_reserved": 0, "rental_uris": {"android": "https://dc.lft.to/lastmile_qr_scan", "ios": "https://dc.lft.to/lastmile_qr_scan"}, "fusion_lon": 0.0}, {"lat": 38.95705016666667, "is_disabled": 0, "type": "electric_scooter", "lon": -77.07089683333334, "bike_id": "ef48b3467a0ed1b959495334b411fd2e", "fusion_lat": 0.0, "name": "ef48b3467a0ed1b959495334b411fd2e", "is_reserved": 0, "rental_uris": {"android": "https://dc.lft.to/lastmile_qr_scan", "ios": "https://dc.lft.to/lastmile_qr_scan"}, "fusion_lon": 0.0}, {"lat": 38.892470333333335, "is_disabled": 0, "type": "electric_scooter", "lon": -77.027951, "bike_id": "2f8b9c373f53f9bf88ca7793f819b2a2", "fusion_lat": 0.0, "name": "2f8b9c373f53f9bf88ca7793f819b2a2", "is_reserved": 0, "rental_uris": {"android": "https://dc.lft.to/lastmile_qr_scan", "ios": "https://dc.lft.to/lastmile_qr_scan"}, "fusion_lon": 0.0}, {"lat": 38.8427335, "is_disabled": 0, "type": "electric_bike", "lon": -76.98845583333333, "bike_id": "2101a9c54c1eb4f288ac11451a843e34", "fusion_lat": 0.0, "name": "2101a9c54c1eb4f288ac11451a843e34", "is_reserved": 0, "rental_uris": {"android": "https://dc.lft.to/lastmile_qr_scan", "ios": "https://dc.lft.to/lastmile_qr_scan"}, "fusion_lon": 0.0}, {"lat": 38.956323833333336, "is_disabled": 0, "type": "electric_bike", "lon": -76.9388955, "bike_id": "d0a5c3f54325ffd868a5e4d1feed82d5", "fusion_lat": 0.0, "name": "d0a5c3f54325ffd868a5e4d1feed82d5", "is_reserved": 0, "rental_uris": {"android": "https://dc.lft.to/lastmile_qr_scan", "ios": "https://dc.lft.to/lastmile_qr_scan"}, "fusion_lon": 0.0}, {"lat": 38.90554016666667, "is_disabled": 0, "type": "electric_scooter", "lon": -77.00591316666667, "bike_id": "f6c558074daa6edafb9790c7fe977052", "fusion_lat": 0.0, "name": "f6c558074daa6edafb9790c7fe977052", "is_reserved": 0, "rental_uris": {"android": "https://dc.lft.to/lastmile_qr_scan", "ios": "https://dc.lft.to/lastmile_qr_scan"}, "fusion_lon": 0.0}, {"lat": 38.906491, "is_disabled": 0, "type": "electric_scooter", "lon": -77.02504316666666, "bike_id": "cf7cf6341b6c538429364ef8a219436f", "fusion_lat": 0.0, "name": "cf7cf6341b6c538429364ef8a219436f", "is_reserved": 0, "rental_uris": {"android": "https://dc.lft.to/lastmile_qr_scan", "ios": "https://dc.lft.to/lastmile_qr_scan"}, "fusion_lon": 0.0}, {"lat": 38.91559266666667, "is_disabled": 0, "type": "electric_scooter", "lon": -77.0487065, "bike_id": "0fecee39d2242aaabbdf08a0e0d0aff2", "fusion_lat": 0.0, "name": "0fecee39d2242aaabbdf08a0e0d0aff2", "is_reserved": 0, "rental_uris": {"android": "https://dc.lft.to/lastmile_qr_scan", "ios": "https://dc.lft.to/lastmile_qr_scan"}, "fusion_lon": 0.0}, {"lat": 38.8849925, "is_disabled": 0, "type": "electric_scooter", "lon": -77.01553633333333, "bike_id": "f3b46fb1372a8bb96e6d05a3a4291077", "fusion_lat": 0.0, "name": "f3b46fb1372a8bb96e6d05a3a4291077", "is_reserved": 0, "rental_uris": {"android": "https://dc.lft.to/lastmile_qr_scan", "ios": "https://dc.lft.to/lastmile_qr_scan"}, "fusion_lon": 0.0}, {"lat": 38.92593, "is_disabled": 0, "type": "electric_scooter", "lon": -77.0047255, "bike_id": "ca7774e36e79e5756511c4664b3edaa3", "fusion_lat": 0.0, "name": "ca7774e36e79e5756511c4664b3edaa3", "is_reserved": 0, "rental_uris": {"android": "https://dc.lft.to/lastmile_qr_scan", "ios": "https://dc.lft.to/lastmile_qr_scan"}, "fusion_lon": 0.0}, {"lat": 38.970884833333336, "is_disabled": 0, "type": "electric_bike", "lon": -77.069678, "bike_id": "ab497180a185015970772ee74b631106", "fusion_lat": 0.0, "name": "ab497180a185015970772ee74b631106", "is_reserved": 0, "rental_uris": {"android": "https://dc.lft.to/lastmile_qr_scan", "ios": "https://dc.lft.to/lastmile_qr_scan"}, "fusion_lon": 0.0}, {"lat": 38.9353375, "is_disabled": 0, "type": "electric_scooter", "lon": -77.02348983333333, "bike_id": "58777f851cd424d2d8e542a279aa9859", "fusion_lat": 0.0, "name": "58777f851cd424d2d8e542a279aa9859", "is_reserved": 0, "rental_uris": {"android": "https://dc.lft.to/lastmile_qr_scan", "ios": "https://dc.lft.to/lastmile_qr_scan"}, "fusion_lon": 0.0}, {"lat": 38.919838166666665, "is_disabled": 0, "type": "electric_scooter", "lon": -77.04160933333333, "bike_id": "f7e4780c628af259fe774ac89e10fce2", "fusion_lat": 0.0, "name": "f7e4780c628af259fe774ac89e10fce2", "is_reserved": 0, "rental_uris": {"android": "https://dc.lft.to/lastmile_qr_scan", "ios": "https://dc.lft.to/lastmile_qr_scan"}, "fusion_lon": 0.0}, {"lat": 38.89876066666667, "is_disabled": 0, "type": "electric_scooter", "lon": -76.931828, "bike_id": "37906856d5f30eddb0c089437b5c59e2", "fusion_lat": 0.0, "name": "37906856d5f30eddb0c089437b5c59e2", "is_reserved": 0, "rental_uris": {"android": "https://dc.lft.to/lastmile_qr_scan", "ios": "https://dc.lft.to/lastmile_qr_scan"}, "fusion_lon": 0.0}, {"lat": 38.91875833333334, "is_disabled": 0, "type": "electric_scooter", "lon": -77.04733716666667, "bike_id": "df7f942de1a28451b582fb0276b3a4e9", "fusion_lat": 0.0, "name": "df7f942de1a28451b582fb0276b3a4e9", "is_reserved": 0, "rental_uris": {"android": "https://dc.lft.to/lastmile_qr_scan", "ios": "https://dc.lft.to/lastmile_qr_scan"}, "fusion_lon": 0.0}, {"lat": 38.87314966666667, "is_disabled": 0, "type": "electric_bike", "lon": -76.991567, "bike_id": "2fc9b422aeae0887309a2805e5b737dd", "fusion_lat": 0.0, "name": "2fc9b422aeae0887309a2805e5b737dd", "is_reserved": 0, "rental_uris": {"android": "https://dc.lft.to/lastmile_qr_scan", "ios": "https://dc.lft.to/lastmile_qr_scan"}, "fusion_lon": 0.0}, {"lat": 38.951390333333336, "is_disabled": 0, "type": "electric_scooter", "lon": -77.0133375, "bike_id": "ee9c2d61170a04933ee10a9beca2adef", "fusion_lat": 0.0, "name": "ee9c2d61170a04933ee10a9beca2adef", "is_reserved": 0, "rental_uris": {"android": "https://dc.lft.to/lastmile_qr_scan", "ios": "https://dc.lft.to/lastmile_qr_scan"}, "fusion_lon": 0.0}, {"lat": 38.903137, "is_disabled": 0, "type": "electric_scooter", "lon": -76.97802166666666, "bike_id": "2db1e63cf1bda08ca8ed5f7a658a8abc", "fusion_lat": 0.0, "name": "2db1e63cf1bda08ca8ed5f7a658a8abc", "is_reserved": 0, "rental_uris": {"android": "https://dc.lft.to/lastmile_qr_scan", "ios": "https://dc.lft.to/lastmile_qr_scan"}, "fusion_lon": 0.0},