{"data": {"bikes": [{"bike_id": "d44c72b96f5d118f7f4bc6b1066f94e2", "type": "electric_scooter", "is_disabled": 0, "lat": 38.86366983333333, "rental_uris": {"ios": "https://dc.lft.to/lastmile_qr_scan", "android": "https://dc.lft.to/lastmile_qr_scan"}, "is_reserved": 0, "fusion_lon": 0.0, "fusion_lat": 0.0, "lon": -76.99057916666666, "name": "d44c72b96f5d118f7f4bc6b1066f94e2"}, {"bike_id": "bad148b623a9c246ea56c587b6054aaf", "type": "electric_scooter", "is_disabled": 0, "lat": 38.942875666666666, "rental_uris": {"ios": "https://dc.lft.to/lastmile_qr_scan", "android": "https://dc.lft.to/lastmile_qr_scan"}, "is_reserved": 0, "fusion_lon": 0.0, "fusion_lat": 0.0, "lon": -77.077031, "name": "bad148b623a9c246ea56c587b6054aaf"}, {"bike_id": "5b1774500f8f0fc271111f4755b53f70", "type": "electric_scooter", "is_disabled": 0, "lat": 38.94272483333334, "rental_uris": {"ios": "https://dc.lft.to/lastmile_qr_scan", "android": "https://dc.lft.to/lastmile_qr_scan"}, "is_reserved": 0, "fusion_lon": 0.0, "fusion_lat": 0.0, "lon": -77.03258483333333, "name": "5b1774500f8f0fc271111f4755b53f70"}, {"bike_id": "5b8ed4bc0f3dcabea037d6585cab85e2", "type": "electric_scooter", "is_disabled": 0, "lat": 38.9177825, "rental_uris": {"ios": "https://dc.lft.to/lastmile_qr_scan", "android": "https://dc.lft.to/lastmile_qr_scan"}, "is_reserved": 0, "fusion_lon": 0.0, "fusion_lat": 0.0, "lon": -77.01500266666666, "name": "5b8ed4bc0f3dcabea037d6585cab85e2"}, {"bike_id": "dcf327c35ddbf511a8c07b24e2c10ef2", "type": "electric_scooter", "is_disabled": 0, "lat": 38.895436833333335, "rental_uris": {"ios": "https://dc.lft.to/lastmile_qr_scan", "android": "https://dc.lft.to/lastmile_qr_scan"}, "is_reserved": 0, "fusion_lon": 0.0, "fusion_lat": 0.0, "lon": -77.0111615, "name": "dcf327c35ddbf511a8c07b24e2c10ef2"}, {"bike_id": "56c05c93126babcd70ea8642bf3d77b7", "type": "electric_scooter", "is_disabled": 0, "lat": 38.90557116666667, "rental_uris": {"ios": "https://dc.lft.to/lastmile_qr_scan", "android": "https://dc.lft.to/lastmile_qr_scan"}, "is_reserved": 0, "fusion_lon": 0.0, "fusion_lat": 0.0, "lon": -77.005917, "name": "56c05c93126babcd70ea8642bf3d77b7"}, {"bike_id": "43b0c6f97f5d3424d8a13db447c931ea", "type": "electric_scooter", "is_disabled": 0, "lat": 38.92905533333333, "rental_uris": {"ios": "https://dc.lft.to/lastmile_qr_scan", "android": "https://dc.lft.to/lastmile_qr_scan"}, "is_reserved": 0, "fusion_lon": 0.0, "fusion_lat": 0.0, "lon": -77.0325165, "name": "43b0c6f97f5d3424d8a13db447c931ea"}, {"bike_id": "c109bd91caf0f21c2b615d3da13df3c4", "type": "electric_bike", "is_disabled": 0, "lat": 38.8974095, "rental_uris": {"ios": "https://dc.lft.to/lastmile_qr_scan", "android": "https://dc.lft.to/lastmile_qr_scan"}, "is_reserved": 0, "fusion_lon": 0.0, "fusion_lat": 0.0, "lon": -76.9921905, "name": "c109bd91caf0f21c2b615d3da13df3c4"}, {"bike_id": "77d39ed977d944fa895577c49efec3af", "type": "electric_scooter", "is_disabled": 0, "lat": 38.884199, "rental_uris": {"ios": "https://dc.lft.to/lastmile_qr_scan", "android": "https://dc.lft.to/lastmile_qr_scan"}, "is_reserved": 0, "fusion_lon": 0.0, "fusion_lat": 0.0, "lon": -77.00742216666667, "name": "77d39ed977d944fa895577c49efec3af"}, {"bike_id": "98c2a878ed70b5ad0d17e65f17534b6b", "type": "electric_bike", "is_disabled": 0, "lat": 38.95629616666667, "rental_uris": {"ios": "https://dc.lft.to/lastmile_qr_scan", "android": "https://dc.lft.to/lastmile_qr_scan"}, "is_reserved": 0, "fusion_lon": 0.0, "fusion_lat": 0.0, "lon": -76.93868983333333, "name": "98c2a878ed70b5ad0d17e65f17534b6b"}, {"bike_id": "6f43d25bfb519c7a6bb3f213219b2a10", "type": "electric_scooter", "is_disabled": 0, "lat": 38.87059166666667, "rental_uris": {"ios": "https://dc.lft.to/lastmile_qr_scan", "android": "https://dc.lft.to/lastmile_qr_scan"}, "is_reserved": 0, "fusion_lon": 0.0, "fusion_lat": 0.0, "lon": -77.00752633333333, "name": "6f43d25bfb519c7a6bb3f213219b2a10"}, {"bike_id": "447368bf16d304bee59754cd40877d15", "type": "electric_scooter", "is_disabled": 0, "lat": 38.863660333333335, "rental_uris": {"ios": "https://dc.lft.to/lastmile_qr_scan", "android": "https://dc.lft.to/lastmile_qr_scan"}, "is_reserved": 0, "fusion_lon": 0.0, "fusion_lat": 0.0, "lon": -76.9905425, "name": "447368bf16d304bee59754cd40877d15"}, {"bike_id": "8a8c91662e873f0ad58c7899b4cade05", "type": "electric_scooter", "is_disabled": 0, "lat": 38.92236883333333, "rental_uris": {"ios": "https://dc.lft.to/lastmile_qr_scan", "android": "https://dc.lft.to/lastmile_qr_scan"}, "is_reserved": 0, "fusion_lon": 0.0, "fusion_lat": 0.0, "lon": -77.02953433333333, "name": "8a8c91662e873f0ad58c7899b4cade05"}, {"bike_id": "a69e417de7b983c9a691a137ba6af995", "type": "electric_scooter", "is_disabled": 0, "lat": 38.92409266666667, "rental_uris": {"ios": "https://dc.lft.to/lastmile_qr_scan", "android": "https://dc.lft.to/lastmile_qr_scan"}, "is_reserved": 0, "fusion_lon": 0.0, "fusion_lat": 0.0, "lon": -77.022587, "name": "a69e417de7b983c9a691a137ba6af995"}, {"bike_id": "4303ffbfbad06874bc3ee1e3af0f052c", "type": "electric_scooter", "is_disabled": 0, "lat": 38.98433566666667, "rental_uris": {"ios": "https://dc.lft.to/lastmile_qr_scan", "android": "https://dc.lft.to/lastmile_qr_scan"}, "is_reserved": 0, "fusion_lon": 0.0, "fusion_lat": 0.0, "lon": -77.02671566666666, "name": "4303ffbfbad06874bc3ee1e3af0f052c"}, {"bike_id": "31316d7e00aa86ef9b958bf4631de781", "type": "electric_scooter", "is_disabled": 0, "lat": 38.935521333333334, "rental_uris": {"ios": "https://dc.lft.to/lastmile_qr_scan", "android": "https://dc.lft.to/lastmile_qr_scan"}, "is_reserved": 0, "fusion_lon": 0.0, "fusion_lat": 0.0, "lon": -77.02511016666666, "name": "31316d7e00aa86ef9b958bf4631de781"}, {"bike_id": "02b70415b0fb18ff3a41f14d65a56e31", "type": "electric_scooter", "is_disabled": 0, "lat": 38.90730516666667, "rental_uris": {"ios": "https://dc.lft.to/lastmile_qr_scan", "android": "https://dc.lft.to/lastmile_qr_scan"}, "is_reserved": 0, "fusion_lon": 0.0, "fusion_lat": 0.0, "lon": -77.02979233333333, "name": "02b70415b0fb18ff3a41f14d65a56e31"}, {"bike_id": "3b6d5a8f987dd6700e42adaf26c5b563", "type": "electric_scooter", "is_disabled": 0, "lat": 38.92826016666667, "rental_uris": {"ios": "https://dc.lft.to/lastmile_qr_scan", "android": "https://dc.lft.to/lastmile_qr_scan"}, "is_reserved": 0, "fusion_lon": 0.0, "fusion_lat": 0.0, "lon": -77.02262966666666, "name": "3b6d5a8f987dd6700e42adaf26c5b563"}, {"bike_id": "4c624867cfc3fb293fbfdd831eadbc59", "type": "electric_scooter", "is_disabled": 0, "lat": 38.906684166666665, "rental_uris": {"ios": "https://dc.lft.to/lastmile_qr_scan", "android": "https://dc.lft.to/lastmile_qr_scan"}, "is_reserved": 0, "fusion_lon": 0.0, "fusion_lat": 0.0, "lon": -77.027147, "name": "4c624867cfc3fb293fbfdd831eadbc59"}, {"bike_id": "ce581b08fb354b5497bbb129e33a7685", "type": "electric_scooter", "is_disabled": 0, "lat": 38.902634166666665, "rental_uris": {"ios": "https://dc.lft.to/lastmile_qr_scan", "android": "https://dc.lft.to/lastmile_qr_scan"}, "is_reserved": 0, "fusion_lon": 0.0, "fusion_lat": 0.0, "lon": -77.03386133333333, "name": "ce581b08fb354b5497bbb129e33a7685"}, {"bike_id": "cc001c2956a745fe9ae74e26239f4767", "type": "electric_scooter", "is_disabled": 0, "lat": 38.9207515, "rental_uris": {"ios": "https://dc.lft.to/lastmile_qr_scan", "android": "https://dc.lft.to/lastmile_qr_scan"}, "is_reserved": 0, "fusion_lon": 0.0, "fusion_lat": 0.0, "lon": -77.025075, "name": "cc001c2956a745fe9ae74e26239f4767"}, {"bike_id": "84afac02f050d6a92bf669ad205bba1e", "type": "electric_bike", "is_disabled": 0, "lat": 38.9402145, "rental_uris": {"ios": "https://dc.lft.to/lastmile_qr_scan", "android": "https://dc.lft.to/lastmile_qr_scan"}, "is_reserved": 0, "fusion_lon": 0.0, "fusion_lat": 0.0, "lon": -76.976106, "name": "84afac02f050d6a92bf669ad205bba1e"}, {"bike_id": "8edc06e93bccaa324c5e6d98efdc6d3b", "type": "electric_scooter", "is_disabled": 0, "lat": 38.91768483333333, "rental_uris": {"ios": "https://dc.lft.to/lastmile_qr_scan", "android": "https://dc.lft.to/lastmile_qr_scan"}, "is_reserved": 0, "fusion_lon": 0.0, "fusion_lat": 0.0, "lon": -77.04763016666666, "name": "8edc06e93bccaa324c5e6d98efdc6d3b"}, {"bike_id": "c4ae079a52d1521d81efb4ca5c24eabe", "type": "electric_scooter", "is_disabled": 0, "lat": 38.913497, "rental_uris": {"ios": "https://dc.lft.to/lastmile_qr_scan", "android": "https://dc.lft.to/lastmile_qr_scan"}, "is_reserved": 0, "fusion_lon": 0.0, "fusion_lat": 0.0, "lon": -77.04494166666667, "name": "c4ae079a52d1521d81efb4ca5c24eabe"}, {"bike_id": "d544e53690dcd73a29ae0429ade3e781", "type": "electric_scooter", "is_disabled": 0, "lat": 38.902695666666666, "rental_uris": {"ios": "https://dc.lft.to/lastmile_qr_scan", "android": "https://dc.lft.to/lastmile_qr_scan"}, "is_reserved": 0, "fusion_lon": 0.0, "fusion_lat": 0.0, "lon": -77.0386355, "name": "d544e53690dcd73a29ae0429ade3e781"}, {"bike_id": "1387f1e68e98485ecd99c5c354863175", "type": "electric_bike", "is_disabled": 0, "lat": 39.062949833333334, "rental_uris": {"ios": "https://dc.lft.to/lastmile_qr_scan", "android": "https://dc.lft.to/lastmile_qr_scan"}, "is_reserved": 0, "fusion_lon": 0.0, "fusion_lat": 0.0, "lon": -77.0497955, "name": "1387f1e68e98485ecd99c5c354863175"}, {"bike_id": "99c56a76d097790ae2220b9ca6d68bf2", "type": "electric_scooter", "is_disabled": 0, "lat": 38.90148533333333, "rental_uris": {"ios": "https://dc.lft.to/lastmile_qr_scan", "android": "https://dc.lft.to/lastmile_qr_scan"}, "is_reserved": 0, "fusion_lon": 0.0, "fusion_lat": 0.0, "lon": -76.93060583333333, "name": "99c56a76d097790ae2220b9ca6d68bf2"}, {"bike_id": "f3544dee4d622b2c6ceee7736bcf931f", "type": "electric_scooter", "is_disabled": 0, "lat": 38.8766045, "rental_uris": {"ios": "https://dc.lft.to/lastmile_qr_scan", "android": "https://dc.lft.to/lastmile_qr_scan"}, "is_reserved": 0, "fusion_lon": 0.0, "fusion_lat": 0.0, "lon": -77.00579466666667, "name": "f3544dee4d622b2c6ceee7736bcf931f"}, {"bike_id": "1a33cd955c1fa7df7a6023237c6aed46", "type": "electric_scooter", "is_disabled": 0, "lat": 38.938825333333334, "rental_uris": {"ios": "https://dc.lft.to/lastmile_qr_scan", "android": "https://dc.lft.to/lastmile_qr_scan"}, "is_reserved": 0, "fusion_lon": 0.0, "fusion_lat": 0.0, "lon": -77.02492866666667, "name": "1a33cd955c1fa7df7a6023237c6aed46"}, {"bike_id": "87c24743f882e25c9a680a2b9c0f675c", "type": "electric_scooter", "is_disabled": 0, "lat": 38.892225333333336, "rental_uris": {"ios": "https://dc.lft.to/lastmile_qr_scan", "android": "https://dc.lft.to/lastmile_qr_scan"}, "is_reserved": 0, "fusion_lon": 0.0, "fusion_lat": 0.0, "lon": -77.025786, "name": "87c24743f882e25c9a680a2b9c0f675c"}, {"bike_id": "b86b0928e2bb56942e99d849cf41336c", "type": "electric_scooter", "is_disabled": 0, "lat": 38.90728466666667, "rental_uris": {"ios": "https://dc.lft.to/lastmile_qr_scan", "android": "https://dc.lft.to/lastmile_qr_scan"}, "is_reserved": 0, "fusion_lon": 0.0, "fusion_lat": 0.0, "lon": -77.02980366666667, "name": "b86b0928e2bb56942e99d849cf41336c"}, {"bike_id": "06c9116630b5a38b9989210e6d295ab0", "type": "electric_scooter", "is_disabled": 0, "lat": 38.90545933333333, "rental_uris": {"ios": "https://dc.lft.to/lastmile_qr_scan", "android": "https://dc.lft.to/lastmile_qr_scan"}, "is_reserved": 0, "fusion_lon": 0.0, "fusion_lat": 0.0, "lon": -77.005749, "name": "06c9116630b5a38b9989210e6d295ab0"}, {"bike_id": "c3d84651bb21d4446c268e94005f155e", "type": "electric_scooter", "is_disabled": 0, "lat": 38.903118166666665, "rental_uris": {"ios": "https://dc.lft.to/lastmile_qr_scan", "android": "https://dc.lft.to/lastmile_qr_scan"}, "is_reserved": 0, "fusion_lon": 0.0, "fusion_lat": 0.0, "lon": -76.983588, "name": "c3d84651bb21d4446c268e94005f155e"}, {"bike_id": "f21bc0207e314d866d0fbcb85283ab21", "type": "electric_bike", "is_disabled": 0, "lat": 38.91140683333333, "rental_uris": {"ios": "https://dc.lft.to/lastmile_qr_scan", "android": "https://dc.lft.to/lastmile_qr_scan"}, "is_reserved": 0, "fusion_lon": 0.0, "fusion_lat": 0.0, "lon": -77.00271633333334, "name": "f21bc0207e314d866d0fbcb85283ab21"}, {"bike_id": "c110391c9f0d7ae4673b75563a564ae3", "type": "electric_scooter", "is_disabled": 0, "lat": 38.925763333333336, "rental_uris": {"ios": "https://dc.lft.to/lastmile_qr_scan", "android": "https://dc.lft.to/lastmile_qr_scan"}, "is_reserved": 0, "fusion_lon": 0.0, "fusion_lat": 0.0, "lon": -77.03921583333333, "name": "c110391c9f0d7ae4673b75563a564ae3"}, {"bike_id": "22ebd0ec22431b392916637d708533c2", "type": "electric_scooter", "is_disabled": 0, "lat": 38.91696816666666, "rental_uris": {"ios": "https://dc.lft.to/lastmile_qr_scan", "android": "https://dc.lft.to/lastmile_qr_scan"}, "is_reserved": 0, "fusion_lon": 0.0, "fusion_lat": 0.0, "lon": -77.03218333333334, "name": "22ebd0ec22431b392916637d708533c2"}, {"bike_id": "801c0df41e7371589961ce1a31c43ee8", "type": "electric_scooter", "is_disabled": 0, "lat": 38.90769433333333, "rental_uris": {"ios": "https://dc.lft.to/lastmile_qr_scan", "android": "https://dc.lft.to/lastmile_qr_scan"}, "is_reserved": 0, "fusion_lon": 0.0, "fusion_lat": 0.0, "lon": -77.0121275, "name": "801c0df41e7371589961ce1a31c43ee8"}, {"bike_id": "61071481feb96797cdf7bf0b3da1008a", "type": "electric_bike", "is_disabled": 0, "lat": 38.919240333333335, "rental_uris": {"ios": "https://dc.lft.to/lastmile_qr_scan", "android": "https://dc.lft.to/lastmile_qr_scan"}, "is_reserved": 0, "fusion_lon": 0.0, "fusion_lat": 0.0, "lon": -77.08033133333333, "name": "61071481feb96797cdf7bf0b3da1008a"}, {"bike_id": "d9f5fe8a0ad2389aa78f794b203d5e8c", "type": "electric_scooter", "is_disabled": 0, "lat": 38.952009333333336, "rental_uris": {"ios": "https://dc.lft.to/lastmile_qr_scan", "android": "https://dc.lft.to/lastmile_qr_scan"}, "is_reserved": 0, "fusion_lon": 0.0, "fusion_lat": 0.0, "lon": -77.0679055, "name": "d9f5fe8a0ad2389aa78f794b203d5e8c"}, {"bike_id": "6640600b03ed4389357eac8493189568", "type": "electric_bike", "is_disabled": 0, "lat": 38.872943, "rental_uris": {"ios": "https://dc.lft.to/lastmile_qr_scan", "android": "https://dc.lft.to/lastmile_qr_scan"}, "is_reserved": 0, "fusion_lon": 0.0, "fusion_lat": 0.0, "lon": -77.13928416666667, "name": "6640600b03ed4389357eac8493189568"}, {"bike_id": "41d26950b27f08492d1b15acaf19f7d3", "type": "electric_scooter", "is_disabled": 0, "lat": 38.9359595, "rental_uris": {"ios": "https://dc.lft.to/lastmile_qr_scan", "android": "https://dc.lft.to/lastmile_qr_scan"}, "is_reserved": 0, "fusion_lon": 0.0, "fusion_lat": 0.0, "lon": -77.03808366666667, "name": "41d26950b27f08492d1b15acaf19f7d3"}, {"bike_id": "32d0579f25886ac7c399348c123cbc2e", "type": "electric_scooter", "is_disabled": 0, "lat": 38.94205683333333, "rental_uris": {"ios": "https://dc.lft.to/lastmile_qr_scan", "android": "https://dc.lft.to/lastmile_qr_scan"}, "is_reserved": 0, "fusion_lon": 0.0, "fusion_lat": 0.0, "lon": -77.02354333333334, "name": "32d0579f25886ac7c399348c123cbc2e"}, {"bike_id": "a44e14288dea7d9c374520b016fa731d", "type": "electric_scooter", "is_disabled": 0, "lat": 38.909723166666666, "rental_uris": {"ios": "https://dc.lft.to/lastmile_qr_scan", "android": "https://dc.lft.to/lastmile_qr_scan"}, "is_reserved": 0, "fusion_lon": 0.0, "fusion_lat": 0.0, "lon": -77.03369466666666, "name": "a44e14288dea7d9c374520b016fa731d"}, {"bike_id": "69b8d4088c891d9d68647d055f6b8d1c", "type": "electric_scooter", "is_disabled": 0, "lat": 38.93620383333333, "rental_uris": {"ios": "https://dc.lft.to/lastmile_qr_scan", "android": "https://dc.lft.to/lastmile_qr_scan"}, "is_reserved": 0, "fusion_lon": 0.0, "fusion_lat": 0.0, "lon": -77.06754466666666, "name": "69b8d4088c891d9d68647d055f6b8d1c"}, {"bike_id": "44ba4bef715f1e8a98a0aed0f141d75f", "type": "electric_scooter", "is_disabled": 0, "lat": 38.91798633333333, "rental_uris": {"ios": "https://dc.lft.to/lastmile_qr_scan", "android": "https://dc.lft.to/lastmile_qr_scan"}, "is_reserved": 0, "fusion_lon": 0.0, "fusion_lat": 0.0, "lon": -77.0325595, "name": "44ba4bef715f1e8a98a0aed0f141d75f"}, {"bike_id": "89c062786d3489197e5b7ca62ba86291", "type": "electric_scooter", "is_disabled": 0, "lat": 38.906535833333336, "rental_uris": {"ios": "https://dc.lft.to/lastmile_qr_scan", "android": "https://dc.lft.to/lastmile_qr_scan"}, "is_reserved": 0, "fusion_lon": 0.0, "fusion_lat": 0.0, "lon": -77.0141215, "name": "89c062786d3489197e5b7ca62ba86291"}, {"bike_id": "ee986868bb1c0c80eb4f6230386c63ad", "type": "electric_scooter", "is_disabled": 0, "lat": 38.926133666666665, "rental_uris": {"ios": "https://dc.lft.to/lastmile_qr_scan", "android": "https://dc.lft.to/lastmile_qr_scan"}, "is_reserved": 0, "fusion_lon": 0.0, "fusion_lat": 0.0, "lon": -77.0432655, "name": "ee986868bb1c0c80eb4f6230386c63ad"}, {"bike_id": "1765a67b5a05d7681719a739ee05c0c0", "type": "electric_scooter", "is_disabled": 0, "lat": 38.935408833333334, "rental_uris": {"ios": "https://dc.lft.to/lastmile_qr_scan", "android": "https://dc.lft.to/lastmile_qr_scan"}, "is_reserved": 0, "fusion_lon": 0.0, "fusion_lat": 0.0, "lon": -77.03892716666667, "name": "1765a67b5a05d7681719a739ee05c0c0"}, {"bike_id": "eeb845c9291d77346cf975d59a1be1f5", "type": "electric_scooter", "is_disabled": 0, "lat": 38.90026366666667, "rental_uris": {"ios": "https://dc.lft.to/lastmile_qr_scan", "android": "https://dc.lft.to/lastmile_qr_scan"}, "is_reserved": 0, "fusion_lon": 0.0, "fusion_lat": 0.0, "lon": -77.00202516666667, "name": "eeb845c9291d77346cf975d59a1be1f5"}, {"bike_id": "909d040a295144759b2a1d9ab4ae2a16", "type": "electric_bike", "is_disabled": 0, "lat": 38.946540666666664, "rental_uris": {"ios": "https://dc.lft.to/lastmile_qr_scan", "android": "https://dc.lft.to/lastmile_qr_scan"}, "is_reserved": 0, "fusion_lon": 0.0, "fusion_lat": 0.0, "lon": -76.99488483333333, "name": "909d040a295144759b2a1d9ab4ae2a16"}, {"bike_id": "7d7c4b3abfe40181695a5cc2c8f41dd1", "type": "electric_scooter", "is_disabled": 0, "lat": 38.908069166666664, "rental_uris": {"ios": "https://dc.lft.to/lastmile_qr_scan", "android": "https://dc.lft.to/lastmile_qr_scan"}, "is_reserved": 0, "fusion_lon": 0.0, "fusion_lat": 0.0, "lon": -77.0311555, "name": "7d7c4b3abfe40181695a5cc2c8f41dd1"}, {"bike_id": "f927e43042d8b89d5740b9b428ae3958", "type": "electric_scooter", "is_disabled": 0, "lat": 38.91019266666667, "rental_uris": {"ios": "https://dc.lft.to/lastmile_qr_scan", "android": "https://dc.lft.to/lastmile_qr_scan"}, "is_reserved": 0, "fusion_lon": 0.0, "fusion_lat": 0.0, "lon": -77.01618216666667, "name": "f927e43042d8b89d5740b9b428ae3958"}, {"bike_id": "269e04907e6409bf425a2f7033e79728", "type": "electric_scooter", "is_disabled": 0, "lat": 38.91418783333334, "rental_uris": {"ios": "https://dc.lft.to/lastmile_qr_scan", "android": "https://dc.lft.to/lastmile_qr_scan"}, "is_reserved": 0, "fusion_lon": 0.0, "fusion_lat": 0.0, "lon": -77.02289583333334, "name": "269e04907e6409bf425a2f7033e79728"}, {"bike_id": "67c91cc1e2bb791f1d1e0c692c9d333f", "type": "electric_scooter", "is_disabled": 0, "lat": 38.90504166666667, "rental_uris": {"ios": "https://dc.lft.to/lastmile_qr_scan", "android": "https://dc.lft.to/lastmile_qr_scan"}, "is_reserved": 0, "fusion_lon": 0.0, "fusion_lat": 0.0, "lon": -77.0297145, "name": "67c91cc1e2bb791f1d1e0c692c9d333f"}, {"bike_id": "39b404914dad8404efe506b3391456d7", "type": "electric_scooter", "is_disabled": 0, "lat": 38.911465166666666, "rental_uris": {"ios": "https://dc.lft.to/lastmile_qr_scan", "android": "https://dc.lft.to/lastmile_qr_scan"}, "is_reserved": 0, "fusion_lon": 0.0, "fusion_lat": 0.0, "lon": -77.02804766666667, "name": "39b404914dad8404efe506b3391456d7"}, {"bike_id": "e9056d881b6dcdf5b878fae13295bdfc", "type": "electric_scooter", "is_disabled": 0, "lat": 38.922384666666666, "rental_uris": {"ios": "https://dc.lft.to/lastmile_qr_scan", "android": "https://dc.lft.to/lastmile_qr_scan"}, "is_reserved": 0, "fusion_lon": 0.0, "fusion_lat": 0.0, "lon": -77.03878616666667, "name": "e9056d881b6dcdf5b878fae13295bdfc"}, {"bike_id": "b447bd351f51033a4c57f54373f598d9", "type": "electric_scooter", "is_disabled": 0, "lat": 38.95530383333333, "rental_uris": {"ios": "https://dc.lft.to/lastmile_qr_scan", "android": "https://dc.lft.to/lastmile_qr_scan"}, "is_reserved": 0, "fusion_lon": 0.0, "fusion_lat": 0.0, "lon": -77.0277865, "name": "b447bd351f51033a4c57f54373f598d9"}, {"bike_id": "fa7c857c1cac95f3db54ed7865d5f223", "type": "electric_scooter", "is_disabled": 0, "lat": 38.87778933333333, "rental_uris": {"ios": "https://dc.lft.to/lastmile_qr_scan", "android": "https://dc.lft.to/lastmile_qr_scan"}, "is_reserved": 0, "fusion_lon": 0.0, "fusion_lat": 0.0, "lon": -77.00732566666667, "name": "fa7c857c1cac95f3db54ed7865d5f223"}, {"bike_id": "3b4c3399d5f4a0682cb1b9f743ede9b6", "type": "electric_scooter", "is_disabled": 0, "lat": 38.86885783333334, "rental_uris": {"ios": "https://dc.lft.to/lastmile_qr_scan", "android": "https://dc.lft.to/lastmile_qr_scan"}, "is_reserved": 0, "fusion_lon": 0.0, "fusion_lat": 0.0, "lon": -76.98447116666667, "name": "3b4c3399d5f4a0682cb1b9f743ede9b6"}, {"bike_id": "d81e1df9f7cf8653f3cd6d009c5e1793", "type": "electric_scooter", "is_disabled": 0, "lat": 38.91272633333333, "rental_uris": {"ios": "https://dc.lft.to/lastmile_qr_scan", "android": "https://dc.lft.to/lastmile_qr_scan"}, "is_reserved": 0, "fusion_lon": 0.0, "fusion_lat": 0.0, "lon": -77.01505666666667, "name": "d81e1df9f7cf8653f3cd6d009c5e1793"}, {"bike_id": "f3b75ab16cabe9645af5d53fb6cd9835", "type": "electric_bike", "is_disabled": 0, "lat": 38.838177, "rental_uris": {"ios": "https://dc.lft.to/lastmile_qr_scan", "android": "https://dc.lft.to/lastmile_qr_scan"}, "is_reserved": 0, "fusion_lon": 0.0, "fusion_lat": 0.0, "lon": -77.095279, "name": "f3b75ab16cabe9645af5d53fb6cd9835"}, {"bike_id": "4d58bd97a4bf6408b65f81963cf2ba7a", "type": "electric_scooter", "is_disabled": 0, "lat": 38.9069195, "rental_uris": {"ios": "https://dc.lft.to/lastmile_qr_scan", "android": "https://dc.lft.to/lastmile_qr_scan"}, "is_reserved": 0, "fusion_lon": 0.0, "fusion_lat": 0.0, "lon": -77.065223, "name": "4d58bd97a4bf6408b65f81963cf2ba7a"}, {"bike_id": "be038597cb66f2e0f5f5c18f9fe15499", "type": "electric_scooter", "is_disabled": 0, "lat": 38.90878133333333, "rental_uris": {"ios": "https://dc.lft.to/lastmile_qr_scan", "android": "https://dc.lft.to/lastmile_qr_scan"}, "is_reserved": 0, "fusion_lon": 0.0, "fusion_lat": 0.0, "lon": -77.03504116666667, "name": "be038597cb66f2e0f5f5c18f9fe15499"}, {"bike_id": "d19bc4e231b159e7b2d016a8a843d648", "type": "electric_scooter", "is_disabled": 0, "lat": 38.964066333333335, "rental_uris": {"ios": "https://dc.lft.to/lastmile_qr_scan", "android": "https://dc.lft.to/lastmile_qr_scan"}, "is_reserved": 0, "fusion_lon": 0.0, "fusion_lat": 0.0, "lon": -77.027671, "name": "d19bc4e231b159e7b2d016a8a843d648"}, {"bike_id": "93a0e50965e504aab0f7fd89a6ebcead", "type": "electric_scooter", "is_disabled": 0, "lat": 38.91043583333333, "rental_uris": {"ios": "https://dc.lft.to/lastmile_qr_scan", "android": "https://dc.lft.to/lastmile_qr_scan"}, "is_reserved": 0, "fusion_lon": 0.0, "fusion_lat": 0.0, "lon": -77.04117533333333, "name": "93a0e50965e504aab0f7fd89a6ebcead"}, {"bike_id": "77377cc09fdbc8370e7d756cc02203c0", "type": "electric_scooter", "is_disabled": 0, "lat": 38.934578, "rental_uris": {"ios": "https://dc.lft.to/lastmile_qr_scan", "android": "https://dc.lft.to/lastmile_qr_scan"}, "is_reserved": 0, "fusion_lon": 0.0, "fusion_lat": 0.0, "lon": -77.07225366666667, "name": "77377cc09fdbc8370e7d756cc02203c0"}, {"bike_id": "82379373ae49c922196eba9ebacf6e42", "type": "electric_scooter", "is_disabled": 0, "lat": 38.92466666666667, "rental_uris": {"ios": "https://dc.lft.to/lastmile_qr_scan", "android": "https://dc.lft.to/lastmile_qr_scan"}, "is_reserved": 0, "fusion_lon": 0.0, "fusion_lat": 0.0, "lon": -77.05233133333333, "name": "82379373ae49c922196eba9ebacf6e42"}, {"bike_id": "a81ba027bd5d3f6f3aaecb166708dffa", "type": "electric_scooter", "is_disabled": 0, "lat": 38.92348766666667, "rental_uris": {"ios": "https://dc.lft.to/lastmile_qr_scan", "android": "https://dc.lft.to/lastmile_qr_scan"}, "is_reserved": 0, "fusion_lon": 0.0, "fusion_lat": 0.0, "lon": -77.04031833333333, "name": "a81ba027bd5d3f6f3aaecb166708dffa"}, {"bike_id": "66c919a2ab87f1561a3d85e08e543740", "type": "electric_bike", "is_disabled": 0, "lat": 39.05635, "rental_uris": {"ios": "https://dc.lft.to/lastmile_qr_scan", "android": "https://dc.lft.to/lastmile_qr_scan"}, "is_reserved": 0, "fusion_lon": 0.0, "fusion_lat": 0.0, "lon": -77.12525833333333, "name": "66c919a2ab87f1561a3d85e08e543740"}, {"bike_id": "5ab71a8d184a77ab2dea677b2709dccf", "type": "electric_scooter", "is_disabled": 0, "lat": 38.907294666666665, "rental_uris": {"ios": "https://dc.lft.to/lastmile_qr_scan", "android": "https://dc.lft.to/lastmile_qr_scan"}, "is_reserved": 0, "fusion_lon": 0.0, "fusion_lat": 0.0, "lon": -77.01485766666667, "name": "5ab71a8d184a77ab2dea677b2709dccf"}, {"bike_id": "d644371e12eca0c37fc42c69773300cb", "type": "electric_scooter", "is_disabled": 0, "lat": 38.8987025, "rental_uris": {"ios": "https://dc.lft.to/lastmile_qr_scan", "android": "https://dc.lft.to/lastmile_qr_scan"}, "is_reserved": 0, "fusion_lon": 0.0, "fusion_lat": 0.0, "lon": -77.02006466666667, "name": "d644371e12eca0c37fc42c69773300cb"}, {"bike_id": "0174e3a0202bbd45c465f264ac177197", "type": "electric_scooter", "is_disabled": 0, "lat": 38.92990533333333, "rental_uris": {"ios": "https://dc.lft.to/lastmile_qr_scan", "android": "https://dc.lft.to/lastmile_qr_scan"}, "is_reserved": 0, "fusion_lon": 0.0, "fusion_lat": 0.0, "lon": -77.0347165, "name": "0174e3a0202bbd45c465f264ac177197"}, {"bike_id": "3997cbb6f894afdc4114f859dc399bdb", "type": "electric_scooter", "is_disabled": 0, "lat": 38.9067845, "rental_uris": {"ios": "https://dc.lft.to/lastmile_qr_scan", "android": "https://dc.lft.to/lastmile_qr_scan"}, "is_reserved": 0, "fusion_lon": 0.0, "fusion_lat": 0.0, "lon": -77.0718265, "name": "3997cbb6f894afdc4114f859dc399bdb"}, {"bike_id": "1ee45bed3c5ceaa3190d639bbd9bd49a", "type": "electric_scooter", "is_disabled": 0, "lat": 38.90028983333333, "rental_uris": {"ios": "https://dc.lft.to/lastmile_qr_scan", "android": "https://dc.lft.to/lastmile_qr_scan"}, "is_reserved": 0, "fusion_lon": 0.0, "fusion_lat": 0.0, "lon": -76.98813866666667, "name": "1ee45bed3c5ceaa3190d639bbd9bd49a"}, {"bike_id": "791a9dd4a1ee48ff744e2b6ad3182b1a", "type": "electric_scooter", "is_disabled": 0, "lat": 38.916752, "rental_uris": {"ios": "https://dc.lft.to/lastmile_qr_scan", "android": "https://dc.lft.to/lastmile_qr_scan"}, "is_reserved": 0, "fusion_lon": 0.0, "fusion_lat": 0.0, "lon": -77.02301383333334, "name": "791a9dd4a1ee48ff744e2b6ad3182b1a"}, {"bike_id": "2b64f33c6d69b55ae42ad64b0a397289", "type": "electric_scooter", "is_disabled": 0, "lat": 38.911082, "rental_uris": {"ios": "https://dc.lft.to/lastmile_qr_scan", "android": "https://dc.lft.to/lastmile_qr_scan"}, "is_reserved": 0, "fusion_lon": 0.0, "fusion_lat": 0.0, "lon": -77.01147316666666, "name": "2b64f33c6d69b55ae42ad64b0a397289"}, {"bike_id": "dcd74fe6cb1b6497e18adb340f3ce7b4", "type": "electric_scooter", "is_disabled": 0, "lat": 38.9068415, "rental_uris": {"ios": "https://dc.lft.to/lastmile_qr_scan", "android": "https://dc.lft.to/lastmile_qr_scan"}, "is_reserved": 0, "fusion_lon": 0.0, "fusion_lat": 0.0, "lon": -77.06338883333333, "name": "dcd74fe6cb1b6497e18adb340f3ce7b4"}, {"bike_id": "aaa2afe1e53713a8dc35e1ddc9dea1a3", "type": "electric_scooter", "is_disabled": 0, "lat": 38.94211933333333, "rental_uris": {"ios": "https://dc.lft.to/lastmile_qr_scan", "android": "https://dc.lft.to/lastmile_qr_scan"}, "is_reserved": 0, "fusion_lon": 0.0, "fusion_lat": 0.0, "lon": -77.02587533333333, "name": "aaa2afe1e53713a8dc35e1ddc9dea1a3"}, {"bike_id": "beb1bf6f05a89fe0cd51f7e95ff07b45", "type": "electric_scooter", "is_disabled": 0, "lat": 38.93185, "rental_uris": {"ios": "https://dc.lft.to/lastmile_qr_scan", "android": "https://dc.lft.to/lastmile_qr_scan"}, "is_reserved": 0, "fusion_lon": 0.0, "fusion_lat": 0.0, "lon": -77.03656516666666, "name": "beb1bf6f05a89fe0cd51f7e95ff07b45"}, {"bike_id": "b663d8d64939f29032016942529a9b35", "type": "electric_scooter", "is_disabled": 0, "lat": 38.92977666666667, "rental_uris": {"ios": "https://dc.lft.to/lastmile_qr_scan", "android": "https://dc.lft.to/lastmile_qr_scan"}, "is_reserved": 0, "fusion_lon": 0.0, "fusion_lat": 0.0, "lon": -77.03946333333333, "name": "b663d8d64939f29032016942529a9b35"}, {"bike_id": "a6df351c906b05f0476ad520f43fa281", "type": "electric_scooter", "is_disabled": 0, "lat": 38.935907666666665, "rental_uris": {"ios": "https://dc.lft.to/lastmile_qr_scan", "android": "https://dc.lft.to/lastmile_qr_scan"}, "is_reserved": 0, "fusion_lon": 0.0, "fusion_lat": 0.0, "lon": -77.03814266666667, "name": "a6df351c906b05f0476ad520f43fa281"}, {"bike_id": "2896f6e9c5ef93dedafd344161cc926c", "type": "electric_bike", "is_disabled": 0, "lat": 38.951752, "rental_uris": {"ios": "https://dc.lft.to/lastmile_qr_scan", "android": "https://dc.lft.to/lastmile_qr_scan"}, "is_reserved": 0, "fusion_lon": 0.0, "fusion_lat": 0.0, "lon": -76.977299, "name": "2896f6e9c5ef93dedafd344161cc926c"}, {"bike_id": "8a0a642cce93b8acdd45323b84d45990", "type": "electric_scooter", "is_disabled": 0, "lat": 38.9103675, "rental_uris": {"ios": "https://dc.lft.to/lastmile_qr_scan", "android": "https://dc.lft.to/lastmile_qr_scan"}, "is_reserved": 0, "fusion_lon": 0.0, "fusion_lat": 0.0, "lon": -77.01289616666666, "name": "8a0a642cce93b8acdd45323b84d45990"}, {"bike_id": "50326a8dfff41e81bfb6bfd579fd1ec4", "type": "electric_scooter", "is_disabled": 0, "lat": 38.9226, "rental_uris": {"ios": "https://dc.lft.to/lastmile_qr_scan", "android": "https://dc.lft.to/lastmile_qr_scan"}, "is_reserved": 0, "fusion_lon": 0.0, "fusion_lat": 0.0, "lon": -77.04286516666667, "name": "50326a8dfff41e81bfb6bfd579fd1ec4"}, {"bike_id": "430bc68efb97a7a2a12e9aff31122b0c", "type": "electric_scooter", "is_disabled": 0, "lat": 38.904913, "rental_uris": {"ios": "https://dc.lft.to/lastmile_qr_scan", "android": "https://dc.lft.to/lastmile_qr_scan"}, "is_reserved": 0, "fusion_lon": 0.0, "fusion_lat": 0.0, "lon": -76.94957416666666, "name": "430bc68efb97a7a2a12e9aff31122b0c"}, {"bike_id": "fa44e195439b974fed39c29fd19666ed", "type": "electric_scooter", "is_disabled": 0, "lat": 38.928581666666666, "rental_uris": {"ios": "https://dc.lft.to/lastmile_qr_scan", "android": "https://dc.lft.to/lastmile_qr_scan"}, "is_reserved": 0, "fusion_lon": 0.0, "fusion_lat": 0.0, "lon": -77.019516, "name": "fa44e195439b974fed39c29fd19666ed"}, {"bike_id": "3f1815444fed46f6df27a5a4e982c3af", "type": "electric_scooter", "is_disabled": 0, "lat": 38.92879333333333, "rental_uris": {"ios": "https://dc.lft.to/lastmile_qr_scan", "android": "https://dc.lft.to/lastmile_qr_scan"}, "is_reserved": 0, "fusion_lon": 0.0, "fusion_lat": 0.0, "lon": -77.0138605, "name": "3f1815444fed46f6df27a5a4e982c3af"}, {"bike_id": "f8b41df51b7700d4698ce737bbdc0ee2", "type": "electric_scooter", "is_disabled": 0, "lat": 38.871651666666665, "rental_uris": {"ios": "https://dc.lft.to/lastmile_qr_scan", "android": "https://dc.lft.to/lastmile_qr_scan"}, "is_reserved": 0, "fusion_lon": 0.0, "fusion_lat": 0.0, "lon": -76.97750433333333, "name": "f8b41df51b7700d4698ce737bbdc0ee2"}, {"bike_id": "083b57217dea2e1d3ed5f7ed3757e09b", "type": "electric_scooter", "is_disabled": 0, "lat": 38.902636666666666, "rental_uris": {"ios": "https://dc.lft.to/lastmile_qr_scan", "android": "https://dc.lft.to/lastmile_qr_scan"}, "is_reserved": 0, "fusion_lon": 0.0, "fusion_lat": 0.0, "lon": -77.043883, "name": "083b57217dea2e1d3ed5f7ed3757e09b"}, {"bike_id": "6e0a39cfe585d296b401d4bfa83198c1", "type": "electric_scooter", "is_disabled": 0, "lat": 38.94116416666667, "rental_uris": {"ios": "https://dc.lft.to/lastmile_qr_scan", "android": "https://dc.lft.to/lastmile_qr_scan"}, "is_reserved": 0, "fusion_lon": 0.0, "fusion_lat": 0.0, "lon": -77.02541466666666, "name": "6e0a39cfe585d296b401d4bfa83198c1"}, {"bike_id": "d1b3dc3c2374d19affbc52b07ed8deef", "type": "electric_scooter", "is_disabled": 0, "lat": 38.90509566666667, "rental_uris": {"ios": "https://dc.lft.to/lastmile_qr_scan", "android": "https://dc.lft.to/lastmile_qr_scan"}, "is_reserved": 0, "fusion_lon": 0.0, "fusion_lat": 0.0, "lon": -77.04095233333334, "name": "d1b3dc3c2374d19affbc52b07ed8deef"}, {"bike_id": "6d8242d32c2e3fc303bd76e66a742b3c", "type": "electric_scooter", "is_disabled": 0, "lat": 38.877878, "rental_uris": {"ios": "https://dc.lft.to/lastmile_qr_scan", "android": "https://dc.lft.to/lastmile_qr_scan"}, "is_reserved": 0, "fusion_lon": 0.0, "fusion_lat": 0.0, "lon": -77.01748666666667, "name": "6d8242d32c2e3fc303bd76e66a742b3c"}, {"bike_id": "81c8ea4f3a4fb2d8855fac2aa4b103e8", "type": "electric_scooter", "is_disabled": 0, "lat": 38.90318966666667, "rental_uris": {"ios": "https://dc.lft.to/lastmile_qr_scan", "android": "https://dc.lft.to/lastmile_qr_scan"}, "is_reserved": 0, "fusion_lon": 0.0, "fusion_lat": 0.0, "lon": -76.98296633333334, "name": "81c8ea4f3a4fb2d8855fac2aa4b103e8"}, {"bike_id": "bdff7a894cd13c926ccb3790016bb307", "type": "electric_bike", "is_disabled": 0, "lat": 38.807615, "rental_uris": {"ios": "https://dc.lft.to/lastmile_qr_scan", "android": "https://dc.lft.to/lastmile_qr_scan"}, "is_reserved": 0, "fusion_lon": 0.0, "fusion_lat": 0.0, "lon": -77.09465483333334, "name": "bdff7a894cd13c926ccb3790016bb307"}, {"bike_id": "aecd6b2faba29d636ac9753120571423", "type": "electric_scooter", "is_disabled": 0, "lat": 38.865067, "rental_uris": {"ios": "https://dc.lft.to/lastmile_qr_scan", "android": "https://dc.lft.to/lastmile_qr_scan"}, "is_reserved": 0, "fusion_lon": 0.0, "fusion_lat": 0.0, "lon": -76.98999016666667, "name": "aecd6b2faba29d636ac9753120571423"}, {"bike_id": "6555a4fa171aa6275fda1fbb980abfbc", "type": "electric_scooter", "is_disabled": 0, "lat": 38.9297625, "rental_uris": {"ios": "https://dc.lft.to/lastmile_qr_scan", "android": "https://dc.lft.to/lastmile_qr_scan"}, "is_reserved": 0, "fusion_lon": 0.0, "fusion_lat": 0.0, "lon": -77.03145133333334, "name": "6555a4fa171aa6275fda1fbb980abfbc"}, {"bike_id": "a5313aaff7e312be10779200d8803f08", "type": "electric_scooter", "is_disabled": 0, "lat": 38.91881766666667, "rental_uris": {"ios": "https://dc.lft.to/lastmile_qr_scan", "android": "https://dc.lft.to/lastmile_qr_scan"}, "is_reserved": 0, "fusion_lon": 0.0, "fusion_lat": 0.0, "lon": -77.03484916666666, "name": "a5313aaff7e312be10779200d8803f08"}, {"bike_id": "d44d6d0a4e0250e9bb843c30f6bf7880", "type": "electric_scooter", "is_disabled": 0, "lat": 38.91401233333333, "rental_uris": {"ios": "https://dc.lft.to/lastmile_qr_scan", "android": "https://dc.lft.to/lastmile_qr_scan"}, "is_reserved": 0, "fusion_lon": 0.0, "fusion_lat": 0.0, "lon": -77.03451666666666, "name": "d44d6d0a4e0250e9bb843c30f6bf7880"}, {"bike_id": "722e5b86e2b541489a23168f0135f459", "type": "electric_bike", "is_disabled": 0, "lat": 38.993462666666666, "rental_uris": {"ios": "https://dc.lft.to/lastmile_qr_scan", "android": "https://dc.lft.to/lastmile_qr_scan"}, "is_reserved": 0, "fusion_lon": 0.0, "fusion_lat": 0.0, "lon": -77.11581533333333, "name": "722e5b86e2b541489a23168f0135f459"}, {"bike_id": "b71172ca30bddacce4f4bcbf76e3e782", "type": "electric_scooter", "is_disabled": 0, "lat": 38.92054316666667, "rental_uris": {"ios": "https://dc.lft.to/lastmile_qr_scan", "android": "https://dc.lft.to/lastmile_qr_scan"}, "is_reserved": 0, "fusion_lon": 0.0, "fusion_lat": 0.0, "lon": -77.044031, "name": "b71172ca30bddacce4f4bcbf76e3e782"}, {"bike_id": "f57737d7dadb529f8d3f76c0b72eeaf3", "type": "electric_scooter", "is_disabled": 0, "lat": 38.9231645, "rental_uris": {"ios": "https://dc.lft.to/lastmile_qr_scan", "android": "https://dc.lft.to/lastmile_qr_scan"}, "is_reserved": 0, "fusion_lon": 0.0, "fusion_lat": 0.0, "lon": -77.04041733333334, "name": "f57737d7dadb529f8d3f76c0b72eeaf3"}, {"bike_id": "4c41d416b3d6fffc29b6a27071a895e3", "type": "electric_scooter", "is_disabled": 0, "lat": 38.93575583333333, "rental_uris": {"ios": "https://dc.lft.to/lastmile_qr_scan", "android": "https://dc.lft.to/lastmile_qr_scan"}, "is_reserved": 0, "fusion_lon": 0.0, "fusion_lat": 0.0, "lon": -77.03363616666667, "name": "4c41d416b3d6fffc29b6a27071a895e3"}, {"bike_id": "c1ebcd68c0726f27f4bd7ea6a16d07a0", "type": "electric_scooter", "is_disabled": 0, "lat": 38.916191166666664, "rental_uris": {"ios": "https://dc.lft.to/lastmile_qr_scan", "android": "https://dc.lft.to/lastmile_qr_scan"}, "is_reserved": 0, "fusion_lon": 0.0, "fusion_lat": 0.0, "lon": -77.033883, "name": "c1ebcd68c0726f27f4bd7ea6a16d07a0"}, {"bike_id": "228cdcb4c7bdd0ca6b56e370dab01f67", "type": "electric_scooter", "is_disabled": 0, "lat": 38.897128333333335, "rental_uris": {"ios": "https://dc.lft.to/lastmile_qr_scan", "android": "https://dc.lft.to/lastmile_qr_scan"}, "is_reserved": 0, "fusion_lon": 0.0, "fusion_lat": 0.0, "lon": -77.0085255, "name": "228cdcb4c7bdd0ca6b56e370dab01f67"}, {"bike_id": "617544e6d22a7752791f43544f8d1779", "type": "electric_scooter", "is_disabled": 0, "lat": 38.9234865, "rental_uris": {"ios": "https://dc.lft.to/lastmile_qr_scan", "android": "https://dc.lft.to/lastmile_qr_scan"}, "is_reserved": 0, "fusion_lon": 0.0, "fusion_lat": 0.0, "lon": -77.04180233333334, "name": "617544e6d22a7752791f43544f8d1779"}, {"bike_id": "e3bffa9d30125e6c351d83a82d06993d", "type": "electric_scooter", "is_disabled": 0, "lat": 38.91783516666667, "rental_uris": {"ios": "https://dc.lft.to/lastmile_qr_scan", "android": "https://dc.lft.to/lastmile_qr_scan"}, "is_reserved": 0, "fusion_lon": 0.0, "fusion_lat": 0.0, "lon": -77.02310666666666, "name": "e3bffa9d30125e6c351d83a82d06993d"}, {"bike_id": "ff7f1d6d63c49195f523eeb439f553eb", "type": "electric_scooter", "is_disabled": 0, "lat": 38.89922933333333, "rental_uris": {"ios": "https://dc.lft.to/lastmile_qr_scan", "android": "https://dc.lft.to/lastmile_qr_scan"}, "is_reserved": 0, "fusion_lon": 0.0, "fusion_lat": 0.0, "lon": -77.0536705, "name": "ff7f1d6d63c49195f523eeb439f553eb"}, {"bike_id": "a2c197e6c211f0dce1c41bd932b63287", "type": "electric_scooter", "is_disabled": 0, "lat": 38.900951166666665, "rental_uris": {"ios": "https://dc.lft.to/lastmile_qr_scan", "android": "https://dc.lft.to/lastmile_qr_scan"}, "is_reserved": 0, "fusion_lon": 0.0, "fusion_lat": 0.0, "lon": -77.01806566666667, "name": "a2c197e6c211f0dce1c41bd932b63287"}, {"bike_id": "e800425daf7745b04ff7b9d38052468c", "type": "electric_scooter", "is_disabled": 0, "lat": 38.90531716666667, "rental_uris": {"ios": "https://dc.lft.to/lastmile_qr_scan", "android": "https://dc.lft.to/lastmile_qr_scan"}, "is_reserved": 0, "fusion_lon": 0.0, "fusion_lat": 0.0, "lon": -77.06139466666667, "name": "e800425daf7745b04ff7b9d38052468c"}, {"bike_id": "18aeddcd72836aededa43c87a870df9b", "type": "electric_bike", "is_disabled": 0, "lat": 38.96305233333333, "rental_uris": {"ios": "https://dc.lft.to/lastmile_qr_scan", "android": "https://dc.lft.to/lastmile_qr_scan"}, "is_reserved": 0, "fusion_lon": 0.0, "fusion_lat": 0.0, "lon": -77.01106416666667, "name": "18aeddcd72836aededa43c87a870df9b"}, {"bike_id": "755c35a308ce4181f31f1465ea30942f", "type": "electric_bike", "is_disabled": 0, "lat": 38.9632435, "rental_uris": {"ios": "https://dc.lft.to/lastmile_qr_scan", "android": "https://dc.lft.to/lastmile_qr_scan"}, "is_reserved": 0, "fusion_lon": 0.0, "fusion_lat": 0.0, "lon": -76.973622, "name": "755c35a308ce4181f31f1465ea30942f"}, {"bike_id": "c7de7ce7dffb94e57ddc29df053678d4", "type": "electric_scooter", "is_disabled": 0, "lat": 38.905064833333334, "rental_uris": {"ios": "https://dc.lft.to/lastmile_qr_scan", "android": "https://dc.lft.to/lastmile_qr_scan"}, "is_reserved": 0, "fusion_lon": 0.0, "fusion_lat": 0.0, "lon": -77.06018533333334, "name": "c7de7ce7dffb94e57ddc29df053678d4"}, {"bike_id": "cf82e0bec406369ffe37031d01bde8fe", "type": "electric_scooter", "is_disabled": 0, "lat": 38.920841, "rental_uris": {"ios": "https://dc.lft.to/lastmile_qr_scan", "android": "https://dc.lft.to/lastmile_qr_scan"}, "is_reserved": 0, "fusion_lon": 0.0, "fusion_lat": 0.0, "lon": -77.0250235, "name": "cf82e0bec406369ffe37031d01bde8fe"}, {"bike_id": "87e68743d556b789540e38ee06484184", "type": "electric_scooter", "is_disabled": 0, "lat": 38.86678216666667, "rental_uris": {"ios": "https://dc.lft.to/lastmile_qr_scan", "android": "https://dc.lft.to/lastmile_qr_scan"}, "is_reserved": 0, "fusion_lon": 0.0, "fusion_lat": 0.0, "lon": -76.98539216666667, "name": "87e68743d556b789540e38ee06484184"}, {"bike_id": "7df9c9bca975ffa860fa0205a444ff80", "type": "electric_scooter", "is_disabled": 0, "lat": 38.9020725, "rental_uris": {"ios": "https://dc.lft.to/lastmile_qr_scan", "android": "https://dc.lft.to/lastmile_qr_scan"}, "is_reserved": 0, "fusion_lon": 0.0, "fusion_lat": 0.0, "lon": -77.0237145, "name": "7df9c9bca975ffa860fa0205a444ff80"}, {"bike_id": "7302e43e66c001447e511c221618d00c", "type": "electric_scooter", "is_disabled": 0, "lat": 38.89321233333333, "rental_uris": {"ios": "https://dc.lft.to/lastmile_qr_scan", "android": "https://dc.lft.to/lastmile_qr_scan"}, "is_reserved": 0, "fusion_lon": 0.0, "fusion_lat": 0.0, "lon": -77.04875133333333, "name": "7302e43e66c001447e511c221618d00c"}, {"bike_id": "e739c65bc377e20a6e6a7c9cb32b0941", "type": "electric_scooter", "is_disabled": 0, "lat": 38.90392533333333, "rental_uris": {"ios": "https://dc.lft.to/lastmile_qr_scan", "android": "https://dc.lft.to/lastmile_qr_scan"}, "is_reserved": 0, "fusion_lon": 0.0, "fusion_lat": 0.0, "lon": -77.06514733333333, "name": "e739c65bc377e20a6e6a7c9cb32b0941"}, {"bike_id": "e81186fbbccaae3ac2feae121eb5dfc2", "type": "electric_scooter", "is_disabled": 0, "lat": 38.8934625, "rental_uris": {"ios": "https://dc.lft.to/lastmile_qr_scan", "android": "https://dc.lft.to/lastmile_qr_scan"}, "is_reserved": 0, "fusion_lon": 0.0, "fusion_lat": 0.0, "lon": -76.98087733333334, "name": "e81186fbbccaae3ac2feae121eb5dfc2"}, {"bike_id": "e506154c21c0d2e766f0cb6457390335", "type": "electric_scooter", "is_disabled": 0, "lat": 38.9428485, "rental_uris": {"ios": "https://dc.lft.to/lastmile_qr_scan", "android": "https://dc.lft.to/lastmile_qr_scan"}, "is_reserved": 0, "fusion_lon": 0.0, "fusion_lat": 0.0, "lon": -77.00487033333333, "name": "e506154c21c0d2e766f0cb6457390335"}, {"bike_id": "a8185ac574c3b446fad982b95e53d8c9", "type": "electric_scooter", "is_disabled": 0, "lat": 38.910142666666665, "rental_uris": {"ios": "https://dc.lft.to/lastmile_qr_scan", "android": "https://dc.lft.to/lastmile_qr_scan"}, "is_reserved": 0, "fusion_lon": 0.0, "fusion_lat": 0.0, "lon": -77.05276083333334, "name": "a8185ac574c3b446fad982b95e53d8c9"}, {"bike_id": "a493d4fc513f366a9ae0e8a156d15bc7", "type": "electric_scooter", "is_disabled": 0, "lat": 38.916072666666665, "rental_uris": {"ios": "https://dc.lft.to/lastmile_qr_scan", "android": "https://dc.lft.to/lastmile_qr_scan"}, "is_reserved": 0, "fusion_lon": 0.0, "fusion_lat": 0.0, "lon": -77.01551733333334, "name": "a493d4fc513f366a9ae0e8a156d15bc7"}, {"bike_id": "5fa747d62df0c3c39ca2308ffc0181b2", "type": "electric_bike", "is_disabled": 0, "lat": 38.813337833333335, "rental_uris": {"ios": "https://dc.lft.to/lastmile_qr_scan", "android": "https://dc.lft.to/lastmile_qr_scan"}, "is_reserved": 0, "fusion_lon": 0.0, "fusion_lat": 0.0, "lon": -77.0509975, "name": "5fa747d62df0c3c39ca2308ffc0181b2"}, {"bike_id": "afaf8b317352e1eb0e8e0aea776387d1", "type": "electric_bike", "is_disabled": 0, "lat": 38.874792, "rental_uris": {"ios": "https://dc.lft.to/lastmile_qr_scan", "android": "https://dc.lft.to/lastmile_qr_scan"}, "is_reserved": 0, "fusion_lon": 0.0, "fusion_lat": 0.0, "lon": -76.96528683333334, "name": "afaf8b317352e1eb0e8e0aea776387d1"}, {"bike_id": "3b9d3df14c796af1bcfeb42051b95e72", "type": "electric_scooter", "is_disabled": 0, "lat": 38.93190283333333, "rental_uris": {"ios": "https://dc.lft.to/lastmile_qr_scan", "android": "https://dc.lft.to/lastmile_qr_scan"}, "is_reserved": 0, "fusion_lon": 0.0, "fusion_lat": 0.0, "lon": -77.02017466666666, "name": "3b9d3df14c796af1bcfeb42051b95e72"}, {"bike_id": "cfe3592c910a0102630eacb5776a207a", "type": "electric_scooter", "is_disabled": 0, "lat": 38.908283833333336, "rental_uris": {"ios": "https://dc.lft.to/lastmile_qr_scan", "android": "https://dc.lft.to/lastmile_qr_scan"}, "is_reserved": 0, "fusion_lon": 0.0, "fusion_lat": 0.0, "lon": -77.00104533333334, "name": "cfe3592c910a0102630eacb5776a207a"}, {"bike_id": "2afd1c69ed093b1f49ae4326f224a718", "type": "electric_scooter", "is_disabled": 0, "lat": 38.87352283333333, "rental_uris": {"ios": "https://dc.lft.to/lastmile_qr_scan", "android": "https://dc.lft.to/lastmile_qr_scan"}, "is_reserved": 0, "fusion_lon": 0.0, "fusion_lat": 0.0, "lon": -77.00063266666666, "name": "2afd1c69ed093b1f49ae4326f224a718"}, {"bike_id": "5d3c097853e768ba8e2a9032c0091071", "type": "electric_scooter", "is_disabled": 0, "lat": 38.9191125, "rental_uris": {"ios": "https://dc.lft.to/lastmile_qr_scan", "android": "https://dc.lft.to/lastmile_qr_scan"}, "is_reserved": 0, "fusion_lon": 0.0, "fusion_lat": 0.0, "lon": -77.03417216666666, "name": "5d3c097853e768ba8e2a9032c0091071"}, {"bike_id": "ee87c49a57a12f0a81c53b8440e52fc0", "type": "electric_scooter", "is_disabled": 0, "lat": 38.89870966666667, "rental_uris": {"ios": "https://dc.lft.to/lastmile_qr_scan", "android": "https://dc.lft.to/lastmile_qr_scan"}, "is_reserved": 0, "fusion_lon": 0.0, "fusion_lat": 0.0, "lon": -76.94664933333334, "name": "ee87c49a57a12f0a81c53b8440e52fc0"}, {"bike_id": "c53e597c86aca4bdfe3bee77c6bfd530", "type": "electric_scooter", "is_disabled": 0, "lat": 38.91488416666667, "rental_uris": {"ios": "https://dc.lft.to/lastmile_qr_scan", "android": "https://dc.lft.to/lastmile_qr_scan"}, "is_reserved": 0, "fusion_lon": 0.0, "fusion_lat": 0.0, "lon": -77.0135815, "name": "c53e597c86aca4bdfe3bee77c6bfd530"}, {"bike_id": "476574b13b1551cecdb21ea8b3bc37ef", "type": "electric_scooter", "is_disabled": 0, "lat": 38.8650775, "rental_uris": {"ios": "https://dc.lft.to/lastmile_qr_scan", "android": "https://dc.lft.to/lastmile_qr_scan"}, "is_reserved": 0, "fusion_lon": 0.0, "fusion_lat": 0.0, "lon": -76.98999633333334, "name": "476574b13b1551cecdb21ea8b3bc37ef"}, {"bike_id": "a2e9462e2c8c0a2b9f326ee906060afc", "type": "electric_scooter", "is_disabled": 0, "lat": 38.91553533333333, "rental_uris": {"ios": "https://dc.lft.to/lastmile_qr_scan", "android": "https://dc.lft.to/lastmile_qr_scan"}, "is_reserved": 0, "fusion_lon": 0.0, "fusion_lat": 0.0, "lon": -77.03137483333333, "name": "a2e9462e2c8c0a2b9f326ee906060afc"}, {"bike_id": "fb5ca789e8c84d6d6032ef5107dd942a", "type": "electric_scooter", "is_disabled": 0, "lat": 38.889933166666665, "rental_uris": {"ios": "https://dc.lft.to/lastmile_qr_scan", "android": "https://dc.lft.to/lastmile_qr_scan"}, "is_reserved": 0, "fusion_lon": 0.0, "fusion_lat": 0.0, "lon": -77.00038683333334, "name": "fb5ca789e8c84d6d6032ef5107dd942a"}, {"bike_id": "61d846842c62c9f096979b978404808e", "type": "electric_bike", "is_disabled": 0, "lat": 38.965134666666664, "rental_uris": {"ios": "https://dc.lft.to/lastmile_qr_scan", "android": "https://dc.lft.to/lastmile_qr_scan"}, "is_reserved": 0, "fusion_lon": 0.0, "fusion_lat": 0.0, "lon": -77.02829666666666, "name": "61d846842c62c9f096979b978404808e"}, {"bike_id": "628e701af1a01a0066aa68a9e45a9d11", "type": "electric_bike", "is_disabled": 0, "lat": 38.853553, "rental_uris": {"ios": "https://dc.lft.to/lastmile_qr_scan", "android": "https://dc.lft.to/lastmile_qr_scan"}, "is_reserved": 0, "fusion_lon": 0.0, "fusion_lat": 0.0, "lon": -77.0868795, "name": "628e701af1a01a0066aa68a9e45a9d11"}, {"bike_id": "df980e1a905f20a74ccbe84da64c7d54", "type": "electric_scooter", "is_disabled": 0, "lat": 38.9155385, "rental_uris": {"ios": "https://dc.lft.to/lastmile_qr_scan", "android": "https://dc.lft.to/lastmile_qr_scan"}, "is_reserved": 0, "fusion_lon": 0.0, "fusion_lat": 0.0, "lon": -77.03869233333333, "name": "df980e1a905f20a74ccbe84da64c7d54"}, {"bike_id": "674dd40ff3eda7069aea86a85d8c255d", "type": "electric_scooter", "is_disabled": 0, "lat": 38.9097845, "rental_uris": {"ios": "https://dc.lft.to/lastmile_qr_scan", "android": "https://dc.lft.to/lastmile_qr_scan"}, "is_reserved": 0, "fusion_lon": 0.0, "fusion_lat": 0.0, "lon": -77.03185433333333, "name": "674dd40ff3eda7069aea86a85d8c255d"}, {"bike_id": "5f38063d0cf2b318cd96379d6b26fb4c", "type": "electric_scooter", "is_disabled": 0, "lat": 38.95857383333333, "rental_uris": {"ios": "https://dc.lft.to/lastmile_qr_scan", "android": "https://dc.lft.to/lastmile_qr_scan"}, "is_reserved": 0, "fusion_lon": 0.0, "fusion_lat": 0.0, "lon": -77.027968, "name": "5f38063d0cf2b318cd96379d6b26fb4c"}, {"bike_id": "ce333f551136c49f4d0c495ad58cbd4a", "type": "electric_bike", "is_disabled": 0, "lat": 38.89788033333333, "rental_uris": {"ios": "https://dc.lft.to/lastmile_qr_scan", "android": "https://dc.lft.to/lastmile_qr_scan"}, "is_reserved": 0, "fusion_lon": 0.0, "fusion_lat": 0.0, "lon": -77.00731633333334, "name": "ce333f551136c49f4d0c495ad58cbd4a"}, {"bike_id": "9dc93e8f87df6f98f8cad0125eebc61c", "type": "electric_scooter", "is_disabled": 0, "lat": 38.899231666666665, "rental_uris": {"ios": "https://dc.lft.to/lastmile_qr_scan", "android": "https://dc.lft.to/lastmile_qr_scan"}, "is_reserved": 0, "fusion_lon": 0.0, "fusion_lat": 0.0, "lon": -77.00366816666667, "name": "9dc93e8f87df6f98f8cad0125eebc61c"}, {"bike_id": "321f7d022432b57ca40b76d88dae3f48", "type": "electric_scooter", "is_disabled": 0, "lat": 38.924191, "rental_uris": {"ios": "https://dc.lft.to/lastmile_qr_scan", "android": "https://dc.lft.to/lastmile_qr_scan"}, "is_reserved": 0, "fusion_lon": 0.0, "fusion_lat": 0.0, "lon": -77.0274415, "name": "321f7d022432b57ca40b76d88dae3f48"}, {"bike_id": "5d8a4146cb1ab0377a5d8b86991d7e6b", "type": "electric_scooter", "is_disabled": 0, "lat": 38.91607783333333, "rental_uris": {"ios": "https://dc.lft.to/lastmile_qr_scan", "android": "https://dc.lft.to/lastmile_qr_scan"}, "is_reserved": 0, "fusion_lon": 0.0, "fusion_lat": 0.0, "lon": -77.02958483333333, "name": "5d8a4146cb1ab0377a5d8b86991d7e6b"}, {"bike_id": "283ff1629fbcea62e0147eb2ed0548c5", "type": "electric_scooter", "is_disabled": 0, "lat": 38.910038166666666, "rental_uris": {"ios": "https://dc.lft.to/lastmile_qr_scan", "android": "https://dc.lft.to/lastmile_qr_scan"}, "is_reserved": 0, "fusion_lon": 0.0, "fusion_lat": 0.0, "lon": -77.04002883333334, "name": "283ff1629fbcea62e0147eb2ed0548c5"}, {"bike_id": "7d3464456aea95b4951621a543ad7cdf", "type": "electric_scooter", "is_disabled": 0, "lat": 38.921115666666665, "rental_uris": {"ios": "https://dc.lft.to/lastmile_qr_scan", "android": "https://dc.lft.to/lastmile_qr_scan"}, "is_reserved": 0, "fusion_lon": 0.0, "fusion_lat": 0.0, "lon": -77.036571, "name": "7d3464456aea95b4951621a543ad7cdf"}, {"bike_id": "f7fa03d070d919f5e67349ae33e126b1", "type": "electric_scooter", "is_disabled": 0, "lat": 38.92816716666667, "rental_uris": {"ios": "https://dc.lft.to/lastmile_qr_scan", "android": "https://dc.lft.to/lastmile_qr_scan"}, "is_reserved": 0, "fusion_lon": 0.0, "fusion_lat": 0.0, "lon": -77.02810066666666, "name": "f7fa03d070d919f5e67349ae33e126b1"}, {"bike_id": "387b7ed9c084c38a21fbc1a9973e1c9a", "type": "electric_bike", "is_disabled": 0, "lat": 38.884021833333335, "rental_uris": {"ios": "https://dc.lft.to/lastmile_qr_scan", "android": "https://dc.lft.to/lastmile_qr_scan"}, "is_reserved": 0, "fusion_lon": 0.0, "fusion_lat": 0.0, "lon": -76.9606025, "name": "387b7ed9c084c38a21fbc1a9973e1c9a"}, {"bike_id": "0bf3e624348c7289c472f189f2b407cf", "type": "electric_scooter", "is_disabled": 0, "lat": 38.934340166666665, "rental_uris": {"ios": "https://dc.lft.to/lastmile_qr_scan", "android": "https://dc.lft.to/lastmile_qr_scan"}, "is_reserved": 0, "fusion_lon": 0.0, "fusion_lat": 0.0, "lon": -77.04536883333333, "name": "0bf3e624348c7289c472f189f2b407cf"}, {"bike_id": "3d40b4ca8c73f193669787e282f6ec6d", "type": "electric_scooter", "is_disabled": 0, "lat": 38.956241, "rental_uris": {"ios": "https://dc.lft.to/lastmile_qr_scan", "android": "https://dc.lft.to/lastmile_qr_scan"}, "is_reserved": 0, "fusion_lon": 0.0, "fusion_lat": 0.0, "lon": -77.02786033333334, "name": "3d40b4ca8c73f193669787e282f6ec6d"}, {"bike_id": "1520324cf0e8c75bf51fbc6b22045266", "type": "electric_scooter", "is_disabled": 0, "lat": 38.922648833333334, "rental_uris": {"ios": "https://dc.lft.to/lastmile_qr_scan", "android": "https://dc.lft.to/lastmile_qr_scan"}, "is_reserved": 0, "fusion_lon": 0.0, "fusion_lat": 0.0, "lon": -77.04297816666667, "name": "1520324cf0e8c75bf51fbc6b22045266"}, {"bike_id": "ad045e6fe95ee5e6b4dcd504b333c240", "type": "electric_scooter", "is_disabled": 0, "lat": 38.9329395, "rental_uris": {"ios": "https://dc.lft.to/lastmile_qr_scan", "android": "https://dc.lft.to/lastmile_qr_scan"}, "is_reserved": 0, "fusion_lon": 0.0, "fusion_lat": 0.0, "lon": -77.035433, "name": "ad045e6fe95ee5e6b4dcd504b333c240"}, {"bike_id": "2c5dfbf32221e057d0bc715f9a654017", "type": "electric_scooter", "is_disabled": 0, "lat": 38.910538, "rental_uris": {"ios": "https://dc.lft.to/lastmile_qr_scan", "android": "https://dc.lft.to/lastmile_qr_scan"}, "is_reserved": 0, "fusion_lon": 0.0, "fusion_lat": 0.0, "lon": -77.00921283333334, "name": "2c5dfbf32221e057d0bc715f9a654017"}, {"bike_id": "6ebf2b7d31309139770a33a64aee76e0", "type": "electric_scooter", "is_disabled": 0, "lat": 38.921544, "rental_uris": {"ios": "https://dc.lft.to/lastmile_qr_scan", "android": "https://dc.lft.to/lastmile_qr_scan"}, "is_reserved": 0, "fusion_lon": 0.0, "fusion_lat": 0.0, "lon": -77.04370233333333, "name": "6ebf2b7d31309139770a33a64aee76e0"}, {"bike_id": "9d88935035c1ff7a9ae51567ca1de623", "type": "electric_scooter", "is_disabled": 0, "lat": 38.911074, "rental_uris": {"ios": "https://dc.lft.to/lastmile_qr_scan", "android": "https://dc.lft.to/lastmile_qr_scan"}, "is_reserved": 0, "fusion_lon": 0.0, "fusion_lat": 0.0, "lon": -77.03830183333334, "name": "9d88935035c1ff7a9ae51567ca1de623"}, {"bike_id": "21ee7445bdc873104b49e277839b0465", "type": "electric_scooter", "is_disabled": 0, "lat": 38.87943716666667, "rental_uris": {"ios": "https://dc.lft.to/lastmile_qr_scan", "android": "https://dc.lft.to/lastmile_qr_scan"}, "is_reserved": 0, "fusion_lon": 0.0, "fusion_lat": 0.0, "lon": -77.02353833333333, "name": "21ee7445bdc873104b49e277839b0465"}, {"bike_id": "0a76bf9bd4bb6c0e620f4bd3717b2646", "type": "electric_scooter", "is_disabled": 0, "lat": 38.862055833333336, "rental_uris": {"ios": "https://dc.lft.to/lastmile_qr_scan", "android": "https://dc.lft.to/lastmile_qr_scan"}, "is_reserved": 0, "fusion_lon": 0.0, "fusion_lat": 0.0, "lon": -77.08824383333334, "name": "0a76bf9bd4bb6c0e620f4bd3717b2646"}, {"bike_id": "adf89a36727151d510f0ff9786781c6d", "type": "electric_scooter", "is_disabled": 0, "lat": 38.84439716666667, "rental_uris": {"ios": "https://dc.lft.to/lastmile_qr_scan", "android": "https://dc.lft.to/lastmile_qr_scan"}, "is_reserved": 0, "fusion_lon": 0.0, "fusion_lat": 0.0, "lon": -76.99776166666666, "name": "adf89a36727151d510f0ff9786781c6d"}, {"bike_id": "97d3e5f8ad821bfbf231ff5f4c167a62", "type": "electric_scooter", "is_disabled": 0, "lat": 38.9386885, "rental_uris": {"ios": "https://dc.lft.to/lastmile_qr_scan", "android": "https://dc.lft.to/lastmile_qr_scan"}, "is_reserved": 0, "fusion_lon": 0.0, "fusion_lat": 0.0, "lon": -77.03080016666667, "name": "97d3e5f8ad821bfbf231ff5f4c167a62"}, {"bike_id": "4e0d2490d6d9c6356fc629a4c44fb6fd", "type": "electric_bike", "is_disabled": 0, "lat": 39.04322666666667, "rental_uris": {"ios": "https://dc.lft.to/lastmile_qr_scan", "android": "https://dc.lft.to/lastmile_qr_scan"}, "is_reserved": 0, "fusion_lon": 0.0, "fusion_lat": 0.0, "lon": -77.05158366666667, "name": "4e0d2490d6d9c6356fc629a4c44fb6fd"}, {"bike_id": "06ad8a9974046b9fa5eb682cfab4b2c4", "type": "electric_scooter", "is_disabled": 0, "lat": 38.921922333333335, "rental_uris": {"ios": "https://dc.lft.to/lastmile_qr_scan", "android": "https://dc.lft.to/lastmile_qr_scan"}, "is_reserved": 0, "fusion_lon": 0.0, "fusion_lat": 0.0, "lon": -76.9936375, "name": "06ad8a9974046b9fa5eb682cfab4b2c4"}, {"bike_id": "81bb713bae74086f3e968d4f607ccfd2", "type": "electric_scooter", "is_disabled": 0, "lat": 38.90171466666666, "rental_uris": {"ios": "https://dc.lft.to/lastmile_qr_scan", "android": "https://dc.lft.to/lastmile_qr_scan"}, "is_reserved": 0, "fusion_lon": 0.0, "fusion_lat": 0.0, "lon": -77.0320085, "name": "81bb713bae74086f3e968d4f607ccfd2"}, {"bike_id": "74ed2c9828f6df9344905f5601e120be", "type": "electric_scooter", "is_disabled": 0, "lat": 38.89359416666667, "rental_uris": {"ios": "https://dc.lft.to/lastmile_qr_scan", "android": "https://dc.lft.to/lastmile_qr_scan"}, "is_reserved": 0, "fusion_lon": 0.0, "fusion_lat": 0.0, "lon": -76.94932933333334, "name": "74ed2c9828f6df9344905f5601e120be"}, {"bike_id": "714531d97d130056f4189780790c1ae4", "type": "electric_scooter", "is_disabled": 0, "lat": 38.9280425, "rental_uris": {"ios": "https://dc.lft.to/lastmile_qr_scan", "android": "https://dc.lft.to/lastmile_qr_scan"}, "is_reserved": 0, "fusion_lon": 0.0, "fusion_lat": 0.0, "lon": -77.03202166666667, "name": "714531d97d130056f4189780790c1ae4"}, {"bike_id": "cb8eb4f2d6ca5ee1dd822d69d941a271", "type": "electric_scooter", "is_disabled": 0, "lat": 38.900101, "rental_uris": {"ios": "https://dc.lft.to/lastmile_qr_scan", "android": "https://dc.lft.to/lastmile_qr_scan"}, "is_reserved": 0, "fusion_lon": 0.0, "fusion_lat": 0.0, "lon": -76.996244, "name": "cb8eb4f2d6ca5ee1dd822d69d941a271"}, {"bike_id": "2cfc40d6f83b4639b19149964e16f592", "type": "electric_scooter", "is_disabled": 0, "lat": 38.9153755, "rental_uris": {"ios": "https://dc.lft.to/lastmile_qr_scan", "android": "https://dc.lft.to/lastmile_qr_scan"}, "is_reserved": 0, "fusion_lon": 0.0, "fusion_lat": 0.0, "lon": -76.97009283333334, "name": "2cfc40d6f83b4639b19149964e16f592"}, {"bike_id": "78d3cce547fb2cebd57f105b8df4c813", "type": "electric_bike", "is_disabled": 0, "lat": 38.823789833333336, "rental_uris": {"ios": "https://dc.lft.to/lastmile_qr_scan", "android": "https://dc.lft.to/lastmile_qr_scan"}, "is_reserved": 0, "fusion_lon": 0.0, "fusion_lat": 0.0, "lon": -77.002274, "name": "78d3cce547fb2cebd57f105b8df4c813"}, {"bike_id": "92933bcd760703b6d5a2d98578107a0d", "type": "electric_scooter", "is_disabled": 0, "lat": 38.902690666666665, "rental_uris": {"ios": "https://dc.lft.to/lastmile_qr_scan", "android": "https://dc.lft.to/lastmile_qr_scan"}, "is_reserved": 0, "fusion_lon": 0.0, "fusion_lat": 0.0, "lon": -77.01870833333334, "name": "92933bcd760703b6d5a2d98578107a0d"}, {"bike_id": "1856259d8dc7e9c33d26138cf9cf7041", "type": "electric_bike", "is_disabled": 0, "lat": 38.90517666666667, "rental_uris": {"ios": "https://dc.lft.to/lastmile_qr_scan", "android": "https://dc.lft.to/lastmile_qr_scan"}, "is_reserved": 0, "fusion_lon": 0.0, "fusion_lat": 0.0, "lon": -76.98720966666667, "name": "1856259d8dc7e9c33d26138cf9cf7041"}, {"bike_id": "57db2ecc39165a2dbdf9d6aa8e394b8d", "type": "electric_scooter", "is_disabled": 0, "lat": 38.91882233333333, "rental_uris": {"ios": "https://dc.lft.to/lastmile_qr_scan", "android": "https://dc.lft.to/lastmile_qr_scan"}, "is_reserved": 0, "fusion_lon": 0.0, "fusion_lat": 0.0, "lon": -77.035024, "name": "57db2ecc39165a2dbdf9d6aa8e394b8d"}, {"bike_id": "c735000a4a1a9f71b4da4b71da49189a", "type": "electric_scooter", "is_disabled": 0, "lat": 38.89484983333333, "rental_uris": {"ios": "https://dc.lft.to/lastmile_qr_scan", "android": "https://dc.lft.to/lastmile_qr_scan"}, "is_reserved": 0, "fusion_lon": 0.0, "fusion_lat": 0.0, "lon": -77.02184733333333, "name": "c735000a4a1a9f71b4da4b71da49189a"}, {"bike_id": "7596875de2b94c4875e267023ddbff8a", "type": "electric_scooter", "is_disabled": 0, "lat": 38.91041966666667, "rental_uris": {"ios": "https://dc.lft.to/lastmile_qr_scan", "android": "https://dc.lft.to/lastmile_qr_scan"}, "is_reserved": 0, "fusion_lon": 0.0, "fusion_lat": 0.0, "lon": -77.07356216666666, "name": "7596875de2b94c4875e267023ddbff8a"}, {"bike_id": "ed303f2cca64838bcb0331bfd789869f", "type": "electric_bike", "is_disabled": 0, "lat": 38.88247116666667, "rental_uris": {"ios": "https://dc.lft.to/lastmile_qr_scan", "android": "https://dc.lft.to/lastmile_qr_scan"}, "is_reserved": 0, "fusion_lon": 0.0, "fusion_lat": 0.0, "lon": -76.962564, "name": "ed303f2cca64838bcb0331bfd789869f"}, {"bike_id": "84a0f227a890124ac0c2648a2863b05f", "type": "electric_scooter", "is_disabled": 0, "lat": 38.89940333333333, "rental_uris": {"ios": "https://dc.lft.to/lastmile_qr_scan", "android": "https://dc.lft.to/lastmile_qr_scan"}, "is_reserved": 0, "fusion_lon": 0.0, "fusion_lat": 0.0, "lon": -77.04792366666666, "name": "84a0f227a890124ac0c2648a2863b05f"}, {"bike_id": "9c2fe5faa1c67d5ba91ea743bd6fae00", "type": "electric_scooter", "is_disabled": 0, "lat": 38.90353233333333, "rental_uris": {"ios": "https://dc.lft.to/lastmile_qr_scan", "android": "https://dc.lft.to/lastmile_qr_scan"}, "is_reserved": 0, "fusion_lon": 0.0, "fusion_lat": 0.0, "lon": -77.01950366666667, "name": "9c2fe5faa1c67d5ba91ea743bd6fae00"}, {"bike_id": "a62799e90ad243bab9eea9dca446c95d", "type": "electric_scooter", "is_disabled": 0, "lat": 38.928711166666666, "rental_uris": {"ios": "https://dc.lft.to/lastmile_qr_scan", "android": "https://dc.lft.to/lastmile_qr_scan"}, "is_reserved": 0, "fusion_lon": 0.0, "fusion_lat": 0.0, "lon": -77.0322725, "name": "a62799e90ad243bab9eea9dca446c95d"}, {"bike_id": "b4ddc4d49e9750b276fd18941a4793b4", "type": "electric_bike", "is_disabled": 0, "lat": 38.85775233333333, "rental_uris": {"ios": "https://dc.lft.to/lastmile_qr_scan", "android": "https://dc.lft.to/lastmile_qr_scan"}, "is_reserved": 0, "fusion_lon": 0.0, "fusion_lat": 0.0, "lon": -76.98770016666667, "name": "b4ddc4d49e9750b276fd18941a4793b4"}, {"bike_id": "d574fa663bdbb35eda9c1d7babb03366", "type": "electric_scooter", "is_disabled": 0, "lat": 38.917105666666664, "rental_uris": {"ios": "https://dc.lft.to/lastmile_qr_scan", "android": "https://dc.lft.to/lastmile_qr_scan"}, "is_reserved": 0, "fusion_lon": 0.0, "fusion_lat": 0.0, "lon": -77.041271, "name": "d574fa663bdbb35eda9c1d7babb03366"}, {"bike_id": "ae34b1d8679a950ca155732ebbedc26c", "type": "electric_scooter", "is_disabled": 0, "lat": 38.928247666666664, "rental_uris": {"ios": "https://dc.lft.to/lastmile_qr_scan", "android": "https://dc.lft.to/lastmile_qr_scan"}, "is_reserved": 0, "fusion_lon": 0.0, "fusion_lat": 0.0, "lon": -77.02259366666667, "name": "ae34b1d8679a950ca155732ebbedc26c"}, {"bike_id": "7f3367b062e85bd22c60b3fe4af0f7e1", "type": "electric_scooter", "is_disabled": 0, "lat": 38.9171055, "rental_uris": {"ios": "https://dc.lft.to/lastmile_qr_scan", "android": "https://dc.lft.to/lastmile_qr_scan"}, "is_reserved": 0, "fusion_lon": 0.0, "fusion_lat": 0.0, "lon": -77.0387075, "name": "7f3367b062e85bd22c60b3fe4af0f7e1"}, {"bike_id": "5191c04f15cfb4e5c5c0acd6f7fbb22f", "type": "electric_scooter", "is_disabled": 0, "lat": 38.93657483333333, "rental_uris": {"ios": "https://dc.lft.to/lastmile_qr_scan", "android": "https://dc.lft.to/lastmile_qr_scan"}, "is_reserved": 0, "fusion_lon": 0.0, "fusion_lat": 0.0, "lon": -77.0549795, "name": "5191c04f15cfb4e5c5c0acd6f7fbb22f"}, {"bike_id": "20929117249a9852de887a35184c1c20", "type": "electric_scooter", "is_disabled": 0, "lat": 38.9068415, "rental_uris": {"ios": "https://dc.lft.to/lastmile_qr_scan", "android": "https://dc.lft.to/lastmile_qr_scan"}, "is_reserved": 0, "fusion_lon": 0.0, "fusion_lat": 0.0, "lon": -77.02693383333333, "name": "20929117249a9852de887a35184c1c20"}, {"bike_id": "771022d4ec38a69359ec563b3ac72688", "type": "electric_scooter", "is_disabled": 0, "lat": 38.907759, "rental_uris": {"ios": "https://dc.lft.to/lastmile_qr_scan", "android": "https://dc.lft.to/lastmile_qr_scan"}, "is_reserved": 0, "fusion_lon": 0.0, "fusion_lat": 0.0, "lon": -77.03849833333334, "name": "771022d4ec38a69359ec563b3ac72688"}, {"bike_id": "e9aadd892b25d7a12cdfb29579185cd1", "type": "electric_scooter", "is_disabled": 0, "lat": 38.91552183333334, "rental_uris": {"ios": "https://dc.lft.to/lastmile_qr_scan", "android": "https://dc.lft.to/lastmile_qr_scan"}, "is_reserved": 0, "fusion_lon": 0.0, "fusion_lat": 0.0, "lon": -77.03510616666667, "name": "e9aadd892b25d7a12cdfb29579185cd1"}, {"bike_id": "622a850835e5d79ec9b810dc81672ff3", "type": "electric_bike", "is_disabled": 0, "lat": 38.938625, "rental_uris": {"ios": "https://dc.lft.to/lastmile_qr_scan", "android": "https://dc.lft.to/lastmile_qr_scan"}, "is_reserved": 0, "fusion_lon": 0.0, "fusion_lat": 0.0, "lon": -77.0268975, "name": "622a850835e5d79ec9b810dc81672ff3"}, {"bike_id": "cb0f17ca99ca25e3f2684578a25bae64", "type": "electric_scooter", "is_disabled": 0, "lat": 38.92240116666667, "rental_uris": {"ios": "https://dc.lft.to/lastmile_qr_scan", "android": "https://dc.lft.to/lastmile_qr_scan"}, "is_reserved": 0, "fusion_lon": 0.0, "fusion_lat": 0.0, "lon": -77.03893433333333, "name": "cb0f17ca99ca25e3f2684578a25bae64"}, {"bike_id": "a8e5d39af8d3bbdecec37f3e1504db59", "type": "electric_scooter", "is_disabled": 0, "lat": 38.92883783333333, "rental_uris": {"ios": "https://dc.lft.to/lastmile_qr_scan", "android": "https://dc.lft.to/lastmile_qr_scan"}, "is_reserved": 0, "fusion_lon": 0.0, "fusion_lat": 0.0, "lon": -77.02713016666667, "name": "a8e5d39af8d3bbdecec37f3e1504db59"}, {"bike_id": "012428b8cf1ea41aa8cf039a02288400", "type": "electric_scooter", "is_disabled": 0, "lat": 38.926644, "rental_uris": {"ios": "https://dc.lft.to/lastmile_qr_scan", "android": "https://dc.lft.to/lastmile_qr_scan"}, "is_reserved": 0, "fusion_lon": 0.0, "fusion_lat": 0.0, "lon": -77.037304, "name": "012428b8cf1ea41aa8cf039a02288400"}, {"bike_id": "214542cab95fb383ed32d2ab7a831cf0", "type": "electric_scooter", "is_disabled": 0, "lat": 38.895461833333336, "rental_uris": {"ios": "https://dc.lft.to/lastmile_qr_scan", "android": "https://dc.lft.to/lastmile_qr_scan"}, "is_reserved": 0, "fusion_lon": 0.0, "fusion_lat": 0.0, "lon": -76.92952883333334, "name": "214542cab95fb383ed32d2ab7a831cf0"}, {"bike_id": "c4de4a9d36413dce8d4848fd00820697", "type": "electric_scooter", "is_disabled": 0, "lat": 38.9056955, "rental_uris": {"ios": "https://dc.lft.to/lastmile_qr_scan", "android": "https://dc.lft.to/lastmile_qr_scan"}, "is_reserved": 0, "fusion_lon": 0.0, "fusion_lat": 0.0, "lon": -76.98149783333334, "name": "c4de4a9d36413dce8d4848fd00820697"}, {"bike_id": "fe608ccc738d6f76b99dc566833eeb05", "type": "electric_scooter", "is_disabled": 0, "lat": 38.92679183333333, "rental_uris": {"ios": "https://dc.lft.to/lastmile_qr_scan", "android": "https://dc.lft.to/lastmile_qr_scan"}, "is_reserved": 0, "fusion_lon": 0.0, "fusion_lat": 0.0, "lon": -77.043516, "name": "fe608ccc738d6f76b99dc566833eeb05"}, {"bike_id": "f6428b8c8ba157d793fe113ccaae9a70", "type": "electric_scooter", "is_disabled": 0, "lat": 38.884153, "rental_uris": {"ios": "https://dc.lft.to/lastmile_qr_scan", "android": "https://dc.lft.to/lastmile_qr_scan"}, "is_reserved": 0, "fusion_lon": 0.0, "fusion_lat": 0.0, "lon": -77.03173516666666, "name": "f6428b8c8ba157d793fe113ccaae9a70"}, {"bike_id": "214e5af522b26aa5a7e7cc647a32de12", "type": "electric_scooter", "is_disabled": 0, "lat": 38.91137533333333, "rental_uris": {"ios": "https://dc.lft.to/lastmile_qr_scan", "android": "https://dc.lft.to/lastmile_qr_scan"}, "is_reserved": 0, "fusion_lon": 0.0, "fusion_lat": 0.0, "lon": -77.065351, "name": "214e5af522b26aa5a7e7cc647a32de12"}, {"bike_id": "a06df2e78f484317501fa81dfd3ade58", "type": "electric_scooter", "is_disabled": 0, "lat": 38.935119, "rental_uris": {"ios": "https://dc.lft.to/lastmile_qr_scan", "android": "https://dc.lft.to/lastmile_qr_scan"}, "is_reserved": 0, "fusion_lon": 0.0, "fusion_lat": 0.0, "lon": -77.03291866666666, "name": "a06df2e78f484317501fa81dfd3ade58"}, {"bike_id": "57baf420e7a209399c7c2b767e958a18", "type": "electric_scooter", "is_disabled": 0, "lat": 38.93295166666667, "rental_uris": {"ios": "https://dc.lft.to/lastmile_qr_scan", "android": "https://dc.lft.to/lastmile_qr_scan"}, "is_reserved": 0, "fusion_lon": 0.0, "fusion_lat": 0.0, "lon": -77.0411865, "name": "57baf420e7a209399c7c2b767e958a18"}, {"bike_id": "fdf5f824807013f88f29691a3793343e", "type": "electric_scooter", "is_disabled": 0, "lat": 38.902081333333335, "rental_uris": {"ios": "https://dc.lft.to/lastmile_qr_scan", "android": "https://dc.lft.to/lastmile_qr_scan"}, "is_reserved": 0, "fusion_lon": 0.0, "fusion_lat": 0.0, "lon": -77.02372716666666, "name": "fdf5f824807013f88f29691a3793343e"}, {"bike_id": "a5a98baebba51b8fd40558fda5cfd74c", "type": "electric_bike", "is_disabled": 0, "lat": 38.857899333333336, "rental_uris": {"ios": "https://dc.lft.to/lastmile_qr_scan", "android": "https://dc.lft.to/lastmile_qr_scan"}, "is_reserved": 0, "fusion_lon": 0.0, "fusion_lat": 0.0, "lon": -77.1202, "name": "a5a98baebba51b8fd40558fda5cfd74c"}, {"bike_id": "0fde36456d99d3b390d46601df1413b5", "type": "electric_scooter", "is_disabled": 0, "lat": 38.884895, "rental_uris": {"ios": "https://dc.lft.to/lastmile_qr_scan", "android": "https://dc.lft.to/lastmile_qr_scan"}, "is_reserved": 0, "fusion_lon": 0.0, "fusion_lat": 0.0, "lon": -77.015178, "name": "0fde36456d99d3b390d46601df1413b5"}, {"bike_id": "27133e2d37eccf3fdb7fd1844649847a", "type": "electric_scooter", "is_disabled": 0, "lat": 38.911130166666666, "rental_uris": {"ios": "https://dc.lft.to/lastmile_qr_scan", "android": "https://dc.lft.to/lastmile_qr_scan"}, "is_reserved": 0, "fusion_lon": 0.0, "fusion_lat": 0.0, "lon": -77.04480783333334, "name": "27133e2d37eccf3fdb7fd1844649847a"}, {"bike_id": "961c2bd085d1e16a330c0f863320c8eb", "type": "electric_scooter", "is_disabled": 0, "lat": 38.927955833333336, "rental_uris": {"ios": "https://dc.lft.to/lastmile_qr_scan", "android": "https://dc.lft.to/lastmile_qr_scan"}, "is_reserved": 0, "fusion_lon": 0.0, "fusion_lat": 0.0, "lon": -77.02132783333333, "name": "961c2bd085d1e16a330c0f863320c8eb"}, {"bike_id": "03f6db6b13e459b1f2cd4186d2864c58", "type": "electric_scooter", "is_disabled": 0, "lat": 38.9312055, "rental_uris": {"ios": "https://dc.lft.to/lastmile_qr_scan", "android": "https://dc.lft.to/lastmile_qr_scan"}, "is_reserved": 0, "fusion_lon": 0.0, "fusion_lat": 0.0, "lon": -77.02071066666667, "name": "03f6db6b13e459b1f2cd4186d2864c58"}, {"bike_id": "fef591f60d4caef9900c9ad064f09e32", "type": "electric_scooter", "is_disabled": 0, "lat": 38.862189666666666, "rental_uris": {"ios": "https://dc.lft.to/lastmile_qr_scan", "android": "https://dc.lft.to/lastmile_qr_scan"}, "is_reserved": 0, "fusion_lon": 0.0, "fusion_lat": 0.0, "lon": -76.9948405, "name": "fef591f60d4caef9900c9ad064f09e32"}, {"bike_id": "4a19b072ccfc3f5744ebb0e55b8e54a6", "type": "electric_scooter", "is_disabled": 0, "lat": 38.9059125, "rental_uris": {"ios": "https://dc.lft.to/lastmile_qr_scan", "android": "https://dc.lft.to/lastmile_qr_scan"}, "is_reserved": 0, "fusion_lon": 0.0, "fusion_lat": 0.0, "lon": -77.0218085, "name": "4a19b072ccfc3f5744ebb0e55b8e54a6"}, {"bike_id": "530217198d32f69a5b74043c11f5ef77", "type": "electric_scooter", "is_disabled": 0, "lat": 38.91714016666667, "rental_uris": {"ios": "https://dc.lft.to/lastmile_qr_scan", "android": "https://dc.lft.to/lastmile_qr_scan"}, "is_reserved": 0, "fusion_lon": 0.0, "fusion_lat": 0.0, "lon": -77.0386715, "name": "530217198d32f69a5b74043c11f5ef77"}, {"bike_id": "327acc8fd0bc64d840dbb6c5a5b3c6dc", "type": "electric_scooter", "is_disabled": 0, "lat": 38.91688533333333, "rental_uris": {"ios": "https://dc.lft.to/lastmile_qr_scan", "android": "https://dc.lft.to/lastmile_qr_scan"}, "is_reserved": 0, "fusion_lon": 0.0, "fusion_lat": 0.0, "lon": -77.029591, "name": "327acc8fd0bc64d840dbb6c5a5b3c6dc"}, {"bike_id": "7acf8450e0eee484682004d5a9e9b364", "type": "electric_scooter", "is_disabled": 0, "lat": 38.90266066666667, "rental_uris": {"ios": "https://dc.lft.to/lastmile_qr_scan", "android": "https://dc.lft.to/lastmile_qr_scan"}, "is_reserved": 0, "fusion_lon": 0.0, "fusion_lat": 0.0, "lon": -77.019638, "name": "7acf8450e0eee484682004d5a9e9b364"}, {"bike_id": "cbb3ad07273337802c1d3902de258921", "type": "electric_scooter", "is_disabled": 0, "lat": 38.9205045, "rental_uris": {"ios": "https://dc.lft.to/lastmile_qr_scan", "android": "https://dc.lft.to/lastmile_qr_scan"}, "is_reserved": 0, "fusion_lon": 0.0, "fusion_lat": 0.0, "lon": -77.034562, "name": "cbb3ad07273337802c1d3902de258921"}, {"bike_id": "a24f1726c379a3283cf3cbb99051d133", "type": "electric_scooter", "is_disabled": 0, "lat": 38.956852, "rental_uris": {"ios": "https://dc.lft.to/lastmile_qr_scan", "android": "https://dc.lft.to/lastmile_qr_scan"}, "is_reserved": 0, "fusion_lon": 0.0, "fusion_lat": 0.0, "lon": -77.02396833333333, "name": "a24f1726c379a3283cf3cbb99051d133"}, {"bike_id": "a98e7689f3ca44f6484fb14b6b17bcdc", "type": "electric_scooter", "is_disabled": 0, "lat": 38.9072745, "rental_uris": {"ios": "https://dc.lft.to/lastmile_qr_scan", "android": "https://dc.lft.to/lastmile_qr_scan"}, "is_reserved": 0, "fusion_lon": 0.0, "fusion_lat": 0.0, "lon": -77.05328133333333, "name": "a98e7689f3ca44f6484fb14b6b17bcdc"}, {"bike_id": "bd58c119a5899b27ac9cc02855e3a2f8", "type": "electric_scooter", "is_disabled": 0, "lat": 38.887204, "rental_uris": {"ios": "https://dc.lft.to/lastmile_qr_scan", "android": "https://dc.lft.to/lastmile_qr_scan"}, "is_reserved": 0, "fusion_lon": 0.0, "fusion_lat": 0.0, "lon": -77.02203566666667, "name": "bd58c119a5899b27ac9cc02855e3a2f8"}, {"bike_id": "bf1ee35c96093ee495db7f3eee33ef72", "type": "electric_scooter", "is_disabled": 0, "lat": 38.9125395, "rental_uris": {"ios": "https://dc.lft.to/lastmile_qr_scan", "android": "https://dc.lft.to/lastmile_qr_scan"}, "is_reserved": 0, "fusion_lon": 0.0, "fusion_lat": 0.0, "lon": -77.0366935, "name": "bf1ee35c96093ee495db7f3eee33ef72"}, {"bike_id": "023a41ddd490fd53ae2343747b870317", "type": "electric_scooter", "is_disabled": 0, "lat": 38.920552, "rental_uris": {"ios": "https://dc.lft.to/lastmile_qr_scan", "android": "https://dc.lft.to/lastmile_qr_scan"}, "is_reserved": 0, "fusion_lon": 0.0, "fusion_lat": 0.0, "lon": -76.99885416666666, "name": "023a41ddd490fd53ae2343747b870317"}, {"bike_id": "9a33be97ffb96c5ae217a37b79f35cc5", "type": "electric_scooter", "is_disabled": 0, "lat": 38.91716783333333, "rental_uris": {"ios": "https://dc.lft.to/lastmile_qr_scan", "android": "https://dc.lft.to/lastmile_qr_scan"}, "is_reserved": 0, "fusion_lon": 0.0, "fusion_lat": 0.0, "lon": -77.036639, "name": "9a33be97ffb96c5ae217a37b79f35cc5"}, {"bike_id": "50f7f2739635a683bf6ff35c7cbd01dd", "type": "electric_scooter", "is_disabled": 0, "lat": 38.90208283333333, "rental_uris": {"ios": "https://dc.lft.to/lastmile_qr_scan", "android": "https://dc.lft.to/lastmile_qr_scan"}, "is_reserved": 0, "fusion_lon": 0.0, "fusion_lat": 0.0, "lon": -77.021037, "name": "50f7f2739635a683bf6ff35c7cbd01dd"}, {"bike_id": "811653e4989c90a50aaf3fd7c8be4666", "type": "electric_scooter", "is_disabled": 0, "lat": 38.90078833333333, "rental_uris": {"ios": "https://dc.lft.to/lastmile_qr_scan", "android": "https://dc.lft.to/lastmile_qr_scan"}, "is_reserved": 0, "fusion_lon": 0.0, "fusion_lat": 0.0, "lon": -77.01914316666667, "name": "811653e4989c90a50aaf3fd7c8be4666"}, {"bike_id": "bffaaa91f6599ddfb6ba5769fe14384f", "type": "electric_scooter", "is_disabled": 0, "lat": 38.956311, "rental_uris": {"ios": "https://dc.lft.to/lastmile_qr_scan", "android": "https://dc.lft.to/lastmile_qr_scan"}, "is_reserved": 0, "fusion_lon": 0.0, "fusion_lat": 0.0, "lon": -77.0115475, "name": "bffaaa91f6599ddfb6ba5769fe14384f"}, {"bike_id": "3acc3b6d2c94b040a9e36398256da230", "type": "electric_bike", "is_disabled": 0, "lat": 38.813099333333334, "rental_uris": {"ios": "https://dc.lft.to/lastmile_qr_scan", "android": "https://dc.lft.to/lastmile_qr_scan"}, "is_reserved": 0, "fusion_lon": 0.0, "fusion_lat": 0.0, "lon": -77.10965766666666, "name": "3acc3b6d2c94b040a9e36398256da230"}, {"bike_id": "7f58298b8a0d1f5efecf695a3e873550", "type": "electric_scooter", "is_disabled": 0, "lat": 38.8974005, "rental_uris": {"ios": "https://dc.lft.to/lastmile_qr_scan", "android": "https://dc.lft.to/lastmile_qr_scan"}, "is_reserved": 0, "fusion_lon": 0.0, "fusion_lat": 0.0, "lon": -76.9975305, "name": "7f58298b8a0d1f5efecf695a3e873550"}, {"bike_id": "b16b279e947b6e3aa7fc00b81f6c07c4", "type": "electric_scooter", "is_disabled": 0, "lat": 38.92421916666667, "rental_uris": {"ios": "https://dc.lft.to/lastmile_qr_scan", "android": "https://dc.lft.to/lastmile_qr_scan"}, "is_reserved": 0, "fusion_lon": 0.0, "fusion_lat": 0.0, "lon": -77.05067216666667, "name": "b16b279e947b6e3aa7fc00b81f6c07c4"}, {"bike_id": "c19484ed89c1ed75c530da66b81c5569", "type": "electric_scooter", "is_disabled": 0, "lat": 38.9038245, "rental_uris": {"ios": "https://dc.lft.to/lastmile_qr_scan", "android": "https://dc.lft.to/lastmile_qr_scan"}, "is_reserved": 0, "fusion_lon": 0.0, "fusion_lat": 0.0, "lon": -77.005577, "name": "c19484ed89c1ed75c530da66b81c5569"}, {"bike_id": "14f78663e222ec4c641787c571e2085c", "type": "electric_scooter", "is_disabled": 0, "lat": 38.907332333333336, "rental_uris": {"ios": "https://dc.lft.to/lastmile_qr_scan", "android": "https://dc.lft.to/lastmile_qr_scan"}, "is_reserved": 0, "fusion_lon": 0.0, "fusion_lat": 0.0, "lon": -77.02811816666667, "name": "14f78663e222ec4c641787c571e2085c"}, {"bike_id": "63080c5361fdb78b75fc9980583f44e6", "type": "electric_scooter", "is_disabled": 0, "lat": 38.93334483333334, "rental_uris": {"ios": "https://dc.lft.to/lastmile_qr_scan", "android": "https://dc.lft.to/lastmile_qr_scan"}, "is_reserved": 0, "fusion_lon": 0.0, "fusion_lat": 0.0, "lon": -77.04541966666666, "name": "63080c5361fdb78b75fc9980583f44e6"}, {"bike_id": "00c63830d6a1e162244886ab92188edf", "type": "electric_scooter", "is_disabled": 0, "lat": 38.89736516666667, "rental_uris": {"ios": "https://dc.lft.to/lastmile_qr_scan", "android": "https://dc.lft.to/lastmile_qr_scan"}, "is_reserved": 0, "fusion_lon": 0.0, "fusion_lat": 0.0, "lon": -77.04858133333333, "name": "00c63830d6a1e162244886ab92188edf"}, {"bike_id": "b86ee87b1c2a845e3b2ea7abd167795d", "type": "electric_scooter", "is_disabled": 0, "lat": 38.93190166666667, "rental_uris": {"ios": "https://dc.lft.to/lastmile_qr_scan", "android": "https://dc.lft.to/lastmile_qr_scan"}, "is_reserved": 0, "fusion_lon": 0.0, "fusion_lat": 0.0, "lon": -77.04535166666666, "name": "b86ee87b1c2a845e3b2ea7abd167795d"}, {"bike_id": "6654669b19f45fd892868eaff6d28cdf", "type": "electric_scooter", "is_disabled": 0, "lat": 38.90171433333333, "rental_uris": {"ios": "https://dc.lft.to/lastmile_qr_scan", "android": "https://dc.lft.to/lastmile_qr_scan"}, "is_reserved": 0, "fusion_lon": 0.0, "fusion_lat": 0.0, "lon": -76.9302585, "name": "6654669b19f45fd892868eaff6d28cdf"}, {"bike_id": "973036a048b19099548f9ac9b2234473", "type": "electric_scooter", "is_disabled": 0, "lat": 38.87636583333333, "rental_uris": {"ios": "https://dc.lft.to/lastmile_qr_scan", "android": "https://dc.lft.to/lastmile_qr_scan"}, "is_reserved": 0, "fusion_lon": 0.0, "fusion_lat": 0.0, "lon": -77.0168715, "name": "973036a048b19099548f9ac9b2234473"}, {"bike_id": "381fb15e780124fb1c460bb9cc5e6274", "type": "electric_bike", "is_disabled": 0, "lat": 38.874805333333335, "rental_uris": {"ios": "https://dc.lft.to/lastmile_qr_scan", "android": "https://dc.lft.to/lastmile_qr_scan"}, "is_reserved": 0, "fusion_lon": 0.0, "fusion_lat": 0.0, "lon": -76.96534266666667, "name": "381fb15e780124fb1c460bb9cc5e6274"}, {"bike_id": "34939a12ba91a93b4b51abc7072b8b59", "type": "electric_scooter", "is_disabled": 0, "lat": 38.887208, "rental_uris": {"ios": "https://dc.lft.to/lastmile_qr_scan", "android": "https://dc.lft.to/lastmile_qr_scan"}, "is_reserved": 0, "fusion_lon": 0.0, "fusion_lat": 0.0, "lon": -77.022046, "name": "34939a12ba91a93b4b51abc7072b8b59"}, {"bike_id": "c061edeebd2a62cc9278cf2d137e1847", "type": "electric_scooter", "is_disabled": 0, "lat": 38.89855566666667, "rental_uris": {"ios": "https://dc.lft.to/lastmile_qr_scan", "android": "https://dc.lft.to/lastmile_qr_scan"}, "is_reserved": 0, "fusion_lon": 0.0, "fusion_lat": 0.0, "lon": -76.99035366666666, "name": "c061edeebd2a62cc9278cf2d137e1847"}, {"bike_id": "830b9a26c312563bd47333763ed73097", "type": "electric_scooter", "is_disabled": 0, "lat": 38.862511166666664, "rental_uris": {"ios": "https://dc.lft.to/lastmile_qr_scan", "android": "https://dc.lft.to/lastmile_qr_scan"}, "is_reserved": 0, "fusion_lon": 0.0, "fusion_lat": 0.0, "lon": -76.9926265, "name": "830b9a26c312563bd47333763ed73097"}, {"bike_id": "bc4667a8319861e11a19368d39e52b22", "type": "electric_scooter", "is_disabled": 0, "lat": 38.9078135, "rental_uris": {"ios": "https://dc.lft.to/lastmile_qr_scan", "android": "https://dc.lft.to/lastmile_qr_scan"}, "is_reserved": 0, "fusion_lon": 0.0, "fusion_lat": 0.0, "lon": -77.0204015, "name": "bc4667a8319861e11a19368d39e52b22"}, {"bike_id": "c416a475c15be7a2f3e92054137c33c8", "type": "electric_scooter", "is_disabled": 0, "lat": 38.863724500000004, "rental_uris": {"ios": "https://dc.lft.to/lastmile_qr_scan", "android": "https://dc.lft.to/lastmile_qr_scan"}, "is_reserved": 0, "fusion_lon": 0.0, "fusion_lat": 0.0, "lon": -76.99059416666667, "name": "c416a475c15be7a2f3e92054137c33c8"}, {"bike_id": "10055c309b58b4110768afdbc321ee58", "type": "electric_scooter", "is_disabled": 0, "lat": 38.89502916666667, "rental_uris": {"ios": "https://dc.lft.to/lastmile_qr_scan", "android": "https://dc.lft.to/lastmile_qr_scan"}, "is_reserved": 0, "fusion_lon": 0.0, "fusion_lat": 0.0, "lon": -77.0220565, "name": "10055c309b58b4110768afdbc321ee58"}, {"bike_id": "f06e7a9910dee52b40a7993d8fca9e4d", "type": "electric_bike", "is_disabled": 0, "lat": 38.9083305, "rental_uris": {"ios": "https://dc.lft.to/lastmile_qr_scan", "android": "https://dc.lft.to/lastmile_qr_scan"}, "is_reserved": 0, "fusion_lon": 0.0, "fusion_lat": 0.0, "lon": -76.94158166666666, "name": "f06e7a9910dee52b40a7993d8fca9e4d"}, {"bike_id": "08a1f8f2d520b71fe8a502524f518849", "type": "electric_scooter", "is_disabled": 0, "lat": 38.912925, "rental_uris": {"ios": "https://dc.lft.to/lastmile_qr_scan", "android": "https://dc.lft.to/lastmile_qr_scan"}, "is_reserved": 0, "fusion_lon": 0.0, "fusion_lat": 0.0, "lon": -77.0197385, "name": "08a1f8f2d520b71fe8a502524f518849"}, {"bike_id": "8b1162372c9aa9d1c6d02f266bfa9af2", "type": "electric_scooter", "is_disabled": 0, "lat": 38.91709866666667, "rental_uris": {"ios": "https://dc.lft.to/lastmile_qr_scan", "android": "https://dc.lft.to/lastmile_qr_scan"}, "is_reserved": 0, "fusion_lon": 0.0, "fusion_lat": 0.0, "lon": -77.01073216666667, "name": "8b1162372c9aa9d1c6d02f266bfa9af2"}, {"bike_id": "653b0a3d984be67c78ac3785811ba000", "type": "electric_scooter", "is_disabled": 0, "lat": 38.907854666666665, "rental_uris": {"ios": "https://dc.lft.to/lastmile_qr_scan", "android": "https://dc.lft.to/lastmile_qr_scan"}, "is_reserved": 0, "fusion_lon": 0.0, "fusion_lat": 0.0, "lon": -77.0186185, "name": "653b0a3d984be67c78ac3785811ba000"}, {"bike_id": "0a5b17f64db25bb861765c3ab635ba65", "type": "electric_scooter", "is_disabled": 0, "lat": 38.87918, "rental_uris": {"ios": "https://dc.lft.to/lastmile_qr_scan", "android": "https://dc.lft.to/lastmile_qr_scan"}, "is_reserved": 0, "fusion_lon": 0.0, "fusion_lat": 0.0, "lon": -76.99507133333333, "name": "0a5b17f64db25bb861765c3ab635ba65"}, {"bike_id": "ead6ebfa24ce730b04408e6b6ae1d4d3", "type": "electric_bike", "is_disabled": 0, "lat": 38.87194483333333, "rental_uris": {"ios": "https://dc.lft.to/lastmile_qr_scan", "android": "https://dc.lft.to/lastmile_qr_scan"}, "is_reserved": 0, "fusion_lon": 0.0, "fusion_lat": 0.0, "lon": -77.01222016666667, "name": "ead6ebfa24ce730b04408e6b6ae1d4d3"}, {"bike_id": "23131c416d07cc7c988a6a0e7495186a", "type": "electric_scooter", "is_disabled": 0, "lat": 38.88930583333333, "rental_uris": {"ios": "https://dc.lft.to/lastmile_qr_scan", "android": "https://dc.lft.to/lastmile_qr_scan"}, "is_reserved": 0, "fusion_lon": 0.0, "fusion_lat": 0.0, "lon": -77.01502066666667, "name": "23131c416d07cc7c988a6a0e7495186a"}, {"bike_id": "ffa9722ad1fc29c7dd26f589bb45c357", "type": "electric_scooter", "is_disabled": 0, "lat": 38.91687066666667, "rental_uris": {"ios": "https://dc.lft.to/lastmile_qr_scan", "android": "https://dc.lft.to/lastmile_qr_scan"}, "is_reserved": 0, "fusion_lon": 0.0, "fusion_lat": 0.0, "lon": -77.02953933333333, "name": "ffa9722ad1fc29c7dd26f589bb45c357"}, {"bike_id": "9fc3fc3608a102ea38ec1fd371b4b4a2", "type": "electric_scooter", "is_disabled": 0, "lat": 38.90686733333333, "rental_uris": {"ios": "https://dc.lft.to/lastmile_qr_scan", "android": "https://dc.lft.to/lastmile_qr_scan"}, "is_reserved": 0, "fusion_lon": 0.0, "fusion_lat": 0.0, "lon": -77.0532535, "name": "9fc3fc3608a102ea38ec1fd371b4b4a2"}, {"bike_id": "7dec9dd73cd4a66caf77397b2bcaf8a1", "type": "electric_bike", "is_disabled": 0, "lat": 38.8956365, "rental_uris": {"ios": "https://dc.lft.to/lastmile_qr_scan", "android": "https://dc.lft.to/lastmile_qr_scan"}, "is_reserved": 0, "fusion_lon": 0.0, "fusion_lat": 0.0, "lon": -77.127406, "name": "7dec9dd73cd4a66caf77397b2bcaf8a1"}, {"bike_id": "4519c1d96afe65abfb74fe2a6124390a", "type": "electric_scooter", "is_disabled": 0, "lat": 38.93118783333333, "rental_uris": {"ios": "https://dc.lft.to/lastmile_qr_scan", "android": "https://dc.lft.to/lastmile_qr_scan"}, "is_reserved": 0, "fusion_lon": 0.0, "fusion_lat": 0.0, "lon": -77.02099916666667, "name": "4519c1d96afe65abfb74fe2a6124390a"}, {"bike_id": "d28ab66e39aa4b8a89cb4dbe5cbc2995", "type": "electric_bike", "is_disabled": 0, "lat": 38.868748833333335, "rental_uris": {"ios": "https://dc.lft.to/lastmile_qr_scan", "android": "https://dc.lft.to/lastmile_qr_scan"}, "is_reserved": 0, "fusion_lon": 0.0, "fusion_lat": 0.0, "lon": -76.95782516666667, "name": "d28ab66e39aa4b8a89cb4dbe5cbc2995"}, {"bike_id": "ec527d95bb1bb498c0c0d419099c4872", "type": "electric_scooter", "is_disabled": 0, "lat": 38.90787066666667, "rental_uris": {"ios": "https://dc.lft.to/lastmile_qr_scan", "android": "https://dc.lft.to/lastmile_qr_scan"}, "is_reserved": 0, "fusion_lon": 0.0, "fusion_lat": 0.0, "lon": -77.01103766666667, "name": "ec527d95bb1bb498c0c0d419099c4872"}, {"bike_id": "873c27fc5dcadb138e11e95dd46619cf", "type": "electric_scooter", "is_disabled": 0, "lat": 38.911199333333336, "rental_uris": {"ios": "https://dc.lft.to/lastmile_qr_scan", "android": "https://dc.lft.to/lastmile_qr_scan"}, "is_reserved": 0, "fusion_lon": 0.0, "fusion_lat": 0.0, "lon": -77.03830283333333, "name": "873c27fc5dcadb138e11e95dd46619cf"}, {"bike_id": "c8371135cc80b179712113ad1ede87ff", "type": "electric_scooter", "is_disabled": 0, "lat": 38.883437666666666, "rental_uris": {"ios": "https://dc.lft.to/lastmile_qr_scan", "android": "https://dc.lft.to/lastmile_qr_scan"}, "is_reserved": 0, "fusion_lon": 0.0, "fusion_lat": 0.0, "lon": -76.99508933333334, "name": "c8371135cc80b179712113ad1ede87ff"}, {"bike_id": "fe784ec916c2d6cbe6b82f52c526a357", "type": "electric_scooter", "is_disabled": 0, "lat": 38.87648266666667, "rental_uris": {"ios": "https://dc.lft.to/lastmile_qr_scan", "android": "https://dc.lft.to/lastmile_qr_scan"}, "is_reserved": 0, "fusion_lon": 0.0, "fusion_lat": 0.0, "lon": -76.96507466666667, "name": "fe784ec916c2d6cbe6b82f52c526a357"}, {"bike_id": "cb51f622b37524127f5de05340629b05", "type": "electric_scooter", "is_disabled": 0, "lat": 38.91720516666667, "rental_uris": {"ios": "https://dc.lft.to/lastmile_qr_scan", "android": "https://dc.lft.to/lastmile_qr_scan"}, "is_reserved": 0, "fusion_lon": 0.0, "fusion_lat": 0.0, "lon": -77.03667416666667, "name": "cb51f622b37524127f5de05340629b05"}, {"bike_id": "0046efca445f5f627d92b2b5ad003675", "type": "electric_scooter", "is_disabled": 0, "lat": 38.919830833333336, "rental_uris": {"ios": "https://dc.lft.to/lastmile_qr_scan", "android": "https://dc.lft.to/lastmile_qr_scan"}, "is_reserved": 0, "fusion_lon": 0.0, "fusion_lat": 0.0, "lon": -77.02392716666667, "name": "0046efca445f5f627d92b2b5ad003675"}, {"bike_id": "e01d004d0e2ce03fe8d99118e9a17da8", "type": "electric_scooter", "is_disabled": 0, "lat": 38.901124833333334, "rental_uris": {"ios": "https://dc.lft.to/lastmile_qr_scan", "android": "https://dc.lft.to/lastmile_qr_scan"}, "is_reserved": 0, "fusion_lon": 0.0, "fusion_lat": 0.0, "lon": -77.0163215, "name": "e01d004d0e2ce03fe8d99118e9a17da8"}, {"bike_id": "18b61092bf9859b4a1691ec8dfbe0904", "type": "electric_scooter", "is_disabled": 0, "lat": 38.936964, "rental_uris": {"ios": "https://dc.lft.to/lastmile_qr_scan", "android": "https://dc.lft.to/lastmile_qr_scan"}, "is_reserved": 0, "fusion_lon": 0.0, "fusion_lat": 0.0, "lon": -77.03279083333334, "name": "18b61092bf9859b4a1691ec8dfbe0904"}, {"bike_id": "49aa9fe1a164810fde70ce8d936870d7", "type": "electric_bike", "is_disabled": 0, "lat": 39.037089333333334, "rental_uris": {"ios": "https://dc.lft.to/lastmile_qr_scan", "android": "https://dc.lft.to/lastmile_qr_scan"}, "is_reserved": 0, "fusion_lon": 0.0, "fusion_lat": 0.0, "lon": -77.02861783333333, "name": "49aa9fe1a164810fde70ce8d936870d7"}, {"bike_id": "b07d721046432bf408d27f16609f76df", "type": "electric_scooter", "is_disabled": 0, "lat": 38.903430666666665, "rental_uris": {"ios": "https://dc.lft.to/lastmile_qr_scan", "android": "https://dc.lft.to/lastmile_qr_scan"}, "is_reserved": 0, "fusion_lon": 0.0, "fusion_lat": 0.0, "lon": -76.98499416666667, "name": "b07d721046432bf408d27f16609f76df"}, {"bike_id": "031b02952e22543afc2014cd5e204610", "type": "electric_bike", "is_disabled": 0, "lat": 38.955022166666666, "rental_uris": {"ios": "https://dc.lft.to/lastmile_qr_scan", "android": "https://dc.lft.to/lastmile_qr_scan"}, "is_reserved": 0, "fusion_lon": 0.0, "fusion_lat": 0.0, "lon": -76.99353816666667, "name": "031b02952e22543afc2014cd5e204610"}, {"bike_id": "fe5f06915cdd0b5a149cbb28bde6519f", "type": "electric_scooter", "is_disabled": 0, "lat": 38.901258166666665, "rental_uris": {"ios": "https://dc.lft.to/lastmile_qr_scan", "android": "https://dc.lft.to/lastmile_qr_scan"}, "is_reserved": 0, "fusion_lon": 0.0, "fusion_lat": 0.0, "lon": -77.049933, "name": "fe5f06915cdd0b5a149cbb28bde6519f"}, {"bike_id": "96ae50973292315c3f9bf34403c3dfb4", "type": "electric_scooter", "is_disabled": 0, "lat": 38.959353, "rental_uris": {"ios": "https://dc.lft.to/lastmile_qr_scan", "android": "https://dc.lft.to/lastmile_qr_scan"}, "is_reserved": 0, "fusion_lon": 0.0, "fusion_lat": 0.0, "lon": -77.03120916666667, "name": "96ae50973292315c3f9bf34403c3dfb4"}, {"bike_id": "bbdf5ee63941c601c9efa87e5486471f", "type": "electric_scooter", "is_disabled": 0, "lat": 38.942032, "rental_uris": {"ios": "https://dc.lft.to/lastmile_qr_scan", "android": "https://dc.lft.to/lastmile_qr_scan"}, "is_reserved": 0, "fusion_lon": 0.0, "fusion_lat": 0.0, "lon": -77.023555, "name": "bbdf5ee63941c601c9efa87e5486471f"}, {"bike_id": "1a3cfad965aa3f33ca2ef9b98e5afc36", "type": "electric_scooter", "is_disabled": 0, "lat": 38.91446116666667, "rental_uris": {"ios": "https://dc.lft.to/lastmile_qr_scan", "android": "https://dc.lft.to/lastmile_qr_scan"}, "is_reserved": 0, "fusion_lon": 0.0, "fusion_lat": 0.0, "lon": -77.02172316666666, "name": "1a3cfad965aa3f33ca2ef9b98e5afc36"}, {"bike_id": "ebb891ee83639693d5abf03f45ebcd1e", "type": "electric_scooter", "is_disabled": 0, "lat": 38.907623, "rental_uris": {"ios": "https://dc.lft.to/lastmile_qr_scan", "android": "https://dc.lft.to/lastmile_qr_scan"}, "is_reserved": 0, "fusion_lon": 0.0, "fusion_lat": 0.0, "lon": -77.03194366666666, "name": "ebb891ee83639693d5abf03f45ebcd1e"}, {"bike_id": "a4681ce14080a8bb29fea612e171e939", "type": "electric_scooter", "is_disabled": 0, "lat": 38.9177205, "rental_uris": {"ios": "https://dc.lft.to/lastmile_qr_scan", "android": "https://dc.lft.to/lastmile_qr_scan"}, "is_reserved": 0, "fusion_lon": 0.0, "fusion_lat": 0.0, "lon": -77.03447966666667, "name": "a4681ce14080a8bb29fea612e171e939"}, {"bike_id": "ff6192fcadff176a3f502ce01d1266ad", "type": "electric_scooter", "is_disabled": 0, "lat": 38.907050166666664, "rental_uris": {"ios": "https://dc.lft.to/lastmile_qr_scan", "android": "https://dc.lft.to/lastmile_qr_scan"}, "is_reserved": 0, "fusion_lon": 0.0, "fusion_lat": 0.0, "lon": -77.034449, "name": "ff6192fcadff176a3f502ce01d1266ad"}, {"bike_id": "b1056fe2776f8b23de46f46ad1e59de9", "type": "electric_scooter", "is_disabled": 0, "lat": 38.86735316666667, "rental_uris": {"ios": "https://dc.lft.to/lastmile_qr_scan", "android": "https://dc.lft.to/lastmile_qr_scan"}, "is_reserved": 0, "fusion_lon": 0.0, "fusion_lat": 0.0, "lon": -76.97864, "name": "b1056fe2776f8b23de46f46ad1e59de9"}, {"bike_id": "006d28f3ff1d1b44bcb3723cee6aa9ab", "type": "electric_scooter", "is_disabled": 0, "lat": 38.923877166666664, "rental_uris": {"ios": "https://dc.lft.to/lastmile_qr_scan", "android": "https://dc.lft.to/lastmile_qr_scan"}, "is_reserved": 0, "fusion_lon": 0.0, "fusion_lat": 0.0, "lon": -77.02486883333333, "name": "006d28f3ff1d1b44bcb3723cee6aa9ab"}, {"bike_id": "557fe997b3e57c8944be3ae981d08976", "type": "electric_scooter", "is_disabled": 0, "lat": 38.9073805, "rental_uris": {"ios": "https://dc.lft.to/lastmile_qr_scan", "android": "https://dc.lft.to/lastmile_qr_scan"}, "is_reserved": 0, "fusion_lon": 0.0, "fusion_lat": 0.0, "lon": -76.97970566666666, "name": "557fe997b3e57c8944be3ae981d08976"}, {"bike_id": "be4ff1392fd11321e031355435be0229", "type": "electric_scooter", "is_disabled": 0, "lat": 38.831473, "rental_uris": {"ios": "https://dc.lft.to/lastmile_qr_scan", "android": "https://dc.lft.to/lastmile_qr_scan"}, "is_reserved": 0, "fusion_lon": 0.0, "fusion_lat": 0.0, "lon": -77.05125083333333, "name": "be4ff1392fd11321e031355435be0229"}, {"bike_id": "cb091137a90062ed96230771cb6d04cc", "type": "electric_scooter", "is_disabled": 0, "lat": 38.9178995, "rental_uris": {"ios": "https://dc.lft.to/lastmile_qr_scan", "android": "https://dc.lft.to/lastmile_qr_scan"}, "is_reserved": 0, "fusion_lon": 0.0, "fusion_lat": 0.0, "lon": -77.023117, "name": "cb091137a90062ed96230771cb6d04cc"}, {"bike_id": "626e80312a2ecbbbb01f9efa3bfe2310", "type": "electric_scooter", "is_disabled": 0, "lat": 38.8923525, "rental_uris": {"ios": "https://dc.lft.to/lastmile_qr_scan", "android": "https://dc.lft.to/lastmile_qr_scan"}, "is_reserved": 0, "fusion_lon": 0.0, "fusion_lat": 0.0, "lon": -77.0238465, "name": "626e80312a2ecbbbb01f9efa3bfe2310"}, {"bike_id": "1bfb4d8fca227ae0549ab329f03f756c", "type": "electric_scooter", "is_disabled": 0, "lat": 38.911130666666665, "rental_uris": {"ios": "https://dc.lft.to/lastmile_qr_scan", "android": "https://dc.lft.to/lastmile_qr_scan"}, "is_reserved": 0, "fusion_lon": 0.0, "fusion_lat": 0.0, "lon": -77.03830683333334, "name": "1bfb4d8fca227ae0549ab329f03f756c"}, {"bike_id": "4a4d9fee9fc7b1fa8d6c16c3541443e3", "type": "electric_scooter", "is_disabled": 0, "lat": 38.879321166666664, "rental_uris": {"ios": "https://dc.lft.to/lastmile_qr_scan", "android": "https://dc.lft.to/lastmile_qr_scan"}, "is_reserved": 0, "fusion_lon": 0.0, "fusion_lat": 0.0, "lon": -77.0154035, "name": "4a4d9fee9fc7b1fa8d6c16c3541443e3"}, {"bike_id": "749eceda6a55af5d841bf22d67fd2144", "type": "electric_scooter", "is_disabled": 0, "lat": 38.90006066666667, "rental_uris": {"ios": "https://dc.lft.to/lastmile_qr_scan", "android": "https://dc.lft.to/lastmile_qr_scan"}, "is_reserved": 0, "fusion_lon": 0.0, "fusion_lat": 0.0, "lon": -77.01270566666666, "name": "749eceda6a55af5d841bf22d67fd2144"}, {"bike_id": "4735cd95ebc7269edb7cfe1cb4b43188", "type": "electric_scooter", "is_disabled": 0, "lat": 38.90195833333333, "rental_uris": {"ios": "https://dc.lft.to/lastmile_qr_scan", "android": "https://dc.lft.to/lastmile_qr_scan"}, "is_reserved": 0, "fusion_lon": 0.0, "fusion_lat": 0.0, "lon": -76.9884095, "name": "4735cd95ebc7269edb7cfe1cb4b43188"}, {"bike_id": "89e25f4f5ecf85348c204bf66046a9f5", "type": "electric_scooter", "is_disabled": 0, "lat": 38.923474, "rental_uris": {"ios": "https://dc.lft.to/lastmile_qr_scan", "android": "https://dc.lft.to/lastmile_qr_scan"}, "is_reserved": 0, "fusion_lon": 0.0, "fusion_lat": 0.0, "lon": -77.054258, "name": "89e25f4f5ecf85348c204bf66046a9f5"}, {"bike_id": "406931c024774b9e43de6f37b2bbc6cb", "type": "electric_scooter", "is_disabled": 0, "lat": 38.92604683333333, "rental_uris": {"ios": "https://dc.lft.to/lastmile_qr_scan", "android": "https://dc.lft.to/lastmile_qr_scan"}, "is_reserved": 0, "fusion_lon": 0.0, "fusion_lat": 0.0, "lon": -77.021554, "name": "406931c024774b9e43de6f37b2bbc6cb"}, {"bike_id": "a0af18e019678b6c655c1727aa5144c4", "type": "electric_scooter", "is_disabled": 0, "lat": 38.9407305, "rental_uris": {"ios": "https://dc.lft.to/lastmile_qr_scan", "android": "https://dc.lft.to/lastmile_qr_scan"}, "is_reserved": 0, "fusion_lon": 0.0, "fusion_lat": 0.0, "lon": -77.0525605, "name": "a0af18e019678b6c655c1727aa5144c4"}, {"bike_id": "fabd10c5f684f0be71198c7bb13de24c", "type": "electric_scooter", "is_disabled": 0, "lat": 38.9136655, "rental_uris": {"ios": "https://dc.lft.to/lastmile_qr_scan", "android": "https://dc.lft.to/lastmile_qr_scan"}, "is_reserved": 0, "fusion_lon": 0.0, "fusion_lat": 0.0, "lon": -77.04565566666666, "name": "fabd10c5f684f0be71198c7bb13de24c"}, {"bike_id": "67bfaa9571ff97137d9ba88376360955", "type": "electric_scooter", "is_disabled": 0, "lat": 38.9044535, "rental_uris": {"ios": "https://dc.lft.to/lastmile_qr_scan", "android": "https://dc.lft.to/lastmile_qr_scan"}, "is_reserved": 0, "fusion_lon": 0.0, "fusion_lat": 0.0, "lon": -77.02877083333334, "name": "67bfaa9571ff97137d9ba88376360955"}, {"bike_id": "59040009d95302cee51f3f465d587ac6", "type": "electric_scooter", "is_disabled": 0, "lat": 38.909779666666665, "rental_uris": {"ios": "https://dc.lft.to/lastmile_qr_scan", "android": "https://dc.lft.to/lastmile_qr_scan"}, "is_reserved": 0, "fusion_lon": 0.0, "fusion_lat": 0.0, "lon": -77.03181616666667, "name": "59040009d95302cee51f3f465d587ac6"}, {"bike_id": "023566a634c2efcef87b252c97b82c3f", "type": "electric_scooter", "is_disabled": 0, "lat": 38.899536166666664, "rental_uris": {"ios": "https://dc.lft.to/lastmile_qr_scan", "android": "https://dc.lft.to/lastmile_qr_scan"}, "is_reserved": 0, "fusion_lon": 0.0, "fusion_lat": 0.0, "lon": -77.023835, "name": "023566a634c2efcef87b252c97b82c3f"}, {"bike_id": "8a4cc73051c8ccfb94ecc9dc4232ab9e", "type": "electric_scooter", "is_disabled": 0, "lat": 38.865166333333335, "rental_uris": {"ios": "https://dc.lft.to/lastmile_qr_scan", "android": "https://dc.lft.to/lastmile_qr_scan"}, "is_reserved": 0, "fusion_lon": 0.0, "fusion_lat": 0.0, "lon": -76.9901675, "name": "8a4cc73051c8ccfb94ecc9dc4232ab9e"}, {"bike_id": "9e7ec8d1e57e95be4f0789d3a66996e7", "type": "electric_scooter", "is_disabled": 0, "lat": 38.92227883333334, "rental_uris": {"ios": "https://dc.lft.to/lastmile_qr_scan", "android": "https://dc.lft.to/lastmile_qr_scan"}, "is_reserved": 0, "fusion_lon": 0.0, "fusion_lat": 0.0, "lon": -77.044191, "name": "9e7ec8d1e57e95be4f0789d3a66996e7"}, {"bike_id": "dce3644ee695abec141de6c063d4985d", "type": "electric_scooter", "is_disabled": 0, "lat": 38.907824, "rental_uris": {"ios": "https://dc.lft.to/lastmile_qr_scan", "android": "https://dc.lft.to/lastmile_qr_scan"}, "is_reserved": 0, "fusion_lon": 0.0, "fusion_lat": 0.0, "lon": -77.010116, "name": "dce3644ee695abec141de6c063d4985d"}, {"bike_id": "417a405fc7abea05c983ea1936b8ea65", "type": "electric_scooter", "is_disabled": 0, "lat": 38.923639666666666, "rental_uris": {"ios": "https://dc.lft.to/lastmile_qr_scan", "android": "https://dc.lft.to/lastmile_qr_scan"}, "is_reserved": 0, "fusion_lon": 0.0, "fusion_lat": 0.0, "lon": -77.05126516666667, "name": "417a405fc7abea05c983ea1936b8ea65"}, {"bike_id": "06433a5189d0a365f7a361f39a5065ab", "type": "electric_scooter", "is_disabled": 0, "lat": 38.9170265, "rental_uris": {"ios": "https://dc.lft.to/lastmile_qr_scan", "android": "https://dc.lft.to/lastmile_qr_scan"}, "is_reserved": 0, "fusion_lon": 0.0, "fusion_lat": 0.0, "lon": -77.01054433333333, "name": "06433a5189d0a365f7a361f39a5065ab"},