{"data": {"bikes": [{"is_reserved": 0, "is_disabled": 0, "lon": -77.01585133333333, "lat": 38.916760833333335, "fusion_lat": 0.0, "name": "e024d02ce54be5921b4909a2a6f11187", "bike_id": "e024d02ce54be5921b4909a2a6f11187", "type": "electric_scooter", "rental_uris": {"android": "https://dc.lft.to/lastmile_qr_scan", "ios": "https://dc.lft.to/lastmile_qr_scan"}, "fusion_lon": 0.0}, {"is_reserved": 0, "is_disabled": 0, "lon": -77.02936533333333, "lat": 38.942681666666665, "fusion_lat": 0.0, "name": "180faa79c4a24eb639cc9526d3725351", "bike_id": "180faa79c4a24eb639cc9526d3725351", "type": "electric_scooter", "rental_uris": {"android": "https://dc.lft.to/lastmile_qr_scan", "ios": "https://dc.lft.to/lastmile_qr_scan"}, "fusion_lon": 0.0}, {"is_reserved": 0, "is_disabled": 0, "lon": -77.021004, "lat": 38.92145566666667, "fusion_lat": 0.0, "name": "3984561f939255411b94d26ddc77fc70", "bike_id": "3984561f939255411b94d26ddc77fc70", "type": "electric_scooter", "rental_uris": {"android": "https://dc.lft.to/lastmile_qr_scan", "ios": "https://dc.lft.to/lastmile_qr_scan"}, "fusion_lon": 0.0}, {"is_reserved": 0, "is_disabled": 0, "lon": -77.02829116666666, "lat": 38.92220116666667, "fusion_lat": 0.0, "name": "a2cd0dc12bb62cf44f16cf991431c669", "bike_id": "a2cd0dc12bb62cf44f16cf991431c669", "type": "electric_scooter", "rental_uris": {"android": "https://dc.lft.to/lastmile_qr_scan", "ios": "https://dc.lft.to/lastmile_qr_scan"}, "fusion_lon": 0.0}, {"is_reserved": 0, "is_disabled": 0, "lon": -77.0212785, "lat": 38.92219033333333, "fusion_lat": 0.0, "name": "8459e9e72e1a636fcf886d624c2b79cd", "bike_id": "8459e9e72e1a636fcf886d624c2b79cd", "type": "electric_scooter", "rental_uris": {"android": "https://dc.lft.to/lastmile_qr_scan", "ios": "https://dc.lft.to/lastmile_qr_scan"}, "fusion_lon": 0.0}, {"is_reserved": 0, "is_disabled": 0, "lon": -77.073904, "lat": 38.910216, "fusion_lat": 0.0, "name": "f11ab570f1eb9612aa1c2ed063f508c4", "bike_id": "f11ab570f1eb9612aa1c2ed063f508c4", "type": "electric_scooter", "rental_uris": {"android": "https://dc.lft.to/lastmile_qr_scan", "ios": "https://dc.lft.to/lastmile_qr_scan"}, "fusion_lon": 0.0}, {"is_reserved": 0, "is_disabled": 0, "lon": -77.02815666666666, "lat": 38.91603216666667, "fusion_lat": 0.0, "name": "8c2ff7f6403dd76d14ee43255cc969b6", "bike_id": "8c2ff7f6403dd76d14ee43255cc969b6", "type": "electric_scooter", "rental_uris": {"android": "https://dc.lft.to/lastmile_qr_scan", "ios": "https://dc.lft.to/lastmile_qr_scan"}, "fusion_lon": 0.0}, {"is_reserved": 0, "is_disabled": 0, "lon": -77.02245183333334, "lat": 38.92460283333333, "fusion_lat": 0.0, "name": "495a3dfa40cc7a89d0208b8b74e1831b", "bike_id": "495a3dfa40cc7a89d0208b8b74e1831b", "type": "electric_scooter", "rental_uris": {"android": "https://dc.lft.to/lastmile_qr_scan", "ios": "https://dc.lft.to/lastmile_qr_scan"}, "fusion_lon": 0.0}, {"is_reserved": 0, "is_disabled": 0, "lon": -77.024081, "lat": 38.95838366666667, "fusion_lat": 0.0, "name": "057d13c796cdc43bd67248155ab3cd3c", "bike_id": "057d13c796cdc43bd67248155ab3cd3c", "type": "electric_scooter", "rental_uris": {"android": "https://dc.lft.to/lastmile_qr_scan", "ios": "https://dc.lft.to/lastmile_qr_scan"}, "fusion_lon": 0.0}, {"is_reserved": 0, "is_disabled": 0, "lon": -77.00064666666667, "lat": 38.886949333333334, "fusion_lat": 0.0, "name": "7958c0d8511ff9098df75814bd5f399b", "bike_id": "7958c0d8511ff9098df75814bd5f399b", "type": "electric_scooter", "rental_uris": {"android": "https://dc.lft.to/lastmile_qr_scan", "ios": "https://dc.lft.to/lastmile_qr_scan"}, "fusion_lon": 0.0}, {"is_reserved": 0, "is_disabled": 0, "lon": -77.054286, "lat": 38.92851266666667, "fusion_lat": 0.0, "name": "37c4cee4ebbb8f0dc501ea8213af5c40", "bike_id": "37c4cee4ebbb8f0dc501ea8213af5c40", "type": "electric_scooter", "rental_uris": {"android": "https://dc.lft.to/lastmile_qr_scan", "ios": "https://dc.lft.to/lastmile_qr_scan"}, "fusion_lon": 0.0}, {"is_reserved": 0, "is_disabled": 0, "lon": -77.03405233333334, "lat": 38.966943, "fusion_lat": 0.0, "name": "f8321a82d68caa1ca02c7b2220f9a25b", "bike_id": "f8321a82d68caa1ca02c7b2220f9a25b", "type": "electric_scooter", "rental_uris": {"android": "https://dc.lft.to/lastmile_qr_scan", "ios": "https://dc.lft.to/lastmile_qr_scan"}, "fusion_lon": 0.0}, {"is_reserved": 0, "is_disabled": 0, "lon": -77.05519383333333, "lat": 38.91059533333333, "fusion_lat": 0.0, "name": "eeedc9604d8c726ee6e1e173a4567744", "bike_id": "eeedc9604d8c726ee6e1e173a4567744", "type": "electric_scooter", "rental_uris": {"android": "https://dc.lft.to/lastmile_qr_scan", "ios": "https://dc.lft.to/lastmile_qr_scan"}, "fusion_lon": 0.0}, {"is_reserved": 0, "is_disabled": 0, "lon": -77.0334035, "lat": 38.9096925, "fusion_lat": 0.0, "name": "6b806d39c7429b0bbcc34acc2337b515", "bike_id": "6b806d39c7429b0bbcc34acc2337b515", "type": "electric_scooter", "rental_uris": {"android": "https://dc.lft.to/lastmile_qr_scan", "ios": "https://dc.lft.to/lastmile_qr_scan"}, "fusion_lon": 0.0}, {"is_reserved": 0, "is_disabled": 0, "lon": -77.0187905, "lat": 38.877458833333336, "fusion_lat": 0.0, "name": "d8d20db592bcd0c25a68e1fcba5052fc", "bike_id": "d8d20db592bcd0c25a68e1fcba5052fc", "type": "electric_scooter", "rental_uris": {"android": "https://dc.lft.to/lastmile_qr_scan", "ios": "https://dc.lft.to/lastmile_qr_scan"}, "fusion_lon": 0.0}, {"is_reserved": 0, "is_disabled": 0, "lon": -77.03725133333333, "lat": 38.9171245, "fusion_lat": 0.0, "name": "c9e5fad84d14a39bdebc5506f6d15526", "bike_id": "c9e5fad84d14a39bdebc5506f6d15526", "type": "electric_scooter", "rental_uris": {"android": "https://dc.lft.to/lastmile_qr_scan", "ios": "https://dc.lft.to/lastmile_qr_scan"}, "fusion_lon": 0.0}, {"is_reserved": 0, "is_disabled": 0, "lon": -76.99652816666666, "lat": 38.9677905, "fusion_lat": 0.0, "name": "232220d6bb500a5dd91d6126a9f00df4", "bike_id": "232220d6bb500a5dd91d6126a9f00df4", "type": "electric_bike", "rental_uris": {"android": "https://dc.lft.to/lastmile_qr_scan", "ios": "https://dc.lft.to/lastmile_qr_scan"}, "fusion_lon": 0.0}, {"is_reserved": 0, "is_disabled": 0, "lon": -77.02599366666666, "lat": 38.91950766666667, "fusion_lat": 0.0, "name": "86fda7b49d87d2041e503bfb2b2686c5", "bike_id": "86fda7b49d87d2041e503bfb2b2686c5", "type": "electric_scooter", "rental_uris": {"android": "https://dc.lft.to/lastmile_qr_scan", "ios": "https://dc.lft.to/lastmile_qr_scan"}, "fusion_lon": 0.0}, {"is_reserved": 0, "is_disabled": 0, "lon": -77.03971983333334, "lat": 38.902514333333336, "fusion_lat": 0.0, "name": "f01d6e8c7a977f5581d686bb0e5f3789", "bike_id": "f01d6e8c7a977f5581d686bb0e5f3789", "type": "electric_scooter", "rental_uris": {"android": "https://dc.lft.to/lastmile_qr_scan", "ios": "https://dc.lft.to/lastmile_qr_scan"}, "fusion_lon": 0.0}, {"is_reserved": 0, "is_disabled": 0, "lon": -76.99997433333333, "lat": 38.923941166666665, "fusion_lat": 0.0, "name": "443376e29187b9c9ce8c44b9cb9066d0", "bike_id": "443376e29187b9c9ce8c44b9cb9066d0", "type": "electric_bike", "rental_uris": {"android": "https://dc.lft.to/lastmile_qr_scan", "ios": "https://dc.lft.to/lastmile_qr_scan"}, "fusion_lon": 0.0}, {"is_reserved": 0, "is_disabled": 0, "lon": -77.04684866666666, "lat": 38.89858, "fusion_lat": 0.0, "name": "79b3356e374550b8e239b65fd3b13e11", "bike_id": "79b3356e374550b8e239b65fd3b13e11", "type": "electric_scooter", "rental_uris": {"android": "https://dc.lft.to/lastmile_qr_scan", "ios": "https://dc.lft.to/lastmile_qr_scan"}, "fusion_lon": 0.0}, {"is_reserved": 0, "is_disabled": 0, "lon": -77.03149466666666, "lat": 38.9279065, "fusion_lat": 0.0, "name": "60e88422aa9f29786d399e953d1507d0", "bike_id": "60e88422aa9f29786d399e953d1507d0", "type": "electric_scooter", "rental_uris": {"android": "https://dc.lft.to/lastmile_qr_scan", "ios": "https://dc.lft.to/lastmile_qr_scan"}, "fusion_lon": 0.0}, {"is_reserved": 0, "is_disabled": 0, "lon": -77.03884916666667, "lat": 38.9323125, "fusion_lat": 0.0, "name": "50d26e86e3088023d7a94be7e7837370", "bike_id": "50d26e86e3088023d7a94be7e7837370", "type": "electric_scooter", "rental_uris": {"android": "https://dc.lft.to/lastmile_qr_scan", "ios": "https://dc.lft.to/lastmile_qr_scan"}, "fusion_lon": 0.0}, {"is_reserved": 0, "is_disabled": 0, "lon": -77.01869333333333, "lat": 38.9161735, "fusion_lat": 0.0, "name": "20f821e581a9a81b66e8153926c12992", "bike_id": "20f821e581a9a81b66e8153926c12992", "type": "electric_scooter", "rental_uris": {"android": "https://dc.lft.to/lastmile_qr_scan", "ios": "https://dc.lft.to/lastmile_qr_scan"}, "fusion_lon": 0.0}, {"is_reserved": 0, "is_disabled": 0, "lon": -77.04470616666667, "lat": 38.894261166666666, "fusion_lat": 0.0, "name": "eb8722a81256ce008b08c6d3bcc9d4c4", "bike_id": "eb8722a81256ce008b08c6d3bcc9d4c4", "type": "electric_scooter", "rental_uris": {"android": "https://dc.lft.to/lastmile_qr_scan", "ios": "https://dc.lft.to/lastmile_qr_scan"}, "fusion_lon": 0.0}, {"is_reserved": 0, "is_disabled": 0, "lon": -77.04202916666667, "lat": 38.9068455, "fusion_lat": 0.0, "name": "5dddf10a6b3a41b96c42e8cc2771eaee", "bike_id": "5dddf10a6b3a41b96c42e8cc2771eaee", "type": "electric_scooter", "rental_uris": {"android": "https://dc.lft.to/lastmile_qr_scan", "ios": "https://dc.lft.to/lastmile_qr_scan"}, "fusion_lon": 0.0}, {"is_reserved": 0, "is_disabled": 0, "lon": -76.99040083333334, "lat": 38.88868433333333, "fusion_lat": 0.0, "name": "1794f50e0d0fd36194fb2c9e078aab23", "bike_id": "1794f50e0d0fd36194fb2c9e078aab23", "type": "electric_scooter", "rental_uris": {"android": "https://dc.lft.to/lastmile_qr_scan", "ios": "https://dc.lft.to/lastmile_qr_scan"}, "fusion_lon": 0.0}, {"is_reserved": 0, "is_disabled": 0, "lon": -77.02353866666667, "lat": 38.931966333333335, "fusion_lat": 0.0, "name": "e8036671956ef08d4845100e9291a150", "bike_id": "e8036671956ef08d4845100e9291a150", "type": "electric_scooter", "rental_uris": {"android": "https://dc.lft.to/lastmile_qr_scan", "ios": "https://dc.lft.to/lastmile_qr_scan"}, "fusion_lon": 0.0}, {"is_reserved": 0, "is_disabled": 0, "lon": -77.01987633333333, "lat": 38.93191933333333, "fusion_lat": 0.0, "name": "8613c3b494a560e3a482b88d49604d4f", "bike_id": "8613c3b494a560e3a482b88d49604d4f", "type": "electric_scooter", "rental_uris": {"android": "https://dc.lft.to/lastmile_qr_scan", "ios": "https://dc.lft.to/lastmile_qr_scan"}, "fusion_lon": 0.0}, {"is_reserved": 0, "is_disabled": 0, "lon": -77.041883, "lat": 38.89340416666667, "fusion_lat": 0.0, "name": "84d8a2b9a21c90c6cac01805dbfcc967", "bike_id": "84d8a2b9a21c90c6cac01805dbfcc967", "type": "electric_scooter", "rental_uris": {"android": "https://dc.lft.to/lastmile_qr_scan", "ios": "https://dc.lft.to/lastmile_qr_scan"}, "fusion_lon": 0.0}, {"is_reserved": 0, "is_disabled": 0, "lon": -77.003326, "lat": 38.886090333333335, "fusion_lat": 0.0, "name": "b988beab14dc15d578c7f542efd22aeb", "bike_id": "b988beab14dc15d578c7f542efd22aeb", "type": "electric_scooter", "rental_uris": {"android": "https://dc.lft.to/lastmile_qr_scan", "ios": "https://dc.lft.to/lastmile_qr_scan"}, "fusion_lon": 0.0}, {"is_reserved": 0, "is_disabled": 0, "lon": -77.018014, "lat": 38.90272683333333, "fusion_lat": 0.0, "name": "1a24d31a354f96aae7403acb3dde7f0f", "bike_id": "1a24d31a354f96aae7403acb3dde7f0f", "type": "electric_bike", "rental_uris": {"android": "https://dc.lft.to/lastmile_qr_scan", "ios": "https://dc.lft.to/lastmile_qr_scan"}, "fusion_lon": 0.0}, {"is_reserved": 0, "is_disabled": 0, "lon": -76.92749833333333, "lat": 38.898467333333336, "fusion_lat": 0.0, "name": "eba6676d4df1ec5267a3e8cbc71f220d", "bike_id": "eba6676d4df1ec5267a3e8cbc71f220d", "type": "electric_scooter", "rental_uris": {"android": "https://dc.lft.to/lastmile_qr_scan", "ios": "https://dc.lft.to/lastmile_qr_scan"}, "fusion_lon": 0.0}, {"is_reserved": 0, "is_disabled": 0, "lon": -77.02280866666666, "lat": 38.8784105, "fusion_lat": 0.0, "name": "1c7ee1da70e6de012fc8939de2180f9e", "bike_id": "1c7ee1da70e6de012fc8939de2180f9e", "type": "electric_scooter", "rental_uris": {"android": "https://dc.lft.to/lastmile_qr_scan", "ios": "https://dc.lft.to/lastmile_qr_scan"}, "fusion_lon": 0.0}, {"is_reserved": 0, "is_disabled": 0, "lon": -77.04867133333333, "lat": 38.9047375, "fusion_lat": 0.0, "name": "cf06e9f213047b669a321197502b278a", "bike_id": "cf06e9f213047b669a321197502b278a", "type": "electric_scooter", "rental_uris": {"android": "https://dc.lft.to/lastmile_qr_scan", "ios": "https://dc.lft.to/lastmile_qr_scan"}, "fusion_lon": 0.0}, {"is_reserved": 0, "is_disabled": 0, "lon": -77.08411916666667, "lat": 38.832948333333334, "fusion_lat": 0.0, "name": "98931847aa88bd4c35f4f8c4a036017b", "bike_id": "98931847aa88bd4c35f4f8c4a036017b", "type": "electric_bike", "rental_uris": {"android": "https://dc.lft.to/lastmile_qr_scan", "ios": "https://dc.lft.to/lastmile_qr_scan"}, "fusion_lon": 0.0}, {"is_reserved": 0, "is_disabled": 0, "lon": -77.10047733333333, "lat": 38.859143833333334, "fusion_lat": 0.0, "name": "82a3972361975794bb40a7f1ef6d976a", "bike_id": "82a3972361975794bb40a7f1ef6d976a", "type": "electric_bike", "rental_uris": {"android": "https://dc.lft.to/lastmile_qr_scan", "ios": "https://dc.lft.to/lastmile_qr_scan"}, "fusion_lon": 0.0}, {"is_reserved": 0, "is_disabled": 0, "lon": -76.97226716666667, "lat": 38.90432966666667, "fusion_lat": 0.0, "name": "ed23683efc696c012f594be5bab993d4", "bike_id": "ed23683efc696c012f594be5bab993d4", "type": "electric_bike", "rental_uris": {"android": "https://dc.lft.to/lastmile_qr_scan", "ios": "https://dc.lft.to/lastmile_qr_scan"}, "fusion_lon": 0.0}, {"is_reserved": 0, "is_disabled": 0, "lon": -77.04239333333334, "lat": 38.921480833333334, "fusion_lat": 0.0, "name": "4f29e9086d49ef191ff160894132feb5", "bike_id": "4f29e9086d49ef191ff160894132feb5", "type": "electric_scooter", "rental_uris": {"android": "https://dc.lft.to/lastmile_qr_scan", "ios": "https://dc.lft.to/lastmile_qr_scan"}, "fusion_lon": 0.0}, {"is_reserved": 0, "is_disabled": 0, "lon": -77.030965, "lat": 38.921073666666665, "fusion_lat": 0.0, "name": "90a1160bfdf9ff0f48acd4018d62fb38", "bike_id": "90a1160bfdf9ff0f48acd4018d62fb38", "type": "electric_scooter", "rental_uris": {"android": "https://dc.lft.to/lastmile_qr_scan", "ios": "https://dc.lft.to/lastmile_qr_scan"}, "fusion_lon": 0.0}, {"is_reserved": 0, "is_disabled": 0, "lon": -77.0475335, "lat": 38.90536483333333, "fusion_lat": 0.0, "name": "47671adc5ae7dd26f40ab563237a781c", "bike_id": "47671adc5ae7dd26f40ab563237a781c", "type": "electric_scooter", "rental_uris": {"android": "https://dc.lft.to/lastmile_qr_scan", "ios": "https://dc.lft.to/lastmile_qr_scan"}, "fusion_lon": 0.0}, {"is_reserved": 0, "is_disabled": 0, "lon": -77.06493666666667, "lat": 38.90977383333333, "fusion_lat": 0.0, "name": "ced1f3e1401b7041f8fc537cac807656", "bike_id": "ced1f3e1401b7041f8fc537cac807656", "type": "electric_scooter", "rental_uris": {"android": "https://dc.lft.to/lastmile_qr_scan", "ios": "https://dc.lft.to/lastmile_qr_scan"}, "fusion_lon": 0.0}, {"is_reserved": 0, "is_disabled": 0, "lon": -77.03434533333333, "lat": 38.914804, "fusion_lat": 0.0, "name": "2aa5c5944d3933560e25838fc2c63942", "bike_id": "2aa5c5944d3933560e25838fc2c63942", "type": "electric_scooter", "rental_uris": {"android": "https://dc.lft.to/lastmile_qr_scan", "ios": "https://dc.lft.to/lastmile_qr_scan"}, "fusion_lon": 0.0}, {"is_reserved": 0, "is_disabled": 0, "lon": -77.0489185, "lat": 38.900718, "fusion_lat": 0.0, "name": "c6b3f72bed4ea12797fb25b88344281e", "bike_id": "c6b3f72bed4ea12797fb25b88344281e", "type": "electric_scooter", "rental_uris": {"android": "https://dc.lft.to/lastmile_qr_scan", "ios": "https://dc.lft.to/lastmile_qr_scan"}, "fusion_lon": 0.0}, {"is_reserved": 0, "is_disabled": 0, "lon": -76.98540016666666, "lat": 38.909512166666666, "fusion_lat": 0.0, "name": "317fbb2f469b838213c78cd638c9211e", "bike_id": "317fbb2f469b838213c78cd638c9211e", "type": "electric_scooter", "rental_uris": {"android": "https://dc.lft.to/lastmile_qr_scan", "ios": "https://dc.lft.to/lastmile_qr_scan"}, "fusion_lon": 0.0}, {"is_reserved": 0, "is_disabled": 0, "lon": -76.98385083333334, "lat": 38.915950333333335, "fusion_lat": 0.0, "name": "52d2400c447a7d19a5989bfb194fc387", "bike_id": "52d2400c447a7d19a5989bfb194fc387", "type": "electric_scooter", "rental_uris": {"android": "https://dc.lft.to/lastmile_qr_scan", "ios": "https://dc.lft.to/lastmile_qr_scan"}, "fusion_lon": 0.0}, {"is_reserved": 0, "is_disabled": 0, "lon": -77.01528466666667, "lat": 38.88732916666667, "fusion_lat": 0.0, "name": "d69fdd4b656cb4910f663c90ddb24bf0", "bike_id": "d69fdd4b656cb4910f663c90ddb24bf0", "type": "electric_scooter", "rental_uris": {"android": "https://dc.lft.to/lastmile_qr_scan", "ios": "https://dc.lft.to/lastmile_qr_scan"}, "fusion_lon": 0.0}, {"is_reserved": 0, "is_disabled": 0, "lon": -77.02655833333333, "lat": 38.91706283333333, "fusion_lat": 0.0, "name": "64ebe50d8e17659555611b410a76f857", "bike_id": "64ebe50d8e17659555611b410a76f857", "type": "electric_scooter", "rental_uris": {"android": "https://dc.lft.to/lastmile_qr_scan", "ios": "https://dc.lft.to/lastmile_qr_scan"}, "fusion_lon": 0.0}, {"is_reserved": 0, "is_disabled": 0, "lon": -77.002433, "lat": 38.91918483333333, "fusion_lat": 0.0, "name": "3e53d6140cc14979a7066ad445afc51a", "bike_id": "3e53d6140cc14979a7066ad445afc51a", "type": "electric_scooter", "rental_uris": {"android": "https://dc.lft.to/lastmile_qr_scan", "ios": "https://dc.lft.to/lastmile_qr_scan"}, "fusion_lon": 0.0}, {"is_reserved": 0, "is_disabled": 0, "lon": -77.01827666666667, "lat": 38.92233233333333, "fusion_lat": 0.0, "name": "cf771670decdd805d1035f017e49b034", "bike_id": "cf771670decdd805d1035f017e49b034", "type": "electric_scooter", "rental_uris": {"android": "https://dc.lft.to/lastmile_qr_scan", "ios": "https://dc.lft.to/lastmile_qr_scan"}, "fusion_lon": 0.0}, {"is_reserved": 0, "is_disabled": 0, "lon": -77.07328883333334, "lat": 38.9432205, "fusion_lat": 0.0, "name": "f8127ea8f2b51dc721687af4f9ffc7ba", "bike_id": "f8127ea8f2b51dc721687af4f9ffc7ba", "type": "electric_scooter", "rental_uris": {"android": "https://dc.lft.to/lastmile_qr_scan", "ios": "https://dc.lft.to/lastmile_qr_scan"}, "fusion_lon": 0.0}, {"is_reserved": 0, "is_disabled": 0, "lon": -77.02146966666666, "lat": 38.902352666666665, "fusion_lat": 0.0, "name": "7731e14c5af8de2a55adbc8d99b671e3", "bike_id": "7731e14c5af8de2a55adbc8d99b671e3", "type": "electric_scooter", "rental_uris": {"android": "https://dc.lft.to/lastmile_qr_scan", "ios": "https://dc.lft.to/lastmile_qr_scan"}, "fusion_lon": 0.0}, {"is_reserved": 0, "is_disabled": 0, "lon": -77.01201783333333, "lat": 38.897907000000004, "fusion_lat": 0.0, "name": "247973d655f25409bf3665965aed5717", "bike_id": "247973d655f25409bf3665965aed5717", "type": "electric_scooter", "rental_uris": {"android": "https://dc.lft.to/lastmile_qr_scan", "ios": "https://dc.lft.to/lastmile_qr_scan"}, "fusion_lon": 0.0}, {"is_reserved": 0, "is_disabled": 0, "lon": -77.04809616666667, "lat": 38.916374166666664, "fusion_lat": 0.0, "name": "0f68887fcb5a48f8cd870e60e5e556fc", "bike_id": "0f68887fcb5a48f8cd870e60e5e556fc", "type": "electric_scooter", "rental_uris": {"android": "https://dc.lft.to/lastmile_qr_scan", "ios": "https://dc.lft.to/lastmile_qr_scan"}, "fusion_lon": 0.0}, {"is_reserved": 0, "is_disabled": 0, "lon": -77.0115285, "lat": 38.90036083333333, "fusion_lat": 0.0, "name": "8255ffef7727b3a72bde1de607e1d03f", "bike_id": "8255ffef7727b3a72bde1de607e1d03f", "type": "electric_scooter", "rental_uris": {"android": "https://dc.lft.to/lastmile_qr_scan", "ios": "https://dc.lft.to/lastmile_qr_scan"}, "fusion_lon": 0.0}, {"is_reserved": 0, "is_disabled": 0, "lon": -77.02684916666666, "lat": 38.9022665, "fusion_lat": 0.0, "name": "3b1182c8d690a6756a21520513928c2d", "bike_id": "3b1182c8d690a6756a21520513928c2d", "type": "electric_scooter", "rental_uris": {"android": "https://dc.lft.to/lastmile_qr_scan", "ios": "https://dc.lft.to/lastmile_qr_scan"}, "fusion_lon": 0.0}, {"is_reserved": 0, "is_disabled": 0, "lon": -77.0260505, "lat": 38.90338, "fusion_lat": 0.0, "name": "a5135ea2d886033ba56c43a8e554196c", "bike_id": "a5135ea2d886033ba56c43a8e554196c", "type": "electric_scooter", "rental_uris": {"android": "https://dc.lft.to/lastmile_qr_scan", "ios": "https://dc.lft.to/lastmile_qr_scan"}, "fusion_lon": 0.0}, {"is_reserved": 0, "is_disabled": 0, "lon": -77.04078716666666, "lat": 38.83063833333333, "fusion_lat": 0.0, "name": "5f1233716aafdf7a6a8662a17dedca51", "bike_id": "5f1233716aafdf7a6a8662a17dedca51", "type": "electric_bike", "rental_uris": {"android": "https://dc.lft.to/lastmile_qr_scan", "ios": "https://dc.lft.to/lastmile_qr_scan"}, "fusion_lon": 0.0}, {"is_reserved": 0, "is_disabled": 0, "lon": -77.043449, "lat": 38.913494, "fusion_lat": 0.0, "name": "7e37e1d2675ab932a0b3a3356f2e494a", "bike_id": "7e37e1d2675ab932a0b3a3356f2e494a", "type": "electric_scooter", "rental_uris": {"android": "https://dc.lft.to/lastmile_qr_scan", "ios": "https://dc.lft.to/lastmile_qr_scan"}, "fusion_lon": 0.0}, {"is_reserved": 0, "is_disabled": 0, "lon": -77.0443195, "lat": 38.897333333333336, "fusion_lat": 0.0, "name": "c54957c514b7eaf74c8c105d0c9c076e", "bike_id": "c54957c514b7eaf74c8c105d0c9c076e", "type": "electric_scooter", "rental_uris": {"android": "https://dc.lft.to/lastmile_qr_scan", "ios": "https://dc.lft.to/lastmile_qr_scan"}, "fusion_lon": 0.0}, {"is_reserved": 0, "is_disabled": 0, "lon": -76.97939716666667, "lat": 38.87062533333334, "fusion_lat": 0.0, "name": "d870f6d0b07982d864a3b6126c4f2dfc", "bike_id": "d870f6d0b07982d864a3b6126c4f2dfc", "type": "electric_scooter", "rental_uris": {"android": "https://dc.lft.to/lastmile_qr_scan", "ios": "https://dc.lft.to/lastmile_qr_scan"}, "fusion_lon": 0.0}, {"is_reserved": 0, "is_disabled": 0, "lon": -77.01249083333333, "lat": 38.908603166666666, "fusion_lat": 0.0, "name": "647094b176e1116eb903d33caeb43833", "bike_id": "647094b176e1116eb903d33caeb43833", "type": "electric_scooter", "rental_uris": {"android": "https://dc.lft.to/lastmile_qr_scan", "ios": "https://dc.lft.to/lastmile_qr_scan"}, "fusion_lon": 0.0}, {"is_reserved": 0, "is_disabled": 0, "lon": -77.0425705, "lat": 38.925342, "fusion_lat": 0.0, "name": "1b3a028b82ffd3a4102ec1f4f4c34494", "bike_id": "1b3a028b82ffd3a4102ec1f4f4c34494", "type": "electric_scooter", "rental_uris": {"android": "https://dc.lft.to/lastmile_qr_scan", "ios": "https://dc.lft.to/lastmile_qr_scan"}, "fusion_lon": 0.0}, {"is_reserved": 0, "is_disabled": 0, "lon": -77.00582733333333, "lat": 38.8827255, "fusion_lat": 0.0, "name": "95bfcac6eff08724be2004adc7543278", "bike_id": "95bfcac6eff08724be2004adc7543278", "type": "electric_scooter", "rental_uris": {"android": "https://dc.lft.to/lastmile_qr_scan", "ios": "https://dc.lft.to/lastmile_qr_scan"}, "fusion_lon": 0.0}, {"is_reserved": 0, "is_disabled": 0, "lon": -77.04042283333334, "lat": 38.91770916666667, "fusion_lat": 0.0, "name": "101b9cc3326f516575a6337e0e2705f9", "bike_id": "101b9cc3326f516575a6337e0e2705f9", "type": "electric_scooter", "rental_uris": {"android": "https://dc.lft.to/lastmile_qr_scan", "ios": "https://dc.lft.to/lastmile_qr_scan"}, "fusion_lon": 0.0}, {"is_reserved": 0, "is_disabled": 0, "lon": -76.97658133333333, "lat": 38.87505483333333, "fusion_lat": 0.0, "name": "d537bb265277041ccb62a9005dc23595", "bike_id": "d537bb265277041ccb62a9005dc23595", "type": "electric_scooter", "rental_uris": {"android": "https://dc.lft.to/lastmile_qr_scan", "ios": "https://dc.lft.to/lastmile_qr_scan"}, "fusion_lon": 0.0}, {"is_reserved": 0, "is_disabled": 0, "lon": -77.02762833333334, "lat": 38.89612283333334, "fusion_lat": 0.0, "name": "803e735ca26da8ca37e931a20219d23d", "bike_id": "803e735ca26da8ca37e931a20219d23d", "type": "electric_scooter", "rental_uris": {"android": "https://dc.lft.to/lastmile_qr_scan", "ios": "https://dc.lft.to/lastmile_qr_scan"}, "fusion_lon": 0.0}, {"is_reserved": 0, "is_disabled": 0, "lon": -77.027654, "lat": 38.91709566666667, "fusion_lat": 0.0, "name": "0ea49aa649f7717434811067726b2298", "bike_id": "0ea49aa649f7717434811067726b2298", "type": "electric_scooter", "rental_uris": {"android": "https://dc.lft.to/lastmile_qr_scan", "ios": "https://dc.lft.to/lastmile_qr_scan"}, "fusion_lon": 0.0}, {"is_reserved": 0, "is_disabled": 0, "lon": -77.01284166666667, "lat": 39.00373233333333, "fusion_lat": 0.0, "name": "6439da73d7c508f2a2bcad87bc2229db", "bike_id": "6439da73d7c508f2a2bcad87bc2229db", "type": "electric_bike", "rental_uris": {"android": "https://dc.lft.to/lastmile_qr_scan", "ios": "https://dc.lft.to/lastmile_qr_scan"}, "fusion_lon": 0.0}, {"is_reserved": 0, "is_disabled": 0, "lon": -76.94640583333333, "lat": 38.89864766666667, "fusion_lat": 0.0, "name": "1955bfb324a47a4610233bd79513cb33", "bike_id": "1955bfb324a47a4610233bd79513cb33", "type": "electric_scooter", "rental_uris": {"android": "https://dc.lft.to/lastmile_qr_scan", "ios": "https://dc.lft.to/lastmile_qr_scan"}, "fusion_lon": 0.0}, {"is_reserved": 0, "is_disabled": 0, "lon": -77.0111935, "lat": 38.906521, "fusion_lat": 0.0, "name": "341c1ace0e95fb983741ae9198098b62", "bike_id": "341c1ace0e95fb983741ae9198098b62", "type": "electric_scooter", "rental_uris": {"android": "https://dc.lft.to/lastmile_qr_scan", "ios": "https://dc.lft.to/lastmile_qr_scan"}, "fusion_lon": 0.0}, {"is_reserved": 0, "is_disabled": 0, "lon": -77.017425, "lat": 38.97511383333333, "fusion_lat": 0.0, "name": "9cacfe4196e23b3799135f9be3a1ba40", "bike_id": "9cacfe4196e23b3799135f9be3a1ba40", "type": "electric_scooter", "rental_uris": {"android": "https://dc.lft.to/lastmile_qr_scan", "ios": "https://dc.lft.to/lastmile_qr_scan"}, "fusion_lon": 0.0}, {"is_reserved": 0, "is_disabled": 0, "lon": -77.00954633333333, "lat": 38.876292666666664, "fusion_lat": 0.0, "name": "d17eb87904a9b845a3403e04f2b26eab", "bike_id": "d17eb87904a9b845a3403e04f2b26eab", "type": "electric_scooter", "rental_uris": {"android": "https://dc.lft.to/lastmile_qr_scan", "ios": "https://dc.lft.to/lastmile_qr_scan"}, "fusion_lon": 0.0}, {"is_reserved": 0, "is_disabled": 0, "lon": -77.015648, "lat": 38.91858833333333, "fusion_lat": 0.0, "name": "be2b46e6bb5a9cb3409af8d8fefc982b", "bike_id": "be2b46e6bb5a9cb3409af8d8fefc982b", "type": "electric_scooter", "rental_uris": {"android": "https://dc.lft.to/lastmile_qr_scan", "ios": "https://dc.lft.to/lastmile_qr_scan"}, "fusion_lon": 0.0}, {"is_reserved": 0, "is_disabled": 0, "lon": -76.9882805, "lat": 38.89095533333333, "fusion_lat": 0.0, "name": "b69a4f6dfb2124cf6efc454bfc567abb", "bike_id": "b69a4f6dfb2124cf6efc454bfc567abb", "type": "electric_scooter", "rental_uris": {"android": "https://dc.lft.to/lastmile_qr_scan", "ios": "https://dc.lft.to/lastmile_qr_scan"}, "fusion_lon": 0.0}, {"is_reserved": 0, "is_disabled": 0, "lon": -76.981816, "lat": 38.88628716666667, "fusion_lat": 0.0, "name": "9bc3f238f9571b3af7bc261938419ad0", "bike_id": "9bc3f238f9571b3af7bc261938419ad0", "type": "electric_scooter", "rental_uris": {"android": "https://dc.lft.to/lastmile_qr_scan", "ios": "https://dc.lft.to/lastmile_qr_scan"}, "fusion_lon": 0.0}, {"is_reserved": 0, "is_disabled": 0, "lon": -76.9835215, "lat": 38.912536333333335, "fusion_lat": 0.0, "name": "171f2018ee279790060dd2587231187b", "bike_id": "171f2018ee279790060dd2587231187b", "type": "electric_scooter", "rental_uris": {"android": "https://dc.lft.to/lastmile_qr_scan", "ios": "https://dc.lft.to/lastmile_qr_scan"}, "fusion_lon": 0.0}, {"is_reserved": 0, "is_disabled": 0, "lon": -77.03528616666667, "lat": 38.926228333333334, "fusion_lat": 0.0, "name": "75385e57080b562a9c3d37733bb22434", "bike_id": "75385e57080b562a9c3d37733bb22434", "type": "electric_scooter", "rental_uris": {"android": "https://dc.lft.to/lastmile_qr_scan", "ios": "https://dc.lft.to/lastmile_qr_scan"}, "fusion_lon": 0.0}, {"is_reserved": 0, "is_disabled": 0, "lon": -77.03728466666666, "lat": 38.918206166666664, "fusion_lat": 0.0, "name": "4a6a27daa334c66a70c6de4e7fec19ca", "bike_id": "4a6a27daa334c66a70c6de4e7fec19ca", "type": "electric_scooter", "rental_uris": {"android": "https://dc.lft.to/lastmile_qr_scan", "ios": "https://dc.lft.to/lastmile_qr_scan"}, "fusion_lon": 0.0}, {"is_reserved": 0, "is_disabled": 0, "lon": -76.98411566666667, "lat": 38.915890166666664, "fusion_lat": 0.0, "name": "4719111967779316d9b94e6bf019dea7", "bike_id": "4719111967779316d9b94e6bf019dea7", "type": "electric_scooter", "rental_uris": {"android": "https://dc.lft.to/lastmile_qr_scan", "ios": "https://dc.lft.to/lastmile_qr_scan"}, "fusion_lon": 0.0}, {"is_reserved": 0, "is_disabled": 0, "lon": -77.03520516666667, "lat": 38.92193316666667, "fusion_lat": 0.0, "name": "36739baeded43ab4459d69a80f1a9088", "bike_id": "36739baeded43ab4459d69a80f1a9088", "type": "electric_scooter", "rental_uris": {"android": "https://dc.lft.to/lastmile_qr_scan", "ios": "https://dc.lft.to/lastmile_qr_scan"}, "fusion_lon": 0.0}, {"is_reserved": 0, "is_disabled": 0, "lon": -77.03043633333333, "lat": 38.88431166666667, "fusion_lat": 0.0, "name": "7e4cf501a9f3e2979efcfb27da9ff2c4", "bike_id": "7e4cf501a9f3e2979efcfb27da9ff2c4", "type": "electric_scooter", "rental_uris": {"android": "https://dc.lft.to/lastmile_qr_scan", "ios": "https://dc.lft.to/lastmile_qr_scan"}, "fusion_lon": 0.0}, {"is_reserved": 0, "is_disabled": 0, "lon": -77.13934566666667, "lat": 38.8467095, "fusion_lat": 0.0, "name": "e2fb7ddb538918ee583ab5478ac55083", "bike_id": "e2fb7ddb538918ee583ab5478ac55083", "type": "electric_bike", "rental_uris": {"android": "https://dc.lft.to/lastmile_qr_scan", "ios": "https://dc.lft.to/lastmile_qr_scan"}, "fusion_lon": 0.0}, {"is_reserved": 0, "is_disabled": 0, "lon": -77.02133333333333, "lat": 38.9241885, "fusion_lat": 0.0, "name": "7600aa443b8dc9b441c4bff6b6e154d9", "bike_id": "7600aa443b8dc9b441c4bff6b6e154d9", "type": "electric_scooter", "rental_uris": {"android": "https://dc.lft.to/lastmile_qr_scan", "ios": "https://dc.lft.to/lastmile_qr_scan"}, "fusion_lon": 0.0}, {"is_reserved": 0, "is_disabled": 0, "lon": -77.031398, "lat": 38.90110766666667, "fusion_lat": 0.0, "name": "c6ffe6361079d6aec2203a9ec2239fc5", "bike_id": "c6ffe6361079d6aec2203a9ec2239fc5", "type": "electric_scooter", "rental_uris": {"android": "https://dc.lft.to/lastmile_qr_scan", "ios": "https://dc.lft.to/lastmile_qr_scan"}, "fusion_lon": 0.0}, {"is_reserved": 0, "is_disabled": 0, "lon": -76.986731, "lat": 38.8996145, "fusion_lat": 0.0, "name": "5f6496ae8c54cc9e3ac50d54ac6c6c8a", "bike_id": "5f6496ae8c54cc9e3ac50d54ac6c6c8a", "type": "electric_bike", "rental_uris": {"android": "https://dc.lft.to/lastmile_qr_scan", "ios": "https://dc.lft.to/lastmile_qr_scan"}, "fusion_lon": 0.0}, {"is_reserved": 0, "is_disabled": 0, "lon": -77.044875, "lat": 38.90011166666667, "fusion_lat": 0.0, "name": "4a4f6fec73acc456314b4062981f9b99", "bike_id": "4a4f6fec73acc456314b4062981f9b99", "type": "electric_scooter", "rental_uris": {"android": "https://dc.lft.to/lastmile_qr_scan", "ios": "https://dc.lft.to/lastmile_qr_scan"}, "fusion_lon": 0.0}, {"is_reserved": 0, "is_disabled": 0, "lon": -77.02207283333334, "lat": 38.90103783333333, "fusion_lat": 0.0, "name": "21f7584914bdddb8ca796de3f8b277c5", "bike_id": "21f7584914bdddb8ca796de3f8b277c5", "type": "electric_scooter", "rental_uris": {"android": "https://dc.lft.to/lastmile_qr_scan", "ios": "https://dc.lft.to/lastmile_qr_scan"}, "fusion_lon": 0.0}, {"is_reserved": 0, "is_disabled": 0, "lon": -77.0684665, "lat": 38.917364, "fusion_lat": 0.0, "name": "68fd52a02e7bc0461592da794739f163", "bike_id": "68fd52a02e7bc0461592da794739f163", "type": "electric_scooter", "rental_uris": {"android": "https://dc.lft.to/lastmile_qr_scan", "ios": "https://dc.lft.to/lastmile_qr_scan"}, "fusion_lon": 0.0}, {"is_reserved": 0, "is_disabled": 0, "lon": -76.9770155, "lat": 38.822087, "fusion_lat": 0.0, "name": "e2f16a5a599679b7a5f1deace5eddafb", "bike_id": "e2f16a5a599679b7a5f1deace5eddafb", "type": "electric_bike", "rental_uris": {"android": "https://dc.lft.to/lastmile_qr_scan", "ios": "https://dc.lft.to/lastmile_qr_scan"}, "fusion_lon": 0.0}, {"is_reserved": 0, "is_disabled": 0, "lon": -77.07158316666667, "lat": 38.95850216666667, "fusion_lat": 0.0, "name": "050542a5686c6e8d6771954ec78a0f52", "bike_id": "050542a5686c6e8d6771954ec78a0f52", "type": "electric_scooter", "rental_uris": {"android": "https://dc.lft.to/lastmile_qr_scan", "ios": "https://dc.lft.to/lastmile_qr_scan"}, "fusion_lon": 0.0}, {"is_reserved": 0, "is_disabled": 0, "lon": -77.02103983333333, "lat": 38.92141066666667, "fusion_lat": 0.0, "name": "3a6f4355112d6e19a4d5d81182c8d105", "bike_id": "3a6f4355112d6e19a4d5d81182c8d105", "type": "electric_scooter", "rental_uris": {"android": "https://dc.lft.to/lastmile_qr_scan", "ios": "https://dc.lft.to/lastmile_qr_scan"}, "fusion_lon": 0.0}, {"is_reserved": 0, "is_disabled": 0, "lon": -77.01807183333334, "lat": 38.91411383333333, "fusion_lat": 0.0, "name": "1b9760c38ea08c4eb714ea0d5f9ff854", "bike_id": "1b9760c38ea08c4eb714ea0d5f9ff854", "type": "electric_scooter", "rental_uris": {"android": "https://dc.lft.to/lastmile_qr_scan", "ios": "https://dc.lft.to/lastmile_qr_scan"}, "fusion_lon": 0.0}, {"is_reserved": 0, "is_disabled": 0, "lon": -76.998439, "lat": 38.896196833333335, "fusion_lat": 0.0, "name": "cfee97db2c632d5a27c3b6764b664b8e", "bike_id": "cfee97db2c632d5a27c3b6764b664b8e", "type": "electric_scooter", "rental_uris": {"android": "https://dc.lft.to/lastmile_qr_scan", "ios": "https://dc.lft.to/lastmile_qr_scan"}, "fusion_lon": 0.0}, {"is_reserved": 0, "is_disabled": 0, "lon": -77.02289816666666, "lat": 38.911728833333335, "fusion_lat": 0.0, "name": "50cad63d7a89e4d1747b79752cc51e43", "bike_id": "50cad63d7a89e4d1747b79752cc51e43", "type": "electric_scooter", "rental_uris": {"android": "https://dc.lft.to/lastmile_qr_scan", "ios": "https://dc.lft.to/lastmile_qr_scan"}, "fusion_lon": 0.0}, {"is_reserved": 0, "is_disabled": 0, "lon": -77.02581, "lat": 38.9134145, "fusion_lat": 0.0, "name": "7bf41372ab9f74f17a73a1137415bd0f", "bike_id": "7bf41372ab9f74f17a73a1137415bd0f", "type": "electric_scooter", "rental_uris": {"android": "https://dc.lft.to/lastmile_qr_scan", "ios": "https://dc.lft.to/lastmile_qr_scan"}, "fusion_lon": 0.0}, {"is_reserved": 0, "is_disabled": 0, "lon": -77.0038745, "lat": 38.998621166666666, "fusion_lat": 0.0, "name": "a79694b10495aa7cb819f65de4ffa60a", "bike_id": "a79694b10495aa7cb819f65de4ffa60a", "type": "electric_bike", "rental_uris": {"android": "https://dc.lft.to/lastmile_qr_scan", "ios": "https://dc.lft.to/lastmile_qr_scan"}, "fusion_lon": 0.0}, {"is_reserved": 0, "is_disabled": 0, "lon": -77.0107945, "lat": 38.894881166666664, "fusion_lat": 0.0, "name": "dfebbd43b354052bd8630d5a0b84e921", "bike_id": "dfebbd43b354052bd8630d5a0b84e921", "type": "electric_scooter", "rental_uris": {"android": "https://dc.lft.to/lastmile_qr_scan", "ios": "https://dc.lft.to/lastmile_qr_scan"}, "fusion_lon": 0.0}, {"is_reserved": 0, "is_disabled": 0, "lon": -77.0433545, "lat": 38.92499183333334, "fusion_lat": 0.0, "name": "299780eae3e86ccfef2c2bae4b38ce3f", "bike_id": "299780eae3e86ccfef2c2bae4b38ce3f", "type": "electric_scooter", "rental_uris": {"android": "https://dc.lft.to/lastmile_qr_scan", "ios": "https://dc.lft.to/lastmile_qr_scan"}, "fusion_lon": 0.0}, {"is_reserved": 0, "is_disabled": 0, "lon": -77.0126395, "lat": 38.909558, "fusion_lat": 0.0, "name": "f51138e7235e7db5c0b9c0fb4d88aa7f", "bike_id": "f51138e7235e7db5c0b9c0fb4d88aa7f", "type": "electric_scooter", "rental_uris": {"android": "https://dc.lft.to/lastmile_qr_scan", "ios": "https://dc.lft.to/lastmile_qr_scan"}, "fusion_lon": 0.0}, {"is_reserved": 0, "is_disabled": 0, "lon": -77.02540516666667, "lat": 38.89214583333333, "fusion_lat": 0.0, "name": "d7ac68c8f47a0565421ec0247d20b994", "bike_id": "d7ac68c8f47a0565421ec0247d20b994", "type": "electric_scooter", "rental_uris": {"android": "https://dc.lft.to/lastmile_qr_scan", "ios": "https://dc.lft.to/lastmile_qr_scan"}, "fusion_lon": 0.0}, {"is_reserved": 0, "is_disabled": 0, "lon": -77.07249633333333, "lat": 38.907792, "fusion_lat": 0.0, "name": "a7dce7520e12791a46a90c99edfb34d5", "bike_id": "a7dce7520e12791a46a90c99edfb34d5", "type": "electric_scooter", "rental_uris": {"android": "https://dc.lft.to/lastmile_qr_scan", "ios": "https://dc.lft.to/lastmile_qr_scan"}, "fusion_lon": 0.0}, {"is_reserved": 0, "is_disabled": 0, "lon": -77.02669833333333, "lat": 38.921677, "fusion_lat": 0.0, "name": "9487b27c791c2aa44b7bdf1642be314c", "bike_id": "9487b27c791c2aa44b7bdf1642be314c", "type": "electric_scooter", "rental_uris": {"android": "https://dc.lft.to/lastmile_qr_scan", "ios": "https://dc.lft.to/lastmile_qr_scan"}, "fusion_lon": 0.0}, {"is_reserved": 0, "is_disabled": 0, "lon": -77.03361766666667, "lat": 38.908090666666666, "fusion_lat": 0.0, "name": "998c9a8b8a6813d6875778e4e7143fe0", "bike_id": "998c9a8b8a6813d6875778e4e7143fe0", "type": "electric_scooter", "rental_uris": {"android": "https://dc.lft.to/lastmile_qr_scan", "ios": "https://dc.lft.to/lastmile_qr_scan"}, "fusion_lon": 0.0}, {"is_reserved": 0, "is_disabled": 0, "lon": -77.044767, "lat": 38.8983035, "fusion_lat": 0.0, "name": "8b9c167aedb511c51b563487b15035b3", "bike_id": "8b9c167aedb511c51b563487b15035b3", "type": "electric_scooter", "rental_uris": {"android": "https://dc.lft.to/lastmile_qr_scan", "ios": "https://dc.lft.to/lastmile_qr_scan"}, "fusion_lon": 0.0}, {"is_reserved": 0, "is_disabled": 0, "lon": -76.98344133333333, "lat": 38.88708316666666, "fusion_lat": 0.0, "name": "5bd80b2b71ef6ab4151eb852d72c1278", "bike_id": "5bd80b2b71ef6ab4151eb852d72c1278", "type": "electric_scooter", "rental_uris": {"android": "https://dc.lft.to/lastmile_qr_scan", "ios": "https://dc.lft.to/lastmile_qr_scan"}, "fusion_lon": 0.0}, {"is_reserved": 0, "is_disabled": 0, "lon": -77.01993183333333, "lat": 38.913604666666664, "fusion_lat": 0.0, "name": "7896ecba87a300cfcb00f16a40ca6b53", "bike_id": "7896ecba87a300cfcb00f16a40ca6b53", "type": "electric_scooter", "rental_uris": {"android": "https://dc.lft.to/lastmile_qr_scan", "ios": "https://dc.lft.to/lastmile_qr_scan"}, "fusion_lon": 0.0}, {"is_reserved": 0, "is_disabled": 0, "lon": -77.044916, "lat": 38.913599, "fusion_lat": 0.0, "name": "03b3978d06a0c818c55a8c043c05b95a", "bike_id": "03b3978d06a0c818c55a8c043c05b95a", "type": "electric_scooter", "rental_uris": {"android": "https://dc.lft.to/lastmile_qr_scan", "ios": "https://dc.lft.to/lastmile_qr_scan"}, "fusion_lon": 0.0}, {"is_reserved": 0, "is_disabled": 0, "lon": -77.02305733333333, "lat": 38.91951266666667, "fusion_lat": 0.0, "name": "25163447db6d583b67e9f0c440427d91", "bike_id": "25163447db6d583b67e9f0c440427d91", "type": "electric_scooter", "rental_uris": {"android": "https://dc.lft.to/lastmile_qr_scan", "ios": "https://dc.lft.to/lastmile_qr_scan"}, "fusion_lon": 0.0}, {"is_reserved": 0, "is_disabled": 0, "lon": -77.0399955, "lat": 38.92873816666667, "fusion_lat": 0.0, "name": "62e8b8daa39fd1c797676132cbd145e7", "bike_id": "62e8b8daa39fd1c797676132cbd145e7", "type": "electric_scooter", "rental_uris": {"android": "https://dc.lft.to/lastmile_qr_scan", "ios": "https://dc.lft.to/lastmile_qr_scan"}, "fusion_lon": 0.0}, {"is_reserved": 0, "is_disabled": 0, "lon": -76.98837983333334, "lat": 38.90040066666667, "fusion_lat": 0.0, "name": "6fcdb1d40f37a53fe7c8445c01bbcd90", "bike_id": "6fcdb1d40f37a53fe7c8445c01bbcd90", "type": "electric_scooter", "rental_uris": {"android": "https://dc.lft.to/lastmile_qr_scan", "ios": "https://dc.lft.to/lastmile_qr_scan"}, "fusion_lon": 0.0}, {"is_reserved": 0, "is_disabled": 0, "lon": -77.04433266666666, "lat": 38.9114205, "fusion_lat": 0.0, "name": "273a2fe3b8e4641cc573772b7daa9399", "bike_id": "273a2fe3b8e4641cc573772b7daa9399", "type": "electric_scooter", "rental_uris": {"android": "https://dc.lft.to/lastmile_qr_scan", "ios": "https://dc.lft.to/lastmile_qr_scan"}, "fusion_lon": 0.0}, {"is_reserved": 0, "is_disabled": 0, "lon": -77.023867, "lat": 38.916708166666666, "fusion_lat": 0.0, "name": "20980b1931a2c21e266257e2f46e42b8", "bike_id": "20980b1931a2c21e266257e2f46e42b8", "type": "electric_scooter", "rental_uris": {"android": "https://dc.lft.to/lastmile_qr_scan", "ios": "https://dc.lft.to/lastmile_qr_scan"}, "fusion_lon": 0.0}, {"is_reserved": 0, "is_disabled": 0, "lon": -77.04535716666666, "lat": 38.900567, "fusion_lat": 0.0, "name": "d7d65580d1b0ff72dfc62052a322c82b", "bike_id": "d7d65580d1b0ff72dfc62052a322c82b", "type": "electric_scooter", "rental_uris": {"android": "https://dc.lft.to/lastmile_qr_scan", "ios": "https://dc.lft.to/lastmile_qr_scan"}, "fusion_lon": 0.0}, {"is_reserved": 0, "is_disabled": 0, "lon": -77.040579, "lat": 38.91766416666667, "fusion_lat": 0.0, "name": "70e39bdee6f691a5d3496649ab70a789", "bike_id": "70e39bdee6f691a5d3496649ab70a789", "type": "electric_scooter", "rental_uris": {"android": "https://dc.lft.to/lastmile_qr_scan", "ios": "https://dc.lft.to/lastmile_qr_scan"}, "fusion_lon": 0.0}, {"is_reserved": 0, "is_disabled": 0, "lon": -77.01437066666666, "lat": 38.912623333333336, "fusion_lat": 0.0, "name": "a5b5a827d5af0dbe9bd567e92f007854", "bike_id": "a5b5a827d5af0dbe9bd567e92f007854", "type": "electric_scooter", "rental_uris": {"android": "https://dc.lft.to/lastmile_qr_scan", "ios": "https://dc.lft.to/lastmile_qr_scan"}, "fusion_lon": 0.0}, {"is_reserved": 0, "is_disabled": 0, "lon": -77.03864233333333, "lat": 38.91251483333333, "fusion_lat": 0.0, "name": "80290b54cd3d54123eb1ca0d8d3b25e5", "bike_id": "80290b54cd3d54123eb1ca0d8d3b25e5", "type": "electric_scooter", "rental_uris": {"android": "https://dc.lft.to/lastmile_qr_scan", "ios": "https://dc.lft.to/lastmile_qr_scan"}, "fusion_lon": 0.0}, {"is_reserved": 0, "is_disabled": 0, "lon": -77.02964916666667, "lat": 38.9269, "fusion_lat": 0.0, "name": "e79c9bf4397114ff5bc68cdca83d23e1", "bike_id": "e79c9bf4397114ff5bc68cdca83d23e1", "type": "electric_scooter", "rental_uris": {"android": "https://dc.lft.to/lastmile_qr_scan", "ios": "https://dc.lft.to/lastmile_qr_scan"}, "fusion_lon": 0.0}, {"is_reserved": 0, "is_disabled": 0, "lon": -77.02054716666666, "lat": 38.91905466666667, "fusion_lat": 0.0, "name": "fe09a230a634a120a8da251c72f0fc88", "bike_id": "fe09a230a634a120a8da251c72f0fc88", "type": "electric_scooter", "rental_uris": {"android": "https://dc.lft.to/lastmile_qr_scan", "ios": "https://dc.lft.to/lastmile_qr_scan"}, "fusion_lon": 0.0}, {"is_reserved": 0, "is_disabled": 0, "lon": -77.01867416666667, "lat": 38.9515045, "fusion_lat": 0.0, "name": "da55f3de0932e0cb1c65b66c64ce7848", "bike_id": "da55f3de0932e0cb1c65b66c64ce7848", "type": "electric_scooter", "rental_uris": {"android": "https://dc.lft.to/lastmile_qr_scan", "ios": "https://dc.lft.to/lastmile_qr_scan"}, "fusion_lon": 0.0}, {"is_reserved": 0, "is_disabled": 0, "lon": -76.99714816666666, "lat": 38.93229566666667, "fusion_lat": 0.0, "name": "48a270ef5e4979ddc6412c477194d6dc", "bike_id": "48a270ef5e4979ddc6412c477194d6dc", "type": "electric_scooter", "rental_uris": {"android": "https://dc.lft.to/lastmile_qr_scan", "ios": "https://dc.lft.to/lastmile_qr_scan"}, "fusion_lon": 0.0}, {"is_reserved": 0, "is_disabled": 0, "lon": -77.04760733333333, "lat": 38.917724166666666, "fusion_lat": 0.0, "name": "83af93a345d85f9c540faadae1a69abb", "bike_id": "83af93a345d85f9c540faadae1a69abb", "type": "electric_scooter", "rental_uris": {"android": "https://dc.lft.to/lastmile_qr_scan", "ios": "https://dc.lft.to/lastmile_qr_scan"}, "fusion_lon": 0.0}, {"is_reserved": 0, "is_disabled": 0, "lon": -77.03796816666667, "lat": 38.9122155, "fusion_lat": 0.0, "name": "3cd8a9c604a9af4fc77364fb6edb2a01", "bike_id": "3cd8a9c604a9af4fc77364fb6edb2a01", "type": "electric_scooter", "rental_uris": {"android": "https://dc.lft.to/lastmile_qr_scan", "ios": "https://dc.lft.to/lastmile_qr_scan"}, "fusion_lon": 0.0}, {"is_reserved": 0, "is_disabled": 0, "lon": -77.00980616666666, "lat": 38.90378, "fusion_lat": 0.0, "name": "6296736c3ed193da592691b0efaf3a12", "bike_id": "6296736c3ed193da592691b0efaf3a12", "type": "electric_scooter", "rental_uris": {"android": "https://dc.lft.to/lastmile_qr_scan", "ios": "https://dc.lft.to/lastmile_qr_scan"}, "fusion_lon": 0.0}, {"is_reserved": 0, "is_disabled": 0, "lon": -77.0728305, "lat": 38.93027583333333, "fusion_lat": 0.0, "name": "b0fc9c5ee2d2b4bed18afc338d62c2e3", "bike_id": "b0fc9c5ee2d2b4bed18afc338d62c2e3", "type": "electric_scooter", "rental_uris": {"android": "https://dc.lft.to/lastmile_qr_scan", "ios": "https://dc.lft.to/lastmile_qr_scan"}, "fusion_lon": 0.0}, {"is_reserved": 0, "is_disabled": 0, "lon": -77.03327883333333, "lat": 38.901293, "fusion_lat": 0.0, "name": "98de0e3a8959d94aff31a407c4ec0519", "bike_id": "98de0e3a8959d94aff31a407c4ec0519", "type": "electric_scooter", "rental_uris": {"android": "https://dc.lft.to/lastmile_qr_scan", "ios": "https://dc.lft.to/lastmile_qr_scan"}, "fusion_lon": 0.0}, {"is_reserved": 0, "is_disabled": 0, "lon": -77.00142433333333, "lat": 38.900135666666664, "fusion_lat": 0.0, "name": "84387722dda187fe4fbe3229e019f0ca", "bike_id": "84387722dda187fe4fbe3229e019f0ca", "type": "electric_scooter", "rental_uris": {"android": "https://dc.lft.to/lastmile_qr_scan", "ios": "https://dc.lft.to/lastmile_qr_scan"}, "fusion_lon": 0.0}, {"is_reserved": 0, "is_disabled": 0, "lon": -77.02005116666666, "lat": 38.90254083333333, "fusion_lat": 0.0, "name": "c7d4c31bec4cd487c1cdb5b0db1deabd", "bike_id": "c7d4c31bec4cd487c1cdb5b0db1deabd", "type": "electric_scooter", "rental_uris": {"android": "https://dc.lft.to/lastmile_qr_scan", "ios": "https://dc.lft.to/lastmile_qr_scan"}, "fusion_lon": 0.0}, {"is_reserved": 0, "is_disabled": 0, "lon": -77.07471016666666, "lat": 38.90644666666667, "fusion_lat": 0.0, "name": "74ed4c57b1136794018a328337fc065c", "bike_id": "74ed4c57b1136794018a328337fc065c", "type": "electric_scooter", "rental_uris": {"android": "https://dc.lft.to/lastmile_qr_scan", "ios": "https://dc.lft.to/lastmile_qr_scan"}, "fusion_lon": 0.0}, {"is_reserved": 0, "is_disabled": 0, "lon": -77.01572366666667, "lat": 38.874681, "fusion_lat": 0.0, "name": "11e6f26404ab1551a4feeb0c57ecae6e", "bike_id": "11e6f26404ab1551a4feeb0c57ecae6e", "type": "electric_scooter", "rental_uris": {"android": "https://dc.lft.to/lastmile_qr_scan", "ios": "https://dc.lft.to/lastmile_qr_scan"}, "fusion_lon": 0.0}, {"is_reserved": 0, "is_disabled": 0, "lon": -77.01748183333333, "lat": 38.8858885, "fusion_lat": 0.0, "name": "fbd32cdd41d1e057db6a9fbf5d08074c", "bike_id": "fbd32cdd41d1e057db6a9fbf5d08074c", "type": "electric_scooter", "rental_uris": {"android": "https://dc.lft.to/lastmile_qr_scan", "ios": "https://dc.lft.to/lastmile_qr_scan"}, "fusion_lon": 0.0}, {"is_reserved": 0, "is_disabled": 0, "lon": -77.0268335, "lat": 38.90227183333333, "fusion_lat": 0.0, "name": "93156c5504232a9de234a7941c524e34", "bike_id": "93156c5504232a9de234a7941c524e34", "type": "electric_scooter", "rental_uris": {"android": "https://dc.lft.to/lastmile_qr_scan", "ios": "https://dc.lft.to/lastmile_qr_scan"}, "fusion_lon": 0.0}, {"is_reserved": 0, "is_disabled": 0, "lon": -77.03237416666667, "lat": 38.928641166666665, "fusion_lat": 0.0, "name": "cb70286b8d93bb34993e07418b12ba82", "bike_id": "cb70286b8d93bb34993e07418b12ba82", "type": "electric_scooter", "rental_uris": {"android": "https://dc.lft.to/lastmile_qr_scan", "ios": "https://dc.lft.to/lastmile_qr_scan"}, "fusion_lon": 0.0}, {"is_reserved": 0, "is_disabled": 0, "lon": -77.03795566666666, "lat": 38.9256715, "fusion_lat": 0.0, "name": "57d7147d2a756754c15f5bfacc0a7030", "bike_id": "57d7147d2a756754c15f5bfacc0a7030", "type": "electric_scooter", "rental_uris": {"android": "https://dc.lft.to/lastmile_qr_scan", "ios": "https://dc.lft.to/lastmile_qr_scan"}, "fusion_lon": 0.0}, {"is_reserved": 0, "is_disabled": 0, "lon": -77.0386425, "lat": 38.91251666666667, "fusion_lat": 0.0, "name": "0325511b126c0ea15d3d107287069a21", "bike_id": "0325511b126c0ea15d3d107287069a21", "type": "electric_scooter", "rental_uris": {"android": "https://dc.lft.to/lastmile_qr_scan", "ios": "https://dc.lft.to/lastmile_qr_scan"}, "fusion_lon": 0.0}, {"is_reserved": 0, "is_disabled": 0, "lon": -77.03801166666666, "lat": 38.90386916666667, "fusion_lat": 0.0, "name": "4491c79e0b94b31ff9f002aa9b06b0a5", "bike_id": "4491c79e0b94b31ff9f002aa9b06b0a5", "type": "electric_scooter", "rental_uris": {"android": "https://dc.lft.to/lastmile_qr_scan", "ios": "https://dc.lft.to/lastmile_qr_scan"}, "fusion_lon": 0.0}, {"is_reserved": 0, "is_disabled": 0, "lon": -77.057112, "lat": 38.9053605, "fusion_lat": 0.0, "name": "a752f7191724756e97e229aa2748b6d3", "bike_id": "a752f7191724756e97e229aa2748b6d3", "type": "electric_scooter", "rental_uris": {"android": "https://dc.lft.to/lastmile_qr_scan", "ios": "https://dc.lft.to/lastmile_qr_scan"}, "fusion_lon": 0.0}, {"is_reserved": 0, "is_disabled": 0, "lon": -77.02602483333334, "lat": 38.903379, "fusion_lat": 0.0, "name": "eca819c8c6a6b159ca765a3ee6412747", "bike_id": "eca819c8c6a6b159ca765a3ee6412747", "type": "electric_scooter", "rental_uris": {"android": "https://dc.lft.to/lastmile_qr_scan", "ios": "https://dc.lft.to/lastmile_qr_scan"}, "fusion_lon": 0.0}, {"is_reserved": 0, "is_disabled": 0, "lon": -77.04180266666667, "lat": 38.907295, "fusion_lat": 0.0, "name": "8d266cffb09cd3049f64859f0fedbe95", "bike_id": "8d266cffb09cd3049f64859f0fedbe95", "type": "electric_scooter", "rental_uris": {"android": "https://dc.lft.to/lastmile_qr_scan", "ios": "https://dc.lft.to/lastmile_qr_scan"}, "fusion_lon": 0.0}, {"is_reserved": 0, "is_disabled": 0, "lon": -77.00536016666666, "lat": 38.874685166666666, "fusion_lat": 0.0, "name": "82b801ae7a3c649acd93873f3c9542c4", "bike_id": "82b801ae7a3c649acd93873f3c9542c4", "type": "electric_scooter", "rental_uris": {"android": "https://dc.lft.to/lastmile_qr_scan", "ios": "https://dc.lft.to/lastmile_qr_scan"}, "fusion_lon": 0.0}, {"is_reserved": 0, "is_disabled": 0, "lon": -77.05165783333334, "lat": 38.90237666666667, "fusion_lat": 0.0, "name": "72f28631848c651a38f2b569f44546f7", "bike_id": "72f28631848c651a38f2b569f44546f7", "type": "electric_scooter", "rental_uris": {"android": "https://dc.lft.to/lastmile_qr_scan", "ios": "https://dc.lft.to/lastmile_qr_scan"}, "fusion_lon": 0.0}, {"is_reserved": 0, "is_disabled": 0, "lon": -77.03468966666667, "lat": 38.9004155, "fusion_lat": 0.0, "name": "d666bcb6a83a065e8ed9fa965f8c7129", "bike_id": "d666bcb6a83a065e8ed9fa965f8c7129", "type": "electric_scooter", "rental_uris": {"android": "https://dc.lft.to/lastmile_qr_scan", "ios": "https://dc.lft.to/lastmile_qr_scan"}, "fusion_lon": 0.0}, {"is_reserved": 0, "is_disabled": 0, "lon": -77.0238205, "lat": 38.930964333333336, "fusion_lat": 0.0, "name": "91720040d637f0ff7803aa1803988034", "bike_id": "91720040d637f0ff7803aa1803988034", "type": "electric_scooter", "rental_uris": {"android": "https://dc.lft.to/lastmile_qr_scan", "ios": "https://dc.lft.to/lastmile_qr_scan"}, "fusion_lon": 0.0}, {"is_reserved": 0, "is_disabled": 0, "lon": -77.005784, "lat": 38.88609666666667, "fusion_lat": 0.0, "name": "e9dc695d401b922cc9ea27510ba5b753", "bike_id": "e9dc695d401b922cc9ea27510ba5b753", "type": "electric_bike", "rental_uris": {"android": "https://dc.lft.to/lastmile_qr_scan", "ios": "https://dc.lft.to/lastmile_qr_scan"}, "fusion_lon": 0.0}, {"is_reserved": 0, "is_disabled": 0, "lon": -77.036424, "lat": 38.927814, "fusion_lat": 0.0, "name": "f29aebf561f47d952d08a5bb3e11ad6e", "bike_id": "f29aebf561f47d952d08a5bb3e11ad6e", "type": "electric_scooter", "rental_uris": {"android": "https://dc.lft.to/lastmile_qr_scan", "ios": "https://dc.lft.to/lastmile_qr_scan"}, "fusion_lon": 0.0}, {"is_reserved": 0, "is_disabled": 0, "lon": -76.99837933333333, "lat": 38.83912683333333, "fusion_lat": 0.0, "name": "7fa29fda3402fed96fcbac7e345f7dc6", "bike_id": "7fa29fda3402fed96fcbac7e345f7dc6", "type": "electric_bike", "rental_uris": {"android": "https://dc.lft.to/lastmile_qr_scan", "ios": "https://dc.lft.to/lastmile_qr_scan"}, "fusion_lon": 0.0}, {"is_reserved": 0, "is_disabled": 0, "lon": -77.08394533333333, "lat": 38.94033816666666, "fusion_lat": 0.0, "name": "5821015cdb7a14a1926ea319abcb26ae", "bike_id": "5821015cdb7a14a1926ea319abcb26ae", "type": "electric_scooter", "rental_uris": {"android": "https://dc.lft.to/lastmile_qr_scan", "ios": "https://dc.lft.to/lastmile_qr_scan"}, "fusion_lon": 0.0}, {"is_reserved": 0, "is_disabled": 0, "lon": -77.03047683333334, "lat": 38.88424033333333, "fusion_lat": 0.0, "name": "925b6cd6da554e34f05c8233a5ae3d25", "bike_id": "925b6cd6da554e34f05c8233a5ae3d25", "type": "electric_scooter", "rental_uris": {"android": "https://dc.lft.to/lastmile_qr_scan", "ios": "https://dc.lft.to/lastmile_qr_scan"}, "fusion_lon": 0.0}, {"is_reserved": 0, "is_disabled": 0, "lon": -77.01609366666666, "lat": 38.899627833333334, "fusion_lat": 0.0, "name": "b5504d9021d49bfe25cd9d48a26611c5", "bike_id": "b5504d9021d49bfe25cd9d48a26611c5", "type": "electric_scooter", "rental_uris": {"android": "https://dc.lft.to/lastmile_qr_scan", "ios": "https://dc.lft.to/lastmile_qr_scan"}, "fusion_lon": 0.0}, {"is_reserved": 0, "is_disabled": 0, "lon": -77.0689875, "lat": 38.907590166666665, "fusion_lat": 0.0, "name": "42f64b63ae7aee70bedd9a3032745997", "bike_id": "42f64b63ae7aee70bedd9a3032745997", "type": "electric_scooter", "rental_uris": {"android": "https://dc.lft.to/lastmile_qr_scan", "ios": "https://dc.lft.to/lastmile_qr_scan"}, "fusion_lon": 0.0}, {"is_reserved": 0, "is_disabled": 0, "lon": -76.98733, "lat": 38.86321233333334, "fusion_lat": 0.0, "name": "467447dd428bf9d188fac05c2082184b", "bike_id": "467447dd428bf9d188fac05c2082184b", "type": "electric_bike", "rental_uris": {"android": "https://dc.lft.to/lastmile_qr_scan", "ios": "https://dc.lft.to/lastmile_qr_scan"}, "fusion_lon": 0.0}, {"is_reserved": 0, "is_disabled": 0, "lon": -76.975663, "lat": 38.872573833333334, "fusion_lat": 0.0, "name": "34db5db771aefa7df71b4347b5d9655e", "bike_id": "34db5db771aefa7df71b4347b5d9655e", "type": "electric_bike", "rental_uris": {"android": "https://dc.lft.to/lastmile_qr_scan", "ios": "https://dc.lft.to/lastmile_qr_scan"}, "fusion_lon": 0.0}, {"is_reserved": 0, "is_disabled": 0, "lon": -76.9910775, "lat": 38.80478083333333, "fusion_lat": 0.0, "name": "d8b2b05bf4712819425eba5371680867", "bike_id": "d8b2b05bf4712819425eba5371680867", "type": "electric_bike", "rental_uris": {"android": "https://dc.lft.to/lastmile_qr_scan", "ios": "https://dc.lft.to/lastmile_qr_scan"}, "fusion_lon": 0.0}, {"is_reserved": 0, "is_disabled": 0, "lon": -77.00202616666667, "lat": 38.902323, "fusion_lat": 0.0, "name": "d40fca990b22cb553c9d45008798039a", "bike_id": "d40fca990b22cb553c9d45008798039a", "type": "electric_scooter", "rental_uris": {"android": "https://dc.lft.to/lastmile_qr_scan", "ios": "https://dc.lft.to/lastmile_qr_scan"}, "fusion_lon": 0.0}, {"is_reserved": 0, "is_disabled": 0, "lon": -77.01083766666666, "lat": 38.89410566666667, "fusion_lat": 0.0, "name": "f16a2799ad2761ea74101547dd7abb79", "bike_id": "f16a2799ad2761ea74101547dd7abb79", "type": "electric_scooter", "rental_uris": {"android": "https://dc.lft.to/lastmile_qr_scan", "ios": "https://dc.lft.to/lastmile_qr_scan"}, "fusion_lon": 0.0}, {"is_reserved": 0, "is_disabled": 0, "lon": -77.03843516666667, "lat": 38.9038995, "fusion_lat": 0.0, "name": "428a026a4c99b7e5d189788473922f5c", "bike_id": "428a026a4c99b7e5d189788473922f5c", "type": "electric_scooter", "rental_uris": {"android": "https://dc.lft.to/lastmile_qr_scan", "ios": "https://dc.lft.to/lastmile_qr_scan"}, "fusion_lon": 0.0}, {"is_reserved": 0, "is_disabled": 0, "lon": -76.97824716666666, "lat": 38.89397866666667, "fusion_lat": 0.0, "name": "9ea3274cab28a0b0e09e61d0c64f1063", "bike_id": "9ea3274cab28a0b0e09e61d0c64f1063", "type": "electric_scooter", "rental_uris": {"android": "https://dc.lft.to/lastmile_qr_scan", "ios": "https://dc.lft.to/lastmile_qr_scan"}, "fusion_lon": 0.0}, {"is_reserved": 0, "is_disabled": 0, "lon": -77.02132983333334, "lat": 38.924117, "fusion_lat": 0.0, "name": "6278ba71f160e8cbd92a446a301c5c4d", "bike_id": "6278ba71f160e8cbd92a446a301c5c4d", "type": "electric_scooter", "rental_uris": {"android": "https://dc.lft.to/lastmile_qr_scan", "ios": "https://dc.lft.to/lastmile_qr_scan"}, "fusion_lon": 0.0}, {"is_reserved": 0, "is_disabled": 0, "lon": -76.98706533333333, "lat": 38.9005955, "fusion_lat": 0.0, "name": "5e0accf83ed54f84b3d6f6c24902435f", "bike_id": "5e0accf83ed54f84b3d6f6c24902435f", "type": "electric_scooter", "rental_uris": {"android": "https://dc.lft.to/lastmile_qr_scan", "ios": "https://dc.lft.to/lastmile_qr_scan"}, "fusion_lon": 0.0}, {"is_reserved": 0, "is_disabled": 0, "lon": -77.03053166666666, "lat": 38.92367433333333, "fusion_lat": 0.0, "name": "c96a425d69e545e09f4b91bc122859b6", "bike_id": "c96a425d69e545e09f4b91bc122859b6", "type": "electric_scooter", "rental_uris": {"android": "https://dc.lft.to/lastmile_qr_scan", "ios": "https://dc.lft.to/lastmile_qr_scan"}, "fusion_lon": 0.0}, {"is_reserved": 0, "is_disabled": 0, "lon": -77.01913683333333, "lat": 38.897248166666664, "fusion_lat": 0.0, "name": "4b57d8000b0e0570fc994a998f2399ce", "bike_id": "4b57d8000b0e0570fc994a998f2399ce", "type": "electric_scooter", "rental_uris": {"android": "https://dc.lft.to/lastmile_qr_scan", "ios": "https://dc.lft.to/lastmile_qr_scan"}, "fusion_lon": 0.0}, {"is_reserved": 0, "is_disabled": 0, "lon": -77.01978783333334, "lat": 38.89900083333333, "fusion_lat": 0.0, "name": "02038a2ec6852fda34f8d99d895bde7e", "bike_id": "02038a2ec6852fda34f8d99d895bde7e", "type": "electric_scooter", "rental_uris": {"android": "https://dc.lft.to/lastmile_qr_scan", "ios": "https://dc.lft.to/lastmile_qr_scan"}, "fusion_lon": 0.0}, {"is_reserved": 0, "is_disabled": 0, "lon": -77.02437166666667, "lat": 38.8974175, "fusion_lat": 0.0, "name": "0286d34bbb8531daea9ce65f94cc245e", "bike_id": "0286d34bbb8531daea9ce65f94cc245e", "type": "electric_scooter", "rental_uris": {"android": "https://dc.lft.to/lastmile_qr_scan", "ios": "https://dc.lft.to/lastmile_qr_scan"}, "fusion_lon": 0.0}, {"is_reserved": 0, "is_disabled": 0, "lon": -77.01680383333333, "lat": 38.87712783333333, "fusion_lat": 0.0, "name": "5d6b8330886d72a12f59a54cccff5c54", "bike_id": "5d6b8330886d72a12f59a54cccff5c54", "type": "electric_scooter", "rental_uris": {"android": "https://dc.lft.to/lastmile_qr_scan", "ios": "https://dc.lft.to/lastmile_qr_scan"}, "fusion_lon": 0.0}, {"is_reserved": 0, "is_disabled": 0, "lon": -77.02242, "lat": 38.924643333333336, "fusion_lat": 0.0, "name": "beedd15f5c304248b88386f29ad3fafb", "bike_id": "beedd15f5c304248b88386f29ad3fafb", "type": "electric_scooter", "rental_uris": {"android": "https://dc.lft.to/lastmile_qr_scan", "ios": "https://dc.lft.to/lastmile_qr_scan"}, "fusion_lon": 0.0}, {"is_reserved": 0, "is_disabled": 0, "lon": -77.01267733333333, "lat": 38.8981695, "fusion_lat": 0.0, "name": "94a47fc8327d752c661b55ccffb3029d", "bike_id": "94a47fc8327d752c661b55ccffb3029d", "type": "electric_scooter", "rental_uris": {"android": "https://dc.lft.to/lastmile_qr_scan", "ios": "https://dc.lft.to/lastmile_qr_scan"}, "fusion_lon": 0.0}, {"is_reserved": 0, "is_disabled": 0, "lon": -77.03845866666667, "lat": 38.926454, "fusion_lat": 0.0, "name": "ffee90204f9c4ccb66b2437daaf1ad61", "bike_id": "ffee90204f9c4ccb66b2437daaf1ad61", "type": "electric_scooter", "rental_uris": {"android": "https://dc.lft.to/lastmile_qr_scan", "ios": "https://dc.lft.to/lastmile_qr_scan"}, "fusion_lon": 0.0}, {"is_reserved": 0, "is_disabled": 0, "lon": -77.02841166666667, "lat": 38.89623733333333, "fusion_lat": 0.0, "name": "5fe28c2d3d2688a132b75732f4082cb0", "bike_id": "5fe28c2d3d2688a132b75732f4082cb0", "type": "electric_scooter", "rental_uris": {"android": "https://dc.lft.to/lastmile_qr_scan", "ios": "https://dc.lft.to/lastmile_qr_scan"}, "fusion_lon": 0.0}, {"is_reserved": 0, "is_disabled": 0, "lon": -76.9545935, "lat": 38.936364833333336, "fusion_lat": 0.0, "name": "958d6a5e6273c7fcbe3e3b1f37fefa6a", "bike_id": "958d6a5e6273c7fcbe3e3b1f37fefa6a", "type": "electric_bike", "rental_uris": {"android": "https://dc.lft.to/lastmile_qr_scan", "ios": "https://dc.lft.to/lastmile_qr_scan"}, "fusion_lon": 0.0}, {"is_reserved": 0, "is_disabled": 0, "lon": -77.06016183333334, "lat": 38.903545333333334, "fusion_lat": 0.0, "name": "c422706c7f1852a3122ff5954d722f73", "bike_id": "c422706c7f1852a3122ff5954d722f73", "type": "electric_scooter", "rental_uris": {"android": "https://dc.lft.to/lastmile_qr_scan", "ios": "https://dc.lft.to/lastmile_qr_scan"}, "fusion_lon": 0.0}, {"is_reserved": 0, "is_disabled": 0, "lon": -77.03337016666667, "lat": 38.919144333333335, "fusion_lat": 0.0, "name": "89ea644ad1bbb5c46fed30cdea06e56e", "bike_id": "89ea644ad1bbb5c46fed30cdea06e56e", "type": "electric_scooter", "rental_uris": {"android": "https://dc.lft.to/lastmile_qr_scan", "ios": "https://dc.lft.to/lastmile_qr_scan"}, "fusion_lon": 0.0}, {"is_reserved": 0, "is_disabled": 0, "lon": -77.07664533333333, "lat": 38.80973066666667, "fusion_lat": 0.0, "name": "92918e2f969705cad3cd2869de0c8424", "bike_id": "92918e2f969705cad3cd2869de0c8424", "type": "electric_bike", "rental_uris": {"android": "https://dc.lft.to/lastmile_qr_scan", "ios": "https://dc.lft.to/lastmile_qr_scan"}, "fusion_lon": 0.0}, {"is_reserved": 0, "is_disabled": 0, "lon": -77.01610133333334, "lat": 38.899687666666665, "fusion_lat": 0.0, "name": "8f7bf204a18e7aa6b3b0be9d0c5cbdac", "bike_id": "8f7bf204a18e7aa6b3b0be9d0c5cbdac", "type": "electric_scooter", "rental_uris": {"android": "https://dc.lft.to/lastmile_qr_scan", "ios": "https://dc.lft.to/lastmile_qr_scan"}, "fusion_lon": 0.0}, {"is_reserved": 0, "is_disabled": 0, "lon": -77.09499683333334, "lat": 38.9448975, "fusion_lat": 0.0, "name": "a278d115f2221e00d238c710fa398264", "bike_id": "a278d115f2221e00d238c710fa398264", "type": "electric_scooter", "rental_uris": {"android": "https://dc.lft.to/lastmile_qr_scan", "ios": "https://dc.lft.to/lastmile_qr_scan"}, "fusion_lon": 0.0}, {"is_reserved": 0, "is_disabled": 0, "lon": -77.02414116666667, "lat": 38.917057166666666, "fusion_lat": 0.0, "name": "143f85a91d0a54ec851f969d6ef1d01e", "bike_id": "143f85a91d0a54ec851f969d6ef1d01e", "type": "electric_scooter", "rental_uris": {"android": "https://dc.lft.to/lastmile_qr_scan", "ios": "https://dc.lft.to/lastmile_qr_scan"}, "fusion_lon": 0.0}, {"is_reserved": 0, "is_disabled": 0, "lon": -77.02111466666666, "lat": 38.906031166666665, "fusion_lat": 0.0, "name": "8836fa635193159e5f38596961e4613f", "bike_id": "8836fa635193159e5f38596961e4613f", "type": "electric_scooter", "rental_uris": {"android": "https://dc.lft.to/lastmile_qr_scan", "ios": "https://dc.lft.to/lastmile_qr_scan"}, "fusion_lon": 0.0}, {"is_reserved": 0, "is_disabled": 0, "lon": -76.98542033333334, "lat": 38.88605416666667, "fusion_lat": 0.0, "name": "84688911c058a94e918d08b568c3a4c8", "bike_id": "84688911c058a94e918d08b568c3a4c8", "type": "electric_scooter", "rental_uris": {"android": "https://dc.lft.to/lastmile_qr_scan", "ios": "https://dc.lft.to/lastmile_qr_scan"}, "fusion_lon": 0.0}, {"is_reserved": 0, "is_disabled": 0, "lon": -77.03349666666666, "lat": 38.89530116666667, "fusion_lat": 0.0, "name": "19f74bf4b348074f5f7ef32874110ddc", "bike_id": "19f74bf4b348074f5f7ef32874110ddc", "type": "electric_scooter", "rental_uris": {"android": "https://dc.lft.to/lastmile_qr_scan", "ios": "https://dc.lft.to/lastmile_qr_scan"}, "fusion_lon": 0.0}, {"is_reserved": 0, "is_disabled": 0, "lon": -77.00536333333334, "lat": 38.87541316666667, "fusion_lat": 0.0, "name": "98519435a85b0a9b6827f45f60bf1753", "bike_id": "98519435a85b0a9b6827f45f60bf1753", "type": "electric_scooter", "rental_uris": {"android": "https://dc.lft.to/lastmile_qr_scan", "ios": "https://dc.lft.to/lastmile_qr_scan"}, "fusion_lon": 0.0}, {"is_reserved": 0, "is_disabled": 0, "lon": -77.0216245, "lat": 38.92605016666667, "fusion_lat": 0.0, "name": "a911db0c497f4c27f65b7781397a7a0c", "bike_id": "a911db0c497f4c27f65b7781397a7a0c", "type": "electric_scooter", "rental_uris": {"android": "https://dc.lft.to/lastmile_qr_scan", "ios": "https://dc.lft.to/lastmile_qr_scan"}, "fusion_lon": 0.0}, {"is_reserved": 0, "is_disabled": 0, "lon": -77.03854883333334, "lat": 38.91655166666666, "fusion_lat": 0.0, "name": "16b6091097133a4b0c60c51c7b9ed199", "bike_id": "16b6091097133a4b0c60c51c7b9ed199", "type": "electric_scooter", "rental_uris": {"android": "https://dc.lft.to/lastmile_qr_scan", "ios": "https://dc.lft.to/lastmile_qr_scan"}, "fusion_lon": 0.0}, {"is_reserved": 0, "is_disabled": 0, "lon": -77.0055695, "lat": 38.874704, "fusion_lat": 0.0, "name": "e1683c4209dadada1ce2d38620f0a010", "bike_id": "e1683c4209dadada1ce2d38620f0a010", "type": "electric_scooter", "rental_uris": {"android": "https://dc.lft.to/lastmile_qr_scan", "ios": "https://dc.lft.to/lastmile_qr_scan"}, "fusion_lon": 0.0}, {"is_reserved": 0, "is_disabled": 0, "lon": -77.02807083333333, "lat": 38.9048425, "fusion_lat": 0.0, "name": "c806c73cc7c5067e176caa2888b3d0f7", "bike_id": "c806c73cc7c5067e176caa2888b3d0f7", "type": "electric_scooter", "rental_uris": {"android": "https://dc.lft.to/lastmile_qr_scan", "ios": "https://dc.lft.to/lastmile_qr_scan"}, "fusion_lon": 0.0}, {"is_reserved": 0, "is_disabled": 0, "lon": -76.99348133333334, "lat": 38.88126666666667, "fusion_lat": 0.0, "name": "d78663780ea1cccfabd6f1e648ba41d5", "bike_id": "d78663780ea1cccfabd6f1e648ba41d5", "type": "electric_scooter", "rental_uris": {"android": "https://dc.lft.to/lastmile_qr_scan", "ios": "https://dc.lft.to/lastmile_qr_scan"}, "fusion_lon": 0.0}, {"is_reserved": 0, "is_disabled": 0, "lon": -77.00727716666667, "lat": 38.87667416666667, "fusion_lat": 0.0, "name": "766592f7471a070a161d0c145d32e3e8", "bike_id": "766592f7471a070a161d0c145d32e3e8", "type": "electric_scooter", "rental_uris": {"android": "https://dc.lft.to/lastmile_qr_scan", "ios": "https://dc.lft.to/lastmile_qr_scan"}, "fusion_lon": 0.0}, {"is_reserved": 0, "is_disabled": 0, "lon": -77.035584, "lat": 38.92689566666667, "fusion_lat": 0.0, "name": "90a32bcd275378a9225d610c0b606675", "bike_id": "90a32bcd275378a9225d610c0b606675", "type": "electric_scooter", "rental_uris": {"android": "https://dc.lft.to/lastmile_qr_scan", "ios": "https://dc.lft.to/lastmile_qr_scan"}, "fusion_lon": 0.0}, {"is_reserved": 0, "is_disabled": 0, "lon": -77.0095615, "lat": 38.876284, "fusion_lat": 0.0, "name": "f2b6bd6d9e8d2370e272caa6ac3a0aa3", "bike_id": "f2b6bd6d9e8d2370e272caa6ac3a0aa3", "type": "electric_scooter", "rental_uris": {"android": "https://dc.lft.to/lastmile_qr_scan", "ios": "https://dc.lft.to/lastmile_qr_scan"}, "fusion_lon": 0.0}, {"is_reserved": 0, "is_disabled": 0, "lon": -77.0319645, "lat": 38.921084666666665, "fusion_lat": 0.0, "name": "d84b85847ac9cb49c2c7403fdae7fe69", "bike_id": "d84b85847ac9cb49c2c7403fdae7fe69", "type": "electric_scooter", "rental_uris": {"android": "https://dc.lft.to/lastmile_qr_scan", "ios": "https://dc.lft.to/lastmile_qr_scan"}, "fusion_lon": 0.0}, {"is_reserved": 0, "is_disabled": 0, "lon": -76.99883416666667, "lat": 38.92329483333333, "fusion_lat": 0.0, "name": "3e5c151dfa70006f520e18e64db3fcfc", "bike_id": "3e5c151dfa70006f520e18e64db3fcfc", "type": "electric_scooter", "rental_uris": {"android": "https://dc.lft.to/lastmile_qr_scan", "ios": "https://dc.lft.to/lastmile_qr_scan"}, "fusion_lon": 0.0}, {"is_reserved": 0, "is_disabled": 0, "lon": -76.979044, "lat": 38.88859033333333, "fusion_lat": 0.0, "name": "08ad10eae3c14a2a7dc65b7968a28593", "bike_id": "08ad10eae3c14a2a7dc65b7968a28593", "type": "electric_scooter", "rental_uris": {"android": "https://dc.lft.to/lastmile_qr_scan", "ios": "https://dc.lft.to/lastmile_qr_scan"}, "fusion_lon": 0.0}, {"is_reserved": 0, "is_disabled": 0, "lon": -77.02293416666667, "lat": 38.914818, "fusion_lat": 0.0, "name": "d78c3db0ef825cb62b781bbce42d25f7", "bike_id": "d78c3db0ef825cb62b781bbce42d25f7", "type": "electric_scooter", "rental_uris": {"android": "https://dc.lft.to/lastmile_qr_scan", "ios": "https://dc.lft.to/lastmile_qr_scan"}, "fusion_lon": 0.0}, {"is_reserved": 0, "is_disabled": 0, "lon": -77.02911116666667, "lat": 38.944476333333334, "fusion_lat": 0.0, "name": "1c8da57acc273d1f07805caff56b4825", "bike_id": "1c8da57acc273d1f07805caff56b4825", "type": "electric_scooter", "rental_uris": {"android": "https://dc.lft.to/lastmile_qr_scan", "ios": "https://dc.lft.to/lastmile_qr_scan"}, "fusion_lon": 0.0}, {"is_reserved": 0, "is_disabled": 0, "lon": -77.00336266666666, "lat": 38.89727, "fusion_lat": 0.0, "name": "ce9aeb5eab5ab9742df7570d0dfb5a65", "bike_id": "ce9aeb5eab5ab9742df7570d0dfb5a65", "type": "electric_scooter", "rental_uris": {"android": "https://dc.lft.to/lastmile_qr_scan", "ios": "https://dc.lft.to/lastmile_qr_scan"}, "fusion_lon": 0.0}, {"is_reserved": 0, "is_disabled": 0, "lon": -77.03144583333334, "lat": 38.9038765, "fusion_lat": 0.0, "name": "ef8d5b9b45d674f6aa2b67830c76e1c4", "bike_id": "ef8d5b9b45d674f6aa2b67830c76e1c4", "type": "electric_bike", "rental_uris": {"android": "https://dc.lft.to/lastmile_qr_scan", "ios": "https://dc.lft.to/lastmile_qr_scan"}, "fusion_lon": 0.0}, {"is_reserved": 0, "is_disabled": 0, "lon": -77.07139183333334, "lat": 38.92018383333333, "fusion_lat": 0.0, "name": "07c33929b0c0d4a487d1824592bf6e07", "bike_id": "07c33929b0c0d4a487d1824592bf6e07", "type": "electric_scooter", "rental_uris": {"android": "https://dc.lft.to/lastmile_qr_scan", "ios": "https://dc.lft.to/lastmile_qr_scan"}, "fusion_lon": 0.0}, {"is_reserved": 0, "is_disabled": 0, "lon": -77.035453, "lat": 38.924012833333336, "fusion_lat": 0.0, "name": "b4155e3c779273c1d43cb50c1c447f08", "bike_id": "b4155e3c779273c1d43cb50c1c447f08", "type": "electric_scooter", "rental_uris": {"android": "https://dc.lft.to/lastmile_qr_scan", "ios": "https://dc.lft.to/lastmile_qr_scan"}, "fusion_lon": 0.0}, {"is_reserved": 0, "is_disabled": 0, "lon": -77.10299816666667, "lat": 38.9265485, "fusion_lat": 0.0, "name": "2d15c8ccdae768b4aa103db47397e251", "bike_id": "2d15c8ccdae768b4aa103db47397e251", "type": "electric_bike", "rental_uris": {"android": "https://dc.lft.to/lastmile_qr_scan", "ios": "https://dc.lft.to/lastmile_qr_scan"}, "fusion_lon": 0.0}, {"is_reserved": 0, "is_disabled": 0, "lon": -77.02985516666666, "lat": 38.9155195, "fusion_lat": 0.0, "name": "d067fe5722d055c08518eb4d422e95f3", "bike_id": "d067fe5722d055c08518eb4d422e95f3", "type": "electric_scooter", "rental_uris": {"android": "https://dc.lft.to/lastmile_qr_scan", "ios": "https://dc.lft.to/lastmile_qr_scan"}, "fusion_lon": 0.0}, {"is_reserved": 0, "is_disabled": 0, "lon": -77.04139833333333, "lat": 38.897458666666665, "fusion_lat": 0.0, "name": "58db2f0319650566726469d78ed5ca75", "bike_id": "58db2f0319650566726469d78ed5ca75", "type": "electric_scooter", "rental_uris": {"android": "https://dc.lft.to/lastmile_qr_scan", "ios": "https://dc.lft.to/lastmile_qr_scan"}, "fusion_lon": 0.0}, {"is_reserved": 0, "is_disabled": 0, "lon": -77.03280883333333, "lat": 38.947494, "fusion_lat": 0.0, "name": "02e2c946712b33b8366e7ef8bcf43679", "bike_id": "02e2c946712b33b8366e7ef8bcf43679", "type": "electric_scooter", "rental_uris": {"android": "https://dc.lft.to/lastmile_qr_scan", "ios": "https://dc.lft.to/lastmile_qr_scan"}, "fusion_lon": 0.0}, {"is_reserved": 0, "is_disabled": 0, "lon": -77.00002583333334, "lat": 38.88880616666667, "fusion_lat": 0.0, "name": "f9366c7b7b9ddda32999edf8e062a56a", "bike_id": "f9366c7b7b9ddda32999edf8e062a56a", "type": "electric_scooter", "rental_uris": {"android": "https://dc.lft.to/lastmile_qr_scan", "ios": "https://dc.lft.to/lastmile_qr_scan"}, "fusion_lon": 0.0}, {"is_reserved": 0, "is_disabled": 0, "lon": -77.02699866666667, "lat": 38.9066985, "fusion_lat": 0.0, "name": "5460bc13619e1061c040ea94c6f31557", "bike_id": "5460bc13619e1061c040ea94c6f31557", "type": "electric_scooter", "rental_uris": {"android": "https://dc.lft.to/lastmile_qr_scan", "ios": "https://dc.lft.to/lastmile_qr_scan"}, "fusion_lon": 0.0}, {"is_reserved": 0, "is_disabled": 0, "lon": -77.00830683333334, "lat": 38.92246083333333, "fusion_lat": 0.0, "name": "bac70011362a2032ffb2fa2e9ea06b69", "bike_id": "bac70011362a2032ffb2fa2e9ea06b69", "type": "electric_scooter", "rental_uris": {"android": "https://dc.lft.to/lastmile_qr_scan", "ios": "https://dc.lft.to/lastmile_qr_scan"}, "fusion_lon": 0.0}, {"is_reserved": 0, "is_disabled": 0, "lon": -77.092011, "lat": 38.917138666666666, "fusion_lat": 0.0, "name": "4533b561ccd6fc9a614bb7b15d36fb7d", "bike_id": "4533b561ccd6fc9a614bb7b15d36fb7d", "type": "electric_scooter", "rental_uris": {"android": "https://dc.lft.to/lastmile_qr_scan", "ios": "https://dc.lft.to/lastmile_qr_scan"}, "fusion_lon": 0.0}, {"is_reserved": 0, "is_disabled": 0, "lon": -77.06349816666666, "lat": 38.92036233333333, "fusion_lat": 0.0, "name": "c621526eb2a4ac34a343ad2d84de1bf6", "bike_id": "c621526eb2a4ac34a343ad2d84de1bf6", "type": "electric_bike", "rental_uris": {"android": "https://dc.lft.to/lastmile_qr_scan", "ios": "https://dc.lft.to/lastmile_qr_scan"}, "fusion_lon": 0.0}, {"is_reserved": 0, "is_disabled": 0, "lon": -77.0209535, "lat": 38.881862166666664, "fusion_lat": 0.0, "name": "e606d3379b4dea1eaf2d77dcb5780202", "bike_id": "e606d3379b4dea1eaf2d77dcb5780202", "type": "electric_scooter", "rental_uris": {"android": "https://dc.lft.to/lastmile_qr_scan", "ios": "https://dc.lft.to/lastmile_qr_scan"}, "fusion_lon": 0.0}, {"is_reserved": 0, "is_disabled": 0, "lon": -77.04551166666667, "lat": 38.90236816666667, "fusion_lat": 0.0, "name": "9466990c6bb238b08994ab29197ceb69", "bike_id": "9466990c6bb238b08994ab29197ceb69", "type": "electric_scooter", "rental_uris": {"android": "https://dc.lft.to/lastmile_qr_scan", "ios": "https://dc.lft.to/lastmile_qr_scan"}, "fusion_lon": 0.0}, {"is_reserved": 0, "is_disabled": 0, "lon": -76.96805266666667, "lat": 38.9451125, "fusion_lat": 0.0, "name": "58045e275441fe4a57437421bc158dbb", "bike_id": "58045e275441fe4a57437421bc158dbb", "type": "electric_bike", "rental_uris": {"android": "https://dc.lft.to/lastmile_qr_scan", "ios": "https://dc.lft.to/lastmile_qr_scan"}, "fusion_lon": 0.0}, {"is_reserved": 0, "is_disabled": 0, "lon": -77.016475, "lat": 38.9095905, "fusion_lat": 0.0, "name": "a37004809ca1cc9943e38b86987f8444", "bike_id": "a37004809ca1cc9943e38b86987f8444", "type": "electric_scooter", "rental_uris": {"android": "https://dc.lft.to/lastmile_qr_scan", "ios": "https://dc.lft.to/lastmile_qr_scan"}, "fusion_lon": 0.0}, {"is_reserved": 0, "is_disabled": 0, "lon": -77.0003535, "lat": 38.885728666666665, "fusion_lat": 0.0, "name": "5bdfa2e7749c04229f91dcb2fd064af1", "bike_id": "5bdfa2e7749c04229f91dcb2fd064af1", "type": "electric_scooter", "rental_uris": {"android": "https://dc.lft.to/lastmile_qr_scan", "ios": "https://dc.lft.to/lastmile_qr_scan"}, "fusion_lon": 0.0}, {"is_reserved": 0, "is_disabled": 0, "lon": -77.03839583333334, "lat": 38.92163683333333, "fusion_lat": 0.0, "name": "888ba5dfb61b8b14938d9e7d670bd738", "bike_id": "888ba5dfb61b8b14938d9e7d670bd738", "type": "electric_scooter", "rental_uris": {"android": "https://dc.lft.to/lastmile_qr_scan", "ios": "https://dc.lft.to/lastmile_qr_scan"}, "fusion_lon": 0.0}, {"is_reserved": 0, "is_disabled": 0, "lon": -77.02412616666666, "lat": 38.9096975, "fusion_lat": 0.0, "name": "a003c8da5224cb4d83292e3801ed6e5d", "bike_id": "a003c8da5224cb4d83292e3801ed6e5d", "type": "electric_scooter", "rental_uris": {"android": "https://dc.lft.to/lastmile_qr_scan", "ios": "https://dc.lft.to/lastmile_qr_scan"}, "fusion_lon": 0.0}, {"is_reserved": 0, "is_disabled": 0, "lon": -77.04678216666667, "lat": 38.902810333333335, "fusion_lat": 0.0, "name": "c0ce1651e566ddf9e1106775cd1feef1", "bike_id": "c0ce1651e566ddf9e1106775cd1feef1", "type": "electric_scooter", "rental_uris": {"android": "https://dc.lft.to/lastmile_qr_scan", "ios": "https://dc.lft.to/lastmile_qr_scan"}, "fusion_lon": 0.0}, {"is_reserved": 0, "is_disabled": 0, "lon": -77.05510816666667, "lat": 38.8949205, "fusion_lat": 0.0, "name": "db7ecdd35b24d301d68619aa50bbd44a", "bike_id": "db7ecdd35b24d301d68619aa50bbd44a", "type": "electric_scooter", "rental_uris": {"android": "https://dc.lft.to/lastmile_qr_scan", "ios": "https://dc.lft.to/lastmile_qr_scan"}, "fusion_lon": 0.0}, {"is_reserved": 0, "is_disabled": 0, "lon": -77.050265, "lat": 38.89734683333333, "fusion_lat": 0.0, "name": "4e9a9ba64ddc84a37051cc308680dbfd", "bike_id": "4e9a9ba64ddc84a37051cc308680dbfd", "type": "electric_scooter", "rental_uris": {"android": "https://dc.lft.to/lastmile_qr_scan", "ios": "https://dc.lft.to/lastmile_qr_scan"}, "fusion_lon": 0.0}, {"is_reserved": 0, "is_disabled": 0, "lon": -77.03212616666667, "lat": 38.89218416666667, "fusion_lat": 0.0, "name": "dbca9f6465fe9ce6d4e48b9f985d5197", "bike_id": "dbca9f6465fe9ce6d4e48b9f985d5197", "type": "electric_scooter", "rental_uris": {"android": "https://dc.lft.to/lastmile_qr_scan", "ios": "https://dc.lft.to/lastmile_qr_scan"}, "fusion_lon": 0.0}, {"is_reserved": 0, "is_disabled": 0, "lon": -76.9339135, "lat": 38.899122166666665, "fusion_lat": 0.0, "name": "5bc1daa7c76c385d771ac457bf488f0b", "bike_id": "5bc1daa7c76c385d771ac457bf488f0b", "type": "electric_scooter", "rental_uris": {"android": "https://dc.lft.to/lastmile_qr_scan", "ios": "https://dc.lft.to/lastmile_qr_scan"}, "fusion_lon": 0.0}, {"is_reserved": 0, "is_disabled": 0, "lon": -77.04659216666667, "lat": 38.90964366666667, "fusion_lat": 0.0, "name": "378b2af98ec0fa34cae7e44af9406dcb", "bike_id": "378b2af98ec0fa34cae7e44af9406dcb", "type": "electric_scooter", "rental_uris": {"android": "https://dc.lft.to/lastmile_qr_scan", "ios": "https://dc.lft.to/lastmile_qr_scan"}, "fusion_lon": 0.0}, {"is_reserved": 0, "is_disabled": 0, "lon": -77.02325933333333, "lat": 38.91798766666667, "fusion_lat": 0.0, "name": "5f00c84743fc35b642fa1e87d4b74c25", "bike_id": "5f00c84743fc35b642fa1e87d4b74c25", "type": "electric_scooter", "rental_uris": {"android": "https://dc.lft.to/lastmile_qr_scan", "ios": "https://dc.lft.to/lastmile_qr_scan"}, "fusion_lon": 0.0}, {"is_reserved": 0, "is_disabled": 0, "lon": -77.048915, "lat": 38.900658, "fusion_lat": 0.0, "name": "ed12955b5880f544a7f6a8392395c882", "bike_id": "ed12955b5880f544a7f6a8392395c882", "type": "electric_scooter", "rental_uris": {"android": "https://dc.lft.to/lastmile_qr_scan", "ios": "https://dc.lft.to/lastmile_qr_scan"}, "fusion_lon": 0.0}, {"is_reserved": 0, "is_disabled": 0, "lon": -77.04768216666666, "lat": 38.912440833333335, "fusion_lat": 0.0, "name": "3ba3c29bb5c1831cc9156e7bbf9d23bc", "bike_id": "3ba3c29bb5c1831cc9156e7bbf9d23bc", "type": "electric_scooter", "rental_uris": {"android": "https://dc.lft.to/lastmile_qr_scan", "ios": "https://dc.lft.to/lastmile_qr_scan"}, "fusion_lon": 0.0}, {"is_reserved": 0, "is_disabled": 0, "lon": -77.00112866666667, "lat": 38.90033666666667, "fusion_lat": 0.0, "name": "4bfd1f294b920ff539d981d147ef16e3", "bike_id": "4bfd1f294b920ff539d981d147ef16e3", "type": "electric_scooter", "rental_uris": {"android": "https://dc.lft.to/lastmile_qr_scan", "ios": "https://dc.lft.to/lastmile_qr_scan"}, "fusion_lon": 0.0}, {"is_reserved": 0, "is_disabled": 0, "lon": -77.04581716666667, "lat": 38.908833666666666, "fusion_lat": 0.0, "name": "8edd4eade4f59411a4a06771a5c65fd1", "bike_id": "8edd4eade4f59411a4a06771a5c65fd1", "type": "electric_scooter", "rental_uris": {"android": "https://dc.lft.to/lastmile_qr_scan", "ios": "https://dc.lft.to/lastmile_qr_scan"}, "fusion_lon": 0.0}, {"is_reserved": 0, "is_disabled": 0, "lon": -77.03852866666666, "lat": 38.9056285, "fusion_lat": 0.0, "name": "1f70670201538b17a03e3e1f64426a2f", "bike_id": "1f70670201538b17a03e3e1f64426a2f", "type": "electric_scooter", "rental_uris": {"android": "https://dc.lft.to/lastmile_qr_scan", "ios": "https://dc.lft.to/lastmile_qr_scan"}, "fusion_lon": 0.0}, {"is_reserved": 0, "is_disabled": 0, "lon": -77.02230716666666, "lat": 38.9247225, "fusion_lat": 0.0, "name": "b0398bc6d8dcbf1ccad54d59f7bd7575", "bike_id": "b0398bc6d8dcbf1ccad54d59f7bd7575", "type": "electric_scooter", "rental_uris": {"android": "https://dc.lft.to/lastmile_qr_scan", "ios": "https://dc.lft.to/lastmile_qr_scan"}, "fusion_lon": 0.0}, {"is_reserved": 0, "is_disabled": 0, "lon": -77.0220205, "lat": 38.91323416666667, "fusion_lat": 0.0, "name": "91e35669d5214956d545508a3abc1ed7", "bike_id": "91e35669d5214956d545508a3abc1ed7", "type": "electric_scooter", "rental_uris": {"android": "https://dc.lft.to/lastmile_qr_scan", "ios": "https://dc.lft.to/lastmile_qr_scan"}, "fusion_lon": 0.0}, {"is_reserved": 0, "is_disabled": 0, "lon": -77.0208045, "lat": 38.9213835, "fusion_lat": 0.0, "name": "f192ec23ac693adf8023f3c1c4c6aecc", "bike_id": "f192ec23ac693adf8023f3c1c4c6aecc", "type": "electric_scooter", "rental_uris": {"android": "https://dc.lft.to/lastmile_qr_scan", "ios": "https://dc.lft.to/lastmile_qr_scan"}, "fusion_lon": 0.0}, {"is_reserved": 0, "is_disabled": 0, "lon": -77.04060683333333, "lat": 38.91767766666667, "fusion_lat": 0.0, "name": "668d517ec80fcacf16e8331462a2d4c9", "bike_id": "668d517ec80fcacf16e8331462a2d4c9", "type": "electric_scooter", "rental_uris": {"android": "https://dc.lft.to/lastmile_qr_scan", "ios": "https://dc.lft.to/lastmile_qr_scan"}, "fusion_lon": 0.0}, {"is_reserved": 0, "is_disabled": 0, "lon": -77.02106833333333, "lat": 39.022943, "fusion_lat": 0.0, "name": "b4e037675a8dab269b5f72d6ded9139c", "bike_id": "b4e037675a8dab269b5f72d6ded9139c", "type": "electric_bike", "rental_uris": {"android": "https://dc.lft.to/lastmile_qr_scan", "ios": "https://dc.lft.to/lastmile_qr_scan"}, "fusion_lon": 0.0}, {"is_reserved": 0, "is_disabled": 0, "lon": -76.9521325, "lat": 38.86551633333333, "fusion_lat": 0.0, "name": "17f4bd98b549e3d6a264315f446fc0d0", "bike_id": "17f4bd98b549e3d6a264315f446fc0d0", "type": "electric_bike", "rental_uris": {"android": "https://dc.lft.to/lastmile_qr_scan", "ios": "https://dc.lft.to/lastmile_qr_scan"}, "fusion_lon": 0.0}, {"is_reserved": 0, "is_disabled": 0, "lon": -77.00357283333334, "lat": 38.896135, "fusion_lat": 0.0, "name": "5ffcc7dc4dbc3066652dec953030f579", "bike_id": "5ffcc7dc4dbc3066652dec953030f579", "type": "electric_scooter", "rental_uris": {"android": "https://dc.lft.to/lastmile_qr_scan", "ios": "https://dc.lft.to/lastmile_qr_scan"}, "fusion_lon": 0.0}, {"is_reserved": 0, "is_disabled": 0, "lon": -77.0363135, "lat": 38.92783216666667, "fusion_lat": 0.0, "name": "341ca557fb3cf99fa6bb0ed565552db9", "bike_id": "341ca557fb3cf99fa6bb0ed565552db9", "type": "electric_scooter", "rental_uris": {"android": "https://dc.lft.to/lastmile_qr_scan", "ios": "https://dc.lft.to/lastmile_qr_scan"}, "fusion_lon": 0.0}, {"is_reserved": 0, "is_disabled": 0, "lon": -77.04309416666666, "lat": 38.923242333333334, "fusion_lat": 0.0, "name": "99048713e5a94138e75c7f1cfbf25ccd", "bike_id": "99048713e5a94138e75c7f1cfbf25ccd", "type": "electric_scooter", "rental_uris": {"android": "https://dc.lft.to/lastmile_qr_scan", "ios": "https://dc.lft.to/lastmile_qr_scan"}, "fusion_lon": 0.0}, {"is_reserved": 0, "is_disabled": 0, "lon": -76.98671966666667, "lat": 38.974736, "fusion_lat": 0.0, "name": "e44eff3d4e1233692bb5e3d86269ed91", "bike_id": "e44eff3d4e1233692bb5e3d86269ed91", "type": "electric_bike", "rental_uris": {"android": "https://dc.lft.to/lastmile_qr_scan", "ios": "https://dc.lft.to/lastmile_qr_scan"}, "fusion_lon": 0.0}, {"is_reserved": 0, "is_disabled": 0, "lon": -77.0944715, "lat": 38.89423016666667, "fusion_lat": 0.0, "name": "6305f84afeaf42c34cea55049b0f204d", "bike_id": "6305f84afeaf42c34cea55049b0f204d", "type": "electric_bike", "rental_uris": {"android": "https://dc.lft.to/lastmile_qr_scan", "ios": "https://dc.lft.to/lastmile_qr_scan"}, "fusion_lon": 0.0}, {"is_reserved": 0, "is_disabled": 0, "lon": -77.02451266666667, "lat": 38.89386483333333, "fusion_lat": 0.0, "name": "5b1f8b735057e99a39b587aaef7fd512", "bike_id": "5b1f8b735057e99a39b587aaef7fd512", "type": "electric_scooter", "rental_uris": {"android": "https://dc.lft.to/lastmile_qr_scan", "ios": "https://dc.lft.to/lastmile_qr_scan"}, "fusion_lon": 0.0}, {"is_reserved": 0, "is_disabled": 0, "lon": -77.04938016666667, "lat": 38.900683, "fusion_lat": 0.0, "name": "bacb7b8ce3029150312eeda1c741159c", "bike_id": "bacb7b8ce3029150312eeda1c741159c", "type": "electric_scooter", "rental_uris": {"android": "https://dc.lft.to/lastmile_qr_scan", "ios": "https://dc.lft.to/lastmile_qr_scan"}, "fusion_lon": 0.0}, {"is_reserved": 0, "is_disabled": 0, "lon": -76.99841, "lat": 38.902991666666665, "fusion_lat": 0.0, "name": "c18e59fac2419956303365efa8aae5fa", "bike_id": "c18e59fac2419956303365efa8aae5fa", "type": "electric_scooter", "rental_uris": {"android": "https://dc.lft.to/lastmile_qr_scan", "ios": "https://dc.lft.to/lastmile_qr_scan"}, "fusion_lon": 0.0}, {"is_reserved": 0, "is_disabled": 0, "lon": -76.99991916666667, "lat": 38.87397966666666, "fusion_lat": 0.0, "name": "e6f4beae318a3f0cc934addad7d8ff7f", "bike_id": "e6f4beae318a3f0cc934addad7d8ff7f", "type": "electric_scooter", "rental_uris": {"android": "https://dc.lft.to/lastmile_qr_scan", "ios": "https://dc.lft.to/lastmile_qr_scan"}, "fusion_lon": 0.0}, {"is_reserved": 0, "is_disabled": 0, "lon": -76.94884466666667, "lat": 38.89507066666667, "fusion_lat": 0.0, "name": "6fded51e9f900de2265a779a88ce94fe", "bike_id": "6fded51e9f900de2265a779a88ce94fe", "type": "electric_scooter", "rental_uris": {"android": "https://dc.lft.to/lastmile_qr_scan", "ios": "https://dc.lft.to/lastmile_qr_scan"}, "fusion_lon": 0.0}, {"is_reserved": 0, "is_disabled": 0, "lon": -77.0571315, "lat": 38.93330066666667, "fusion_lat": 0.0, "name": "fcce9d5dc81a45ade5479a3e2ad1255d", "bike_id": "fcce9d5dc81a45ade5479a3e2ad1255d", "type": "electric_scooter", "rental_uris": {"android": "https://dc.lft.to/lastmile_qr_scan", "ios": "https://dc.lft.to/lastmile_qr_scan"}, "fusion_lon": 0.0}, {"is_reserved": 0, "is_disabled": 0, "lon": -77.04353333333333, "lat": 38.902696166666665, "fusion_lat": 0.0, "name": "6a1f86723b630e108e085cda1d59ab67", "bike_id": "6a1f86723b630e108e085cda1d59ab67", "type": "electric_scooter", "rental_uris": {"android": "https://dc.lft.to/lastmile_qr_scan", "ios": "https://dc.lft.to/lastmile_qr_scan"}, "fusion_lon": 0.0}, {"is_reserved": 0, "is_disabled": 0, "lon": -77.00393083333333, "lat": 38.940651, "fusion_lat": 0.0, "name": "2a08e28f21fdb62b01e1f787ead09ac8", "bike_id": "2a08e28f21fdb62b01e1f787ead09ac8", "type": "electric_scooter", "rental_uris": {"android": "https://dc.lft.to/lastmile_qr_scan", "ios": "https://dc.lft.to/lastmile_qr_scan"}, "fusion_lon": 0.0}, {"is_reserved": 0, "is_disabled": 0, "lon": -77.05680916666667, "lat": 38.9339675, "fusion_lat": 0.0, "name": "17177668027e3d101d9b7d2a6914178c", "bike_id": "17177668027e3d101d9b7d2a6914178c", "type": "electric_bike", "rental_uris": {"android": "https://dc.lft.to/lastmile_qr_scan", "ios": "https://dc.lft.to/lastmile_qr_scan"}, "fusion_lon": 0.0}, {"is_reserved": 0, "is_disabled": 0, "lon": -77.038659, "lat": 38.93211, "fusion_lat": 0.0, "name": "08c3ca8367a8d521357701396818886f", "bike_id": "08c3ca8367a8d521357701396818886f", "type": "electric_scooter", "rental_uris": {"android": "https://dc.lft.to/lastmile_qr_scan", "ios": "https://dc.lft.to/lastmile_qr_scan"}, "fusion_lon": 0.0}, {"is_reserved": 0, "is_disabled": 0, "lon": -77.024077, "lat": 38.90764766666667, "fusion_lat": 0.0, "name": "0a0cc873d62b681571ece556df6b59f9", "bike_id": "0a0cc873d62b681571ece556df6b59f9", "type": "electric_scooter", "rental_uris": {"android": "https://dc.lft.to/lastmile_qr_scan", "ios": "https://dc.lft.to/lastmile_qr_scan"}, "fusion_lon": 0.0}, {"is_reserved": 0, "is_disabled": 0, "lon": -76.99835333333333, "lat": 38.880047166666664, "fusion_lat": 0.0, "name": "965d677a39fa05c426f5d760e1cdee30", "bike_id": "965d677a39fa05c426f5d760e1cdee30", "type": "electric_scooter", "rental_uris": {"android": "https://dc.lft.to/lastmile_qr_scan", "ios": "https://dc.lft.to/lastmile_qr_scan"}, "fusion_lon": 0.0}, {"is_reserved": 0, "is_disabled": 0, "lon": -76.93773866666666, "lat": 38.8994255, "fusion_lat": 0.0, "name": "cad58dfb77577d99e2d70dda19d094c4", "bike_id": "cad58dfb77577d99e2d70dda19d094c4", "type": "electric_scooter", "rental_uris": {"android": "https://dc.lft.to/lastmile_qr_scan", "ios": "https://dc.lft.to/lastmile_qr_scan"}, "fusion_lon": 0.0}, {"is_reserved": 0, "is_disabled": 0, "lon": -76.98559516666667, "lat": 38.88291816666667, "fusion_lat": 0.0, "name": "bb45fc40915a6b6ee474234d023aa147", "bike_id": "bb45fc40915a6b6ee474234d023aa147", "type": "electric_scooter", "rental_uris": {"android": "https://dc.lft.to/lastmile_qr_scan", "ios": "https://dc.lft.to/lastmile_qr_scan"}, "fusion_lon": 0.0}, {"is_reserved": 0, "is_disabled": 0, "lon": -76.97999683333333, "lat": 38.90251583333333, "fusion_lat": 0.0, "name": "3e8bc35729c95e12b295854f041ee8b7", "bike_id": "3e8bc35729c95e12b295854f041ee8b7", "type": "electric_scooter", "rental_uris": {"android": "https://dc.lft.to/lastmile_qr_scan", "ios": "https://dc.lft.to/lastmile_qr_scan"}, "fusion_lon": 0.0}, {"is_reserved": 0, "is_disabled": 0, "lon": -77.041053, "lat": 39.03469166666667, "fusion_lat": 0.0, "name": "10532f7b8ff1e1cdb634aaa24719c54a", "bike_id": "10532f7b8ff1e1cdb634aaa24719c54a", "type": "electric_bike", "rental_uris": {"android": "https://dc.lft.to/lastmile_qr_scan", "ios": "https://dc.lft.to/lastmile_qr_scan"}, "fusion_lon": 0.0}, {"is_reserved": 0, "is_disabled": 0, "lon": -77.00702416666667, "lat": 38.90574616666667, "fusion_lat": 0.0, "name": "fb796c99d8cc5b39e088d3cecc2012a3", "bike_id": "fb796c99d8cc5b39e088d3cecc2012a3", "type": "electric_scooter", "rental_uris": {"android": "https://dc.lft.to/lastmile_qr_scan", "ios": "https://dc.lft.to/lastmile_qr_scan"}, "fusion_lon": 0.0}, {"is_reserved": 0, "is_disabled": 0, "lon": -77.03562433333333, "lat": 38.92738966666667, "fusion_lat": 0.0, "name": "029e54fcf77f9b01798d41f4b9929673", "bike_id": "029e54fcf77f9b01798d41f4b9929673", "type": "electric_scooter", "rental_uris": {"android": "https://dc.lft.to/lastmile_qr_scan", "ios": "https://dc.lft.to/lastmile_qr_scan"}, "fusion_lon": 0.0}, {"is_reserved": 0, "is_disabled": 0, "lon": -77.0050075, "lat": 38.896906, "fusion_lat": 0.0, "name": "26c9362f0c36ac828119f704315261f0", "bike_id": "26c9362f0c36ac828119f704315261f0", "type": "electric_scooter", "rental_uris": {"android": "https://dc.lft.to/lastmile_qr_scan", "ios": "https://dc.lft.to/lastmile_qr_scan"}, "fusion_lon": 0.0}, {"is_reserved": 0, "is_disabled": 0, "lon": -77.03852916666666, "lat": 38.90983516666667, "fusion_lat": 0.0, "name": "a9e8a73e1120d9f49fe044fcabb16b95", "bike_id": "a9e8a73e1120d9f49fe044fcabb16b95", "type": "electric_scooter", "rental_uris": {"android": "https://dc.lft.to/lastmile_qr_scan", "ios": "https://dc.lft.to/lastmile_qr_scan"}, "fusion_lon": 0.0}, {"is_reserved": 0, "is_disabled": 0, "lon": -77.00984583333333, "lat": 38.872877333333335, "fusion_lat": 0.0, "name": "4d2b992c3c04d245088215a9e2157c22", "bike_id": "4d2b992c3c04d245088215a9e2157c22", "type": "electric_scooter", "rental_uris": {"android": "https://dc.lft.to/lastmile_qr_scan", "ios": "https://dc.lft.to/lastmile_qr_scan"}, "fusion_lon": 0.0}, {"is_reserved": 0, "is_disabled": 0, "lon": -77.01399316666667, "lat": 38.92829066666667, "fusion_lat": 0.0, "name": "04a275aaa4b0943430401beb58f14e1c", "bike_id": "04a275aaa4b0943430401beb58f14e1c", "type": "electric_scooter", "rental_uris": {"android": "https://dc.lft.to/lastmile_qr_scan", "ios": "https://dc.lft.to/lastmile_qr_scan"}, "fusion_lon": 0.0}, {"is_reserved": 0, "is_disabled": 0, "lon": -77.021228, "lat": 38.92750233333334, "fusion_lat": 0.0, "name": "8078f4e142faad5d71a4888f6a128fc3", "bike_id": "8078f4e142faad5d71a4888f6a128fc3", "type": "electric_scooter", "rental_uris": {"android": "https://dc.lft.to/lastmile_qr_scan", "ios": "https://dc.lft.to/lastmile_qr_scan"}, "fusion_lon": 0.0}, {"is_reserved": 0, "is_disabled": 0, "lon": -76.976755, "lat": 38.90182633333333, "fusion_lat": 0.0, "name": "28366c431bf2d233b30589cd85cf0374", "bike_id": "28366c431bf2d233b30589cd85cf0374", "type": "electric_scooter", "rental_uris": {"android": "https://dc.lft.to/lastmile_qr_scan", "ios": "https://dc.lft.to/lastmile_qr_scan"}, "fusion_lon": 0.0}, {"is_reserved": 0, "is_disabled": 0, "lon": -77.0366235, "lat": 38.92236716666667, "fusion_lat": 0.0, "name": "4c3a654a23ccbfed74d5a3aab171bd92", "bike_id": "4c3a654a23ccbfed74d5a3aab171bd92", "type": "electric_scooter", "rental_uris": {"android": "https://dc.lft.to/lastmile_qr_scan", "ios": "https://dc.lft.to/lastmile_qr_scan"}, "fusion_lon": 0.0}, {"is_reserved": 0, "is_disabled": 0, "lon": -77.03318416666667, "lat": 38.90336333333333, "fusion_lat": 0.0, "name": "ff5425f88d6d091df155eacd57f45c6f", "bike_id": "ff5425f88d6d091df155eacd57f45c6f", "type": "electric_scooter", "rental_uris": {"android": "https://dc.lft.to/lastmile_qr_scan", "ios": "https://dc.lft.to/lastmile_qr_scan"}, "fusion_lon": 0.0}, {"is_reserved": 0, "is_disabled": 0, "lon": -76.9961275, "lat": 38.887194666666666, "fusion_lat": 0.0, "name": "10cd1383c2af9b9c9e93388e7b8b34ba", "bike_id": "10cd1383c2af9b9c9e93388e7b8b34ba", "type": "electric_scooter", "rental_uris": {"android": "https://dc.lft.to/lastmile_qr_scan", "ios": "https://dc.lft.to/lastmile_qr_scan"}, "fusion_lon": 0.0}, {"is_reserved": 0, "is_disabled": 0, "lon": -76.90022266666666, "lat": 39.006473166666666, "fusion_lat": 0.0, "name": "304c64d5541f9e9f5a270017958d3cd6", "bike_id": "304c64d5541f9e9f5a270017958d3cd6", "type": "electric_bike", "rental_uris": {"android": "https://dc.lft.to/lastmile_qr_scan", "ios": "https://dc.lft.to/lastmile_qr_scan"}, "fusion_lon": 0.0}, {"is_reserved": 0, "is_disabled": 0, "lon": -77.02285933333333, "lat": 38.926869333333336, "fusion_lat": 0.0, "name": "e3504bae5c42f3fb0841687ec7397622", "bike_id": "e3504bae5c42f3fb0841687ec7397622", "type": "electric_scooter", "rental_uris": {"android": "https://dc.lft.to/lastmile_qr_scan", "ios": "https://dc.lft.to/lastmile_qr_scan"}, "fusion_lon": 0.0}, {"is_reserved": 0, "is_disabled": 0, "lon": -77.0320115, "lat": 38.91650033333333, "fusion_lat": 0.0, "name": "76d23a3b08aaf6500e10a50e222e9664", "bike_id": "76d23a3b08aaf6500e10a50e222e9664", "type": "electric_scooter", "rental_uris": {"android": "https://dc.lft.to/lastmile_qr_scan", "ios": "https://dc.lft.to/lastmile_qr_scan"}, "fusion_lon": 0.0}, {"is_reserved": 0, "is_disabled": 0, "lon": -77.004299, "lat": 38.903951, "fusion_lat": 0.0, "name": "cc179f4b9f20afc32ea8790bdfad039e", "bike_id": "cc179f4b9f20afc32ea8790bdfad039e", "type": "electric_scooter", "rental_uris": {"android": "https://dc.lft.to/lastmile_qr_scan", "ios": "https://dc.lft.to/lastmile_qr_scan"}, "fusion_lon": 0.0}, {"is_reserved": 0, "is_disabled": 0, "lon": -76.99836883333333, "lat": 38.8800405, "fusion_lat": 0.0, "name": "a5f8e99ed96c63134ab999133b776b63", "bike_id": "a5f8e99ed96c63134ab999133b776b63", "type": "electric_scooter", "rental_uris": {"android": "https://dc.lft.to/lastmile_qr_scan", "ios": "https://dc.lft.to/lastmile_qr_scan"}, "fusion_lon": 0.0}, {"is_reserved": 0, "is_disabled": 0, "lon": -77.017189, "lat": 38.905216, "fusion_lat": 0.0, "name": "552e2773d66a6c63616d4f613e76111f", "bike_id": "552e2773d66a6c63616d4f613e76111f", "type": "electric_scooter", "rental_uris": {"android": "https://dc.lft.to/lastmile_qr_scan", "ios": "https://dc.lft.to/lastmile_qr_scan"}, "fusion_lon": 0.0}, {"is_reserved": 0, "is_disabled": 0, "lon": -76.9950705, "lat": 38.92697483333333, "fusion_lat": 0.0, "name": "bddfcdc96ed720391183d00fea861930", "bike_id": "bddfcdc96ed720391183d00fea861930", "type": "electric_scooter", "rental_uris": {"android": "https://dc.lft.to/lastmile_qr_scan", "ios": "https://dc.lft.to/lastmile_qr_scan"}, "fusion_lon": 0.0}, {"is_reserved": 0, "is_disabled": 0, "lon": -77.03284516666666, "lat": 38.928666166666666, "fusion_lat": 0.0, "name": "fe8d69bb7e5f2a456cc9dff2ddb8bd99", "bike_id": "fe8d69bb7e5f2a456cc9dff2ddb8bd99", "type": "electric_scooter", "rental_uris": {"android": "https://dc.lft.to/lastmile_qr_scan", "ios": "https://dc.lft.to/lastmile_qr_scan"}, "fusion_lon": 0.0}, {"is_reserved": 0, "is_disabled": 0, "lon": -76.93482283333333, "lat": 38.882999833333336, "fusion_lat": 0.0, "name": "f915721bea475b67c96343ac6ef88257", "bike_id": "f915721bea475b67c96343ac6ef88257", "type": "electric_scooter", "rental_uris": {"android": "https://dc.lft.to/lastmile_qr_scan", "ios": "https://dc.lft.to/lastmile_qr_scan"}, "fusion_lon": 0.0}, {"is_reserved": 0, "is_disabled": 0, "lon": -77.00253133333334, "lat": 38.9012615, "fusion_lat": 0.0, "name": "2ecd97d1788b3cb01bb9ab4a894ed0c8", "bike_id": "2ecd97d1788b3cb01bb9ab4a894ed0c8", "type": "electric_scooter", "rental_uris": {"android": "https://dc.lft.to/lastmile_qr_scan", "ios": "https://dc.lft.to/lastmile_qr_scan"}, "fusion_lon": 0.0}, {"is_reserved": 0, "is_disabled": 0, "lon": -77.11408033333333, "lat": 38.85243066666666, "fusion_lat": 0.0, "name": "edfa80295c818d4d689903eefdc67fc8", "bike_id": "edfa80295c818d4d689903eefdc67fc8", "type": "electric_bike", "rental_uris": {"android": "https://dc.lft.to/lastmile_qr_scan", "ios": "https://dc.lft.to/lastmile_qr_scan"}, "fusion_lon": 0.0}, {"is_reserved": 0, "is_disabled": 0, "lon": -77.00381666666667, "lat": 38.876366833333336, "fusion_lat": 0.0, "name": "065ba1aef96972810470c2a144f21cb1", "bike_id": "065ba1aef96972810470c2a144f21cb1", "type": "electric_scooter", "rental_uris": {"android": "https://dc.lft.to/lastmile_qr_scan", "ios": "https://dc.lft.to/lastmile_qr_scan"}, "fusion_lon": 0.0}, {"is_reserved": 0, "is_disabled": 0, "lon": -76.93472066666666, "lat": 38.90831, "fusion_lat": 0.0, "name": "a0a41a2d6aa8eff9219007f3cf473f46", "bike_id": "a0a41a2d6aa8eff9219007f3cf473f46", "type": "electric_scooter", "rental_uris": {"android": "https://dc.lft.to/lastmile_qr_scan", "ios": "https://dc.lft.to/lastmile_qr_scan"}, "fusion_lon": 0.0}, {"is_reserved": 0, "is_disabled": 0, "lon": -77.04671916666666, "lat": 38.89843883333333, "fusion_lat": 0.0, "name": "831f5ffc4a3d1316dc644548bf537658", "bike_id": "831f5ffc4a3d1316dc644548bf537658", "type": "electric_scooter", "rental_uris": {"android": "https://dc.lft.to/lastmile_qr_scan", "ios": "https://dc.lft.to/lastmile_qr_scan"}, "fusion_lon": 0.0}, {"is_reserved": 0, "is_disabled": 0, "lon": -77.02117833333334, "lat": 38.917388333333335, "fusion_lat": 0.0, "name": "6375ce658b1b7f8aab8ec4f4fa0b267f", "bike_id": "6375ce658b1b7f8aab8ec4f4fa0b267f", "type": "electric_scooter", "rental_uris": {"android": "https://dc.lft.to/lastmile_qr_scan", "ios": "https://dc.lft.to/lastmile_qr_scan"}, "fusion_lon": 0.0}, {"is_reserved": 0, "is_disabled": 0, "lon": -77.02544683333333, "lat": 38.910944, "fusion_lat": 0.0, "name": "bd2234480d774b9fb7d216c986fb9ac5", "bike_id": "bd2234480d774b9fb7d216c986fb9ac5", "type": "electric_scooter", "rental_uris": {"android": "https://dc.lft.to/lastmile_qr_scan", "ios": "https://dc.lft.to/lastmile_qr_scan"}, "fusion_lon": 0.0}, {"is_reserved": 0, "is_disabled": 0, "lon": -77.03637433333333, "lat": 38.923279666666666, "fusion_lat": 0.0, "name": "71fa1091193413e3e847fd1dbae7ced0", "bike_id": "71fa1091193413e3e847fd1dbae7ced0", "type": "electric_scooter", "rental_uris": {"android": "https://dc.lft.to/lastmile_qr_scan", "ios": "https://dc.lft.to/lastmile_qr_scan"}, "fusion_lon": 0.0}, {"is_reserved": 0, "is_disabled": 0, "lon": -77.01971516666667, "lat": 38.918973, "fusion_lat": 0.0, "name": "8847f415360295742ce2f128c3c4e6cf", "bike_id": "8847f415360295742ce2f128c3c4e6cf", "type": "electric_scooter", "rental_uris": {"android": "https://dc.lft.to/lastmile_qr_scan", "ios": "https://dc.lft.to/lastmile_qr_scan"}, "fusion_lon": 0.0}, {"is_reserved": 0, "is_disabled": 0, "lon": -76.9767275, "lat": 38.901791333333335, "fusion_lat": 0.0, "name": "50889c2ad17a668c5d598c22977aa92f", "bike_id": "50889c2ad17a668c5d598c22977aa92f", "type": "electric_scooter", "rental_uris": {"android": "https://dc.lft.to/lastmile_qr_scan", "ios": "https://dc.lft.to/lastmile_qr_scan"}, "fusion_lon": 0.0}, {"is_reserved": 0, "is_disabled": 0, "lon": -76.99564316666667, "lat": 38.88423516666667, "fusion_lat": 0.0, "name": "83eeb6e8ab0cd518f7ed58e3c957e309", "bike_id": "83eeb6e8ab0cd518f7ed58e3c957e309", "type": "electric_scooter", "rental_uris": {"android": "https://dc.lft.to/lastmile_qr_scan", "ios": "https://dc.lft.to/lastmile_qr_scan"}, "fusion_lon": 0.0},