{"data": {"bikes": [{"fusion_lon": 0.0, "is_reserved": 0, "bike_id": "f00ab5e7e36cd3687b6f91fa2341606c", "lon": -77.032069, "name": "f00ab5e7e36cd3687b6f91fa2341606c", "lat": 38.909377666666664, "fusion_lat": 0.0, "rental_uris": {"ios": "https://dc.lft.to/lastmile_qr_scan", "android": "https://dc.lft.to/lastmile_qr_scan"}, "is_disabled": 0, "type": "electric_scooter"}, {"fusion_lon": 0.0, "is_reserved": 0, "bike_id": "9a1c2e04850707cd7a0ca50baef8c171", "lon": -77.05082883333333, "name": "9a1c2e04850707cd7a0ca50baef8c171", "lat": 38.92360716666666, "fusion_lat": 0.0, "rental_uris": {"ios": "https://dc.lft.to/lastmile_qr_scan", "android": "https://dc.lft.to/lastmile_qr_scan"}, "is_disabled": 0, "type": "electric_scooter"}, {"fusion_lon": 0.0, "is_reserved": 0, "bike_id": "610bb88c3e5533b0426e294142f7c708", "lon": -77.043512, "name": "610bb88c3e5533b0426e294142f7c708", "lat": 38.906218, "fusion_lat": 0.0, "rental_uris": {"ios": "https://dc.lft.to/lastmile_qr_scan", "android": "https://dc.lft.to/lastmile_qr_scan"}, "is_disabled": 0, "type": "electric_scooter"}, {"fusion_lon": 0.0, "is_reserved": 0, "bike_id": "3fdec065ad0c5c727c422f710dadbfed", "lon": -77.03727833333333, "name": "3fdec065ad0c5c727c422f710dadbfed", "lat": 38.920352666666666, "fusion_lat": 0.0, "rental_uris": {"ios": "https://dc.lft.to/lastmile_qr_scan", "android": "https://dc.lft.to/lastmile_qr_scan"}, "is_disabled": 0, "type": "electric_scooter"}, {"fusion_lon": 0.0, "is_reserved": 0, "bike_id": "e52afb2c89c029b9b5fb0d2030885b5f", "lon": -77.031884, "name": "e52afb2c89c029b9b5fb0d2030885b5f", "lat": 38.90854233333334, "fusion_lat": 0.0, "rental_uris": {"ios": "https://dc.lft.to/lastmile_qr_scan", "android": "https://dc.lft.to/lastmile_qr_scan"}, "is_disabled": 0, "type": "electric_scooter"}, {"fusion_lon": 0.0, "is_reserved": 0, "bike_id": "a03e26b486d6801e1fe0b1870f3642c8", "lon": -77.040264, "name": "a03e26b486d6801e1fe0b1870f3642c8", "lat": 38.9244315, "fusion_lat": 0.0, "rental_uris": {"ios": "https://dc.lft.to/lastmile_qr_scan", "android": "https://dc.lft.to/lastmile_qr_scan"}, "is_disabled": 0, "type": "electric_scooter"}, {"fusion_lon": 0.0, "is_reserved": 0, "bike_id": "6922ae68ca86ce3649aa428c8963b68a", "lon": -77.02962266666667, "name": "6922ae68ca86ce3649aa428c8963b68a", "lat": 38.893262666666665, "fusion_lat": 0.0, "rental_uris": {"ios": "https://dc.lft.to/lastmile_qr_scan", "android": "https://dc.lft.to/lastmile_qr_scan"}, "is_disabled": 0, "type": "electric_scooter"}, {"fusion_lon": 0.0, "is_reserved": 0, "bike_id": "90753c3499e0e2ca93f8ab1e33db177e", "lon": -77.024586, "name": "90753c3499e0e2ca93f8ab1e33db177e", "lat": 38.920510166666666, "fusion_lat": 0.0, "rental_uris": {"ios": "https://dc.lft.to/lastmile_qr_scan", "android": "https://dc.lft.to/lastmile_qr_scan"}, "is_disabled": 0, "type": "electric_scooter"}, {"fusion_lon": 0.0, "is_reserved": 0, "bike_id": "dc0e029d7e4b39eb6650ec862feb5db1", "lon": -77.02137116666667, "name": "dc0e029d7e4b39eb6650ec862feb5db1", "lat": 38.922789333333334, "fusion_lat": 0.0, "rental_uris": {"ios": "https://dc.lft.to/lastmile_qr_scan", "android": "https://dc.lft.to/lastmile_qr_scan"}, "is_disabled": 0, "type": "electric_scooter"}, {"fusion_lon": 0.0, "is_reserved": 0, "bike_id": "d8a2e664c4310d0fde92406534441371", "lon": -77.01960916666667, "name": "d8a2e664c4310d0fde92406534441371", "lat": 38.923268666666665, "fusion_lat": 0.0, "rental_uris": {"ios": "https://dc.lft.to/lastmile_qr_scan", "android": "https://dc.lft.to/lastmile_qr_scan"}, "is_disabled": 0, "type": "electric_scooter"}, {"fusion_lon": 0.0, "is_reserved": 0, "bike_id": "c8f04cca1a9cb1fe8ee536d60d629cfb", "lon": -77.0453345, "name": "c8f04cca1a9cb1fe8ee536d60d629cfb", "lat": 38.908669833333335, "fusion_lat": 0.0, "rental_uris": {"ios": "https://dc.lft.to/lastmile_qr_scan", "android": "https://dc.lft.to/lastmile_qr_scan"}, "is_disabled": 0, "type": "electric_scooter"}, {"fusion_lon": 0.0, "is_reserved": 0, "bike_id": "6514c08549b52dad0214d5b867b199aa", "lon": -77.0211625, "name": "6514c08549b52dad0214d5b867b199aa", "lat": 38.92751, "fusion_lat": 0.0, "rental_uris": {"ios": "https://dc.lft.to/lastmile_qr_scan", "android": "https://dc.lft.to/lastmile_qr_scan"}, "is_disabled": 0, "type": "electric_scooter"}, {"fusion_lon": 0.0, "is_reserved": 0, "bike_id": "e309ae11e35c1eb666fd0554141aec11", "lon": -77.02348016666667, "name": "e309ae11e35c1eb666fd0554141aec11", "lat": 38.88477783333333, "fusion_lat": 0.0, "rental_uris": {"ios": "https://dc.lft.to/lastmile_qr_scan", "android": "https://dc.lft.to/lastmile_qr_scan"}, "is_disabled": 0, "type": "electric_bike"}, {"fusion_lon": 0.0, "is_reserved": 0, "bike_id": "dbd789acc848d4cdaea2b9bdbfbfac4e", "lon": -77.03951133333334, "name": "dbd789acc848d4cdaea2b9bdbfbfac4e", "lat": 38.9315255, "fusion_lat": 0.0, "rental_uris": {"ios": "https://dc.lft.to/lastmile_qr_scan", "android": "https://dc.lft.to/lastmile_qr_scan"}, "is_disabled": 0, "type": "electric_scooter"}, {"fusion_lon": 0.0, "is_reserved": 0, "bike_id": "95204d378289ba40bfb07abb74af0395", "lon": -77.027562, "name": "95204d378289ba40bfb07abb74af0395", "lat": 38.957369666666665, "fusion_lat": 0.0, "rental_uris": {"ios": "https://dc.lft.to/lastmile_qr_scan", "android": "https://dc.lft.to/lastmile_qr_scan"}, "is_disabled": 0, "type": "electric_scooter"}, {"fusion_lon": 0.0, "is_reserved": 0, "bike_id": "ad8c238dd59438185090364d232762b0", "lon": -77.06276466666667, "name": "ad8c238dd59438185090364d232762b0", "lat": 38.90622166666667, "fusion_lat": 0.0, "rental_uris": {"ios": "https://dc.lft.to/lastmile_qr_scan", "android": "https://dc.lft.to/lastmile_qr_scan"}, "is_disabled": 0, "type": "electric_scooter"}, {"fusion_lon": 0.0, "is_reserved": 0, "bike_id": "b6f27f9d5fa0ae8ada8f6d09e1625287", "lon": -76.93178166666667, "name": "b6f27f9d5fa0ae8ada8f6d09e1625287", "lat": 38.89884383333333, "fusion_lat": 0.0, "rental_uris": {"ios": "https://dc.lft.to/lastmile_qr_scan", "android": "https://dc.lft.to/lastmile_qr_scan"}, "is_disabled": 0, "type": "electric_scooter"}, {"fusion_lon": 0.0, "is_reserved": 0, "bike_id": "81e2398ba25953d4e7768069bfc6822c", "lon": -77.04792416666666, "name": "81e2398ba25953d4e7768069bfc6822c", "lat": 38.8960955, "fusion_lat": 0.0, "rental_uris": {"ios": "https://dc.lft.to/lastmile_qr_scan", "android": "https://dc.lft.to/lastmile_qr_scan"}, "is_disabled": 0, "type": "electric_scooter"}, {"fusion_lon": 0.0, "is_reserved": 0, "bike_id": "7466c5550fcbea269035474f4739c153", "lon": -77.046582, "name": "7466c5550fcbea269035474f4739c153", "lat": 38.904266666666665, "fusion_lat": 0.0, "rental_uris": {"ios": "https://dc.lft.to/lastmile_qr_scan", "android": "https://dc.lft.to/lastmile_qr_scan"}, "is_disabled": 0, "type": "electric_scooter"}, {"fusion_lon": 0.0, "is_reserved": 0, "bike_id": "949db73ac587d9da8a612cb092a5f96d", "lon": -77.01360466666667, "name": "949db73ac587d9da8a612cb092a5f96d", "lat": 38.96228833333333, "fusion_lat": 0.0, "rental_uris": {"ios": "https://dc.lft.to/lastmile_qr_scan", "android": "https://dc.lft.to/lastmile_qr_scan"}, "is_disabled": 0, "type": "electric_scooter"}, {"fusion_lon": 0.0, "is_reserved": 0, "bike_id": "85ffaf5fd4c7385cedcf56172f1d22d4", "lon": -77.01531116666666, "name": "85ffaf5fd4c7385cedcf56172f1d22d4", "lat": 38.89518533333333, "fusion_lat": 0.0, "rental_uris": {"ios": "https://dc.lft.to/lastmile_qr_scan", "android": "https://dc.lft.to/lastmile_qr_scan"}, "is_disabled": 0, "type": "electric_scooter"}, {"fusion_lon": 0.0, "is_reserved": 0, "bike_id": "5849ca40d0fdba7861874968111a23d5", "lon": -77.01562916666667, "name": "5849ca40d0fdba7861874968111a23d5", "lat": 38.927994, "fusion_lat": 0.0, "rental_uris": {"ios": "https://dc.lft.to/lastmile_qr_scan", "android": "https://dc.lft.to/lastmile_qr_scan"}, "is_disabled": 0, "type": "electric_scooter"}, {"fusion_lon": 0.0, "is_reserved": 0, "bike_id": "744e3b87ff3971187834f354db99401a", "lon": -76.991113, "name": "744e3b87ff3971187834f354db99401a", "lat": 38.80483983333333, "fusion_lat": 0.0, "rental_uris": {"ios": "https://dc.lft.to/lastmile_qr_scan", "android": "https://dc.lft.to/lastmile_qr_scan"}, "is_disabled": 0, "type": "electric_bike"}, {"fusion_lon": 0.0, "is_reserved": 0, "bike_id": "e6e6b2df4fc974ebf4362510ed114139", "lon": -77.02482533333334, "name": "e6e6b2df4fc974ebf4362510ed114139", "lat": 38.93104966666667, "fusion_lat": 0.0, "rental_uris": {"ios": "https://dc.lft.to/lastmile_qr_scan", "android": "https://dc.lft.to/lastmile_qr_scan"}, "is_disabled": 0, "type": "electric_scooter"}, {"fusion_lon": 0.0, "is_reserved": 0, "bike_id": "039bca48ea4f90eb7d055b4de0c53d42", "lon": -77.05443016666666, "name": "039bca48ea4f90eb7d055b4de0c53d42", "lat": 38.784634833333335, "fusion_lat": 0.0, "rental_uris": {"ios": "https://dc.lft.to/lastmile_qr_scan", "android": "https://dc.lft.to/lastmile_qr_scan"}, "is_disabled": 0, "type": "electric_bike"}, {"fusion_lon": 0.0, "is_reserved": 0, "bike_id": "0f4e67487e0a8542914977052b718016", "lon": -77.0248595, "name": "0f4e67487e0a8542914977052b718016", "lat": 38.9206645, "fusion_lat": 0.0, "rental_uris": {"ios": "https://dc.lft.to/lastmile_qr_scan", "android": "https://dc.lft.to/lastmile_qr_scan"}, "is_disabled": 0, "type": "electric_scooter"}, {"fusion_lon": 0.0, "is_reserved": 0, "bike_id": "4d7a516c7df1911639d42fa77b4bae86", "lon": -77.02006883333334, "name": "4d7a516c7df1911639d42fa77b4bae86", "lat": 38.914934833333334, "fusion_lat": 0.0, "rental_uris": {"ios": "https://dc.lft.to/lastmile_qr_scan", "android": "https://dc.lft.to/lastmile_qr_scan"}, "is_disabled": 0, "type": "electric_scooter"}, {"fusion_lon": 0.0, "is_reserved": 0, "bike_id": "51c0ed5242ca3e99950f34f94adedde2", "lon": -77.00049966666667, "name": "51c0ed5242ca3e99950f34f94adedde2", "lat": 38.88460833333333, "fusion_lat": 0.0, "rental_uris": {"ios": "https://dc.lft.to/lastmile_qr_scan", "android": "https://dc.lft.to/lastmile_qr_scan"}, "is_disabled": 0, "type": "electric_scooter"}, {"fusion_lon": 0.0, "is_reserved": 0, "bike_id": "945201f104e77af3d7c40baafa0ff78d", "lon": -77.02737783333333, "name": "945201f104e77af3d7c40baafa0ff78d", "lat": 38.92409, "fusion_lat": 0.0, "rental_uris": {"ios": "https://dc.lft.to/lastmile_qr_scan", "android": "https://dc.lft.to/lastmile_qr_scan"}, "is_disabled": 0, "type": "electric_scooter"}, {"fusion_lon": 0.0, "is_reserved": 0, "bike_id": "46de37744a377766d1f8e729872b1502", "lon": -77.0195295, "name": "46de37744a377766d1f8e729872b1502", "lat": 38.9225955, "fusion_lat": 0.0, "rental_uris": {"ios": "https://dc.lft.to/lastmile_qr_scan", "android": "https://dc.lft.to/lastmile_qr_scan"}, "is_disabled": 0, "type": "electric_scooter"}, {"fusion_lon": 0.0, "is_reserved": 0, "bike_id": "ee571d6e9d7719f437536d7b27b6165d", "lon": -77.01370116666666, "name": "ee571d6e9d7719f437536d7b27b6165d", "lat": 38.8789885, "fusion_lat": 0.0, "rental_uris": {"ios": "https://dc.lft.to/lastmile_qr_scan", "android": "https://dc.lft.to/lastmile_qr_scan"}, "is_disabled": 0, "type": "electric_scooter"}, {"fusion_lon": 0.0, "is_reserved": 0, "bike_id": "ce3b8126860e86ae682ee945173a73c9", "lon": -77.05718683333333, "name": "ce3b8126860e86ae682ee945173a73c9", "lat": 38.9057545, "fusion_lat": 0.0, "rental_uris": {"ios": "https://dc.lft.to/lastmile_qr_scan", "android": "https://dc.lft.to/lastmile_qr_scan"}, "is_disabled": 0, "type": "electric_scooter"}, {"fusion_lon": 0.0, "is_reserved": 0, "bike_id": "1220f4266af1a7bf8de7f1e1e201e924", "lon": -77.04763116666666, "name": "1220f4266af1a7bf8de7f1e1e201e924", "lat": 38.899541666666664, "fusion_lat": 0.0, "rental_uris": {"ios": "https://dc.lft.to/lastmile_qr_scan", "android": "https://dc.lft.to/lastmile_qr_scan"}, "is_disabled": 0, "type": "electric_scooter"}, {"fusion_lon": 0.0, "is_reserved": 0, "bike_id": "63c819ecabb3dd48cc782259771dff98", "lon": -77.029619, "name": "63c819ecabb3dd48cc782259771dff98", "lat": 38.923066666666664, "fusion_lat": 0.0, "rental_uris": {"ios": "https://dc.lft.to/lastmile_qr_scan", "android": "https://dc.lft.to/lastmile_qr_scan"}, "is_disabled": 0, "type": "electric_scooter"}, {"fusion_lon": 0.0, "is_reserved": 0, "bike_id": "648812f59f42a2182bf75f64ca846fbd", "lon": -77.13941783333334, "name": "648812f59f42a2182bf75f64ca846fbd", "lat": 38.846756666666664, "fusion_lat": 0.0, "rental_uris": {"ios": "https://dc.lft.to/lastmile_qr_scan", "android": "https://dc.lft.to/lastmile_qr_scan"}, "is_disabled": 0, "type": "electric_bike"}, {"fusion_lon": 0.0, "is_reserved": 0, "bike_id": "58fc9f944f67681442bf90177861f62c", "lon": -76.98038133333333, "name": "58fc9f944f67681442bf90177861f62c", "lat": 38.88968416666667, "fusion_lat": 0.0, "rental_uris": {"ios": "https://dc.lft.to/lastmile_qr_scan", "android": "https://dc.lft.to/lastmile_qr_scan"}, "is_disabled": 0, "type": "electric_scooter"}, {"fusion_lon": 0.0, "is_reserved": 0, "bike_id": "f970433e5816044366db015798cdf8e0", "lon": -77.05108016666667, "name": "f970433e5816044366db015798cdf8e0", "lat": 38.91554683333333, "fusion_lat": 0.0, "rental_uris": {"ios": "https://dc.lft.to/lastmile_qr_scan", "android": "https://dc.lft.to/lastmile_qr_scan"}, "is_disabled": 0, "type": "electric_scooter"}, {"fusion_lon": 0.0, "is_reserved": 0, "bike_id": "d9b903ccc22577505b2d6e3c4c442d89", "lon": -77.0505615, "name": "d9b903ccc22577505b2d6e3c4c442d89", "lat": 38.903077333333336, "fusion_lat": 0.0, "rental_uris": {"ios": "https://dc.lft.to/lastmile_qr_scan", "android": "https://dc.lft.to/lastmile_qr_scan"}, "is_disabled": 0, "type": "electric_scooter"}, {"fusion_lon": 0.0, "is_reserved": 0, "bike_id": "e6dfa0c0f7aca401b5ec163eff8755cd", "lon": -77.0571455, "name": "e6dfa0c0f7aca401b5ec163eff8755cd", "lat": 38.905527166666666, "fusion_lat": 0.0, "rental_uris": {"ios": "https://dc.lft.to/lastmile_qr_scan", "android": "https://dc.lft.to/lastmile_qr_scan"}, "is_disabled": 0, "type": "electric_bike"}, {"fusion_lon": 0.0, "is_reserved": 0, "bike_id": "d4207994a20da5af649ab634b34eb760", "lon": -77.02274733333333, "name": "d4207994a20da5af649ab634b34eb760", "lat": 38.9248595, "fusion_lat": 0.0, "rental_uris": {"ios": "https://dc.lft.to/lastmile_qr_scan", "android": "https://dc.lft.to/lastmile_qr_scan"}, "is_disabled": 0, "type": "electric_scooter"}, {"fusion_lon": 0.0, "is_reserved": 0, "bike_id": "4c710468f2debe8af8fcca0f3f691cd2", "lon": -77.02987283333333, "name": "4c710468f2debe8af8fcca0f3f691cd2", "lat": 38.8976015, "fusion_lat": 0.0, "rental_uris": {"ios": "https://dc.lft.to/lastmile_qr_scan", "android": "https://dc.lft.to/lastmile_qr_scan"}, "is_disabled": 0, "type": "electric_scooter"}, {"fusion_lon": 0.0, "is_reserved": 0, "bike_id": "c57b42baf9593e5628a4928ff196618a", "lon": -77.076936, "name": "c57b42baf9593e5628a4928ff196618a", "lat": 38.906683666666666, "fusion_lat": 0.0, "rental_uris": {"ios": "https://dc.lft.to/lastmile_qr_scan", "android": "https://dc.lft.to/lastmile_qr_scan"}, "is_disabled": 0, "type": "electric_scooter"}, {"fusion_lon": 0.0, "is_reserved": 0, "bike_id": "1fbcd7dc3f5d4c16e4489737b5ec3423", "lon": -77.04549283333333, "name": "1fbcd7dc3f5d4c16e4489737b5ec3423", "lat": 38.91326566666667, "fusion_lat": 0.0, "rental_uris": {"ios": "https://dc.lft.to/lastmile_qr_scan", "android": "https://dc.lft.to/lastmile_qr_scan"}, "is_disabled": 0, "type": "electric_scooter"}, {"fusion_lon": 0.0, "is_reserved": 0, "bike_id": "554f6de9abaaf59680af68bf281245ef", "lon": -77.04954866666667, "name": "554f6de9abaaf59680af68bf281245ef", "lat": 38.90305133333333, "fusion_lat": 0.0, "rental_uris": {"ios": "https://dc.lft.to/lastmile_qr_scan", "android": "https://dc.lft.to/lastmile_qr_scan"}, "is_disabled": 0, "type": "electric_scooter"}, {"fusion_lon": 0.0, "is_reserved": 0, "bike_id": "a37b8f0e5768035715be1d52e998d50d", "lon": -77.044783, "name": "a37b8f0e5768035715be1d52e998d50d", "lat": 38.89510116666666, "fusion_lat": 0.0, "rental_uris": {"ios": "https://dc.lft.to/lastmile_qr_scan", "android": "https://dc.lft.to/lastmile_qr_scan"}, "is_disabled": 0, "type": "electric_scooter"}, {"fusion_lon": 0.0, "is_reserved": 0, "bike_id": "f65b09392f41e9bc2248b9481c5685f7", "lon": -77.03664383333333, "name": "f65b09392f41e9bc2248b9481c5685f7", "lat": 38.92239566666667, "fusion_lat": 0.0, "rental_uris": {"ios": "https://dc.lft.to/lastmile_qr_scan", "android": "https://dc.lft.to/lastmile_qr_scan"}, "is_disabled": 0, "type": "electric_scooter"}, {"fusion_lon": 0.0, "is_reserved": 0, "bike_id": "b5c61e2200dc0bc59c1cdd47af339881", "lon": -76.96090466666666, "name": "b5c61e2200dc0bc59c1cdd47af339881", "lat": 38.91859266666667, "fusion_lat": 0.0, "rental_uris": {"ios": "https://dc.lft.to/lastmile_qr_scan", "android": "https://dc.lft.to/lastmile_qr_scan"}, "is_disabled": 0, "type": "electric_bike"}, {"fusion_lon": 0.0, "is_reserved": 0, "bike_id": "8008e0883a92381ba89064e970b9be87", "lon": -76.974245, "name": "8008e0883a92381ba89064e970b9be87", "lat": 38.901486166666665, "fusion_lat": 0.0, "rental_uris": {"ios": "https://dc.lft.to/lastmile_qr_scan", "android": "https://dc.lft.to/lastmile_qr_scan"}, "is_disabled": 0, "type": "electric_scooter"}, {"fusion_lon": 0.0, "is_reserved": 0, "bike_id": "c48fd3b4693b08852b0fbca700a7d08a", "lon": -77.02384183333334, "name": "c48fd3b4693b08852b0fbca700a7d08a", "lat": 38.920613, "fusion_lat": 0.0, "rental_uris": {"ios": "https://dc.lft.to/lastmile_qr_scan", "android": "https://dc.lft.to/lastmile_qr_scan"}, "is_disabled": 0, "type": "electric_scooter"}, {"fusion_lon": 0.0, "is_reserved": 0, "bike_id": "72107c090463eb998d1619ce80c277c7", "lon": -77.0227425, "name": "72107c090463eb998d1619ce80c277c7", "lat": 38.94660833333333, "fusion_lat": 0.0, "rental_uris": {"ios": "https://dc.lft.to/lastmile_qr_scan", "android": "https://dc.lft.to/lastmile_qr_scan"}, "is_disabled": 0, "type": "electric_scooter"}, {"fusion_lon": 0.0, "is_reserved": 0, "bike_id": "f7fdd498a99c80e7d0e1117787b5f777", "lon": -77.04436666666666, "name": "f7fdd498a99c80e7d0e1117787b5f777", "lat": 38.89607066666667, "fusion_lat": 0.0, "rental_uris": {"ios": "https://dc.lft.to/lastmile_qr_scan", "android": "https://dc.lft.to/lastmile_qr_scan"}, "is_disabled": 0, "type": "electric_scooter"}, {"fusion_lon": 0.0, "is_reserved": 0, "bike_id": "2cd7c110f983518655272733c3ef044f", "lon": -77.0688245, "name": "2cd7c110f983518655272733c3ef044f", "lat": 38.829206666666664, "fusion_lat": 0.0, "rental_uris": {"ios": "https://dc.lft.to/lastmile_qr_scan", "android": "https://dc.lft.to/lastmile_qr_scan"}, "is_disabled": 0, "type": "electric_bike"}, {"fusion_lon": 0.0, "is_reserved": 0, "bike_id": "6a4afc0d3aeb2cd4f342b26405b77c2e", "lon": -77.04478516666667, "name": "6a4afc0d3aeb2cd4f342b26405b77c2e", "lat": 38.910638666666664, "fusion_lat": 0.0, "rental_uris": {"ios": "https://dc.lft.to/lastmile_qr_scan", "android": "https://dc.lft.to/lastmile_qr_scan"}, "is_disabled": 0, "type": "electric_scooter"}, {"fusion_lon": 0.0, "is_reserved": 0, "bike_id": "e40b80a2f7fcebe1c5bca8910e0c4919", "lon": -77.02288633333333, "name": "e40b80a2f7fcebe1c5bca8910e0c4919", "lat": 38.8971015, "fusion_lat": 0.0, "rental_uris": {"ios": "https://dc.lft.to/lastmile_qr_scan", "android": "https://dc.lft.to/lastmile_qr_scan"}, "is_disabled": 0, "type": "electric_scooter"}, {"fusion_lon": 0.0, "is_reserved": 0, "bike_id": "dc27163ee259ff108c2ccc798339c463", "lon": -77.05158616666667, "name": "dc27163ee259ff108c2ccc798339c463", "lat": 38.9214585, "fusion_lat": 0.0, "rental_uris": {"ios": "https://dc.lft.to/lastmile_qr_scan", "android": "https://dc.lft.to/lastmile_qr_scan"}, "is_disabled": 0, "type": "electric_scooter"}, {"fusion_lon": 0.0, "is_reserved": 0, "bike_id": "aeb6333e3a459e233af82f92408d29a0", "lon": -77.011757, "name": "aeb6333e3a459e233af82f92408d29a0", "lat": 38.90018216666667, "fusion_lat": 0.0, "rental_uris": {"ios": "https://dc.lft.to/lastmile_qr_scan", "android": "https://dc.lft.to/lastmile_qr_scan"}, "is_disabled": 0, "type": "electric_scooter"}, {"fusion_lon": 0.0, "is_reserved": 0, "bike_id": "4788c249c032e02d5437d5cb410bffe3", "lon": -77.041093, "name": "4788c249c032e02d5437d5cb410bffe3", "lat": 38.9177265, "fusion_lat": 0.0, "rental_uris": {"ios": "https://dc.lft.to/lastmile_qr_scan", "android": "https://dc.lft.to/lastmile_qr_scan"}, "is_disabled": 0, "type": "electric_scooter"}, {"fusion_lon": 0.0, "is_reserved": 0, "bike_id": "417ef578ddbbdbbce27f26ca3548f505", "lon": -77.00665766666667, "name": "417ef578ddbbdbbce27f26ca3548f505", "lat": 38.8718195, "fusion_lat": 0.0, "rental_uris": {"ios": "https://dc.lft.to/lastmile_qr_scan", "android": "https://dc.lft.to/lastmile_qr_scan"}, "is_disabled": 0, "type": "electric_scooter"}, {"fusion_lon": 0.0, "is_reserved": 0, "bike_id": "77e4cf52befde2364a1d71961103c12e", "lon": -77.0452835, "name": "77e4cf52befde2364a1d71961103c12e", "lat": 38.907659, "fusion_lat": 0.0, "rental_uris": {"ios": "https://dc.lft.to/lastmile_qr_scan", "android": "https://dc.lft.to/lastmile_qr_scan"}, "is_disabled": 0, "type": "electric_scooter"}, {"fusion_lon": 0.0, "is_reserved": 0, "bike_id": "904ec1c9a97af96da0e4398a8981811c", "lon": -77.0243745, "name": "904ec1c9a97af96da0e4398a8981811c", "lat": 38.879789333333335, "fusion_lat": 0.0, "rental_uris": {"ios": "https://dc.lft.to/lastmile_qr_scan", "android": "https://dc.lft.to/lastmile_qr_scan"}, "is_disabled": 0, "type": "electric_scooter"}, {"fusion_lon": 0.0, "is_reserved": 0, "bike_id": "e1f5d3185c4474da26262937ad7ef8fd", "lon": -77.03195033333333, "name": "e1f5d3185c4474da26262937ad7ef8fd", "lat": 38.936113666666664, "fusion_lat": 0.0, "rental_uris": {"ios": "https://dc.lft.to/lastmile_qr_scan", "android": "https://dc.lft.to/lastmile_qr_scan"}, "is_disabled": 0, "type": "electric_scooter"}, {"fusion_lon": 0.0, "is_reserved": 0, "bike_id": "1685d3ff7be020ef3c9147883909a34d", "lon": -77.03477166666667, "name": "1685d3ff7be020ef3c9147883909a34d", "lat": 38.917036333333336, "fusion_lat": 0.0, "rental_uris": {"ios": "https://dc.lft.to/lastmile_qr_scan", "android": "https://dc.lft.to/lastmile_qr_scan"}, "is_disabled": 0, "type": "electric_scooter"}, {"fusion_lon": 0.0, "is_reserved": 0, "bike_id": "0a115d7231226d4657885d213ca9fbf7", "lon": -77.02389033333333, "name": "0a115d7231226d4657885d213ca9fbf7", "lat": 38.9140615, "fusion_lat": 0.0, "rental_uris": {"ios": "https://dc.lft.to/lastmile_qr_scan", "android": "https://dc.lft.to/lastmile_qr_scan"}, "is_disabled": 0, "type": "electric_scooter"}, {"fusion_lon": 0.0, "is_reserved": 0, "bike_id": "64fbb5357f27eef46414f528b53dcf15", "lon": -76.97937116666667, "name": "64fbb5357f27eef46414f528b53dcf15", "lat": 38.906922, "fusion_lat": 0.0, "rental_uris": {"ios": "https://dc.lft.to/lastmile_qr_scan", "android": "https://dc.lft.to/lastmile_qr_scan"}, "is_disabled": 0, "type": "electric_scooter"}, {"fusion_lon": 0.0, "is_reserved": 0, "bike_id": "cd240ff955334a3a14e99bf6bf3a7864", "lon": -77.00703666666666, "name": "cd240ff955334a3a14e99bf6bf3a7864", "lat": 38.90729566666667, "fusion_lat": 0.0, "rental_uris": {"ios": "https://dc.lft.to/lastmile_qr_scan", "android": "https://dc.lft.to/lastmile_qr_scan"}, "is_disabled": 0, "type": "electric_scooter"}, {"fusion_lon": 0.0, "is_reserved": 0, "bike_id": "24140dd49f52f5f2e26fa98bd3038c3f", "lon": -76.99857466666667, "name": "24140dd49f52f5f2e26fa98bd3038c3f", "lat": 38.88661916666667, "fusion_lat": 0.0, "rental_uris": {"ios": "https://dc.lft.to/lastmile_qr_scan", "android": "https://dc.lft.to/lastmile_qr_scan"}, "is_disabled": 0, "type": "electric_scooter"}, {"fusion_lon": 0.0, "is_reserved": 0, "bike_id": "048177fe9d7f3784d19ceceec3d3a2a0", "lon": -77.00333733333333, "name": "048177fe9d7f3784d19ceceec3d3a2a0", "lat": 38.90267583333333, "fusion_lat": 0.0, "rental_uris": {"ios": "https://dc.lft.to/lastmile_qr_scan", "android": "https://dc.lft.to/lastmile_qr_scan"}, "is_disabled": 0, "type": "electric_scooter"}, {"fusion_lon": 0.0, "is_reserved": 0, "bike_id": "dec863d411140605f894478ea0625e8c", "lon": -76.98896483333333, "name": "dec863d411140605f894478ea0625e8c", "lat": 38.8954315, "fusion_lat": 0.0, "rental_uris": {"ios": "https://dc.lft.to/lastmile_qr_scan", "android": "https://dc.lft.to/lastmile_qr_scan"}, "is_disabled": 0, "type": "electric_scooter"}, {"fusion_lon": 0.0, "is_reserved": 0, "bike_id": "9369a3c33789d2bae2721221fbc1e237", "lon": -77.02437366666666, "name": "9369a3c33789d2bae2721221fbc1e237", "lat": 38.926037, "fusion_lat": 0.0, "rental_uris": {"ios": "https://dc.lft.to/lastmile_qr_scan", "android": "https://dc.lft.to/lastmile_qr_scan"}, "is_disabled": 0, "type": "electric_scooter"}, {"fusion_lon": 0.0, "is_reserved": 0, "bike_id": "4ca0529bc397c73b8766484174ade62a", "lon": -77.00528683333333, "name": "4ca0529bc397c73b8766484174ade62a", "lat": 38.89605383333333, "fusion_lat": 0.0, "rental_uris": {"ios": "https://dc.lft.to/lastmile_qr_scan", "android": "https://dc.lft.to/lastmile_qr_scan"}, "is_disabled": 0, "type": "electric_scooter"}, {"fusion_lon": 0.0, "is_reserved": 0, "bike_id": "7512bd3c02a1d3e4412dffe46a021f88", "lon": -77.0236595, "name": "7512bd3c02a1d3e4412dffe46a021f88", "lat": 38.9376465, "fusion_lat": 0.0, "rental_uris": {"ios": "https://dc.lft.to/lastmile_qr_scan", "android": "https://dc.lft.to/lastmile_qr_scan"}, "is_disabled": 0, "type": "electric_scooter"}, {"fusion_lon": 0.0, "is_reserved": 0, "bike_id": "fbd34c7902023d69ab8e56aa8b2a13c5", "lon": -77.02302966666667, "name": "fbd34c7902023d69ab8e56aa8b2a13c5", "lat": 38.965631333333334, "fusion_lat": 0.0, "rental_uris": {"ios": "https://dc.lft.to/lastmile_qr_scan", "android": "https://dc.lft.to/lastmile_qr_scan"}, "is_disabled": 0, "type": "electric_bike"}, {"fusion_lon": 0.0, "is_reserved": 0, "bike_id": "b4097233c0a49fdef44dfd0979159dc2", "lon": -77.05282316666667, "name": "b4097233c0a49fdef44dfd0979159dc2", "lat": 38.910174833333336, "fusion_lat": 0.0, "rental_uris": {"ios": "https://dc.lft.to/lastmile_qr_scan", "android": "https://dc.lft.to/lastmile_qr_scan"}, "is_disabled": 0, "type": "electric_scooter"}, {"fusion_lon": 0.0, "is_reserved": 0, "bike_id": "a179b36623efcf8927eddb8739913a64", "lon": -77.04338483333333, "name": "a179b36623efcf8927eddb8739913a64", "lat": 38.892266166666666, "fusion_lat": 0.0, "rental_uris": {"ios": "https://dc.lft.to/lastmile_qr_scan", "android": "https://dc.lft.to/lastmile_qr_scan"}, "is_disabled": 0, "type": "electric_scooter"}, {"fusion_lon": 0.0, "is_reserved": 0, "bike_id": "5dbc4a8a2e9f7ab493b69d44141cbcd0", "lon": -77.038489, "name": "5dbc4a8a2e9f7ab493b69d44141cbcd0", "lat": 38.902694, "fusion_lat": 0.0, "rental_uris": {"ios": "https://dc.lft.to/lastmile_qr_scan", "android": "https://dc.lft.to/lastmile_qr_scan"}, "is_disabled": 0, "type": "electric_scooter"}, {"fusion_lon": 0.0, "is_reserved": 0, "bike_id": "d5d68d5f603541315800f33298dde155", "lon": -77.03226416666666, "name": "d5d68d5f603541315800f33298dde155", "lat": 38.929771, "fusion_lat": 0.0, "rental_uris": {"ios": "https://dc.lft.to/lastmile_qr_scan", "android": "https://dc.lft.to/lastmile_qr_scan"}, "is_disabled": 0, "type": "electric_scooter"}, {"fusion_lon": 0.0, "is_reserved": 0, "bike_id": "eff4e5b2d4535b0de4e64bb1e5980815", "lon": -77.02650233333334, "name": "eff4e5b2d4535b0de4e64bb1e5980815", "lat": 38.8976365, "fusion_lat": 0.0, "rental_uris": {"ios": "https://dc.lft.to/lastmile_qr_scan", "android": "https://dc.lft.to/lastmile_qr_scan"}, "is_disabled": 0, "type": "electric_scooter"}, {"fusion_lon": 0.0, "is_reserved": 0, "bike_id": "0bbf93677d9009490649b24c49bbe26b", "lon": -77.01501133333333, "name": "0bbf93677d9009490649b24c49bbe26b", "lat": 38.92671266666667, "fusion_lat": 0.0, "rental_uris": {"ios": "https://dc.lft.to/lastmile_qr_scan", "android": "https://dc.lft.to/lastmile_qr_scan"}, "is_disabled": 0, "type": "electric_scooter"}, {"fusion_lon": 0.0, "is_reserved": 0, "bike_id": "f12dc040cf8f79b3c4ae2a2658f28582", "lon": -77.04831116666666, "name": "f12dc040cf8f79b3c4ae2a2658f28582", "lat": 38.900416166666666, "fusion_lat": 0.0, "rental_uris": {"ios": "https://dc.lft.to/lastmile_qr_scan", "android": "https://dc.lft.to/lastmile_qr_scan"}, "is_disabled": 0, "type": "electric_scooter"}, {"fusion_lon": 0.0, "is_reserved": 0, "bike_id": "ac83782b4a30e6ea02cc0f860ccd012d", "lon": -77.02732166666667, "name": "ac83782b4a30e6ea02cc0f860ccd012d", "lat": 38.934604666666665, "fusion_lat": 0.0, "rental_uris": {"ios": "https://dc.lft.to/lastmile_qr_scan", "android": "https://dc.lft.to/lastmile_qr_scan"}, "is_disabled": 0, "type": "electric_scooter"}, {"fusion_lon": 0.0, "is_reserved": 0, "bike_id": "fca8a77da37e2b8da9368a408b3aa79d", "lon": -77.031255, "name": "fca8a77da37e2b8da9368a408b3aa79d", "lat": 38.95937683333333, "fusion_lat": 0.0, "rental_uris": {"ios": "https://dc.lft.to/lastmile_qr_scan", "android": "https://dc.lft.to/lastmile_qr_scan"}, "is_disabled": 0, "type": "electric_scooter"}, {"fusion_lon": 0.0, "is_reserved": 0, "bike_id": "2152af98e56331a469ef78096bea35b1", "lon": -77.06168483333333, "name": "2152af98e56331a469ef78096bea35b1", "lat": 38.902765333333335, "fusion_lat": 0.0, "rental_uris": {"ios": "https://dc.lft.to/lastmile_qr_scan", "android": "https://dc.lft.to/lastmile_qr_scan"}, "is_disabled": 0, "type": "electric_scooter"}, {"fusion_lon": 0.0, "is_reserved": 0, "bike_id": "30daa78fb2a501dd343369e721c50353", "lon": -77.04174533333334, "name": "30daa78fb2a501dd343369e721c50353", "lat": 38.917044833333335, "fusion_lat": 0.0, "rental_uris": {"ios": "https://dc.lft.to/lastmile_qr_scan", "android": "https://dc.lft.to/lastmile_qr_scan"}, "is_disabled": 0, "type": "electric_scooter"}, {"fusion_lon": 0.0, "is_reserved": 0, "bike_id": "30b6b73d37f6e250340ee75c71924ea1", "lon": -77.03182983333333, "name": "30b6b73d37f6e250340ee75c71924ea1", "lat": 38.8922865, "fusion_lat": 0.0, "rental_uris": {"ios": "https://dc.lft.to/lastmile_qr_scan", "android": "https://dc.lft.to/lastmile_qr_scan"}, "is_disabled": 0, "type": "electric_scooter"}, {"fusion_lon": 0.0, "is_reserved": 0, "bike_id": "c7a222a90c5fad1a37d34d991031c30b", "lon": -76.92727133333334, "name": "c7a222a90c5fad1a37d34d991031c30b", "lat": 38.88038733333333, "fusion_lat": 0.0, "rental_uris": {"ios": "https://dc.lft.to/lastmile_qr_scan", "android": "https://dc.lft.to/lastmile_qr_scan"}, "is_disabled": 0, "type": "electric_scooter"}, {"fusion_lon": 0.0, "is_reserved": 0, "bike_id": "0493ab2e597d8e37821b9499c8af32ad", "lon": -77.04144416666666, "name": "0493ab2e597d8e37821b9499c8af32ad", "lat": 38.94260666666667, "fusion_lat": 0.0, "rental_uris": {"ios": "https://dc.lft.to/lastmile_qr_scan", "android": "https://dc.lft.to/lastmile_qr_scan"}, "is_disabled": 0, "type": "electric_scooter"}, {"fusion_lon": 0.0, "is_reserved": 0, "bike_id": "3a43b0e7b52c983457121577ad9634f2", "lon": -77.0521735, "name": "3a43b0e7b52c983457121577ad9634f2", "lat": 38.924837833333335, "fusion_lat": 0.0, "rental_uris": {"ios": "https://dc.lft.to/lastmile_qr_scan", "android": "https://dc.lft.to/lastmile_qr_scan"}, "is_disabled": 0, "type": "electric_scooter"}, {"fusion_lon": 0.0, "is_reserved": 0, "bike_id": "1ae13074aaa270e24204405ee36f830e", "lon": -77.01121366666666, "name": "1ae13074aaa270e24204405ee36f830e", "lat": 38.89545233333333, "fusion_lat": 0.0, "rental_uris": {"ios": "https://dc.lft.to/lastmile_qr_scan", "android": "https://dc.lft.to/lastmile_qr_scan"}, "is_disabled": 0, "type": "electric_scooter"}, {"fusion_lon": 0.0, "is_reserved": 0, "bike_id": "2d9c6cc01eb2cceb33ddf7ba9e311846", "lon": -77.031764, "name": "2d9c6cc01eb2cceb33ddf7ba9e311846", "lat": 38.89247366666667, "fusion_lat": 0.0, "rental_uris": {"ios": "https://dc.lft.to/lastmile_qr_scan", "android": "https://dc.lft.to/lastmile_qr_scan"}, "is_disabled": 0, "type": "electric_scooter"}, {"fusion_lon": 0.0, "is_reserved": 0, "bike_id": "c4bc3174618d11901ddb62fbe358fac3", "lon": -77.23410483333333, "name": "c4bc3174618d11901ddb62fbe358fac3", "lat": 38.8757945, "fusion_lat": 0.0, "rental_uris": {"ios": "https://dc.lft.to/lastmile_qr_scan", "android": "https://dc.lft.to/lastmile_qr_scan"}, "is_disabled": 0, "type": "electric_bike"}, {"fusion_lon": 0.0, "is_reserved": 0, "bike_id": "f8e4fa5a0262ca9bd948c7f2412d3b4e", "lon": -77.02986566666667, "name": "f8e4fa5a0262ca9bd948c7f2412d3b4e", "lat": 38.898356, "fusion_lat": 0.0, "rental_uris": {"ios": "https://dc.lft.to/lastmile_qr_scan", "android": "https://dc.lft.to/lastmile_qr_scan"}, "is_disabled": 0, "type": "electric_scooter"}, {"fusion_lon": 0.0, "is_reserved": 0, "bike_id": "2f3f3ed5f5d5ddc1f04949e24d6b8903", "lon": -76.9813525, "name": "2f3f3ed5f5d5ddc1f04949e24d6b8903", "lat": 38.85710566666667, "fusion_lat": 0.0, "rental_uris": {"ios": "https://dc.lft.to/lastmile_qr_scan", "android": "https://dc.lft.to/lastmile_qr_scan"}, "is_disabled": 0, "type": "electric_scooter"}, {"fusion_lon": 0.0, "is_reserved": 0, "bike_id": "3e122e78d342a037fc23c24e02a762fd", "lon": -77.04243466666667, "name": "3e122e78d342a037fc23c24e02a762fd", "lat": 38.92238483333333, "fusion_lat": 0.0, "rental_uris": {"ios": "https://dc.lft.to/lastmile_qr_scan", "android": "https://dc.lft.to/lastmile_qr_scan"}, "is_disabled": 0, "type": "electric_scooter"}, {"fusion_lon": 0.0, "is_reserved": 0, "bike_id": "1ddd676d3aedf33e132e892004f139a1", "lon": -77.04360316666667, "name": "1ddd676d3aedf33e132e892004f139a1", "lat": 38.9042215, "fusion_lat": 0.0, "rental_uris": {"ios": "https://dc.lft.to/lastmile_qr_scan", "android": "https://dc.lft.to/lastmile_qr_scan"}, "is_disabled": 0, "type": "electric_scooter"}, {"fusion_lon": 0.0, "is_reserved": 0, "bike_id": "3c511496ac2f3d51d68f6111c00536e9", "lon": -77.0212805, "name": "3c511496ac2f3d51d68f6111c00536e9", "lat": 38.92242666666667, "fusion_lat": 0.0, "rental_uris": {"ios": "https://dc.lft.to/lastmile_qr_scan", "android": "https://dc.lft.to/lastmile_qr_scan"}, "is_disabled": 0, "type": "electric_scooter"}, {"fusion_lon": 0.0, "is_reserved": 0, "bike_id": "8ffd3e7c07922cbbad9bc75b85b3081b", "lon": -77.03138233333334, "name": "8ffd3e7c07922cbbad9bc75b85b3081b", "lat": 38.930723666666665, "fusion_lat": 0.0, "rental_uris": {"ios": "https://dc.lft.to/lastmile_qr_scan", "android": "https://dc.lft.to/lastmile_qr_scan"}, "is_disabled": 0, "type": "electric_scooter"}, {"fusion_lon": 0.0, "is_reserved": 0, "bike_id": "d3d188dded3dda7b4daf1f7e902cc2d7", "lon": -77.024531, "name": "d3d188dded3dda7b4daf1f7e902cc2d7", "lat": 38.91554583333333, "fusion_lat": 0.0, "rental_uris": {"ios": "https://dc.lft.to/lastmile_qr_scan", "android": "https://dc.lft.to/lastmile_qr_scan"}, "is_disabled": 0, "type": "electric_scooter"}, {"fusion_lon": 0.0, "is_reserved": 0, "bike_id": "a6724d0d1a7331ad9f190d17e564e6f4", "lon": -77.00931766666666, "name": "a6724d0d1a7331ad9f190d17e564e6f4", "lat": 38.89550916666666, "fusion_lat": 0.0, "rental_uris": {"ios": "https://dc.lft.to/lastmile_qr_scan", "android": "https://dc.lft.to/lastmile_qr_scan"}, "is_disabled": 0, "type": "electric_scooter"}, {"fusion_lon": 0.0, "is_reserved": 0, "bike_id": "3ca53234493343172868c9434792efa3", "lon": -77.0466955, "name": "3ca53234493343172868c9434792efa3", "lat": 38.904266666666665, "fusion_lat": 0.0, "rental_uris": {"ios": "https://dc.lft.to/lastmile_qr_scan", "android": "https://dc.lft.to/lastmile_qr_scan"}, "is_disabled": 0, "type": "electric_scooter"}, {"fusion_lon": 0.0, "is_reserved": 0, "bike_id": "0693d7df6f7be85c91261998d67f3b29", "lon": -77.03398183333333, "name": "0693d7df6f7be85c91261998d67f3b29", "lat": 38.91921416666667, "fusion_lat": 0.0, "rental_uris": {"ios": "https://dc.lft.to/lastmile_qr_scan", "android": "https://dc.lft.to/lastmile_qr_scan"}, "is_disabled": 0, "type": "electric_scooter"}, {"fusion_lon": 0.0, "is_reserved": 0, "bike_id": "9d44c4c0fe6e6a31ceda08a97bf6424d", "lon": -77.03245816666667, "name": "9d44c4c0fe6e6a31ceda08a97bf6424d", "lat": 38.9303605, "fusion_lat": 0.0, "rental_uris": {"ios": "https://dc.lft.to/lastmile_qr_scan", "android": "https://dc.lft.to/lastmile_qr_scan"}, "is_disabled": 0, "type": "electric_scooter"}, {"fusion_lon": 0.0, "is_reserved": 0, "bike_id": "7a048895d273203464f40047d512e1e3", "lon": -76.98668883333333, "name": "7a048895d273203464f40047d512e1e3", "lat": 38.868698, "fusion_lat": 0.0, "rental_uris": {"ios": "https://dc.lft.to/lastmile_qr_scan", "android": "https://dc.lft.to/lastmile_qr_scan"}, "is_disabled": 0, "type": "electric_scooter"}, {"fusion_lon": 0.0, "is_reserved": 0, "bike_id": "b0bc5333313a9d9bf5e0f380ed777ac7", "lon": -77.08323116666666, "name": "b0bc5333313a9d9bf5e0f380ed777ac7", "lat": 38.85446833333334, "fusion_lat": 0.0, "rental_uris": {"ios": "https://dc.lft.to/lastmile_qr_scan", "android": "https://dc.lft.to/lastmile_qr_scan"}, "is_disabled": 0, "type": "electric_bike"}, {"fusion_lon": 0.0, "is_reserved": 0, "bike_id": "182b558efbc7905068cde2ce274cc257", "lon": -77.07195433333334, "name": "182b558efbc7905068cde2ce274cc257", "lat": 38.906888, "fusion_lat": 0.0, "rental_uris": {"ios": "https://dc.lft.to/lastmile_qr_scan", "android": "https://dc.lft.to/lastmile_qr_scan"}, "is_disabled": 0, "type": "electric_scooter"}, {"fusion_lon": 0.0, "is_reserved": 0, "bike_id": "b013b22dca863b03d6ede440eb7ac25c", "lon": -77.01047733333333, "name": "b013b22dca863b03d6ede440eb7ac25c", "lat": 38.92127716666667, "fusion_lat": 0.0, "rental_uris": {"ios": "https://dc.lft.to/lastmile_qr_scan", "android": "https://dc.lft.to/lastmile_qr_scan"}, "is_disabled": 0, "type": "electric_bike"}, {"fusion_lon": 0.0, "is_reserved": 0, "bike_id": "f681fc5eccf72a9c18dabca72de29ff7", "lon": -77.03936183333333, "name": "f681fc5eccf72a9c18dabca72de29ff7", "lat": 38.92467716666667, "fusion_lat": 0.0, "rental_uris": {"ios": "https://dc.lft.to/lastmile_qr_scan", "android": "https://dc.lft.to/lastmile_qr_scan"}, "is_disabled": 0, "type": "electric_scooter"}, {"fusion_lon": 0.0, "is_reserved": 0, "bike_id": "7e4556d3b595af62633c74ec3f834b6d", "lon": -77.02896333333334, "name": "7e4556d3b595af62633c74ec3f834b6d", "lat": 38.940429, "fusion_lat": 0.0, "rental_uris": {"ios": "https://dc.lft.to/lastmile_qr_scan", "android": "https://dc.lft.to/lastmile_qr_scan"}, "is_disabled": 0, "type": "electric_scooter"}, {"fusion_lon": 0.0, "is_reserved": 0, "bike_id": "dcdedbfbd76da0541cccd8e79e94615d", "lon": -77.04824716666667, "name": "dcdedbfbd76da0541cccd8e79e94615d", "lat": 38.902349666666666, "fusion_lat": 0.0, "rental_uris": {"ios": "https://dc.lft.to/lastmile_qr_scan", "android": "https://dc.lft.to/lastmile_qr_scan"}, "is_disabled": 0, "type": "electric_scooter"}, {"fusion_lon": 0.0, "is_reserved": 0, "bike_id": "d6a040ee86c4b966c12df717aecfcfac", "lon": -77.02331966666667, "name": "d6a040ee86c4b966c12df717aecfcfac", "lat": 38.94139716666667, "fusion_lat": 0.0, "rental_uris": {"ios": "https://dc.lft.to/lastmile_qr_scan", "android": "https://dc.lft.to/lastmile_qr_scan"}, "is_disabled": 0, "type": "electric_scooter"}, {"fusion_lon": 0.0, "is_reserved": 0, "bike_id": "1fb62081866d6895589a880b3cf803e7", "lon": -77.025507, "name": "1fb62081866d6895589a880b3cf803e7", "lat": 38.9110035, "fusion_lat": 0.0, "rental_uris": {"ios": "https://dc.lft.to/lastmile_qr_scan", "android": "https://dc.lft.to/lastmile_qr_scan"}, "is_disabled": 0, "type": "electric_scooter"}, {"fusion_lon": 0.0, "is_reserved": 0, "bike_id": "e6d91d3492a52d8f8c89df51137bc841", "lon": -77.0774535, "name": "e6d91d3492a52d8f8c89df51137bc841", "lat": 38.940272, "fusion_lat": 0.0, "rental_uris": {"ios": "https://dc.lft.to/lastmile_qr_scan", "android": "https://dc.lft.to/lastmile_qr_scan"}, "is_disabled": 0, "type": "electric_scooter"}, {"fusion_lon": 0.0, "is_reserved": 0, "bike_id": "09678b8efb8741a222b92dd558fc331f", "lon": -77.036259, "name": "09678b8efb8741a222b92dd558fc331f", "lat": 38.911177, "fusion_lat": 0.0, "rental_uris": {"ios": "https://dc.lft.to/lastmile_qr_scan", "android": "https://dc.lft.to/lastmile_qr_scan"}, "is_disabled": 0, "type": "electric_scooter"}, {"fusion_lon": 0.0, "is_reserved": 0, "bike_id": "c354541f1aec2b139f7fdcac8391f548", "lon": -77.0346265, "name": "c354541f1aec2b139f7fdcac8391f548", "lat": 38.922376666666665, "fusion_lat": 0.0, "rental_uris": {"ios": "https://dc.lft.to/lastmile_qr_scan", "android": "https://dc.lft.to/lastmile_qr_scan"}, "is_disabled": 0, "type": "electric_scooter"}, {"fusion_lon": 0.0, "is_reserved": 0, "bike_id": "4c543e1e9f778ac8e90d519873483f86", "lon": -77.0186995, "name": "4c543e1e9f778ac8e90d519873483f86", "lat": 38.92177866666667, "fusion_lat": 0.0, "rental_uris": {"ios": "https://dc.lft.to/lastmile_qr_scan", "android": "https://dc.lft.to/lastmile_qr_scan"}, "is_disabled": 0, "type": "electric_scooter"}, {"fusion_lon": 0.0, "is_reserved": 0, "bike_id": "9aecf56bf892ba439a3eb0e262bc460e", "lon": -77.04557616666666, "name": "9aecf56bf892ba439a3eb0e262bc460e", "lat": 38.91363416666667, "fusion_lat": 0.0, "rental_uris": {"ios": "https://dc.lft.to/lastmile_qr_scan", "android": "https://dc.lft.to/lastmile_qr_scan"}, "is_disabled": 0, "type": "electric_scooter"}, {"fusion_lon": 0.0, "is_reserved": 0, "bike_id": "b0b713bf1911bdfc1ccf80e3ac0d7560", "lon": -77.034681, "name": "b0b713bf1911bdfc1ccf80e3ac0d7560", "lat": 38.920599833333334, "fusion_lat": 0.0, "rental_uris": {"ios": "https://dc.lft.to/lastmile_qr_scan", "android": "https://dc.lft.to/lastmile_qr_scan"}, "is_disabled": 0, "type": "electric_scooter"}, {"fusion_lon": 0.0, "is_reserved": 0, "bike_id": "b7d72cfa0fc21f5335217e5c396525d8", "lon": -76.92747783333333, "name": "b7d72cfa0fc21f5335217e5c396525d8", "lat": 38.900714666666666, "fusion_lat": 0.0, "rental_uris": {"ios": "https://dc.lft.to/lastmile_qr_scan", "android": "https://dc.lft.to/lastmile_qr_scan"}, "is_disabled": 0, "type": "electric_scooter"}, {"fusion_lon": 0.0, "is_reserved": 0, "bike_id": "587e67bbafcebba7196c2d25e706be45", "lon": -77.04988966666667, "name": "587e67bbafcebba7196c2d25e706be45", "lat": 38.907972666666666, "fusion_lat": 0.0, "rental_uris": {"ios": "https://dc.lft.to/lastmile_qr_scan", "android": "https://dc.lft.to/lastmile_qr_scan"}, "is_disabled": 0, "type": "electric_scooter"}, {"fusion_lon": 0.0, "is_reserved": 0, "bike_id": "cd5d4f80ccea0fa5593c4d967a54268b", "lon": -77.078033, "name": "cd5d4f80ccea0fa5593c4d967a54268b", "lat": 38.94473166666667, "fusion_lat": 0.0, "rental_uris": {"ios": "https://dc.lft.to/lastmile_qr_scan", "android": "https://dc.lft.to/lastmile_qr_scan"}, "is_disabled": 0, "type": "electric_scooter"}, {"fusion_lon": 0.0, "is_reserved": 0, "bike_id": "d7c4580bf6ac5a78b0fb7654edd50cac", "lon": -77.0426215, "name": "d7c4580bf6ac5a78b0fb7654edd50cac", "lat": 38.830832, "fusion_lat": 0.0, "rental_uris": {"ios": "https://dc.lft.to/lastmile_qr_scan", "android": "https://dc.lft.to/lastmile_qr_scan"}, "is_disabled": 0, "type": "electric_bike"}, {"fusion_lon": 0.0, "is_reserved": 0, "bike_id": "a2051d5b1699b181d63d86f858bb6d9a", "lon": -76.992958, "name": "a2051d5b1699b181d63d86f858bb6d9a", "lat": 38.881229166666664, "fusion_lat": 0.0, "rental_uris": {"ios": "https://dc.lft.to/lastmile_qr_scan", "android": "https://dc.lft.to/lastmile_qr_scan"}, "is_disabled": 0, "type": "electric_scooter"}, {"fusion_lon": 0.0, "is_reserved": 0, "bike_id": "b82305a087b8b08aa91806885fbccbe3", "lon": -77.02696033333334, "name": "b82305a087b8b08aa91806885fbccbe3", "lat": 38.92374066666667, "fusion_lat": 0.0, "rental_uris": {"ios": "https://dc.lft.to/lastmile_qr_scan", "android": "https://dc.lft.to/lastmile_qr_scan"}, "is_disabled": 0, "type": "electric_scooter"}, {"fusion_lon": 0.0, "is_reserved": 0, "bike_id": "b1958b060f74c9aa2262b0fac8056bf8", "lon": -77.02941433333334, "name": "b1958b060f74c9aa2262b0fac8056bf8", "lat": 38.90152966666667, "fusion_lat": 0.0, "rental_uris": {"ios": "https://dc.lft.to/lastmile_qr_scan", "android": "https://dc.lft.to/lastmile_qr_scan"}, "is_disabled": 0, "type": "electric_scooter"}, {"fusion_lon": 0.0, "is_reserved": 0, "bike_id": "765c22abfb940655d75cfc91051cc56f", "lon": -76.99621233333333, "name": "765c22abfb940655d75cfc91051cc56f", "lat": 38.88141316666667, "fusion_lat": 0.0, "rental_uris": {"ios": "https://dc.lft.to/lastmile_qr_scan", "android": "https://dc.lft.to/lastmile_qr_scan"}, "is_disabled": 0, "type": "electric_scooter"}, {"fusion_lon": 0.0, "is_reserved": 0, "bike_id": "d7932b48c8f697bdd3ce43b520c9470c", "lon": -76.99584116666666, "name": "d7932b48c8f697bdd3ce43b520c9470c", "lat": 38.9283485, "fusion_lat": 0.0, "rental_uris": {"ios": "https://dc.lft.to/lastmile_qr_scan", "android": "https://dc.lft.to/lastmile_qr_scan"}, "is_disabled": 0, "type": "electric_scooter"}, {"fusion_lon": 0.0, "is_reserved": 0, "bike_id": "41acb68d5ce1a0113f8d88ddca07ae19", "lon": -77.00311133333334, "name": "41acb68d5ce1a0113f8d88ddca07ae19", "lat": 38.89225666666667, "fusion_lat": 0.0, "rental_uris": {"ios": "https://dc.lft.to/lastmile_qr_scan", "android": "https://dc.lft.to/lastmile_qr_scan"}, "is_disabled": 0, "type": "electric_scooter"}, {"fusion_lon": 0.0, "is_reserved": 0, "bike_id": "6465c422d1ba9761248ebef650d7903a", "lon": -76.99160016666667, "name": "6465c422d1ba9761248ebef650d7903a", "lat": 38.8785975, "fusion_lat": 0.0, "rental_uris": {"ios": "https://dc.lft.to/lastmile_qr_scan", "android": "https://dc.lft.to/lastmile_qr_scan"}, "is_disabled": 0, "type": "electric_scooter"}, {"fusion_lon": 0.0, "is_reserved": 0, "bike_id": "8c1c6f353efd06561ea09337e9ee9fd4", "lon": -77.02170733333334, "name": "8c1c6f353efd06561ea09337e9ee9fd4", "lat": 38.92615633333333, "fusion_lat": 0.0, "rental_uris": {"ios": "https://dc.lft.to/lastmile_qr_scan", "android": "https://dc.lft.to/lastmile_qr_scan"}, "is_disabled": 0, "type": "electric_scooter"}, {"fusion_lon": 0.0, "is_reserved": 0, "bike_id": "1d26c6262b4b64e119ba4c33ffb84854", "lon": -77.047624, "name": "1d26c6262b4b64e119ba4c33ffb84854", "lat": 38.918247, "fusion_lat": 0.0, "rental_uris": {"ios": "https://dc.lft.to/lastmile_qr_scan", "android": "https://dc.lft.to/lastmile_qr_scan"}, "is_disabled": 0, "type": "electric_scooter"}, {"fusion_lon": 0.0, "is_reserved": 0, "bike_id": "a93bccec2451dfe6862088845d89f8c9", "lon": -77.02183533333333, "name": "a93bccec2451dfe6862088845d89f8c9", "lat": 38.914857166666664, "fusion_lat": 0.0, "rental_uris": {"ios": "https://dc.lft.to/lastmile_qr_scan", "android": "https://dc.lft.to/lastmile_qr_scan"}, "is_disabled": 0, "type": "electric_scooter"}, {"fusion_lon": 0.0, "is_reserved": 0, "bike_id": "0c214de42237f4808fa00db48c36b939", "lon": -77.036645, "name": "0c214de42237f4808fa00db48c36b939", "lat": 38.92243716666667, "fusion_lat": 0.0, "rental_uris": {"ios": "https://dc.lft.to/lastmile_qr_scan", "android": "https://dc.lft.to/lastmile_qr_scan"}, "is_disabled": 0, "type": "electric_scooter"}, {"fusion_lon": 0.0, "is_reserved": 0, "bike_id": "9c114da82df9673d131f21238db2051c", "lon": -76.9943375, "name": "9c114da82df9673d131f21238db2051c", "lat": 38.9334905, "fusion_lat": 0.0, "rental_uris": {"ios": "https://dc.lft.to/lastmile_qr_scan", "android": "https://dc.lft.to/lastmile_qr_scan"}, "is_disabled": 0, "type": "electric_scooter"}, {"fusion_lon": 0.0, "is_reserved": 0, "bike_id": "2e53de1bcc1e0e3a4a40e16044df6066", "lon": -77.02846366666667, "name": "2e53de1bcc1e0e3a4a40e16044df6066", "lat": 38.942646, "fusion_lat": 0.0, "rental_uris": {"ios": "https://dc.lft.to/lastmile_qr_scan", "android": "https://dc.lft.to/lastmile_qr_scan"}, "is_disabled": 0, "type": "electric_bike"}, {"fusion_lon": 0.0, "is_reserved": 0, "bike_id": "92a42cefd810a6d6fe4a92ff74732e5c", "lon": -77.00209733333334, "name": "92a42cefd810a6d6fe4a92ff74732e5c", "lat": 38.90844716666667, "fusion_lat": 0.0, "rental_uris": {"ios": "https://dc.lft.to/lastmile_qr_scan", "android": "https://dc.lft.to/lastmile_qr_scan"}, "is_disabled": 0, "type": "electric_scooter"}, {"fusion_lon": 0.0, "is_reserved": 0, "bike_id": "d9cd1d60bbf66e3828a38cd361e98710", "lon": -76.98948516666667, "name": "d9cd1d60bbf66e3828a38cd361e98710", "lat": 38.9039745, "fusion_lat": 0.0, "rental_uris": {"ios": "https://dc.lft.to/lastmile_qr_scan", "android": "https://dc.lft.to/lastmile_qr_scan"}, "is_disabled": 0, "type": "electric_scooter"}, {"fusion_lon": 0.0, "is_reserved": 0, "bike_id": "6dd6761f6e16e80a6a2ef5366363c397", "lon": -77.01386483333333, "name": "6dd6761f6e16e80a6a2ef5366363c397", "lat": 38.886712, "fusion_lat": 0.0, "rental_uris": {"ios": "https://dc.lft.to/lastmile_qr_scan", "android": "https://dc.lft.to/lastmile_qr_scan"}, "is_disabled": 0, "type": "electric_scooter"}, {"fusion_lon": 0.0, "is_reserved": 0, "bike_id": "6ba268d096f231d5a7896c5ef91bc43f", "lon": -77.071754, "name": "6ba268d096f231d5a7896c5ef91bc43f", "lat": 38.920164, "fusion_lat": 0.0, "rental_uris": {"ios": "https://dc.lft.to/lastmile_qr_scan", "android": "https://dc.lft.to/lastmile_qr_scan"}, "is_disabled": 0, "type": "electric_scooter"}, {"fusion_lon": 0.0, "is_reserved": 0, "bike_id": "9cbad5376811d77d92a4bc44e58979d0", "lon": -76.90755333333334, "name": "9cbad5376811d77d92a4bc44e58979d0", "lat": 38.896154333333335, "fusion_lat": 0.0, "rental_uris": {"ios": "https://dc.lft.to/lastmile_qr_scan", "android": "https://dc.lft.to/lastmile_qr_scan"}, "is_disabled": 0, "type": "electric_bike"}, {"fusion_lon": 0.0, "is_reserved": 0, "bike_id": "03858447c4dddb185d2d2c9d66232125", "lon": -76.95753933333333, "name": "03858447c4dddb185d2d2c9d66232125", "lat": 38.884390333333336, "fusion_lat": 0.0, "rental_uris": {"ios": "https://dc.lft.to/lastmile_qr_scan", "android": "https://dc.lft.to/lastmile_qr_scan"}, "is_disabled": 0, "type": "electric_scooter"}, {"fusion_lon": 0.0, "is_reserved": 0, "bike_id": "542cd17b7e6042da841dbf9bff668862", "lon": -76.9979725, "name": "542cd17b7e6042da841dbf9bff668862", "lat": 38.9483045, "fusion_lat": 0.0, "rental_uris": {"ios": "https://dc.lft.to/lastmile_qr_scan", "android": "https://dc.lft.to/lastmile_qr_scan"}, "is_disabled": 0, "type": "electric_scooter"}, {"fusion_lon": 0.0, "is_reserved": 0, "bike_id": "fc471b6a807c810f948996b6c52dc6f9", "lon": -77.03863466666667, "name": "fc471b6a807c810f948996b6c52dc6f9", "lat": 38.9027505, "fusion_lat": 0.0, "rental_uris": {"ios": "https://dc.lft.to/lastmile_qr_scan", "android": "https://dc.lft.to/lastmile_qr_scan"}, "is_disabled": 0, "type": "electric_scooter"}, {"fusion_lon": 0.0, "is_reserved": 0, "bike_id": "edbd9ab75f31b81245850bb20e54bed0", "lon": -76.9925885, "name": "edbd9ab75f31b81245850bb20e54bed0", "lat": 38.807333666666665, "fusion_lat": 0.0, "rental_uris": {"ios": "https://dc.lft.to/lastmile_qr_scan", "android": "https://dc.lft.to/lastmile_qr_scan"}, "is_disabled": 0, "type": "electric_bike"}, {"fusion_lon": 0.0, "is_reserved": 0, "bike_id": "80f1cba1bfb276f70e725750e320e218", "lon": -77.04725266666667, "name": "80f1cba1bfb276f70e725750e320e218", "lat": 38.89969466666667, "fusion_lat": 0.0, "rental_uris": {"ios": "https://dc.lft.to/lastmile_qr_scan", "android": "https://dc.lft.to/lastmile_qr_scan"}, "is_disabled": 0, "type": "electric_scooter"}, {"fusion_lon": 0.0, "is_reserved": 0, "bike_id": "7a9e3864e07839c161892882cbb53b6a", "lon": -77.02966833333333, "name": "7a9e3864e07839c161892882cbb53b6a", "lat": 38.92685916666667, "fusion_lat": 0.0, "rental_uris": {"ios": "https://dc.lft.to/lastmile_qr_scan", "android": "https://dc.lft.to/lastmile_qr_scan"}, "is_disabled": 0, "type": "electric_scooter"}, {"fusion_lon": 0.0, "is_reserved": 0, "bike_id": "d0a34ddd8a27dfd4f3f2fcfcd0739bb9", "lon": -77.02161833333334, "name": "d0a34ddd8a27dfd4f3f2fcfcd0739bb9", "lat": 38.926149333333335, "fusion_lat": 0.0, "rental_uris": {"ios": "https://dc.lft.to/lastmile_qr_scan", "android": "https://dc.lft.to/lastmile_qr_scan"}, "is_disabled": 0, "type": "electric_scooter"}, {"fusion_lon": 0.0, "is_reserved": 0, "bike_id": "c9b0e5f2672a6284167c95cba488f880", "lon": -77.04368733333334, "name": "c9b0e5f2672a6284167c95cba488f880", "lat": 38.89226, "fusion_lat": 0.0, "rental_uris": {"ios": "https://dc.lft.to/lastmile_qr_scan", "android": "https://dc.lft.to/lastmile_qr_scan"}, "is_disabled": 0, "type": "electric_scooter"}, {"fusion_lon": 0.0, "is_reserved": 0, "bike_id": "5c5de8baaa2ff469afdb27993fd40d66", "lon": -77.0265795, "name": "5c5de8baaa2ff469afdb27993fd40d66", "lat": 38.92387466666667, "fusion_lat": 0.0, "rental_uris": {"ios": "https://dc.lft.to/lastmile_qr_scan", "android": "https://dc.lft.to/lastmile_qr_scan"}, "is_disabled": 0, "type": "electric_scooter"}, {"fusion_lon": 0.0, "is_reserved": 0, "bike_id": "2e0dc1120e488a0f53a7b5c5a5459c11", "lon": -77.03473083333333, "name": "2e0dc1120e488a0f53a7b5c5a5459c11", "lat": 38.905646833333336, "fusion_lat": 0.0, "rental_uris": {"ios": "https://dc.lft.to/lastmile_qr_scan", "android": "https://dc.lft.to/lastmile_qr_scan"}, "is_disabled": 0, "type": "electric_scooter"}, {"fusion_lon": 0.0, "is_reserved": 0, "bike_id": "51e2065add56f03d60ad5d4529e449e0", "lon": -77.01772966666667, "name": "51e2065add56f03d60ad5d4529e449e0", "lat": 38.90268366666667, "fusion_lat": 0.0, "rental_uris": {"ios": "https://dc.lft.to/lastmile_qr_scan", "android": "https://dc.lft.to/lastmile_qr_scan"}, "is_disabled": 0, "type": "electric_scooter"}, {"fusion_lon": 0.0, "is_reserved": 0, "bike_id": "8738394b647c3015e2f4f6b85dd84ca7", "lon": -76.93550033333334, "name": "8738394b647c3015e2f4f6b85dd84ca7", "lat": 38.8764815, "fusion_lat": 0.0, "rental_uris": {"ios": "https://dc.lft.to/lastmile_qr_scan", "android": "https://dc.lft.to/lastmile_qr_scan"}, "is_disabled": 0, "type": "electric_bike"}, {"fusion_lon": 0.0, "is_reserved": 0, "bike_id": "94286a1c74b40933355fa39ebe4dd19c", "lon": -77.03312033333333, "name": "94286a1c74b40933355fa39ebe4dd19c", "lat": 38.89856416666667, "fusion_lat": 0.0, "rental_uris": {"ios": "https://dc.lft.to/lastmile_qr_scan", "android": "https://dc.lft.to/lastmile_qr_scan"}, "is_disabled": 0, "type": "electric_scooter"}, {"fusion_lon": 0.0, "is_reserved": 0, "bike_id": "8265a3241b5a36c5ff36bca15e1b3f7d", "lon": -77.0502885, "name": "8265a3241b5a36c5ff36bca15e1b3f7d", "lat": 38.89256866666667, "fusion_lat": 0.0, "rental_uris": {"ios": "https://dc.lft.to/lastmile_qr_scan", "android": "https://dc.lft.to/lastmile_qr_scan"}, "is_disabled": 0, "type": "electric_scooter"}, {"fusion_lon": 0.0, "is_reserved": 0, "bike_id": "90f0bea85201158947826560ee0014fa", "lon": -77.03834333333333, "name": "90f0bea85201158947826560ee0014fa", "lat": 38.911228666666666, "fusion_lat": 0.0, "rental_uris": {"ios": "https://dc.lft.to/lastmile_qr_scan", "android": "https://dc.lft.to/lastmile_qr_scan"}, "is_disabled": 0, "type": "electric_scooter"}, {"fusion_lon": 0.0, "is_reserved": 0, "bike_id": "89fbad196ce0aaa20950c11371ba211d", "lon": -77.03344816666667, "name": "89fbad196ce0aaa20950c11371ba211d", "lat": 38.8848175, "fusion_lat": 0.0, "rental_uris": {"ios": "https://dc.lft.to/lastmile_qr_scan", "android": "https://dc.lft.to/lastmile_qr_scan"}, "is_disabled": 0, "type": "electric_scooter"}, {"fusion_lon": 0.0, "is_reserved": 0, "bike_id": "8efd6e17b6e6e3c4101302f3d4ee5e10", "lon": -77.03632066666667, "name": "8efd6e17b6e6e3c4101302f3d4ee5e10", "lat": 38.923493666666666, "fusion_lat": 0.0, "rental_uris": {"ios": "https://dc.lft.to/lastmile_qr_scan", "android": "https://dc.lft.to/lastmile_qr_scan"}, "is_disabled": 0, "type": "electric_scooter"}, {"fusion_lon": 0.0, "is_reserved": 0, "bike_id": "89ce22540d1325440edc3ee5c44a1781", "lon": -77.04181266666667, "name": "89ce22540d1325440edc3ee5c44a1781", "lat": 38.91818383333333, "fusion_lat": 0.0, "rental_uris": {"ios": "https://dc.lft.to/lastmile_qr_scan", "android": "https://dc.lft.to/lastmile_qr_scan"}, "is_disabled": 0, "type": "electric_scooter"}, {"fusion_lon": 0.0, "is_reserved": 0, "bike_id": "2eef590daab93dbca8e7605ffa8255cc", "lon": -77.02749166666666, "name": "2eef590daab93dbca8e7605ffa8255cc", "lat": 38.926758666666665, "fusion_lat": 0.0, "rental_uris": {"ios": "https://dc.lft.to/lastmile_qr_scan", "android": "https://dc.lft.to/lastmile_qr_scan"}, "is_disabled": 0, "type": "electric_scooter"}, {"fusion_lon": 0.0, "is_reserved": 0, "bike_id": "fdbcc10c8bcfdd3d6014b1cc060227fd", "lon": -77.018242, "name": "fdbcc10c8bcfdd3d6014b1cc060227fd", "lat": 38.914058, "fusion_lat": 0.0, "rental_uris": {"ios": "https://dc.lft.to/lastmile_qr_scan", "android": "https://dc.lft.to/lastmile_qr_scan"}, "is_disabled": 0, "type": "electric_scooter"}, {"fusion_lon": 0.0, "is_reserved": 0, "bike_id": "a48fc296c7109dc605ac721cdb3ccd95", "lon": -77.03189583333334, "name": "a48fc296c7109dc605ac721cdb3ccd95", "lat": 38.933138, "fusion_lat": 0.0, "rental_uris": {"ios": "https://dc.lft.to/lastmile_qr_scan", "android": "https://dc.lft.to/lastmile_qr_scan"}, "is_disabled": 0, "type": "electric_scooter"}, {"fusion_lon": 0.0, "is_reserved": 0, "bike_id": "988087e8665491e73cee285012c3f76d", "lon": -77.02498883333334, "name": "988087e8665491e73cee285012c3f76d", "lat": 38.919287833333335, "fusion_lat": 0.0, "rental_uris": {"ios": "https://dc.lft.to/lastmile_qr_scan", "android": "https://dc.lft.to/lastmile_qr_scan"}, "is_disabled": 0, "type": "electric_scooter"}, {"fusion_lon": 0.0, "is_reserved": 0, "bike_id": "ecfd58778121fe1b63e7079049388498", "lon": -77.04249566666667, "name": "ecfd58778121fe1b63e7079049388498", "lat": 38.92220833333333, "fusion_lat": 0.0, "rental_uris": {"ios": "https://dc.lft.to/lastmile_qr_scan", "android": "https://dc.lft.to/lastmile_qr_scan"}, "is_disabled": 0, "type": "electric_scooter"}, {"fusion_lon": 0.0, "is_reserved": 0, "bike_id": "7594b25ccbbaae305a0659686600ce08", "lon": -77.015983, "name": "7594b25ccbbaae305a0659686600ce08", "lat": 38.8878775, "fusion_lat": 0.0, "rental_uris": {"ios": "https://dc.lft.to/lastmile_qr_scan", "android": "https://dc.lft.to/lastmile_qr_scan"}, "is_disabled": 0, "type": "electric_scooter"}, {"fusion_lon": 0.0, "is_reserved": 0, "bike_id": "d5cc74219cdd7a1773eec9096622396b", "lon": -76.93191633333333, "name": "d5cc74219cdd7a1773eec9096622396b", "lat": 38.89855466666667, "fusion_lat": 0.0, "rental_uris": {"ios": "https://dc.lft.to/lastmile_qr_scan", "android": "https://dc.lft.to/lastmile_qr_scan"}, "is_disabled": 0, "type": "electric_bike"}, {"fusion_lon": 0.0, "is_reserved": 0, "bike_id": "dd98c8907bc42f4eb7b6369b6afd371a", "lon": -77.03361233333334, "name": "dd98c8907bc42f4eb7b6369b6afd371a", "lat": 38.924494333333335, "fusion_lat": 0.0, "rental_uris": {"ios": "https://dc.lft.to/lastmile_qr_scan", "android": "https://dc.lft.to/lastmile_qr_scan"}, "is_disabled": 0, "type": "electric_scooter"}, {"fusion_lon": 0.0, "is_reserved": 0, "bike_id": "b2806d9f1e4344f7a2dbecbcbbb07530", "lon": -77.0033945, "name": "b2806d9f1e4344f7a2dbecbcbbb07530", "lat": 38.89359616666667, "fusion_lat": 0.0, "rental_uris": {"ios": "https://dc.lft.to/lastmile_qr_scan", "android": "https://dc.lft.to/lastmile_qr_scan"}, "is_disabled": 0, "type": "electric_scooter"}, {"fusion_lon": 0.0, "is_reserved": 0, "bike_id": "2efb968e9fb8a57336f712237f682482", "lon": -77.02279266666666, "name": "2efb968e9fb8a57336f712237f682482", "lat": 38.88136083333333, "fusion_lat": 0.0, "rental_uris": {"ios": "https://dc.lft.to/lastmile_qr_scan", "android": "https://dc.lft.to/lastmile_qr_scan"}, "is_disabled": 0, "type": "electric_scooter"}, {"fusion_lon": 0.0, "is_reserved": 0, "bike_id": "c05e75146ba5ca0b761188c0c4545c28", "lon": -77.030762, "name": "c05e75146ba5ca0b761188c0c4545c28", "lat": 38.9330765, "fusion_lat": 0.0, "rental_uris": {"ios": "https://dc.lft.to/lastmile_qr_scan", "android": "https://dc.lft.to/lastmile_qr_scan"}, "is_disabled": 0, "type": "electric_scooter"}, {"fusion_lon": 0.0, "is_reserved": 0, "bike_id": "8af41ce02b6bdcd273f46beb55e687a1", "lon": -76.94861633333333, "name": "8af41ce02b6bdcd273f46beb55e687a1", "lat": 38.89614433333333, "fusion_lat": 0.0, "rental_uris": {"ios": "https://dc.lft.to/lastmile_qr_scan", "android": "https://dc.lft.to/lastmile_qr_scan"}, "is_disabled": 0, "type": "electric_scooter"}, {"fusion_lon": 0.0, "is_reserved": 0, "bike_id": "636bf3a32c686bfa6823c383a3b31ec1", "lon": -76.96272883333333, "name": "636bf3a32c686bfa6823c383a3b31ec1", "lat": 38.956135833333335, "fusion_lat": 0.0, "rental_uris": {"ios": "https://dc.lft.to/lastmile_qr_scan", "android": "https://dc.lft.to/lastmile_qr_scan"}, "is_disabled": 0, "type": "electric_bike"}, {"fusion_lon": 0.0, "is_reserved": 0, "bike_id": "a73565aba69d85f5ed4ac80257391873", "lon": -77.04502116666667, "name": "a73565aba69d85f5ed4ac80257391873", "lat": 38.89223283333333, "fusion_lat": 0.0, "rental_uris": {"ios": "https://dc.lft.to/lastmile_qr_scan", "android": "https://dc.lft.to/lastmile_qr_scan"}, "is_disabled": 0, "type": "electric_scooter"}, {"fusion_lon": 0.0, "is_reserved": 0, "bike_id": "f58f7c4d71fc443816a7074884cf6eb9", "lon": -77.031163, "name": "f58f7c4d71fc443816a7074884cf6eb9", "lat": 38.92311383333333, "fusion_lat": 0.0, "rental_uris": {"ios": "https://dc.lft.to/lastmile_qr_scan", "android": "https://dc.lft.to/lastmile_qr_scan"}, "is_disabled": 0, "type": "electric_scooter"}, {"fusion_lon": 0.0, "is_reserved": 0, "bike_id": "95970556aba6a1f2d0358038c7ff48d1", "lon": -77.02411116666667, "name": "95970556aba6a1f2d0358038c7ff48d1", "lat": 38.892262833333334, "fusion_lat": 0.0, "rental_uris": {"ios": "https://dc.lft.to/lastmile_qr_scan", "android": "https://dc.lft.to/lastmile_qr_scan"}, "is_disabled": 0, "type": "electric_scooter"}, {"fusion_lon": 0.0, "is_reserved": 0, "bike_id": "15357ff692ab55abc238134d9d5ef17a", "lon": -76.97752216666666, "name": "15357ff692ab55abc238134d9d5ef17a", "lat": 38.864835, "fusion_lat": 0.0, "rental_uris": {"ios": "https://dc.lft.to/lastmile_qr_scan", "android": "https://dc.lft.to/lastmile_qr_scan"}, "is_disabled": 0, "type": "electric_bike"}, {"fusion_lon": 0.0, "is_reserved": 0, "bike_id": "3d8a6c5be7a54e24a0687e8b58e63d69", "lon": -77.02829916666667, "name": "3d8a6c5be7a54e24a0687e8b58e63d69", "lat": 38.902653, "fusion_lat": 0.0, "rental_uris": {"ios": "https://dc.lft.to/lastmile_qr_scan", "android": "https://dc.lft.to/lastmile_qr_scan"}, "is_disabled": 0, "type": "electric_scooter"}, {"fusion_lon": 0.0, "is_reserved": 0, "bike_id": "b251ade5c6dae3ed5adf8ffc19513315", "lon": -76.97087583333334, "name": "b251ade5c6dae3ed5adf8ffc19513315", "lat": 38.950666166666664, "fusion_lat": 0.0, "rental_uris": {"ios": "https://dc.lft.to/lastmile_qr_scan", "android": "https://dc.lft.to/lastmile_qr_scan"}, "is_disabled": 0, "type": "electric_bike"}, {"fusion_lon": 0.0, "is_reserved": 0, "bike_id": "3100ccf51c2cf28b1d62496c70cd19c5", "lon": -77.02753233333334, "name": "3100ccf51c2cf28b1d62496c70cd19c5", "lat": 38.944111166666666, "fusion_lat": 0.0, "rental_uris": {"ios": "https://dc.lft.to/lastmile_qr_scan", "android": "https://dc.lft.to/lastmile_qr_scan"}, "is_disabled": 0, "type": "electric_scooter"}, {"fusion_lon": 0.0, "is_reserved": 0, "bike_id": "1a969dcbc812df7dd79fbdfa11c0d854", "lon": -77.09965466666667, "name": "1a969dcbc812df7dd79fbdfa11c0d854", "lat": 38.857946, "fusion_lat": 0.0, "rental_uris": {"ios": "https://dc.lft.to/lastmile_qr_scan", "android": "https://dc.lft.to/lastmile_qr_scan"}, "is_disabled": 0, "type": "electric_bike"}, {"fusion_lon": 0.0, "is_reserved": 0, "bike_id": "1c13cc229ec6e1f812e4338298f1d5c0", "lon": -77.02809583333334, "name": "1c13cc229ec6e1f812e4338298f1d5c0", "lat": 38.9559005, "fusion_lat": 0.0, "rental_uris": {"ios": "https://dc.lft.to/lastmile_qr_scan", "android": "https://dc.lft.to/lastmile_qr_scan"}, "is_disabled": 0, "type": "electric_scooter"}, {"fusion_lon": 0.0, "is_reserved": 0, "bike_id": "b65ff65579bade12ffe5f0b7398eccaa", "lon": -77.037905, "name": "b65ff65579bade12ffe5f0b7398eccaa", "lat": 38.924740166666666, "fusion_lat": 0.0, "rental_uris": {"ios": "https://dc.lft.to/lastmile_qr_scan", "android": "https://dc.lft.to/lastmile_qr_scan"}, "is_disabled": 0, "type": "electric_scooter"}, {"fusion_lon": 0.0, "is_reserved": 0, "bike_id": "8a3b3c5c5d54277f9f883f7ba87edeae", "lon": -77.0039615, "name": "8a3b3c5c5d54277f9f883f7ba87edeae", "lat": 38.905581833333336, "fusion_lat": 0.0, "rental_uris": {"ios": "https://dc.lft.to/lastmile_qr_scan", "android": "https://dc.lft.to/lastmile_qr_scan"}, "is_disabled": 0, "type": "electric_scooter"}, {"fusion_lon": 0.0, "is_reserved": 0, "bike_id": "beba8e25149cc991a148500ba3a07800", "lon": -77.02136016666667, "name": "beba8e25149cc991a148500ba3a07800", "lat": 38.9241735, "fusion_lat": 0.0, "rental_uris": {"ios": "https://dc.lft.to/lastmile_qr_scan", "android": "https://dc.lft.to/lastmile_qr_scan"}, "is_disabled": 0, "type": "electric_scooter"}, {"fusion_lon": 0.0, "is_reserved": 0, "bike_id": "796c5e89ea73a93865ab15f2c0d1245e", "lon": -77.048909, "name": "796c5e89ea73a93865ab15f2c0d1245e", "lat": 38.9016015, "fusion_lat": 0.0, "rental_uris": {"ios": "https://dc.lft.to/lastmile_qr_scan", "android": "https://dc.lft.to/lastmile_qr_scan"}, "is_disabled": 0, "type": "electric_scooter"}, {"fusion_lon": 0.0, "is_reserved": 0, "bike_id": "831b1ef62aa94fa5c0bdc94af5f5afcc", "lon": -77.02306916666667, "name": "831b1ef62aa94fa5c0bdc94af5f5afcc", "lat": 38.9205805, "fusion_lat": 0.0, "rental_uris": {"ios": "https://dc.lft.to/lastmile_qr_scan", "android": "https://dc.lft.to/lastmile_qr_scan"}, "is_disabled": 0, "type": "electric_scooter"}, {"fusion_lon": 0.0, "is_reserved": 0, "bike_id": "0ef60eb5db3ed6f7e0fef7a13168faed", "lon": -76.99437966666666, "name": "0ef60eb5db3ed6f7e0fef7a13168faed", "lat": 38.9334525, "fusion_lat": 0.0, "rental_uris": {"ios": "https://dc.lft.to/lastmile_qr_scan", "android": "https://dc.lft.to/lastmile_qr_scan"}, "is_disabled": 0, "type": "electric_scooter"}, {"fusion_lon": 0.0, "is_reserved": 0, "bike_id": "be53dc4d03bf1391b2c7c26097dc7957", "lon": -77.02918316666667, "name": "be53dc4d03bf1391b2c7c26097dc7957", "lat": 38.892495333333336, "fusion_lat": 0.0, "rental_uris": {"ios": "https://dc.lft.to/lastmile_qr_scan", "android": "https://dc.lft.to/lastmile_qr_scan"}, "is_disabled": 0, "type": "electric_scooter"}, {"fusion_lon": 0.0, "is_reserved": 0, "bike_id": "7e2271f0ae0fad463572a626a9fbf9c5", "lon": -77.045812, "name": "7e2271f0ae0fad463572a626a9fbf9c5", "lat": 38.914104333333334, "fusion_lat": 0.0, "rental_uris": {"ios": "https://dc.lft.to/lastmile_qr_scan", "android": "https://dc.lft.to/lastmile_qr_scan"}, "is_disabled": 0, "type": "electric_scooter"}, {"fusion_lon": 0.0, "is_reserved": 0, "bike_id": "74d287ae4a8dcdf22a1722cbe9425fa7", "lon": -77.00586716666666, "name": "74d287ae4a8dcdf22a1722cbe9425fa7", "lat": 38.876017833333336, "fusion_lat": 0.0, "rental_uris": {"ios": "https://dc.lft.to/lastmile_qr_scan", "android": "https://dc.lft.to/lastmile_qr_scan"}, "is_disabled": 0, "type": "electric_scooter"}, {"fusion_lon": 0.0, "is_reserved": 0, "bike_id": "0a11ddf92992330394d12137d11ff239", "lon": -77.030647, "name": "0a11ddf92992330394d12137d11ff239", "lat": 38.923772666666665, "fusion_lat": 0.0, "rental_uris": {"ios": "https://dc.lft.to/lastmile_qr_scan", "android": "https://dc.lft.to/lastmile_qr_scan"}, "is_disabled": 0, "type": "electric_scooter"}, {"fusion_lon": 0.0, "is_reserved": 0, "bike_id": "cfc4e2d7473f6018f2ca9814cc1e877f", "lon": -77.02847233333334, "name": "cfc4e2d7473f6018f2ca9814cc1e877f", "lat": 38.942621833333334, "fusion_lat": 0.0, "rental_uris": {"ios": "https://dc.lft.to/lastmile_qr_scan", "android": "https://dc.lft.to/lastmile_qr_scan"}, "is_disabled": 0, "type": "electric_scooter"}, {"fusion_lon": 0.0, "is_reserved": 0, "bike_id": "80c9d9087249d8add1f0ee4afec50e91", "lon": -77.02186233333333, "name": "80c9d9087249d8add1f0ee4afec50e91", "lat": 38.887036, "fusion_lat": 0.0, "rental_uris": {"ios": "https://dc.lft.to/lastmile_qr_scan", "android": "https://dc.lft.to/lastmile_qr_scan"}, "is_disabled": 0, "type": "electric_scooter"}, {"fusion_lon": 0.0, "is_reserved": 0, "bike_id": "fed489e2be7cc1af0253e1dfee18009d", "lon": -77.03771583333334, "name": "fed489e2be7cc1af0253e1dfee18009d", "lat": 38.917019, "fusion_lat": 0.0, "rental_uris": {"ios": "https://dc.lft.to/lastmile_qr_scan", "android": "https://dc.lft.to/lastmile_qr_scan"}, "is_disabled": 0, "type": "electric_scooter"}, {"fusion_lon": 0.0, "is_reserved": 0, "bike_id": "0eeb186ab47b7d3ff8ae1ea1b3be3ebf", "lon": -77.04654983333333, "name": "0eeb186ab47b7d3ff8ae1ea1b3be3ebf", "lat": 38.893931333333335, "fusion_lat": 0.0, "rental_uris": {"ios": "https://dc.lft.to/lastmile_qr_scan", "android": "https://dc.lft.to/lastmile_qr_scan"}, "is_disabled": 0, "type": "electric_scooter"}, {"fusion_lon": 0.0, "is_reserved": 0, "bike_id": "d5e36cd5566cc8b2ffe43d590403f88f", "lon": -77.05145783333333, "name": "d5e36cd5566cc8b2ffe43d590403f88f", "lat": 38.9272015, "fusion_lat": 0.0, "rental_uris": {"ios": "https://dc.lft.to/lastmile_qr_scan", "android": "https://dc.lft.to/lastmile_qr_scan"}, "is_disabled": 0, "type": "electric_scooter"}, {"fusion_lon": 0.0, "is_reserved": 0, "bike_id": "6f3a4dc280bef05b2d9cb513f1477485", "lon": -77.03861033333334, "name": "6f3a4dc280bef05b2d9cb513f1477485", "lat": 38.90283516666667, "fusion_lat": 0.0, "rental_uris": {"ios": "https://dc.lft.to/lastmile_qr_scan", "android": "https://dc.lft.to/lastmile_qr_scan"}, "is_disabled": 0, "type": "electric_scooter"}, {"fusion_lon": 0.0, "is_reserved": 0, "bike_id": "4e3533454517ef3a5000802d89d0d644", "lon": -77.01952616666667, "name": "4e3533454517ef3a5000802d89d0d644", "lat": 38.923208, "fusion_lat": 0.0, "rental_uris": {"ios": "https://dc.lft.to/lastmile_qr_scan", "android": "https://dc.lft.to/lastmile_qr_scan"}, "is_disabled": 0, "type": "electric_scooter"}, {"fusion_lon": 0.0, "is_reserved": 0, "bike_id": "70607ce02492d165dec48b97743b3fa5", "lon": -77.02036466666667, "name": "70607ce02492d165dec48b97743b3fa5", "lat": 38.92408266666666, "fusion_lat": 0.0, "rental_uris": {"ios": "https://dc.lft.to/lastmile_qr_scan", "android": "https://dc.lft.to/lastmile_qr_scan"}, "is_disabled": 0, "type": "electric_scooter"}, {"fusion_lon": 0.0, "is_reserved": 0, "bike_id": "88b5e2a69f4b5a7fc8e6e5d6c432500e", "lon": -77.02054766666667, "name": "88b5e2a69f4b5a7fc8e6e5d6c432500e", "lat": 38.91349866666667, "fusion_lat": 0.0, "rental_uris": {"ios": "https://dc.lft.to/lastmile_qr_scan", "android": "https://dc.lft.to/lastmile_qr_scan"}, "is_disabled": 0, "type": "electric_scooter"}, {"fusion_lon": 0.0, "is_reserved": 0, "bike_id": "1f902c2e71497e4254ec71aadf29e71b", "lon": -77.07647633333333, "name": "1f902c2e71497e4254ec71aadf29e71b", "lat": 38.90866966666667, "fusion_lat": 0.0, "rental_uris": {"ios": "https://dc.lft.to/lastmile_qr_scan", "android": "https://dc.lft.to/lastmile_qr_scan"}, "is_disabled": 0, "type": "electric_scooter"}, {"fusion_lon": 0.0, "is_reserved": 0, "bike_id": "ef8fb2636a31a01ee5f96069c9e5682a", "lon": -77.002181, "name": "ef8fb2636a31a01ee5f96069c9e5682a", "lat": 38.88641583333333, "fusion_lat": 0.0, "rental_uris": {"ios": "https://dc.lft.to/lastmile_qr_scan", "android": "https://dc.lft.to/lastmile_qr_scan"}, "is_disabled": 0, "type": "electric_scooter"}, {"fusion_lon": 0.0, "is_reserved": 0, "bike_id": "4932a8976f6a5f493a3b2486f1063805", "lon": -77.03545616666666, "name": "4932a8976f6a5f493a3b2486f1063805", "lat": 38.93177766666667, "fusion_lat": 0.0, "rental_uris": {"ios": "https://dc.lft.to/lastmile_qr_scan", "android": "https://dc.lft.to/lastmile_qr_scan"}, "is_disabled": 0, "type": "electric_bike"}, {"fusion_lon": 0.0, "is_reserved": 0, "bike_id": "f6f9cc0a477ce24a5888977a4280c648", "lon": -77.01688466666667, "name": "f6f9cc0a477ce24a5888977a4280c648", "lat": 38.90651116666667, "fusion_lat": 0.0, "rental_uris": {"ios": "https://dc.lft.to/lastmile_qr_scan", "android": "https://dc.lft.to/lastmile_qr_scan"}, "is_disabled": 0, "type": "electric_scooter"}, {"fusion_lon": 0.0, "is_reserved": 0, "bike_id": "46bef2e77c819bae32e214ab26b4779f", "lon": -76.997359, "name": "46bef2e77c819bae32e214ab26b4779f", "lat": 39.042348833333335, "fusion_lat": 0.0, "rental_uris": {"ios": "https://dc.lft.to/lastmile_qr_scan", "android": "https://dc.lft.to/lastmile_qr_scan"}, "is_disabled": 0, "type": "electric_bike"}, {"fusion_lon": 0.0, "is_reserved": 0, "bike_id": "4b907ec172a7c5fb008632316fd74e83", "lon": -77.0394285, "name": "4b907ec172a7c5fb008632316fd74e83", "lat": 38.915584, "fusion_lat": 0.0, "rental_uris": {"ios": "https://dc.lft.to/lastmile_qr_scan", "android": "https://dc.lft.to/lastmile_qr_scan"}, "is_disabled": 0, "type": "electric_scooter"}, {"fusion_lon": 0.0, "is_reserved": 0, "bike_id": "35774c4b24d588b939ee7affed4de134", "lon": -77.000659, "name": "35774c4b24d588b939ee7affed4de134", "lat": 38.92390116666667, "fusion_lat": 0.0, "rental_uris": {"ios": "https://dc.lft.to/lastmile_qr_scan", "android": "https://dc.lft.to/lastmile_qr_scan"}, "is_disabled": 0, "type": "electric_scooter"}, {"fusion_lon": 0.0, "is_reserved": 0, "bike_id": "e58c691858ee54946d585a05fb078993", "lon": -77.02105133333333, "name": "e58c691858ee54946d585a05fb078993", "lat": 38.9217885, "fusion_lat": 0.0, "rental_uris": {"ios": "https://dc.lft.to/lastmile_qr_scan", "android": "https://dc.lft.to/lastmile_qr_scan"}, "is_disabled": 0, "type": "electric_scooter"}, {"fusion_lon": 0.0, "is_reserved": 0, "bike_id": "71d2b39152a0048fa9619fa6e6efa55b", "lon": -76.98490366666667, "name": "71d2b39152a0048fa9619fa6e6efa55b", "lat": 38.919988333333336, "fusion_lat": 0.0, "rental_uris": {"ios": "https://dc.lft.to/lastmile_qr_scan", "android": "https://dc.lft.to/lastmile_qr_scan"}, "is_disabled": 0, "type": "electric_scooter"}, {"fusion_lon": 0.0, "is_reserved": 0, "bike_id": "3a0549dd0b9fac091989daa114160543", "lon": -76.989276, "name": "3a0549dd0b9fac091989daa114160543", "lat": 38.858966, "fusion_lat": 0.0, "rental_uris": {"ios": "https://dc.lft.to/lastmile_qr_scan", "android": "https://dc.lft.to/lastmile_qr_scan"}, "is_disabled": 0, "type": "electric_scooter"}, {"fusion_lon": 0.0, "is_reserved": 0, "bike_id": "a2e51174bd666ac0c2dbe56a7d9cf244", "lon": -76.98339866666667, "name": "a2e51174bd666ac0c2dbe56a7d9cf244", "lat": 38.88706833333333, "fusion_lat": 0.0, "rental_uris": {"ios": "https://dc.lft.to/lastmile_qr_scan", "android": "https://dc.lft.to/lastmile_qr_scan"}, "is_disabled": 0, "type": "electric_scooter"}, {"fusion_lon": 0.0, "is_reserved": 0, "bike_id": "d2914d788c9a3be513416462da5d165c", "lon": -77.053546, "name": "d2914d788c9a3be513416462da5d165c", "lat": 38.927292333333334, "fusion_lat": 0.0, "rental_uris": {"ios": "https://dc.lft.to/lastmile_qr_scan", "android": "https://dc.lft.to/lastmile_qr_scan"}, "is_disabled": 0, "type": "electric_scooter"}, {"fusion_lon": 0.0, "is_reserved": 0, "bike_id": "b9254bf1ac75c3ef7dac2590d83a0aeb", "lon": -77.02587066666666, "name": "b9254bf1ac75c3ef7dac2590d83a0aeb", "lat": 38.94265583333333, "fusion_lat": 0.0, "rental_uris": {"ios": "https://dc.lft.to/lastmile_qr_scan", "android": "https://dc.lft.to/lastmile_qr_scan"}, "is_disabled": 0, "type": "electric_scooter"}, {"fusion_lon": 0.0, "is_reserved": 0, "bike_id": "c55ad95db9476713ace93940e7c892fe", "lon": -77.00922483333333, "name": "c55ad95db9476713ace93940e7c892fe", "lat": 38.953273333333335, "fusion_lat": 0.0, "rental_uris": {"ios": "https://dc.lft.to/lastmile_qr_scan", "android": "https://dc.lft.to/lastmile_qr_scan"}, "is_disabled": 0, "type": "electric_bike"}, {"fusion_lon": 0.0, "is_reserved": 0, "bike_id": "6a83c0f9a6b3ce6d0f592afa722e4488", "lon": -77.01904683333333, "name": "6a83c0f9a6b3ce6d0f592afa722e4488", "lat": 38.9046115, "fusion_lat": 0.0, "rental_uris": {"ios": "https://dc.lft.to/lastmile_qr_scan", "android": "https://dc.lft.to/lastmile_qr_scan"}, "is_disabled": 0, "type": "electric_scooter"}, {"fusion_lon": 0.0, "is_reserved": 0, "bike_id": "7179d4ab4a6d3f148061f2ab9407c089", "lon": -77.0216395, "name": "7179d4ab4a6d3f148061f2ab9407c089", "lat": 38.92617166666667, "fusion_lat": 0.0, "rental_uris": {"ios": "https://dc.lft.to/lastmile_qr_scan", "android": "https://dc.lft.to/lastmile_qr_scan"}, "is_disabled": 0, "type": "electric_scooter"}, {"fusion_lon": 0.0, "is_reserved": 0, "bike_id": "896893e95b6697e8e2940eab7e2da492", "lon": -77.0276175, "name": "896893e95b6697e8e2940eab7e2da492", "lat": 38.92580383333333, "fusion_lat": 0.0, "rental_uris": {"ios": "https://dc.lft.to/lastmile_qr_scan", "android": "https://dc.lft.to/lastmile_qr_scan"}, "is_disabled": 0, "type": "electric_scooter"}, {"fusion_lon": 0.0, "is_reserved": 0, "bike_id": "cc8fb7d116944d2ac5bbb0038285b64a", "lon": -77.02725533333333, "name": "cc8fb7d116944d2ac5bbb0038285b64a", "lat": 38.89671883333333, "fusion_lat": 0.0, "rental_uris": {"ios": "https://dc.lft.to/lastmile_qr_scan", "android": "https://dc.lft.to/lastmile_qr_scan"}, "is_disabled": 0, "type": "electric_scooter"}, {"fusion_lon": 0.0, "is_reserved": 0, "bike_id": "4ae2f1f04d5497ec41451d7f4f198807", "lon": -77.02834733333333, "name": "4ae2f1f04d5497ec41451d7f4f198807", "lat": 38.88718933333333, "fusion_lat": 0.0, "rental_uris": {"ios": "https://dc.lft.to/lastmile_qr_scan", "android": "https://dc.lft.to/lastmile_qr_scan"}, "is_disabled": 0, "type": "electric_scooter"}, {"fusion_lon": 0.0, "is_reserved": 0, "bike_id": "1f53c102df5802cef92fb1360ce0111d", "lon": -77.01297066666666, "name": "1f53c102df5802cef92fb1360ce0111d", "lat": 38.897196, "fusion_lat": 0.0, "rental_uris": {"ios": "https://dc.lft.to/lastmile_qr_scan", "android": "https://dc.lft.to/lastmile_qr_scan"}, "is_disabled": 0, "type": "electric_scooter"}, {"fusion_lon": 0.0, "is_reserved": 0, "bike_id": "b230fc5947c3d52439b10000e8f2e6e7", "lon": -76.94889966666666, "name": "b230fc5947c3d52439b10000e8f2e6e7", "lat": 38.8948945, "fusion_lat": 0.0, "rental_uris": {"ios": "https://dc.lft.to/lastmile_qr_scan", "android": "https://dc.lft.to/lastmile_qr_scan"}, "is_disabled": 0, "type": "electric_scooter"}, {"fusion_lon": 0.0, "is_reserved": 0, "bike_id": "0ccf5b0b0ddf9c9b73b48c254be74442", "lon": -77.062377, "name": "0ccf5b0b0ddf9c9b73b48c254be74442", "lat": 38.9021435, "fusion_lat": 0.0, "rental_uris": {"ios": "https://dc.lft.to/lastmile_qr_scan", "android": "https://dc.lft.to/lastmile_qr_scan"}, "is_disabled": 0, "type": "electric_scooter"}, {"fusion_lon": 0.0, "is_reserved": 0, "bike_id": "6c877d9bb810c22261210cdd41f79a70", "lon": -77.0291755, "name": "6c877d9bb810c22261210cdd41f79a70", "lat": 38.90226466666667, "fusion_lat": 0.0, "rental_uris": {"ios": "https://dc.lft.to/lastmile_qr_scan", "android": "https://dc.lft.to/lastmile_qr_scan"}, "is_disabled": 0, "type": "electric_scooter"}, {"fusion_lon": 0.0, "is_reserved": 0, "bike_id": "e9b0f7ba9c03f52d4821fb761d6d1206", "lon": -77.039975, "name": "e9b0f7ba9c03f52d4821fb761d6d1206", "lat": 38.9207515, "fusion_lat": 0.0, "rental_uris": {"ios": "https://dc.lft.to/lastmile_qr_scan", "android": "https://dc.lft.to/lastmile_qr_scan"}, "is_disabled": 0, "type": "electric_scooter"}, {"fusion_lon": 0.0, "is_reserved": 0, "bike_id": "3266499fe2ff8c82230585a98cc39eb9", "lon": -77.035538, "name": "3266499fe2ff8c82230585a98cc39eb9", "lat": 38.9235905, "fusion_lat": 0.0, "rental_uris": {"ios": "https://dc.lft.to/lastmile_qr_scan", "android": "https://dc.lft.to/lastmile_qr_scan"}, "is_disabled": 0, "type": "electric_scooter"}, {"fusion_lon": 0.0, "is_reserved": 0, "bike_id": "8ebad089caa78d5dd2757f87b59a9f86", "lon": -77.0627835, "name": "8ebad089caa78d5dd2757f87b59a9f86", "lat": 38.906225, "fusion_lat": 0.0, "rental_uris": {"ios": "https://dc.lft.to/lastmile_qr_scan", "android": "https://dc.lft.to/lastmile_qr_scan"}, "is_disabled": 0, "type": "electric_scooter"}, {"fusion_lon": 0.0, "is_reserved": 0, "bike_id": "1d8b4578303c9e0b564f0c911689fdba", "lon": -77.058085, "name": "1d8b4578303c9e0b564f0c911689fdba", "lat": 38.935377333333335, "fusion_lat": 0.0, "rental_uris": {"ios": "https://dc.lft.to/lastmile_qr_scan", "android": "https://dc.lft.to/lastmile_qr_scan"}, "is_disabled": 0, "type": "electric_scooter"}, {"fusion_lon": 0.0, "is_reserved": 0, "bike_id": "6e6270e64ecee33d9a13bfca84081ded", "lon": -77.002722, "name": "6e6270e64ecee33d9a13bfca84081ded", "lat": 38.90713233333334, "fusion_lat": 0.0, "rental_uris": {"ios": "https://dc.lft.to/lastmile_qr_scan", "android": "https://dc.lft.to/lastmile_qr_scan"}, "is_disabled": 0, "type": "electric_scooter"}, {"fusion_lon": 0.0, "is_reserved": 0, "bike_id": "58353e02f1649bbeb6e53691e5de6cb0", "lon": -76.93971266666667, "name": "58353e02f1649bbeb6e53691e5de6cb0", "lat": 38.893148, "fusion_lat": 0.0, "rental_uris": {"ios": "https://dc.lft.to/lastmile_qr_scan", "android": "https://dc.lft.to/lastmile_qr_scan"}, "is_disabled": 0, "type": "electric_scooter"}, {"fusion_lon": 0.0, "is_reserved": 0, "bike_id": "8583cfcfc1085c04e64abaa2bab3322b", "lon": -77.03140433333333, "name": "8583cfcfc1085c04e64abaa2bab3322b", "lat": 38.8921755, "fusion_lat": 0.0, "rental_uris": {"ios": "https://dc.lft.to/lastmile_qr_scan", "android": "https://dc.lft.to/lastmile_qr_scan"}, "is_disabled": 0, "type": "electric_scooter"}, {"fusion_lon": 0.0, "is_reserved": 0, "bike_id": "5ba691ba786dd6681fd3e04e35a4b691", "lon": -77.053795, "name": "5ba691ba786dd6681fd3e04e35a4b691", "lat": 38.847617166666666, "fusion_lat": 0.0, "rental_uris": {"ios": "https://dc.lft.to/lastmile_qr_scan", "android": "https://dc.lft.to/lastmile_qr_scan"}, "is_disabled": 0, "type": "electric_bike"}, {"fusion_lon": 0.0, "is_reserved": 0, "bike_id": "755b04ff4e2c508689b31fe90288c8b7", "lon": -77.0227465, "name": "755b04ff4e2c508689b31fe90288c8b7", "lat": 38.931306166666666, "fusion_lat": 0.0, "rental_uris": {"ios": "https://dc.lft.to/lastmile_qr_scan", "android": "https://dc.lft.to/lastmile_qr_scan"}, "is_disabled": 0, "type": "electric_scooter"}, {"fusion_lon": 0.0, "is_reserved": 0, "bike_id": "f87e9de31755c8485420d8ce31ee4733", "lon": -77.02495866666666, "name": "f87e9de31755c8485420d8ce31ee4733", "lat": 38.94186083333334, "fusion_lat": 0.0, "rental_uris": {"ios": "https://dc.lft.to/lastmile_qr_scan", "android": "https://dc.lft.to/lastmile_qr_scan"}, "is_disabled": 0, "type": "electric_scooter"}, {"fusion_lon": 0.0, "is_reserved": 0, "bike_id": "7eb2b80fa8ad19edd30b0ccf866610e7", "lon": -77.01580466666667, "name": "7eb2b80fa8ad19edd30b0ccf866610e7", "lat": 38.9167585, "fusion_lat": 0.0, "rental_uris": {"ios": "https://dc.lft.to/lastmile_qr_scan", "android": "https://dc.lft.to/lastmile_qr_scan"}, "is_disabled": 0, "type": "electric_scooter"}, {"fusion_lon": 0.0, "is_reserved": 0, "bike_id": "c2b5d6057228404a9cd1a9d6398ca17d", "lon": -77.0007395, "name": "c2b5d6057228404a9cd1a9d6398ca17d", "lat": 38.876645, "fusion_lat": 0.0, "rental_uris": {"ios": "https://dc.lft.to/lastmile_qr_scan", "android": "https://dc.lft.to/lastmile_qr_scan"}, "is_disabled": 0, "type": "electric_scooter"}, {"fusion_lon": 0.0, "is_reserved": 0, "bike_id": "879157d0067a26529f11b040a294e7c3", "lon": -77.02127016666667, "name": "879157d0067a26529f11b040a294e7c3", "lat": 38.9241345, "fusion_lat": 0.0, "rental_uris": {"ios": "https://dc.lft.to/lastmile_qr_scan", "android": "https://dc.lft.to/lastmile_qr_scan"}, "is_disabled": 0, "type": "electric_scooter"}, {"fusion_lon": 0.0, "is_reserved": 0, "bike_id": "19694a748f8b6ec896569675c3436e0a", "lon": -77.0242315, "name": "19694a748f8b6ec896569675c3436e0a", "lat": 38.930091, "fusion_lat": 0.0, "rental_uris": {"ios": "https://dc.lft.to/lastmile_qr_scan", "android": "https://dc.lft.to/lastmile_qr_scan"}, "is_disabled": 0, "type": "electric_scooter"}, {"fusion_lon": 0.0, "is_reserved": 0, "bike_id": "1d4f068ec5e27cec6dc90d28a0cd1745", "lon": -76.984096, "name": "1d4f068ec5e27cec6dc90d28a0cd1745", "lat": 38.913908, "fusion_lat": 0.0, "rental_uris": {"ios": "https://dc.lft.to/lastmile_qr_scan", "android": "https://dc.lft.to/lastmile_qr_scan"}, "is_disabled": 0, "type": "electric_scooter"}, {"fusion_lon": 0.0, "is_reserved": 0, "bike_id": "1e424abc6c9081830bbd4a187c952fec", "lon": -77.0326595, "name": "1e424abc6c9081830bbd4a187c952fec", "lat": 38.93207833333334, "fusion_lat": 0.0, "rental_uris": {"ios": "https://dc.lft.to/lastmile_qr_scan", "android": "https://dc.lft.to/lastmile_qr_scan"}, "is_disabled": 0, "type": "electric_scooter"}, {"fusion_lon": 0.0, "is_reserved": 0, "bike_id": "2b80023b0a5f51e6e42882b11c7c72a6", "lon": -77.025547, "name": "2b80023b0a5f51e6e42882b11c7c72a6", "lat": 38.916337, "fusion_lat": 0.0, "rental_uris": {"ios": "https://dc.lft.to/lastmile_qr_scan", "android": "https://dc.lft.to/lastmile_qr_scan"}, "is_disabled": 0, "type": "electric_scooter"}, {"fusion_lon": 0.0, "is_reserved": 0, "bike_id": "8d15359f22a2d338ab12b1f2d4d37e8a", "lon": -77.02789233333333, "name": "8d15359f22a2d338ab12b1f2d4d37e8a", "lat": 38.896327, "fusion_lat": 0.0, "rental_uris": {"ios": "https://dc.lft.to/lastmile_qr_scan", "android": "https://dc.lft.to/lastmile_qr_scan"}, "is_disabled": 0, "type": "electric_scooter"}, {"fusion_lon": 0.0, "is_reserved": 0, "bike_id": "17c48010f80a9caaf21207537480ac88", "lon": -77.05062, "name": "17c48010f80a9caaf21207537480ac88", "lat": 38.916273333333336, "fusion_lat": 0.0, "rental_uris": {"ios": "https://dc.lft.to/lastmile_qr_scan", "android": "https://dc.lft.to/lastmile_qr_scan"}, "is_disabled": 0, "type": "electric_scooter"}, {"fusion_lon": 0.0, "is_reserved": 0, "bike_id": "2e9c1a3fde5d97a1a7f8b0550e2048ad", "lon": -77.048887, "name": "2e9c1a3fde5d97a1a7f8b0550e2048ad", "lat": 38.914036, "fusion_lat": 0.0, "rental_uris": {"ios": "https://dc.lft.to/lastmile_qr_scan", "android": "https://dc.lft.to/lastmile_qr_scan"}, "is_disabled": 0, "type": "electric_scooter"}, {"fusion_lon": 0.0, "is_reserved": 0, "bike_id": "a1fb4aec8b1a7dcc0dd7b0181a6bcd4b", "lon": -77.05890616666667, "name": "a1fb4aec8b1a7dcc0dd7b0181a6bcd4b", "lat": 38.9016845, "fusion_lat": 0.0, "rental_uris": {"ios": "https://dc.lft.to/lastmile_qr_scan", "android": "https://dc.lft.to/lastmile_qr_scan"}, "is_disabled": 0, "type": "electric_scooter"}, {"fusion_lon": 0.0, "is_reserved": 0, "bike_id": "66e3a644d03e0c26d3b217bbe42c4900", "lon": -77.02261066666667, "name": "66e3a644d03e0c26d3b217bbe42c4900", "lat": 38.922396666666664, "fusion_lat": 0.0, "rental_uris": {"ios": "https://dc.lft.to/lastmile_qr_scan", "android": "https://dc.lft.to/lastmile_qr_scan"}, "is_disabled": 0, "type": "electric_scooter"}, {"fusion_lon": 0.0, "is_reserved": 0, "bike_id": "8ad87eb759b8ce0f219a1340c9d0044a", "lon": -77.01273766666667, "name": "8ad87eb759b8ce0f219a1340c9d0044a", "lat": 38.9039095, "fusion_lat": 0.0, "rental_uris": {"ios": "https://dc.lft.to/lastmile_qr_scan", "android": "https://dc.lft.to/lastmile_qr_scan"}, "is_disabled": 0, "type": "electric_scooter"}, {"fusion_lon": 0.0, "is_reserved": 0, "bike_id": "149c23b9563d8d74a715f848a57946e7", "lon": -77.0201745, "name": "149c23b9563d8d74a715f848a57946e7", "lat": 38.89473133333333, "fusion_lat": 0.0, "rental_uris": {"ios": "https://dc.lft.to/lastmile_qr_scan", "android": "https://dc.lft.to/lastmile_qr_scan"}, "is_disabled": 0, "type": "electric_scooter"}, {"fusion_lon": 0.0, "is_reserved": 0, "bike_id": "f1a02b4bf565c4b52ea504eefe7194b5", "lon": -77.02483033333333, "name": "f1a02b4bf565c4b52ea504eefe7194b5", "lat": 38.91740433333333, "fusion_lat": 0.0, "rental_uris": {"ios": "https://dc.lft.to/lastmile_qr_scan", "android": "https://dc.lft.to/lastmile_qr_scan"}, "is_disabled": 0, "type": "electric_scooter"}, {"fusion_lon": 0.0, "is_reserved": 0, "bike_id": "6213b042597944135ddc326bd11813c6", "lon": -77.02509666666667, "name": "6213b042597944135ddc326bd11813c6", "lat": 38.91103566666666, "fusion_lat": 0.0, "rental_uris": {"ios": "https://dc.lft.to/lastmile_qr_scan", "android": "https://dc.lft.to/lastmile_qr_scan"}, "is_disabled": 0, "type": "electric_scooter"}, {"fusion_lon": 0.0, "is_reserved": 0, "bike_id": "449880dd4c70ffee2ff71c323117b569", "lon": -76.98604166666667, "name": "449880dd4c70ffee2ff71c323117b569", "lat": 38.900166, "fusion_lat": 0.0, "rental_uris": {"ios": "https://dc.lft.to/lastmile_qr_scan", "android": "https://dc.lft.to/lastmile_qr_scan"}, "is_disabled": 0, "type": "electric_scooter"}, {"fusion_lon": 0.0, "is_reserved": 0, "bike_id": "c5387f06dde4103fa5001b264e4a0d60", "lon": -77.02650966666667, "name": "c5387f06dde4103fa5001b264e4a0d60", "lat": 38.90417633333333, "fusion_lat": 0.0, "rental_uris": {"ios": "https://dc.lft.to/lastmile_qr_scan", "android": "https://dc.lft.to/lastmile_qr_scan"}, "is_disabled": 0, "type": "electric_scooter"}, {"fusion_lon": 0.0, "is_reserved": 0, "bike_id": "725ba3fceac601748d7f80f4efabff5f", "lon": -77.04640733333333, "name": "725ba3fceac601748d7f80f4efabff5f", "lat": 38.892204166666666, "fusion_lat": 0.0, "rental_uris": {"ios": "https://dc.lft.to/lastmile_qr_scan", "android": "https://dc.lft.to/lastmile_qr_scan"}, "is_disabled": 0, "type": "electric_scooter"}, {"fusion_lon": 0.0, "is_reserved": 0, "bike_id": "c73e16e404407c53c73a5dad33a692e1", "lon": -77.01854233333333, "name": "c73e16e404407c53c73a5dad33a692e1", "lat": 38.94888866666667, "fusion_lat": 0.0, "rental_uris": {"ios": "https://dc.lft.to/lastmile_qr_scan", "android": "https://dc.lft.to/lastmile_qr_scan"}, "is_disabled": 0, "type": "electric_scooter"}, {"fusion_lon": 0.0, "is_reserved": 0, "bike_id": "da8d160600c4d7e07a15ccd8b41e1365", "lon": -77.00088266666667, "name": "da8d160600c4d7e07a15ccd8b41e1365", "lat": 38.876462833333335, "fusion_lat": 0.0, "rental_uris": {"ios": "https://dc.lft.to/lastmile_qr_scan", "android": "https://dc.lft.to/lastmile_qr_scan"}, "is_disabled": 0, "type": "electric_scooter"}, {"fusion_lon": 0.0, "is_reserved": 0, "bike_id": "13ea026859a7d14eae7ce9f567855b19", "lon": -77.03203516666666, "name": "13ea026859a7d14eae7ce9f567855b19", "lat": 38.91538533333333, "fusion_lat": 0.0, "rental_uris": {"ios": "https://dc.lft.to/lastmile_qr_scan", "android": "https://dc.lft.to/lastmile_qr_scan"}, "is_disabled": 0, "type": "electric_scooter"}, {"fusion_lon": 0.0, "is_reserved": 0, "bike_id": "9fee5be727c8a2e47c093b376f205c9c", "lon": -77.043979, "name": "9fee5be727c8a2e47c093b376f205c9c", "lat": 38.9165975, "fusion_lat": 0.0, "rental_uris": {"ios": "https://dc.lft.to/lastmile_qr_scan", "android": "https://dc.lft.to/lastmile_qr_scan"}, "is_disabled": 0, "type": "electric_scooter"}, {"fusion_lon": 0.0, "is_reserved": 0, "bike_id": "5ef79cd346c4033108499c361f0fdfa7", "lon": -76.99504633333333, "name": "5ef79cd346c4033108499c361f0fdfa7", "lat": 38.89488566666667, "fusion_lat": 0.0, "rental_uris": {"ios": "https://dc.lft.to/lastmile_qr_scan", "android": "https://dc.lft.to/lastmile_qr_scan"}, "is_disabled": 0, "type": "electric_scooter"}, {"fusion_lon": 0.0, "is_reserved": 0, "bike_id": "64b64b6dd8728134ace1c9170a3c5f9d", "lon": -77.08771766666666, "name": "64b64b6dd8728134ace1c9170a3c5f9d", "lat": 38.95220783333333, "fusion_lat": 0.0, "rental_uris": {"ios": "https://dc.lft.to/lastmile_qr_scan", "android": "https://dc.lft.to/lastmile_qr_scan"}, "is_disabled": 0, "type": "electric_bike"}, {"fusion_lon": 0.0, "is_reserved": 0, "bike_id": "5569860cc322a7c96995dd96b83e850e", "lon": -77.04110783333333, "name": "5569860cc322a7c96995dd96b83e850e", "lat": 38.90607766666667, "fusion_lat": 0.0, "rental_uris": {"ios": "https://dc.lft.to/lastmile_qr_scan", "android": "https://dc.lft.to/lastmile_qr_scan"}, "is_disabled": 0, "type": "electric_scooter"}, {"fusion_lon": 0.0, "is_reserved": 0, "bike_id": "33bb44d5f371b91ed9fe9dcc52f03e1f", "lon": -77.022765, "name": "33bb44d5f371b91ed9fe9dcc52f03e1f", "lat": 38.92490883333333, "fusion_lat": 0.0, "rental_uris": {"ios": "https://dc.lft.to/lastmile_qr_scan", "android": "https://dc.lft.to/lastmile_qr_scan"}, "is_disabled": 0, "type": "electric_scooter"}, {"fusion_lon": 0.0, "is_reserved": 0, "bike_id": "7532b159a36fbcf9a3595650b09a9eb4", "lon": -77.02574083333333, "name": "7532b159a36fbcf9a3595650b09a9eb4", "lat": 38.8973285, "fusion_lat": 0.0, "rental_uris": {"ios": "https://dc.lft.to/lastmile_qr_scan", "android": "https://dc.lft.to/lastmile_qr_scan"}, "is_disabled": 0, "type": "electric_scooter"}, {"fusion_lon": 0.0, "is_reserved": 0, "bike_id": "263432fb67a13d53cd1e39b6d848192b", "lon": -77.0271415, "name": "263432fb67a13d53cd1e39b6d848192b", "lat": 38.9167605, "fusion_lat": 0.0, "rental_uris": {"ios": "https://dc.lft.to/lastmile_qr_scan", "android": "https://dc.lft.to/lastmile_qr_scan"}, "is_disabled": 0, "type": "electric_scooter"}, {"fusion_lon": 0.0, "is_reserved": 0, "bike_id": "01726b9ff4f134b520e39cca301e2458", "lon": -76.99493583333333, "name": "01726b9ff4f134b520e39cca301e2458", "lat": 38.882363, "fusion_lat": 0.0, "rental_uris": {"ios": "https://dc.lft.to/lastmile_qr_scan", "android": "https://dc.lft.to/lastmile_qr_scan"}, "is_disabled": 0, "type": "electric_scooter"}, {"fusion_lon": 0.0, "is_reserved": 0, "bike_id": "c6e684f5e271c24b955be94b293caf4e", "lon": -77.02979066666667, "name": "c6e684f5e271c24b955be94b293caf4e", "lat": 38.898271333333334, "fusion_lat": 0.0, "rental_uris": {"ios": "https://dc.lft.to/lastmile_qr_scan", "android": "https://dc.lft.to/lastmile_qr_scan"}, "is_disabled": 0, "type": "electric_scooter"}, {"fusion_lon": 0.0, "is_reserved": 0, "bike_id": "170d7426a915a63ab8273e9aee3f6c05", "lon": -77.03210483333334, "name": "170d7426a915a63ab8273e9aee3f6c05", "lat": 38.9276235, "fusion_lat": 0.0, "rental_uris": {"ios": "https://dc.lft.to/lastmile_qr_scan", "android": "https://dc.lft.to/lastmile_qr_scan"}, "is_disabled": 0, "type": "electric_scooter"}, {"fusion_lon": 0.0, "is_reserved": 0, "bike_id": "a29c5c24e5cba27af62dfdd4fbf9f179", "lon": -77.04168183333333, "name": "a29c5c24e5cba27af62dfdd4fbf9f179", "lat": 38.9044425, "fusion_lat": 0.0, "rental_uris": {"ios": "https://dc.lft.to/lastmile_qr_scan", "android": "https://dc.lft.to/lastmile_qr_scan"}, "is_disabled": 0, "type": "electric_scooter"}, {"fusion_lon": 0.0, "is_reserved": 0, "bike_id": "434597c4803a9ab2c799ba67452e7b01", "lon": -76.9086195, "name": "434597c4803a9ab2c799ba67452e7b01", "lat": 38.99903066666667, "fusion_lat": 0.0, "rental_uris": {"ios": "https://dc.lft.to/lastmile_qr_scan", "android": "https://dc.lft.to/lastmile_qr_scan"}, "is_disabled": 0, "type": "electric_bike"}, {"fusion_lon": 0.0, "is_reserved": 0, "bike_id": "94273306de20915c86ec6c9fbaa11cd9", "lon": -76.99436733333333, "name": "94273306de20915c86ec6c9fbaa11cd9", "lat": 38.8947735, "fusion_lat": 0.0, "rental_uris": {"ios": "https://dc.lft.to/lastmile_qr_scan", "android": "https://dc.lft.to/lastmile_qr_scan"}, "is_disabled": 0, "type": "electric_scooter"}, {"fusion_lon": 0.0, "is_reserved": 0, "bike_id": "4ff11e05161f4112f7fbce0af7bff024", "lon": -77.02515983333333, "name": "4ff11e05161f4112f7fbce0af7bff024", "lat": 38.9110605, "fusion_lat": 0.0, "rental_uris": {"ios": "https://dc.lft.to/lastmile_qr_scan", "android": "https://dc.lft.to/lastmile_qr_scan"}, "is_disabled": 0, "type": "electric_scooter"}, {"fusion_lon": 0.0, "is_reserved": 0, "bike_id": "01f865deba4da2a2cffb6b12dd01cd19", "lon": -77.030857, "name": "01f865deba4da2a2cffb6b12dd01cd19", "lat": 38.90761216666667, "fusion_lat": 0.0, "rental_uris": {"ios": "https://dc.lft.to/lastmile_qr_scan", "android": "https://dc.lft.to/lastmile_qr_scan"}, "is_disabled": 0, "type": "electric_scooter"}, {"fusion_lon": 0.0, "is_reserved": 0, "bike_id": "c03c0ceff4ba066a86eb8c10107fba64", "lon": -77.01618916666666, "name": "c03c0ceff4ba066a86eb8c10107fba64", "lat": 38.90220983333333, "fusion_lat": 0.0, "rental_uris": {"ios": "https://dc.lft.to/lastmile_qr_scan", "android": "https://dc.lft.to/lastmile_qr_scan"}, "is_disabled": 0, "type": "electric_scooter"}, {"fusion_lon": 0.0, "is_reserved": 0, "bike_id": "90eeb26e64eb51147bf250516de1478e", "lon": -77.03667166666666, "name": "90eeb26e64eb51147bf250516de1478e", "lat": 38.90448116666666, "fusion_lat": 0.0, "rental_uris": {"ios": "https://dc.lft.to/lastmile_qr_scan", "android": "https://dc.lft.to/lastmile_qr_scan"}, "is_disabled": 0, "type": "electric_scooter"}, {"fusion_lon": 0.0, "is_reserved": 0, "bike_id": "fdfa1ec4e7175c1343052b9e56408c33", "lon": -76.98065333333334, "name": "fdfa1ec4e7175c1343052b9e56408c33", "lat": 38.90158233333333, "fusion_lat": 0.0, "rental_uris": {"ios": "https://dc.lft.to/lastmile_qr_scan", "android": "https://dc.lft.to/lastmile_qr_scan"}, "is_disabled": 0, "type": "electric_scooter"}, {"fusion_lon": 0.0, "is_reserved": 0, "bike_id": "61a7ad408b5bf34bd2bbcb5eb575bcbc", "lon": -77.2292315, "name": "61a7ad408b5bf34bd2bbcb5eb575bcbc", "lat": 38.87038666666667, "fusion_lat": 0.0, "rental_uris": {"ios": "https://dc.lft.to/lastmile_qr_scan", "android": "https://dc.lft.to/lastmile_qr_scan"}, "is_disabled": 0, "type": "electric_bike"}, {"fusion_lon": 0.0, "is_reserved": 0, "bike_id": "1bcc429306686b183d5fe34dfa3847ae", "lon": -77.049332, "name": "1bcc429306686b183d5fe34dfa3847ae", "lat": 38.90094083333334, "fusion_lat": 0.0, "rental_uris": {"ios": "https://dc.lft.to/lastmile_qr_scan", "android": "https://dc.lft.to/lastmile_qr_scan"}, "is_disabled": 0, "type": "electric_bike"}, {"fusion_lon": 0.0, "is_reserved": 0, "bike_id": "cb512cbaf49062a68565615c8539c321", "lon": -76.9883655, "name": "cb512cbaf49062a68565615c8539c321", "lat": 38.900355833333336, "fusion_lat": 0.0, "rental_uris": {"ios": "https://dc.lft.to/lastmile_qr_scan", "android": "https://dc.lft.to/lastmile_qr_scan"}, "is_disabled": 0, "type": "electric_scooter"}, {"fusion_lon": 0.0, "is_reserved": 0, "bike_id": "b05122d5385ade1933c44d5d50d0da91", "lon": -77.00438216666667, "name": "b05122d5385ade1933c44d5d50d0da91", "lat": 38.903991833333336, "fusion_lat": 0.0, "rental_uris": {"ios": "https://dc.lft.to/lastmile_qr_scan", "android": "https://dc.lft.to/lastmile_qr_scan"}, "is_disabled": 0, "type": "electric_scooter"}, {"fusion_lon": 0.0, "is_reserved": 0, "bike_id": "8d4e96d3871bc77042aa298fbbc698d4", "lon": -77.01222416666667, "name": "8d4e96d3871bc77042aa298fbbc698d4", "lat": 38.918207333333335, "fusion_lat": 0.0, "rental_uris": {"ios": "https://dc.lft.to/lastmile_qr_scan", "android": "https://dc.lft.to/lastmile_qr_scan"}, "is_disabled": 0, "type": "electric_scooter"}, {"fusion_lon": 0.0, "is_reserved": 0, "bike_id": "54e90a9809f055bb4e2f07e47d5b6a47", "lon": -77.05397233333333, "name": "54e90a9809f055bb4e2f07e47d5b6a47", "lat": 38.91053983333333, "fusion_lat": 0.0, "rental_uris": {"ios": "https://dc.lft.to/lastmile_qr_scan", "android": "https://dc.lft.to/lastmile_qr_scan"}, "is_disabled": 0, "type": "electric_scooter"}, {"fusion_lon": 0.0, "is_reserved": 0, "bike_id": "ce3fdad3f46f320bd68000ddfeba9655", "lon": -76.99484833333334, "name": "ce3fdad3f46f320bd68000ddfeba9655", "lat": 38.899860333333336, "fusion_lat": 0.0, "rental_uris": {"ios": "https://dc.lft.to/lastmile_qr_scan", "android": "https://dc.lft.to/lastmile_qr_scan"}, "is_disabled": 0, "type": "electric_scooter"}, {"fusion_lon": 0.0, "is_reserved": 0, "bike_id": "8e135651af4f425587725fb52c4a209c", "lon": -77.01966, "name": "8e135651af4f425587725fb52c4a209c", "lat": 38.923158, "fusion_lat": 0.0, "rental_uris": {"ios": "https://dc.lft.to/lastmile_qr_scan", "android": "https://dc.lft.to/lastmile_qr_scan"}, "is_disabled": 0, "type": "electric_scooter"}, {"fusion_lon": 0.0, "is_reserved": 0, "bike_id": "7433b854cc407179d67fe93b3278a6cb", "lon": -77.046238, "name": "7433b854cc407179d67fe93b3278a6cb", "lat": 38.892243666666666, "fusion_lat": 0.0, "rental_uris": {"ios": "https://dc.lft.to/lastmile_qr_scan", "android": "https://dc.lft.to/lastmile_qr_scan"}, "is_disabled": 0, "type": "electric_scooter"}, {"fusion_lon": 0.0, "is_reserved": 0, "bike_id": "8a37a590c8e7525a7b3a4963501a056b", "lon": -77.05060266666666, "name": "8a37a590c8e7525a7b3a4963501a056b", "lat": 38.902229166666665, "fusion_lat": 0.0, "rental_uris": {"ios": "https://dc.lft.to/lastmile_qr_scan", "android": "https://dc.lft.to/lastmile_qr_scan"}, "is_disabled": 0, "type": "electric_scooter"}, {"fusion_lon": 0.0, "is_reserved": 0, "bike_id": "b1de2519a3e0bb50a45aea715e0c65b9", "lon": -77.0367025, "name": "b1de2519a3e0bb50a45aea715e0c65b9", "lat": 38.91138983333333, "fusion_lat": 0.0, "rental_uris": {"ios": "https://dc.lft.to/lastmile_qr_scan", "android": "https://dc.lft.to/lastmile_qr_scan"}, "is_disabled": 0, "type": "electric_scooter"}, {"fusion_lon": 0.0, "is_reserved": 0, "bike_id": "013f9057f602bb3e7369cc62332bd02e", "lon": -77.03140783333333, "name": "013f9057f602bb3e7369cc62332bd02e", "lat": 38.89226466666667, "fusion_lat": 0.0, "rental_uris": {"ios": "https://dc.lft.to/lastmile_qr_scan", "android": "https://dc.lft.to/lastmile_qr_scan"}, "is_disabled": 0, "type": "electric_scooter"},