{"data": {"bikes": [{"lat": 38.922486166666665, "is_disabled": 0, "type": "electric_scooter", "lon": -77.03140666666667, "bike_id": "3094f7e82e9ca4e2da362b3b81e19b00", "fusion_lat": 0.0, "name": "3094f7e82e9ca4e2da362b3b81e19b00", "is_reserved": 0, "rental_uris": {"android": "https://dc.lft.to/lastmile_qr_scan", "ios": "https://dc.lft.to/lastmile_qr_scan"}, "fusion_lon": 0.0}, {"lat": 38.897009, "is_disabled": 0, "type": "electric_scooter", "lon": -77.04880033333333, "bike_id": "313656b05408ab2c69dd85951d6be794", "fusion_lat": 0.0, "name": "313656b05408ab2c69dd85951d6be794", "is_reserved": 0, "rental_uris": {"android": "https://dc.lft.to/lastmile_qr_scan", "ios": "https://dc.lft.to/lastmile_qr_scan"}, "fusion_lon": 0.0}, {"lat": 38.9357115, "is_disabled": 0, "type": "electric_scooter", "lon": -77.0326755, "bike_id": "8bb6f7b9cadbf005023830c7f6369138", "fusion_lat": 0.0, "name": "8bb6f7b9cadbf005023830c7f6369138", "is_reserved": 0, "rental_uris": {"android": "https://dc.lft.to/lastmile_qr_scan", "ios": "https://dc.lft.to/lastmile_qr_scan"}, "fusion_lon": 0.0}, {"lat": 38.911775666666664, "is_disabled": 0, "type": "electric_scooter", "lon": -77.0107865, "bike_id": "814f02e628b28f80a38fd8964377e76e", "fusion_lat": 0.0, "name": "814f02e628b28f80a38fd8964377e76e", "is_reserved": 0, "rental_uris": {"android": "https://dc.lft.to/lastmile_qr_scan", "ios": "https://dc.lft.to/lastmile_qr_scan"}, "fusion_lon": 0.0}, {"lat": 38.90235083333334, "is_disabled": 0, "type": "electric_scooter", "lon": -77.00200266666667, "bike_id": "8427bac62858127d1d57862a88fd5c7a", "fusion_lat": 0.0, "name": "8427bac62858127d1d57862a88fd5c7a", "is_reserved": 0, "rental_uris": {"android": "https://dc.lft.to/lastmile_qr_scan", "ios": "https://dc.lft.to/lastmile_qr_scan"}, "fusion_lon": 0.0}, {"lat": 38.895504333333335, "is_disabled": 0, "type": "electric_scooter", "lon": -77.00916166666667, "bike_id": "5705f91971820ba4e2a67a8370003a01", "fusion_lat": 0.0, "name": "5705f91971820ba4e2a67a8370003a01", "is_reserved": 0, "rental_uris": {"android": "https://dc.lft.to/lastmile_qr_scan", "ios": "https://dc.lft.to/lastmile_qr_scan"}, "fusion_lon": 0.0}, {"lat": 38.925780333333336, "is_disabled": 0, "type": "electric_scooter", "lon": -77.02829683333333, "bike_id": "56ce3dbf015257f08f8ddaafc59efb2d", "fusion_lat": 0.0, "name": "56ce3dbf015257f08f8ddaafc59efb2d", "is_reserved": 0, "rental_uris": {"android": "https://dc.lft.to/lastmile_qr_scan", "ios": "https://dc.lft.to/lastmile_qr_scan"}, "fusion_lon": 0.0}, {"lat": 38.932529833333334, "is_disabled": 0, "type": "electric_scooter", "lon": -77.0346745, "bike_id": "12696a8984507025472cb0857c4cee03", "fusion_lat": 0.0, "name": "12696a8984507025472cb0857c4cee03", "is_reserved": 0, "rental_uris": {"android": "https://dc.lft.to/lastmile_qr_scan", "ios": "https://dc.lft.to/lastmile_qr_scan"}, "fusion_lon": 0.0}, {"lat": 38.9215505, "is_disabled": 0, "type": "electric_scooter", "lon": -77.03513866666667, "bike_id": "fd5e079abbe536de6c72b2935f736067", "fusion_lat": 0.0, "name": "fd5e079abbe536de6c72b2935f736067", "is_reserved": 0, "rental_uris": {"android": "https://dc.lft.to/lastmile_qr_scan", "ios": "https://dc.lft.to/lastmile_qr_scan"}, "fusion_lon": 0.0}, {"lat": 38.914054666666665, "is_disabled": 0, "type": "electric_scooter", "lon": -77.03158166666667, "bike_id": "19d040a0cb819075473d6628ff16b211", "fusion_lat": 0.0, "name": "19d040a0cb819075473d6628ff16b211", "is_reserved": 0, "rental_uris": {"android": "https://dc.lft.to/lastmile_qr_scan", "ios": "https://dc.lft.to/lastmile_qr_scan"}, "fusion_lon": 0.0}, {"lat": 38.919073833333336, "is_disabled": 0, "type": "electric_scooter", "lon": -77.03173516666666, "bike_id": "f61e3fa7943202c638b6f87f511d939d", "fusion_lat": 0.0, "name": "f61e3fa7943202c638b6f87f511d939d", "is_reserved": 0, "rental_uris": {"android": "https://dc.lft.to/lastmile_qr_scan", "ios": "https://dc.lft.to/lastmile_qr_scan"}, "fusion_lon": 0.0}, {"lat": 38.930165333333335, "is_disabled": 0, "type": "electric_scooter", "lon": -77.044493, "bike_id": "03744db4004cb48306d8897e9f60f3cf", "fusion_lat": 0.0, "name": "03744db4004cb48306d8897e9f60f3cf", "is_reserved": 0, "rental_uris": {"android": "https://dc.lft.to/lastmile_qr_scan", "ios": "https://dc.lft.to/lastmile_qr_scan"}, "fusion_lon": 0.0}, {"lat": 38.89706116666667, "is_disabled": 0, "type": "electric_scooter", "lon": -77.008355, "bike_id": "43218c2195270941334ff6e975a674a7", "fusion_lat": 0.0, "name": "43218c2195270941334ff6e975a674a7", "is_reserved": 0, "rental_uris": {"android": "https://dc.lft.to/lastmile_qr_scan", "ios": "https://dc.lft.to/lastmile_qr_scan"}, "fusion_lon": 0.0}, {"lat": 38.943536, "is_disabled": 0, "type": "electric_scooter", "lon": -77.0021625, "bike_id": "fbc27e013bd90b8f8e170143fae9d7ef", "fusion_lat": 0.0, "name": "fbc27e013bd90b8f8e170143fae9d7ef", "is_reserved": 0, "rental_uris": {"android": "https://dc.lft.to/lastmile_qr_scan", "ios": "https://dc.lft.to/lastmile_qr_scan"}, "fusion_lon": 0.0}, {"lat": 38.96926933333334, "is_disabled": 0, "type": "electric_bike", "lon": -77.02618866666667, "bike_id": "2124a708d9d7b0c8bd16d13d1a288bbe", "fusion_lat": 0.0, "name": "2124a708d9d7b0c8bd16d13d1a288bbe", "is_reserved": 0, "rental_uris": {"android": "https://dc.lft.to/lastmile_qr_scan", "ios": "https://dc.lft.to/lastmile_qr_scan"}, "fusion_lon": 0.0}, {"lat": 38.898315333333336, "is_disabled": 0, "type": "electric_scooter", "lon": -76.93107866666666, "bike_id": "9b69c7823c1a3056299b146846919605", "fusion_lat": 0.0, "name": "9b69c7823c1a3056299b146846919605", "is_reserved": 0, "rental_uris": {"android": "https://dc.lft.to/lastmile_qr_scan", "ios": "https://dc.lft.to/lastmile_qr_scan"}, "fusion_lon": 0.0}, {"lat": 38.9069555, "is_disabled": 0, "type": "electric_scooter", "lon": -77.03625233333334, "bike_id": "6a2027738dee963e97b0df5dc92d4113", "fusion_lat": 0.0, "name": "6a2027738dee963e97b0df5dc92d4113", "is_reserved": 0, "rental_uris": {"android": "https://dc.lft.to/lastmile_qr_scan", "ios": "https://dc.lft.to/lastmile_qr_scan"}, "fusion_lon": 0.0}, {"lat": 38.900248833333336, "is_disabled": 0, "type": "electric_scooter", "lon": -76.99833733333334, "bike_id": "0e6c525f3ff538ff4c195cbde9c51fd4", "fusion_lat": 0.0, "name": "0e6c525f3ff538ff4c195cbde9c51fd4", "is_reserved": 0, "rental_uris": {"android": "https://dc.lft.to/lastmile_qr_scan", "ios": "https://dc.lft.to/lastmile_qr_scan"}, "fusion_lon": 0.0}, {"lat": 38.9168615, "is_disabled": 0, "type": "electric_scooter", "lon": -77.02948616666667, "bike_id": "c234394f95a2394dcf37a3def641739d", "fusion_lat": 0.0, "name": "c234394f95a2394dcf37a3def641739d", "is_reserved": 0, "rental_uris": {"android": "https://dc.lft.to/lastmile_qr_scan", "ios": "https://dc.lft.to/lastmile_qr_scan"}, "fusion_lon": 0.0}, {"lat": 38.93103933333333, "is_disabled": 0, "type": "electric_scooter", "lon": -77.025618, "bike_id": "aef670c99011bbcddca299dbcfddb0de", "fusion_lat": 0.0, "name": "aef670c99011bbcddca299dbcfddb0de", "is_reserved": 0, "rental_uris": {"android": "https://dc.lft.to/lastmile_qr_scan", "ios": "https://dc.lft.to/lastmile_qr_scan"}, "fusion_lon": 0.0}, {"lat": 38.91177583333333, "is_disabled": 0, "type": "electric_scooter", "lon": -77.0064545, "bike_id": "51cd72db6f4751c573be8e73d65a0705", "fusion_lat": 0.0, "name": "51cd72db6f4751c573be8e73d65a0705", "is_reserved": 0, "rental_uris": {"android": "https://dc.lft.to/lastmile_qr_scan", "ios": "https://dc.lft.to/lastmile_qr_scan"}, "fusion_lon": 0.0}, {"lat": 38.9250115, "is_disabled": 0, "type": "electric_bike", "lon": -76.9822785, "bike_id": "f45637dba54650f99bd403b5f442c559", "fusion_lat": 0.0, "name": "f45637dba54650f99bd403b5f442c559", "is_reserved": 0, "rental_uris": {"android": "https://dc.lft.to/lastmile_qr_scan", "ios": "https://dc.lft.to/lastmile_qr_scan"}, "fusion_lon": 0.0}, {"lat": 38.90565633333333, "is_disabled": 0, "type": "electric_scooter", "lon": -77.02492166666667, "bike_id": "e51268de3c1726a584b0a05c79c2cb9e", "fusion_lat": 0.0, "name": "e51268de3c1726a584b0a05c79c2cb9e", "is_reserved": 0, "rental_uris": {"android": "https://dc.lft.to/lastmile_qr_scan", "ios": "https://dc.lft.to/lastmile_qr_scan"}, "fusion_lon": 0.0}, {"lat": 38.93365, "is_disabled": 0, "type": "electric_scooter", "lon": -77.05753183333333, "bike_id": "f8acdb28324f268465cb1adff626f204", "fusion_lat": 0.0, "name": "f8acdb28324f268465cb1adff626f204", "is_reserved": 0, "rental_uris": {"android": "https://dc.lft.to/lastmile_qr_scan", "ios": "https://dc.lft.to/lastmile_qr_scan"}, "fusion_lon": 0.0}, {"lat": 38.949894, "is_disabled": 0, "type": "electric_bike", "lon": -77.02962966666666, "bike_id": "c32834ab244d560fd87bc1b31ffec44f", "fusion_lat": 0.0, "name": "c32834ab244d560fd87bc1b31ffec44f", "is_reserved": 0, "rental_uris": {"android": "https://dc.lft.to/lastmile_qr_scan", "ios": "https://dc.lft.to/lastmile_qr_scan"}, "fusion_lon": 0.0}, {"lat": 38.91613316666667, "is_disabled": 0, "type": "electric_scooter", "lon": -77.04485866666667, "bike_id": "19fcc86c8ebbbfb1e33f6610300cb632", "fusion_lat": 0.0, "name": "19fcc86c8ebbbfb1e33f6610300cb632", "is_reserved": 0, "rental_uris": {"android": "https://dc.lft.to/lastmile_qr_scan", "ios": "https://dc.lft.to/lastmile_qr_scan"}, "fusion_lon": 0.0}, {"lat": 38.89252416666667, "is_disabled": 0, "type": "electric_scooter", "lon": -77.04897116666666, "bike_id": "1c7e1f98c0e1499d5f315d5144169b21", "fusion_lat": 0.0, "name": "1c7e1f98c0e1499d5f315d5144169b21", "is_reserved": 0, "rental_uris": {"android": "https://dc.lft.to/lastmile_qr_scan", "ios": "https://dc.lft.to/lastmile_qr_scan"}, "fusion_lon": 0.0}, {"lat": 38.89623016666667, "is_disabled": 0, "type": "electric_scooter", "lon": -77.0316505, "bike_id": "de0be1d562c5f11bf7b792a9a55ed6d2", "fusion_lat": 0.0, "name": "de0be1d562c5f11bf7b792a9a55ed6d2", "is_reserved": 0, "rental_uris": {"android": "https://dc.lft.to/lastmile_qr_scan", "ios": "https://dc.lft.to/lastmile_qr_scan"}, "fusion_lon": 0.0}, {"lat": 38.92109, "is_disabled": 0, "type": "electric_scooter", "lon": -77.04366, "bike_id": "e46f00eee4766d02e9eccffc5fb310da", "fusion_lat": 0.0, "name": "e46f00eee4766d02e9eccffc5fb310da", "is_reserved": 0, "rental_uris": {"android": "https://dc.lft.to/lastmile_qr_scan", "ios": "https://dc.lft.to/lastmile_qr_scan"}, "fusion_lon": 0.0}, {"lat": 38.90079466666667, "is_disabled": 0, "type": "electric_scooter", "lon": -77.002088, "bike_id": "9009af98fcd0e39decf2351ab778a1d5", "fusion_lat": 0.0, "name": "9009af98fcd0e39decf2351ab778a1d5", "is_reserved": 0, "rental_uris": {"android": "https://dc.lft.to/lastmile_qr_scan", "ios": "https://dc.lft.to/lastmile_qr_scan"}, "fusion_lon": 0.0}, {"lat": 38.85088, "is_disabled": 0, "type": "electric_bike", "lon": -76.95677183333333, "bike_id": "a50b5b2bbc3e612b490fbfe51a2ac7ee", "fusion_lat": 0.0, "name": "a50b5b2bbc3e612b490fbfe51a2ac7ee", "is_reserved": 0, "rental_uris": {"android": "https://dc.lft.to/lastmile_qr_scan", "ios": "https://dc.lft.to/lastmile_qr_scan"}, "fusion_lon": 0.0}, {"lat": 38.90569716666667, "is_disabled": 0, "type": "electric_scooter", "lon": -77.046641, "bike_id": "c942f75b4d86ae9006afdafc97b07a0c", "fusion_lat": 0.0, "name": "c942f75b4d86ae9006afdafc97b07a0c", "is_reserved": 0, "rental_uris": {"android": "https://dc.lft.to/lastmile_qr_scan", "ios": "https://dc.lft.to/lastmile_qr_scan"}, "fusion_lon": 0.0}, {"lat": 38.85379616666667, "is_disabled": 0, "type": "electric_bike", "lon": -77.124287, "bike_id": "a94c565341aa50530b6500776d4f65d8", "fusion_lat": 0.0, "name": "a94c565341aa50530b6500776d4f65d8", "is_reserved": 0, "rental_uris": {"android": "https://dc.lft.to/lastmile_qr_scan", "ios": "https://dc.lft.to/lastmile_qr_scan"}, "fusion_lon": 0.0}, {"lat": 38.9040305, "is_disabled": 0, "type": "electric_scooter", "lon": -76.9851055, "bike_id": "8e5118c36cb03594817924bdde04f1ec", "fusion_lat": 0.0, "name": "8e5118c36cb03594817924bdde04f1ec", "is_reserved": 0, "rental_uris": {"android": "https://dc.lft.to/lastmile_qr_scan", "ios": "https://dc.lft.to/lastmile_qr_scan"}, "fusion_lon": 0.0}, {"lat": 38.92543783333333, "is_disabled": 0, "type": "electric_scooter", "lon": -77.04138, "bike_id": "57c42b1bf0c2205ab62619b559577145", "fusion_lat": 0.0, "name": "57c42b1bf0c2205ab62619b559577145", "is_reserved": 0, "rental_uris": {"android": "https://dc.lft.to/lastmile_qr_scan", "ios": "https://dc.lft.to/lastmile_qr_scan"}, "fusion_lon": 0.0}, {"lat": 38.899911833333334, "is_disabled": 0, "type": "electric_scooter", "lon": -77.05264583333333, "bike_id": "3af6521822719b93f2665e59de6e7901", "fusion_lat": 0.0, "name": "3af6521822719b93f2665e59de6e7901", "is_reserved": 0, "rental_uris": {"android": "https://dc.lft.to/lastmile_qr_scan", "ios": "https://dc.lft.to/lastmile_qr_scan"}, "fusion_lon": 0.0}, {"lat": 38.917640166666665, "is_disabled": 0, "type": "electric_scooter", "lon": -77.03195683333334, "bike_id": "a4d344b9e19b8020537469d81c8b14d9", "fusion_lat": 0.0, "name": "a4d344b9e19b8020537469d81c8b14d9", "is_reserved": 0, "rental_uris": {"android": "https://dc.lft.to/lastmile_qr_scan", "ios": "https://dc.lft.to/lastmile_qr_scan"}, "fusion_lon": 0.0}, {"lat": 38.89435366666667, "is_disabled": 0, "type": "electric_scooter", "lon": -77.02692283333333, "bike_id": "8b5327e8f51ba0579160d0e38b48ac4c", "fusion_lat": 0.0, "name": "8b5327e8f51ba0579160d0e38b48ac4c", "is_reserved": 0, "rental_uris": {"android": "https://dc.lft.to/lastmile_qr_scan", "ios": "https://dc.lft.to/lastmile_qr_scan"}, "fusion_lon": 0.0}, {"lat": 38.8957875, "is_disabled": 0, "type": "electric_scooter", "lon": -76.98180016666667, "bike_id": "8da1a8b15a1f67139b5e3e54d0405d2c", "fusion_lat": 0.0, "name": "8da1a8b15a1f67139b5e3e54d0405d2c", "is_reserved": 0, "rental_uris": {"android": "https://dc.lft.to/lastmile_qr_scan", "ios": "https://dc.lft.to/lastmile_qr_scan"}, "fusion_lon": 0.0}, {"lat": 38.899958, "is_disabled": 0, "type": "electric_scooter", "lon": -77.02671433333333, "bike_id": "7a0c78fc05413345b6138da0a89624d3", "fusion_lat": 0.0, "name": "7a0c78fc05413345b6138da0a89624d3", "is_reserved": 0, "rental_uris": {"android": "https://dc.lft.to/lastmile_qr_scan", "ios": "https://dc.lft.to/lastmile_qr_scan"}, "fusion_lon": 0.0}, {"lat": 38.90046133333333, "is_disabled": 0, "type": "electric_scooter", "lon": -77.03293916666667, "bike_id": "207a33a742e65f115125de5e5779ed23", "fusion_lat": 0.0, "name": "207a33a742e65f115125de5e5779ed23", "is_reserved": 0, "rental_uris": {"android": "https://dc.lft.to/lastmile_qr_scan", "ios": "https://dc.lft.to/lastmile_qr_scan"}, "fusion_lon": 0.0}, {"lat": 38.931121166666664, "is_disabled": 0, "type": "electric_scooter", "lon": -77.03401583333333, "bike_id": "9c91c67d7e67bd1bb908eb8a6071c58e", "fusion_lat": 0.0, "name": "9c91c67d7e67bd1bb908eb8a6071c58e", "is_reserved": 0, "rental_uris": {"android": "https://dc.lft.to/lastmile_qr_scan", "ios": "https://dc.lft.to/lastmile_qr_scan"}, "fusion_lon": 0.0}, {"lat": 38.930079166666665, "is_disabled": 0, "type": "electric_scooter", "lon": -77.02087583333333, "bike_id": "cb310c665ca7bb8c418f7ed2a9a871b4", "fusion_lat": 0.0, "name": "cb310c665ca7bb8c418f7ed2a9a871b4", "is_reserved": 0, "rental_uris": {"android": "https://dc.lft.to/lastmile_qr_scan", "ios": "https://dc.lft.to/lastmile_qr_scan"}, "fusion_lon": 0.0}, {"lat": 38.916897166666665, "is_disabled": 0, "type": "electric_scooter", "lon": -77.03564033333333, "bike_id": "6ffbcab7c6bb850e8cf0b517f231bd5f", "fusion_lat": 0.0, "name": "6ffbcab7c6bb850e8cf0b517f231bd5f", "is_reserved": 0, "rental_uris": {"android": "https://dc.lft.to/lastmile_qr_scan", "ios": "https://dc.lft.to/lastmile_qr_scan"}, "fusion_lon": 0.0}, {"lat": 38.91182466666667, "is_disabled": 0, "type": "electric_scooter", "lon": -77.04327866666667, "bike_id": "4f6afe063ea2f0234cec476b7b670bce", "fusion_lat": 0.0, "name": "4f6afe063ea2f0234cec476b7b670bce", "is_reserved": 0, "rental_uris": {"android": "https://dc.lft.to/lastmile_qr_scan", "ios": "https://dc.lft.to/lastmile_qr_scan"}, "fusion_lon": 0.0}, {"lat": 38.9206665, "is_disabled": 0, "type": "electric_scooter", "lon": -77.01423216666667, "bike_id": "185ffda734b7af966cc10603d6bb00de", "fusion_lat": 0.0, "name": "185ffda734b7af966cc10603d6bb00de", "is_reserved": 0, "rental_uris": {"android": "https://dc.lft.to/lastmile_qr_scan", "ios": "https://dc.lft.to/lastmile_qr_scan"}, "fusion_lon": 0.0}, {"lat": 38.921147833333336, "is_disabled": 0, "type": "electric_bike", "lon": -76.98579383333333, "bike_id": "e2cdf3b210f8afcc4151e84b416a42f7", "fusion_lat": 0.0, "name": "e2cdf3b210f8afcc4151e84b416a42f7", "is_reserved": 0, "rental_uris": {"android": "https://dc.lft.to/lastmile_qr_scan", "ios": "https://dc.lft.to/lastmile_qr_scan"}, "fusion_lon": 0.0}, {"lat": 38.909567833333334, "is_disabled": 0, "type": "electric_scooter", "lon": -77.03419033333333, "bike_id": "b241471741817a0a4f3cf580a37ab39f", "fusion_lat": 0.0, "name": "b241471741817a0a4f3cf580a37ab39f", "is_reserved": 0, "rental_uris": {"android": "https://dc.lft.to/lastmile_qr_scan", "ios": "https://dc.lft.to/lastmile_qr_scan"}, "fusion_lon": 0.0}, {"lat": 38.9228905, "is_disabled": 0, "type": "electric_scooter", "lon": -77.036561, "bike_id": "c83924dc7a04ba146f936c1b3b578c34", "fusion_lat": 0.0, "name": "c83924dc7a04ba146f936c1b3b578c34", "is_reserved": 0, "rental_uris": {"android": "https://dc.lft.to/lastmile_qr_scan", "ios": "https://dc.lft.to/lastmile_qr_scan"}, "fusion_lon": 0.0}, {"lat": 38.909936333333334, "is_disabled": 0, "type": "electric_scooter", "lon": -77.04006116666666, "bike_id": "2d92f0f810479ecffa14caf470860699", "fusion_lat": 0.0, "name": "2d92f0f810479ecffa14caf470860699", "is_reserved": 0, "rental_uris": {"android": "https://dc.lft.to/lastmile_qr_scan", "ios": "https://dc.lft.to/lastmile_qr_scan"}, "fusion_lon": 0.0}, {"lat": 38.892478, "is_disabled": 0, "type": "electric_scooter", "lon": -77.03956516666666, "bike_id": "65c051ba49ed24e4b305434c4efe6163", "fusion_lat": 0.0, "name": "65c051ba49ed24e4b305434c4efe6163", "is_reserved": 0, "rental_uris": {"android": "https://dc.lft.to/lastmile_qr_scan", "ios": "https://dc.lft.to/lastmile_qr_scan"}, "fusion_lon": 0.0}, {"lat": 38.914183666666666, "is_disabled": 0, "type": "electric_scooter", "lon": -77.03182333333334, "bike_id": "8cd5a021f51345de39b1ef076dae9fa9", "fusion_lat": 0.0, "name": "8cd5a021f51345de39b1ef076dae9fa9", "is_reserved": 0, "rental_uris": {"android": "https://dc.lft.to/lastmile_qr_scan", "ios": "https://dc.lft.to/lastmile_qr_scan"}, "fusion_lon": 0.0}, {"lat": 38.950581, "is_disabled": 0, "type": "electric_bike", "lon": -77.00725316666667, "bike_id": "9cdae42f43725c7b9ee981eaf767c1cd", "fusion_lat": 0.0, "name": "9cdae42f43725c7b9ee981eaf767c1cd", "is_reserved": 0, "rental_uris": {"android": "https://dc.lft.to/lastmile_qr_scan", "ios": "https://dc.lft.to/lastmile_qr_scan"}, "fusion_lon": 0.0}, {"lat": 38.902925, "is_disabled": 0, "type": "electric_scooter", "lon": -77.06340516666667, "bike_id": "11fbdfa27764670ecc6955db4c663b09", "fusion_lat": 0.0, "name": "11fbdfa27764670ecc6955db4c663b09", "is_reserved": 0, "rental_uris": {"android": "https://dc.lft.to/lastmile_qr_scan", "ios": "https://dc.lft.to/lastmile_qr_scan"}, "fusion_lon": 0.0}, {"lat": 38.916488666666666, "is_disabled": 0, "type": "electric_scooter", "lon": -77.02277083333334, "bike_id": "dfc23c87ef4935c067fab2151e2ccc8f", "fusion_lat": 0.0, "name": "dfc23c87ef4935c067fab2151e2ccc8f", "is_reserved": 0, "rental_uris": {"android": "https://dc.lft.to/lastmile_qr_scan", "ios": "https://dc.lft.to/lastmile_qr_scan"}, "fusion_lon": 0.0}, {"lat": 38.93354516666667, "is_disabled": 0, "type": "electric_scooter", "lon": -77.0735005, "bike_id": "fc60a9309de3624abbacb35a44efaafc", "fusion_lat": 0.0, "name": "fc60a9309de3624abbacb35a44efaafc", "is_reserved": 0, "rental_uris": {"android": "https://dc.lft.to/lastmile_qr_scan", "ios": "https://dc.lft.to/lastmile_qr_scan"}, "fusion_lon": 0.0}, {"lat": 38.958906999999996, "is_disabled": 0, "type": "electric_bike", "lon": -76.9248775, "bike_id": "f30cb85a6205cf8622db5ed19243cde2", "fusion_lat": 0.0, "name": "f30cb85a6205cf8622db5ed19243cde2", "is_reserved": 0, "rental_uris": {"android": "https://dc.lft.to/lastmile_qr_scan", "ios": "https://dc.lft.to/lastmile_qr_scan"}, "fusion_lon": 0.0}, {"lat": 38.853071, "is_disabled": 0, "type": "electric_bike", "lon": -77.1312685, "bike_id": "9762f759dd210ff99397dd93042ae63a", "fusion_lat": 0.0, "name": "9762f759dd210ff99397dd93042ae63a", "is_reserved": 0, "rental_uris": {"android": "https://dc.lft.to/lastmile_qr_scan", "ios": "https://dc.lft.to/lastmile_qr_scan"}, "fusion_lon": 0.0}, {"lat": 38.940802166666664, "is_disabled": 0, "type": "electric_scooter", "lon": -77.0238735, "bike_id": "b16a6d8a392fdd6e65a5c573efa44c73", "fusion_lat": 0.0, "name": "b16a6d8a392fdd6e65a5c573efa44c73", "is_reserved": 0, "rental_uris": {"android": "https://dc.lft.to/lastmile_qr_scan", "ios": "https://dc.lft.to/lastmile_qr_scan"}, "fusion_lon": 0.0}, {"lat": 38.94793416666667, "is_disabled": 0, "type": "electric_scooter", "lon": -77.02169833333333, "bike_id": "fe6c8d048abf5123da8d5a29be6f50aa", "fusion_lat": 0.0, "name": "fe6c8d048abf5123da8d5a29be6f50aa", "is_reserved": 0, "rental_uris": {"android": "https://dc.lft.to/lastmile_qr_scan", "ios": "https://dc.lft.to/lastmile_qr_scan"}, "fusion_lon": 0.0}, {"lat": 38.921714333333334, "is_disabled": 0, "type": "electric_scooter", "lon": -77.032088, "bike_id": "105f4eae6a896fa9d95f9765fb83e886", "fusion_lat": 0.0, "name": "105f4eae6a896fa9d95f9765fb83e886", "is_reserved": 0, "rental_uris": {"android": "https://dc.lft.to/lastmile_qr_scan", "ios": "https://dc.lft.to/lastmile_qr_scan"}, "fusion_lon": 0.0}, {"lat": 38.92178916666667, "is_disabled": 0, "type": "electric_scooter", "lon": -77.04710333333334, "bike_id": "3c59ff508f8792821ea94a1a546033a6", "fusion_lat": 0.0, "name": "3c59ff508f8792821ea94a1a546033a6", "is_reserved": 0, "rental_uris": {"android": "https://dc.lft.to/lastmile_qr_scan", "ios": "https://dc.lft.to/lastmile_qr_scan"}, "fusion_lon": 0.0}, {"lat": 38.90266916666667, "is_disabled": 0, "type": "electric_scooter", "lon": -77.03984433333333, "bike_id": "86271c5c8a78b616b1a8089b67f7557d", "fusion_lat": 0.0, "name": "86271c5c8a78b616b1a8089b67f7557d", "is_reserved": 0, "rental_uris": {"android": "https://dc.lft.to/lastmile_qr_scan", "ios": "https://dc.lft.to/lastmile_qr_scan"}, "fusion_lon": 0.0}, {"lat": 38.892155, "is_disabled": 0, "type": "electric_scooter", "lon": -77.03157, "bike_id": "d14bbe2f0d557c326db5fa25933330d4", "fusion_lat": 0.0, "name": "d14bbe2f0d557c326db5fa25933330d4", "is_reserved": 0, "rental_uris": {"android": "https://dc.lft.to/lastmile_qr_scan", "ios": "https://dc.lft.to/lastmile_qr_scan"}, "fusion_lon": 0.0}, {"lat": 38.901082833333334, "is_disabled": 0, "type": "electric_scooter", "lon": -76.9962195, "bike_id": "f142e13da3470322240182670a6ac8b0", "fusion_lat": 0.0, "name": "f142e13da3470322240182670a6ac8b0", "is_reserved": 0, "rental_uris": {"android": "https://dc.lft.to/lastmile_qr_scan", "ios": "https://dc.lft.to/lastmile_qr_scan"}, "fusion_lon": 0.0}, {"lat": 38.927718666666664, "is_disabled": 0, "type": "electric_scooter", "lon": -77.02782533333334, "bike_id": "b77ac6dc37b1fd4419df1f4aed1a9165", "fusion_lat": 0.0, "name": "b77ac6dc37b1fd4419df1f4aed1a9165", "is_reserved": 0, "rental_uris": {"android": "https://dc.lft.to/lastmile_qr_scan", "ios": "https://dc.lft.to/lastmile_qr_scan"}, "fusion_lon": 0.0}, {"lat": 38.93740916666667, "is_disabled": 0, "type": "electric_scooter", "lon": -77.03471766666667, "bike_id": "8bbe7fbcb2dabf993b28498581089d4f", "fusion_lat": 0.0, "name": "8bbe7fbcb2dabf993b28498581089d4f", "is_reserved": 0, "rental_uris": {"android": "https://dc.lft.to/lastmile_qr_scan", "ios": "https://dc.lft.to/lastmile_qr_scan"}, "fusion_lon": 0.0}, {"lat": 38.90959333333333, "is_disabled": 0, "type": "electric_scooter", "lon": -77.02280933333333, "bike_id": "e157e0c83799d218f89b9f0627c11914", "fusion_lat": 0.0, "name": "e157e0c83799d218f89b9f0627c11914", "is_reserved": 0, "rental_uris": {"android": "https://dc.lft.to/lastmile_qr_scan", "ios": "https://dc.lft.to/lastmile_qr_scan"}, "fusion_lon": 0.0}, {"lat": 38.909599, "is_disabled": 0, "type": "electric_scooter", "lon": -77.03834466666666, "bike_id": "252f50e034a7f3dc2d447b3249c387ee", "fusion_lat": 0.0, "name": "252f50e034a7f3dc2d447b3249c387ee", "is_reserved": 0, "rental_uris": {"android": "https://dc.lft.to/lastmile_qr_scan", "ios": "https://dc.lft.to/lastmile_qr_scan"}, "fusion_lon": 0.0}, {"lat": 38.9053035, "is_disabled": 0, "type": "electric_scooter", "lon": -77.05154, "bike_id": "8168c907bc77af060073b7546d72fa7a", "fusion_lat": 0.0, "name": "8168c907bc77af060073b7546d72fa7a", "is_reserved": 0, "rental_uris": {"android": "https://dc.lft.to/lastmile_qr_scan", "ios": "https://dc.lft.to/lastmile_qr_scan"}, "fusion_lon": 0.0}, {"lat": 38.885782166666665, "is_disabled": 0, "type": "electric_scooter", "lon": -76.9190955, "bike_id": "7551a0c0d0e22dd3347ee295a3a933fd", "fusion_lat": 0.0, "name": "7551a0c0d0e22dd3347ee295a3a933fd", "is_reserved": 0, "rental_uris": {"android": "https://dc.lft.to/lastmile_qr_scan", "ios": "https://dc.lft.to/lastmile_qr_scan"}, "fusion_lon": 0.0}, {"lat": 38.92551816666667, "is_disabled": 0, "type": "electric_scooter", "lon": -77.03224516666667, "bike_id": "38cbccffa613384bc56c25d04077cedf", "fusion_lat": 0.0, "name": "38cbccffa613384bc56c25d04077cedf", "is_reserved": 0, "rental_uris": {"android": "https://dc.lft.to/lastmile_qr_scan", "ios": "https://dc.lft.to/lastmile_qr_scan"}, "fusion_lon": 0.0}, {"lat": 38.9274385, "is_disabled": 0, "type": "electric_scooter", "lon": -77.02415333333333, "bike_id": "1228c6b77f59c89b6ebc7cdd4d789b8c", "fusion_lat": 0.0, "name": "1228c6b77f59c89b6ebc7cdd4d789b8c", "is_reserved": 0, "rental_uris": {"android": "https://dc.lft.to/lastmile_qr_scan", "ios": "https://dc.lft.to/lastmile_qr_scan"}, "fusion_lon": 0.0}, {"lat": 38.918128833333334, "is_disabled": 0, "type": "electric_scooter", "lon": -77.02487183333334, "bike_id": "274779f9c64b15fe3838cab5b9e70f14", "fusion_lat": 0.0, "name": "274779f9c64b15fe3838cab5b9e70f14", "is_reserved": 0, "rental_uris": {"android": "https://dc.lft.to/lastmile_qr_scan", "ios": "https://dc.lft.to/lastmile_qr_scan"}, "fusion_lon": 0.0}, {"lat": 38.933397, "is_disabled": 0, "type": "electric_scooter", "lon": -76.9930825, "bike_id": "4de60a7873720cb9dcd643a207cc43e0", "fusion_lat": 0.0, "name": "4de60a7873720cb9dcd643a207cc43e0", "is_reserved": 0, "rental_uris": {"android": "https://dc.lft.to/lastmile_qr_scan", "ios": "https://dc.lft.to/lastmile_qr_scan"}, "fusion_lon": 0.0}, {"lat": 38.931439166666664, "is_disabled": 0, "type": "electric_scooter", "lon": -77.02148166666667, "bike_id": "9684fb3842d1c99cea80331b7f008682", "fusion_lat": 0.0, "name": "9684fb3842d1c99cea80331b7f008682", "is_reserved": 0, "rental_uris": {"android": "https://dc.lft.to/lastmile_qr_scan", "ios": "https://dc.lft.to/lastmile_qr_scan"}, "fusion_lon": 0.0}, {"lat": 38.914595, "is_disabled": 0, "type": "electric_scooter", "lon": -77.02969666666667, "bike_id": "c7f62f529a2a7e11159fbcf8bcccc8f6", "fusion_lat": 0.0, "name": "c7f62f529a2a7e11159fbcf8bcccc8f6", "is_reserved": 0, "rental_uris": {"android": "https://dc.lft.to/lastmile_qr_scan", "ios": "https://dc.lft.to/lastmile_qr_scan"}, "fusion_lon": 0.0}, {"lat": 38.909579, "is_disabled": 0, "type": "electric_scooter", "lon": -77.021599, "bike_id": "a0d69c8d71607894779fde73f21e49ac", "fusion_lat": 0.0, "name": "a0d69c8d71607894779fde73f21e49ac", "is_reserved": 0, "rental_uris": {"android": "https://dc.lft.to/lastmile_qr_scan", "ios": "https://dc.lft.to/lastmile_qr_scan"}, "fusion_lon": 0.0}, {"lat": 38.906972333333336, "is_disabled": 0, "type": "electric_scooter", "lon": -77.03092883333333, "bike_id": "36370d04b7c5cd9c72a12b8c5fa56390", "fusion_lat": 0.0, "name": "36370d04b7c5cd9c72a12b8c5fa56390", "is_reserved": 0, "rental_uris": {"android": "https://dc.lft.to/lastmile_qr_scan", "ios": "https://dc.lft.to/lastmile_qr_scan"}, "fusion_lon": 0.0}, {"lat": 38.903973, "is_disabled": 0, "type": "electric_scooter", "lon": -77.020458, "bike_id": "6888228527de4afbf4c402279ab7922c", "fusion_lat": 0.0, "name": "6888228527de4afbf4c402279ab7922c", "is_reserved": 0, "rental_uris": {"android": "https://dc.lft.to/lastmile_qr_scan", "ios": "https://dc.lft.to/lastmile_qr_scan"}, "fusion_lon": 0.0}, {"lat": 38.92332433333333, "is_disabled": 0, "type": "electric_scooter", "lon": -77.0320155, "bike_id": "27868557d9ec62d53ba3c9c6e5ed0d00", "fusion_lat": 0.0, "name": "27868557d9ec62d53ba3c9c6e5ed0d00", "is_reserved": 0, "rental_uris": {"android": "https://dc.lft.to/lastmile_qr_scan", "ios": "https://dc.lft.to/lastmile_qr_scan"}, "fusion_lon": 0.0}, {"lat": 38.899618333333336, "is_disabled": 0, "type": "electric_scooter", "lon": -77.00346816666666, "bike_id": "028d7d94a28d5daf85c93ad276fc8d52", "fusion_lat": 0.0, "name": "028d7d94a28d5daf85c93ad276fc8d52", "is_reserved": 0, "rental_uris": {"android": "https://dc.lft.to/lastmile_qr_scan", "ios": "https://dc.lft.to/lastmile_qr_scan"}, "fusion_lon": 0.0}, {"lat": 38.900108333333336, "is_disabled": 0, "type": "electric_scooter", "lon": -76.92234216666667, "bike_id": "cc010a3919d26187b6cc2224cdcd69d9", "fusion_lat": 0.0, "name": "cc010a3919d26187b6cc2224cdcd69d9", "is_reserved": 0, "rental_uris": {"android": "https://dc.lft.to/lastmile_qr_scan", "ios": "https://dc.lft.to/lastmile_qr_scan"}, "fusion_lon": 0.0}, {"lat": 38.9169575, "is_disabled": 0, "type": "electric_scooter", "lon": -77.028725, "bike_id": "1c46d827e42410a4602d426599d1f5a8", "fusion_lat": 0.0, "name": "1c46d827e42410a4602d426599d1f5a8", "is_reserved": 0, "rental_uris": {"android": "https://dc.lft.to/lastmile_qr_scan", "ios": "https://dc.lft.to/lastmile_qr_scan"}, "fusion_lon": 0.0}, {"lat": 38.90572316666667, "is_disabled": 0, "type": "electric_scooter", "lon": -77.00574983333334, "bike_id": "76383fea84fb80fe01e196e1b62a31ff", "fusion_lat": 0.0, "name": "76383fea84fb80fe01e196e1b62a31ff", "is_reserved": 0, "rental_uris": {"android": "https://dc.lft.to/lastmile_qr_scan", "ios": "https://dc.lft.to/lastmile_qr_scan"}, "fusion_lon": 0.0}, {"lat": 38.91760766666667, "is_disabled": 0, "type": "electric_scooter", "lon": -77.044288, "bike_id": "abaa948d7d93a13d3bc867dd4ee15518", "fusion_lat": 0.0, "name": "abaa948d7d93a13d3bc867dd4ee15518", "is_reserved": 0, "rental_uris": {"android": "https://dc.lft.to/lastmile_qr_scan", "ios": "https://dc.lft.to/lastmile_qr_scan"}, "fusion_lon": 0.0}, {"lat": 38.92075766666667, "is_disabled": 0, "type": "electric_scooter", "lon": -77.02391916666667, "bike_id": "112a407d2c345b340b54dd4502ac9edd", "fusion_lat": 0.0, "name": "112a407d2c345b340b54dd4502ac9edd", "is_reserved": 0, "rental_uris": {"android": "https://dc.lft.to/lastmile_qr_scan", "ios": "https://dc.lft.to/lastmile_qr_scan"}, "fusion_lon": 0.0}, {"lat": 38.90262083333333, "is_disabled": 0, "type": "electric_scooter", "lon": -77.0525935, "bike_id": "41194a7fdd3d29dbf88e18f6cfb41d4f", "fusion_lat": 0.0, "name": "41194a7fdd3d29dbf88e18f6cfb41d4f", "is_reserved": 0, "rental_uris": {"android": "https://dc.lft.to/lastmile_qr_scan", "ios": "https://dc.lft.to/lastmile_qr_scan"}, "fusion_lon": 0.0}, {"lat": 38.908161, "is_disabled": 0, "type": "electric_scooter", "lon": -77.0184525, "bike_id": "566479bb31c21084bb870d9e8d3cbdcf", "fusion_lat": 0.0, "name": "566479bb31c21084bb870d9e8d3cbdcf", "is_reserved": 0, "rental_uris": {"android": "https://dc.lft.to/lastmile_qr_scan", "ios": "https://dc.lft.to/lastmile_qr_scan"}, "fusion_lon": 0.0}, {"lat": 38.8503435, "is_disabled": 0, "type": "electric_bike", "lon": -76.97293983333333, "bike_id": "fdcff6623e47df9007693366b8308fb8", "fusion_lat": 0.0, "name": "fdcff6623e47df9007693366b8308fb8", "is_reserved": 0, "rental_uris": {"android": "https://dc.lft.to/lastmile_qr_scan", "ios": "https://dc.lft.to/lastmile_qr_scan"}, "fusion_lon": 0.0}, {"lat": 38.904401666666665, "is_disabled": 0, "type": "electric_scooter", "lon": -77.03468533333333, "bike_id": "2d6e28115115aed3a7ab0b1d597e1ffb", "fusion_lat": 0.0, "name": "2d6e28115115aed3a7ab0b1d597e1ffb", "is_reserved": 0, "rental_uris": {"android": "https://dc.lft.to/lastmile_qr_scan", "ios": "https://dc.lft.to/lastmile_qr_scan"}, "fusion_lon": 0.0}, {"lat": 38.91910416666666, "is_disabled": 0, "type": "electric_scooter", "lon": -77.07068383333333, "bike_id": "debe61b567076cdbb97251cf1dc96c22", "fusion_lat": 0.0, "name": "debe61b567076cdbb97251cf1dc96c22", "is_reserved": 0, "rental_uris": {"android": "https://dc.lft.to/lastmile_qr_scan", "ios": "https://dc.lft.to/lastmile_qr_scan"}, "fusion_lon": 0.0}, {"lat": 38.9223845, "is_disabled": 0, "type": "electric_scooter", "lon": -77.04574016666666, "bike_id": "3c6f52cbd8e70175bde3c0b736e17933", "fusion_lat": 0.0, "name": "3c6f52cbd8e70175bde3c0b736e17933", "is_reserved": 0, "rental_uris": {"android": "https://dc.lft.to/lastmile_qr_scan", "ios": "https://dc.lft.to/lastmile_qr_scan"}, "fusion_lon": 0.0}, {"lat": 38.919321833333335, "is_disabled": 0, "type": "electric_scooter", "lon": -77.02300116666666, "bike_id": "7df383fe3a05bac3d678794a7422744f", "fusion_lat": 0.0, "name": "7df383fe3a05bac3d678794a7422744f", "is_reserved": 0, "rental_uris": {"android": "https://dc.lft.to/lastmile_qr_scan", "ios": "https://dc.lft.to/lastmile_qr_scan"}, "fusion_lon": 0.0}, {"lat": 38.892237, "is_disabled": 0, "type": "electric_scooter", "lon": -77.043718, "bike_id": "3966b838426fb448371a17022de26dc5", "fusion_lat": 0.0, "name": "3966b838426fb448371a17022de26dc5", "is_reserved": 0, "rental_uris": {"android": "https://dc.lft.to/lastmile_qr_scan", "ios": "https://dc.lft.to/lastmile_qr_scan"}, "fusion_lon": 0.0}, {"lat": 38.9053105, "is_disabled": 0, "type": "electric_scooter", "lon": -77.05765916666667, "bike_id": "efe1ced49c448688b595406d8617208a", "fusion_lat": 0.0, "name": "efe1ced49c448688b595406d8617208a", "is_reserved": 0, "rental_uris": {"android": "https://dc.lft.to/lastmile_qr_scan", "ios": "https://dc.lft.to/lastmile_qr_scan"}, "fusion_lon": 0.0}, {"lat": 38.89222066666667, "is_disabled": 0, "type": "electric_scooter", "lon": -77.04198633333333, "bike_id": "da6fc11416a201a8d9fa4a75971e5f0e", "fusion_lat": 0.0, "name": "da6fc11416a201a8d9fa4a75971e5f0e", "is_reserved": 0, "rental_uris": {"android": "https://dc.lft.to/lastmile_qr_scan", "ios": "https://dc.lft.to/lastmile_qr_scan"}, "fusion_lon": 0.0}, {"lat": 38.8971825, "is_disabled": 0, "type": "electric_scooter", "lon": -77.00794333333333, "bike_id": "5c3d503a6d8cd61b771e0ef7e695af75", "fusion_lat": 0.0, "name": "5c3d503a6d8cd61b771e0ef7e695af75", "is_reserved": 0, "rental_uris": {"android": "https://dc.lft.to/lastmile_qr_scan", "ios": "https://dc.lft.to/lastmile_qr_scan"}, "fusion_lon": 0.0}, {"lat": 38.91691266666667, "is_disabled": 0, "type": "electric_scooter", "lon": -77.041902, "bike_id": "2a989975cba322a06a7334f5c1e639d7", "fusion_lat": 0.0, "name": "2a989975cba322a06a7334f5c1e639d7", "is_reserved": 0, "rental_uris": {"android": "https://dc.lft.to/lastmile_qr_scan", "ios": "https://dc.lft.to/lastmile_qr_scan"}, "fusion_lon": 0.0}, {"lat": 38.90977983333333, "is_disabled": 0, "type": "electric_scooter", "lon": -77.03872, "bike_id": "0eea6d641d7353265803fd99e0dd50f2", "fusion_lat": 0.0, "name": "0eea6d641d7353265803fd99e0dd50f2", "is_reserved": 0, "rental_uris": {"android": "https://dc.lft.to/lastmile_qr_scan", "ios": "https://dc.lft.to/lastmile_qr_scan"}, "fusion_lon": 0.0}, {"lat": 38.908057166666666, "is_disabled": 0, "type": "electric_scooter", "lon": -77.04334316666667, "bike_id": "6eba8869153c0b33c7d647ba7eccb4f7", "fusion_lat": 0.0, "name": "6eba8869153c0b33c7d647ba7eccb4f7", "is_reserved": 0, "rental_uris": {"android": "https://dc.lft.to/lastmile_qr_scan", "ios": "https://dc.lft.to/lastmile_qr_scan"}, "fusion_lon": 0.0}, {"lat": 38.90958166666667, "is_disabled": 0, "type": "electric_scooter", "lon": -77.02280983333333, "bike_id": "ccc8bf19de52bbaf0bf656487cb787e1", "fusion_lat": 0.0, "name": "ccc8bf19de52bbaf0bf656487cb787e1", "is_reserved": 0, "rental_uris": {"android": "https://dc.lft.to/lastmile_qr_scan", "ios": "https://dc.lft.to/lastmile_qr_scan"}, "fusion_lon": 0.0}, {"lat": 38.89579666666667, "is_disabled": 0, "type": "electric_bike", "lon": -77.12697716666666, "bike_id": "d0f8acd21bea12bb97fb8f58089aee48", "fusion_lat": 0.0, "name": "d0f8acd21bea12bb97fb8f58089aee48", "is_reserved": 0, "rental_uris": {"android": "https://dc.lft.to/lastmile_qr_scan", "ios": "https://dc.lft.to/lastmile_qr_scan"}, "fusion_lon": 0.0}, {"lat": 38.8652285, "is_disabled": 0, "type": "electric_scooter", "lon": -76.99027816666667, "bike_id": "5235ddd9f0472911e4af3d70f3ad71f1", "fusion_lat": 0.0, "name": "5235ddd9f0472911e4af3d70f3ad71f1", "is_reserved": 0, "rental_uris": {"android": "https://dc.lft.to/lastmile_qr_scan", "ios": "https://dc.lft.to/lastmile_qr_scan"}, "fusion_lon": 0.0}, {"lat": 38.93360916666666, "is_disabled": 0, "type": "electric_bike", "lon": -77.099619, "bike_id": "b3b108d7240ce32388d9e8bb02e9a320", "fusion_lat": 0.0, "name": "b3b108d7240ce32388d9e8bb02e9a320", "is_reserved": 0, "rental_uris": {"android": "https://dc.lft.to/lastmile_qr_scan", "ios": "https://dc.lft.to/lastmile_qr_scan"}, "fusion_lon": 0.0}, {"lat": 38.92122366666667, "is_disabled": 0, "type": "electric_scooter", "lon": -77.03656683333334, "bike_id": "366946f7359c0d1179738d18ee20b12e", "fusion_lat": 0.0, "name": "366946f7359c0d1179738d18ee20b12e", "is_reserved": 0, "rental_uris": {"android": "https://dc.lft.to/lastmile_qr_scan", "ios": "https://dc.lft.to/lastmile_qr_scan"}, "fusion_lon": 0.0}, {"lat": 38.901532, "is_disabled": 0, "type": "electric_scooter", "lon": -77.03941516666667, "bike_id": "6eca8dd1d2750c96adf66a39affc6041", "fusion_lat": 0.0, "name": "6eca8dd1d2750c96adf66a39affc6041", "is_reserved": 0, "rental_uris": {"android": "https://dc.lft.to/lastmile_qr_scan", "ios": "https://dc.lft.to/lastmile_qr_scan"}, "fusion_lon": 0.0}, {"lat": 38.92873083333333, "is_disabled": 0, "type": "electric_scooter", "lon": -77.03321066666666, "bike_id": "2eff2c925687f4b27a52fd1ddd26a2ba", "fusion_lat": 0.0, "name": "2eff2c925687f4b27a52fd1ddd26a2ba", "is_reserved": 0, "rental_uris": {"android": "https://dc.lft.to/lastmile_qr_scan", "ios": "https://dc.lft.to/lastmile_qr_scan"}, "fusion_lon": 0.0}, {"lat": 38.9026805, "is_disabled": 0, "type": "electric_scooter", "lon": -77.03623433333334, "bike_id": "7e5965650f21d833c7379397e895296f", "fusion_lat": 0.0, "name": "7e5965650f21d833c7379397e895296f", "is_reserved": 0, "rental_uris": {"android": "https://dc.lft.to/lastmile_qr_scan", "ios": "https://dc.lft.to/lastmile_qr_scan"}, "fusion_lon": 0.0}, {"lat": 38.914213333333336, "is_disabled": 0, "type": "electric_scooter", "lon": -77.03180816666666, "bike_id": "94c97e6ca90e25e341796fee59b25cb4", "fusion_lat": 0.0, "name": "94c97e6ca90e25e341796fee59b25cb4", "is_reserved": 0, "rental_uris": {"android": "https://dc.lft.to/lastmile_qr_scan", "ios": "https://dc.lft.to/lastmile_qr_scan"}, "fusion_lon": 0.0}, {"lat": 38.923268666666665, "is_disabled": 0, "type": "electric_scooter", "lon": -77.0354415, "bike_id": "649608225720d85c0d592546fc4583b5", "fusion_lat": 0.0, "name": "649608225720d85c0d592546fc4583b5", "is_reserved": 0, "rental_uris": {"android": "https://dc.lft.to/lastmile_qr_scan", "ios": "https://dc.lft.to/lastmile_qr_scan"}, "fusion_lon": 0.0}, {"lat": 38.9058175, "is_disabled": 0, "type": "electric_scooter", "lon": -77.00580516666666, "bike_id": "d926cc70d1e67a30e81cd9a84b97f5a8", "fusion_lat": 0.0, "name": "d926cc70d1e67a30e81cd9a84b97f5a8", "is_reserved": 0, "rental_uris": {"android": "https://dc.lft.to/lastmile_qr_scan", "ios": "https://dc.lft.to/lastmile_qr_scan"}, "fusion_lon": 0.0}, {"lat": 38.8922115, "is_disabled": 0, "type": "electric_scooter", "lon": -77.02224716666667, "bike_id": "7a0693e63a71de2c607501897bee5f80", "fusion_lat": 0.0, "name": "7a0693e63a71de2c607501897bee5f80", "is_reserved": 0, "rental_uris": {"android": "https://dc.lft.to/lastmile_qr_scan", "ios": "https://dc.lft.to/lastmile_qr_scan"}, "fusion_lon": 0.0}, {"lat": 38.90720966666667, "is_disabled": 0, "type": "electric_scooter", "lon": -77.01810233333333, "bike_id": "e6778b5205aa1414b67a0af43bf1576f", "fusion_lat": 0.0, "name": "e6778b5205aa1414b67a0af43bf1576f", "is_reserved": 0, "rental_uris": {"android": "https://dc.lft.to/lastmile_qr_scan", "ios": "https://dc.lft.to/lastmile_qr_scan"}, "fusion_lon": 0.0}, {"lat": 38.9237945, "is_disabled": 0, "type": "electric_scooter", "lon": -77.02555, "bike_id": "f7ddb7875bd67624b4f6ac40d369c12e", "fusion_lat": 0.0, "name": "f7ddb7875bd67624b4f6ac40d369c12e", "is_reserved": 0, "rental_uris": {"android": "https://dc.lft.to/lastmile_qr_scan", "ios": "https://dc.lft.to/lastmile_qr_scan"}, "fusion_lon": 0.0}, {"lat": 38.902721166666666, "is_disabled": 0, "type": "electric_scooter", "lon": -77.03858033333333, "bike_id": "410655253046d7932b42d2f4efad2842", "fusion_lat": 0.0, "name": "410655253046d7932b42d2f4efad2842", "is_reserved": 0, "rental_uris": {"android": "https://dc.lft.to/lastmile_qr_scan", "ios": "https://dc.lft.to/lastmile_qr_scan"}, "fusion_lon": 0.0}, {"lat": 38.88404833333333, "is_disabled": 0, "type": "electric_bike", "lon": -76.96061166666667, "bike_id": "19d06a4a3fd7a4ad23755992b5e4a325", "fusion_lat": 0.0, "name": "19d06a4a3fd7a4ad23755992b5e4a325", "is_reserved": 0, "rental_uris": {"android": "https://dc.lft.to/lastmile_qr_scan", "ios": "https://dc.lft.to/lastmile_qr_scan"}, "fusion_lon": 0.0}, {"lat": 38.87918483333333, "is_disabled": 0, "type": "electric_scooter", "lon": -77.030936, "bike_id": "603cbe61d0ac78734beaa2168dbe27a7", "fusion_lat": 0.0, "name": "603cbe61d0ac78734beaa2168dbe27a7", "is_reserved": 0, "rental_uris": {"android": "https://dc.lft.to/lastmile_qr_scan", "ios": "https://dc.lft.to/lastmile_qr_scan"}, "fusion_lon": 0.0}, {"lat": 38.97090683333333, "is_disabled": 0, "type": "electric_bike", "lon": -77.0695975, "bike_id": "d0b7a89a34cfe2f4a7d99c2553d27fbd", "fusion_lat": 0.0, "name": "d0b7a89a34cfe2f4a7d99c2553d27fbd", "is_reserved": 0, "rental_uris": {"android": "https://dc.lft.to/lastmile_qr_scan", "ios": "https://dc.lft.to/lastmile_qr_scan"}, "fusion_lon": 0.0}, {"lat": 38.899583, "is_disabled": 0, "type": "electric_scooter", "lon": -77.02555883333333, "bike_id": "feba3e2bb7afcc0da71b03d6a84b6aa2", "fusion_lat": 0.0, "name": "feba3e2bb7afcc0da71b03d6a84b6aa2", "is_reserved": 0, "rental_uris": {"android": "https://dc.lft.to/lastmile_qr_scan", "ios": "https://dc.lft.to/lastmile_qr_scan"}, "fusion_lon": 0.0}, {"lat": 38.852077, "is_disabled": 0, "type": "electric_bike", "lon": -77.1012815, "bike_id": "2ef6baba0ce3ba869a4fc48d892e5fb2", "fusion_lat": 0.0, "name": "2ef6baba0ce3ba869a4fc48d892e5fb2", "is_reserved": 0, "rental_uris": {"android": "https://dc.lft.to/lastmile_qr_scan", "ios": "https://dc.lft.to/lastmile_qr_scan"}, "fusion_lon": 0.0}, {"lat": 38.911811666666665, "is_disabled": 0, "type": "electric_scooter", "lon": -77.04028066666666, "bike_id": "19c6fdc110b6842820d12014dc2ded5e", "fusion_lat": 0.0, "name": "19c6fdc110b6842820d12014dc2ded5e", "is_reserved": 0, "rental_uris": {"android": "https://dc.lft.to/lastmile_qr_scan", "ios": "https://dc.lft.to/lastmile_qr_scan"}, "fusion_lon": 0.0}, {"lat": 38.9080815, "is_disabled": 0, "type": "electric_scooter", "lon": -77.0433645, "bike_id": "95a9631d8b0bc850c08c946b6cea92d9", "fusion_lat": 0.0, "name": "95a9631d8b0bc850c08c946b6cea92d9", "is_reserved": 0, "rental_uris": {"android": "https://dc.lft.to/lastmile_qr_scan", "ios": "https://dc.lft.to/lastmile_qr_scan"}, "fusion_lon": 0.0}, {"lat": 38.92075533333333, "is_disabled": 0, "type": "electric_scooter", "lon": -77.0239145, "bike_id": "2f2279f8ec0254abcdf7d3b2827aca6d", "fusion_lat": 0.0, "name": "2f2279f8ec0254abcdf7d3b2827aca6d", "is_reserved": 0, "rental_uris": {"android": "https://dc.lft.to/lastmile_qr_scan", "ios": "https://dc.lft.to/lastmile_qr_scan"}, "fusion_lon": 0.0}, {"lat": 38.9024275, "is_disabled": 0, "type": "electric_scooter", "lon": -77.06259366666667, "bike_id": "054cce7c4e69458f203e11bf82c4658e", "fusion_lat": 0.0, "name": "054cce7c4e69458f203e11bf82c4658e", "is_reserved": 0, "rental_uris": {"android": "https://dc.lft.to/lastmile_qr_scan", "ios": "https://dc.lft.to/lastmile_qr_scan"}, "fusion_lon": 0.0}, {"lat": 38.9026105, "is_disabled": 0, "type": "electric_scooter", "lon": -77.0403255, "bike_id": "8edfb72b63ded650cf044a20bec1b130", "fusion_lat": 0.0, "name": "8edfb72b63ded650cf044a20bec1b130", "is_reserved": 0, "rental_uris": {"android": "https://dc.lft.to/lastmile_qr_scan", "ios": "https://dc.lft.to/lastmile_qr_scan"}, "fusion_lon": 0.0}, {"lat": 38.935746333333334, "is_disabled": 0, "type": "electric_scooter", "lon": -77.03753233333333, "bike_id": "c223a47283de26df05760401a5662d6b", "fusion_lat": 0.0, "name": "c223a47283de26df05760401a5662d6b", "is_reserved": 0, "rental_uris": {"android": "https://dc.lft.to/lastmile_qr_scan", "ios": "https://dc.lft.to/lastmile_qr_scan"}, "fusion_lon": 0.0}, {"lat": 38.911169666666666, "is_disabled": 0, "type": "electric_scooter", "lon": -77.03862366666667, "bike_id": "bffee56af66a0401e4414c22ecce6e2d", "fusion_lat": 0.0, "name": "bffee56af66a0401e4414c22ecce6e2d", "is_reserved": 0, "rental_uris": {"android": "https://dc.lft.to/lastmile_qr_scan", "ios": "https://dc.lft.to/lastmile_qr_scan"}, "fusion_lon": 0.0}, {"lat": 38.89423216666667, "is_disabled": 0, "type": "electric_scooter", "lon": -77.02086316666667, "bike_id": "f8809abd9e33992d0338a548d2b47ecb", "fusion_lat": 0.0, "name": "f8809abd9e33992d0338a548d2b47ecb", "is_reserved": 0, "rental_uris": {"android": "https://dc.lft.to/lastmile_qr_scan", "ios": "https://dc.lft.to/lastmile_qr_scan"}, "fusion_lon": 0.0}, {"lat": 38.882713833333334, "is_disabled": 0, "type": "electric_bike", "lon": -76.93241483333334, "bike_id": "8c28f3297a02ec4670624d881c3e4de4", "fusion_lat": 0.0, "name": "8c28f3297a02ec4670624d881c3e4de4", "is_reserved": 0, "rental_uris": {"android": "https://dc.lft.to/lastmile_qr_scan", "ios": "https://dc.lft.to/lastmile_qr_scan"}, "fusion_lon": 0.0}, {"lat": 38.9062475, "is_disabled": 0, "type": "electric_scooter", "lon": -77.02189016666667, "bike_id": "f3f12544c22c1cf54d558626fd08449e", "fusion_lat": 0.0, "name": "f3f12544c22c1cf54d558626fd08449e", "is_reserved": 0, "rental_uris": {"android": "https://dc.lft.to/lastmile_qr_scan", "ios": "https://dc.lft.to/lastmile_qr_scan"}, "fusion_lon": 0.0}, {"lat": 38.915542333333335, "is_disabled": 0, "type": "electric_scooter", "lon": -77.04179966666666, "bike_id": "57a1a42893123234d506eca1e6b85c0d", "fusion_lat": 0.0, "name": "57a1a42893123234d506eca1e6b85c0d", "is_reserved": 0, "rental_uris": {"android": "https://dc.lft.to/lastmile_qr_scan", "ios": "https://dc.lft.to/lastmile_qr_scan"}, "fusion_lon": 0.0}, {"lat": 38.94654533333333, "is_disabled": 0, "type": "electric_scooter", "lon": -77.03653583333333, "bike_id": "4594ae330465f5aec820de296c0035ef", "fusion_lat": 0.0, "name": "4594ae330465f5aec820de296c0035ef", "is_reserved": 0, "rental_uris": {"android": "https://dc.lft.to/lastmile_qr_scan", "ios": "https://dc.lft.to/lastmile_qr_scan"}, "fusion_lon": 0.0}, {"lat": 38.9071275, "is_disabled": 0, "type": "electric_scooter", "lon": -77.00337483333334, "bike_id": "5929e43dd7d38cef1fe195868d25ebf9", "fusion_lat": 0.0, "name": "5929e43dd7d38cef1fe195868d25ebf9", "is_reserved": 0, "rental_uris": {"android": "https://dc.lft.to/lastmile_qr_scan", "ios": "https://dc.lft.to/lastmile_qr_scan"}, "fusion_lon": 0.0}, {"lat": 38.93331966666667, "is_disabled": 0, "type": "electric_bike", "lon": -77.03988616666666, "bike_id": "4cf588dda48b4f9fa20bad16b72d9a8f", "fusion_lat": 0.0, "name": "4cf588dda48b4f9fa20bad16b72d9a8f", "is_reserved": 0, "rental_uris": {"android": "https://dc.lft.to/lastmile_qr_scan", "ios": "https://dc.lft.to/lastmile_qr_scan"}, "fusion_lon": 0.0}, {"lat": 38.9171505, "is_disabled": 0, "type": "electric_scooter", "lon": -77.023735, "bike_id": "27612bbb10f87f823bb0683cddc00e41", "fusion_lat": 0.0, "name": "27612bbb10f87f823bb0683cddc00e41", "is_reserved": 0, "rental_uris": {"android": "https://dc.lft.to/lastmile_qr_scan", "ios": "https://dc.lft.to/lastmile_qr_scan"}, "fusion_lon": 0.0}, {"lat": 38.866209, "is_disabled": 0, "type": "electric_scooter", "lon": -76.98661266666667, "bike_id": "2b02b8112d052fd9790310fc2c40b364", "fusion_lat": 0.0, "name": "2b02b8112d052fd9790310fc2c40b364", "is_reserved": 0, "rental_uris": {"android": "https://dc.lft.to/lastmile_qr_scan", "ios": "https://dc.lft.to/lastmile_qr_scan"}, "fusion_lon": 0.0}, {"lat": 38.9508155, "is_disabled": 0, "type": "electric_bike", "lon": -77.01194566666666, "bike_id": "013b8bdc654b18c8a526d59f297bc3a9", "fusion_lat": 0.0, "name": "013b8bdc654b18c8a526d59f297bc3a9", "is_reserved": 0, "rental_uris": {"android": "https://dc.lft.to/lastmile_qr_scan", "ios": "https://dc.lft.to/lastmile_qr_scan"}, "fusion_lon": 0.0}, {"lat": 38.923528833333336, "is_disabled": 0, "type": "electric_scooter", "lon": -77.0501945, "bike_id": "44c1d7b507a283c6f6f129e33a1610d6", "fusion_lat": 0.0, "name": "44c1d7b507a283c6f6f129e33a1610d6", "is_reserved": 0, "rental_uris": {"android": "https://dc.lft.to/lastmile_qr_scan", "ios": "https://dc.lft.to/lastmile_qr_scan"}, "fusion_lon": 0.0}, {"lat": 38.91816716666666, "is_disabled": 0, "type": "electric_scooter", "lon": -77.03663683333333, "bike_id": "d4d9434b3a0efe0fa4394d972618eb12", "fusion_lat": 0.0, "name": "d4d9434b3a0efe0fa4394d972618eb12", "is_reserved": 0, "rental_uris": {"android": "https://dc.lft.to/lastmile_qr_scan", "ios": "https://dc.lft.to/lastmile_qr_scan"}, "fusion_lon": 0.0}, {"lat": 38.90767366666667, "is_disabled": 0, "type": "electric_scooter", "lon": -76.98306366666667, "bike_id": "90ea289606b0112e61210ff2b2dec7b6", "fusion_lat": 0.0, "name": "90ea289606b0112e61210ff2b2dec7b6", "is_reserved": 0, "rental_uris": {"android": "https://dc.lft.to/lastmile_qr_scan", "ios": "https://dc.lft.to/lastmile_qr_scan"}, "fusion_lon": 0.0}, {"lat": 38.859303, "is_disabled": 0, "type": "electric_scooter", "lon": -76.99704, "bike_id": "a0b2c2192a97d9a05c91916bb2f98bdb", "fusion_lat": 0.0, "name": "a0b2c2192a97d9a05c91916bb2f98bdb", "is_reserved": 0, "rental_uris": {"android": "https://dc.lft.to/lastmile_qr_scan", "ios": "https://dc.lft.to/lastmile_qr_scan"}, "fusion_lon": 0.0}, {"lat": 38.95557083333333, "is_disabled": 0, "type": "electric_scooter", "lon": -77.0223315, "bike_id": "4319cfc89ed90b43c85aa13f0e562e22", "fusion_lat": 0.0, "name": "4319cfc89ed90b43c85aa13f0e562e22", "is_reserved": 0, "rental_uris": {"android": "https://dc.lft.to/lastmile_qr_scan", "ios": "https://dc.lft.to/lastmile_qr_scan"}, "fusion_lon": 0.0}, {"lat": 38.907289666666664, "is_disabled": 0, "type": "electric_scooter", "lon": -77.03438316666667, "bike_id": "76eb5a0eb3916d2284770c4980593d61", "fusion_lat": 0.0, "name": "76eb5a0eb3916d2284770c4980593d61", "is_reserved": 0, "rental_uris": {"android": "https://dc.lft.to/lastmile_qr_scan", "ios": "https://dc.lft.to/lastmile_qr_scan"}, "fusion_lon": 0.0}, {"lat": 38.92153366666667, "is_disabled": 0, "type": "electric_scooter", "lon": -77.03516816666667, "bike_id": "3c5f3e2d826f312bcce901d8f1f153b8", "fusion_lat": 0.0, "name": "3c5f3e2d826f312bcce901d8f1f153b8", "is_reserved": 0, "rental_uris": {"android": "https://dc.lft.to/lastmile_qr_scan", "ios": "https://dc.lft.to/lastmile_qr_scan"}, "fusion_lon": 0.0}, {"lat": 38.90149066666667, "is_disabled": 0, "type": "electric_scooter", "lon": -77.01512166666667, "bike_id": "062ffe0a2631db3f60df1215a1e75ade", "fusion_lat": 0.0, "name": "062ffe0a2631db3f60df1215a1e75ade", "is_reserved": 0, "rental_uris": {"android": "https://dc.lft.to/lastmile_qr_scan", "ios": "https://dc.lft.to/lastmile_qr_scan"}, "fusion_lon": 0.0}, {"lat": 38.88750433333333, "is_disabled": 0, "type": "electric_scooter", "lon": -77.032264, "bike_id": "59059226e040031376aeb5e99ac8a9c8", "fusion_lat": 0.0, "name": "59059226e040031376aeb5e99ac8a9c8", "is_reserved": 0, "rental_uris": {"android": "https://dc.lft.to/lastmile_qr_scan", "ios": "https://dc.lft.to/lastmile_qr_scan"}, "fusion_lon": 0.0}, {"lat": 38.79324483333333, "is_disabled": 0, "type": "electric_bike", "lon": -77.04017816666666, "bike_id": "9b41063446214b91c9f4c417545764b0", "fusion_lat": 0.0, "name": "9b41063446214b91c9f4c417545764b0", "is_reserved": 0, "rental_uris": {"android": "https://dc.lft.to/lastmile_qr_scan", "ios": "https://dc.lft.to/lastmile_qr_scan"}, "fusion_lon": 0.0}, {"lat": 38.89894433333333, "is_disabled": 0, "type": "electric_scooter", "lon": -77.032264, "bike_id": "93fd6f109f5db9a31c821feae60d21a8", "fusion_lat": 0.0, "name": "93fd6f109f5db9a31c821feae60d21a8", "is_reserved": 0, "rental_uris": {"android": "https://dc.lft.to/lastmile_qr_scan", "ios": "https://dc.lft.to/lastmile_qr_scan"}, "fusion_lon": 0.0}, {"lat": 38.915457833333335, "is_disabled": 0, "type": "electric_scooter", "lon": -77.03850333333334, "bike_id": "c54e799c3d64f72f2a45b6ebd1ae2ae0", "fusion_lat": 0.0, "name": "c54e799c3d64f72f2a45b6ebd1ae2ae0", "is_reserved": 0, "rental_uris": {"android": "https://dc.lft.to/lastmile_qr_scan", "ios": "https://dc.lft.to/lastmile_qr_scan"}, "fusion_lon": 0.0}, {"lat": 38.9490555, "is_disabled": 0, "type": "electric_bike", "lon": -76.97238433333334, "bike_id": "ca782435e31b68b1610f3b89d790b33b", "fusion_lat": 0.0, "name": "ca782435e31b68b1610f3b89d790b33b", "is_reserved": 0, "rental_uris": {"android": "https://dc.lft.to/lastmile_qr_scan", "ios": "https://dc.lft.to/lastmile_qr_scan"}, "fusion_lon": 0.0}, {"lat": 38.88332783333333, "is_disabled": 0, "type": "electric_scooter", "lon": -77.00933566666667, "bike_id": "034359d6b21aacbc5a5cb18a21e6a14c", "fusion_lat": 0.0, "name": "034359d6b21aacbc5a5cb18a21e6a14c", "is_reserved": 0, "rental_uris": {"android": "https://dc.lft.to/lastmile_qr_scan", "ios": "https://dc.lft.to/lastmile_qr_scan"}, "fusion_lon": 0.0}, {"lat": 38.87370383333333, "is_disabled": 0, "type": "electric_bike", "lon": -77.118044, "bike_id": "536848743697afb53906de57d071fd31", "fusion_lat": 0.0, "name": "536848743697afb53906de57d071fd31", "is_reserved": 0, "rental_uris": {"android": "https://dc.lft.to/lastmile_qr_scan", "ios": "https://dc.lft.to/lastmile_qr_scan"}, "fusion_lon": 0.0}, {"lat": 38.892191333333336, "is_disabled": 0, "type": "electric_scooter", "lon": -77.026316, "bike_id": "6f5d3b77ac31e9dc6b8c0143e74f4c2e", "fusion_lat": 0.0, "name": "6f5d3b77ac31e9dc6b8c0143e74f4c2e", "is_reserved": 0, "rental_uris": {"android": "https://dc.lft.to/lastmile_qr_scan", "ios": "https://dc.lft.to/lastmile_qr_scan"}, "fusion_lon": 0.0}, {"lat": 38.926833, "is_disabled": 0, "type": "electric_scooter", "lon": -77.015714, "bike_id": "58dbc9091529a9fdf926eeed52d505eb", "fusion_lat": 0.0, "name": "58dbc9091529a9fdf926eeed52d505eb", "is_reserved": 0, "rental_uris": {"android": "https://dc.lft.to/lastmile_qr_scan", "ios": "https://dc.lft.to/lastmile_qr_scan"}, "fusion_lon": 0.0}, {"lat": 38.89494166666667, "is_disabled": 0, "type": "electric_scooter", "lon": -77.02210066666666, "bike_id": "fa3a8857ea0dafcac5301984520f2160", "fusion_lat": 0.0, "name": "fa3a8857ea0dafcac5301984520f2160", "is_reserved": 0, "rental_uris": {"android": "https://dc.lft.to/lastmile_qr_scan", "ios": "https://dc.lft.to/lastmile_qr_scan"}, "fusion_lon": 0.0}, {"lat": 38.90388183333334, "is_disabled": 0, "type": "electric_scooter", "lon": -77.03447633333333, "bike_id": "d796bfaa7f987bd73392a90cef4b3576", "fusion_lat": 0.0, "name": "d796bfaa7f987bd73392a90cef4b3576", "is_reserved": 0, "rental_uris": {"android": "https://dc.lft.to/lastmile_qr_scan", "ios": "https://dc.lft.to/lastmile_qr_scan"}, "fusion_lon": 0.0}, {"lat": 38.91963916666667, "is_disabled": 0, "type": "electric_bike", "lon": -76.97272416666667, "bike_id": "676ffe5d726d83c8267a91262e922b91", "fusion_lat": 0.0, "name": "676ffe5d726d83c8267a91262e922b91", "is_reserved": 0, "rental_uris": {"android": "https://dc.lft.to/lastmile_qr_scan", "ios": "https://dc.lft.to/lastmile_qr_scan"}, "fusion_lon": 0.0}, {"lat": 38.9072905, "is_disabled": 0, "type": "electric_scooter", "lon": -77.034359, "bike_id": "352d9667d7a691fb6bb3a533a2c906bb", "fusion_lat": 0.0, "name": "352d9667d7a691fb6bb3a533a2c906bb", "is_reserved": 0, "rental_uris": {"android": "https://dc.lft.to/lastmile_qr_scan", "ios": "https://dc.lft.to/lastmile_qr_scan"}, "fusion_lon": 0.0}, {"lat": 38.917480166666664, "is_disabled": 0, "type": "electric_scooter", "lon": -77.03181766666667, "bike_id": "2977cca95a4e59607aedf3e5a91e3e2d", "fusion_lat": 0.0, "name": "2977cca95a4e59607aedf3e5a91e3e2d", "is_reserved": 0, "rental_uris": {"android": "https://dc.lft.to/lastmile_qr_scan", "ios": "https://dc.lft.to/lastmile_qr_scan"}, "fusion_lon": 0.0}, {"lat": 38.902171833333334, "is_disabled": 0, "type": "electric_scooter", "lon": -76.94593766666667, "bike_id": "ea1d059a090bfe3a1c35e130a93aeb3a", "fusion_lat": 0.0, "name": "ea1d059a090bfe3a1c35e130a93aeb3a", "is_reserved": 0, "rental_uris": {"android": "https://dc.lft.to/lastmile_qr_scan", "ios": "https://dc.lft.to/lastmile_qr_scan"}, "fusion_lon": 0.0}, {"lat": 38.912073666666664, "is_disabled": 0, "type": "electric_scooter", "lon": -77.027579, "bike_id": "643bcbdd65f2102d8f69e8719dbd71f8", "fusion_lat": 0.0, "name": "643bcbdd65f2102d8f69e8719dbd71f8", "is_reserved": 0, "rental_uris": {"android": "https://dc.lft.to/lastmile_qr_scan", "ios": "https://dc.lft.to/lastmile_qr_scan"}, "fusion_lon": 0.0}, {"lat": 38.9301035, "is_disabled": 0, "type": "electric_bike", "lon": -77.21646016666666, "bike_id": "6abae0b5b629df67d6af09efd11d3a7d", "fusion_lat": 0.0, "name": "6abae0b5b629df67d6af09efd11d3a7d", "is_reserved": 0, "rental_uris": {"android": "https://dc.lft.to/lastmile_qr_scan", "ios": "https://dc.lft.to/lastmile_qr_scan"}, "fusion_lon": 0.0}, {"lat": 38.9366835, "is_disabled": 0, "type": "electric_bike", "lon": -76.952047, "bike_id": "cde9f3c22d21abf618b5adf9ec6d7c66", "fusion_lat": 0.0, "name": "cde9f3c22d21abf618b5adf9ec6d7c66", "is_reserved": 0, "rental_uris": {"android": "https://dc.lft.to/lastmile_qr_scan", "ios": "https://dc.lft.to/lastmile_qr_scan"}, "fusion_lon": 0.0}, {"lat": 38.9472175, "is_disabled": 0, "type": "electric_scooter", "lon": -77.02265583333333, "bike_id": "cc8d9dac130ce7180d7c0a26b0e084cc", "fusion_lat": 0.0, "name": "cc8d9dac130ce7180d7c0a26b0e084cc", "is_reserved": 0, "rental_uris": {"android": "https://dc.lft.to/lastmile_qr_scan", "ios": "https://dc.lft.to/lastmile_qr_scan"}, "fusion_lon": 0.0}, {"lat": 38.91270516666667, "is_disabled": 0, "type": "electric_scooter", "lon": -77.03939433333333, "bike_id": "77712b7daa15ea32b89732ac34053aea", "fusion_lat": 0.0, "name": "77712b7daa15ea32b89732ac34053aea", "is_reserved": 0, "rental_uris": {"android": "https://dc.lft.to/lastmile_qr_scan", "ios": "https://dc.lft.to/lastmile_qr_scan"}, "fusion_lon": 0.0}, {"lat": 38.90044483333333, "is_disabled": 0, "type": "electric_scooter", "lon": -76.993719, "bike_id": "ce9102abe9a3bc4a1bf8f7de3fa39ee3", "fusion_lat": 0.0, "name": "ce9102abe9a3bc4a1bf8f7de3fa39ee3", "is_reserved": 0, "rental_uris": {"android": "https://dc.lft.to/lastmile_qr_scan", "ios": "https://dc.lft.to/lastmile_qr_scan"}, "fusion_lon": 0.0}, {"lat": 38.89906666666667, "is_disabled": 0, "type": "electric_scooter", "lon": -76.93371383333333, "bike_id": "7bc3b41b30cde02111e723a3d8255e13", "fusion_lat": 0.0, "name": "7bc3b41b30cde02111e723a3d8255e13", "is_reserved": 0, "rental_uris": {"android": "https://dc.lft.to/lastmile_qr_scan", "ios": "https://dc.lft.to/lastmile_qr_scan"}, "fusion_lon": 0.0}, {"lat": 38.90561983333333, "is_disabled": 0, "type": "electric_scooter", "lon": -77.03407616666667, "bike_id": "45c27d9127ffb123406a386610816954", "fusion_lat": 0.0, "name": "45c27d9127ffb123406a386610816954", "is_reserved": 0, "rental_uris": {"android": "https://dc.lft.to/lastmile_qr_scan", "ios": "https://dc.lft.to/lastmile_qr_scan"}, "fusion_lon": 0.0}, {"lat": 38.91731633333333, "is_disabled": 0, "type": "electric_scooter", "lon": -77.03642883333333, "bike_id": "7a267e5fa3432f3cebfb7ac70649e259", "fusion_lat": 0.0, "name": "7a267e5fa3432f3cebfb7ac70649e259", "is_reserved": 0, "rental_uris": {"android": "https://dc.lft.to/lastmile_qr_scan", "ios": "https://dc.lft.to/lastmile_qr_scan"}, "fusion_lon": 0.0}, {"lat": 39.05200083333333, "is_disabled": 0, "type": "electric_bike", "lon": -77.10913633333334, "bike_id": "6f9c1a86442a6fb80b5533af9bc82d8a", "fusion_lat": 0.0, "name": "6f9c1a86442a6fb80b5533af9bc82d8a", "is_reserved": 0, "rental_uris": {"android": "https://dc.lft.to/lastmile_qr_scan", "ios": "https://dc.lft.to/lastmile_qr_scan"}, "fusion_lon": 0.0}, {"lat": 38.938886333333336, "is_disabled": 0, "type": "electric_bike", "lon": -76.995029, "bike_id": "ac3121fdad3478b63ab035a1ccc1b0dd", "fusion_lat": 0.0, "name": "ac3121fdad3478b63ab035a1ccc1b0dd", "is_reserved": 0, "rental_uris": {"android": "https://dc.lft.to/lastmile_qr_scan", "ios": "https://dc.lft.to/lastmile_qr_scan"}, "fusion_lon": 0.0}, {"lat": 38.9061185, "is_disabled": 0, "type": "electric_scooter", "lon": -77.01880716666666, "bike_id": "46c89b4d1c68c1044a72da0346721776", "fusion_lat": 0.0, "name": "46c89b4d1c68c1044a72da0346721776", "is_reserved": 0, "rental_uris": {"android": "https://dc.lft.to/lastmile_qr_scan", "ios": "https://dc.lft.to/lastmile_qr_scan"}, "fusion_lon": 0.0}, {"lat": 38.919146833333336, "is_disabled": 0, "type": "electric_scooter", "lon": -77.0240015, "bike_id": "b92237f302c37839f56d270a0a0cb663", "fusion_lat": 0.0, "name": "b92237f302c37839f56d270a0a0cb663", "is_reserved": 0, "rental_uris": {"android": "https://dc.lft.to/lastmile_qr_scan", "ios": "https://dc.lft.to/lastmile_qr_scan"}, "fusion_lon": 0.0}, {"lat": 38.85906966666667, "is_disabled": 0, "type": "electric_scooter", "lon": -76.99149333333334, "bike_id": "9df3b1a978a3844621dbe94836947463", "fusion_lat": 0.0, "name": "9df3b1a978a3844621dbe94836947463", "is_reserved": 0, "rental_uris": {"android": "https://dc.lft.to/lastmile_qr_scan", "ios": "https://dc.lft.to/lastmile_qr_scan"}, "fusion_lon": 0.0}, {"lat": 38.91554716666667, "is_disabled": 0, "type": "electric_scooter", "lon": -77.05321916666666, "bike_id": "486027bf4f108849225e6bd78e424dae", "fusion_lat": 0.0, "name": "486027bf4f108849225e6bd78e424dae", "is_reserved": 0, "rental_uris": {"android": "https://dc.lft.to/lastmile_qr_scan", "ios": "https://dc.lft.to/lastmile_qr_scan"}, "fusion_lon": 0.0}, {"lat": 38.9003345, "is_disabled": 0, "type": "electric_scooter", "lon": -77.0021895, "bike_id": "a806c0a0d55d1c6482efd251f124dce2", "fusion_lat": 0.0, "name": "a806c0a0d55d1c6482efd251f124dce2", "is_reserved": 0, "rental_uris": {"android": "https://dc.lft.to/lastmile_qr_scan", "ios": "https://dc.lft.to/lastmile_qr_scan"}, "fusion_lon": 0.0}, {"lat": 38.86647583333333, "is_disabled": 0, "type": "electric_scooter", "lon": -76.98883066666667, "bike_id": "5cbe759cec02162cb932e81fb068a27d", "fusion_lat": 0.0, "name": "5cbe759cec02162cb932e81fb068a27d", "is_reserved": 0, "rental_uris": {"android": "https://dc.lft.to/lastmile_qr_scan", "ios": "https://dc.lft.to/lastmile_qr_scan"}, "fusion_lon": 0.0}, {"lat": 38.908544666666664, "is_disabled": 0, "type": "electric_scooter", "lon": -76.99163483333334, "bike_id": "21d44f5ae65d748ee798ce95126fed05", "fusion_lat": 0.0, "name": "21d44f5ae65d748ee798ce95126fed05", "is_reserved": 0, "rental_uris": {"android": "https://dc.lft.to/lastmile_qr_scan", "ios": "https://dc.lft.to/lastmile_qr_scan"}, "fusion_lon": 0.0}, {"lat": 38.9527785, "is_disabled": 0, "type": "electric_scooter", "lon": -77.06882366666666, "bike_id": "55e9fd3312ef6b6ceba9fd09b33e42a1", "fusion_lat": 0.0, "name": "55e9fd3312ef6b6ceba9fd09b33e42a1", "is_reserved": 0, "rental_uris": {"android": "https://dc.lft.to/lastmile_qr_scan", "ios": "https://dc.lft.to/lastmile_qr_scan"}, "fusion_lon": 0.0}, {"lat": 38.89621533333333, "is_disabled": 0, "type": "electric_scooter", "lon": -77.04487716666667, "bike_id": "1ca3205c5320ca4805149cad89fcfd10", "fusion_lat": 0.0, "name": "1ca3205c5320ca4805149cad89fcfd10", "is_reserved": 0, "rental_uris": {"android": "https://dc.lft.to/lastmile_qr_scan", "ios": "https://dc.lft.to/lastmile_qr_scan"}, "fusion_lon": 0.0}, {"lat": 38.920684333333334, "is_disabled": 0, "type": "electric_scooter", "lon": -77.07883616666666, "bike_id": "151831065fbe8809438b0a0259730320", "fusion_lat": 0.0, "name": "151831065fbe8809438b0a0259730320", "is_reserved": 0, "rental_uris": {"android": "https://dc.lft.to/lastmile_qr_scan", "ios": "https://dc.lft.to/lastmile_qr_scan"}, "fusion_lon": 0.0}, {"lat": 38.934150333333335, "is_disabled": 0, "type": "electric_scooter", "lon": -77.03290416666667, "bike_id": "de781e90181ad9dfe0881f35fc17284c", "fusion_lat": 0.0, "name": "de781e90181ad9dfe0881f35fc17284c", "is_reserved": 0, "rental_uris": {"android": "https://dc.lft.to/lastmile_qr_scan", "ios": "https://dc.lft.to/lastmile_qr_scan"}, "fusion_lon": 0.0}, {"lat": 38.883646666666664, "is_disabled": 0, "type": "electric_scooter", "lon": -76.94156666666666, "bike_id": "2732e8f053c0beb61db4e1f83b748f39", "fusion_lat": 0.0, "name": "2732e8f053c0beb61db4e1f83b748f39", "is_reserved": 0, "rental_uris": {"android": "https://dc.lft.to/lastmile_qr_scan", "ios": "https://dc.lft.to/lastmile_qr_scan"}, "fusion_lon": 0.0}, {"lat": 38.90975683333333, "is_disabled": 0, "type": "electric_scooter", "lon": -77.03194783333333, "bike_id": "63f868df8168767ae6a1b79d933c1c4a", "fusion_lat": 0.0, "name": "63f868df8168767ae6a1b79d933c1c4a", "is_reserved": 0, "rental_uris": {"android": "https://dc.lft.to/lastmile_qr_scan", "ios": "https://dc.lft.to/lastmile_qr_scan"}, "fusion_lon": 0.0}, {"lat": 38.925308333333334, "is_disabled": 0, "type": "electric_scooter", "lon": -77.02639716666667, "bike_id": "079920e8f67fb7fcb38e5bb01e91f830", "fusion_lat": 0.0, "name": "079920e8f67fb7fcb38e5bb01e91f830", "is_reserved": 0, "rental_uris": {"android": "https://dc.lft.to/lastmile_qr_scan", "ios": "https://dc.lft.to/lastmile_qr_scan"}, "fusion_lon": 0.0}, {"lat": 38.91682216666667, "is_disabled": 0, "type": "electric_scooter", "lon": -77.00199566666667, "bike_id": "3bda1edc97974598d4f5332f9b5b096c", "fusion_lat": 0.0, "name": "3bda1edc97974598d4f5332f9b5b096c", "is_reserved": 0, "rental_uris": {"android": "https://dc.lft.to/lastmile_qr_scan", "ios": "https://dc.lft.to/lastmile_qr_scan"}, "fusion_lon": 0.0}, {"lat": 38.95888566666667, "is_disabled": 0, "type": "electric_bike", "lon": -76.92478766666666, "bike_id": "4737b254020a9d8a3689b53a1f51f16f", "fusion_lat": 0.0, "name": "4737b254020a9d8a3689b53a1f51f16f", "is_reserved": 0, "rental_uris": {"android": "https://dc.lft.to/lastmile_qr_scan", "ios": "https://dc.lft.to/lastmile_qr_scan"}, "fusion_lon": 0.0}, {"lat": 38.96503333333333, "is_disabled": 0, "type": "electric_bike", "lon": -77.02828583333333, "bike_id": "87f80dc874a6cc320d990722a15c1d99", "fusion_lat": 0.0, "name": "87f80dc874a6cc320d990722a15c1d99", "is_reserved": 0, "rental_uris": {"android": "https://dc.lft.to/lastmile_qr_scan", "ios": "https://dc.lft.to/lastmile_qr_scan"}, "fusion_lon": 0.0}, {"lat": 38.9073065, "is_disabled": 0, "type": "electric_scooter", "lon": -77.02988433333333, "bike_id": "b98127d51124a1af9255795d51828690", "fusion_lat": 0.0, "name": "b98127d51124a1af9255795d51828690", "is_reserved": 0, "rental_uris": {"android": "https://dc.lft.to/lastmile_qr_scan", "ios": "https://dc.lft.to/lastmile_qr_scan"}, "fusion_lon": 0.0}, {"lat": 38.917125666666664, "is_disabled": 0, "type": "electric_scooter", "lon": -77.0383665, "bike_id": "7d66b9a8e8febb531b88be8df591e875", "fusion_lat": 0.0, "name": "7d66b9a8e8febb531b88be8df591e875", "is_reserved": 0, "rental_uris": {"android": "https://dc.lft.to/lastmile_qr_scan", "ios": "https://dc.lft.to/lastmile_qr_scan"}, "fusion_lon": 0.0}, {"lat": 38.9073035, "is_disabled": 0, "type": "electric_scooter", "lon": -77.034398, "bike_id": "73c03b8e7fdfc94283279add4f64e34c", "fusion_lat": 0.0, "name": "73c03b8e7fdfc94283279add4f64e34c", "is_reserved": 0, "rental_uris": {"android": "https://dc.lft.to/lastmile_qr_scan", "ios": "https://dc.lft.to/lastmile_qr_scan"}, "fusion_lon": 0.0}, {"lat": 38.90273216666667, "is_disabled": 0, "type": "electric_scooter", "lon": -77.04374083333333, "bike_id": "76ec3621c5c52ffbce02de1239d868e9", "fusion_lat": 0.0, "name": "76ec3621c5c52ffbce02de1239d868e9", "is_reserved": 0, "rental_uris": {"android": "https://dc.lft.to/lastmile_qr_scan", "ios": "https://dc.lft.to/lastmile_qr_scan"}, "fusion_lon": 0.0}, {"lat": 38.93116333333333, "is_disabled": 0, "type": "electric_scooter", "lon": -77.02087483333334, "bike_id": "94c6f14703d0a1be49344bc1615a689a", "fusion_lat": 0.0, "name": "94c6f14703d0a1be49344bc1615a689a", "is_reserved": 0, "rental_uris": {"android": "https://dc.lft.to/lastmile_qr_scan", "ios": "https://dc.lft.to/lastmile_qr_scan"}, "fusion_lon": 0.0}, {"lat": 38.933806, "is_disabled": 0, "type": "electric_scooter", "lon": -77.03249033333333, "bike_id": "8303505b42598fbef649fe511e07e4e3", "fusion_lat": 0.0, "name": "8303505b42598fbef649fe511e07e4e3", "is_reserved": 0, "rental_uris": {"android": "https://dc.lft.to/lastmile_qr_scan", "ios": "https://dc.lft.to/lastmile_qr_scan"}, "fusion_lon": 0.0}, {"lat": 38.8860655, "is_disabled": 0, "type": "electric_scooter", "lon": -77.021925, "bike_id": "7959b7f74caec428de4f6b700f862b33", "fusion_lat": 0.0, "name": "7959b7f74caec428de4f6b700f862b33", "is_reserved": 0, "rental_uris": {"android": "https://dc.lft.to/lastmile_qr_scan", "ios": "https://dc.lft.to/lastmile_qr_scan"}, "fusion_lon": 0.0}, {"lat": 38.907388, "is_disabled": 0, "type": "electric_scooter", "lon": -77.0271475, "bike_id": "608c92bc3e70751547776afc85a7ee28", "fusion_lat": 0.0, "name": "608c92bc3e70751547776afc85a7ee28", "is_reserved": 0, "rental_uris": {"android": "https://dc.lft.to/lastmile_qr_scan", "ios": "https://dc.lft.to/lastmile_qr_scan"}, "fusion_lon": 0.0}, {"lat": 38.92770333333333, "is_disabled": 0, "type": "electric_scooter", "lon": -77.02704866666667, "bike_id": "1b1540869b2d5485dd9a660f46195465", "fusion_lat": 0.0, "name": "1b1540869b2d5485dd9a660f46195465", "is_reserved": 0, "rental_uris": {"android": "https://dc.lft.to/lastmile_qr_scan", "ios": "https://dc.lft.to/lastmile_qr_scan"}, "fusion_lon": 0.0}, {"lat": 38.900236166666666, "is_disabled": 0, "type": "electric_scooter", "lon": -77.03334016666666, "bike_id": "c30f0d60abb6407a1da3c8b746ae4ba2", "fusion_lat": 0.0, "name": "c30f0d60abb6407a1da3c8b746ae4ba2", "is_reserved": 0, "rental_uris": {"android": "https://dc.lft.to/lastmile_qr_scan", "ios": "https://dc.lft.to/lastmile_qr_scan"}, "fusion_lon": 0.0}, {"lat": 38.927366666666664, "is_disabled": 0, "type": "electric_scooter", "lon": -77.02246333333333, "bike_id": "94c04f985a31b62c63a432bafecae859", "fusion_lat": 0.0, "name": "94c04f985a31b62c63a432bafecae859", "is_reserved": 0, "rental_uris": {"android": "https://dc.lft.to/lastmile_qr_scan", "ios": "https://dc.lft.to/lastmile_qr_scan"}, "fusion_lon": 0.0}, {"lat": 38.907465, "is_disabled": 0, "type": "electric_scooter", "lon": -77.044992, "bike_id": "05dd85522edb5636bdb427f5410dc6ba", "fusion_lat": 0.0, "name": "05dd85522edb5636bdb427f5410dc6ba", "is_reserved": 0, "rental_uris": {"android": "https://dc.lft.to/lastmile_qr_scan", "ios": "https://dc.lft.to/lastmile_qr_scan"}, "fusion_lon": 0.0}, {"lat": 38.921616666666665, "is_disabled": 0, "type": "electric_scooter", "lon": -77.0470435, "bike_id": "c5cfa3ef27b2de8e98e038faa32659ae", "fusion_lat": 0.0, "name": "c5cfa3ef27b2de8e98e038faa32659ae", "is_reserved": 0, "rental_uris": {"android": "https://dc.lft.to/lastmile_qr_scan", "ios": "https://dc.lft.to/lastmile_qr_scan"}, "fusion_lon": 0.0}, {"lat": 38.9175165, "is_disabled": 0, "type": "electric_scooter", "lon": -77.03187733333333, "bike_id": "35afe01ed31ec38a1af7b44ca913c822", "fusion_lat": 0.0, "name": "35afe01ed31ec38a1af7b44ca913c822", "is_reserved": 0, "rental_uris": {"android": "https://dc.lft.to/lastmile_qr_scan", "ios": "https://dc.lft.to/lastmile_qr_scan"}, "fusion_lon": 0.0}, {"lat": 38.928853833333335, "is_disabled": 0, "type": "electric_scooter", "lon": -77.03241566666667, "bike_id": "1ab57aca92b7311ee2f683d26638315a", "fusion_lat": 0.0, "name": "1ab57aca92b7311ee2f683d26638315a", "is_reserved": 0, "rental_uris": {"android": "https://dc.lft.to/lastmile_qr_scan", "ios": "https://dc.lft.to/lastmile_qr_scan"}, "fusion_lon": 0.0}, {"lat": 38.93858683333333, "is_disabled": 0, "type": "electric_scooter", "lon": -77.02730683333333, "bike_id": "4c91232ceda235777d488de3f2f7c369", "fusion_lat": 0.0, "name": "4c91232ceda235777d488de3f2f7c369", "is_reserved": 0, "rental_uris": {"android": "https://dc.lft.to/lastmile_qr_scan", "ios": "https://dc.lft.to/lastmile_qr_scan"}, "fusion_lon": 0.0}, {"lat": 38.911182, "is_disabled": 0, "type": "electric_scooter", "lon": -77.03717183333333, "bike_id": "d0ff8e3f540d0f58fc11ea98c16625ce", "fusion_lat": 0.0, "name": "d0ff8e3f540d0f58fc11ea98c16625ce", "is_reserved": 0, "rental_uris": {"android": "https://dc.lft.to/lastmile_qr_scan", "ios": "https://dc.lft.to/lastmile_qr_scan"}, "fusion_lon": 0.0}, {"lat": 38.89215983333333, "is_disabled": 0, "type": "electric_scooter", "lon": -77.032088, "bike_id": "1f6aa4dccf7748203a8b6577a73a74d3", "fusion_lat": 0.0, "name": "1f6aa4dccf7748203a8b6577a73a74d3", "is_reserved": 0, "rental_uris": {"android": "https://dc.lft.to/lastmile_qr_scan", "ios": "https://dc.lft.to/lastmile_qr_scan"}, "fusion_lon": 0.0}, {"lat": 38.906288, "is_disabled": 0, "type": "electric_scooter", "lon": -77.03152183333333, "bike_id": "042cd8d5ccba161e52456a91f81d4acc", "fusion_lat": 0.0, "name": "042cd8d5ccba161e52456a91f81d4acc", "is_reserved": 0, "rental_uris": {"android": "https://dc.lft.to/lastmile_qr_scan", "ios": "https://dc.lft.to/lastmile_qr_scan"}, "fusion_lon": 0.0}, {"lat": 38.91656616666667, "is_disabled": 0, "type": "electric_scooter", "lon": -77.02232866666667, "bike_id": "84015b4fef2ae05d5743f15bc0bd399f", "fusion_lat": 0.0, "name": "84015b4fef2ae05d5743f15bc0bd399f", "is_reserved": 0, "rental_uris": {"android": "https://dc.lft.to/lastmile_qr_scan", "ios": "https://dc.lft.to/lastmile_qr_scan"}, "fusion_lon": 0.0}, {"lat": 38.999932666666666, "is_disabled": 0, "type": "electric_bike", "lon": -76.92496266666667, "bike_id": "851803250de15109772312e776b3826f", "fusion_lat": 0.0, "name": "851803250de15109772312e776b3826f", "is_reserved": 0, "rental_uris": {"android": "https://dc.lft.to/lastmile_qr_scan", "ios": "https://dc.lft.to/lastmile_qr_scan"}, "fusion_lon": 0.0}, {"lat": 38.918187833333334, "is_disabled": 0, "type": "electric_scooter", "lon": -77.0417705, "bike_id": "4a217f2a8066adb36bc946570745f83c", "fusion_lat": 0.0, "name": "4a217f2a8066adb36bc946570745f83c", "is_reserved": 0, "rental_uris": {"android": "https://dc.lft.to/lastmile_qr_scan", "ios": "https://dc.lft.to/lastmile_qr_scan"}, "fusion_lon": 0.0}, {"lat": 38.952157166666666, "is_disabled": 0, "type": "electric_scooter", "lon": -77.08602183333333, "bike_id": "a3c1368aefea2f5817bfda84b3d0b627", "fusion_lat": 0.0, "name": "a3c1368aefea2f5817bfda84b3d0b627", "is_reserved": 0, "rental_uris": {"android": "https://dc.lft.to/lastmile_qr_scan", "ios": "https://dc.lft.to/lastmile_qr_scan"}, "fusion_lon": 0.0}, {"lat": 38.921363166666666, "is_disabled": 0, "type": "electric_scooter", "lon": -77.044845, "bike_id": "5ea3ae39a8cf94a67a5744a54edac17b", "fusion_lat": 0.0, "name": "5ea3ae39a8cf94a67a5744a54edac17b", "is_reserved": 0, "rental_uris": {"android": "https://dc.lft.to/lastmile_qr_scan", "ios": "https://dc.lft.to/lastmile_qr_scan"}, "fusion_lon": 0.0}, {"lat": 38.89089416666667, "is_disabled": 0, "type": "electric_scooter", "lon": -76.952655, "bike_id": "7aba9861d1ac6b7e6221250e67624234", "fusion_lat": 0.0, "name": "7aba9861d1ac6b7e6221250e67624234", "is_reserved": 0, "rental_uris": {"android": "https://dc.lft.to/lastmile_qr_scan", "ios": "https://dc.lft.to/lastmile_qr_scan"}, "fusion_lon": 0.0}, {"lat": 38.909684166666665, "is_disabled": 0, "type": "electric_scooter", "lon": -76.99608216666667, "bike_id": "2576bec836bc07663522c2a92108ed47", "fusion_lat": 0.0, "name": "2576bec836bc07663522c2a92108ed47", "is_reserved": 0, "rental_uris": {"android": "https://dc.lft.to/lastmile_qr_scan", "ios": "https://dc.lft.to/lastmile_qr_scan"}, "fusion_lon": 0.0}, {"lat": 38.89996716666667, "is_disabled": 0, "type": "electric_scooter", "lon": -76.99958016666666, "bike_id": "403573a96e927368e307c73f08f051cc", "fusion_lat": 0.0, "name": "403573a96e927368e307c73f08f051cc", "is_reserved": 0, "rental_uris": {"android": "https://dc.lft.to/lastmile_qr_scan", "ios": "https://dc.lft.to/lastmile_qr_scan"}, "fusion_lon": 0.0}, {"lat": 38.910906833333335, "is_disabled": 0, "type": "electric_scooter", "lon": -77.03192066666666, "bike_id": "6afb59226ce5c6672252e844219bb03a", "fusion_lat": 0.0, "name": "6afb59226ce5c6672252e844219bb03a", "is_reserved": 0, "rental_uris": {"android": "https://dc.lft.to/lastmile_qr_scan", "ios": "https://dc.lft.to/lastmile_qr_scan"}, "fusion_lon": 0.0}, {"lat": 38.915421333333335, "is_disabled": 0, "type": "electric_scooter", "lon": -77.07416083333334, "bike_id": "e357abd49ffdb155b40fee7dddaafbf1", "fusion_lat": 0.0, "name": "e357abd49ffdb155b40fee7dddaafbf1", "is_reserved": 0, "rental_uris": {"android": "https://dc.lft.to/lastmile_qr_scan", "ios": "https://dc.lft.to/lastmile_qr_scan"}, "fusion_lon": 0.0}, {"lat": 38.892795, "is_disabled": 0, "type": "electric_scooter", "lon": -76.95850516666667, "bike_id": "d2b6a178d367e317a6d2925f03c356e4", "fusion_lat": 0.0, "name": "d2b6a178d367e317a6d2925f03c356e4", "is_reserved": 0, "rental_uris": {"android": "https://dc.lft.to/lastmile_qr_scan", "ios": "https://dc.lft.to/lastmile_qr_scan"}, "fusion_lon": 0.0}, {"lat": 38.929537833333335, "is_disabled": 0, "type": "electric_scooter", "lon": -76.990888, "bike_id": "cf48a487f5ebac8e63e69d52e263514b", "fusion_lat": 0.0, "name": "cf48a487f5ebac8e63e69d52e263514b", "is_reserved": 0, "rental_uris": {"android": "https://dc.lft.to/lastmile_qr_scan", "ios": "https://dc.lft.to/lastmile_qr_scan"}, "fusion_lon": 0.0}, {"lat": 38.887158666666664, "is_disabled": 0, "type": "electric_scooter", "lon": -76.9961095, "bike_id": "f9989896ae6131524551939cfb935bf6", "fusion_lat": 0.0, "name": "f9989896ae6131524551939cfb935bf6", "is_reserved": 0, "rental_uris": {"android": "https://dc.lft.to/lastmile_qr_scan", "ios": "https://dc.lft.to/lastmile_qr_scan"}, "fusion_lon": 0.0}, {"lat": 38.9067985, "is_disabled": 0, "type": "electric_scooter", "lon": -77.0270875, "bike_id": "ef078fe3e6b6d1d4e2402dd5f4433795", "fusion_lat": 0.0, "name": "ef078fe3e6b6d1d4e2402dd5f4433795", "is_reserved": 0, "rental_uris": {"android": "https://dc.lft.to/lastmile_qr_scan", "ios": "https://dc.lft.to/lastmile_qr_scan"}, "fusion_lon": 0.0}, {"lat": 38.916787, "is_disabled": 0, "type": "electric_scooter", "lon": -77.02275683333333, "bike_id": "f759859501e62636880b0fbcbff29b1e", "fusion_lat": 0.0, "name": "f759859501e62636880b0fbcbff29b1e", "is_reserved": 0, "rental_uris": {"android": "https://dc.lft.to/lastmile_qr_scan", "ios": "https://dc.lft.to/lastmile_qr_scan"}, "fusion_lon": 0.0}, {"lat": 38.89219883333333, "is_disabled": 0, "type": "electric_scooter", "lon": -77.02317166666667, "bike_id": "4f84a6d3f92dfc997d1aed39a2413977", "fusion_lat": 0.0, "name": "4f84a6d3f92dfc997d1aed39a2413977", "is_reserved": 0, "rental_uris": {"android": "https://dc.lft.to/lastmile_qr_scan", "ios": "https://dc.lft.to/lastmile_qr_scan"}, "fusion_lon": 0.0}, {"lat": 38.9245785, "is_disabled": 0, "type": "electric_bike", "lon": -77.20835133333334, "bike_id": "c4e40c1d91d24461fcb58071ad28d34a", "fusion_lat": 0.0, "name": "c4e40c1d91d24461fcb58071ad28d34a", "is_reserved": 0, "rental_uris": {"android": "https://dc.lft.to/lastmile_qr_scan", "ios": "https://dc.lft.to/lastmile_qr_scan"}, "fusion_lon": 0.0}, {"lat": 38.908327, "is_disabled": 0, "type": "electric_scooter", "lon": -76.9970325, "bike_id": "828a3a435409262c1e8bfe3a94803bc4", "fusion_lat": 0.0, "name": "828a3a435409262c1e8bfe3a94803bc4", "is_reserved": 0, "rental_uris": {"android": "https://dc.lft.to/lastmile_qr_scan", "ios": "https://dc.lft.to/lastmile_qr_scan"}, "fusion_lon": 0.0}, {"lat": 38.911869333333335, "is_disabled": 0, "type": "electric_scooter", "lon": -77.0597285, "bike_id": "18ae2b01337716b75aaf605eb980237e", "fusion_lat": 0.0, "name": "18ae2b01337716b75aaf605eb980237e", "is_reserved": 0, "rental_uris": {"android": "https://dc.lft.to/lastmile_qr_scan", "ios": "https://dc.lft.to/lastmile_qr_scan"}, "fusion_lon": 0.0}, {"lat": 38.91712483333333, "is_disabled": 0, "type": "electric_scooter", "lon": -77.03247283333333, "bike_id": "e136d6c9617e13ce4a6b0c1e140623ee", "fusion_lat": 0.0, "name": "e136d6c9617e13ce4a6b0c1e140623ee", "is_reserved": 0, "rental_uris": {"android": "https://dc.lft.to/lastmile_qr_scan", "ios": "https://dc.lft.to/lastmile_qr_scan"}, "fusion_lon": 0.0}, {"lat": 38.9054455, "is_disabled": 0, "type": "electric_scooter", "lon": -77.04170366666666, "bike_id": "dd6e4e8c5a4dfed9e148707ed53f26c3", "fusion_lat": 0.0, "name": "dd6e4e8c5a4dfed9e148707ed53f26c3", "is_reserved": 0, "rental_uris": {"android": "https://dc.lft.to/lastmile_qr_scan", "ios": "https://dc.lft.to/lastmile_qr_scan"}, "fusion_lon": 0.0}, {"lat": 38.84256116666667, "is_disabled": 0, "type": "electric_bike", "lon": -77.05832666666667, "bike_id": "1b703143c92c7ce62f96b1e471e9fe33", "fusion_lat": 0.0, "name": "1b703143c92c7ce62f96b1e471e9fe33", "is_reserved": 0, "rental_uris": {"android": "https://dc.lft.to/lastmile_qr_scan", "ios": "https://dc.lft.to/lastmile_qr_scan"}, "fusion_lon": 0.0}, {"lat": 38.915452333333334, "is_disabled": 0, "type": "electric_scooter", "lon": -77.03851566666667, "bike_id": "98200cf810992f8f72046232f6376333", "fusion_lat": 0.0, "name": "98200cf810992f8f72046232f6376333", "is_reserved": 0, "rental_uris": {"android": "https://dc.lft.to/lastmile_qr_scan", "ios": "https://dc.lft.to/lastmile_qr_scan"}, "fusion_lon": 0.0}, {"lat": 38.90060733333333, "is_disabled": 0, "type": "electric_scooter", "lon": -77.02620316666666, "bike_id": "7973be8edd1ad00eafe639c4e8d051e4", "fusion_lat": 0.0, "name": "7973be8edd1ad00eafe639c4e8d051e4", "is_reserved": 0, "rental_uris": {"android": "https://dc.lft.to/lastmile_qr_scan", "ios": "https://dc.lft.to/lastmile_qr_scan"}, "fusion_lon": 0.0}, {"lat": 38.911193, "is_disabled": 0, "type": "electric_scooter", "lon": -77.00325616666667, "bike_id": "e85caeb51ccd7adc700417b4e8dd9dba", "fusion_lat": 0.0, "name": "e85caeb51ccd7adc700417b4e8dd9dba", "is_reserved": 0, "rental_uris": {"android": "https://dc.lft.to/lastmile_qr_scan", "ios": "https://dc.lft.to/lastmile_qr_scan"}, "fusion_lon": 0.0}, {"lat": 38.933088833333336, "is_disabled": 0, "type": "electric_scooter", "lon": -77.02805366666666, "bike_id": "cb5c8591de1e75d8d9377fcf93ba5871", "fusion_lat": 0.0, "name": "cb5c8591de1e75d8d9377fcf93ba5871", "is_reserved": 0, "rental_uris": {"android": "https://dc.lft.to/lastmile_qr_scan", "ios": "https://dc.lft.to/lastmile_qr_scan"}, "fusion_lon": 0.0}, {"lat": 38.916959166666665, "is_disabled": 0, "type": "electric_scooter", "lon": -77.04274966666667, "bike_id": "9abe9bf3ce178ac6d9b625546cd09b82", "fusion_lat": 0.0, "name": "9abe9bf3ce178ac6d9b625546cd09b82", "is_reserved": 0, "rental_uris": {"android": "https://dc.lft.to/lastmile_qr_scan", "ios": "https://dc.lft.to/lastmile_qr_scan"}, "fusion_lon": 0.0}, {"lat": 38.906856833333336, "is_disabled": 0, "type": "electric_scooter", "lon": -77.01011916666667, "bike_id": "84f4dbc5b2e5be4337288de207d9537b", "fusion_lat": 0.0, "name": "84f4dbc5b2e5be4337288de207d9537b", "is_reserved": 0, "rental_uris": {"android": "https://dc.lft.to/lastmile_qr_scan", "ios": "https://dc.lft.to/lastmile_qr_scan"}, "fusion_lon": 0.0}, {"lat": 38.91003333333333, "is_disabled": 0, "type": "electric_scooter", "lon": -77.01507433333333, "bike_id": "fa0a6535905745b5f5ff0be2f8fa0e7a", "fusion_lat": 0.0, "name": "fa0a6535905745b5f5ff0be2f8fa0e7a", "is_reserved": 0, "rental_uris": {"android": "https://dc.lft.to/lastmile_qr_scan", "ios": "https://dc.lft.to/lastmile_qr_scan"}, "fusion_lon": 0.0}, {"lat": 38.935978666666664, "is_disabled": 0, "type": "electric_scooter", "lon": -77.03653216666666, "bike_id": "10a9a3614d45e67eae3569ff7d211058", "fusion_lat": 0.0, "name": "10a9a3614d45e67eae3569ff7d211058", "is_reserved": 0, "rental_uris": {"android": "https://dc.lft.to/lastmile_qr_scan", "ios": "https://dc.lft.to/lastmile_qr_scan"}, "fusion_lon": 0.0}, {"lat": 38.911005333333335, "is_disabled": 0, "type": "electric_scooter", "lon": -77.04206016666667, "bike_id": "44794e8cc2db156c94ae760467c4c008", "fusion_lat": 0.0, "name": "44794e8cc2db156c94ae760467c4c008", "is_reserved": 0, "rental_uris": {"android": "https://dc.lft.to/lastmile_qr_scan", "ios": "https://dc.lft.to/lastmile_qr_scan"}, "fusion_lon": 0.0}, {"lat": 38.907608333333336, "is_disabled": 0, "type": "electric_scooter", "lon": -77.03446483333333, "bike_id": "c9e5d5826310e929d195b2da52b31202", "fusion_lat": 0.0, "name": "c9e5d5826310e929d195b2da52b31202", "is_reserved": 0, "rental_uris": {"android": "https://dc.lft.to/lastmile_qr_scan", "ios": "https://dc.lft.to/lastmile_qr_scan"}, "fusion_lon": 0.0}, {"lat": 38.90266833333333, "is_disabled": 0, "type": "electric_scooter", "lon": -77.0397135, "bike_id": "19036568697ea99870209dc7dca82806", "fusion_lat": 0.0, "name": "19036568697ea99870209dc7dca82806", "is_reserved": 0, "rental_uris": {"android": "https://dc.lft.to/lastmile_qr_scan", "ios": "https://dc.lft.to/lastmile_qr_scan"}, "fusion_lon": 0.0}, {"lat": 38.92346466666667, "is_disabled": 0, "type": "electric_scooter", "lon": -77.0352245, "bike_id": "dc9c9ee7d13a02f7ff47ac96cbaf75db", "fusion_lat": 0.0, "name": "dc9c9ee7d13a02f7ff47ac96cbaf75db", "is_reserved": 0, "rental_uris": {"android": "https://dc.lft.to/lastmile_qr_scan", "ios": "https://dc.lft.to/lastmile_qr_scan"}, "fusion_lon": 0.0}, {"lat": 38.903056, "is_disabled": 0, "type": "electric_scooter", "lon": -77.01180266666667, "bike_id": "a3c0f8632141255ac4779190ff65b6be", "fusion_lat": 0.0, "name": "a3c0f8632141255ac4779190ff65b6be", "is_reserved": 0, "rental_uris": {"android": "https://dc.lft.to/lastmile_qr_scan", "ios": "https://dc.lft.to/lastmile_qr_scan"}, "fusion_lon": 0.0}, {"lat": 38.901810166666664, "is_disabled": 0, "type": "electric_scooter", "lon": -77.02504583333334, "bike_id": "eb288ce89f48e4ea7dd3e73b1b44d5bc", "fusion_lat": 0.0, "name": "eb288ce89f48e4ea7dd3e73b1b44d5bc", "is_reserved": 0, "rental_uris": {"android": "https://dc.lft.to/lastmile_qr_scan", "ios": "https://dc.lft.to/lastmile_qr_scan"}, "fusion_lon": 0.0}, {"lat": 38.907359666666665, "is_disabled": 0, "type": "electric_scooter", "lon": -77.02714233333333, "bike_id": "0cd605241f2e9233fcd3c26fff2a3a93", "fusion_lat": 0.0, "name": "0cd605241f2e9233fcd3c26fff2a3a93", "is_reserved": 0, "rental_uris": {"android": "https://dc.lft.to/lastmile_qr_scan", "ios": "https://dc.lft.to/lastmile_qr_scan"}, "fusion_lon": 0.0}, {"lat": 38.918987666666666, "is_disabled": 0, "type": "electric_scooter", "lon": -77.044719, "bike_id": "4ff5bed978e2be5f497083d5ab34ad85", "fusion_lat": 0.0, "name": "4ff5bed978e2be5f497083d5ab34ad85", "is_reserved": 0, "rental_uris": {"android": "https://dc.lft.to/lastmile_qr_scan", "ios": "https://dc.lft.to/lastmile_qr_scan"}, "fusion_lon": 0.0}, {"lat": 38.899661333333334, "is_disabled": 0, "type": "electric_scooter", "lon": -76.92734033333333, "bike_id": "6ed261ec2d4a63fba95fff888be3f3bd", "fusion_lat": 0.0, "name": "6ed261ec2d4a63fba95fff888be3f3bd", "is_reserved": 0, "rental_uris": {"android": "https://dc.lft.to/lastmile_qr_scan", "ios": "https://dc.lft.to/lastmile_qr_scan"}, "fusion_lon": 0.0}, {"lat": 38.916802833333335, "is_disabled": 0, "type": "electric_scooter", "lon": -77.0271615, "bike_id": "45393963df9052f030e328fb1ed8b8e4", "fusion_lat": 0.0, "name": "45393963df9052f030e328fb1ed8b8e4", "is_reserved": 0, "rental_uris": {"android": "https://dc.lft.to/lastmile_qr_scan", "ios": "https://dc.lft.to/lastmile_qr_scan"}, "fusion_lon": 0.0}, {"lat": 38.9299195, "is_disabled": 0, "type": "electric_scooter", "lon": -77.02632333333334, "bike_id": "a1f1592adc5b6753f6a8c1ee6f064e80", "fusion_lat": 0.0, "name": "a1f1592adc5b6753f6a8c1ee6f064e80", "is_reserved": 0, "rental_uris": {"android": "https://dc.lft.to/lastmile_qr_scan", "ios": "https://dc.lft.to/lastmile_qr_scan"}, "fusion_lon": 0.0}, {"lat": 38.909568666666665, "is_disabled": 0, "type": "electric_scooter", "lon": -77.0227875, "bike_id": "c297729694b29c1d054f554f607e6da0", "fusion_lat": 0.0, "name": "c297729694b29c1d054f554f607e6da0", "is_reserved": 0, "rental_uris": {"android": "https://dc.lft.to/lastmile_qr_scan", "ios": "https://dc.lft.to/lastmile_qr_scan"}, "fusion_lon": 0.0}, {"lat": 38.91710233333333, "is_disabled": 0, "type": "electric_scooter", "lon": -77.03879716666667, "bike_id": "cf363dce74e2c45139d160d0420a4811", "fusion_lat": 0.0, "name": "cf363dce74e2c45139d160d0420a4811", "is_reserved": 0, "rental_uris": {"android": "https://dc.lft.to/lastmile_qr_scan", "ios": "https://dc.lft.to/lastmile_qr_scan"}, "fusion_lon": 0.0}, {"lat": 38.9156315, "is_disabled": 0, "type": "electric_scooter", "lon": -77.02005233333334, "bike_id": "bcd3dbb14e8fa7088b98b9b21f9c395e", "fusion_lat": 0.0, "name": "bcd3dbb14e8fa7088b98b9b21f9c395e", "is_reserved": 0, "rental_uris": {"android": "https://dc.lft.to/lastmile_qr_scan", "ios": "https://dc.lft.to/lastmile_qr_scan"}, "fusion_lon": 0.0}, {"lat": 38.932779, "is_disabled": 0, "type": "electric_scooter", "lon": -77.02828516666666, "bike_id": "b93b0e425d03b47fb4506d7f5dffc2e3", "fusion_lat": 0.0, "name": "b93b0e425d03b47fb4506d7f5dffc2e3", "is_reserved": 0, "rental_uris": {"android": "https://dc.lft.to/lastmile_qr_scan", "ios": "https://dc.lft.to/lastmile_qr_scan"}, "fusion_lon": 0.0}, {"lat": 38.97228616666666, "is_disabled": 0, "type": "electric_bike", "lon": -76.99344683333334, "bike_id": "61e4fc87010d121e3cda2b595179403a", "fusion_lat": 0.0, "name": "61e4fc87010d121e3cda2b595179403a", "is_reserved": 0, "rental_uris": {"android": "https://dc.lft.to/lastmile_qr_scan", "ios": "https://dc.lft.to/lastmile_qr_scan"}, "fusion_lon": 0.0}, {"lat": 38.90727716666667, "is_disabled": 0, "type": "electric_scooter", "lon": -77.02959916666667, "bike_id": "46fce120efe59165bd7114260bbd4617", "fusion_lat": 0.0, "name": "46fce120efe59165bd7114260bbd4617", "is_reserved": 0, "rental_uris": {"android": "https://dc.lft.to/lastmile_qr_scan", "ios": "https://dc.lft.to/lastmile_qr_scan"}, "fusion_lon": 0.0}, {"lat": 38.93318516666667, "is_disabled": 0, "type": "electric_scooter", "lon": -77.04524916666666, "bike_id": "d7840ca3eb770948683c9464c7e5139d", "fusion_lat": 0.0, "name": "d7840ca3eb770948683c9464c7e5139d", "is_reserved": 0, "rental_uris": {"android": "https://dc.lft.to/lastmile_qr_scan", "ios": "https://dc.lft.to/lastmile_qr_scan"}, "fusion_lon": 0.0}, {"lat": 38.903429, "is_disabled": 0, "type": "electric_scooter", "lon": -77.03770866666666, "bike_id": "57121b64fb93fb5da9b2b90ebf9305f0", "fusion_lat": 0.0, "name": "57121b64fb93fb5da9b2b90ebf9305f0", "is_reserved": 0, "rental_uris": {"android": "https://dc.lft.to/lastmile_qr_scan", "ios": "https://dc.lft.to/lastmile_qr_scan"}, "fusion_lon": 0.0}, {"lat": 38.92337833333333, "is_disabled": 0, "type": "electric_scooter", "lon": -77.0502915, "bike_id": "5e430d2bb1a89179eefce64b51023b01", "fusion_lat": 0.0, "name": "5e430d2bb1a89179eefce64b51023b01", "is_reserved": 0, "rental_uris": {"android": "https://dc.lft.to/lastmile_qr_scan", "ios": "https://dc.lft.to/lastmile_qr_scan"}, "fusion_lon": 0.0}, {"lat": 38.9203815, "is_disabled": 0, "type": "electric_scooter", "lon": -77.04188183333333, "bike_id": "9f963f07efe92e0183b9ba0c23d4ff82", "fusion_lat": 0.0, "name": "9f963f07efe92e0183b9ba0c23d4ff82", "is_reserved": 0, "rental_uris": {"android": "https://dc.lft.to/lastmile_qr_scan", "ios": "https://dc.lft.to/lastmile_qr_scan"}, "fusion_lon": 0.0}, {"lat": 38.928726166666664, "is_disabled": 0, "type": "electric_scooter", "lon": -77.0331175, "bike_id": "b0bec4d5a86e5ad6acb7d240af02e3e0", "fusion_lat": 0.0, "name": "b0bec4d5a86e5ad6acb7d240af02e3e0", "is_reserved": 0, "rental_uris": {"android": "https://dc.lft.to/lastmile_qr_scan", "ios": "https://dc.lft.to/lastmile_qr_scan"}, "fusion_lon": 0.0}, {"lat": 38.90837666666667, "is_disabled": 0, "type": "electric_scooter", "lon": -76.99693066666667, "bike_id": "5b4da9a44c797d98f5ca86e5fc168c10", "fusion_lat": 0.0, "name": "5b4da9a44c797d98f5ca86e5fc168c10", "is_reserved": 0, "rental_uris": {"android": "https://dc.lft.to/lastmile_qr_scan", "ios": "https://dc.lft.to/lastmile_qr_scan"}, "fusion_lon": 0.0}, {"lat": 38.92236916666667, "is_disabled": 0, "type": "electric_scooter", "lon": -77.04575666666666, "bike_id": "5fb185660a14246a622a254dfc98ae81", "fusion_lat": 0.0, "name": "5fb185660a14246a622a254dfc98ae81", "is_reserved": 0, "rental_uris": {"android": "https://dc.lft.to/lastmile_qr_scan", "ios": "https://dc.lft.to/lastmile_qr_scan"}, "fusion_lon": 0.0}, {"lat": 38.9134405, "is_disabled": 0, "type": "electric_scooter", "lon": -77.01751016666667, "bike_id": "b768a78cc2ec9248f943752cf2e50c8e", "fusion_lat": 0.0, "name": "b768a78cc2ec9248f943752cf2e50c8e", "is_reserved": 0, "rental_uris": {"android": "https://dc.lft.to/lastmile_qr_scan", "ios": "https://dc.lft.to/lastmile_qr_scan"}, "fusion_lon": 0.0}, {"lat": 38.921581833333335, "is_disabled": 0, "type": "electric_scooter", "lon": -77.03515883333333, "bike_id": "3a2807078350588d3ba2a7909d7bd5b9", "fusion_lat": 0.0, "name": "3a2807078350588d3ba2a7909d7bd5b9", "is_reserved": 0, "rental_uris": {"android": "https://dc.lft.to/lastmile_qr_scan", "ios": "https://dc.lft.to/lastmile_qr_scan"}, "fusion_lon": 0.0}, {"lat": 38.8772035, "is_disabled": 0, "type": "electric_scooter", "lon": -77.01775816666667, "bike_id": "789034af5b674ed620a6f980d589869f", "fusion_lat": 0.0, "name": "789034af5b674ed620a6f980d589869f", "is_reserved": 0, "rental_uris": {"android": "https://dc.lft.to/lastmile_qr_scan", "ios": "https://dc.lft.to/lastmile_qr_scan"}, "fusion_lon": 0.0}, {"lat": 38.9080635, "is_disabled": 0, "type": "electric_scooter", "lon": -77.04325516666667, "bike_id": "4b14660a54753505db34715f81c814bb", "fusion_lat": 0.0, "name": "4b14660a54753505db34715f81c814bb", "is_reserved": 0, "rental_uris": {"android": "https://dc.lft.to/lastmile_qr_scan", "ios": "https://dc.lft.to/lastmile_qr_scan"}, "fusion_lon": 0.0}, {"lat": 38.917499666666664, "is_disabled": 0, "type": "electric_scooter", "lon": -77.02400916666667, "bike_id": "9fbdf3469b25e027df0f15d94d4e82e5", "fusion_lat": 0.0, "name": "9fbdf3469b25e027df0f15d94d4e82e5", "is_reserved": 0, "rental_uris": {"android": "https://dc.lft.to/lastmile_qr_scan", "ios": "https://dc.lft.to/lastmile_qr_scan"}, "fusion_lon": 0.0}, {"lat": 38.90631466666667, "is_disabled": 0, "type": "electric_scooter", "lon": -77.0293395, "bike_id": "837e5ba8f0c48f1d879273ecc71cc787", "fusion_lat": 0.0, "name": "837e5ba8f0c48f1d879273ecc71cc787", "is_reserved": 0, "rental_uris": {"android": "https://dc.lft.to/lastmile_qr_scan", "ios": "https://dc.lft.to/lastmile_qr_scan"}, "fusion_lon": 0.0}, {"lat": 38.93413733333333, "is_disabled": 0, "type": "electric_scooter", "lon": -77.04273266666667, "bike_id": "df19a2e5e8dfd964c31fe4d30eb96ebd", "fusion_lat": 0.0, "name": "df19a2e5e8dfd964c31fe4d30eb96ebd", "is_reserved": 0, "rental_uris": {"android": "https://dc.lft.to/lastmile_qr_scan", "ios": "https://dc.lft.to/lastmile_qr_scan"}, "fusion_lon": 0.0}, {"lat": 38.918338, "is_disabled": 0, "type": "electric_scooter", "lon": -77.03516716666667, "bike_id": "2502d99db95bbe342eb10fb583586074", "fusion_lat": 0.0, "name": "2502d99db95bbe342eb10fb583586074", "is_reserved": 0, "rental_uris": {"android": "https://dc.lft.to/lastmile_qr_scan", "ios": "https://dc.lft.to/lastmile_qr_scan"}, "fusion_lon": 0.0}, {"lat": 38.95069516666667, "is_disabled": 0, "type": "electric_scooter", "lon": -77.027158, "bike_id": "0a3974cf8806729d567382b9f08dd042", "fusion_lat": 0.0, "name": "0a3974cf8806729d567382b9f08dd042", "is_reserved": 0, "rental_uris": {"android": "https://dc.lft.to/lastmile_qr_scan", "ios": "https://dc.lft.to/lastmile_qr_scan"}, "fusion_lon": 0.0}, {"lat": 38.854937, "is_disabled": 0, "type": "electric_bike", "lon": -77.12047416666667, "bike_id": "c048e746bb0a7c953037c3623cf53eb4", "fusion_lat": 0.0, "name": "c048e746bb0a7c953037c3623cf53eb4", "is_reserved": 0, "rental_uris": {"android": "https://dc.lft.to/lastmile_qr_scan", "ios": "https://dc.lft.to/lastmile_qr_scan"}, "fusion_lon": 0.0}, {"lat": 38.941912, "is_disabled": 0, "type": "electric_scooter", "lon": -77.040124, "bike_id": "6a6e70341f14cf780360813a8e22b51f", "fusion_lat": 0.0, "name": "6a6e70341f14cf780360813a8e22b51f", "is_reserved": 0, "rental_uris": {"android": "https://dc.lft.to/lastmile_qr_scan", "ios": "https://dc.lft.to/lastmile_qr_scan"}, "fusion_lon": 0.0}, {"lat": 38.905453, "is_disabled": 0, "type": "electric_scooter", "lon": -77.03251883333333, "bike_id": "c4a613cf39e3d478ef384f995cc9fdf1", "fusion_lat": 0.0, "name": "c4a613cf39e3d478ef384f995cc9fdf1", "is_reserved": 0, "rental_uris": {"android": "https://dc.lft.to/lastmile_qr_scan", "ios": "https://dc.lft.to/lastmile_qr_scan"}, "fusion_lon": 0.0}, {"lat": 38.886489833333336, "is_disabled": 0, "type": "electric_scooter", "lon": -77.02160116666667, "bike_id": "6b11d3f3ee6498665c21f0feb05138e2", "fusion_lat": 0.0, "name": "6b11d3f3ee6498665c21f0feb05138e2", "is_reserved": 0, "rental_uris": {"android": "https://dc.lft.to/lastmile_qr_scan", "ios": "https://dc.lft.to/lastmile_qr_scan"}, "fusion_lon": 0.0}, {"lat": 38.930836666666664, "is_disabled": 0, "type": "electric_scooter", "lon": -77.0374275, "bike_id": "967643cb7ea738d855318c6e4eb4acdb", "fusion_lat": 0.0, "name": "967643cb7ea738d855318c6e4eb4acdb", "is_reserved": 0, "rental_uris": {"android": "https://dc.lft.to/lastmile_qr_scan", "ios": "https://dc.lft.to/lastmile_qr_scan"}, "fusion_lon": 0.0}, {"lat": 38.89352983333333, "is_disabled": 0, "type": "electric_scooter", "lon": -77.0413785, "bike_id": "bf34fc2602491b4807d3b5fbe9d79d04", "fusion_lat": 0.0, "name": "bf34fc2602491b4807d3b5fbe9d79d04", "is_reserved": 0, "rental_uris": {"android": "https://dc.lft.to/lastmile_qr_scan", "ios": "https://dc.lft.to/lastmile_qr_scan"}, "fusion_lon": 0.0}, {"lat": 38.925297, "is_disabled": 0, "type": "electric_scooter", "lon": -77.04420516666667, "bike_id": "129029df86875c1a2ee40d751496773d", "fusion_lat": 0.0, "name": "129029df86875c1a2ee40d751496773d", "is_reserved": 0, "rental_uris": {"android": "https://dc.lft.to/lastmile_qr_scan", "ios": "https://dc.lft.to/lastmile_qr_scan"}, "fusion_lon": 0.0}, {"lat": 38.900716, "is_disabled": 0, "type": "electric_scooter", "lon": -77.0181565, "bike_id": "ce1ebd84995105b5911e56261bd83e78", "fusion_lat": 0.0, "name": "ce1ebd84995105b5911e56261bd83e78", "is_reserved": 0, "rental_uris": {"android": "https://dc.lft.to/lastmile_qr_scan", "ios": "https://dc.lft.to/lastmile_qr_scan"}, "fusion_lon": 0.0}, {"lat": 38.900291, "is_disabled": 0, "type": "electric_scooter", "lon": -76.99374283333333, "bike_id": "239e7da8d3a2078a58856519cb5a5c11", "fusion_lat": 0.0, "name": "239e7da8d3a2078a58856519cb5a5c11", "is_reserved": 0, "rental_uris": {"android": "https://dc.lft.to/lastmile_qr_scan", "ios": "https://dc.lft.to/lastmile_qr_scan"}, "fusion_lon": 0.0}, {"lat": 38.90896716666666, "is_disabled": 0, "type": "electric_scooter", "lon": -77.0314445, "bike_id": "0225527badf7a51b2c76c62cd2a51f2c", "fusion_lat": 0.0, "name": "0225527badf7a51b2c76c62cd2a51f2c", "is_reserved": 0, "rental_uris": {"android": "https://dc.lft.to/lastmile_qr_scan", "ios": "https://dc.lft.to/lastmile_qr_scan"}, "fusion_lon": 0.0}, {"lat": 38.922419, "is_disabled": 0, "type": "electric_scooter", "lon": -77.04271533333333, "bike_id": "d5acfb927cd0d26ca19ac505c87cee27", "fusion_lat": 0.0, "name": "d5acfb927cd0d26ca19ac505c87cee27", "is_reserved": 0, "rental_uris": {"android": "https://dc.lft.to/lastmile_qr_scan", "ios": "https://dc.lft.to/lastmile_qr_scan"}, "fusion_lon": 0.0},