{"data": {"bikes": [{"is_reserved": 0, "lat": 38.931954833333336, "rental_uris": {"android": "https://dc.lft.to/lastmile_qr_scan", "ios": "https://dc.lft.to/lastmile_qr_scan"}, "bike_id": "48cd42e88a1bdc718433aaf6183002bf", "fusion_lon": 0.0, "fusion_lat": 0.0, "is_disabled": 0, "name": "48cd42e88a1bdc718433aaf6183002bf", "type": "electric_scooter", "lon": -77.0442}, {"is_reserved": 0, "lat": 38.877924666666665, "rental_uris": {"android": "https://dc.lft.to/lastmile_qr_scan", "ios": "https://dc.lft.to/lastmile_qr_scan"}, "bike_id": "bd335fd206da3c78788d864232997617", "fusion_lon": 0.0, "fusion_lat": 0.0, "is_disabled": 0, "name": "bd335fd206da3c78788d864232997617", "type": "electric_scooter", "lon": -76.99408433333333}, {"is_reserved": 0, "lat": 38.9331015, "rental_uris": {"android": "https://dc.lft.to/lastmile_qr_scan", "ios": "https://dc.lft.to/lastmile_qr_scan"}, "bike_id": "0108bad37e507f582f81532787023137", "fusion_lon": 0.0, "fusion_lat": 0.0, "is_disabled": 0, "name": "0108bad37e507f582f81532787023137", "type": "electric_scooter", "lon": -77.0358745}, {"is_reserved": 0, "lat": 38.893759, "rental_uris": {"android": "https://dc.lft.to/lastmile_qr_scan", "ios": "https://dc.lft.to/lastmile_qr_scan"}, "bike_id": "bf7a4f96547b1e1b3c73619a1bdf8e1e", "fusion_lon": 0.0, "fusion_lat": 0.0, "is_disabled": 0, "name": "bf7a4f96547b1e1b3c73619a1bdf8e1e", "type": "electric_scooter", "lon": -77.050252}, {"is_reserved": 0, "lat": 38.906165333333334, "rental_uris": {"android": "https://dc.lft.to/lastmile_qr_scan", "ios": "https://dc.lft.to/lastmile_qr_scan"}, "bike_id": "316914f633fddfc312d078f2c9df119c", "fusion_lon": 0.0, "fusion_lat": 0.0, "is_disabled": 0, "name": "316914f633fddfc312d078f2c9df119c", "type": "electric_scooter", "lon": -77.04342833333334}, {"is_reserved": 0, "lat": 39.038890333333335, "rental_uris": {"android": "https://dc.lft.to/lastmile_qr_scan", "ios": "https://dc.lft.to/lastmile_qr_scan"}, "bike_id": "9d43cc0902b9d4a7f46a150081db1268", "fusion_lon": 0.0, "fusion_lat": 0.0, "is_disabled": 0, "name": "9d43cc0902b9d4a7f46a150081db1268", "type": "electric_bike", "lon": -77.05050666666666}, {"is_reserved": 0, "lat": 38.92207666666667, "rental_uris": {"android": "https://dc.lft.to/lastmile_qr_scan", "ios": "https://dc.lft.to/lastmile_qr_scan"}, "bike_id": "9bd7d22a2734efeaa33ae05cd3537430", "fusion_lon": 0.0, "fusion_lat": 0.0, "is_disabled": 0, "name": "9bd7d22a2734efeaa33ae05cd3537430", "type": "electric_bike", "lon": -76.98799933333333}, {"is_reserved": 0, "lat": 38.924827666666665, "rental_uris": {"android": "https://dc.lft.to/lastmile_qr_scan", "ios": "https://dc.lft.to/lastmile_qr_scan"}, "bike_id": "956c0dfc75919465e36883055b59e193", "fusion_lon": 0.0, "fusion_lat": 0.0, "is_disabled": 0, "name": "956c0dfc75919465e36883055b59e193", "type": "electric_scooter", "lon": -77.02211133333333}, {"is_reserved": 0, "lat": 38.915597, "rental_uris": {"android": "https://dc.lft.to/lastmile_qr_scan", "ios": "https://dc.lft.to/lastmile_qr_scan"}, "bike_id": "b498a47b5945c67077a73f781cf77067", "fusion_lon": 0.0, "fusion_lat": 0.0, "is_disabled": 0, "name": "b498a47b5945c67077a73f781cf77067", "type": "electric_scooter", "lon": -77.03154483333333}, {"is_reserved": 0, "lat": 38.86232966666667, "rental_uris": {"android": "https://dc.lft.to/lastmile_qr_scan", "ios": "https://dc.lft.to/lastmile_qr_scan"}, "bike_id": "9a54ab5f237277cb35dc897f6275dd3d", "fusion_lon": 0.0, "fusion_lat": 0.0, "is_disabled": 0, "name": "9a54ab5f237277cb35dc897f6275dd3d", "type": "electric_bike", "lon": -77.0880725}, {"is_reserved": 0, "lat": 38.90562, "rental_uris": {"android": "https://dc.lft.to/lastmile_qr_scan", "ios": "https://dc.lft.to/lastmile_qr_scan"}, "bike_id": "2cc5542dabcf74c5c92d61ac252babf7", "fusion_lon": 0.0, "fusion_lat": 0.0, "is_disabled": 0, "name": "2cc5542dabcf74c5c92d61ac252babf7", "type": "electric_scooter", "lon": -77.022141}, {"is_reserved": 0, "lat": 38.88189933333334, "rental_uris": {"android": "https://dc.lft.to/lastmile_qr_scan", "ios": "https://dc.lft.to/lastmile_qr_scan"}, "bike_id": "f7540eb7c690714c7fd1577effe262e7", "fusion_lon": 0.0, "fusion_lat": 0.0, "is_disabled": 0, "name": "f7540eb7c690714c7fd1577effe262e7", "type": "electric_scooter", "lon": -76.9950395}, {"is_reserved": 0, "lat": 38.935473, "rental_uris": {"android": "https://dc.lft.to/lastmile_qr_scan", "ios": "https://dc.lft.to/lastmile_qr_scan"}, "bike_id": "567193daa1fe83f0410889257445b9b2", "fusion_lon": 0.0, "fusion_lat": 0.0, "is_disabled": 0, "name": "567193daa1fe83f0410889257445b9b2", "type": "electric_scooter", "lon": -77.0585925}, {"is_reserved": 0, "lat": 38.91400466666666, "rental_uris": {"android": "https://dc.lft.to/lastmile_qr_scan", "ios": "https://dc.lft.to/lastmile_qr_scan"}, "bike_id": "a5ed8148d16d5f9bf4ba7da1428a526a", "fusion_lon": 0.0, "fusion_lat": 0.0, "is_disabled": 0, "name": "a5ed8148d16d5f9bf4ba7da1428a526a", "type": "electric_scooter", "lon": -77.04576016666667}, {"is_reserved": 0, "lat": 38.91555983333333, "rental_uris": {"android": "https://dc.lft.to/lastmile_qr_scan", "ios": "https://dc.lft.to/lastmile_qr_scan"}, "bike_id": "ed0d6ef0961280faa73c249220be0631", "fusion_lon": 0.0, "fusion_lat": 0.0, "is_disabled": 0, "name": "ed0d6ef0961280faa73c249220be0631", "type": "electric_scooter", "lon": -77.03163033333334}, {"is_reserved": 0, "lat": 38.920315, "rental_uris": {"android": "https://dc.lft.to/lastmile_qr_scan", "ios": "https://dc.lft.to/lastmile_qr_scan"}, "bike_id": "c10acd8d2a8d10e6485f8ec4965854e7", "fusion_lon": 0.0, "fusion_lat": 0.0, "is_disabled": 0, "name": "c10acd8d2a8d10e6485f8ec4965854e7", "type": "electric_scooter", "lon": -77.04185016666666}, {"is_reserved": 0, "lat": 38.900834, "rental_uris": {"android": "https://dc.lft.to/lastmile_qr_scan", "ios": "https://dc.lft.to/lastmile_qr_scan"}, "bike_id": "8085a333ca2e21155a1addbd50481b6c", "fusion_lon": 0.0, "fusion_lat": 0.0, "is_disabled": 0, "name": "8085a333ca2e21155a1addbd50481b6c", "type": "electric_scooter", "lon": -77.04686983333333}, {"is_reserved": 0, "lat": 38.90846533333333, "rental_uris": {"android": "https://dc.lft.to/lastmile_qr_scan", "ios": "https://dc.lft.to/lastmile_qr_scan"}, "bike_id": "73567056f9504e120a72b1944fcea293", "fusion_lon": 0.0, "fusion_lat": 0.0, "is_disabled": 0, "name": "73567056f9504e120a72b1944fcea293", "type": "electric_scooter", "lon": -77.02058066666666}, {"is_reserved": 0, "lat": 38.916923833333335, "rental_uris": {"android": "https://dc.lft.to/lastmile_qr_scan", "ios": "https://dc.lft.to/lastmile_qr_scan"}, "bike_id": "b52561bc3d52e038d669356e028a7f49", "fusion_lon": 0.0, "fusion_lat": 0.0, "is_disabled": 0, "name": "b52561bc3d52e038d669356e028a7f49", "type": "electric_scooter", "lon": -77.04082833333334}, {"is_reserved": 0, "lat": 38.86647633333333, "rental_uris": {"android": "https://dc.lft.to/lastmile_qr_scan", "ios": "https://dc.lft.to/lastmile_qr_scan"}, "bike_id": "a64523dab15e86d39f33744cf2cff549", "fusion_lon": 0.0, "fusion_lat": 0.0, "is_disabled": 0, "name": "a64523dab15e86d39f33744cf2cff549", "type": "electric_scooter", "lon": -76.98884383333333}, {"is_reserved": 0, "lat": 38.921063833333335, "rental_uris": {"android": "https://dc.lft.to/lastmile_qr_scan", "ios": "https://dc.lft.to/lastmile_qr_scan"}, "bike_id": "bdae215c4f6469de9ddf21acd6cfe606", "fusion_lon": 0.0, "fusion_lat": 0.0, "is_disabled": 0, "name": "bdae215c4f6469de9ddf21acd6cfe606", "type": "electric_bike", "lon": -77.06329133333334}, {"is_reserved": 0, "lat": 38.952937, "rental_uris": {"android": "https://dc.lft.to/lastmile_qr_scan", "ios": "https://dc.lft.to/lastmile_qr_scan"}, "bike_id": "e7dc57659ad990519e543b33089a377c", "fusion_lon": 0.0, "fusion_lat": 0.0, "is_disabled": 0, "name": "e7dc57659ad990519e543b33089a377c", "type": "electric_bike", "lon": -77.02467383333334}, {"is_reserved": 0, "lat": 38.884921, "rental_uris": {"android": "https://dc.lft.to/lastmile_qr_scan", "ios": "https://dc.lft.to/lastmile_qr_scan"}, "bike_id": "724082cafdae03af53dd8efa7b8b3e82", "fusion_lon": 0.0, "fusion_lat": 0.0, "is_disabled": 0, "name": "724082cafdae03af53dd8efa7b8b3e82", "type": "electric_scooter", "lon": -77.00704433333334}, {"is_reserved": 0, "lat": 38.9194045, "rental_uris": {"android": "https://dc.lft.to/lastmile_qr_scan", "ios": "https://dc.lft.to/lastmile_qr_scan"}, "bike_id": "4103cbcfa4e0775a99aa721cfeb6c316", "fusion_lon": 0.0, "fusion_lat": 0.0, "is_disabled": 0, "name": "4103cbcfa4e0775a99aa721cfeb6c316", "type": "electric_scooter", "lon": -77.02516983333334}, {"is_reserved": 0, "lat": 38.80059166666667, "rental_uris": {"android": "https://dc.lft.to/lastmile_qr_scan", "ios": "https://dc.lft.to/lastmile_qr_scan"}, "bike_id": "0e497b751590cbac01b4e7ad36d4873d", "fusion_lon": 0.0, "fusion_lat": 0.0, "is_disabled": 0, "name": "0e497b751590cbac01b4e7ad36d4873d", "type": "electric_bike", "lon": -77.07117816666667}, {"is_reserved": 0, "lat": 38.91841866666667, "rental_uris": {"android": "https://dc.lft.to/lastmile_qr_scan", "ios": "https://dc.lft.to/lastmile_qr_scan"}, "bike_id": "205b5a5f847cc765de3160a069e87d1e", "fusion_lon": 0.0, "fusion_lat": 0.0, "is_disabled": 0, "name": "205b5a5f847cc765de3160a069e87d1e", "type": "electric_scooter", "lon": -77.03208666666667}, {"is_reserved": 0, "lat": 38.903890833333335, "rental_uris": {"android": "https://dc.lft.to/lastmile_qr_scan", "ios": "https://dc.lft.to/lastmile_qr_scan"}, "bike_id": "b059082457f586f0e368cb79daceaecc", "fusion_lon": 0.0, "fusion_lat": 0.0, "is_disabled": 0, "name": "b059082457f586f0e368cb79daceaecc", "type": "electric_scooter", "lon": -76.98942416666667}, {"is_reserved": 0, "lat": 38.930581, "rental_uris": {"android": "https://dc.lft.to/lastmile_qr_scan", "ios": "https://dc.lft.to/lastmile_qr_scan"}, "bike_id": "b38e03b1f3be3d4cfe28947d6b942978", "fusion_lon": 0.0, "fusion_lat": 0.0, "is_disabled": 0, "name": "b38e03b1f3be3d4cfe28947d6b942978", "type": "electric_scooter", "lon": -77.04030216666666}, {"is_reserved": 0, "lat": 38.922465333333335, "rental_uris": {"android": "https://dc.lft.to/lastmile_qr_scan", "ios": "https://dc.lft.to/lastmile_qr_scan"}, "bike_id": "372cd20f8a3ccf661500e1e32e0e9d52", "fusion_lon": 0.0, "fusion_lat": 0.0, "is_disabled": 0, "name": "372cd20f8a3ccf661500e1e32e0e9d52", "type": "electric_scooter", "lon": -77.03526366666667}, {"is_reserved": 0, "lat": 38.9191475, "rental_uris": {"android": "https://dc.lft.to/lastmile_qr_scan", "ios": "https://dc.lft.to/lastmile_qr_scan"}, "bike_id": "f9097a35bb1e2f69d7ef837c025acd04", "fusion_lon": 0.0, "fusion_lat": 0.0, "is_disabled": 0, "name": "f9097a35bb1e2f69d7ef837c025acd04", "type": "electric_scooter", "lon": -77.031798}, {"is_reserved": 0, "lat": 38.900042166666665, "rental_uris": {"android": "https://dc.lft.to/lastmile_qr_scan", "ios": "https://dc.lft.to/lastmile_qr_scan"}, "bike_id": "b726efa62058a63016670bdad3b4d842", "fusion_lon": 0.0, "fusion_lat": 0.0, "is_disabled": 0, "name": "b726efa62058a63016670bdad3b4d842", "type": "electric_scooter", "lon": -77.03354016666667}, {"is_reserved": 0, "lat": 38.92398216666667, "rental_uris": {"android": "https://dc.lft.to/lastmile_qr_scan", "ios": "https://dc.lft.to/lastmile_qr_scan"}, "bike_id": "2efa48ef033645d87ae73e6f68a22d4b", "fusion_lon": 0.0, "fusion_lat": 0.0, "is_disabled": 0, "name": "2efa48ef033645d87ae73e6f68a22d4b", "type": "electric_scooter", "lon": -77.02541983333333}, {"is_reserved": 0, "lat": 38.89006583333333, "rental_uris": {"android": "https://dc.lft.to/lastmile_qr_scan", "ios": "https://dc.lft.to/lastmile_qr_scan"}, "bike_id": "b848e0ae890de1e0abfe5515747c749d", "fusion_lon": 0.0, "fusion_lat": 0.0, "is_disabled": 0, "name": "b848e0ae890de1e0abfe5515747c749d", "type": "electric_scooter", "lon": -76.93742066666667}, {"is_reserved": 0, "lat": 38.91694316666667, "rental_uris": {"android": "https://dc.lft.to/lastmile_qr_scan", "ios": "https://dc.lft.to/lastmile_qr_scan"}, "bike_id": "f426c21d69d117ffff17ff248b1c4a13", "fusion_lon": 0.0, "fusion_lat": 0.0, "is_disabled": 0, "name": "f426c21d69d117ffff17ff248b1c4a13", "type": "electric_scooter", "lon": -77.03216816666666}, {"is_reserved": 0, "lat": 38.92147716666667, "rental_uris": {"android": "https://dc.lft.to/lastmile_qr_scan", "ios": "https://dc.lft.to/lastmile_qr_scan"}, "bike_id": "c02699db4da6e1d2ea2d0f389dc7eb92", "fusion_lon": 0.0, "fusion_lat": 0.0, "is_disabled": 0, "name": "c02699db4da6e1d2ea2d0f389dc7eb92", "type": "electric_scooter", "lon": -77.03508533333333}, {"is_reserved": 0, "lat": 38.9205455, "rental_uris": {"android": "https://dc.lft.to/lastmile_qr_scan", "ios": "https://dc.lft.to/lastmile_qr_scan"}, "bike_id": "f19e92030e8458b96c77d5e11a0bb2b0", "fusion_lon": 0.0, "fusion_lat": 0.0, "is_disabled": 0, "name": "f19e92030e8458b96c77d5e11a0bb2b0", "type": "electric_scooter", "lon": -77.0319445}, {"is_reserved": 0, "lat": 38.918705833333334, "rental_uris": {"android": "https://dc.lft.to/lastmile_qr_scan", "ios": "https://dc.lft.to/lastmile_qr_scan"}, "bike_id": "7b706dd06bcb5484adfa66de414e7cf7", "fusion_lon": 0.0, "fusion_lat": 0.0, "is_disabled": 0, "name": "7b706dd06bcb5484adfa66de414e7cf7", "type": "electric_scooter", "lon": -77.02432566666667}, {"is_reserved": 0, "lat": 38.8759035, "rental_uris": {"android": "https://dc.lft.to/lastmile_qr_scan", "ios": "https://dc.lft.to/lastmile_qr_scan"}, "bike_id": "9942361d66c7824ff1c0380d2a329a6f", "fusion_lon": 0.0, "fusion_lat": 0.0, "is_disabled": 0, "name": "9942361d66c7824ff1c0380d2a329a6f", "type": "electric_scooter", "lon": -77.0005975}, {"is_reserved": 0, "lat": 38.918344833333336, "rental_uris": {"android": "https://dc.lft.to/lastmile_qr_scan", "ios": "https://dc.lft.to/lastmile_qr_scan"}, "bike_id": "53616e72206c39fa1bff54abb6344704", "fusion_lon": 0.0, "fusion_lat": 0.0, "is_disabled": 0, "name": "53616e72206c39fa1bff54abb6344704", "type": "electric_scooter", "lon": -77.04172616666666}, {"is_reserved": 0, "lat": 38.91833333333334, "rental_uris": {"android": "https://dc.lft.to/lastmile_qr_scan", "ios": "https://dc.lft.to/lastmile_qr_scan"}, "bike_id": "03c13530a2558fd53bb84d7b053694ae", "fusion_lon": 0.0, "fusion_lat": 0.0, "is_disabled": 0, "name": "03c13530a2558fd53bb84d7b053694ae", "type": "electric_scooter", "lon": -77.0317935}, {"is_reserved": 0, "lat": 38.903298, "rental_uris": {"android": "https://dc.lft.to/lastmile_qr_scan", "ios": "https://dc.lft.to/lastmile_qr_scan"}, "bike_id": "1579d3a97627b7d2fdc993512886ef9d", "fusion_lon": 0.0, "fusion_lat": 0.0, "is_disabled": 0, "name": "1579d3a97627b7d2fdc993512886ef9d", "type": "electric_bike", "lon": -77.045918}, {"is_reserved": 0, "lat": 38.90834783333333, "rental_uris": {"android": "https://dc.lft.to/lastmile_qr_scan", "ios": "https://dc.lft.to/lastmile_qr_scan"}, "bike_id": "b849b0cc52711cf1f557a4c6aa30be96", "fusion_lon": 0.0, "fusion_lat": 0.0, "is_disabled": 0, "name": "b849b0cc52711cf1f557a4c6aa30be96", "type": "electric_scooter", "lon": -77.03951866666667}, {"is_reserved": 0, "lat": 38.9132785, "rental_uris": {"android": "https://dc.lft.to/lastmile_qr_scan", "ios": "https://dc.lft.to/lastmile_qr_scan"}, "bike_id": "755bdf2a65145f8e168c1389c27e4eef", "fusion_lon": 0.0, "fusion_lat": 0.0, "is_disabled": 0, "name": "755bdf2a65145f8e168c1389c27e4eef", "type": "electric_scooter", "lon": -77.04559}, {"is_reserved": 0, "lat": 38.93081816666667, "rental_uris": {"android": "https://dc.lft.to/lastmile_qr_scan", "ios": "https://dc.lft.to/lastmile_qr_scan"}, "bike_id": "0fe0f9abbe02b41ccaa6e39a2fd328c1", "fusion_lon": 0.0, "fusion_lat": 0.0, "is_disabled": 0, "name": "0fe0f9abbe02b41ccaa6e39a2fd328c1", "type": "electric_scooter", "lon": -77.027939}, {"is_reserved": 0, "lat": 38.999945833333335, "rental_uris": {"android": "https://dc.lft.to/lastmile_qr_scan", "ios": "https://dc.lft.to/lastmile_qr_scan"}, "bike_id": "e9bfd5fffb4666dbb3fe9a0fc7c4a1c0", "fusion_lon": 0.0, "fusion_lat": 0.0, "is_disabled": 0, "name": "e9bfd5fffb4666dbb3fe9a0fc7c4a1c0", "type": "electric_bike", "lon": -76.9250025}, {"is_reserved": 0, "lat": 38.892195, "rental_uris": {"android": "https://dc.lft.to/lastmile_qr_scan", "ios": "https://dc.lft.to/lastmile_qr_scan"}, "bike_id": "fc5b5e2a5d11727200f5a6194c0136e4", "fusion_lon": 0.0, "fusion_lat": 0.0, "is_disabled": 0, "name": "fc5b5e2a5d11727200f5a6194c0136e4", "type": "electric_scooter", "lon": -77.032309}, {"is_reserved": 0, "lat": 38.9318655, "rental_uris": {"android": "https://dc.lft.to/lastmile_qr_scan", "ios": "https://dc.lft.to/lastmile_qr_scan"}, "bike_id": "8bb9a4429fee7b6102aeb996b320f7c8", "fusion_lon": 0.0, "fusion_lat": 0.0, "is_disabled": 0, "name": "8bb9a4429fee7b6102aeb996b320f7c8", "type": "electric_scooter", "lon": -77.02030233333333}, {"is_reserved": 0, "lat": 38.929829833333336, "rental_uris": {"android": "https://dc.lft.to/lastmile_qr_scan", "ios": "https://dc.lft.to/lastmile_qr_scan"}, "bike_id": "2d87022a10943b40c2ebd8b34c9d7b1f", "fusion_lon": 0.0, "fusion_lat": 0.0, "is_disabled": 0, "name": "2d87022a10943b40c2ebd8b34c9d7b1f", "type": "electric_scooter", "lon": -77.03271183333334}, {"is_reserved": 0, "lat": 38.916873333333335, "rental_uris": {"android": "https://dc.lft.to/lastmile_qr_scan", "ios": "https://dc.lft.to/lastmile_qr_scan"}, "bike_id": "f72adab1d93b711b64dc2906cf53b0c1", "fusion_lon": 0.0, "fusion_lat": 0.0, "is_disabled": 0, "name": "f72adab1d93b711b64dc2906cf53b0c1", "type": "electric_scooter", "lon": -77.03637333333333}, {"is_reserved": 0, "lat": 38.8960705, "rental_uris": {"android": "https://dc.lft.to/lastmile_qr_scan", "ios": "https://dc.lft.to/lastmile_qr_scan"}, "bike_id": "194d88517e825aae6c5bfc6bff8f365a", "fusion_lon": 0.0, "fusion_lat": 0.0, "is_disabled": 0, "name": "194d88517e825aae6c5bfc6bff8f365a", "type": "electric_scooter", "lon": -77.05468933333333}, {"is_reserved": 0, "lat": 38.9012095, "rental_uris": {"android": "https://dc.lft.to/lastmile_qr_scan", "ios": "https://dc.lft.to/lastmile_qr_scan"}, "bike_id": "02e8d369a0144696867123b94dfc48d1", "fusion_lon": 0.0, "fusion_lat": 0.0, "is_disabled": 0, "name": "02e8d369a0144696867123b94dfc48d1", "type": "electric_scooter", "lon": -77.031763}, {"is_reserved": 0, "lat": 38.911745, "rental_uris": {"android": "https://dc.lft.to/lastmile_qr_scan", "ios": "https://dc.lft.to/lastmile_qr_scan"}, "bike_id": "8d32ae7ea523079f30916b8f930767e1", "fusion_lon": 0.0, "fusion_lat": 0.0, "is_disabled": 0, "name": "8d32ae7ea523079f30916b8f930767e1", "type": "electric_scooter", "lon": -77.03867133333334}, {"is_reserved": 0, "lat": 38.92459183333333, "rental_uris": {"android": "https://dc.lft.to/lastmile_qr_scan", "ios": "https://dc.lft.to/lastmile_qr_scan"}, "bike_id": "7053c5ace78fdf6fd1c9bb7deb874356", "fusion_lon": 0.0, "fusion_lat": 0.0, "is_disabled": 0, "name": "7053c5ace78fdf6fd1c9bb7deb874356", "type": "electric_scooter", "lon": -77.05757866666667}, {"is_reserved": 0, "lat": 38.89930533333333, "rental_uris": {"android": "https://dc.lft.to/lastmile_qr_scan", "ios": "https://dc.lft.to/lastmile_qr_scan"}, "bike_id": "50fa3d9ef7e21db8189e701caffc5761", "fusion_lon": 0.0, "fusion_lat": 0.0, "is_disabled": 0, "name": "50fa3d9ef7e21db8189e701caffc5761", "type": "electric_scooter", "lon": -77.02565333333334}, {"is_reserved": 0, "lat": 38.9103155, "rental_uris": {"android": "https://dc.lft.to/lastmile_qr_scan", "ios": "https://dc.lft.to/lastmile_qr_scan"}, "bike_id": "f0768a078d90062707578ec5b300c73a", "fusion_lon": 0.0, "fusion_lat": 0.0, "is_disabled": 0, "name": "f0768a078d90062707578ec5b300c73a", "type": "electric_scooter", "lon": -77.03869083333333}, {"is_reserved": 0, "lat": 38.91619133333333, "rental_uris": {"android": "https://dc.lft.to/lastmile_qr_scan", "ios": "https://dc.lft.to/lastmile_qr_scan"}, "bike_id": "6bc7fdf05e9ddb4f07d860b36e4dec0f", "fusion_lon": 0.0, "fusion_lat": 0.0, "is_disabled": 0, "name": "6bc7fdf05e9ddb4f07d860b36e4dec0f", "type": "electric_scooter", "lon": -77.02169066666667}, {"is_reserved": 0, "lat": 38.902803166666665, "rental_uris": {"android": "https://dc.lft.to/lastmile_qr_scan", "ios": "https://dc.lft.to/lastmile_qr_scan"}, "bike_id": "0badcb8a16121e8bc3a22639caaa14ca", "fusion_lon": 0.0, "fusion_lat": 0.0, "is_disabled": 0, "name": "0badcb8a16121e8bc3a22639caaa14ca", "type": "electric_scooter", "lon": -77.03645683333333}, {"is_reserved": 0, "lat": 38.9066245, "rental_uris": {"android": "https://dc.lft.to/lastmile_qr_scan", "ios": "https://dc.lft.to/lastmile_qr_scan"}, "bike_id": "33164055652678f356edb75587791b0d", "fusion_lon": 0.0, "fusion_lat": 0.0, "is_disabled": 0, "name": "33164055652678f356edb75587791b0d", "type": "electric_scooter", "lon": -77.05012166666667}, {"is_reserved": 0, "lat": 38.90596883333333, "rental_uris": {"android": "https://dc.lft.to/lastmile_qr_scan", "ios": "https://dc.lft.to/lastmile_qr_scan"}, "bike_id": "3460bdfed3c9ad868c5c8cfd739c4ebb", "fusion_lon": 0.0, "fusion_lat": 0.0, "is_disabled": 0, "name": "3460bdfed3c9ad868c5c8cfd739c4ebb", "type": "electric_scooter", "lon": -77.00611516666666}, {"is_reserved": 0, "lat": 38.9140965, "rental_uris": {"android": "https://dc.lft.to/lastmile_qr_scan", "ios": "https://dc.lft.to/lastmile_qr_scan"}, "bike_id": "f71b6a030a0534255a69d76173bc03ba", "fusion_lon": 0.0, "fusion_lat": 0.0, "is_disabled": 0, "name": "f71b6a030a0534255a69d76173bc03ba", "type": "electric_scooter", "lon": -77.02607383333333}, {"is_reserved": 0, "lat": 38.91984583333333, "rental_uris": {"android": "https://dc.lft.to/lastmile_qr_scan", "ios": "https://dc.lft.to/lastmile_qr_scan"}, "bike_id": "79b902751e717f64f7723a73a4e1ef6e", "fusion_lon": 0.0, "fusion_lat": 0.0, "is_disabled": 0, "name": "79b902751e717f64f7723a73a4e1ef6e", "type": "electric_scooter", "lon": -77.023852}, {"is_reserved": 0, "lat": 38.893864666666666, "rental_uris": {"android": "https://dc.lft.to/lastmile_qr_scan", "ios": "https://dc.lft.to/lastmile_qr_scan"}, "bike_id": "cb399eec8c338e09c4a4b0c39f79b0e1", "fusion_lon": 0.0, "fusion_lat": 0.0, "is_disabled": 0, "name": "cb399eec8c338e09c4a4b0c39f79b0e1", "type": "electric_scooter", "lon": -76.9500125}, {"is_reserved": 0, "lat": 38.9002735, "rental_uris": {"android": "https://dc.lft.to/lastmile_qr_scan", "ios": "https://dc.lft.to/lastmile_qr_scan"}, "bike_id": "eafd59be62e487c4c1c601845a35759c", "fusion_lon": 0.0, "fusion_lat": 0.0, "is_disabled": 0, "name": "eafd59be62e487c4c1c601845a35759c", "type": "electric_scooter", "lon": -77.026098}, {"is_reserved": 0, "lat": 38.918619, "rental_uris": {"android": "https://dc.lft.to/lastmile_qr_scan", "ios": "https://dc.lft.to/lastmile_qr_scan"}, "bike_id": "e0c68c9ac0a1758146a1abf94fbf1c70", "fusion_lon": 0.0, "fusion_lat": 0.0, "is_disabled": 0, "name": "e0c68c9ac0a1758146a1abf94fbf1c70", "type": "electric_scooter", "lon": -77.03662183333333}, {"is_reserved": 0, "lat": 38.917571333333335, "rental_uris": {"android": "https://dc.lft.to/lastmile_qr_scan", "ios": "https://dc.lft.to/lastmile_qr_scan"}, "bike_id": "51431becef108ea0bef13ba27176099d", "fusion_lon": 0.0, "fusion_lat": 0.0, "is_disabled": 0, "name": "51431becef108ea0bef13ba27176099d", "type": "electric_scooter", "lon": -77.0319445}, {"is_reserved": 0, "lat": 38.9180215, "rental_uris": {"android": "https://dc.lft.to/lastmile_qr_scan", "ios": "https://dc.lft.to/lastmile_qr_scan"}, "bike_id": "8f08e9fcb1df2ddb6f81ee143b524a81", "fusion_lon": 0.0, "fusion_lat": 0.0, "is_disabled": 0, "name": "8f08e9fcb1df2ddb6f81ee143b524a81", "type": "electric_scooter", "lon": -77.03190316666667}, {"is_reserved": 0, "lat": 38.93945166666666, "rental_uris": {"android": "https://dc.lft.to/lastmile_qr_scan", "ios": "https://dc.lft.to/lastmile_qr_scan"}, "bike_id": "fd50774cf54909c712fdf020728d5d17", "fusion_lon": 0.0, "fusion_lat": 0.0, "is_disabled": 0, "name": "fd50774cf54909c712fdf020728d5d17", "type": "electric_bike", "lon": -77.36097883333333}, {"is_reserved": 0, "lat": 38.88176133333333, "rental_uris": {"android": "https://dc.lft.to/lastmile_qr_scan", "ios": "https://dc.lft.to/lastmile_qr_scan"}, "bike_id": "a0302845553bdaf63ff2f6813a0734d9", "fusion_lon": 0.0, "fusion_lat": 0.0, "is_disabled": 0, "name": "a0302845553bdaf63ff2f6813a0734d9", "type": "electric_scooter", "lon": -77.03735383333333}, {"is_reserved": 0, "lat": 38.89571216666667, "rental_uris": {"android": "https://dc.lft.to/lastmile_qr_scan", "ios": "https://dc.lft.to/lastmile_qr_scan"}, "bike_id": "61d5e1ea0514e36a1cdcbacdcf4a3c72", "fusion_lon": 0.0, "fusion_lat": 0.0, "is_disabled": 0, "name": "61d5e1ea0514e36a1cdcbacdcf4a3c72", "type": "electric_scooter", "lon": -76.93040933333333}, {"is_reserved": 0, "lat": 38.906264666666665, "rental_uris": {"android": "https://dc.lft.to/lastmile_qr_scan", "ios": "https://dc.lft.to/lastmile_qr_scan"}, "bike_id": "83187e35e116480243a2062a88d2f1eb", "fusion_lon": 0.0, "fusion_lat": 0.0, "is_disabled": 0, "name": "83187e35e116480243a2062a88d2f1eb", "type": "electric_scooter", "lon": -77.03145833333333}, {"is_reserved": 0, "lat": 38.91416383333333, "rental_uris": {"android": "https://dc.lft.to/lastmile_qr_scan", "ios": "https://dc.lft.to/lastmile_qr_scan"}, "bike_id": "2edf561b4e04431b3937e9be410a02e8", "fusion_lon": 0.0, "fusion_lat": 0.0, "is_disabled": 0, "name": "2edf561b4e04431b3937e9be410a02e8", "type": "electric_scooter", "lon": -77.02950233333334}, {"is_reserved": 0, "lat": 38.89907, "rental_uris": {"android": "https://dc.lft.to/lastmile_qr_scan", "ios": "https://dc.lft.to/lastmile_qr_scan"}, "bike_id": "48ef52486a469db9da50b5622d35866a", "fusion_lon": 0.0, "fusion_lat": 0.0, "is_disabled": 0, "name": "48ef52486a469db9da50b5622d35866a", "type": "electric_scooter", "lon": -76.93352683333333}, {"is_reserved": 0, "lat": 38.952879833333334, "rental_uris": {"android": "https://dc.lft.to/lastmile_qr_scan", "ios": "https://dc.lft.to/lastmile_qr_scan"}, "bike_id": "82af7fb815e79be0579283d44b859e38", "fusion_lon": 0.0, "fusion_lat": 0.0, "is_disabled": 0, "name": "82af7fb815e79be0579283d44b859e38", "type": "electric_bike", "lon": -76.94600416666667}, {"is_reserved": 0, "lat": 38.969855333333335, "rental_uris": {"android": "https://dc.lft.to/lastmile_qr_scan", "ios": "https://dc.lft.to/lastmile_qr_scan"}, "bike_id": "f6bb0c1e3fd9b1356cbbe4f712603eac", "fusion_lon": 0.0, "fusion_lat": 0.0, "is_disabled": 0, "name": "f6bb0c1e3fd9b1356cbbe4f712603eac", "type": "electric_bike", "lon": -76.999631}, {"is_reserved": 0, "lat": 38.926409, "rental_uris": {"android": "https://dc.lft.to/lastmile_qr_scan", "ios": "https://dc.lft.to/lastmile_qr_scan"}, "bike_id": "334de9e31737dda91d4a6891d53fb7c6", "fusion_lon": 0.0, "fusion_lat": 0.0, "is_disabled": 0, "name": "334de9e31737dda91d4a6891d53fb7c6", "type": "electric_scooter", "lon": -77.036956}, {"is_reserved": 0, "lat": 38.93361483333333, "rental_uris": {"android": "https://dc.lft.to/lastmile_qr_scan", "ios": "https://dc.lft.to/lastmile_qr_scan"}, "bike_id": "9ec9f8c40c318c8cec755ac1019ffba2", "fusion_lon": 0.0, "fusion_lat": 0.0, "is_disabled": 0, "name": "9ec9f8c40c318c8cec755ac1019ffba2", "type": "electric_scooter", "lon": -77.05731433333334}, {"is_reserved": 0, "lat": 38.90921433333333, "rental_uris": {"android": "https://dc.lft.to/lastmile_qr_scan", "ios": "https://dc.lft.to/lastmile_qr_scan"}, "bike_id": "0e70a5f863402f6ac3708257669d0c13", "fusion_lon": 0.0, "fusion_lat": 0.0, "is_disabled": 0, "name": "0e70a5f863402f6ac3708257669d0c13", "type": "electric_bike", "lon": -76.99900166666667}, {"is_reserved": 0, "lat": 38.96223033333333, "rental_uris": {"android": "https://dc.lft.to/lastmile_qr_scan", "ios": "https://dc.lft.to/lastmile_qr_scan"}, "bike_id": "404bba45c5a8230aa6f5dd5f877425c2", "fusion_lon": 0.0, "fusion_lat": 0.0, "is_disabled": 0, "name": "404bba45c5a8230aa6f5dd5f877425c2", "type": "electric_bike", "lon": -77.0261985}, {"is_reserved": 0, "lat": 38.898458, "rental_uris": {"android": "https://dc.lft.to/lastmile_qr_scan", "ios": "https://dc.lft.to/lastmile_qr_scan"}, "bike_id": "ffa2b0ae99a99fb8aee4431e3ce2bb44", "fusion_lon": 0.0, "fusion_lat": 0.0, "is_disabled": 0, "name": "ffa2b0ae99a99fb8aee4431e3ce2bb44", "type": "electric_scooter", "lon": -76.9463335}, {"is_reserved": 0, "lat": 38.88139066666667, "rental_uris": {"android": "https://dc.lft.to/lastmile_qr_scan", "ios": "https://dc.lft.to/lastmile_qr_scan"}, "bike_id": "533f6165f6df3b5a33784c5c2599d370", "fusion_lon": 0.0, "fusion_lat": 0.0, "is_disabled": 0, "name": "533f6165f6df3b5a33784c5c2599d370", "type": "electric_scooter", "lon": -77.01318733333333}, {"is_reserved": 0, "lat": 38.917645, "rental_uris": {"android": "https://dc.lft.to/lastmile_qr_scan", "ios": "https://dc.lft.to/lastmile_qr_scan"}, "bike_id": "e59922656ed7f73a462ca6a0b3039a39", "fusion_lon": 0.0, "fusion_lat": 0.0, "is_disabled": 0, "name": "e59922656ed7f73a462ca6a0b3039a39", "type": "electric_scooter", "lon": -77.02334566666667}, {"is_reserved": 0, "lat": 38.898813833333335, "rental_uris": {"android": "https://dc.lft.to/lastmile_qr_scan", "ios": "https://dc.lft.to/lastmile_qr_scan"}, "bike_id": "e9761ce6b0bf2692b1807490a264dc51", "fusion_lon": 0.0, "fusion_lat": 0.0, "is_disabled": 0, "name": "e9761ce6b0bf2692b1807490a264dc51", "type": "electric_scooter", "lon": -77.032748}, {"is_reserved": 0, "lat": 38.907689833333336, "rental_uris": {"android": "https://dc.lft.to/lastmile_qr_scan", "ios": "https://dc.lft.to/lastmile_qr_scan"}, "bike_id": "8cbe61c60540620bf991736a57181135", "fusion_lon": 0.0, "fusion_lat": 0.0, "is_disabled": 0, "name": "8cbe61c60540620bf991736a57181135", "type": "electric_scooter", "lon": -77.0425985}, {"is_reserved": 0, "lat": 38.910468333333334, "rental_uris": {"android": "https://dc.lft.to/lastmile_qr_scan", "ios": "https://dc.lft.to/lastmile_qr_scan"}, "bike_id": "2c20e2173339ade3e77e5ed949467cdf", "fusion_lon": 0.0, "fusion_lat": 0.0, "is_disabled": 0, "name": "2c20e2173339ade3e77e5ed949467cdf", "type": "electric_scooter", "lon": -77.01513966666667}, {"is_reserved": 0, "lat": 38.911946, "rental_uris": {"android": "https://dc.lft.to/lastmile_qr_scan", "ios": "https://dc.lft.to/lastmile_qr_scan"}, "bike_id": "eac9590d3f2234703e32a9124df7cfa7", "fusion_lon": 0.0, "fusion_lat": 0.0, "is_disabled": 0, "name": "eac9590d3f2234703e32a9124df7cfa7", "type": "electric_scooter", "lon": -77.04487383333333}, {"is_reserved": 0, "lat": 38.916902, "rental_uris": {"android": "https://dc.lft.to/lastmile_qr_scan", "ios": "https://dc.lft.to/lastmile_qr_scan"}, "bike_id": "72ecf4159b34b80ed0432a62d6074751", "fusion_lon": 0.0, "fusion_lat": 0.0, "is_disabled": 0, "name": "72ecf4159b34b80ed0432a62d6074751", "type": "electric_scooter", "lon": -77.02687233333333}, {"is_reserved": 0, "lat": 38.9552625, "rental_uris": {"android": "https://dc.lft.to/lastmile_qr_scan", "ios": "https://dc.lft.to/lastmile_qr_scan"}, "bike_id": "7729ad7a8a2113c210856b4591992e35", "fusion_lon": 0.0, "fusion_lat": 0.0, "is_disabled": 0, "name": "7729ad7a8a2113c210856b4591992e35", "type": "electric_scooter", "lon": -77.070098}, {"is_reserved": 0, "lat": 38.900713333333336, "rental_uris": {"android": "https://dc.lft.to/lastmile_qr_scan", "ios": "https://dc.lft.to/lastmile_qr_scan"}, "bike_id": "b4b939f24b5f190bbde368ed68af7323", "fusion_lon": 0.0, "fusion_lat": 0.0, "is_disabled": 0, "name": "b4b939f24b5f190bbde368ed68af7323", "type": "electric_scooter", "lon": -77.02672266666667}, {"is_reserved": 0, "lat": 38.90735566666667, "rental_uris": {"android": "https://dc.lft.to/lastmile_qr_scan", "ios": "https://dc.lft.to/lastmile_qr_scan"}, "bike_id": "e6604f6e791f6a3171015f74fc61e7eb", "fusion_lon": 0.0, "fusion_lat": 0.0, "is_disabled": 0, "name": "e6604f6e791f6a3171015f74fc61e7eb", "type": "electric_scooter", "lon": -77.0259145}, {"is_reserved": 0, "lat": 38.893440166666664, "rental_uris": {"android": "https://dc.lft.to/lastmile_qr_scan", "ios": "https://dc.lft.to/lastmile_qr_scan"}, "bike_id": "6b68a267052ae8be899b5fab8558f29d", "fusion_lon": 0.0, "fusion_lat": 0.0, "is_disabled": 0, "name": "6b68a267052ae8be899b5fab8558f29d", "type": "electric_bike", "lon": -77.1874405}, {"is_reserved": 0, "lat": 38.95877516666667, "rental_uris": {"android": "https://dc.lft.to/lastmile_qr_scan", "ios": "https://dc.lft.to/lastmile_qr_scan"}, "bike_id": "ce2d9f7da5dde484edbdf9c220f63388", "fusion_lon": 0.0, "fusion_lat": 0.0, "is_disabled": 0, "name": "ce2d9f7da5dde484edbdf9c220f63388", "type": "electric_bike", "lon": -77.01032916666666}, {"is_reserved": 0, "lat": 39.015621333333335, "rental_uris": {"android": "https://dc.lft.to/lastmile_qr_scan", "ios": "https://dc.lft.to/lastmile_qr_scan"}, "bike_id": "44c268395946341f14b61ad639862ed0", "fusion_lon": 0.0, "fusion_lat": 0.0, "is_disabled": 0, "name": "44c268395946341f14b61ad639862ed0", "type": "electric_bike", "lon": -77.0441335}, {"is_reserved": 0, "lat": 38.92208316666667, "rental_uris": {"android": "https://dc.lft.to/lastmile_qr_scan", "ios": "https://dc.lft.to/lastmile_qr_scan"}, "bike_id": "7937fde85f0f92402d3b1fc4fc20f98f", "fusion_lon": 0.0, "fusion_lat": 0.0, "is_disabled": 0, "name": "7937fde85f0f92402d3b1fc4fc20f98f", "type": "electric_scooter", "lon": -77.0402125}, {"is_reserved": 0, "lat": 38.914159166666664, "rental_uris": {"android": "https://dc.lft.to/lastmile_qr_scan", "ios": "https://dc.lft.to/lastmile_qr_scan"}, "bike_id": "594dff69a87b51a90a3d819cde738f24", "fusion_lon": 0.0, "fusion_lat": 0.0, "is_disabled": 0, "name": "594dff69a87b51a90a3d819cde738f24", "type": "electric_scooter", "lon": -77.0260775}, {"is_reserved": 0, "lat": 38.95399466666667, "rental_uris": {"android": "https://dc.lft.to/lastmile_qr_scan", "ios": "https://dc.lft.to/lastmile_qr_scan"}, "bike_id": "ce62b56f74a455273f3f26019e6c4280", "fusion_lon": 0.0, "fusion_lat": 0.0, "is_disabled": 0, "name": "ce62b56f74a455273f3f26019e6c4280", "type": "electric_scooter", "lon": -77.0362845}, {"is_reserved": 0, "lat": 38.9180685, "rental_uris": {"android": "https://dc.lft.to/lastmile_qr_scan", "ios": "https://dc.lft.to/lastmile_qr_scan"}, "bike_id": "fcde5c922a1b71825d8654381b715315", "fusion_lon": 0.0, "fusion_lat": 0.0, "is_disabled": 0, "name": "fcde5c922a1b71825d8654381b715315", "type": "electric_scooter", "lon": -77.04026933333333}, {"is_reserved": 0, "lat": 38.8991495, "rental_uris": {"android": "https://dc.lft.to/lastmile_qr_scan", "ios": "https://dc.lft.to/lastmile_qr_scan"}, "bike_id": "8c7864c6e7b5eccdeb06aabf7353f739", "fusion_lon": 0.0, "fusion_lat": 0.0, "is_disabled": 0, "name": "8c7864c6e7b5eccdeb06aabf7353f739", "type": "electric_scooter", "lon": -77.026805}, {"is_reserved": 0, "lat": 38.88266933333333, "rental_uris": {"android": "https://dc.lft.to/lastmile_qr_scan", "ios": "https://dc.lft.to/lastmile_qr_scan"}, "bike_id": "c970959cd0d240009559fe30af103a90", "fusion_lon": 0.0, "fusion_lat": 0.0, "is_disabled": 0, "name": "c970959cd0d240009559fe30af103a90", "type": "electric_scooter", "lon": -77.003751}, {"is_reserved": 0, "lat": 38.90524683333334, "rental_uris": {"android": "https://dc.lft.to/lastmile_qr_scan", "ios": "https://dc.lft.to/lastmile_qr_scan"}, "bike_id": "2dbd30035a677bd6d9e35dde8f222cd4", "fusion_lon": 0.0, "fusion_lat": 0.0, "is_disabled": 0, "name": "2dbd30035a677bd6d9e35dde8f222cd4", "type": "electric_scooter", "lon": -77.04184733333334}, {"is_reserved": 0, "lat": 38.91565, "rental_uris": {"android": "https://dc.lft.to/lastmile_qr_scan", "ios": "https://dc.lft.to/lastmile_qr_scan"}, "bike_id": "d89b56564875026fc830a7e0c61acf1a", "fusion_lon": 0.0, "fusion_lat": 0.0, "is_disabled": 0, "name": "d89b56564875026fc830a7e0c61acf1a", "type": "electric_scooter", "lon": -77.04005383333333}, {"is_reserved": 0, "lat": 38.92018266666667, "rental_uris": {"android": "https://dc.lft.to/lastmile_qr_scan", "ios": "https://dc.lft.to/lastmile_qr_scan"}, "bike_id": "c7fc07ba3f3251eb76fea9d5fc63016b", "fusion_lon": 0.0, "fusion_lat": 0.0, "is_disabled": 0, "name": "c7fc07ba3f3251eb76fea9d5fc63016b", "type": "electric_scooter", "lon": -77.03222766666667}, {"is_reserved": 0, "lat": 38.9260675, "rental_uris": {"android": "https://dc.lft.to/lastmile_qr_scan", "ios": "https://dc.lft.to/lastmile_qr_scan"}, "bike_id": "c759f75c54b20e1d791bdd5db96c704a", "fusion_lon": 0.0, "fusion_lat": 0.0, "is_disabled": 0, "name": "c759f75c54b20e1d791bdd5db96c704a", "type": "electric_scooter", "lon": -76.9959795}, {"is_reserved": 0, "lat": 38.8899985, "rental_uris": {"android": "https://dc.lft.to/lastmile_qr_scan", "ios": "https://dc.lft.to/lastmile_qr_scan"}, "bike_id": "0dfda397f72243a3c4d196f251f22f2b", "fusion_lon": 0.0, "fusion_lat": 0.0, "is_disabled": 0, "name": "0dfda397f72243a3c4d196f251f22f2b", "type": "electric_scooter", "lon": -76.954178}, {"is_reserved": 0, "lat": 38.89731966666667, "rental_uris": {"android": "https://dc.lft.to/lastmile_qr_scan", "ios": "https://dc.lft.to/lastmile_qr_scan"}, "bike_id": "f2c2212f0ee79840dc1ce4a0fd2fa2ab", "fusion_lon": 0.0, "fusion_lat": 0.0, "is_disabled": 0, "name": "f2c2212f0ee79840dc1ce4a0fd2fa2ab", "type": "electric_scooter", "lon": -77.02164566666667}, {"is_reserved": 0, "lat": 38.91360566666667, "rental_uris": {"android": "https://dc.lft.to/lastmile_qr_scan", "ios": "https://dc.lft.to/lastmile_qr_scan"}, "bike_id": "b6d8b038fa9a2cc40b8a4e24b2444da2", "fusion_lon": 0.0, "fusion_lat": 0.0, "is_disabled": 0, "name": "b6d8b038fa9a2cc40b8a4e24b2444da2", "type": "electric_scooter", "lon": -77.03958}, {"is_reserved": 0, "lat": 38.89913466666667, "rental_uris": {"android": "https://dc.lft.to/lastmile_qr_scan", "ios": "https://dc.lft.to/lastmile_qr_scan"}, "bike_id": "6917d82e1d653c7ff5e842a7cb37b592", "fusion_lon": 0.0, "fusion_lat": 0.0, "is_disabled": 0, "name": "6917d82e1d653c7ff5e842a7cb37b592", "type": "electric_scooter", "lon": -77.02795033333334}, {"is_reserved": 0, "lat": 38.8661655, "rental_uris": {"android": "https://dc.lft.to/lastmile_qr_scan", "ios": "https://dc.lft.to/lastmile_qr_scan"}, "bike_id": "176b93585fc234146474c861a3a69389", "fusion_lon": 0.0, "fusion_lat": 0.0, "is_disabled": 0, "name": "176b93585fc234146474c861a3a69389", "type": "electric_scooter", "lon": -76.98696183333334}, {"is_reserved": 0, "lat": 38.9168465, "rental_uris": {"android": "https://dc.lft.to/lastmile_qr_scan", "ios": "https://dc.lft.to/lastmile_qr_scan"}, "bike_id": "3e106acf89cbe95ed57bf667336f8171", "fusion_lon": 0.0, "fusion_lat": 0.0, "is_disabled": 0, "name": "3e106acf89cbe95ed57bf667336f8171", "type": "electric_scooter", "lon": -77.04142166666666}, {"is_reserved": 0, "lat": 38.905168833333335, "rental_uris": {"android": "https://dc.lft.to/lastmile_qr_scan", "ios": "https://dc.lft.to/lastmile_qr_scan"}, "bike_id": "d91b2d1dd2f8974afd7b36d4814c9ae0", "fusion_lon": 0.0, "fusion_lat": 0.0, "is_disabled": 0, "name": "d91b2d1dd2f8974afd7b36d4814c9ae0", "type": "electric_scooter", "lon": -77.04340166666667}, {"is_reserved": 0, "lat": 38.905185333333336, "rental_uris": {"android": "https://dc.lft.to/lastmile_qr_scan", "ios": "https://dc.lft.to/lastmile_qr_scan"}, "bike_id": "3007a03b5c0b09d65224f13f210144e9", "fusion_lon": 0.0, "fusion_lat": 0.0, "is_disabled": 0, "name": "3007a03b5c0b09d65224f13f210144e9", "type": "electric_scooter", "lon": -77.04180683333334}, {"is_reserved": 0, "lat": 38.949225166666665, "rental_uris": {"android": "https://dc.lft.to/lastmile_qr_scan", "ios": "https://dc.lft.to/lastmile_qr_scan"}, "bike_id": "02a3e8c07aaa047ebd5e48995dc5db71", "fusion_lon": 0.0, "fusion_lat": 0.0, "is_disabled": 0, "name": "02a3e8c07aaa047ebd5e48995dc5db71", "type": "electric_scooter", "lon": -77.01934333333334}, {"is_reserved": 0, "lat": 38.842690166666664, "rental_uris": {"android": "https://dc.lft.to/lastmile_qr_scan", "ios": "https://dc.lft.to/lastmile_qr_scan"}, "bike_id": "548357cd7063866a4b0eb8966044bee3", "fusion_lon": 0.0, "fusion_lat": 0.0, "is_disabled": 0, "name": "548357cd7063866a4b0eb8966044bee3", "type": "electric_bike", "lon": -76.98842066666667}, {"is_reserved": 0, "lat": 38.926398666666664, "rental_uris": {"android": "https://dc.lft.to/lastmile_qr_scan", "ios": "https://dc.lft.to/lastmile_qr_scan"}, "bike_id": "604d7ef0a3329c8b31dd47cf16b1e4d0", "fusion_lon": 0.0, "fusion_lat": 0.0, "is_disabled": 0, "name": "604d7ef0a3329c8b31dd47cf16b1e4d0", "type": "electric_bike", "lon": -77.028403}, {"is_reserved": 0, "lat": 38.91691016666667, "rental_uris": {"android": "https://dc.lft.to/lastmile_qr_scan", "ios": "https://dc.lft.to/lastmile_qr_scan"}, "bike_id": "1e9b90abfd726b1fe2e3536ab94ac93f", "fusion_lon": 0.0, "fusion_lat": 0.0, "is_disabled": 0, "name": "1e9b90abfd726b1fe2e3536ab94ac93f", "type": "electric_scooter", "lon": -77.037707}, {"is_reserved": 0, "lat": 38.8773195, "rental_uris": {"android": "https://dc.lft.to/lastmile_qr_scan", "ios": "https://dc.lft.to/lastmile_qr_scan"}, "bike_id": "be1c3f5e47d0a24f886db8d977c1f5e6", "fusion_lon": 0.0, "fusion_lat": 0.0, "is_disabled": 0, "name": "be1c3f5e47d0a24f886db8d977c1f5e6", "type": "electric_bike", "lon": -77.1185075}, {"is_reserved": 0, "lat": 38.907292166666664, "rental_uris": {"android": "https://dc.lft.to/lastmile_qr_scan", "ios": "https://dc.lft.to/lastmile_qr_scan"}, "bike_id": "bb6f6a2927a02345cd57f332a924ce56", "fusion_lon": 0.0, "fusion_lat": 0.0, "is_disabled": 0, "name": "bb6f6a2927a02345cd57f332a924ce56", "type": "electric_scooter", "lon": -77.02763016666667}, {"is_reserved": 0, "lat": 38.9091815, "rental_uris": {"android": "https://dc.lft.to/lastmile_qr_scan", "ios": "https://dc.lft.to/lastmile_qr_scan"}, "bike_id": "5cdef63e4dff6a2356e80ccbb2baa688", "fusion_lon": 0.0, "fusion_lat": 0.0, "is_disabled": 0, "name": "5cdef63e4dff6a2356e80ccbb2baa688", "type": "electric_scooter", "lon": -77.0802505}, {"is_reserved": 0, "lat": 38.951824333333334, "rental_uris": {"android": "https://dc.lft.to/lastmile_qr_scan", "ios": "https://dc.lft.to/lastmile_qr_scan"}, "bike_id": "bc575d23059f9f19f789721c178c4433", "fusion_lon": 0.0, "fusion_lat": 0.0, "is_disabled": 0, "name": "bc575d23059f9f19f789721c178c4433", "type": "electric_bike", "lon": -76.93542933333333}, {"is_reserved": 0, "lat": 38.91921683333333, "rental_uris": {"android": "https://dc.lft.to/lastmile_qr_scan", "ios": "https://dc.lft.to/lastmile_qr_scan"}, "bike_id": "8faf4183ca99939240bc83fc7a2ff76d", "fusion_lon": 0.0, "fusion_lat": 0.0, "is_disabled": 0, "name": "8faf4183ca99939240bc83fc7a2ff76d", "type": "electric_scooter", "lon": -77.04505616666667}, {"is_reserved": 0, "lat": 38.89216166666667, "rental_uris": {"android": "https://dc.lft.to/lastmile_qr_scan", "ios": "https://dc.lft.to/lastmile_qr_scan"}, "bike_id": "c1d6b89bd614beedf46e63c8c8d499bf", "fusion_lon": 0.0, "fusion_lat": 0.0, "is_disabled": 0, "name": "c1d6b89bd614beedf46e63c8c8d499bf", "type": "electric_scooter", "lon": -77.03127833333333}, {"is_reserved": 0, "lat": 38.867494666666666, "rental_uris": {"android": "https://dc.lft.to/lastmile_qr_scan", "ios": "https://dc.lft.to/lastmile_qr_scan"}, "bike_id": "2894a83a26780d52314db466e7d27a94", "fusion_lon": 0.0, "fusion_lat": 0.0, "is_disabled": 0, "name": "2894a83a26780d52314db466e7d27a94", "type": "electric_scooter", "lon": -76.9766295}, {"is_reserved": 0, "lat": 38.94632816666667, "rental_uris": {"android": "https://dc.lft.to/lastmile_qr_scan", "ios": "https://dc.lft.to/lastmile_qr_scan"}, "bike_id": "46a2833d5196be2ab3b4804bba37cc5b", "fusion_lon": 0.0, "fusion_lat": 0.0, "is_disabled": 0, "name": "46a2833d5196be2ab3b4804bba37cc5b", "type": "electric_scooter", "lon": -77.01845433333334}, {"is_reserved": 0, "lat": 38.90728033333333, "rental_uris": {"android": "https://dc.lft.to/lastmile_qr_scan", "ios": "https://dc.lft.to/lastmile_qr_scan"}, "bike_id": "1051aca4e8a481d933b84d167275a954", "fusion_lon": 0.0, "fusion_lat": 0.0, "is_disabled": 0, "name": "1051aca4e8a481d933b84d167275a954", "type": "electric_scooter", "lon": -77.02765366666667}, {"is_reserved": 0, "lat": 38.903239666666664, "rental_uris": {"android": "https://dc.lft.to/lastmile_qr_scan", "ios": "https://dc.lft.to/lastmile_qr_scan"}, "bike_id": "a63e766bdb136edc472c341c853ab346", "fusion_lon": 0.0, "fusion_lat": 0.0, "is_disabled": 0, "name": "a63e766bdb136edc472c341c853ab346", "type": "electric_scooter", "lon": -77.06308366666667}, {"is_reserved": 0, "lat": 38.933621333333335, "rental_uris": {"android": "https://dc.lft.to/lastmile_qr_scan", "ios": "https://dc.lft.to/lastmile_qr_scan"}, "bike_id": "c9e8d87c1de171ec089671facd37381e", "fusion_lon": 0.0, "fusion_lat": 0.0, "is_disabled": 0, "name": "c9e8d87c1de171ec089671facd37381e", "type": "electric_scooter", "lon": -77.05738433333333}, {"is_reserved": 0, "lat": 38.90547766666667, "rental_uris": {"android": "https://dc.lft.to/lastmile_qr_scan", "ios": "https://dc.lft.to/lastmile_qr_scan"}, "bike_id": "1d47c3e3e594274811ef682944aa0f8d", "fusion_lon": 0.0, "fusion_lat": 0.0, "is_disabled": 0, "name": "1d47c3e3e594274811ef682944aa0f8d", "type": "electric_scooter", "lon": -77.0495735}, {"is_reserved": 0, "lat": 38.93419333333333, "rental_uris": {"android": "https://dc.lft.to/lastmile_qr_scan", "ios": "https://dc.lft.to/lastmile_qr_scan"}, "bike_id": "1a6f6b85c167284839744031485d7f99", "fusion_lon": 0.0, "fusion_lat": 0.0, "is_disabled": 0, "name": "1a6f6b85c167284839744031485d7f99", "type": "electric_scooter", "lon": -77.05550116666667}, {"is_reserved": 0, "lat": 38.91112416666667, "rental_uris": {"android": "https://dc.lft.to/lastmile_qr_scan", "ios": "https://dc.lft.to/lastmile_qr_scan"}, "bike_id": "58ede63eac543fd320b7f5e9fed467ad", "fusion_lon": 0.0, "fusion_lat": 0.0, "is_disabled": 0, "name": "58ede63eac543fd320b7f5e9fed467ad", "type": "electric_scooter", "lon": -77.04815966666666}, {"is_reserved": 0, "lat": 38.813440666666665, "rental_uris": {"android": "https://dc.lft.to/lastmile_qr_scan", "ios": "https://dc.lft.to/lastmile_qr_scan"}, "bike_id": "b978a11083739d6143afc039affe4e0f", "fusion_lon": 0.0, "fusion_lat": 0.0, "is_disabled": 0, "name": "b978a11083739d6143afc039affe4e0f", "type": "electric_bike", "lon": -77.04923633333334}, {"is_reserved": 0, "lat": 38.911261, "rental_uris": {"android": "https://dc.lft.to/lastmile_qr_scan", "ios": "https://dc.lft.to/lastmile_qr_scan"}, "bike_id": "2c91629ca71f50603000b02d92af8541", "fusion_lon": 0.0, "fusion_lat": 0.0, "is_disabled": 0, "name": "2c91629ca71f50603000b02d92af8541", "type": "electric_scooter", "lon": -77.02693483333333}, {"is_reserved": 0, "lat": 38.91141666666667, "rental_uris": {"android": "https://dc.lft.to/lastmile_qr_scan", "ios": "https://dc.lft.to/lastmile_qr_scan"}, "bike_id": "b0164a2c1da8f573d67ae0612947e4a4", "fusion_lon": 0.0, "fusion_lat": 0.0, "is_disabled": 0, "name": "b0164a2c1da8f573d67ae0612947e4a4", "type": "electric_scooter", "lon": -77.00468416666666}, {"is_reserved": 0, "lat": 38.921924, "rental_uris": {"android": "https://dc.lft.to/lastmile_qr_scan", "ios": "https://dc.lft.to/lastmile_qr_scan"}, "bike_id": "cbda531040a37df41dda69080eb87366", "fusion_lon": 0.0, "fusion_lat": 0.0, "is_disabled": 0, "name": "cbda531040a37df41dda69080eb87366", "type": "electric_scooter", "lon": -76.99770816666667}, {"is_reserved": 0, "lat": 38.915655666666666, "rental_uris": {"android": "https://dc.lft.to/lastmile_qr_scan", "ios": "https://dc.lft.to/lastmile_qr_scan"}, "bike_id": "9a02a2e656d82cbb0a386be2420a6bd2", "fusion_lon": 0.0, "fusion_lat": 0.0, "is_disabled": 0, "name": "9a02a2e656d82cbb0a386be2420a6bd2", "type": "electric_scooter", "lon": -77.0316655}, {"is_reserved": 0, "lat": 38.855184333333334, "rental_uris": {"android": "https://dc.lft.to/lastmile_qr_scan", "ios": "https://dc.lft.to/lastmile_qr_scan"}, "bike_id": "6b983d9e9604bcda3bbaae83744ff766", "fusion_lon": 0.0, "fusion_lat": 0.0, "is_disabled": 0, "name": "6b983d9e9604bcda3bbaae83744ff766", "type": "electric_bike", "lon": -76.984105}, {"is_reserved": 0, "lat": 38.91807416666666, "rental_uris": {"android": "https://dc.lft.to/lastmile_qr_scan", "ios": "https://dc.lft.to/lastmile_qr_scan"}, "bike_id": "863524828579c9b0e4cf7a32afa47b97", "fusion_lon": 0.0, "fusion_lat": 0.0, "is_disabled": 0, "name": "863524828579c9b0e4cf7a32afa47b97", "type": "electric_scooter", "lon": -77.03676483333334}, {"is_reserved": 0, "lat": 38.90729016666667, "rental_uris": {"android": "https://dc.lft.to/lastmile_qr_scan", "ios": "https://dc.lft.to/lastmile_qr_scan"}, "bike_id": "1d6067d5e8066e52c54de1067a994ca6", "fusion_lon": 0.0, "fusion_lat": 0.0, "is_disabled": 0, "name": "1d6067d5e8066e52c54de1067a994ca6", "type": "electric_scooter", "lon": -77.0276635}, {"is_reserved": 0, "lat": 38.917412666666664, "rental_uris": {"android": "https://dc.lft.to/lastmile_qr_scan", "ios": "https://dc.lft.to/lastmile_qr_scan"}, "bike_id": "acd641284cb9b0805ab3f034800559b5", "fusion_lon": 0.0, "fusion_lat": 0.0, "is_disabled": 0, "name": "acd641284cb9b0805ab3f034800559b5", "type": "electric_scooter", "lon": -77.02180066666666}, {"is_reserved": 0, "lat": 38.920670333333334, "rental_uris": {"android": "https://dc.lft.to/lastmile_qr_scan", "ios": "https://dc.lft.to/lastmile_qr_scan"}, "bike_id": "f54e971081841be9efc4da6ab9b124c5", "fusion_lon": 0.0, "fusion_lat": 0.0, "is_disabled": 0, "name": "f54e971081841be9efc4da6ab9b124c5", "type": "electric_scooter", "lon": -77.0225065}, {"is_reserved": 0, "lat": 38.924665166666664, "rental_uris": {"android": "https://dc.lft.to/lastmile_qr_scan", "ios": "https://dc.lft.to/lastmile_qr_scan"}, "bike_id": "8a942b12b9956c306c617188a4614ec3", "fusion_lon": 0.0, "fusion_lat": 0.0, "is_disabled": 0, "name": "8a942b12b9956c306c617188a4614ec3", "type": "electric_scooter", "lon": -77.052318}, {"is_reserved": 0, "lat": 38.90295183333333, "rental_uris": {"android": "https://dc.lft.to/lastmile_qr_scan", "ios": "https://dc.lft.to/lastmile_qr_scan"}, "bike_id": "42fc0d37d665e0ad82869661273656bb", "fusion_lon": 0.0, "fusion_lat": 0.0, "is_disabled": 0, "name": "42fc0d37d665e0ad82869661273656bb", "type": "electric_scooter", "lon": -77.04402366666666}, {"is_reserved": 0, "lat": 38.887398833333336, "rental_uris": {"android": "https://dc.lft.to/lastmile_qr_scan", "ios": "https://dc.lft.to/lastmile_qr_scan"}, "bike_id": "eebc28847d645fbb2a24a4870dc06263", "fusion_lon": 0.0, "fusion_lat": 0.0, "is_disabled": 0, "name": "eebc28847d645fbb2a24a4870dc06263", "type": "electric_scooter", "lon": -77.01534216666667}, {"is_reserved": 0, "lat": 38.918667666666664, "rental_uris": {"android": "https://dc.lft.to/lastmile_qr_scan", "ios": "https://dc.lft.to/lastmile_qr_scan"}, "bike_id": "65151bb7adeac8ab47da8cd1961ff8c1", "fusion_lon": 0.0, "fusion_lat": 0.0, "is_disabled": 0, "name": "65151bb7adeac8ab47da8cd1961ff8c1", "type": "electric_scooter", "lon": -77.03165883333334}, {"is_reserved": 0, "lat": 38.91755366666667, "rental_uris": {"android": "https://dc.lft.to/lastmile_qr_scan", "ios": "https://dc.lft.to/lastmile_qr_scan"}, "bike_id": "6c4518b502627473b5c5401b2ee7a876", "fusion_lon": 0.0, "fusion_lat": 0.0, "is_disabled": 0, "name": "6c4518b502627473b5c5401b2ee7a876", "type": "electric_scooter", "lon": -77.03646766666667}, {"is_reserved": 0, "lat": 39.05634583333333, "rental_uris": {"android": "https://dc.lft.to/lastmile_qr_scan", "ios": "https://dc.lft.to/lastmile_qr_scan"}, "bike_id": "d6aebbfe72636f52c39068ef30367020", "fusion_lon": 0.0, "fusion_lat": 0.0, "is_disabled": 0, "name": "d6aebbfe72636f52c39068ef30367020", "type": "electric_bike", "lon": -77.12525083333334}, {"is_reserved": 0, "lat": 38.8982035, "rental_uris": {"android": "https://dc.lft.to/lastmile_qr_scan", "ios": "https://dc.lft.to/lastmile_qr_scan"}, "bike_id": "8e51f2c27519e32d6ccc681eaecc5fa5", "fusion_lon": 0.0, "fusion_lat": 0.0, "is_disabled": 0, "name": "8e51f2c27519e32d6ccc681eaecc5fa5", "type": "electric_scooter", "lon": -76.94651616666667}, {"is_reserved": 0, "lat": 38.897996, "rental_uris": {"android": "https://dc.lft.to/lastmile_qr_scan", "ios": "https://dc.lft.to/lastmile_qr_scan"}, "bike_id": "55ce219356b9d6ef0b996ae71703674e", "fusion_lon": 0.0, "fusion_lat": 0.0, "is_disabled": 0, "name": "55ce219356b9d6ef0b996ae71703674e", "type": "electric_scooter", "lon": -77.03098766666666}, {"is_reserved": 0, "lat": 38.91570816666667, "rental_uris": {"android": "https://dc.lft.to/lastmile_qr_scan", "ios": "https://dc.lft.to/lastmile_qr_scan"}, "bike_id": "68b6d9ba8419572171363ddecea232ba", "fusion_lon": 0.0, "fusion_lat": 0.0, "is_disabled": 0, "name": "68b6d9ba8419572171363ddecea232ba", "type": "electric_scooter", "lon": -77.011745}, {"is_reserved": 0, "lat": 38.907306166666665, "rental_uris": {"android": "https://dc.lft.to/lastmile_qr_scan", "ios": "https://dc.lft.to/lastmile_qr_scan"}, "bike_id": "f9d8be5ff5b84e2cb167be3fd3d9b14a", "fusion_lon": 0.0, "fusion_lat": 0.0, "is_disabled": 0, "name": "f9d8be5ff5b84e2cb167be3fd3d9b14a", "type": "electric_scooter", "lon": -77.02413666666666}, {"is_reserved": 0, "lat": 38.924328833333334, "rental_uris": {"android": "https://dc.lft.to/lastmile_qr_scan", "ios": "https://dc.lft.to/lastmile_qr_scan"}, "bike_id": "4ed9d4366b064ed3b92222d3414befc3", "fusion_lon": 0.0, "fusion_lat": 0.0, "is_disabled": 0, "name": "4ed9d4366b064ed3b92222d3414befc3", "type": "electric_scooter", "lon": -77.05209616666667}, {"is_reserved": 0, "lat": 38.87652333333333, "rental_uris": {"android": "https://dc.lft.to/lastmile_qr_scan", "ios": "https://dc.lft.to/lastmile_qr_scan"}, "bike_id": "5acd12064d70508aeaa56a5e376406fc", "fusion_lon": 0.0, "fusion_lat": 0.0, "is_disabled": 0, "name": "5acd12064d70508aeaa56a5e376406fc", "type": "electric_scooter", "lon": -77.0043575}, {"is_reserved": 0, "lat": 38.91117916666666, "rental_uris": {"android": "https://dc.lft.to/lastmile_qr_scan", "ios": "https://dc.lft.to/lastmile_qr_scan"}, "bike_id": "6ba8c4413493f0d00a5442ed693342a4", "fusion_lon": 0.0, "fusion_lat": 0.0, "is_disabled": 0, "name": "6ba8c4413493f0d00a5442ed693342a4", "type": "electric_scooter", "lon": -77.0379955}, {"is_reserved": 0, "lat": 38.91794566666667, "rental_uris": {"android": "https://dc.lft.to/lastmile_qr_scan", "ios": "https://dc.lft.to/lastmile_qr_scan"}, "bike_id": "69c65c638d3171c43a9e1f0f4c52c3c2", "fusion_lon": 0.0, "fusion_lat": 0.0, "is_disabled": 0, "name": "69c65c638d3171c43a9e1f0f4c52c3c2", "type": "electric_scooter", "lon": -77.03447266666667}, {"is_reserved": 0, "lat": 38.917817166666666, "rental_uris": {"android": "https://dc.lft.to/lastmile_qr_scan", "ios": "https://dc.lft.to/lastmile_qr_scan"}, "bike_id": "dff55cb3a2283f2ce670e165ec567113", "fusion_lon": 0.0, "fusion_lat": 0.0, "is_disabled": 0, "name": "dff55cb3a2283f2ce670e165ec567113", "type": "electric_scooter", "lon": -77.02342866666666}, {"is_reserved": 0, "lat": 38.91561266666667, "rental_uris": {"android": "https://dc.lft.to/lastmile_qr_scan", "ios": "https://dc.lft.to/lastmile_qr_scan"}, "bike_id": "b1210d401f4f92cfd5cf4de980597b1d", "fusion_lon": 0.0, "fusion_lat": 0.0, "is_disabled": 0, "name": "b1210d401f4f92cfd5cf4de980597b1d", "type": "electric_scooter", "lon": -77.0117445}, {"is_reserved": 0, "lat": 38.910909333333336, "rental_uris": {"android": "https://dc.lft.to/lastmile_qr_scan", "ios": "https://dc.lft.to/lastmile_qr_scan"}, "bike_id": "9926ee060a4de6ac81e7821f9ea15af5", "fusion_lon": 0.0, "fusion_lat": 0.0, "is_disabled": 0, "name": "9926ee060a4de6ac81e7821f9ea15af5", "type": "electric_scooter", "lon": -77.03196883333334}, {"is_reserved": 0, "lat": 38.898439333333336, "rental_uris": {"android": "https://dc.lft.to/lastmile_qr_scan", "ios": "https://dc.lft.to/lastmile_qr_scan"}, "bike_id": "98a161e9488a522f16504804e4dd175f", "fusion_lon": 0.0, "fusion_lat": 0.0, "is_disabled": 0, "name": "98a161e9488a522f16504804e4dd175f", "type": "electric_scooter", "lon": -76.94634716666667}, {"is_reserved": 0, "lat": 38.887195, "rental_uris": {"android": "https://dc.lft.to/lastmile_qr_scan", "ios": "https://dc.lft.to/lastmile_qr_scan"}, "bike_id": "8b5c6f043bf556e870b6ca8a1c293184", "fusion_lon": 0.0, "fusion_lat": 0.0, "is_disabled": 0, "name": "8b5c6f043bf556e870b6ca8a1c293184", "type": "electric_scooter", "lon": -76.99611833333333}, {"is_reserved": 0, "lat": 38.91100266666667, "rental_uris": {"android": "https://dc.lft.to/lastmile_qr_scan", "ios": "https://dc.lft.to/lastmile_qr_scan"}, "bike_id": "f7f9b2414b2ca0dc535b64836b5cdde8", "fusion_lon": 0.0, "fusion_lat": 0.0, "is_disabled": 0, "name": "f7f9b2414b2ca0dc535b64836b5cdde8", "type": "electric_scooter", "lon": -77.0443085}, {"is_reserved": 0, "lat": 38.929513, "rental_uris": {"android": "https://dc.lft.to/lastmile_qr_scan", "ios": "https://dc.lft.to/lastmile_qr_scan"}, "bike_id": "155af02d0402f9fd2be0ff0b8b11f0dc", "fusion_lon": 0.0, "fusion_lat": 0.0, "is_disabled": 0, "name": "155af02d0402f9fd2be0ff0b8b11f0dc", "type": "electric_scooter", "lon": -76.99089716666667}, {"is_reserved": 0, "lat": 38.89857883333333, "rental_uris": {"android": "https://dc.lft.to/lastmile_qr_scan", "ios": "https://dc.lft.to/lastmile_qr_scan"}, "bike_id": "62250f5fdfbd41d910288f627c517905", "fusion_lon": 0.0, "fusion_lat": 0.0, "is_disabled": 0, "name": "62250f5fdfbd41d910288f627c517905", "type": "electric_scooter", "lon": -77.02193}, {"is_reserved": 0, "lat": 38.89287616666667, "rental_uris": {"android": "https://dc.lft.to/lastmile_qr_scan", "ios": "https://dc.lft.to/lastmile_qr_scan"}, "bike_id": "ecb8d311dd613047f2b83c6bf33f0c26", "fusion_lon": 0.0, "fusion_lat": 0.0, "is_disabled": 0, "name": "ecb8d311dd613047f2b83c6bf33f0c26", "type": "electric_scooter", "lon": -76.95852533333333}, {"is_reserved": 0, "lat": 38.91999666666667, "rental_uris": {"android": "https://dc.lft.to/lastmile_qr_scan", "ios": "https://dc.lft.to/lastmile_qr_scan"}, "bike_id": "89f5820b6078c7e9f2227d42041fcc42", "fusion_lon": 0.0, "fusion_lat": 0.0, "is_disabled": 0, "name": "89f5820b6078c7e9f2227d42041fcc42", "type": "electric_scooter", "lon": -77.03226816666667}, {"is_reserved": 0, "lat": 38.909659, "rental_uris": {"android": "https://dc.lft.to/lastmile_qr_scan", "ios": "https://dc.lft.to/lastmile_qr_scan"}, "bike_id": "cf49b4044165d0e3d8127e2b04d48673", "fusion_lon": 0.0, "fusion_lat": 0.0, "is_disabled": 0, "name": "cf49b4044165d0e3d8127e2b04d48673", "type": "electric_scooter", "lon": -76.99604033333334}, {"is_reserved": 0, "lat": 38.866905333333335, "rental_uris": {"android": "https://dc.lft.to/lastmile_qr_scan", "ios": "https://dc.lft.to/lastmile_qr_scan"}, "bike_id": "5fb319f6b90783a6b9cc619cc35b85a1", "fusion_lon": 0.0, "fusion_lat": 0.0, "is_disabled": 0, "name": "5fb319f6b90783a6b9cc619cc35b85a1", "type": "electric_scooter", "lon": -76.98543716666667}, {"is_reserved": 0, "lat": 38.918032833333335, "rental_uris": {"android": "https://dc.lft.to/lastmile_qr_scan", "ios": "https://dc.lft.to/lastmile_qr_scan"}, "bike_id": "d8a174256259b7fb2c6ff027b4c457c2", "fusion_lon": 0.0, "fusion_lat": 0.0, "is_disabled": 0, "name": "d8a174256259b7fb2c6ff027b4c457c2", "type": "electric_scooter", "lon": -77.04027016666667}, {"is_reserved": 0, "lat": 38.928577, "rental_uris": {"android": "https://dc.lft.to/lastmile_qr_scan", "ios": "https://dc.lft.to/lastmile_qr_scan"}, "bike_id": "664aa361238b321a2e4c51bb8640f302", "fusion_lon": 0.0, "fusion_lat": 0.0, "is_disabled": 0, "name": "664aa361238b321a2e4c51bb8640f302", "type": "electric_scooter", "lon": -77.0371215}, {"is_reserved": 0, "lat": 38.8551175, "rental_uris": {"android": "https://dc.lft.to/lastmile_qr_scan", "ios": "https://dc.lft.to/lastmile_qr_scan"}, "bike_id": "884697c0d3d5564297d4d5cc06a2cc87", "fusion_lon": 0.0, "fusion_lat": 0.0, "is_disabled": 0, "name": "884697c0d3d5564297d4d5cc06a2cc87", "type": "electric_bike", "lon": -77.1201455}, {"is_reserved": 0, "lat": 38.918230333333334, "rental_uris": {"android": "https://dc.lft.to/lastmile_qr_scan", "ios": "https://dc.lft.to/lastmile_qr_scan"}, "bike_id": "519b20ee47301d39fdaa14620421e93f", "fusion_lon": 0.0, "fusion_lat": 0.0, "is_disabled": 0, "name": "519b20ee47301d39fdaa14620421e93f", "type": "electric_scooter", "lon": -77.03526816666667}, {"is_reserved": 0, "lat": 38.905843833333336, "rental_uris": {"android": "https://dc.lft.to/lastmile_qr_scan", "ios": "https://dc.lft.to/lastmile_qr_scan"}, "bike_id": "fbb836ef80ad6c25e3ea0bba2fa399e4", "fusion_lon": 0.0, "fusion_lat": 0.0, "is_disabled": 0, "name": "fbb836ef80ad6c25e3ea0bba2fa399e4", "type": "electric_scooter", "lon": -77.0628365}, {"is_reserved": 0, "lat": 38.917803, "rental_uris": {"android": "https://dc.lft.to/lastmile_qr_scan", "ios": "https://dc.lft.to/lastmile_qr_scan"}, "bike_id": "0eb0e75b19ec8c34dbe021956b5f9f6f", "fusion_lon": 0.0, "fusion_lat": 0.0, "is_disabled": 0, "name": "0eb0e75b19ec8c34dbe021956b5f9f6f", "type": "electric_scooter", "lon": -77.02350433333334}, {"is_reserved": 0, "lat": 38.908427, "rental_uris": {"android": "https://dc.lft.to/lastmile_qr_scan", "ios": "https://dc.lft.to/lastmile_qr_scan"}, "bike_id": "bab65272f51afb2c1c421530f95c6275", "fusion_lon": 0.0, "fusion_lat": 0.0, "is_disabled": 0, "name": "bab65272f51afb2c1c421530f95c6275", "type": "electric_scooter", "lon": -77.0222885}, {"is_reserved": 0, "lat": 38.92242683333333, "rental_uris": {"android": "https://dc.lft.to/lastmile_qr_scan", "ios": "https://dc.lft.to/lastmile_qr_scan"}, "bike_id": "a163bdea3554544547322f4b3bc7c154", "fusion_lon": 0.0, "fusion_lat": 0.0, "is_disabled": 0, "name": "a163bdea3554544547322f4b3bc7c154", "type": "electric_scooter", "lon": -77.03420433333334}, {"is_reserved": 0, "lat": 38.915589833333335, "rental_uris": {"android": "https://dc.lft.to/lastmile_qr_scan", "ios": "https://dc.lft.to/lastmile_qr_scan"}, "bike_id": "08086c7cd331311aeb7b626143b735ba", "fusion_lon": 0.0, "fusion_lat": 0.0, "is_disabled": 0, "name": "08086c7cd331311aeb7b626143b735ba", "type": "electric_scooter", "lon": -77.03144216666666}, {"is_reserved": 0, "lat": 38.898411, "rental_uris": {"android": "https://dc.lft.to/lastmile_qr_scan", "ios": "https://dc.lft.to/lastmile_qr_scan"}, "bike_id": "acaeb6b6600ed569a7c4a076fc73b884", "fusion_lon": 0.0, "fusion_lat": 0.0, "is_disabled": 0, "name": "acaeb6b6600ed569a7c4a076fc73b884", "type": "electric_scooter", "lon": -76.981764}, {"is_reserved": 0, "lat": 38.85185533333333, "rental_uris": {"android": "https://dc.lft.to/lastmile_qr_scan", "ios": "https://dc.lft.to/lastmile_qr_scan"}, "bike_id": "7e9cce69be41b236f653591bb2f29f55", "fusion_lon": 0.0, "fusion_lat": 0.0, "is_disabled": 0, "name": "7e9cce69be41b236f653591bb2f29f55", "type": "electric_bike", "lon": -76.9611145}, {"is_reserved": 0, "lat": 38.949251333333336, "rental_uris": {"android": "https://dc.lft.to/lastmile_qr_scan", "ios": "https://dc.lft.to/lastmile_qr_scan"}, "bike_id": "b70cc4efad0dc1828c36c5e2abbe1fbe", "fusion_lon": 0.0, "fusion_lat": 0.0, "is_disabled": 0, "name": "b70cc4efad0dc1828c36c5e2abbe1fbe", "type": "electric_scooter", "lon": -77.01946883333333}, {"is_reserved": 0, "lat": 38.8984485, "rental_uris": {"android": "https://dc.lft.to/lastmile_qr_scan", "ios": "https://dc.lft.to/lastmile_qr_scan"}, "bike_id": "48af268629968f93968440c57406df73", "fusion_lon": 0.0, "fusion_lat": 0.0, "is_disabled": 0, "name": "48af268629968f93968440c57406df73", "type": "electric_scooter", "lon": -76.94633916666666}, {"is_reserved": 0, "lat": 38.9026865, "rental_uris": {"android": "https://dc.lft.to/lastmile_qr_scan", "ios": "https://dc.lft.to/lastmile_qr_scan"}, "bike_id": "9eb0ad42a0418f0f75cca4a8c408083c", "fusion_lon": 0.0, "fusion_lat": 0.0, "is_disabled": 0, "name": "9eb0ad42a0418f0f75cca4a8c408083c", "type": "electric_scooter", "lon": -77.04618833333333}, {"is_reserved": 0, "lat": 38.93553816666667, "rental_uris": {"android": "https://dc.lft.to/lastmile_qr_scan", "ios": "https://dc.lft.to/lastmile_qr_scan"}, "bike_id": "ed93afdcb1e512ba11e713452fe9130b", "fusion_lon": 0.0, "fusion_lat": 0.0, "is_disabled": 0, "name": "ed93afdcb1e512ba11e713452fe9130b", "type": "electric_bike", "lon": -77.03705433333333}, {"is_reserved": 0, "lat": 38.913455166666665, "rental_uris": {"android": "https://dc.lft.to/lastmile_qr_scan", "ios": "https://dc.lft.to/lastmile_qr_scan"}, "bike_id": "63867c9f8d01e41fedd65c1b61572708", "fusion_lon": 0.0, "fusion_lat": 0.0, "is_disabled": 0, "name": "63867c9f8d01e41fedd65c1b61572708", "type": "electric_scooter", "lon": -77.0435465}, {"is_reserved": 0, "lat": 38.91558766666667, "rental_uris": {"android": "https://dc.lft.to/lastmile_qr_scan", "ios": "https://dc.lft.to/lastmile_qr_scan"}, "bike_id": "5b9f88ae2ced4e434e45849ba5b973b7", "fusion_lon": 0.0, "fusion_lat": 0.0, "is_disabled": 0, "name": "5b9f88ae2ced4e434e45849ba5b973b7", "type": "electric_scooter", "lon": -77.04184633333334}, {"is_reserved": 0, "lat": 39.02926683333333, "rental_uris": {"android": "https://dc.lft.to/lastmile_qr_scan", "ios": "https://dc.lft.to/lastmile_qr_scan"}, "bike_id": "6ba65d3cddeb429b1cf45d0144d42fcb", "fusion_lon": 0.0, "fusion_lat": 0.0, "is_disabled": 0, "name": "6ba65d3cddeb429b1cf45d0144d42fcb", "type": "electric_bike", "lon": -77.04925916666667}, {"is_reserved": 0, "lat": 38.93112466666667, "rental_uris": {"android": "https://dc.lft.to/lastmile_qr_scan", "ios": "https://dc.lft.to/lastmile_qr_scan"}, "bike_id": "ff0152800347834c39087374632e9e85", "fusion_lon": 0.0, "fusion_lat": 0.0, "is_disabled": 0, "name": "ff0152800347834c39087374632e9e85", "type": "electric_scooter", "lon": -77.03841666666666}, {"is_reserved": 0, "lat": 38.9212345, "rental_uris": {"android": "https://dc.lft.to/lastmile_qr_scan", "ios": "https://dc.lft.to/lastmile_qr_scan"}, "bike_id": "896555202b582381dbb1069e2b2a903d", "fusion_lon": 0.0, "fusion_lat": 0.0, "is_disabled": 0, "name": "896555202b582381dbb1069e2b2a903d", "type": "electric_scooter", "lon": -77.044326}, {"is_reserved": 0, "lat": 38.91416783333333, "rental_uris": {"android": "https://dc.lft.to/lastmile_qr_scan", "ios": "https://dc.lft.to/lastmile_qr_scan"}, "bike_id": "aa902053cf99ed03dbfcff50adc7deca", "fusion_lon": 0.0, "fusion_lat": 0.0, "is_disabled": 0, "name": "aa902053cf99ed03dbfcff50adc7deca", "type": "electric_scooter", "lon": -77.03186516666666}, {"is_reserved": 0, "lat": 38.912679, "rental_uris": {"android": "https://dc.lft.to/lastmile_qr_scan", "ios": "https://dc.lft.to/lastmile_qr_scan"}, "bike_id": "b722a69a1bcdbd74ff21886120cb64ed", "fusion_lon": 0.0, "fusion_lat": 0.0, "is_disabled": 0, "name": "b722a69a1bcdbd74ff21886120cb64ed", "type": "electric_scooter", "lon": -77.038052}, {"is_reserved": 0, "lat": 38.90565866666667, "rental_uris": {"android": "https://dc.lft.to/lastmile_qr_scan", "ios": "https://dc.lft.to/lastmile_qr_scan"}, "bike_id": "b788fe1a365224234635f99d2a9bd11a", "fusion_lon": 0.0, "fusion_lat": 0.0, "is_disabled": 0, "name": "b788fe1a365224234635f99d2a9bd11a", "type": "electric_scooter", "lon": -77.05120616666666}, {"is_reserved": 0, "lat": 38.933529, "rental_uris": {"android": "https://dc.lft.to/lastmile_qr_scan", "ios": "https://dc.lft.to/lastmile_qr_scan"}, "bike_id": "71fee817a65c7ecd2d30850a00432dfd", "fusion_lon": 0.0, "fusion_lat": 0.0, "is_disabled": 0, "name": "71fee817a65c7ecd2d30850a00432dfd", "type": "electric_bike", "lon": -77.0996185}, {"is_reserved": 0, "lat": 38.908056, "rental_uris": {"android": "https://dc.lft.to/lastmile_qr_scan", "ios": "https://dc.lft.to/lastmile_qr_scan"}, "bike_id": "6da9e66110a2e28b6a50a8d486dd4a55", "fusion_lon": 0.0, "fusion_lat": 0.0, "is_disabled": 0, "name": "6da9e66110a2e28b6a50a8d486dd4a55", "type": "electric_scooter", "lon": -77.04353983333333}, {"is_reserved": 0, "lat": 38.9318615, "rental_uris": {"android": "https://dc.lft.to/lastmile_qr_scan", "ios": "https://dc.lft.to/lastmile_qr_scan"}, "bike_id": "64d951d91243b1b3f876b624d4bc3b6e", "fusion_lon": 0.0, "fusion_lat": 0.0, "is_disabled": 0, "name": "64d951d91243b1b3f876b624d4bc3b6e", "type": "electric_scooter", "lon": -77.0283045}, {"is_reserved": 0, "lat": 38.91227966666667, "rental_uris": {"android": "https://dc.lft.to/lastmile_qr_scan", "ios": "https://dc.lft.to/lastmile_qr_scan"}, "bike_id": "7bda9c5de894962ae60d169e7fce5037", "fusion_lon": 0.0, "fusion_lat": 0.0, "is_disabled": 0, "name": "7bda9c5de894962ae60d169e7fce5037", "type": "electric_scooter", "lon": -77.04495066666667}, {"is_reserved": 0, "lat": 38.9026005, "rental_uris": {"android": "https://dc.lft.to/lastmile_qr_scan", "ios": "https://dc.lft.to/lastmile_qr_scan"}, "bike_id": "58a4df20f2f4bb208b1c5bfedbe4eef5", "fusion_lon": 0.0, "fusion_lat": 0.0, "is_disabled": 0, "name": "58a4df20f2f4bb208b1c5bfedbe4eef5", "type": "electric_scooter", "lon": -77.03334916666667}, {"is_reserved": 0, "lat": 38.92319533333333, "rental_uris": {"android": "https://dc.lft.to/lastmile_qr_scan", "ios": "https://dc.lft.to/lastmile_qr_scan"}, "bike_id": "e44153e35627dc7df5f57ec7c013f095", "fusion_lon": 0.0, "fusion_lat": 0.0, "is_disabled": 0, "name": "e44153e35627dc7df5f57ec7c013f095", "type": "electric_scooter", "lon": -77.0420455}, {"is_reserved": 0, "lat": 38.8955845, "rental_uris": {"android": "https://dc.lft.to/lastmile_qr_scan", "ios": "https://dc.lft.to/lastmile_qr_scan"}, "bike_id": "cca994e19cc2aa174b3fcac0fbe52541", "fusion_lon": 0.0, "fusion_lat": 0.0, "is_disabled": 0, "name": "cca994e19cc2aa174b3fcac0fbe52541", "type": "electric_bike", "lon": -77.1269175}, {"is_reserved": 0, "lat": 38.91559316666667, "rental_uris": {"android": "https://dc.lft.to/lastmile_qr_scan", "ios": "https://dc.lft.to/lastmile_qr_scan"}, "bike_id": "773a20cf571d062cda6403f40f7d4060", "fusion_lon": 0.0, "fusion_lat": 0.0, "is_disabled": 0, "name": "773a20cf571d062cda6403f40f7d4060", "type": "electric_scooter", "lon": -77.03155016666666}, {"is_reserved": 0, "lat": 38.914803166666665, "rental_uris": {"android": "https://dc.lft.to/lastmile_qr_scan", "ios": "https://dc.lft.to/lastmile_qr_scan"}, "bike_id": "37a22b7125e338efa712e26e6dbf2381", "fusion_lon": 0.0, "fusion_lat": 0.0, "is_disabled": 0, "name": "37a22b7125e338efa712e26e6dbf2381", "type": "electric_scooter", "lon": -77.03223833333334}, {"is_reserved": 0, "lat": 38.928949333333335, "rental_uris": {"android": "https://dc.lft.to/lastmile_qr_scan", "ios": "https://dc.lft.to/lastmile_qr_scan"}, "bike_id": "90368dd114d9639286ba6901ca09b506", "fusion_lon": 0.0, "fusion_lat": 0.0, "is_disabled": 0, "name": "90368dd114d9639286ba6901ca09b506", "type": "electric_scooter", "lon": -77.0240875}, {"is_reserved": 0, "lat": 38.90276983333333, "rental_uris": {"android": "https://dc.lft.to/lastmile_qr_scan", "ios": "https://dc.lft.to/lastmile_qr_scan"}, "bike_id": "0a1461a72f4b6f107920db7a0af0adc5", "fusion_lon": 0.0, "fusion_lat": 0.0, "is_disabled": 0, "name": "0a1461a72f4b6f107920db7a0af0adc5", "type": "electric_scooter", "lon": -77.036515}, {"is_reserved": 0, "lat": 38.865692833333334, "rental_uris": {"android": "https://dc.lft.to/lastmile_qr_scan", "ios": "https://dc.lft.to/lastmile_qr_scan"}, "bike_id": "d78562021b83c402b297a891c40004e8", "fusion_lon": 0.0, "fusion_lat": 0.0, "is_disabled": 0, "name": "d78562021b83c402b297a891c40004e8", "type": "electric_scooter", "lon": -76.9783665}, {"is_reserved": 0, "lat": 38.90404566666667, "rental_uris": {"android": "https://dc.lft.to/lastmile_qr_scan", "ios": "https://dc.lft.to/lastmile_qr_scan"}, "bike_id": "1375d568ff8e4334e3126a90d96fc50f", "fusion_lon": 0.0, "fusion_lat": 0.0, "is_disabled": 0, "name": "1375d568ff8e4334e3126a90d96fc50f", "type": "electric_scooter", "lon": -77.02097516666667}, {"is_reserved": 0, "lat": 38.9304995, "rental_uris": {"android": "https://dc.lft.to/lastmile_qr_scan", "ios": "https://dc.lft.to/lastmile_qr_scan"}, "bike_id": "c5ffd213b9f0e3684f6b2287477d65a3", "fusion_lon": 0.0, "fusion_lat": 0.0, "is_disabled": 0, "name": "c5ffd213b9f0e3684f6b2287477d65a3", "type": "electric_scooter", "lon": -77.04116966666666}, {"is_reserved": 0, "lat": 39.00008366666667, "rental_uris": {"android": "https://dc.lft.to/lastmile_qr_scan", "ios": "https://dc.lft.to/lastmile_qr_scan"}, "bike_id": "059db67304ed6d9ed0b6e66d3dfc31e8", "fusion_lon": 0.0, "fusion_lat": 0.0, "is_disabled": 0, "name": "059db67304ed6d9ed0b6e66d3dfc31e8", "type": "electric_bike", "lon": -76.910785}, {"is_reserved": 0, "lat": 38.9003735, "rental_uris": {"android": "https://dc.lft.to/lastmile_qr_scan", "ios": "https://dc.lft.to/lastmile_qr_scan"}, "bike_id": "65b6109ba96ba506ddcf2c226359baa9", "fusion_lon": 0.0, "fusion_lat": 0.0, "is_disabled": 0, "name": "65b6109ba96ba506ddcf2c226359baa9", "type": "electric_scooter", "lon": -77.00748833333333}, {"is_reserved": 0, "lat": 38.91110883333333, "rental_uris": {"android": "https://dc.lft.to/lastmile_qr_scan", "ios": "https://dc.lft.to/lastmile_qr_scan"}, "bike_id": "dae37d9e2bc1faa171cf7bc0bfa19775", "fusion_lon": 0.0, "fusion_lat": 0.0, "is_disabled": 0, "name": "dae37d9e2bc1faa171cf7bc0bfa19775", "type": "electric_scooter", "lon": -77.03297783333333}, {"is_reserved": 0, "lat": 38.96281166666667, "rental_uris": {"android": "https://dc.lft.to/lastmile_qr_scan", "ios": "https://dc.lft.to/lastmile_qr_scan"}, "bike_id": "f1a0dd39abdf4599e416e0cf14af7357", "fusion_lon": 0.0, "fusion_lat": 0.0, "is_disabled": 0, "name": "f1a0dd39abdf4599e416e0cf14af7357", "type": "electric_bike", "lon": -76.9830065}, {"is_reserved": 0, "lat": 38.89892283333333, "rental_uris": {"android": "https://dc.lft.to/lastmile_qr_scan", "ios": "https://dc.lft.to/lastmile_qr_scan"}, "bike_id": "ec5ae549d213dbed17a2ea8198d6baae", "fusion_lon": 0.0, "fusion_lat": 0.0, "is_disabled": 0, "name": "ec5ae549d213dbed17a2ea8198d6baae", "type": "electric_scooter", "lon": -77.0221035}, {"is_reserved": 0, "lat": 38.910505666666666, "rental_uris": {"android": "https://dc.lft.to/lastmile_qr_scan", "ios": "https://dc.lft.to/lastmile_qr_scan"}, "bike_id": "675ce00190f45407ab7002746284001a", "fusion_lon": 0.0, "fusion_lat": 0.0, "is_disabled": 0, "name": "675ce00190f45407ab7002746284001a", "type": "electric_scooter", "lon": -77.043443}, {"is_reserved": 0, "lat": 38.9148055, "rental_uris": {"android": "https://dc.lft.to/lastmile_qr_scan", "ios": "https://dc.lft.to/lastmile_qr_scan"}, "bike_id": "a0a3823886062d78d2284c21c421f5d9", "fusion_lon": 0.0, "fusion_lat": 0.0, "is_disabled": 0, "name": "a0a3823886062d78d2284c21c421f5d9", "type": "electric_bike", "lon": -77.01012883333334}, {"is_reserved": 0, "lat": 38.902574333333334, "rental_uris": {"android": "https://dc.lft.to/lastmile_qr_scan", "ios": "https://dc.lft.to/lastmile_qr_scan"}, "bike_id": "fa13249253813c7d55a70b8c9fa4da15", "fusion_lon": 0.0, "fusion_lat": 0.0, "is_disabled": 0, "name": "fa13249253813c7d55a70b8c9fa4da15", "type": "electric_scooter", "lon": -77.05147366666667}, {"is_reserved": 0, "lat": 38.9239035, "rental_uris": {"android": "https://dc.lft.to/lastmile_qr_scan", "ios": "https://dc.lft.to/lastmile_qr_scan"}, "bike_id": "b7b58931acce48da7fd0d59332f4b475", "fusion_lon": 0.0, "fusion_lat": 0.0, "is_disabled": 0, "name": "b7b58931acce48da7fd0d59332f4b475", "type": "electric_scooter", "lon": -77.03544883333333}, {"is_reserved": 0, "lat": 38.90672, "rental_uris": {"android": "https://dc.lft.to/lastmile_qr_scan", "ios": "https://dc.lft.to/lastmile_qr_scan"}, "bike_id": "1ac16f5991bcc992842bd5cac3018b27", "fusion_lon": 0.0, "fusion_lat": 0.0, "is_disabled": 0, "name": "1ac16f5991bcc992842bd5cac3018b27", "type": "electric_scooter", "lon": -77.07438433333333}, {"is_reserved": 0, "lat": 38.926534333333336, "rental_uris": {"android": "https://dc.lft.to/lastmile_qr_scan", "ios": "https://dc.lft.to/lastmile_qr_scan"}, "bike_id": "8e343b1f4f65fd062b7346771ad834e0", "fusion_lon": 0.0, "fusion_lat": 0.0, "is_disabled": 0, "name": "8e343b1f4f65fd062b7346771ad834e0", "type": "electric_scooter", "lon": -77.02425416666667}, {"is_reserved": 0, "lat": 38.91709, "rental_uris": {"android": "https://dc.lft.to/lastmile_qr_scan", "ios": "https://dc.lft.to/lastmile_qr_scan"}, "bike_id": "70ccc7ebb3e437e2390530fb2a519349", "fusion_lon": 0.0, "fusion_lat": 0.0, "is_disabled": 0, "name": "70ccc7ebb3e437e2390530fb2a519349", "type": "electric_scooter", "lon": -77.02979216666667}, {"is_reserved": 0, "lat": 38.909968166666665, "rental_uris": {"android": "https://dc.lft.to/lastmile_qr_scan", "ios": "https://dc.lft.to/lastmile_qr_scan"}, "bike_id": "b3317c0c9f9d1e47e188de47a6885783", "fusion_lon": 0.0, "fusion_lat": 0.0, "is_disabled": 0, "name": "b3317c0c9f9d1e47e188de47a6885783", "type": "electric_scooter", "lon": -77.03451133333333}, {"is_reserved": 0, "lat": 38.918389, "rental_uris": {"android": "https://dc.lft.to/lastmile_qr_scan", "ios": "https://dc.lft.to/lastmile_qr_scan"}, "bike_id": "f55fc9bb77508298e2792270d3a9e7f7", "fusion_lon": 0.0, "fusion_lat": 0.0, "is_disabled": 0, "name": "f55fc9bb77508298e2792270d3a9e7f7", "type": "electric_scooter", "lon": -77.040945}, {"is_reserved": 0, "lat": 38.901069666666665, "rental_uris": {"android": "https://dc.lft.to/lastmile_qr_scan", "ios": "https://dc.lft.to/lastmile_qr_scan"}, "bike_id": "a35f64982ca5d8759ad10edc92522ddf", "fusion_lon": 0.0, "fusion_lat": 0.0, "is_disabled": 0, "name": "a35f64982ca5d8759ad10edc92522ddf", "type": "electric_scooter", "lon": -77.04982883333334}, {"is_reserved": 0, "lat": 38.9236575, "rental_uris": {"android": "https://dc.lft.to/lastmile_qr_scan", "ios": "https://dc.lft.to/lastmile_qr_scan"}, "bike_id": "1863750cafcc4f0b666c01e1f014d7fd", "fusion_lon": 0.0, "fusion_lat": 0.0, "is_disabled": 0, "name": "1863750cafcc4f0b666c01e1f014d7fd", "type": "electric_scooter", "lon": -77.05053816666667}, {"is_reserved": 0, "lat": 38.857966166666664, "rental_uris": {"android": "https://dc.lft.to/lastmile_qr_scan", "ios": "https://dc.lft.to/lastmile_qr_scan"}, "bike_id": "3403e67a40c646ee0c3713c935f7b870", "fusion_lon": 0.0, "fusion_lat": 0.0, "is_disabled": 0, "name": "3403e67a40c646ee0c3713c935f7b870", "type": "electric_scooter", "lon": -76.98726083333334}, {"is_reserved": 0, "lat": 38.92679116666667, "rental_uris": {"android": "https://dc.lft.to/lastmile_qr_scan", "ios": "https://dc.lft.to/lastmile_qr_scan"}, "bike_id": "6ba4638ac6c13e0a15eacead7d6f8eb2", "fusion_lon": 0.0, "fusion_lat": 0.0, "is_disabled": 0, "name": "6ba4638ac6c13e0a15eacead7d6f8eb2", "type": "electric_scooter", "lon": -77.0303525}, {"is_reserved": 0, "lat": 38.901255166666665, "rental_uris": {"android": "https://dc.lft.to/lastmile_qr_scan", "ios": "https://dc.lft.to/lastmile_qr_scan"}, "bike_id": "8405837587acef29ce3473b6b0fe0746", "fusion_lon": 0.0, "fusion_lat": 0.0, "is_disabled": 0, "name": "8405837587acef29ce3473b6b0fe0746", "type": "electric_scooter", "lon": -77.03094833333333}, {"is_reserved": 0, "lat": 38.98649533333333, "rental_uris": {"android": "https://dc.lft.to/lastmile_qr_scan", "ios": "https://dc.lft.to/lastmile_qr_scan"}, "bike_id": "9a46b31fda81f2cadf5f8751aae47891", "fusion_lon": 0.0, "fusion_lat": 0.0, "is_disabled": 0, "name": "9a46b31fda81f2cadf5f8751aae47891", "type": "electric_bike", "lon": -77.05633383333333}, {"is_reserved": 0, "lat": 38.91799183333333, "rental_uris": {"android": "https://dc.lft.to/lastmile_qr_scan", "ios": "https://dc.lft.to/lastmile_qr_scan"}, "bike_id": "f4c004fdd0bf34605f76745666833bec", "fusion_lon": 0.0, "fusion_lat": 0.0, "is_disabled": 0, "name": "f4c004fdd0bf34605f76745666833bec", "type": "electric_scooter", "lon": -77.04013966666666}, {"is_reserved": 0, "lat": 38.90552816666667, "rental_uris": {"android": "https://dc.lft.to/lastmile_qr_scan", "ios": "https://dc.lft.to/lastmile_qr_scan"}, "bike_id": "d1f53db4ba83a838754306d19b7d5778", "fusion_lon": 0.0, "fusion_lat": 0.0, "is_disabled": 0, "name": "d1f53db4ba83a838754306d19b7d5778", "type": "electric_scooter", "lon": -77.02799166666667}, {"is_reserved": 0, "lat": 38.91730666666667, "rental_uris": {"android": "https://dc.lft.to/lastmile_qr_scan", "ios": "https://dc.lft.to/lastmile_qr_scan"}, "bike_id": "22e34d4c3ba7dbd4d1023c84d2dd78a5", "fusion_lon": 0.0, "fusion_lat": 0.0, "is_disabled": 0, "name": "22e34d4c3ba7dbd4d1023c84d2dd78a5", "type": "electric_scooter", "lon": -77.03216316666666}, {"is_reserved": 0, "lat": 38.90771866666667, "rental_uris": {"android": "https://dc.lft.to/lastmile_qr_scan", "ios": "https://dc.lft.to/lastmile_qr_scan"}, "bike_id": "06d7e078a54a5450d23b0ed27dde9d6a", "fusion_lon": 0.0, "fusion_lat": 0.0, "is_disabled": 0, "name": "06d7e078a54a5450d23b0ed27dde9d6a", "type": "electric_scooter", "lon": -77.03858366666667}, {"is_reserved": 0, "lat": 38.927798, "rental_uris": {"android": "https://dc.lft.to/lastmile_qr_scan", "ios": "https://dc.lft.to/lastmile_qr_scan"}, "bike_id": "23721579dcce56af1ef67df201b3abee", "fusion_lon": 0.0, "fusion_lat": 0.0, "is_disabled": 0, "name": "23721579dcce56af1ef67df201b3abee", "type": "electric_scooter", "lon": -77.053162}, {"is_reserved": 0, "lat": 38.876356666666666, "rental_uris": {"android": "https://dc.lft.to/lastmile_qr_scan", "ios": "https://dc.lft.to/lastmile_qr_scan"}, "bike_id": "95318514ebcbf9c9c7282175b74e9e18", "fusion_lon": 0.0, "fusion_lat": 0.0, "is_disabled": 0, "name": "95318514ebcbf9c9c7282175b74e9e18", "type": "electric_bike", "lon": -77.00406866666667}, {"is_reserved": 0, "lat": 38.917087333333335, "rental_uris": {"android": "https://dc.lft.to/lastmile_qr_scan", "ios": "https://dc.lft.to/lastmile_qr_scan"}, "bike_id": "2258ff9142ec8cc50103f2f5f2f9af52", "fusion_lon": 0.0, "fusion_lat": 0.0, "is_disabled": 0, "name": "2258ff9142ec8cc50103f2f5f2f9af52", "type": "electric_scooter", "lon": -77.00966216666667}, {"is_reserved": 0, "lat": 38.946230666666665, "rental_uris": {"android": "https://dc.lft.to/lastmile_qr_scan", "ios": "https://dc.lft.to/lastmile_qr_scan"}, "bike_id": "728f3918055992a2ba349de2aad347df", "fusion_lon": 0.0, "fusion_lat": 0.0, "is_disabled": 0, "name": "728f3918055992a2ba349de2aad347df", "type": "electric_scooter", "lon": -77.02517866666666}, {"is_reserved": 0, "lat": 38.93191916666667, "rental_uris": {"android": "https://dc.lft.to/lastmile_qr_scan", "ios": "https://dc.lft.to/lastmile_qr_scan"}, "bike_id": "4c2a34ae361a7823eb126609bb23ad92", "fusion_lon": 0.0, "fusion_lat": 0.0, "is_disabled": 0, "name": "4c2a34ae361a7823eb126609bb23ad92", "type": "electric_scooter", "lon": -77.02839316666666}, {"is_reserved": 0, "lat": 38.92329983333333, "rental_uris": {"android": "https://dc.lft.to/lastmile_qr_scan", "ios": "https://dc.lft.to/lastmile_qr_scan"}, "bike_id": "425d7784a74a5591cba4956ce4b51b16", "fusion_lon": 0.0, "fusion_lat": 0.0, "is_disabled": 0, "name": "425d7784a74a5591cba4956ce4b51b16", "type": "electric_scooter", "lon": -77.03615233333333}, {"is_reserved": 0, "lat": 38.907797333333335, "rental_uris": {"android": "https://dc.lft.to/lastmile_qr_scan", "ios": "https://dc.lft.to/lastmile_qr_scan"}, "bike_id": "2deaeb8ecc87a803d56f8d7e9714fe4b", "fusion_lon": 0.0, "fusion_lat": 0.0, "is_disabled": 0, "name": "2deaeb8ecc87a803d56f8d7e9714fe4b", "type": "electric_scooter", "lon": -77.07251733333334}, {"is_reserved": 0, "lat": 38.9170645, "rental_uris": {"android": "https://dc.lft.to/lastmile_qr_scan", "ios": "https://dc.lft.to/lastmile_qr_scan"}, "bike_id": "31c9b409add41a86d591b7d9b91de393", "fusion_lon": 0.0, "fusion_lat": 0.0, "is_disabled": 0, "name": "31c9b409add41a86d591b7d9b91de393", "type": "electric_scooter", "lon": -77.03728566666666}, {"is_reserved": 0, "lat": 38.8407305, "rental_uris": {"android": "https://dc.lft.to/lastmile_qr_scan", "ios": "https://dc.lft.to/lastmile_qr_scan"}, "bike_id": "63bfe5ef546bf51eae5fd054b839a340", "fusion_lon": 0.0, "fusion_lat": 0.0, "is_disabled": 0, "name": "63bfe5ef546bf51eae5fd054b839a340", "type": "electric_scooter", "lon": -76.98926166666666}, {"is_reserved": 0, "lat": 38.89757433333333, "rental_uris": {"android": "https://dc.lft.to/lastmile_qr_scan", "ios": "https://dc.lft.to/lastmile_qr_scan"}, "bike_id": "d96db286fd71e098a2b5dd5d5d4aec7d", "fusion_lon": 0.0, "fusion_lat": 0.0, "is_disabled": 0, "name": "d96db286fd71e098a2b5dd5d5d4aec7d", "type": "electric_scooter", "lon": -77.0278875}, {"is_reserved": 0, "lat": 38.910458166666665, "rental_uris": {"android": "https://dc.lft.to/lastmile_qr_scan", "ios": "https://dc.lft.to/lastmile_qr_scan"}, "bike_id": "d7f451d7f9c54821feaa55d1bee55469", "fusion_lon": 0.0, "fusion_lat": 0.0, "is_disabled": 0, "name": "d7f451d7f9c54821feaa55d1bee55469", "type": "electric_scooter", "lon": -77.00396233333333}, {"is_reserved": 0, "lat": 38.928800833333334, "rental_uris": {"android": "https://dc.lft.to/lastmile_qr_scan", "ios": "https://dc.lft.to/lastmile_qr_scan"}, "bike_id": "49e6286a0a6dfb44555178ab01f946fa", "fusion_lon": 0.0, "fusion_lat": 0.0, "is_disabled": 0, "name": "49e6286a0a6dfb44555178ab01f946fa", "type": "electric_scooter", "lon": -77.027049}, {"is_reserved": 0, "lat": 38.92211616666667, "rental_uris": {"android": "https://dc.lft.to/lastmile_qr_scan", "ios": "https://dc.lft.to/lastmile_qr_scan"}, "bike_id": "30e06d1bdc172aa0fc2fed48f82025b7", "fusion_lon": 0.0, "fusion_lat": 0.0, "is_disabled": 0, "name": "30e06d1bdc172aa0fc2fed48f82025b7", "type": "electric_scooter", "lon": -77.04247066666667}, {"is_reserved": 0, "lat": 38.9126515, "rental_uris": {"android": "https://dc.lft.to/lastmile_qr_scan", "ios": "https://dc.lft.to/lastmile_qr_scan"}, "bike_id": "c9d3e36aabad750d1c0b5efe4223c506", "fusion_lon": 0.0, "fusion_lat": 0.0, "is_disabled": 0, "name": "c9d3e36aabad750d1c0b5efe4223c506", "type": "electric_scooter", "lon": -77.02230233333333}, {"is_reserved": 0, "lat": 38.90731133333333, "rental_uris": {"android": "https://dc.lft.to/lastmile_qr_scan", "ios": "https://dc.lft.to/lastmile_qr_scan"}, "bike_id": "9497e4cb4959f0e8575b7434f21467ff", "fusion_lon": 0.0, "fusion_lat": 0.0, "is_disabled": 0, "name": "9497e4cb4959f0e8575b7434f21467ff", "type": "electric_scooter", "lon": -77.027137}, {"is_reserved": 0, "lat": 38.8022355, "rental_uris": {"android": "https://dc.lft.to/lastmile_qr_scan", "ios": "https://dc.lft.to/lastmile_qr_scan"}, "bike_id": "d391b49418ee825360733c7858502381", "fusion_lon": 0.0, "fusion_lat": 0.0, "is_disabled": 0, "name": "d391b49418ee825360733c7858502381", "type": "electric_bike", "lon": -77.07916616666667}, {"is_reserved": 0, "lat": 38.9244125, "rental_uris": {"android": "https://dc.lft.to/lastmile_qr_scan", "ios": "https://dc.lft.to/lastmile_qr_scan"}, "bike_id": "3ec4c7de44bc6c1d8076fdd1f74b4a23", "fusion_lon": 0.0, "fusion_lat": 0.0, "is_disabled": 0, "name": "3ec4c7de44bc6c1d8076fdd1f74b4a23", "type": "electric_scooter", "lon": -77.04030983333334}, {"is_reserved": 0, "lat": 38.86365116666666, "rental_uris": {"android": "https://dc.lft.to/lastmile_qr_scan", "ios": "https://dc.lft.to/lastmile_qr_scan"}, "bike_id": "ca6cd42c406f4a12c52f519738a9ac47", "fusion_lon": 0.0, "fusion_lat": 0.0, "is_disabled": 0, "name": "ca6cd42c406f4a12c52f519738a9ac47", "type": "electric_scooter", "lon": -76.99029216666666}, {"is_reserved": 0, "lat": 38.88483033333333, "rental_uris": {"android": "https://dc.lft.to/lastmile_qr_scan", "ios": "https://dc.lft.to/lastmile_qr_scan"}, "bike_id": "4cf2a55ef799070161b5541b8e0b95b1", "fusion_lon": 0.0, "fusion_lat": 0.0, "is_disabled": 0, "name": "4cf2a55ef799070161b5541b8e0b95b1", "type": "electric_scooter", "lon": -77.03476366666666}, {"is_reserved": 0, "lat": 38.9126235, "rental_uris": {"android": "https://dc.lft.to/lastmile_qr_scan", "ios": "https://dc.lft.to/lastmile_qr_scan"}, "bike_id": "5e10b24a503844eb9d7b0c0930f89dcd", "fusion_lon": 0.0, "fusion_lat": 0.0, "is_disabled": 0, "name": "5e10b24a503844eb9d7b0c0930f89dcd", "type": "electric_scooter", "lon": -77.033283}, {"is_reserved": 0, "lat": 38.90243666666667, "rental_uris": {"android": "https://dc.lft.to/lastmile_qr_scan", "ios": "https://dc.lft.to/lastmile_qr_scan"}, "bike_id": "8465c85659958307f7805ad439aeb89b", "fusion_lon": 0.0, "fusion_lat": 0.0, "is_disabled": 0, "name": "8465c85659958307f7805ad439aeb89b", "type": "electric_scooter", "lon": -77.04342416666667}, {"is_reserved": 0, "lat": 38.9267075, "rental_uris": {"android": "https://dc.lft.to/lastmile_qr_scan", "ios": "https://dc.lft.to/lastmile_qr_scan"}, "bike_id": "90f16b556d2af6f78dde5ec7078331cc", "fusion_lon": 0.0, "fusion_lat": 0.0, "is_disabled": 0, "name": "90f16b556d2af6f78dde5ec7078331cc", "type": "electric_scooter", "lon": -77.01475116666667}, {"is_reserved": 0, "lat": 38.9145265, "rental_uris": {"android": "https://dc.lft.to/lastmile_qr_scan", "ios": "https://dc.lft.to/lastmile_qr_scan"}, "bike_id": "97a3255b1da931dd3bf4d1b3ade90233", "fusion_lon": 0.0, "fusion_lat": 0.0, "is_disabled": 0, "name": "97a3255b1da931dd3bf4d1b3ade90233", "type": "electric_scooter", "lon": -77.01525433333333}, {"is_reserved": 0, "lat": 38.87728366666666, "rental_uris": {"android": "https://dc.lft.to/lastmile_qr_scan", "ios": "https://dc.lft.to/lastmile_qr_scan"}, "bike_id": "042b42a083cc5ab338797a528090157b", "fusion_lon": 0.0, "fusion_lat": 0.0, "is_disabled": 0, "name": "042b42a083cc5ab338797a528090157b", "type": "electric_scooter", "lon": -77.014621}, {"is_reserved": 0, "lat": 38.955289666666665, "rental_uris": {"android": "https://dc.lft.to/lastmile_qr_scan", "ios": "https://dc.lft.to/lastmile_qr_scan"}, "bike_id": "3e57936eaf5f3ad60ce25667b4df315d", "fusion_lon": 0.0, "fusion_lat": 0.0, "is_disabled": 0, "name": "3e57936eaf5f3ad60ce25667b4df315d", "type": "electric_bike", "lon": -76.96800033333334}, {"is_reserved": 0, "lat": 38.930552666666664, "rental_uris": {"android": "https://dc.lft.to/lastmile_qr_scan", "ios": "https://dc.lft.to/lastmile_qr_scan"}, "bike_id": "b4f0d909893f336d10d2aae9220774e7", "fusion_lon": 0.0, "fusion_lat": 0.0, "is_disabled": 0, "name": "b4f0d909893f336d10d2aae9220774e7", "type": "electric_scooter", "lon": -77.02321766666667}, {"is_reserved": 0, "lat": 38.92233266666667, "rental_uris": {"android": "https://dc.lft.to/lastmile_qr_scan", "ios": "https://dc.lft.to/lastmile_qr_scan"}, "bike_id": "b5e92dcef822d9e9e059ee5f17279d6a", "fusion_lon": 0.0, "fusion_lat": 0.0, "is_disabled": 0, "name": "b5e92dcef822d9e9e059ee5f17279d6a", "type": "electric_scooter", "lon": -77.043548}, {"is_reserved": 0, "lat": 38.919504833333335, "rental_uris": {"android": "https://dc.lft.to/lastmile_qr_scan", "ios": "https://dc.lft.to/lastmile_qr_scan"}, "bike_id": "b40a9df67d8c333ee6bb0bca14fa7f34", "fusion_lon": 0.0, "fusion_lat": 0.0, "is_disabled": 0, "name": "b40a9df67d8c333ee6bb0bca14fa7f34", "type": "electric_scooter", "lon": -76.96979716666667}, {"is_reserved": 0, "lat": 38.90833533333333, "rental_uris": {"android": "https://dc.lft.to/lastmile_qr_scan", "ios": "https://dc.lft.to/lastmile_qr_scan"}, "bike_id": "1b287e34486696691f20522bfedb3735", "fusion_lon": 0.0, "fusion_lat": 0.0, "is_disabled": 0, "name": "1b287e34486696691f20522bfedb3735", "type": "electric_scooter", "lon": -77.0201075}, {"is_reserved": 0, "lat": 38.916874166666666, "rental_uris": {"android": "https://dc.lft.to/lastmile_qr_scan", "ios": "https://dc.lft.to/lastmile_qr_scan"}, "bike_id": "52f1d0a8b35418ed01af5b0c9521f917", "fusion_lon": 0.0, "fusion_lat": 0.0, "is_disabled": 0, "name": "52f1d0a8b35418ed01af5b0c9521f917", "type": "electric_scooter", "lon": -76.979441}, {"is_reserved": 0, "lat": 38.88666683333334, "rental_uris": {"android": "https://dc.lft.to/lastmile_qr_scan", "ios": "https://dc.lft.to/lastmile_qr_scan"}, "bike_id": "e82aa86a003bd7f765735b25db86d60c", "fusion_lon": 0.0, "fusion_lat": 0.0, "is_disabled": 0, "name": "e82aa86a003bd7f765735b25db86d60c", "type": "electric_bike", "lon": -77.162536}, {"is_reserved": 0, "lat": 38.904197, "rental_uris": {"android": "https://dc.lft.to/lastmile_qr_scan", "ios": "https://dc.lft.to/lastmile_qr_scan"}, "bike_id": "955f104db1d1f3916fe5f5e06575e218", "fusion_lon": 0.0, "fusion_lat": 0.0, "is_disabled": 0, "name": "955f104db1d1f3916fe5f5e06575e218", "type": "electric_scooter", "lon": -77.0507525}, {"is_reserved": 0, "lat": 38.95664166666667, "rental_uris": {"android": "https://dc.lft.to/lastmile_qr_scan", "ios": "https://dc.lft.to/lastmile_qr_scan"}, "bike_id": "426417b3004c4637a419133b189c9db9", "fusion_lon": 0.0, "fusion_lat": 0.0, "is_disabled": 0, "name": "426417b3004c4637a419133b189c9db9", "type": "electric_bike", "lon": -77.01281633333333}, {"is_reserved": 0, "lat": 38.900286666666666, "rental_uris": {"android": "https://dc.lft.to/lastmile_qr_scan", "ios": "https://dc.lft.to/lastmile_qr_scan"}, "bike_id": "3ccbd9b70c221e92e9e9f5942a6d7b33", "fusion_lon": 0.0, "fusion_lat": 0.0, "is_disabled": 0, "name": "3ccbd9b70c221e92e9e9f5942a6d7b33", "type": "electric_scooter", "lon": -76.990327}, {"is_reserved": 0, "lat": 38.8859225, "rental_uris": {"android": "https://dc.lft.to/lastmile_qr_scan", "ios": "https://dc.lft.to/lastmile_qr_scan"}, "bike_id": "3be26bb6b4a968fa49c0388369640246", "fusion_lon": 0.0, "fusion_lat": 0.0, "is_disabled": 0, "name": "3be26bb6b4a968fa49c0388369640246", "type": "electric_scooter", "lon": -77.01893666666666}, {"is_reserved": 0, "lat": 38.907252166666666, "rental_uris": {"android": "https://dc.lft.to/lastmile_qr_scan", "ios": "https://dc.lft.to/lastmile_qr_scan"}, "bike_id": "0e244607198024ab275b1c9e4bc39a5f", "fusion_lon": 0.0, "fusion_lat": 0.0, "is_disabled": 0, "name": "0e244607198024ab275b1c9e4bc39a5f", "type": "electric_scooter", "lon": -77.0241575}, {"is_reserved": 0, "lat": 38.90081216666667, "rental_uris": {"android": "https://dc.lft.to/lastmile_qr_scan", "ios": "https://dc.lft.to/lastmile_qr_scan"}, "bike_id": "06bbcf837cf1bdf468207e14259135da", "fusion_lon": 0.0, "fusion_lat": 0.0, "is_disabled": 0, "name": "06bbcf837cf1bdf468207e14259135da", "type": "electric_scooter", "lon": -77.026579}, {"is_reserved": 0, "lat": 38.90137633333333, "rental_uris": {"android": "https://dc.lft.to/lastmile_qr_scan", "ios": "https://dc.lft.to/lastmile_qr_scan"}, "bike_id": "97eb974dd9449c0a556e3d93a6c6816b", "fusion_lon": 0.0, "fusion_lat": 0.0, "is_disabled": 0, "name": "97eb974dd9449c0a556e3d93a6c6816b", "type": "electric_scooter", "lon": -77.04191583333333}, {"is_reserved": 0, "lat": 38.90674883333333, "rental_uris": {"android": "https://dc.lft.to/lastmile_qr_scan", "ios": "https://dc.lft.to/lastmile_qr_scan"}, "bike_id": "5f2fb6af45508829804a1e25c9e8e342", "fusion_lon": 0.0, "fusion_lat": 0.0, "is_disabled": 0, "name": "5f2fb6af45508829804a1e25c9e8e342", "type": "electric_scooter", "lon": -77.0269465}, {"is_reserved": 0, "lat": 38.925524, "rental_uris": {"android": "https://dc.lft.to/lastmile_qr_scan", "ios": "https://dc.lft.to/lastmile_qr_scan"}, "bike_id": "546c26ececee1d35b769ceaff20864e1", "fusion_lon": 0.0, "fusion_lat": 0.0, "is_disabled": 0, "name": "546c26ececee1d35b769ceaff20864e1", "type": "electric_scooter", "lon": -77.05264083333333}, {"is_reserved": 0, "lat": 38.90253083333333, "rental_uris": {"android": "https://dc.lft.to/lastmile_qr_scan", "ios": "https://dc.lft.to/lastmile_qr_scan"}, "bike_id": "3f82a3007d49f814e569d3a7613a73bd", "fusion_lon": 0.0, "fusion_lat": 0.0, "is_disabled": 0, "name": "3f82a3007d49f814e569d3a7613a73bd", "type": "electric_scooter", "lon": -77.03793166666667}, {"is_reserved": 0, "lat": 38.86708216666667, "rental_uris": {"android": "https://dc.lft.to/lastmile_qr_scan", "ios": "https://dc.lft.to/lastmile_qr_scan"}, "bike_id": "08d80f2c8b94ddb3fbb8cf84aab10922", "fusion_lon": 0.0, "fusion_lat": 0.0, "is_disabled": 0, "name": "08d80f2c8b94ddb3fbb8cf84aab10922", "type": "electric_scooter", "lon": -76.98726416666666}, {"is_reserved": 0, "lat": 38.91274633333333, "rental_uris": {"android": "https://dc.lft.to/lastmile_qr_scan", "ios": "https://dc.lft.to/lastmile_qr_scan"}, "bike_id": "68e4254e8c1556c50dc565fb7160fb30", "fusion_lon": 0.0, "fusion_lat": 0.0, "is_disabled": 0, "name": "68e4254e8c1556c50dc565fb7160fb30", "type": "electric_scooter", "lon": -77.0450645}, {"is_reserved": 0, "lat": 38.885298166666665, "rental_uris": {"android": "https://dc.lft.to/lastmile_qr_scan", "ios": "https://dc.lft.to/lastmile_qr_scan"}, "bike_id": "0c3bedd1ebbeea0ec2bda79e1b2ac9c5", "fusion_lon": 0.0, "fusion_lat": 0.0, "is_disabled": 0, "name": "0c3bedd1ebbeea0ec2bda79e1b2ac9c5", "type": "electric_scooter", "lon": -76.99826933333334}, {"is_reserved": 0, "lat": 38.84505466666667, "rental_uris": {"android": "https://dc.lft.to/lastmile_qr_scan", "ios": "https://dc.lft.to/lastmile_qr_scan"}, "bike_id": "7fb8c451db322f1467ecac0917c89e52", "fusion_lon": 0.0, "fusion_lat": 0.0, "is_disabled": 0, "name": "7fb8c451db322f1467ecac0917c89e52", "type": "electric_bike", "lon": -76.993518}, {"is_reserved": 0, "lat": 38.91045233333333, "rental_uris": {"android": "https://dc.lft.to/lastmile_qr_scan", "ios": "https://dc.lft.to/lastmile_qr_scan"}, "bike_id": "01598b32cf4b4eb4952c277732b18b4c", "fusion_lon": 0.0, "fusion_lat": 0.0, "is_disabled": 0, "name": "01598b32cf4b4eb4952c277732b18b4c", "type": "electric_scooter", "lon": -77.02194083333333}, {"is_reserved": 0, "lat": 38.90585566666667, "rental_uris": {"android": "https://dc.lft.to/lastmile_qr_scan", "ios": "https://dc.lft.to/lastmile_qr_scan"}, "bike_id": "2050f15c540a3f87bea8d57c703136ac", "fusion_lon": 0.0, "fusion_lat": 0.0, "is_disabled": 0, "name": "2050f15c540a3f87bea8d57c703136ac", "type": "electric_scooter", "lon": -76.9862125}, {"is_reserved": 0, "lat": 38.91680983333333, "rental_uris": {"android": "https://dc.lft.to/lastmile_qr_scan", "ios": "https://dc.lft.to/lastmile_qr_scan"}, "bike_id": "3762766668376459038530d74c5ba510", "fusion_lon": 0.0, "fusion_lat": 0.0, "is_disabled": 0, "name": "3762766668376459038530d74c5ba510", "type": "electric_scooter", "lon": -77.029728}, {"is_reserved": 0, "lat": 38.906684, "rental_uris": {"android": "https://dc.lft.to/lastmile_qr_scan", "ios": "https://dc.lft.to/lastmile_qr_scan"}, "bike_id": "2f2308bdb392118787b7699dab4b2729", "fusion_lon": 0.0, "fusion_lat": 0.0, "is_disabled": 0, "name": "2f2308bdb392118787b7699dab4b2729", "type": "electric_scooter", "lon": -77.03764916666667}, {"is_reserved": 0, "lat": 38.876269666666666, "rental_uris": {"android": "https://dc.lft.to/lastmile_qr_scan", "ios": "https://dc.lft.to/lastmile_qr_scan"}, "bike_id": "69218584bc2ffdb922ec0fe1814eac1d", "fusion_lon": 0.0, "fusion_lat": 0.0, "is_disabled": 0, "name": "69218584bc2ffdb922ec0fe1814eac1d", "type": "electric_scooter", "lon": -76.96527516666667}, {"is_reserved": 0, "lat": 38.9157315, "rental_uris": {"android": "https://dc.lft.to/lastmile_qr_scan", "ios": "https://dc.lft.to/lastmile_qr_scan"}, "bike_id": "432b29b0ab12861d502d3570f8fb6e49", "fusion_lon": 0.0, "fusion_lat": 0.0, "is_disabled": 0, "name": "432b29b0ab12861d502d3570f8fb6e49", "type": "electric_scooter", "lon": -77.04505566666667}, {"is_reserved": 0, "lat": 38.873665, "rental_uris": {"android": "https://dc.lft.to/lastmile_qr_scan", "ios": "https://dc.lft.to/lastmile_qr_scan"}, "bike_id": "806dbe7d5e91d64a3436e0fa5b4df677", "fusion_lon": 0.0, "fusion_lat": 0.0, "is_disabled": 0, "name": "806dbe7d5e91d64a3436e0fa5b4df677", "type": "electric_bike", "lon": -77.11798933333333}, {"is_reserved": 0, "lat": 38.900243333333336, "rental_uris": {"android": "https://dc.lft.to/lastmile_qr_scan", "ios": "https://dc.lft.to/lastmile_qr_scan"}, "bike_id": "33a1a6e178f13ca531cf73fbfb24d375", "fusion_lon": 0.0, "fusion_lat": 0.0, "is_disabled": 0, "name": "33a1a6e178f13ca531cf73fbfb24d375", "type": "electric_scooter", "lon": -76.9984315}, {"is_reserved": 0, "lat": 38.918196333333334, "rental_uris": {"android": "https://dc.lft.to/lastmile_qr_scan", "ios": "https://dc.lft.to/lastmile_qr_scan"}, "bike_id": "7a328adc97a96f957193f21df2ccb61a", "fusion_lon": 0.0, "fusion_lat": 0.0, "is_disabled": 0, "name": "7a328adc97a96f957193f21df2ccb61a", "type": "electric_scooter", "lon": -77.03527266666667}, {"is_reserved": 0, "lat": 38.91441416666667, "rental_uris": {"android": "https://dc.lft.to/lastmile_qr_scan", "ios": "https://dc.lft.to/lastmile_qr_scan"}, "bike_id": "01c7b784f9e78d9f46514b209c4932af", "fusion_lon": 0.0, "fusion_lat": 0.0, "is_disabled": 0, "name": "01c7b784f9e78d9f46514b209c4932af", "type": "electric_scooter", "lon": -77.022876}, {"is_reserved": 0, "lat": 38.9692585, "rental_uris": {"android": "https://dc.lft.to/lastmile_qr_scan", "ios": "https://dc.lft.to/lastmile_qr_scan"}, "bike_id": "4d1b48a135c44de233dad71da9df8295", "fusion_lon": 0.0, "fusion_lat": 0.0, "is_disabled": 0, "name": "4d1b48a135c44de233dad71da9df8295", "type": "electric_bike", "lon": -77.02620583333334}, {"is_reserved": 0, "lat": 38.89615283333333, "rental_uris": {"android": "https://dc.lft.to/lastmile_qr_scan", "ios": "https://dc.lft.to/lastmile_qr_scan"}, "bike_id": "581dda1113c82c7865bb0290581016a6", "fusion_lon": 0.0, "fusion_lat": 0.0, "is_disabled": 0, "name": "581dda1113c82c7865bb0290581016a6", "type": "electric_scooter", "lon": -77.03162716666667}, {"is_reserved": 0, "lat": 38.909430666666665, "rental_uris": {"android": "https://dc.lft.to/lastmile_qr_scan", "ios": "https://dc.lft.to/lastmile_qr_scan"},