{"data": {"bikes": [{"lon": -77.05014466666667, "fusion_lon": 0.0, "bike_id": "0aadab6ec97f37e4e52088ccb84fc724", "type": "electric_scooter", "name": "0aadab6ec97f37e4e52088ccb84fc724", "rental_uris": {"android": "https://dc.lft.to/lastmile_qr_scan", "ios": "https://dc.lft.to/lastmile_qr_scan"}, "is_disabled": 0, "fusion_lat": 0.0, "lat": 38.9067175, "is_reserved": 0}, {"lon": -77.02794816666666, "fusion_lon": 0.0, "bike_id": "e71cbf1f101db79faacdf3e8e2f66a3f", "type": "electric_scooter", "name": "e71cbf1f101db79faacdf3e8e2f66a3f", "rental_uris": {"android": "https://dc.lft.to/lastmile_qr_scan", "ios": "https://dc.lft.to/lastmile_qr_scan"}, "is_disabled": 0, "fusion_lat": 0.0, "lat": 38.960461333333335, "is_reserved": 0}, {"lon": -77.03579066666667, "fusion_lon": 0.0, "bike_id": "833f2c3f2a8fcb0cb5390851bd4440c2", "type": "electric_scooter", "name": "833f2c3f2a8fcb0cb5390851bd4440c2", "rental_uris": {"android": "https://dc.lft.to/lastmile_qr_scan", "ios": "https://dc.lft.to/lastmile_qr_scan"}, "is_disabled": 0, "fusion_lat": 0.0, "lat": 38.90380366666667, "is_reserved": 0}, {"lon": -77.03406016666666, "fusion_lon": 0.0, "bike_id": "b54abc1dddc87751ec0f3167128f9200", "type": "electric_scooter", "name": "b54abc1dddc87751ec0f3167128f9200", "rental_uris": {"android": "https://dc.lft.to/lastmile_qr_scan", "ios": "https://dc.lft.to/lastmile_qr_scan"}, "is_disabled": 0, "fusion_lat": 0.0, "lat": 38.92437366666667, "is_reserved": 0}, {"lon": -77.03158316666666, "fusion_lon": 0.0, "bike_id": "e30478bb2a4e421c52fe4011951ee07b", "type": "electric_scooter", "name": "e30478bb2a4e421c52fe4011951ee07b", "rental_uris": {"android": "https://dc.lft.to/lastmile_qr_scan", "ios": "https://dc.lft.to/lastmile_qr_scan"}, "is_disabled": 0, "fusion_lat": 0.0, "lat": 38.8973675, "is_reserved": 0}, {"lon": -77.03267483333333, "fusion_lon": 0.0, "bike_id": "05a86352f5fc3db3f87a4147cf3b5184", "type": "electric_scooter", "name": "05a86352f5fc3db3f87a4147cf3b5184", "rental_uris": {"android": "https://dc.lft.to/lastmile_qr_scan", "ios": "https://dc.lft.to/lastmile_qr_scan"}, "is_disabled": 0, "fusion_lat": 0.0, "lat": 38.93774066666667, "is_reserved": 0}, {"lon": -77.02696016666667, "fusion_lon": 0.0, "bike_id": "2ba4785291cdce8350235d1012fb2864", "type": "electric_scooter", "name": "2ba4785291cdce8350235d1012fb2864", "rental_uris": {"android": "https://dc.lft.to/lastmile_qr_scan", "ios": "https://dc.lft.to/lastmile_qr_scan"}, "is_disabled": 0, "fusion_lat": 0.0, "lat": 38.907032, "is_reserved": 0}, {"lon": -77.03364633333334, "fusion_lon": 0.0, "bike_id": "3749ec51f4c6b1c8f17bcc3acac46485", "type": "electric_scooter", "name": "3749ec51f4c6b1c8f17bcc3acac46485", "rental_uris": {"android": "https://dc.lft.to/lastmile_qr_scan", "ios": "https://dc.lft.to/lastmile_qr_scan"}, "is_disabled": 0, "fusion_lat": 0.0, "lat": 38.923474, "is_reserved": 0}, {"lon": -77.03358333333334, "fusion_lon": 0.0, "bike_id": "d2ecfee267dd4a7aecc80552e38e15c6", "type": "electric_scooter", "name": "d2ecfee267dd4a7aecc80552e38e15c6", "rental_uris": {"android": "https://dc.lft.to/lastmile_qr_scan", "ios": "https://dc.lft.to/lastmile_qr_scan"}, "is_disabled": 0, "fusion_lat": 0.0, "lat": 38.88696133333333, "is_reserved": 0}, {"lon": -77.03325466666666, "fusion_lon": 0.0, "bike_id": "519dea8f3595425e450eff2b0f6ebc7b", "type": "electric_scooter", "name": "519dea8f3595425e450eff2b0f6ebc7b", "rental_uris": {"android": "https://dc.lft.to/lastmile_qr_scan", "ios": "https://dc.lft.to/lastmile_qr_scan"}, "is_disabled": 0, "fusion_lat": 0.0, "lat": 38.92150316666667, "is_reserved": 0}, {"lon": -77.01977283333333, "fusion_lon": 0.0, "bike_id": "3c6d6b359db8654e0ad49db25eb3bbca", "type": "electric_scooter", "name": "3c6d6b359db8654e0ad49db25eb3bbca", "rental_uris": {"android": "https://dc.lft.to/lastmile_qr_scan", "ios": "https://dc.lft.to/lastmile_qr_scan"}, "is_disabled": 0, "fusion_lat": 0.0, "lat": 38.902403, "is_reserved": 0}, {"lon": -77.03431416666666, "fusion_lon": 0.0, "bike_id": "bf62c9cf1f8ff7b555ad740d5e410214", "type": "electric_bike", "name": "bf62c9cf1f8ff7b555ad740d5e410214", "rental_uris": {"android": "https://dc.lft.to/lastmile_qr_scan", "ios": "https://dc.lft.to/lastmile_qr_scan"}, "is_disabled": 0, "fusion_lat": 0.0, "lat": 38.966236333333335, "is_reserved": 0}, {"lon": -77.027062, "fusion_lon": 0.0, "bike_id": "e0b29b0e6be530f181033d50409c1360", "type": "electric_scooter", "name": "e0b29b0e6be530f181033d50409c1360", "rental_uris": {"android": "https://dc.lft.to/lastmile_qr_scan", "ios": "https://dc.lft.to/lastmile_qr_scan"}, "is_disabled": 0, "fusion_lat": 0.0, "lat": 38.928791833333335, "is_reserved": 0}, {"lon": -77.0163745, "fusion_lon": 0.0, "bike_id": "af0214c248b2fdd34b59f2d9ad79c155", "type": "electric_scooter", "name": "af0214c248b2fdd34b59f2d9ad79c155", "rental_uris": {"android": "https://dc.lft.to/lastmile_qr_scan", "ios": "https://dc.lft.to/lastmile_qr_scan"}, "is_disabled": 0, "fusion_lat": 0.0, "lat": 38.90365833333333, "is_reserved": 0}, {"lon": -77.03656766666667, "fusion_lon": 0.0, "bike_id": "dea751f6860724eded5fb3203a0dcfce", "type": "electric_scooter", "name": "dea751f6860724eded5fb3203a0dcfce", "rental_uris": {"android": "https://dc.lft.to/lastmile_qr_scan", "ios": "https://dc.lft.to/lastmile_qr_scan"}, "is_disabled": 0, "fusion_lat": 0.0, "lat": 38.92118516666667, "is_reserved": 0}, {"lon": -77.1085315, "fusion_lon": 0.0, "bike_id": "451e6f2d334c77077bf44dd81d1ec0ce", "type": "electric_bike", "name": "451e6f2d334c77077bf44dd81d1ec0ce", "rental_uris": {"android": "https://dc.lft.to/lastmile_qr_scan", "ios": "https://dc.lft.to/lastmile_qr_scan"}, "is_disabled": 0, "fusion_lat": 0.0, "lat": 38.8724, "is_reserved": 0}, {"lon": -77.06106166666666, "fusion_lon": 0.0, "bike_id": "491879e91cfc77f078d6f18ba9b3af47", "type": "electric_scooter", "name": "491879e91cfc77f078d6f18ba9b3af47", "rental_uris": {"android": "https://dc.lft.to/lastmile_qr_scan", "ios": "https://dc.lft.to/lastmile_qr_scan"}, "is_disabled": 0, "fusion_lat": 0.0, "lat": 38.937056166666665, "is_reserved": 0}, {"lon": -77.00890183333334, "fusion_lon": 0.0, "bike_id": "dd066cc557adfdc7c0b73f4bc6766d01", "type": "electric_scooter", "name": "dd066cc557adfdc7c0b73f4bc6766d01", "rental_uris": {"android": "https://dc.lft.to/lastmile_qr_scan", "ios": "https://dc.lft.to/lastmile_qr_scan"}, "is_disabled": 0, "fusion_lat": 0.0, "lat": 38.9683075, "is_reserved": 0}, {"lon": -76.99517016666667, "fusion_lon": 0.0, "bike_id": "98c8c582b315e67475e3eea32e63dea5", "type": "electric_bike", "name": "98c8c582b315e67475e3eea32e63dea5", "rental_uris": {"android": "https://dc.lft.to/lastmile_qr_scan", "ios": "https://dc.lft.to/lastmile_qr_scan"}, "is_disabled": 0, "fusion_lat": 0.0, "lat": 38.8217405, "is_reserved": 0}, {"lon": -76.98543833333333, "fusion_lon": 0.0, "bike_id": "f2e5a5393e074ffbb554763224771728", "type": "electric_scooter", "name": "f2e5a5393e074ffbb554763224771728", "rental_uris": {"android": "https://dc.lft.to/lastmile_qr_scan", "ios": "https://dc.lft.to/lastmile_qr_scan"}, "is_disabled": 0, "fusion_lat": 0.0, "lat": 38.86688783333334, "is_reserved": 0}, {"lon": -77.023609, "fusion_lon": 0.0, "bike_id": "da849de462e7eb9db29ea57f474a835a", "type": "electric_scooter", "name": "da849de462e7eb9db29ea57f474a835a", "rental_uris": {"android": "https://dc.lft.to/lastmile_qr_scan", "ios": "https://dc.lft.to/lastmile_qr_scan"}, "is_disabled": 0, "fusion_lat": 0.0, "lat": 38.93536066666667, "is_reserved": 0}, {"lon": -77.02214633333334, "fusion_lon": 0.0, "bike_id": "4fcdeed57cf2aaa96dcaf2dcb474e85f", "type": "electric_bike", "name": "4fcdeed57cf2aaa96dcaf2dcb474e85f", "rental_uris": {"android": "https://dc.lft.to/lastmile_qr_scan", "ios": "https://dc.lft.to/lastmile_qr_scan"}, "is_disabled": 0, "fusion_lat": 0.0, "lat": 38.93395783333333, "is_reserved": 0}, {"lon": -77.039617, "fusion_lon": 0.0, "bike_id": "fcc007f4620193c73c1db5ff62d73efd", "type": "electric_scooter", "name": "fcc007f4620193c73c1db5ff62d73efd", "rental_uris": {"android": "https://dc.lft.to/lastmile_qr_scan", "ios": "https://dc.lft.to/lastmile_qr_scan"}, "is_disabled": 0, "fusion_lat": 0.0, "lat": 38.9170865, "is_reserved": 0}, {"lon": -77.00067516666667, "fusion_lon": 0.0, "bike_id": "9d2c67c9d47d1ad4fb96522b70a2577a", "type": "electric_scooter", "name": "9d2c67c9d47d1ad4fb96522b70a2577a", "rental_uris": {"android": "https://dc.lft.to/lastmile_qr_scan", "ios": "https://dc.lft.to/lastmile_qr_scan"}, "is_disabled": 0, "fusion_lat": 0.0, "lat": 38.92540016666667, "is_reserved": 0}, {"lon": -77.033224, "fusion_lon": 0.0, "bike_id": "3d3e557a70bf51305f9d940b081288cd", "type": "electric_scooter", "name": "3d3e557a70bf51305f9d940b081288cd", "rental_uris": {"android": "https://dc.lft.to/lastmile_qr_scan", "ios": "https://dc.lft.to/lastmile_qr_scan"}, "is_disabled": 0, "fusion_lat": 0.0, "lat": 38.890094166666664, "is_reserved": 0}, {"lon": -77.0166565, "fusion_lon": 0.0, "bike_id": "59ca826343e489b29d97ffdb87fa72ba", "type": "electric_scooter", "name": "59ca826343e489b29d97ffdb87fa72ba", "rental_uris": {"android": "https://dc.lft.to/lastmile_qr_scan", "ios": "https://dc.lft.to/lastmile_qr_scan"}, "is_disabled": 0, "fusion_lat": 0.0, "lat": 38.88116766666667, "is_reserved": 0}, {"lon": -77.03741516666666, "fusion_lon": 0.0, "bike_id": "95e2f78ee673b06bc358662f901fefbb", "type": "electric_scooter", "name": "95e2f78ee673b06bc358662f901fefbb", "rental_uris": {"android": "https://dc.lft.to/lastmile_qr_scan", "ios": "https://dc.lft.to/lastmile_qr_scan"}, "is_disabled": 0, "fusion_lat": 0.0, "lat": 38.92873266666667, "is_reserved": 0}, {"lon": -77.02100683333333, "fusion_lon": 0.0, "bike_id": "a85e8fa61269150e9ec216afffb320a4", "type": "electric_bike", "name": "a85e8fa61269150e9ec216afffb320a4", "rental_uris": {"android": "https://dc.lft.to/lastmile_qr_scan", "ios": "https://dc.lft.to/lastmile_qr_scan"}, "is_disabled": 0, "fusion_lat": 0.0, "lat": 38.9117185, "is_reserved": 0}, {"lon": -77.0307255, "fusion_lon": 0.0, "bike_id": "82e92a0c1492845ace34a431e3e4e973", "type": "electric_scooter", "name": "82e92a0c1492845ace34a431e3e4e973", "rental_uris": {"android": "https://dc.lft.to/lastmile_qr_scan", "ios": "https://dc.lft.to/lastmile_qr_scan"}, "is_disabled": 0, "fusion_lat": 0.0, "lat": 38.9224755, "is_reserved": 0}, {"lon": -76.99732516666667, "fusion_lon": 0.0, "bike_id": "01323d16f1bf7b706887ab97cab4db1a", "type": "electric_scooter", "name": "01323d16f1bf7b706887ab97cab4db1a", "rental_uris": {"android": "https://dc.lft.to/lastmile_qr_scan", "ios": "https://dc.lft.to/lastmile_qr_scan"}, "is_disabled": 0, "fusion_lat": 0.0, "lat": 38.8993145, "is_reserved": 0}, {"lon": -77.0318855, "fusion_lon": 0.0, "bike_id": "76c5eb277184da672d082c547e707da7", "type": "electric_scooter", "name": "76c5eb277184da672d082c547e707da7", "rental_uris": {"android": "https://dc.lft.to/lastmile_qr_scan", "ios": "https://dc.lft.to/lastmile_qr_scan"}, "is_disabled": 0, "fusion_lat": 0.0, "lat": 38.91785433333333, "is_reserved": 0}, {"lon": -76.99699, "fusion_lon": 0.0, "bike_id": "723699a421d2db53599053b0b38b5470", "type": "electric_scooter", "name": "723699a421d2db53599053b0b38b5470", "rental_uris": {"android": "https://dc.lft.to/lastmile_qr_scan", "ios": "https://dc.lft.to/lastmile_qr_scan"}, "is_disabled": 0, "fusion_lat": 0.0, "lat": 38.88418016666667, "is_reserved": 0}, {"lon": -76.946332, "fusion_lon": 0.0, "bike_id": "ed1caba9e550b37b558889804fbff9a8", "type": "electric_scooter", "name": "ed1caba9e550b37b558889804fbff9a8", "rental_uris": {"android": "https://dc.lft.to/lastmile_qr_scan", "ios": "https://dc.lft.to/lastmile_qr_scan"}, "is_disabled": 0, "fusion_lat": 0.0, "lat": 38.898304833333334, "is_reserved": 0}, {"lon": -77.02175533333333, "fusion_lon": 0.0, "bike_id": "5a5e9e2cfcb943ee4287f93f98db79ff", "type": "electric_scooter", "name": "5a5e9e2cfcb943ee4287f93f98db79ff", "rental_uris": {"android": "https://dc.lft.to/lastmile_qr_scan", "ios": "https://dc.lft.to/lastmile_qr_scan"}, "is_disabled": 0, "fusion_lat": 0.0, "lat": 38.9429025, "is_reserved": 0}, {"lon": -76.99765883333333, "fusion_lon": 0.0, "bike_id": "872befecbd4aea7b5b28987f8a00933e", "type": "electric_scooter", "name": "872befecbd4aea7b5b28987f8a00933e", "rental_uris": {"android": "https://dc.lft.to/lastmile_qr_scan", "ios": "https://dc.lft.to/lastmile_qr_scan"}, "is_disabled": 0, "fusion_lat": 0.0, "lat": 38.90892383333333, "is_reserved": 0}, {"lon": -77.0317175, "fusion_lon": 0.0, "bike_id": "065ef92d07e30e808c1035b4b562a712", "type": "electric_scooter", "name": "065ef92d07e30e808c1035b4b562a712", "rental_uris": {"android": "https://dc.lft.to/lastmile_qr_scan", "ios": "https://dc.lft.to/lastmile_qr_scan"}, "is_disabled": 0, "fusion_lat": 0.0, "lat": 38.919213666666664, "is_reserved": 0}, {"lon": -77.03884033333334, "fusion_lon": 0.0, "bike_id": "a1d20bb6bba6931f47a9630fdcf87f2b", "type": "electric_scooter", "name": "a1d20bb6bba6931f47a9630fdcf87f2b", "rental_uris": {"android": "https://dc.lft.to/lastmile_qr_scan", "ios": "https://dc.lft.to/lastmile_qr_scan"}, "is_disabled": 0, "fusion_lat": 0.0, "lat": 38.914679166666666, "is_reserved": 0}, {"lon": -77.05040266666667, "fusion_lon": 0.0, "bike_id": "818d6d3ff863db3c1cd59a77300a534e", "type": "electric_scooter", "name": "818d6d3ff863db3c1cd59a77300a534e", "rental_uris": {"android": "https://dc.lft.to/lastmile_qr_scan", "ios": "https://dc.lft.to/lastmile_qr_scan"}, "is_disabled": 0, "fusion_lat": 0.0, "lat": 38.92339833333333, "is_reserved": 0}, {"lon": -77.10791083333334, "fusion_lon": 0.0, "bike_id": "3acd771a0414d267c98213c678093c65", "type": "electric_bike", "name": "3acd771a0414d267c98213c678093c65", "rental_uris": {"android": "https://dc.lft.to/lastmile_qr_scan", "ios": "https://dc.lft.to/lastmile_qr_scan"}, "is_disabled": 0, "fusion_lat": 0.0, "lat": 38.8524975, "is_reserved": 0}, {"lon": -76.99130383333333, "fusion_lon": 0.0, "bike_id": "9783e59a02aef1d8e707ee00a550aaef", "type": "electric_scooter", "name": "9783e59a02aef1d8e707ee00a550aaef", "rental_uris": {"android": "https://dc.lft.to/lastmile_qr_scan", "ios": "https://dc.lft.to/lastmile_qr_scan"}, "is_disabled": 0, "fusion_lat": 0.0, "lat": 38.84640133333333, "is_reserved": 0}, {"lon": -77.04491383333334, "fusion_lon": 0.0, "bike_id": "1af1c635d6d583e8c607e918dbe31963", "type": "electric_scooter", "name": "1af1c635d6d583e8c607e918dbe31963", "rental_uris": {"android": "https://dc.lft.to/lastmile_qr_scan", "ios": "https://dc.lft.to/lastmile_qr_scan"}, "is_disabled": 0, "fusion_lat": 0.0, "lat": 38.9110535, "is_reserved": 0}, {"lon": -77.04484616666667, "fusion_lon": 0.0, "bike_id": "2c72ca3c77c44756b337458ea3ba8ec5", "type": "electric_scooter", "name": "2c72ca3c77c44756b337458ea3ba8ec5", "rental_uris": {"android": "https://dc.lft.to/lastmile_qr_scan", "ios": "https://dc.lft.to/lastmile_qr_scan"}, "is_disabled": 0, "fusion_lat": 0.0, "lat": 38.8995615, "is_reserved": 0}, {"lon": -77.0320025, "fusion_lon": 0.0, "bike_id": "d472a673c8c3144c0621d908d56341fc", "type": "electric_scooter", "name": "d472a673c8c3144c0621d908d56341fc", "rental_uris": {"android": "https://dc.lft.to/lastmile_qr_scan", "ios": "https://dc.lft.to/lastmile_qr_scan"}, "is_disabled": 0, "fusion_lat": 0.0, "lat": 38.9183115, "is_reserved": 0}, {"lon": -77.038364, "fusion_lon": 0.0, "bike_id": "5f62cecb5d652f78f9f71e0fb8fef2af", "type": "electric_scooter", "name": "5f62cecb5d652f78f9f71e0fb8fef2af", "rental_uris": {"android": "https://dc.lft.to/lastmile_qr_scan", "ios": "https://dc.lft.to/lastmile_qr_scan"}, "is_disabled": 0, "fusion_lat": 0.0, "lat": 38.90276316666667, "is_reserved": 0}, {"lon": -76.9463925, "fusion_lon": 0.0, "bike_id": "68bf72f55e2009ca9d26bf73d64e258a", "type": "electric_scooter", "name": "68bf72f55e2009ca9d26bf73d64e258a", "rental_uris": {"android": "https://dc.lft.to/lastmile_qr_scan", "ios": "https://dc.lft.to/lastmile_qr_scan"}, "is_disabled": 0, "fusion_lat": 0.0, "lat": 38.89858683333333, "is_reserved": 0}, {"lon": -77.02102633333334, "fusion_lon": 0.0, "bike_id": "2f043871f77a0cab8c4c67c3078ab412", "type": "electric_bike", "name": "2f043871f77a0cab8c4c67c3078ab412", "rental_uris": {"android": "https://dc.lft.to/lastmile_qr_scan", "ios": "https://dc.lft.to/lastmile_qr_scan"}, "is_disabled": 0, "fusion_lat": 0.0, "lat": 38.93446633333333, "is_reserved": 0}, {"lon": -76.97549816666667, "fusion_lon": 0.0, "bike_id": "c4e81d66bcbc4ec6269d25300d8f0d37", "type": "electric_scooter", "name": "c4e81d66bcbc4ec6269d25300d8f0d37", "rental_uris": {"android": "https://dc.lft.to/lastmile_qr_scan", "ios": "https://dc.lft.to/lastmile_qr_scan"}, "is_disabled": 0, "fusion_lat": 0.0, "lat": 38.9031935, "is_reserved": 0}, {"lon": -77.040249, "fusion_lon": 0.0, "bike_id": "00c4c3eb36e2a86912d50125db724524", "type": "electric_scooter", "name": "00c4c3eb36e2a86912d50125db724524", "rental_uris": {"android": "https://dc.lft.to/lastmile_qr_scan", "ios": "https://dc.lft.to/lastmile_qr_scan"}, "is_disabled": 0, "fusion_lat": 0.0, "lat": 38.92173016666667, "is_reserved": 0}, {"lon": -77.02367883333334, "fusion_lon": 0.0, "bike_id": "5a3a545242315a263ac3fdedf9a7ac7b", "type": "electric_scooter", "name": "5a3a545242315a263ac3fdedf9a7ac7b", "rental_uris": {"android": "https://dc.lft.to/lastmile_qr_scan", "ios": "https://dc.lft.to/lastmile_qr_scan"}, "is_disabled": 0, "fusion_lat": 0.0, "lat": 38.90207183333333, "is_reserved": 0}, {"lon": -76.985637, "fusion_lon": 0.0, "bike_id": "88b0574154de750110dc8f7fb75e737e", "type": "electric_scooter", "name": "88b0574154de750110dc8f7fb75e737e", "rental_uris": {"android": "https://dc.lft.to/lastmile_qr_scan", "ios": "https://dc.lft.to/lastmile_qr_scan"}, "is_disabled": 0, "fusion_lat": 0.0, "lat": 38.8668165, "is_reserved": 0}, {"lon": -76.98766016666667, "fusion_lon": 0.0, "bike_id": "226085b8943a6c044b0ff9a47076956a", "type": "electric_scooter", "name": "226085b8943a6c044b0ff9a47076956a", "rental_uris": {"android": "https://dc.lft.to/lastmile_qr_scan", "ios": "https://dc.lft.to/lastmile_qr_scan"}, "is_disabled": 0, "fusion_lat": 0.0, "lat": 38.9002685, "is_reserved": 0}, {"lon": -77.02951966666667, "fusion_lon": 0.0, "bike_id": "c1083b0e9a89e32bb626782aefa0c289", "type": "electric_scooter", "name": "c1083b0e9a89e32bb626782aefa0c289", "rental_uris": {"android": "https://dc.lft.to/lastmile_qr_scan", "ios": "https://dc.lft.to/lastmile_qr_scan"}, "is_disabled": 0, "fusion_lat": 0.0, "lat": 38.905048, "is_reserved": 0}, {"lon": -76.96533183333334, "fusion_lon": 0.0, "bike_id": "c75610d1dc60ff2761d0eb6426d21526", "type": "electric_scooter", "name": "c75610d1dc60ff2761d0eb6426d21526", "rental_uris": {"android": "https://dc.lft.to/lastmile_qr_scan", "ios": "https://dc.lft.to/lastmile_qr_scan"}, "is_disabled": 0, "fusion_lat": 0.0, "lat": 38.8762515, "is_reserved": 0}, {"lon": -76.98615216666667, "fusion_lon": 0.0, "bike_id": "4468ee13906d3fdfc503a6e988194f5d", "type": "electric_scooter", "name": "4468ee13906d3fdfc503a6e988194f5d", "rental_uris": {"android": "https://dc.lft.to/lastmile_qr_scan", "ios": "https://dc.lft.to/lastmile_qr_scan"}, "is_disabled": 0, "fusion_lat": 0.0, "lat": 38.8827185, "is_reserved": 0}, {"lon": -77.02086283333334, "fusion_lon": 0.0, "bike_id": "810c99d263cc3e111f4ce92d6d4d6973", "type": "electric_scooter", "name": "810c99d263cc3e111f4ce92d6d4d6973", "rental_uris": {"android": "https://dc.lft.to/lastmile_qr_scan", "ios": "https://dc.lft.to/lastmile_qr_scan"}, "is_disabled": 0, "fusion_lat": 0.0, "lat": 38.881792833333336, "is_reserved": 0}, {"lon": -76.9860575, "fusion_lon": 0.0, "bike_id": "5abc7b160bda00ae025322cb1302a3e2", "type": "electric_scooter", "name": "5abc7b160bda00ae025322cb1302a3e2", "rental_uris": {"android": "https://dc.lft.to/lastmile_qr_scan", "ios": "https://dc.lft.to/lastmile_qr_scan"}, "is_disabled": 0, "fusion_lat": 0.0, "lat": 38.9002035, "is_reserved": 0}, {"lon": -77.030438, "fusion_lon": 0.0, "bike_id": "708805cc33794db1ef1cbb25d744b321", "type": "electric_scooter", "name": "708805cc33794db1ef1cbb25d744b321", "rental_uris": {"android": "https://dc.lft.to/lastmile_qr_scan", "ios": "https://dc.lft.to/lastmile_qr_scan"}, "is_disabled": 0, "fusion_lat": 0.0, "lat": 38.916913666666666, "is_reserved": 0}, {"lon": -77.03302883333333, "fusion_lon": 0.0, "bike_id": "d499fedc108281ddfd7f16a0eb5b7fc9", "type": "electric_scooter", "name": "d499fedc108281ddfd7f16a0eb5b7fc9", "rental_uris": {"android": "https://dc.lft.to/lastmile_qr_scan", "ios": "https://dc.lft.to/lastmile_qr_scan"}, "is_disabled": 0, "fusion_lat": 0.0, "lat": 38.956348, "is_reserved": 0}, {"lon": -77.042666, "fusion_lon": 0.0, "bike_id": "4bfd6b5de49dec7c4e57fee27040beae", "type": "electric_scooter", "name": "4bfd6b5de49dec7c4e57fee27040beae", "rental_uris": {"android": "https://dc.lft.to/lastmile_qr_scan", "ios": "https://dc.lft.to/lastmile_qr_scan"}, "is_disabled": 0, "fusion_lat": 0.0, "lat": 38.922381333333334, "is_reserved": 0}, {"lon": -76.96916083333333, "fusion_lon": 0.0, "bike_id": "9b3278d4b4bd8969aed106c6e899d73d", "type": "electric_scooter", "name": "9b3278d4b4bd8969aed106c6e899d73d", "rental_uris": {"android": "https://dc.lft.to/lastmile_qr_scan", "ios": "https://dc.lft.to/lastmile_qr_scan"}, "is_disabled": 0, "fusion_lat": 0.0, "lat": 38.855292166666665, "is_reserved": 0}, {"lon": -77.00257016666667, "fusion_lon": 0.0, "bike_id": "2fa026926c066e3469fac487634d709d", "type": "electric_scooter", "name": "2fa026926c066e3469fac487634d709d", "rental_uris": {"android": "https://dc.lft.to/lastmile_qr_scan", "ios": "https://dc.lft.to/lastmile_qr_scan"}, "is_disabled": 0, "fusion_lat": 0.0, "lat": 38.894961, "is_reserved": 0}, {"lon": -77.040949, "fusion_lon": 0.0, "bike_id": "df0f67fcb6497011a31b08051a7acd11", "type": "electric_scooter", "name": "df0f67fcb6497011a31b08051a7acd11", "rental_uris": {"android": "https://dc.lft.to/lastmile_qr_scan", "ios": "https://dc.lft.to/lastmile_qr_scan"}, "is_disabled": 0, "fusion_lat": 0.0, "lat": 38.91057883333333, "is_reserved": 0}, {"lon": -77.0110005, "fusion_lon": 0.0, "bike_id": "30be402d8455764f8283630505096348", "type": "electric_bike", "name": "30be402d8455764f8283630505096348", "rental_uris": {"android": "https://dc.lft.to/lastmile_qr_scan", "ios": "https://dc.lft.to/lastmile_qr_scan"}, "is_disabled": 0, "fusion_lat": 0.0, "lat": 38.872991166666665, "is_reserved": 0}, {"lon": -77.01411333333333, "fusion_lon": 0.0, "bike_id": "aafed28bf9cd77291d152d697199bc6e", "type": "electric_scooter", "name": "aafed28bf9cd77291d152d697199bc6e", "rental_uris": {"android": "https://dc.lft.to/lastmile_qr_scan", "ios": "https://dc.lft.to/lastmile_qr_scan"}, "is_disabled": 0, "fusion_lat": 0.0, "lat": 38.92804566666667, "is_reserved": 0}, {"lon": -76.93732216666666, "fusion_lon": 0.0, "bike_id": "ba19c29aa7ade705f50df098caea1dfc", "type": "electric_scooter", "name": "ba19c29aa7ade705f50df098caea1dfc", "rental_uris": {"android": "https://dc.lft.to/lastmile_qr_scan", "ios": "https://dc.lft.to/lastmile_qr_scan"}, "is_disabled": 0, "fusion_lat": 0.0, "lat": 38.89025866666667, "is_reserved": 0}, {"lon": -77.04874, "fusion_lon": 0.0, "bike_id": "f2b8a5e3a14c693b012ed1819f1dd172", "type": "electric_scooter", "name": "f2b8a5e3a14c693b012ed1819f1dd172", "rental_uris": {"android": "https://dc.lft.to/lastmile_qr_scan", "ios": "https://dc.lft.to/lastmile_qr_scan"}, "is_disabled": 0, "fusion_lat": 0.0, "lat": 38.90967883333333, "is_reserved": 0}, {"lon": -77.04038016666667, "fusion_lon": 0.0, "bike_id": "cebb921ec25decd199c036b41a722931", "type": "electric_scooter", "name": "cebb921ec25decd199c036b41a722931", "rental_uris": {"android": "https://dc.lft.to/lastmile_qr_scan", "ios": "https://dc.lft.to/lastmile_qr_scan"}, "is_disabled": 0, "fusion_lat": 0.0, "lat": 38.905809, "is_reserved": 0}, {"lon": -77.005324, "fusion_lon": 0.0, "bike_id": "012c549bf3f8b3648fde701015eff5a3", "type": "electric_scooter", "name": "012c549bf3f8b3648fde701015eff5a3", "rental_uris": {"android": "https://dc.lft.to/lastmile_qr_scan", "ios": "https://dc.lft.to/lastmile_qr_scan"}, "is_disabled": 0, "fusion_lat": 0.0, "lat": 38.84648983333334, "is_reserved": 0}, {"lon": -77.03714216666667, "fusion_lon": 0.0, "bike_id": "c1bd76dff4326509c427891148249baf", "type": "electric_scooter", "name": "c1bd76dff4326509c427891148249baf", "rental_uris": {"android": "https://dc.lft.to/lastmile_qr_scan", "ios": "https://dc.lft.to/lastmile_qr_scan"}, "is_disabled": 0, "fusion_lat": 0.0, "lat": 38.92787783333333, "is_reserved": 0}, {"lon": -77.06333783333334, "fusion_lon": 0.0, "bike_id": "5089f97c014c2636f1f97fc0c5a117b0", "type": "electric_scooter", "name": "5089f97c014c2636f1f97fc0c5a117b0", "rental_uris": {"android": "https://dc.lft.to/lastmile_qr_scan", "ios": "https://dc.lft.to/lastmile_qr_scan"}, "is_disabled": 0, "fusion_lat": 0.0, "lat": 38.92111333333333, "is_reserved": 0}, {"lon": -77.01211383333333, "fusion_lon": 0.0, "bike_id": "d1589cbdecaa6c265e64d8f7b7b625ba", "type": "electric_scooter", "name": "d1589cbdecaa6c265e64d8f7b7b625ba", "rental_uris": {"android": "https://dc.lft.to/lastmile_qr_scan", "ios": "https://dc.lft.to/lastmile_qr_scan"}, "is_disabled": 0, "fusion_lat": 0.0, "lat": 38.874688166666665, "is_reserved": 0}, {"lon": -77.009149, "fusion_lon": 0.0, "bike_id": "414f72aa3c99eee6cd6071b997a5d388", "type": "electric_scooter", "name": "414f72aa3c99eee6cd6071b997a5d388", "rental_uris": {"android": "https://dc.lft.to/lastmile_qr_scan", "ios": "https://dc.lft.to/lastmile_qr_scan"}, "is_disabled": 0, "fusion_lat": 0.0, "lat": 38.922703, "is_reserved": 0}, {"lon": -77.0470535, "fusion_lon": 0.0, "bike_id": "fcf25742f9c01452d9af7e7b5524f4ee", "type": "electric_scooter", "name": "fcf25742f9c01452d9af7e7b5524f4ee", "rental_uris": {"android": "https://dc.lft.to/lastmile_qr_scan", "ios": "https://dc.lft.to/lastmile_qr_scan"}, "is_disabled": 0, "fusion_lat": 0.0, "lat": 38.92180116666667, "is_reserved": 0}, {"lon": -77.04271466666667, "fusion_lon": 0.0, "bike_id": "938dfb17f60794d0c7d3dcf5d62f0cff", "type": "electric_scooter", "name": "938dfb17f60794d0c7d3dcf5d62f0cff", "rental_uris": {"android": "https://dc.lft.to/lastmile_qr_scan", "ios": "https://dc.lft.to/lastmile_qr_scan"}, "is_disabled": 0, "fusion_lat": 0.0, "lat": 38.9254575, "is_reserved": 0}, {"lon": -77.0335445, "fusion_lon": 0.0, "bike_id": "76f69dc6c34c807af52140abd635c630", "type": "electric_scooter", "name": "76f69dc6c34c807af52140abd635c630", "rental_uris": {"android": "https://dc.lft.to/lastmile_qr_scan", "ios": "https://dc.lft.to/lastmile_qr_scan"}, "is_disabled": 0, "fusion_lat": 0.0, "lat": 38.93846116666667, "is_reserved": 0}, {"lon": -77.02281483333333, "fusion_lon": 0.0, "bike_id": "2c7a0036c9b42ba93f078b4ee8d87a5c", "type": "electric_scooter", "name": "2c7a0036c9b42ba93f078b4ee8d87a5c", "rental_uris": {"android": "https://dc.lft.to/lastmile_qr_scan", "ios": "https://dc.lft.to/lastmile_qr_scan"}, "is_disabled": 0, "fusion_lat": 0.0, "lat": 38.927313166666664, "is_reserved": 0}, {"lon": -77.02413516666667, "fusion_lon": 0.0, "bike_id": "5fda872b2d9b8f140a6fb46292167cce", "type": "electric_scooter", "name": "5fda872b2d9b8f140a6fb46292167cce", "rental_uris": {"android": "https://dc.lft.to/lastmile_qr_scan", "ios": "https://dc.lft.to/lastmile_qr_scan"}, "is_disabled": 0, "fusion_lat": 0.0, "lat": 38.9057765, "is_reserved": 0}, {"lon": -77.02370483333333, "fusion_lon": 0.0, "bike_id": "fb6c439adf4222d86b65c77eeeb7c24c", "type": "electric_scooter", "name": "fb6c439adf4222d86b65c77eeeb7c24c", "rental_uris": {"android": "https://dc.lft.to/lastmile_qr_scan", "ios": "https://dc.lft.to/lastmile_qr_scan"}, "is_disabled": 0, "fusion_lat": 0.0, "lat": 38.902197, "is_reserved": 0}, {"lon": -76.96530766666666, "fusion_lon": 0.0, "bike_id": "8d06234e9be5362f8a5f5e3864990b08", "type": "electric_scooter", "name": "8d06234e9be5362f8a5f5e3864990b08", "rental_uris": {"android": "https://dc.lft.to/lastmile_qr_scan", "ios": "https://dc.lft.to/lastmile_qr_scan"}, "is_disabled": 0, "fusion_lat": 0.0, "lat": 38.876268833333334, "is_reserved": 0}, {"lon": -77.0220805, "fusion_lon": 0.0, "bike_id": "66a5434e3bd490087f340b35b11be9c7", "type": "electric_scooter", "name": "66a5434e3bd490087f340b35b11be9c7", "rental_uris": {"android": "https://dc.lft.to/lastmile_qr_scan", "ios": "https://dc.lft.to/lastmile_qr_scan"}, "is_disabled": 0, "fusion_lat": 0.0, "lat": 38.8951755, "is_reserved": 0}, {"lon": -77.0331785, "fusion_lon": 0.0, "bike_id": "a47702b08f2e00e3c955d6fc4a910288", "type": "electric_scooter", "name": "a47702b08f2e00e3c955d6fc4a910288", "rental_uris": {"android": "https://dc.lft.to/lastmile_qr_scan", "ios": "https://dc.lft.to/lastmile_qr_scan"}, "is_disabled": 0, "fusion_lat": 0.0, "lat": 38.91106666666667, "is_reserved": 0}, {"lon": -77.031916, "fusion_lon": 0.0, "bike_id": "f41786dcfcfdeee0140ecf6152e8d134", "type": "electric_scooter", "name": "f41786dcfcfdeee0140ecf6152e8d134", "rental_uris": {"android": "https://dc.lft.to/lastmile_qr_scan", "ios": "https://dc.lft.to/lastmile_qr_scan"}, "is_disabled": 0, "fusion_lat": 0.0, "lat": 38.9098455, "is_reserved": 0}, {"lon": -76.995977, "fusion_lon": 0.0, "bike_id": "5f085e11a0c0c3daacdd0c27fc84167f", "type": "electric_scooter", "name": "5f085e11a0c0c3daacdd0c27fc84167f", "rental_uris": {"android": "https://dc.lft.to/lastmile_qr_scan", "ios": "https://dc.lft.to/lastmile_qr_scan"}, "is_disabled": 0, "fusion_lat": 0.0, "lat": 38.85685433333333, "is_reserved": 0}, {"lon": -77.02349483333333, "fusion_lon": 0.0, "bike_id": "c4c168d7928075121d001098f01097af", "type": "electric_scooter", "name": "c4c168d7928075121d001098f01097af", "rental_uris": {"android": "https://dc.lft.to/lastmile_qr_scan", "ios": "https://dc.lft.to/lastmile_qr_scan"}, "is_disabled": 0, "fusion_lat": 0.0, "lat": 38.8939245, "is_reserved": 0}, {"lon": -76.9337385, "fusion_lon": 0.0, "bike_id": "2090beae1c8e66516c0e7ff73d86bd71", "type": "electric_scooter", "name": "2090beae1c8e66516c0e7ff73d86bd71", "rental_uris": {"android": "https://dc.lft.to/lastmile_qr_scan", "ios": "https://dc.lft.to/lastmile_qr_scan"}, "is_disabled": 0, "fusion_lat": 0.0, "lat": 38.899074166666665, "is_reserved": 0}, {"lon": -77.00427383333333, "fusion_lon": 0.0, "bike_id": "06c8538cd83b4dd2b15dcb02881beb32", "type": "electric_bike", "name": "06c8538cd83b4dd2b15dcb02881beb32", "rental_uris": {"android": "https://dc.lft.to/lastmile_qr_scan", "ios": "https://dc.lft.to/lastmile_qr_scan"}, "is_disabled": 0, "fusion_lat": 0.0, "lat": 38.91202033333333, "is_reserved": 0}, {"lon": -77.00801183333333, "fusion_lon": 0.0, "bike_id": "5112b1c0e448b65d1efd0488b5be41a8", "type": "electric_scooter", "name": "5112b1c0e448b65d1efd0488b5be41a8", "rental_uris": {"android": "https://dc.lft.to/lastmile_qr_scan", "ios": "https://dc.lft.to/lastmile_qr_scan"}, "is_disabled": 0, "fusion_lat": 0.0, "lat": 38.907402166666664, "is_reserved": 0}, {"lon": -76.9808905, "fusion_lon": 0.0, "bike_id": "8485f78a0da8668817ac2e0980ce3ee6", "type": "electric_scooter", "name": "8485f78a0da8668817ac2e0980ce3ee6", "rental_uris": {"android": "https://dc.lft.to/lastmile_qr_scan", "ios": "https://dc.lft.to/lastmile_qr_scan"}, "is_disabled": 0, "fusion_lat": 0.0, "lat": 38.92246983333333, "is_reserved": 0}, {"lon": -77.0325215, "fusion_lon": 0.0, "bike_id": "a5d6b35d5599b079d128bf3db4394f93", "type": "electric_scooter", "name": "a5d6b35d5599b079d128bf3db4394f93", "rental_uris": {"android": "https://dc.lft.to/lastmile_qr_scan", "ios": "https://dc.lft.to/lastmile_qr_scan"}, "is_disabled": 0, "fusion_lat": 0.0, "lat": 38.901360333333336, "is_reserved": 0}, {"lon": -76.9950155, "fusion_lon": 0.0, "bike_id": "5379bbfbec4c92fe126f192dae38ad26", "type": "electric_scooter", "name": "5379bbfbec4c92fe126f192dae38ad26", "rental_uris": {"android": "https://dc.lft.to/lastmile_qr_scan", "ios": "https://dc.lft.to/lastmile_qr_scan"}, "is_disabled": 0, "fusion_lat": 0.0, "lat": 38.9098, "is_reserved": 0}, {"lon": -77.03380816666666, "fusion_lon": 0.0, "bike_id": "6788837cc52137b49b80b28c5a86cb79", "type": "electric_scooter", "name": "6788837cc52137b49b80b28c5a86cb79", "rental_uris": {"android": "https://dc.lft.to/lastmile_qr_scan", "ios": "https://dc.lft.to/lastmile_qr_scan"}, "is_disabled": 0, "fusion_lat": 0.0, "lat": 38.92155016666667, "is_reserved": 0}, {"lon": -77.034441, "fusion_lon": 0.0, "bike_id": "e09a5f5d3b728c3c5f6e623e7570b6b8", "type": "electric_scooter", "name": "e09a5f5d3b728c3c5f6e623e7570b6b8", "rental_uris": {"android": "https://dc.lft.to/lastmile_qr_scan", "ios": "https://dc.lft.to/lastmile_qr_scan"}, "is_disabled": 0, "fusion_lat": 0.0, "lat": 38.902749166666666, "is_reserved": 0}, {"lon": -77.02175516666667, "fusion_lon": 0.0, "bike_id": "3dec899de932c1410805117785e47bcb", "type": "electric_scooter", "name": "3dec899de932c1410805117785e47bcb", "rental_uris": {"android": "https://dc.lft.to/lastmile_qr_scan", "ios": "https://dc.lft.to/lastmile_qr_scan"}, "is_disabled": 0, "fusion_lat": 0.0, "lat": 38.90568, "is_reserved": 0}, {"lon": -77.05160566666666, "fusion_lon": 0.0, "bike_id": "22412022994a95f71b888356849d0064", "type": "electric_scooter", "name": "22412022994a95f71b888356849d0064", "rental_uris": {"android": "https://dc.lft.to/lastmile_qr_scan", "ios": "https://dc.lft.to/lastmile_qr_scan"}, "is_disabled": 0, "fusion_lat": 0.0, "lat": 38.901112, "is_reserved": 0}, {"lon": -76.93731316666667, "fusion_lon": 0.0, "bike_id": "f37aea39c4ad696db272a7fc81d2ae6b", "type": "electric_scooter", "name": "f37aea39c4ad696db272a7fc81d2ae6b", "rental_uris": {"android": "https://dc.lft.to/lastmile_qr_scan", "ios": "https://dc.lft.to/lastmile_qr_scan"}, "is_disabled": 0, "fusion_lat": 0.0, "lat": 38.890241833333334, "is_reserved": 0}, {"lon": -77.02694416666667, "fusion_lon": 0.0, "bike_id": "b5f6c96dfda89b7cd93e061a5a98c8e5", "type": "electric_scooter", "name": "b5f6c96dfda89b7cd93e061a5a98c8e5", "rental_uris": {"android": "https://dc.lft.to/lastmile_qr_scan", "ios": "https://dc.lft.to/lastmile_qr_scan"}, "is_disabled": 0, "fusion_lat": 0.0, "lat": 38.9084575, "is_reserved": 0}, {"lon": -77.01268816666666, "fusion_lon": 0.0, "bike_id": "7554eebe3f6b331dcdfdbebba0b4aac7", "type": "electric_scooter", "name": "7554eebe3f6b331dcdfdbebba0b4aac7", "rental_uris": {"android": "https://dc.lft.to/lastmile_qr_scan", "ios": "https://dc.lft.to/lastmile_qr_scan"}, "is_disabled": 0, "fusion_lat": 0.0, "lat": 38.915416666666665, "is_reserved": 0}, {"lon": -77.0141245, "fusion_lon": 0.0, "bike_id": "3685ed1d7ebdcb5db74c94c2a2809239", "type": "electric_scooter", "name": "3685ed1d7ebdcb5db74c94c2a2809239", "rental_uris": {"android": "https://dc.lft.to/lastmile_qr_scan", "ios": "https://dc.lft.to/lastmile_qr_scan"}, "is_disabled": 0, "fusion_lat": 0.0, "lat": 38.92853916666667, "is_reserved": 0}, {"lon": -77.0021765, "fusion_lon": 0.0, "bike_id": "48c77f3552a776c22f040e754a229ad1", "type": "electric_scooter", "name": "48c77f3552a776c22f040e754a229ad1", "rental_uris": {"android": "https://dc.lft.to/lastmile_qr_scan", "ios": "https://dc.lft.to/lastmile_qr_scan"}, "is_disabled": 0, "fusion_lat": 0.0, "lat": 38.895308166666666, "is_reserved": 0}, {"lon": -76.97748283333334, "fusion_lon": 0.0, "bike_id": "3a90d3fb8e7a3a81edd8e3bb15eda163", "type": "electric_scooter", "name": "3a90d3fb8e7a3a81edd8e3bb15eda163", "rental_uris": {"android": "https://dc.lft.to/lastmile_qr_scan", "ios": "https://dc.lft.to/lastmile_qr_scan"}, "is_disabled": 0, "fusion_lat": 0.0, "lat": 38.888737666666664, "is_reserved": 0}, {"lon": -77.04558433333334, "fusion_lon": 0.0, "bike_id": "b3a30ce6aa0352fb1d6ba03d4f6d54f7", "type": "electric_scooter", "name": "b3a30ce6aa0352fb1d6ba03d4f6d54f7", "rental_uris": {"android": "https://dc.lft.to/lastmile_qr_scan", "ios": "https://dc.lft.to/lastmile_qr_scan"}, "is_disabled": 0, "fusion_lat": 0.0, "lat": 38.898449166666666, "is_reserved": 0}, {"lon": -77.03805966666667, "fusion_lon": 0.0, "bike_id": "6cb6e9ab353f7b10d74ecdb87330e708", "type": "electric_scooter", "name": "6cb6e9ab353f7b10d74ecdb87330e708", "rental_uris": {"android": "https://dc.lft.to/lastmile_qr_scan", "ios": "https://dc.lft.to/lastmile_qr_scan"}, "is_disabled": 0, "fusion_lat": 0.0, "lat": 38.902581833333336, "is_reserved": 0}, {"lon": -77.0363875, "fusion_lon": 0.0, "bike_id": "755b88f150b3a23af9de65c73f32b2f2", "type": "electric_scooter", "name": "755b88f150b3a23af9de65c73f32b2f2", "rental_uris": {"android": "https://dc.lft.to/lastmile_qr_scan", "ios": "https://dc.lft.to/lastmile_qr_scan"}, "is_disabled": 0, "fusion_lat": 0.0, "lat": 38.90689583333333, "is_reserved": 0}, {"lon": -77.02487983333333, "fusion_lon": 0.0, "bike_id": "70cc74f0a0bf73bf3af1622e45fc7ca9", "type": "electric_scooter", "name": "70cc74f0a0bf73bf3af1622e45fc7ca9", "rental_uris": {"android": "https://dc.lft.to/lastmile_qr_scan", "ios": "https://dc.lft.to/lastmile_qr_scan"}, "is_disabled": 0, "fusion_lat": 0.0, "lat": 38.94183666666667, "is_reserved": 0}, {"lon": -76.94941766666666, "fusion_lon": 0.0, "bike_id": "c9caa2cfe9e5d787b6a12c677a12c0f1", "type": "electric_scooter", "name": "c9caa2cfe9e5d787b6a12c677a12c0f1", "rental_uris": {"android": "https://dc.lft.to/lastmile_qr_scan", "ios": "https://dc.lft.to/lastmile_qr_scan"}, "is_disabled": 0, "fusion_lat": 0.0, "lat": 38.89359233333333, "is_reserved": 0}, {"lon": -77.00686366666666, "fusion_lon": 0.0, "bike_id": "07bd6b08ab224a98eded3fd028fed978", "type": "electric_scooter", "name": "07bd6b08ab224a98eded3fd028fed978", "rental_uris": {"android": "https://dc.lft.to/lastmile_qr_scan", "ios": "https://dc.lft.to/lastmile_qr_scan"}, "is_disabled": 0, "fusion_lat": 0.0, "lat": 38.90020083333334, "is_reserved": 0}, {"lon": -76.99041283333334, "fusion_lon": 0.0, "bike_id": "bc28a19e6c3666d3ef1dff644459e1c7", "type": "electric_scooter", "name": "bc28a19e6c3666d3ef1dff644459e1c7", "rental_uris": {"android": "https://dc.lft.to/lastmile_qr_scan", "ios": "https://dc.lft.to/lastmile_qr_scan"}, "is_disabled": 0, "fusion_lat": 0.0, "lat": 38.86388516666667, "is_reserved": 0}, {"lon": -77.029644, "fusion_lon": 0.0, "bike_id": "7a1a5051916451c695e77eaca2327b43", "type": "electric_scooter", "name": "7a1a5051916451c695e77eaca2327b43", "rental_uris": {"android": "https://dc.lft.to/lastmile_qr_scan", "ios": "https://dc.lft.to/lastmile_qr_scan"}, "is_disabled": 0, "fusion_lat": 0.0, "lat": 38.912968166666666, "is_reserved": 0}, {"lon": -77.00049483333333, "fusion_lon": 0.0, "bike_id": "ea6c7e429e5e55ebb65e399e9a8f5604", "type": "electric_scooter", "name": "ea6c7e429e5e55ebb65e399e9a8f5604", "rental_uris": {"android": "https://dc.lft.to/lastmile_qr_scan", "ios": "https://dc.lft.to/lastmile_qr_scan"}, "is_disabled": 0, "fusion_lat": 0.0, "lat": 38.923616833333334, "is_reserved": 0}, {"lon": -77.03188216666666, "fusion_lon": 0.0, "bike_id": "d97f5d8f6624ca48f1f10abdb067e809", "type": "electric_scooter", "name": "d97f5d8f6624ca48f1f10abdb067e809", "rental_uris": {"android": "https://dc.lft.to/lastmile_qr_scan", "ios": "https://dc.lft.to/lastmile_qr_scan"}, "is_disabled": 0, "fusion_lat": 0.0, "lat": 38.92488083333333, "is_reserved": 0}, {"lon": -76.980001, "fusion_lon": 0.0, "bike_id": "1eaf4c179867daa4272b9eff3e23b456", "type": "electric_scooter", "name": "1eaf4c179867daa4272b9eff3e23b456", "rental_uris": {"android": "https://dc.lft.to/lastmile_qr_scan", "ios": "https://dc.lft.to/lastmile_qr_scan"}, "is_disabled": 0, "fusion_lat": 0.0, "lat": 38.864246, "is_reserved": 0}, {"lon": -77.04019, "fusion_lon": 0.0, "bike_id": "3223f89b29f2baf8709efe05b7f0fe18", "type": "electric_scooter", "name": "3223f89b29f2baf8709efe05b7f0fe18", "rental_uris": {"android": "https://dc.lft.to/lastmile_qr_scan", "ios": "https://dc.lft.to/lastmile_qr_scan"}, "is_disabled": 0, "fusion_lat": 0.0, "lat": 38.89649433333334, "is_reserved": 0}, {"lon": -77.01614233333333, "fusion_lon": 0.0, "bike_id": "8b029df24b81ec9875256f3e7c194da9", "type": "electric_scooter", "name": "8b029df24b81ec9875256f3e7c194da9", "rental_uris": {"android": "https://dc.lft.to/lastmile_qr_scan", "ios": "https://dc.lft.to/lastmile_qr_scan"}, "is_disabled": 0, "fusion_lat": 0.0, "lat": 38.90172966666667, "is_reserved": 0}, {"lon": -77.0549915, "fusion_lon": 0.0, "bike_id": "140e81457369520ad54ece94ec03feb7", "type": "electric_bike", "name": "140e81457369520ad54ece94ec03feb7", "rental_uris": {"android": "https://dc.lft.to/lastmile_qr_scan", "ios": "https://dc.lft.to/lastmile_qr_scan"}, "is_disabled": 0, "fusion_lat": 0.0, "lat": 38.90829433333333, "is_reserved": 0}, {"lon": -77.03848566666667, "fusion_lon": 0.0, "bike_id": "605a4e6aff05ae4a784b5600675ac9d0", "type": "electric_scooter", "name": "605a4e6aff05ae4a784b5600675ac9d0", "rental_uris": {"android": "https://dc.lft.to/lastmile_qr_scan", "ios": "https://dc.lft.to/lastmile_qr_scan"}, "is_disabled": 0, "fusion_lat": 0.0, "lat": 38.90269966666666, "is_reserved": 0}, {"lon": -76.9999275, "fusion_lon": 0.0, "bike_id": "fe0ad3bb2015a386f42a484f5402e01d", "type": "electric_scooter", "name": "fe0ad3bb2015a386f42a484f5402e01d", "rental_uris": {"android": "https://dc.lft.to/lastmile_qr_scan", "ios": "https://dc.lft.to/lastmile_qr_scan"}, "is_disabled": 0, "fusion_lat": 0.0, "lat": 38.874922166666664, "is_reserved": 0}, {"lon": -77.001341, "fusion_lon": 0.0, "bike_id": "16391fb0d602ce9a9f759f3e6ffe1f85", "type": "electric_scooter", "name": "16391fb0d602ce9a9f759f3e6ffe1f85", "rental_uris": {"android": "https://dc.lft.to/lastmile_qr_scan", "ios": "https://dc.lft.to/lastmile_qr_scan"}, "is_disabled": 0, "fusion_lat": 0.0, "lat": 38.892697166666665, "is_reserved": 0}, {"lon": -77.02559433333333, "fusion_lon": 0.0, "bike_id": "36b37bcb70e9ac95bc6b2f868f84bfd1", "type": "electric_scooter", "name": "36b37bcb70e9ac95bc6b2f868f84bfd1", "rental_uris": {"android": "https://dc.lft.to/lastmile_qr_scan", "ios": "https://dc.lft.to/lastmile_qr_scan"}, "is_disabled": 0, "fusion_lat": 0.0, "lat": 38.941759166666664, "is_reserved": 0}, {"lon": -77.023201, "fusion_lon": 0.0, "bike_id": "0a8a2d367f7633c169bdb67aa6caf177", "type": "electric_scooter", "name": "0a8a2d367f7633c169bdb67aa6caf177", "rental_uris": {"android": "https://dc.lft.to/lastmile_qr_scan", "ios": "https://dc.lft.to/lastmile_qr_scan"}, "is_disabled": 0, "fusion_lat": 0.0, "lat": 38.917212666666664, "is_reserved": 0}, {"lon": -77.033083, "fusion_lon": 0.0, "bike_id": "148a4a660eeaa69c8dafc9c11b994f31", "type": "electric_scooter", "name": "148a4a660eeaa69c8dafc9c11b994f31", "rental_uris": {"android": "https://dc.lft.to/lastmile_qr_scan", "ios": "https://dc.lft.to/lastmile_qr_scan"}, "is_disabled": 0, "fusion_lat": 0.0, "lat": 38.956339166666666, "is_reserved": 0}, {"lon": -76.981977, "fusion_lon": 0.0, "bike_id": "75f81e1682ad5efd3014369de9464c56", "type": "electric_scooter", "name": "75f81e1682ad5efd3014369de9464c56", "rental_uris": {"android": "https://dc.lft.to/lastmile_qr_scan", "ios": "https://dc.lft.to/lastmile_qr_scan"}, "is_disabled": 0, "fusion_lat": 0.0, "lat": 38.92062216666667, "is_reserved": 0}, {"lon": -77.0205765, "fusion_lon": 0.0, "bike_id": "b496213258378dcb7b16108fdccbf00a", "type": "electric_bike", "name": "b496213258378dcb7b16108fdccbf00a", "rental_uris": {"android": "https://dc.lft.to/lastmile_qr_scan", "ios": "https://dc.lft.to/lastmile_qr_scan"}, "is_disabled": 0, "fusion_lat": 0.0, "lat": 38.9329485, "is_reserved": 0}, {"lon": -76.9373915, "fusion_lon": 0.0, "bike_id": "b2b870a0aeffebe0c11906ebc7093f9d", "type": "electric_scooter", "name": "b2b870a0aeffebe0c11906ebc7093f9d", "rental_uris": {"android": "https://dc.lft.to/lastmile_qr_scan", "ios": "https://dc.lft.to/lastmile_qr_scan"}, "is_disabled": 0, "fusion_lat": 0.0, "lat": 38.890195166666665, "is_reserved": 0}, {"lon": -77.04319333333333, "fusion_lon": 0.0, "bike_id": "3d42241b4746d81eef496f5d981db31f", "type": "electric_scooter", "name": "3d42241b4746d81eef496f5d981db31f", "rental_uris": {"android": "https://dc.lft.to/lastmile_qr_scan", "ios": "https://dc.lft.to/lastmile_qr_scan"}, "is_disabled": 0, "fusion_lat": 0.0, "lat": 38.9034515, "is_reserved": 0}, {"lon": -77.02515516666666, "fusion_lon": 0.0, "bike_id": "d1e3e316446b10279626a9e022cb811f", "type": "electric_scooter", "name": "d1e3e316446b10279626a9e022cb811f", "rental_uris": {"android": "https://dc.lft.to/lastmile_qr_scan", "ios": "https://dc.lft.to/lastmile_qr_scan"}, "is_disabled": 0, "fusion_lat": 0.0, "lat": 38.91953083333333, "is_reserved": 0}, {"lon": -77.03185966666666, "fusion_lon": 0.0, "bike_id": "2ee25c6157fb89a68acd13260f8828f6", "type": "electric_scooter", "name": "2ee25c6157fb89a68acd13260f8828f6", "rental_uris": {"android": "https://dc.lft.to/lastmile_qr_scan", "ios": "https://dc.lft.to/lastmile_qr_scan"}, "is_disabled": 0, "fusion_lat": 0.0, "lat": 38.901206, "is_reserved": 0}, {"lon": -77.00055266666666, "fusion_lon": 0.0, "bike_id": "3283d458f83d1447c407e29e44fd1ec3", "type": "electric_scooter", "name": "3283d458f83d1447c407e29e44fd1ec3", "rental_uris": {"android": "https://dc.lft.to/lastmile_qr_scan", "ios": "https://dc.lft.to/lastmile_qr_scan"}, "is_disabled": 0, "fusion_lat": 0.0, "lat": 38.894355, "is_reserved": 0}, {"lon": -76.99374516666667, "fusion_lon": 0.0, "bike_id": "01b247ebe867d5b764ad91a6a6883a7a", "type": "electric_bike", "name": "01b247ebe867d5b764ad91a6a6883a7a", "rental_uris": {"android": "https://dc.lft.to/lastmile_qr_scan", "ios": "https://dc.lft.to/lastmile_qr_scan"}, "is_disabled": 0, "fusion_lat": 0.0, "lat": 38.990967833333336, "is_reserved": 0}, {"lon": -77.02812933333334, "fusion_lon": 0.0, "bike_id": "4c17805d8244aeb94f5178103d5e0911", "type": "electric_scooter", "name": "4c17805d8244aeb94f5178103d5e0911", "rental_uris": {"android": "https://dc.lft.to/lastmile_qr_scan", "ios": "https://dc.lft.to/lastmile_qr_scan"}, "is_disabled": 0, "fusion_lat": 0.0, "lat": 38.93081133333333, "is_reserved": 0}, {"lon": -77.0332625, "fusion_lon": 0.0, "bike_id": "9af5526629bf58a8aa8bb83ce35f561b", "type": "electric_scooter", "name": "9af5526629bf58a8aa8bb83ce35f561b", "rental_uris": {"android": "https://dc.lft.to/lastmile_qr_scan", "ios": "https://dc.lft.to/lastmile_qr_scan"}, "is_disabled": 0, "fusion_lat": 0.0, "lat": 38.898445333333335, "is_reserved": 0}, {"lon": -76.9856545, "fusion_lon": 0.0, "bike_id": "db58cc6f11ded9d815f5ade7f6cde6af", "type": "electric_scooter", "name": "db58cc6f11ded9d815f5ade7f6cde6af", "rental_uris": {"android": "https://dc.lft.to/lastmile_qr_scan", "ios": "https://dc.lft.to/lastmile_qr_scan"}, "is_disabled": 0, "fusion_lat": 0.0, "lat": 38.86678283333333, "is_reserved": 0}, {"lon": -77.0336055, "fusion_lon": 0.0, "bike_id": "da281b099535b739742b1218b3ae238f", "type": "electric_scooter", "name": "da281b099535b739742b1218b3ae238f", "rental_uris": {"android": "https://dc.lft.to/lastmile_qr_scan", "ios": "https://dc.lft.to/lastmile_qr_scan"}, "is_disabled": 0, "fusion_lat": 0.0, "lat": 38.88693933333333, "is_reserved": 0}, {"lon": -77.04259516666667, "fusion_lon": 0.0, "bike_id": "d372ec6db9d3e40a41440daf12c9e854", "type": "electric_scooter", "name": "d372ec6db9d3e40a41440daf12c9e854", "rental_uris": {"android": "https://dc.lft.to/lastmile_qr_scan", "ios": "https://dc.lft.to/lastmile_qr_scan"}, "is_disabled": 0, "fusion_lat": 0.0, "lat": 38.907241, "is_reserved": 0}, {"lon": -77.04228716666667, "fusion_lon": 0.0, "bike_id": "644866c05f80da243c40dcfb4da9f8b3", "type": "electric_scooter", "name": "644866c05f80da243c40dcfb4da9f8b3", "rental_uris": {"android": "https://dc.lft.to/lastmile_qr_scan", "ios": "https://dc.lft.to/lastmile_qr_scan"}, "is_disabled": 0, "fusion_lat": 0.0, "lat": 38.9110975, "is_reserved": 0}, {"lon": -77.04039066666667, "fusion_lon": 0.0, "bike_id": "d62ea016a019f05172a6fa4a585758e1", "type": "electric_scooter", "name": "d62ea016a019f05172a6fa4a585758e1", "rental_uris": {"android": "https://dc.lft.to/lastmile_qr_scan", "ios": "https://dc.lft.to/lastmile_qr_scan"}, "is_disabled": 0, "fusion_lat": 0.0, "lat": 38.9037575, "is_reserved": 0}, {"lon": -76.9873995, "fusion_lon": 0.0, "bike_id": "db44c21ee36159a1d1e36fc38830d632", "type": "electric_scooter", "name": "db44c21ee36159a1d1e36fc38830d632", "rental_uris": {"android": "https://dc.lft.to/lastmile_qr_scan", "ios": "https://dc.lft.to/lastmile_qr_scan"}, "is_disabled": 0, "fusion_lat": 0.0, "lat": 38.90031416666667, "is_reserved": 0}, {"lon": -77.0238805, "fusion_lon": 0.0, "bike_id": "6530ff743130a2f0d70eb94c62091448", "type": "electric_scooter", "name": "6530ff743130a2f0d70eb94c62091448", "rental_uris": {"android": "https://dc.lft.to/lastmile_qr_scan", "ios": "https://dc.lft.to/lastmile_qr_scan"}, "is_disabled": 0, "fusion_lat": 0.0, "lat": 38.912871833333334, "is_reserved": 0}, {"lon": -77.01583616666667, "fusion_lon": 0.0, "bike_id": "9c467eacc5f9589e862f0be16ce05f71", "type": "electric_scooter", "name": "9c467eacc5f9589e862f0be16ce05f71", "rental_uris": {"android": "https://dc.lft.to/lastmile_qr_scan", "ios": "https://dc.lft.to/lastmile_qr_scan"}, "is_disabled": 0, "fusion_lat": 0.0, "lat": 38.91571016666666, "is_reserved": 0}, {"lon": -77.04752416666666, "fusion_lon": 0.0, "bike_id": "6c6de039fa208084901d86991b48ed49", "type": "electric_scooter", "name": "6c6de039fa208084901d86991b48ed49", "rental_uris": {"android": "https://dc.lft.to/lastmile_qr_scan", "ios": "https://dc.lft.to/lastmile_qr_scan"}, "is_disabled": 0, "fusion_lat": 0.0, "lat": 38.901416166666664, "is_reserved": 0}, {"lon": -77.0490885, "fusion_lon": 0.0, "bike_id": "69088690f05cd8ac72c30f3123bcd296", "type": "electric_scooter", "name": "69088690f05cd8ac72c30f3123bcd296", "rental_uris": {"android": "https://dc.lft.to/lastmile_qr_scan", "ios": "https://dc.lft.to/lastmile_qr_scan"}, "is_disabled": 0, "fusion_lat": 0.0, "lat": 38.9159835, "is_reserved": 0}, {"lon": -76.932115, "fusion_lon": 0.0, "bike_id": "8d75ed18ca3dd47064de7ab818df58cd", "type": "electric_scooter", "name": "8d75ed18ca3dd47064de7ab818df58cd", "rental_uris": {"android": "https://dc.lft.to/lastmile_qr_scan", "ios": "https://dc.lft.to/lastmile_qr_scan"}, "is_disabled": 0, "fusion_lat": 0.0, "lat": 38.896689, "is_reserved": 0}, {"lon": -76.9962525, "fusion_lon": 0.0, "bike_id": "8de4ab2ebc39a5c151b5930ba2608d26", "type": "electric_scooter", "name": "8de4ab2ebc39a5c151b5930ba2608d26", "rental_uris": {"android": "https://dc.lft.to/lastmile_qr_scan", "ios": "https://dc.lft.to/lastmile_qr_scan"}, "is_disabled": 0, "fusion_lat": 0.0, "lat": 38.900651333333336, "is_reserved": 0}, {"lon": -77.03678733333334, "fusion_lon": 0.0, "bike_id": "d6e9df3b91b82e1e205a55b008c6f9c0", "type": "electric_scooter", "name": "d6e9df3b91b82e1e205a55b008c6f9c0", "rental_uris": {"android": "https://dc.lft.to/lastmile_qr_scan", "ios": "https://dc.lft.to/lastmile_qr_scan"}, "is_disabled": 0, "fusion_lat": 0.0, "lat": 38.9238625, "is_reserved": 0}, {"lon": -77.02474866666667, "fusion_lon": 0.0, "bike_id": "2fa6c59347417a1d3df44b1e906cead9", "type": "electric_scooter", "name": "2fa6c59347417a1d3df44b1e906cead9", "rental_uris": {"android": "https://dc.lft.to/lastmile_qr_scan", "ios": "https://dc.lft.to/lastmile_qr_scan"}, "is_disabled": 0, "fusion_lat": 0.0, "lat": 38.93857, "is_reserved": 0}, {"lon": -77.006797, "fusion_lon": 0.0, "bike_id": "457dc1eab77e321157ecb2bf1afe543b", "type": "electric_scooter", "name": "457dc1eab77e321157ecb2bf1afe543b", "rental_uris": {"android": "https://dc.lft.to/lastmile_qr_scan", "ios": "https://dc.lft.to/lastmile_qr_scan"}, "is_disabled": 0, "fusion_lat": 0.0, "lat": 38.87164166666667, "is_reserved": 0}, {"lon": -77.03438216666666, "fusion_lon": 0.0, "bike_id": "945d7080924339d0212e553f3d5cbf85", "type": "electric_scooter", "name": "945d7080924339d0212e553f3d5cbf85", "rental_uris": {"android": "https://dc.lft.to/lastmile_qr_scan", "ios": "https://dc.lft.to/lastmile_qr_scan"}, "is_disabled": 0, "fusion_lat": 0.0, "lat": 38.909741333333336, "is_reserved": 0}, {"lon": -77.06407366666667, "fusion_lon": 0.0, "bike_id": "151622f4b9bd7be752ef8fb3f65bb020", "type": "electric_scooter", "name": "151622f4b9bd7be752ef8fb3f65bb020", "rental_uris": {"android": "https://dc.lft.to/lastmile_qr_scan", "ios": "https://dc.lft.to/lastmile_qr_scan"}, "is_disabled": 0, "fusion_lat": 0.0, "lat": 38.94437716666667, "is_reserved": 0}, {"lon": -77.0151215, "fusion_lon": 0.0, "bike_id": "d134fb1b7d7f650b0b0421f07bba01b5", "type": "electric_scooter", "name": "d134fb1b7d7f650b0b0421f07bba01b5", "rental_uris": {"android": "https://dc.lft.to/lastmile_qr_scan", "ios": "https://dc.lft.to/lastmile_qr_scan"}, "is_disabled": 0, "fusion_lat": 0.0, "lat": 38.913212, "is_reserved": 0}, {"lon": -77.02088833333333, "fusion_lon": 0.0, "bike_id": "590350afaa8c9e93c0d0d075cbdf3d56", "type": "electric_bike", "name": "590350afaa8c9e93c0d0d075cbdf3d56", "rental_uris": {"android": "https://dc.lft.to/lastmile_qr_scan", "ios": "https://dc.lft.to/lastmile_qr_scan"}, "is_disabled": 0, "fusion_lat": 0.0, "lat": 38.897609833333334, "is_reserved": 0}, {"lon": -77.05577966666667, "fusion_lon": 0.0, "bike_id": "7b23db4abbab3143eb627dbb85657be0", "type": "electric_scooter", "name": "7b23db4abbab3143eb627dbb85657be0", "rental_uris": {"android": "https://dc.lft.to/lastmile_qr_scan", "ios": "https://dc.lft.to/lastmile_qr_scan"}, "is_disabled": 0, "fusion_lat": 0.0, "lat": 38.899907666666664, "is_reserved": 0}, {"lon": -76.91018666666666, "fusion_lon": 0.0, "bike_id": "9b6425edf6e873a6c784487b4b432cbb", "type": "electric_bike", "name": "9b6425edf6e873a6c784487b4b432cbb", "rental_uris": {"android": "https://dc.lft.to/lastmile_qr_scan", "ios": "https://dc.lft.to/lastmile_qr_scan"}, "is_disabled": 0, "fusion_lat": 0.0, "lat": 39.00098916666666, "is_reserved": 0}, {"lon": -77.0051905, "fusion_lon": 0.0, "bike_id": "52a6215c8a5b62d5dfdba5d4bdeb1191", "type": "electric_scooter", "name": "52a6215c8a5b62d5dfdba5d4bdeb1191", "rental_uris": {"android": "https://dc.lft.to/lastmile_qr_scan", "ios": "https://dc.lft.to/lastmile_qr_scan"}, "is_disabled": 0, "fusion_lat": 0.0, "lat": 38.874706833333335, "is_reserved": 0}, {"lon": -77.01544283333334, "fusion_lon": 0.0, "bike_id": "d76ce76ea0de36ff3c5c969de449c031", "type": "electric_scooter", "name": "d76ce76ea0de36ff3c5c969de449c031", "rental_uris": {"android": "https://dc.lft.to/lastmile_qr_scan", "ios": "https://dc.lft.to/lastmile_qr_scan"}, "is_disabled": 0, "fusion_lat": 0.0, "lat": 38.9412255, "is_reserved": 0}, {"lon": -77.03665016666666, "fusion_lon": 0.0, "bike_id": "68912a4f566c9b686cb3989056ad3613", "type": "electric_scooter", "name": "68912a4f566c9b686cb3989056ad3613", "rental_uris": {"android": "https://dc.lft.to/lastmile_qr_scan", "ios": "https://dc.lft.to/lastmile_qr_scan"}, "is_disabled": 0, "fusion_lat": 0.0, "lat": 38.921525333333335, "is_reserved": 0}, {"lon": -77.03407583333333, "fusion_lon": 0.0, "bike_id": "9eb943ea5563aa4821910265707bf8c3", "type": "electric_scooter", "name": "9eb943ea5563aa4821910265707bf8c3", "rental_uris": {"android": "https://dc.lft.to/lastmile_qr_scan", "ios": "https://dc.lft.to/lastmile_qr_scan"}, "is_disabled": 0, "fusion_lat": 0.0, "lat": 38.92262683333333, "is_reserved": 0}, {"lon": -77.04026666666667, "fusion_lon": 0.0, "bike_id": "0d0beb5c8e2ae08247584b07c5788eda", "type": "electric_scooter", "name": "0d0beb5c8e2ae08247584b07c5788eda", "rental_uris": {"android": "https://dc.lft.to/lastmile_qr_scan", "ios": "https://dc.lft.to/lastmile_qr_scan"}, "is_disabled": 0, "fusion_lat": 0.0, "lat": 38.92413633333334, "is_reserved": 0}, {"lon": -76.93970366666667, "fusion_lon": 0.0, "bike_id": "f810cea5a1e492aa30ba072683a496f6", "type": "electric_scooter", "name": "f810cea5a1e492aa30ba072683a496f6", "rental_uris": {"android": "https://dc.lft.to/lastmile_qr_scan", "ios": "https://dc.lft.to/lastmile_qr_scan"}, "is_disabled": 0, "fusion_lat": 0.0, "lat": 38.8934645, "is_reserved": 0}, {"lon": -77.02548433333334, "fusion_lon": 0.0, "bike_id": "48ad3c6d9b8d10dea77dc48f029719ad", "type": "electric_scooter", "name": "48ad3c6d9b8d10dea77dc48f029719ad", "rental_uris": {"android": "https://dc.lft.to/lastmile_qr_scan", "ios": "https://dc.lft.to/lastmile_qr_scan"}, "is_disabled": 0, "fusion_lat": 0.0, "lat": 38.91919933333333, "is_reserved": 0}, {"lon": -77.046595, "fusion_lon": 0.0, "bike_id": "f19918f62354129f1753f7b633af6cda", "type": "electric_scooter", "name": "f19918f62354129f1753f7b633af6cda", "rental_uris": {"android": "https://dc.lft.to/lastmile_qr_scan", "ios": "https://dc.lft.to/lastmile_qr_scan"}, "is_disabled": 0, "fusion_lat": 0.0, "lat": 38.903267666666665, "is_reserved": 0}, {"lon": -77.0095135, "fusion_lon": 0.0, "bike_id": "3753561a6bd30b2245f5c1ae0653b348", "type": "electric_scooter", "name": "3753561a6bd30b2245f5c1ae0653b348", "rental_uris": {"android": "https://dc.lft.to/lastmile_qr_scan", "ios": "https://dc.lft.to/lastmile_qr_scan"}, "is_disabled": 0, "fusion_lat": 0.0, "lat": 38.897349166666665, "is_reserved": 0}, {"lon": -77.03138266666667, "fusion_lon": 0.0, "bike_id": "a7d84f2fbcb94f3791f2c673d8d48c3e", "type": "electric_scooter", "name": "a7d84f2fbcb94f3791f2c673d8d48c3e", "rental_uris": {"android": "https://dc.lft.to/lastmile_qr_scan", "ios": "https://dc.lft.to/lastmile_qr_scan"}, "is_disabled": 0, "fusion_lat": 0.0, "lat": 38.90482766666667, "is_reserved": 0}, {"lon": -77.084835, "fusion_lon": 0.0, "bike_id": "830d44db6eb981e2e66a702c4e57e154", "type": "electric_scooter", "name": "830d44db6eb981e2e66a702c4e57e154", "rental_uris": {"android": "https://dc.lft.to/lastmile_qr_scan", "ios": "https://dc.lft.to/lastmile_qr_scan"}, "is_disabled": 0, "fusion_lat": 0.0, "lat": 38.939007, "is_reserved": 0}, {"lon": -77.0366105, "fusion_lon": 0.0, "bike_id": "de9138d74dc4c5d973b64c026726305d", "type": "electric_scooter", "name": "de9138d74dc4c5d973b64c026726305d", "rental_uris": {"android": "https://dc.lft.to/lastmile_qr_scan", "ios": "https://dc.lft.to/lastmile_qr_scan"}, "is_disabled": 0, "fusion_lat": 0.0, "lat": 38.915442166666665, "is_reserved": 0}, {"lon": -77.02693166666667, "fusion_lon": 0.0, "bike_id": "8e088b8bdf55ee479165144698747720", "type": "electric_scooter", "name": "8e088b8bdf55ee479165144698747720", "rental_uris": {"android": "https://dc.lft.to/lastmile_qr_scan", "ios": "https://dc.lft.to/lastmile_qr_scan"}, "is_disabled": 0, "fusion_lat": 0.0, "lat": 38.92675466666667, "is_reserved": 0}, {"lon": -77.00490466666666, "fusion_lon": 0.0, "bike_id": "60e5d1cc99063b4a6c7f5fc4fda0e297", "type": "electric_scooter", "name": "60e5d1cc99063b4a6c7f5fc4fda0e297", "rental_uris": {"android": "https://dc.lft.to/lastmile_qr_scan", "ios": "https://dc.lft.to/lastmile_qr_scan"}, "is_disabled": 0, "fusion_lat": 0.0, "lat": 38.874646, "is_reserved": 0}, {"lon": -77.0162135, "fusion_lon": 0.0, "bike_id": "d59869dc8e11a5c7869a27fb334616e9", "type": "electric_scooter", "name": "d59869dc8e11a5c7869a27fb334616e9", "rental_uris": {"android": "https://dc.lft.to/lastmile_qr_scan", "ios": "https://dc.lft.to/lastmile_qr_scan"}, "is_disabled": 0, "fusion_lat": 0.0, "lat": 38.90320883333333, "is_reserved": 0}, {"lon": -77.02155166666667, "fusion_lon": 0.0, "bike_id": "8544a00d4feb32330488f568a0f00246", "type": "electric_scooter", "name": "8544a00d4feb32330488f568a0f00246", "rental_uris": {"android": "https://dc.lft.to/lastmile_qr_scan", "ios": "https://dc.lft.to/lastmile_qr_scan"}, "is_disabled": 0, "fusion_lat": 0.0, "lat": 38.92601833333333, "is_reserved": 0}, {"lon": -77.041905, "fusion_lon": 0.0, "bike_id": "03f4e65b7f770e7754e3b693e13f99fe", "type": "electric_scooter", "name": "03f4e65b7f770e7754e3b693e13f99fe", "rental_uris": {"android": "https://dc.lft.to/lastmile_qr_scan", "ios": "https://dc.lft.to/lastmile_qr_scan"}, "is_disabled": 0, "fusion_lat": 0.0, "lat": 38.920508166666664, "is_reserved": 0}, {"lon": -77.00230216666667, "fusion_lon": 0.0, "bike_id": "a5022eb35e455214f9605ad7be42ecee", "type": "electric_scooter", "name": "a5022eb35e455214f9605ad7be42ecee", "rental_uris": {"android": "https://dc.lft.to/lastmile_qr_scan", "ios": "https://dc.lft.to/lastmile_qr_scan"}, "is_disabled": 0, "fusion_lat": 0.0, "lat": 38.8851195, "is_reserved": 0}, {"lon": -77.0221205, "fusion_lon": 0.0, "bike_id": "e0f9ab2406b00c41b06398a4b66e7a2e", "type": "electric_scooter", "name": "e0f9ab2406b00c41b06398a4b66e7a2e", "rental_uris": {"android": "https://dc.lft.to/lastmile_qr_scan", "ios": "https://dc.lft.to/lastmile_qr_scan"}, "is_disabled": 0, "fusion_lat": 0.0, "lat": 38.927863, "is_reserved": 0}, {"lon": -77.02477433333334, "fusion_lon": 0.0, "bike_id": "a50589e976b3ca3696989f8b1b916c27", "type": "electric_scooter", "name": "a50589e976b3ca3696989f8b1b916c27", "rental_uris": {"android": "https://dc.lft.to/lastmile_qr_scan", "ios": "https://dc.lft.to/lastmile_qr_scan"}, "is_disabled": 0, "fusion_lat": 0.0, "lat": 38.939616666666666, "is_reserved": 0}, {"lon": -76.98542983333333, "fusion_lon": 0.0, "bike_id": "fcbb5dc0dae08df0a88e8a7afc9d7b8b", "type": "electric_scooter", "name": "fcbb5dc0dae08df0a88e8a7afc9d7b8b", "rental_uris": {"android": "https://dc.lft.to/lastmile_qr_scan", "ios": "https://dc.lft.to/lastmile_qr_scan"}, "is_disabled": 0, "fusion_lat": 0.0, "lat": 38.86686533333334, "is_reserved": 0}, {"lon": -77.0355555, "fusion_lon": 0.0, "bike_id": "1c23a056794512414852dcf517e5e088", "type": "electric_scooter", "name": "1c23a056794512414852dcf517e5e088", "rental_uris": {"android": "https://dc.lft.to/lastmile_qr_scan", "ios": "https://dc.lft.to/lastmile_qr_scan"}, "is_disabled": 0, "fusion_lat": 0.0, "lat": 38.9038025, "is_reserved": 0}, {"lon": -77.07888083333333, "fusion_lon": 0.0, "bike_id": "cdc519b7eee3663d4e336fb8915ba70f", "type": "electric_bike", "name": "cdc519b7eee3663d4e336fb8915ba70f", "rental_uris": {"android": "https://dc.lft.to/lastmile_qr_scan", "ios": "https://dc.lft.to/lastmile_qr_scan"}, "is_disabled": 0, "fusion_lat": 0.0, "lat": 38.84254716666667, "is_reserved": 0}, {"lon": -77.0500685, "fusion_lon": 0.0, "bike_id": "e44fe217db86279b6a299ef5055c1be2", "type": "electric_scooter", "name": "e44fe217db86279b6a299ef5055c1be2", "rental_uris": {"android": "https://dc.lft.to/lastmile_qr_scan", "ios": "https://dc.lft.to/lastmile_qr_scan"}, "is_disabled": 0, "fusion_lat": 0.0, "lat": 38.897493833333336, "is_reserved": 0}, {"lon": -76.9625725, "fusion_lon": 0.0, "bike_id": "46b31989a7d698be7fa752ea31bcfb43", "type": "electric_bike", "name": "46b31989a7d698be7fa752ea31bcfb43", "rental_uris": {"android": "https://dc.lft.to/lastmile_qr_scan", "ios": "https://dc.lft.to/lastmile_qr_scan"}, "is_disabled": 0, "fusion_lat": 0.0, "lat": 38.88247616666666, "is_reserved": 0}, {"lon": -76.977622, "fusion_lon": 0.0, "bike_id": "0dbce2dc31b1853bbda7658231eaa821", "type": "electric_scooter", "name": "0dbce2dc31b1853bbda7658231eaa821", "rental_uris": {"android": "https://dc.lft.to/lastmile_qr_scan", "ios": "https://dc.lft.to/lastmile_qr_scan"}, "is_disabled": 0, "fusion_lat": 0.0, "lat": 38.928616833333336, "is_reserved": 0}, {"lon": -77.0428215, "fusion_lon": 0.0, "bike_id": "fd3af92df52fbee89899546ae2d2f778", "type": "electric_scooter", "name": "fd3af92df52fbee89899546ae2d2f778", "rental_uris": {"android": "https://dc.lft.to/lastmile_qr_scan", "ios": "https://dc.lft.to/lastmile_qr_scan"}, "is_disabled": 0, "fusion_lat": 0.0, "lat": 38.907356, "is_reserved": 0}, {"lon": -77.0356405, "fusion_lon": 0.0, "bike_id": "c5129b7343fd010511412e82c67a57d1", "type": "electric_scooter", "name": "c5129b7343fd010511412e82c67a57d1", "rental_uris": {"android": "https://dc.lft.to/lastmile_qr_scan", "ios": "https://dc.lft.to/lastmile_qr_scan"}, "is_disabled": 0, "fusion_lat": 0.0, "lat": 38.92688666666667, "is_reserved": 0}, {"lon": -77.03190683333334, "fusion_lon": 0.0, "bike_id": "714a0fe894005000a484175ef7779284", "type": "electric_scooter", "name": "714a0fe894005000a484175ef7779284", "rental_uris": {"android": "https://dc.lft.to/lastmile_qr_scan", "ios": "https://dc.lft.to/lastmile_qr_scan"}, "is_disabled": 0, "fusion_lat": 0.0, "lat": 38.917546333333334, "is_reserved": 0}, {"lon": -76.98654733333333, "fusion_lon": 0.0, "bike_id": "b381bc1df807794846c16657846da9fb", "type": "electric_scooter", "name": "b381bc1df807794846c16657846da9fb", "rental_uris": {"android": "https://dc.lft.to/lastmile_qr_scan", "ios": "https://dc.lft.to/lastmile_qr_scan"}, "is_disabled": 0, "fusion_lat": 0.0, "lat": 38.85805033333333, "is_reserved": 0}, {"lon": -76.983768, "fusion_lon": 0.0, "bike_id": "a97d07f4572783140f24f1210620f190", "type": "electric_scooter", "name": "a97d07f4572783140f24f1210620f190", "rental_uris": {"android": "https://dc.lft.to/lastmile_qr_scan", "ios": "https://dc.lft.to/lastmile_qr_scan"}, "is_disabled": 0, "fusion_lat": 0.0, "lat": 38.906510833333336, "is_reserved": 0}, {"lon": -76.99820483333333, "fusion_lon": 0.0, "bike_id": "5b4406cb9c5ec1d77194d46da83b3dee", "type": "electric_bike", "name": "5b4406cb9c5ec1d77194d46da83b3dee", "rental_uris": {"android": "https://dc.lft.to/lastmile_qr_scan", "ios": "https://dc.lft.to/lastmile_qr_scan"}, "is_disabled": 0, "fusion_lat": 0.0, "lat": 38.81993416666667, "is_reserved": 0}, {"lon": -77.03335183333333, "fusion_lon": 0.0, "bike_id": "3ccc2b329aeebb89b68d49486b0b5b79", "type": "electric_scooter", "name": "3ccc2b329aeebb89b68d49486b0b5b79", "rental_uris": {"android": "https://dc.lft.to/lastmile_qr_scan", "ios": "https://dc.lft.to/lastmile_qr_scan"}, "is_disabled": 0, "fusion_lat": 0.0, "lat": 38.92876283333333, "is_reserved": 0}, {"lon": -77.01970766666666, "fusion_lon": 0.0, "bike_id": "44eb07681e6d66bde352a42c8d537962", "type": "electric_scooter", "name": "44eb07681e6d66bde352a42c8d537962", "rental_uris": {"android": "https://dc.lft.to/lastmile_qr_scan", "ios": "https://dc.lft.to/lastmile_qr_scan"}, "is_disabled": 0, "fusion_lat": 0.0, "lat": 38.97745416666667, "is_reserved": 0}, {"lon": -76.992537, "fusion_lon": 0.0, "bike_id": "41de05f58b89ba2c07ab51dd8e923b41", "type": "electric_scooter", "name": "41de05f58b89ba2c07ab51dd8e923b41", "rental_uris": {"android": "https://dc.lft.to/lastmile_qr_scan", "ios": "https://dc.lft.to/lastmile_qr_scan"}, "is_disabled": 0, "fusion_lat": 0.0, "lat": 38.892686, "is_reserved": 0}, {"lon": -76.94962816666667, "fusion_lon": 0.0, "bike_id": "21bad33eaa754bd5ede78afda90872aa", "type": "electric_scooter", "name": "21bad33eaa754bd5ede78afda90872aa", "rental_uris": {"android": "https://dc.lft.to/lastmile_qr_scan", "ios": "https://dc.lft.to/lastmile_qr_scan"}, "is_disabled": 0, "fusion_lat": 0.0, "lat": 38.894641666666665, "is_reserved": 0}, {"lon": -76.99064716666666, "fusion_lon": 0.0, "bike_id": "72a1ca8998a829e6e506e9e9d755fb8d", "type": "electric_scooter", "name": "72a1ca8998a829e6e506e9e9d755fb8d", "rental_uris": {"android": "https://dc.lft.to/lastmile_qr_scan", "ios": "https://dc.lft.to/lastmile_qr_scan"}, "is_disabled": 0, "fusion_lat": 0.0, "lat": 38.863733833333335, "is_reserved": 0}, {"lon": -77.02219316666667, "fusion_lon": 0.0, "bike_id": "64599a0b8dc6332a3e96f9e914d64835", "type": "electric_scooter", "name": "64599a0b8dc6332a3e96f9e914d64835", "rental_uris": {"android": "https://dc.lft.to/lastmile_qr_scan", "ios": "https://dc.lft.to/lastmile_qr_scan"}, "is_disabled": 0, "fusion_lat": 0.0, "lat": 38.914132333333335, "is_reserved": 0}, {"lon": -77.03714033333333, "fusion_lon": 0.0, "bike_id": "fb5cd4d322d0e8e3ffc5e967dd52d97e", "type": "electric_scooter", "name": "fb5cd4d322d0e8e3ffc5e967dd52d97e", "rental_uris": {"android": "https://dc.lft.to/lastmile_qr_scan", "ios": "https://dc.lft.to/lastmile_qr_scan"}, "is_disabled": 0, "fusion_lat": 0.0, "lat": 38.9286545, "is_reserved": 0}, {"lon": -77.0392545, "fusion_lon": 0.0, "bike_id": "2325f2caf7964a469a9fd3bfca99427a", "type": "electric_scooter", "name": "2325f2caf7964a469a9fd3bfca99427a", "rental_uris": {"android": "https://dc.lft.to/lastmile_qr_scan", "ios": "https://dc.lft.to/lastmile_qr_scan"}, "is_disabled": 0, "fusion_lat": 0.0, "lat": 38.9024965, "is_reserved": 0}, {"lon": -77.04837783333333, "fusion_lon": 0.0, "bike_id": "7e72ad3eae0f3ff20b2c7fb9395a6c1e", "type": "electric_scooter", "name": "7e72ad3eae0f3ff20b2c7fb9395a6c1e", "rental_uris": {"android": "https://dc.lft.to/lastmile_qr_scan", "ios": "https://dc.lft.to/lastmile_qr_scan"}, "is_disabled": 0, "fusion_lat": 0.0, "lat": 38.911717833333334, "is_reserved": 0}, {"lon": -76.9954675, "fusion_lon": 0.0, "bike_id": "cec9dbe1c66ff2782e2869e43e4b57c2", "type": "electric_bike", "name": "cec9dbe1c66ff2782e2869e43e4b57c2", "rental_uris": {"android": "https://dc.lft.to/lastmile_qr_scan", "ios": "https://dc.lft.to/lastmile_qr_scan"}, "is_disabled": 0, "fusion_lat": 0.0, "lat": 38.831579833333336, "is_reserved": 0}, {"lon": -77.03831766666667, "fusion_lon": 0.0, "bike_id": "849ae835c1a2822d251bda32f0b364f7", "type": "electric_scooter", "name": "849ae835c1a2822d251bda32f0b364f7", "rental_uris": {"android": "https://dc.lft.to/lastmile_qr_scan", "ios": "https://dc.lft.to/lastmile_qr_scan"}, "is_disabled": 0, "fusion_lat": 0.0, "lat": 38.91121566666666, "is_reserved": 0}, {"lon": -77.02461133333334, "fusion_lon": 0.0, "bike_id": "70452bef0f2e8237ab454806babc9157", "type": "electric_scooter", "name": "70452bef0f2e8237ab454806babc9157", "rental_uris": {"android": "https://dc.lft.to/lastmile_qr_scan", "ios": "https://dc.lft.to/lastmile_qr_scan"}, "is_disabled": 0, "fusion_lat": 0.0, "lat": 38.917053333333335, "is_reserved": 0}, {"lon": -76.98717433333333, "fusion_lon": 0.0, "bike_id": "b7aab648f77e169ba40b1b67402ea14a", "type": "electric_scooter", "name": "b7aab648f77e169ba40b1b67402ea14a", "rental_uris": {"android": "https://dc.lft.to/lastmile_qr_scan", "ios": "https://dc.lft.to/lastmile_qr_scan"}, "is_disabled": 0, "fusion_lat": 0.0, "lat": 38.86626616666667, "is_reserved": 0}, {"lon": -77.03211833333333, "fusion_lon": 0.0, "bike_id": "9370a3a3cee4c0239b15dacdeea43d65", "type": "electric_scooter", "name": "9370a3a3cee4c0239b15dacdeea43d65", "rental_uris": {"android": "https://dc.lft.to/lastmile_qr_scan", "ios": "https://dc.lft.to/lastmile_qr_scan"}, "is_disabled": 0, "fusion_lat": 0.0, "lat": 38.89222183333333, "is_reserved": 0}, {"lon": -76.9870005, "fusion_lon": 0.0, "bike_id": "ffa47c372c2e9c82d0ebf976d97c6cc8", "type": "electric_scooter", "name": "ffa47c372c2e9c82d0ebf976d97c6cc8", "rental_uris": {"android": "https://dc.lft.to/lastmile_qr_scan", "ios": "https://dc.lft.to/lastmile_qr_scan"}, "is_disabled": 0, "fusion_lat": 0.0, "lat": 38.867206833333334, "is_reserved": 0}, {"lon": -77.00356683333334, "fusion_lon": 0.0, "bike_id": "aeac94702aab1ff3f0f5bfda07ccd042", "type": "electric_scooter", "name": "aeac94702aab1ff3f0f5bfda07ccd042", "rental_uris": {"android": "https://dc.lft.to/lastmile_qr_scan", "ios": "https://dc.lft.to/lastmile_qr_scan"}, "is_disabled": 0, "fusion_lat": 0.0, "lat": 38.87739916666666, "is_reserved": 0}, {"lon": -77.04406, "fusion_lon": 0.0, "bike_id": "e0e5463bc118f8363631d6bd8c2a7a77", "type": "electric_scooter", "name": "e0e5463bc118f8363631d6bd8c2a7a77", "rental_uris": {"android": "https://dc.lft.to/lastmile_qr_scan", "ios": "https://dc.lft.to/lastmile_qr_scan"}, "is_disabled": 0, "fusion_lat": 0.0, "lat": 38.9023925, "is_reserved": 0}, {"lon": -76.9819145, "fusion_lon": 0.0, "bike_id": "e6e76ef7ec96f1c44e1a8f85b4cb57fd", "type": "electric_scooter", "name": "e6e76ef7ec96f1c44e1a8f85b4cb57fd", "rental_uris": {"android": "https://dc.lft.to/lastmile_qr_scan", "ios": "https://dc.lft.to/lastmile_qr_scan"}, "is_disabled": 0, "fusion_lat": 0.0, "lat": 38.8620655, "is_reserved": 0}, {"lon": -77.03179566666667, "fusion_lon": 0.0, "bike_id": "fcc8b1ee4d77f46804136c48fd3081b7", "type": "electric_scooter", "name": "fcc8b1ee4d77f46804136c48fd3081b7", "rental_uris": {"android": "https://dc.lft.to/lastmile_qr_scan", "ios": "https://dc.lft.to/lastmile_qr_scan"}, "is_disabled": 0, "fusion_lat": 0.0, "lat": 38.918378, "is_reserved": 0}, {"lon": -77.03518133333333, "fusion_lon": 0.0, "bike_id": "40965920421d8ac386fe6858dc430b45", "type": "electric_scooter", "name": "40965920421d8ac386fe6858dc430b45", "rental_uris": {"android": "https://dc.lft.to/lastmile_qr_scan", "ios": "https://dc.lft.to/lastmile_qr_scan"}, "is_disabled": 0, "fusion_lat": 0.0, "lat": 38.923322, "is_reserved": 0}, {"lon": -77.05001733333333, "fusion_lon": 0.0, "bike_id": "844f579b66a83dfd3b1ff8eaa7589f24", "type": "electric_scooter", "name": "844f579b66a83dfd3b1ff8eaa7589f24", "rental_uris": {"android": "https://dc.lft.to/lastmile_qr_scan", "ios": "https://dc.lft.to/lastmile_qr_scan"}, "is_disabled": 0, "fusion_lat": 0.0, "lat": 38.892298333333336, "is_reserved": 0}, {"lon": -77.0221115, "fusion_lon": 0.0, "bike_id": "9b705da3a4d79bd33e8d548293371a25", "type": "electric_scooter", "name": "9b705da3a4d79bd33e8d548293371a25", "rental_uris": {"android": "https://dc.lft.to/lastmile_qr_scan", "ios": "https://dc.lft.to/lastmile_qr_scan"}, "is_disabled": 0, "fusion_lat": 0.0, "lat": 38.915502333333336, "is_reserved": 0}, {"lon": -77.04608866666666, "fusion_lon": 0.0, "bike_id": "fc6b77fd744addde843886ac77d7ef0c", "type": "electric_scooter", "name": "fc6b77fd744addde843886ac77d7ef0c", "rental_uris": {"android": "https://dc.lft.to/lastmile_qr_scan", "ios": "https://dc.lft.to/lastmile_qr_scan"}, "is_disabled": 0, "fusion_lat": 0.0, "lat": 38.90261266666667, "is_reserved": 0}, {"lon": -76.98685116666667, "fusion_lon": 0.0, "bike_id": "e41781007a58257f3ea090a8791639b8", "type": "electric_scooter", "name": "e41781007a58257f3ea090a8791639b8", "rental_uris": {"android": "https://dc.lft.to/lastmile_qr_scan", "ios": "https://dc.lft.to/lastmile_qr_scan"}, "is_disabled": 0, "fusion_lat": 0.0, "lat": 38.912878166666665, "is_reserved": 0}, {"lon": -77.028246, "fusion_lon": 0.0, "bike_id": "c3d187a45eb1241372284f8965dbe157", "type": "electric_scooter", "name": "c3d187a45eb1241372284f8965dbe157", "rental_uris": {"android": "https://dc.lft.to/lastmile_qr_scan", "ios": "https://dc.lft.to/lastmile_qr_scan"}, "is_disabled": 0, "fusion_lat": 0.0, "lat": 38.93064, "is_reserved": 0}, {"lon": -77.048318, "fusion_lon": 0.0, "bike_id": "0e87647548e41ee666f2b91737015fc6", "type": "electric_scooter", "name": "0e87647548e41ee666f2b91737015fc6", "rental_uris": {"android": "https://dc.lft.to/lastmile_qr_scan", "ios": "https://dc.lft.to/lastmile_qr_scan"}, "is_disabled": 0, "fusion_lat": 0.0, "lat": 38.9039785, "is_reserved": 0}, {"lon": -77.02137416666666, "fusion_lon": 0.0, "bike_id": "aea3970d513cba864dd2b118c446d05e", "type": "electric_scooter", "name": "aea3970d513cba864dd2b118c446d05e", "rental_uris": {"android": "https://dc.lft.to/lastmile_qr_scan", "ios": "https://dc.lft.to/lastmile_qr_scan"}, "is_disabled": 0, "fusion_lat": 0.0, "lat": 38.91111816666667, "is_reserved": 0}, {"lon": -76.93144366666667, "fusion_lon": 0.0, "bike_id": "c4982334ed4f8341ce7953c7caddb8bb", "type": "electric_scooter", "name": "c4982334ed4f8341ce7953c7caddb8bb", "rental_uris": {"android": "https://dc.lft.to/lastmile_qr_scan", "ios": "https://dc.lft.to/lastmile_qr_scan"}, "is_disabled": 0, "fusion_lat": 0.0, "lat": 38.897633, "is_reserved": 0}, {"lon": -76.98791183333333, "fusion_lon": 0.0, "bike_id": "c7c5ac9c7062edb383d6120488e7fc15", "type": "electric_scooter", "name": "c7c5ac9c7062edb383d6120488e7fc15", "rental_uris": {"android": "https://dc.lft.to/lastmile_qr_scan", "ios": "https://dc.lft.to/lastmile_qr_scan"}, "is_disabled": 0, "fusion_lat": 0.0, "lat": 38.912357166666666, "is_reserved": 0}, {"lon": -77.01746683333333, "fusion_lon": 0.0, "bike_id": "1047806a7ce7a72a635297d98c69c552", "type": "electric_scooter", "name": "1047806a7ce7a72a635297d98c69c552", "rental_uris": {"android": "https://dc.lft.to/lastmile_qr_scan", "ios": "https://dc.lft.to/lastmile_qr_scan"}, "is_disabled": 0, "fusion_lat": 0.0, "lat": 38.902262666666665, "is_reserved": 0}, {"lon": -77.01411916666666, "fusion_lon": 0.0, "bike_id": "68c6c507629ceb44522837ac007af66a", "type": "electric_scooter", "name": "68c6c507629ceb44522837ac007af66a", "rental_uris": {"android": "https://dc.lft.to/lastmile_qr_scan", "ios": "https://dc.lft.to/lastmile_qr_scan"}, "is_disabled": 0, "fusion_lat": 0.0, "lat": 38.91919166666667, "is_reserved": 0}, {"lon": -77.02613283333334, "fusion_lon": 0.0, "bike_id": "e4979a5a98ed85714638da8820d79b71", "type": "electric_scooter", "name": "e4979a5a98ed85714638da8820d79b71", "rental_uris": {"android": "https://dc.lft.to/lastmile_qr_scan", "ios": "https://dc.lft.to/lastmile_qr_scan"}, "is_disabled": 0, "fusion_lat": 0.0, "lat": 38.914119166666666, "is_reserved": 0}, {"lon": -77.01913533333334, "fusion_lon": 0.0, "bike_id": "3b670a5b8807553cc1bb7b79bd7b12b5", "type": "electric_bike", "name": "3b670a5b8807553cc1bb7b79bd7b12b5", "rental_uris": {"android": "https://dc.lft.to/lastmile_qr_scan", "ios": "https://dc.lft.to/lastmile_qr_scan"}, "is_disabled": 0, "fusion_lat": 0.0, "lat": 38.93773483333333, "is_reserved": 0}, {"lon": -77.0260155, "fusion_lon": 0.0, "bike_id": "276aac6d8e388ebe45dbd52a3216889b", "type": "electric_scooter", "name": "276aac6d8e388ebe45dbd52a3216889b", "rental_uris": {"android": "https://dc.lft.to/lastmile_qr_scan", "ios": "https://dc.lft.to/lastmile_qr_scan"}, "is_disabled": 0, "fusion_lat": 0.0, "lat": 38.92798333333333, "is_reserved": 0}, {"lon": -77.02308, "fusion_lon": 0.0, "bike_id": "c7e9fc31ec483b17f60a5f7675dabc6b", "type": "electric_scooter", "name": "c7e9fc31ec483b17f60a5f7675dabc6b", "rental_uris": {"android": "https://dc.lft.to/lastmile_qr_scan", "ios": "https://dc.lft.to/lastmile_qr_scan"}, "is_disabled": 0, "fusion_lat": 0.0, "lat": 38.915797166666664, "is_reserved": 0}, {"lon": -77.02286716666667, "fusion_lon": 0.0, "bike_id": "dd86dcd8989a311b214f395ce1ec2295", "type": "electric_scooter", "name": "dd86dcd8989a311b214f395ce1ec2295", "rental_uris": {"android": "https://dc.lft.to/lastmile_qr_scan", "ios": "https://dc.lft.to/lastmile_qr_scan"}, "is_disabled": 0, "fusion_lat": 0.0, "lat": 38.91796266666667, "is_reserved": 0}, {"lon": -77.03443683333333, "fusion_lon": 0.0, "bike_id": "14579efe9f065d90ff416ee1149d338c", "type": "electric_scooter", "name": "14579efe9f065d90ff416ee1149d338c", "rental_uris": {"android": "https://dc.lft.to/lastmile_qr_scan", "ios": "https://dc.lft.to/lastmile_qr_scan"}, "is_disabled": 0, "fusion_lat": 0.0, "lat": 38.909823833333334, "is_reserved": 0}, {"lon": -77.06393616666666, "fusion_lon": 0.0, "bike_id": "d33a5631a2436920440f8d3efd9b1ea7", "type": "electric_scooter", "name": "d33a5631a2436920440f8d3efd9b1ea7", "rental_uris": {"android": "https://dc.lft.to/lastmile_qr_scan", "ios": "https://dc.lft.to/lastmile_qr_scan"}, "is_disabled": 0, "fusion_lat": 0.0, "lat": 38.94419933333333, "is_reserved": 0}, {"lon": -77.048787, "fusion_lon": 0.0, "bike_id": "fa775e8a650ccc1f2694f58b1d4032e6", "type": "electric_scooter", "name": "fa775e8a650ccc1f2694f58b1d4032e6", "rental_uris": {"android": "https://dc.lft.to/lastmile_qr_scan", "ios": "https://dc.lft.to/lastmile_qr_scan"}, "is_disabled": 0, "fusion_lat": 0.0, "lat": 38.899826833333336, "is_reserved": 0}, {"lon": -77.0432865, "fusion_lon": 0.0, "bike_id": "ea52f8e87efc9ad64257f8e4dbdb2ad5", "type": "electric_scooter", "name": "ea52f8e87efc9ad64257f8e4dbdb2ad5", "rental_uris": {"android": "https://dc.lft.to/lastmile_qr_scan", "ios": "https://dc.lft.to/lastmile_qr_scan"}, "is_disabled": 0, "fusion_lat": 0.0, "lat": 38.90739466666667, "is_reserved": 0}, {"lon": -77.01764533333333, "fusion_lon": 0.0, "bike_id": "cd185a3d147a474d9e4488f16166a409", "type": "electric_scooter", "name": "cd185a3d147a474d9e4488f16166a409", "rental_uris": {"android": "https://dc.lft.to/lastmile_qr_scan", "ios": "https://dc.lft.to/lastmile_qr_scan"}, "is_disabled": 0, "fusion_lat": 0.0, "lat": 38.902442, "is_reserved": 0}, {"lon": -77.03253716666667, "fusion_lon": 0.0, "bike_id": "9165892f077afe723d4e29a969f84de5", "type": "electric_scooter", "name": "9165892f077afe723d4e29a969f84de5", "rental_uris": {"android": "https://dc.lft.to/lastmile_qr_scan", "ios": "https://dc.lft.to/lastmile_qr_scan"}, "is_disabled": 0, "fusion_lat": 0.0, "lat": 38.905576833333335, "is_reserved": 0}, {"lon": -76.99511316666667, "fusion_lon": 0.0, "bike_id": "ffc1f6f90e27e4c7a81716ca24da9221", "type": "electric_scooter", "name": "ffc1f6f90e27e4c7a81716ca24da9221", "rental_uris": {"android": "https://dc.lft.to/lastmile_qr_scan", "ios": "https://dc.lft.to/lastmile_qr_scan"}, "is_disabled": 0, "fusion_lat": 0.0, "lat": 38.93387366666666, "is_reserved": 0}, {"lon": -76.99950716666666, "fusion_lon": 0.0, "bike_id": "dc55305209cd8dbc799eb4f7acb33e71", "type": "electric_scooter", "name": "dc55305209cd8dbc799eb4f7acb33e71", "rental_uris": {"android": "https://dc.lft.to/lastmile_qr_scan", "ios": "https://dc.lft.to/lastmile_qr_scan"}, "is_disabled": 0, "fusion_lat": 0.0, "lat": 38.84293316666667, "is_reserved": 0}, {"lon": -77.02462683333333, "fusion_lon": 0.0, "bike_id": "12c58cbee2f8a33631e7a00a99cb15f0", "type": "electric_scooter", "name": "12c58cbee2f8a33631e7a00a99cb15f0", "rental_uris": {"android": "https://dc.lft.to/lastmile_qr_scan", "ios": "https://dc.lft.to/lastmile_qr_scan"}, "is_disabled": 0, "fusion_lat": 0.0, "lat": 38.9362805, "is_reserved": 0}, {"lon": -77.02404566666667, "fusion_lon": 0.0, "bike_id": "a16aa4c61064c12b210d7ddbbcd1a273", "type": "electric_scooter", "name": "a16aa4c61064c12b210d7ddbbcd1a273", "rental_uris": {"android": "https://dc.lft.to/lastmile_qr_scan", "ios": "https://dc.lft.to/lastmile_qr_scan"}, "is_disabled": 0, "fusion_lat": 0.0, "lat": 38.879800333333336, "is_reserved": 0}, {"lon": -77.0140975, "fusion_lon": 0.0, "bike_id": "f5f6a4a72de3419726399b1f0827c855", "type": "electric_scooter", "name": "f5f6a4a72de3419726399b1f0827c855", "rental_uris": {"android": "https://dc.lft.to/lastmile_qr_scan", "ios": "https://dc.lft.to/lastmile_qr_scan"}, "is_disabled": 0, "fusion_lat": 0.0, "lat": 38.928193, "is_reserved": 0}, {"lon": -76.98428016666666, "fusion_lon": 0.0, "bike_id": "9d519fb2e0b8267a2718153880ecc225", "type": "electric_bike", "name": "9d519fb2e0b8267a2718153880ecc225", "rental_uris": {"android": "https://dc.lft.to/lastmile_qr_scan", "ios": "https://dc.lft.to/lastmile_qr_scan"}, "is_disabled": 0, "fusion_lat": 0.0, "lat": 38.926433333333335, "is_reserved": 0}, {"lon": -76.95508216666667, "fusion_lon": 0.0, "bike_id": "6beff517ebdb20c7dc9d37b6c0e7a63c", "type": "electric_bike", "name": "6beff517ebdb20c7dc9d37b6c0e7a63c", "rental_uris": {"android": "https://dc.lft.to/lastmile_qr_scan", "ios": "https://dc.lft.to/lastmile_qr_scan"}, "is_disabled": 0, "fusion_lat": 0.0, "lat": 38.93921566666667, "is_reserved": 0}, {"lon": -77.003415, "fusion_lon": 0.0, "bike_id": "97f529707adb3957324a254e57282b75", "type": "electric_scooter", "name": "97f529707adb3957324a254e57282b75", "rental_uris": {"android": "https://dc.lft.to/lastmile_qr_scan", "ios": "https://dc.lft.to/lastmile_qr_scan"}, "is_disabled": 0, "fusion_lat": 0.0, "lat": 38.895218166666666, "is_reserved": 0}, {"lon": -76.99699133333333, "fusion_lon": 0.0, "bike_id": "fa9098f6f2ea2974c29ee2793d02a6bc", "type": "electric_scooter", "name": "fa9098f6f2ea2974c29ee2793d02a6bc", "rental_uris": {"android": "https://dc.lft.to/lastmile_qr_scan", "ios": "https://dc.lft.to/lastmile_qr_scan"}, "is_disabled": 0, "fusion_lat": 0.0, "lat": 38.884246833333336, "is_reserved": 0}, {"lon": -77.04333483333333, "fusion_lon": 0.0, "bike_id": "6e9b511b0098fdb1fd438458b151e3e5", "type": "electric_scooter", "name": "6e9b511b0098fdb1fd438458b151e3e5", "rental_uris": {"android": "https://dc.lft.to/lastmile_qr_scan", "ios": "https://dc.lft.to/lastmile_qr_scan"}, "is_disabled": 0, "fusion_lat": 0.0, "lat": 38.90747233333333, "is_reserved": 0}, {"lon": -77.04219133333334, "fusion_lon": 0.0, "bike_id": "0fac42e522c5bdc8951bf7a039a9f44e", "type": "electric_scooter", "name": "0fac42e522c5bdc8951bf7a039a9f44e", "rental_uris": {"android": "https://dc.lft.to/lastmile_qr_scan", "ios": "https://dc.lft.to/lastmile_qr_scan"}, "is_disabled": 0, "fusion_lat": 0.0, "lat": 38.926224, "is_reserved": 0}, {"lon": -77.02647433333334, "fusion_lon": 0.0, "bike_id": "6b6bc2b48a59b563cc88da4341f135b3", "type": "electric_scooter", "name": "6b6bc2b48a59b563cc88da4341f135b3", "rental_uris": {"android": "https://dc.lft.to/lastmile_qr_scan", "ios": "https://dc.lft.to/lastmile_qr_scan"}, "is_disabled": 0, "fusion_lat": 0.0, "lat": 38.898393166666665, "is_reserved": 0}, {"lon": -77.02794383333334, "fusion_lon": 0.0, "bike_id": "04dba002419b7a0bfd56fbdd9fc44170", "type": "electric_scooter", "name": "04dba002419b7a0bfd56fbdd9fc44170", "rental_uris": {"android": "https://dc.lft.to/lastmile_qr_scan", "ios": "https://dc.lft.to/lastmile_qr_scan"}, "is_disabled": 0, "fusion_lat": 0.0, "lat": 38.917083833333336, "is_reserved": 0}, {"lon": -77.03185116666667, "fusion_lon": 0.0, "bike_id": "5d663115cba04ae49b1cdc925d79077f", "type": "electric_scooter", "name": "5d663115cba04ae49b1cdc925d79077f", "rental_uris": {"android": "https://dc.lft.to/lastmile_qr_scan", "ios": "https://dc.lft.to/lastmile_qr_scan"}, "is_disabled": 0, "fusion_lat": 0.0, "lat": 38.904370666666665, "is_reserved": 0}, {"lon": -77.10689133333334, "fusion_lon": 0.0, "bike_id": "72c3bdfd24d1160afaa092102090099c", "type": "electric_bike", "name": "72c3bdfd24d1160afaa092102090099c", "rental_uris": {"android": "https://dc.lft.to/lastmile_qr_scan", "ios": "https://dc.lft.to/lastmile_qr_scan"}, "is_disabled": 0, "fusion_lat": 0.0, "lat": 38.8645325, "is_reserved": 0}, {"lon": -77.0572555, "fusion_lon": 0.0, "bike_id": "5c5d7a6593cab01436f4021a0c1c3386", "type": "electric_scooter", "name": "5c5d7a6593cab01436f4021a0c1c3386", "rental_uris": {"android": "https://dc.lft.to/lastmile_qr_scan", "ios": "https://dc.lft.to/lastmile_qr_scan"}, "is_disabled": 0, "fusion_lat": 0.0, "lat": 38.9337315, "is_reserved": 0}, {"lon": -76.99220416666667, "fusion_lon": 0.0, "bike_id": "9b1ce0c26fea30e3bb30e1675885c6f1", "type": "electric_bike", "name": "9b1ce0c26fea30e3bb30e1675885c6f1", "rental_uris": {"android": "https://dc.lft.to/lastmile_qr_scan", "ios": "https://dc.lft.to/lastmile_qr_scan"}, "is_disabled": 0, "fusion_lat": 0.0, "lat": 38.9402055, "is_reserved": 0}, {"lon": -77.051512, "fusion_lon": 0.0, "bike_id": "b211bed1dcdaa0df5919ed60e545d3b5", "type": "electric_scooter", "name": "b211bed1dcdaa0df5919ed60e545d3b5", "rental_uris": {"android": "https://dc.lft.to/lastmile_qr_scan", "ios": "https://dc.lft.to/lastmile_qr_scan"}, "is_disabled": 0, "fusion_lat": 0.0, "lat": 38.9237655, "is_reserved": 0}, {"lon": -77.05588116666667, "fusion_lon": 0.0, "bike_id": "1b153be5a62e2e0928f54f968b76b728", "type": "electric_scooter", "name": "1b153be5a62e2e0928f54f968b76b728", "rental_uris": {"android": "https://dc.lft.to/lastmile_qr_scan", "ios": "https://dc.lft.to/lastmile_qr_scan"}, "is_disabled": 0, "fusion_lat": 0.0, "lat": 38.934330333333335, "is_reserved": 0}, {"lon": -77.00894783333334, "fusion_lon": 0.0, "bike_id": "25063845dfdbff8964797d7bdc7bb429", "type": "electric_scooter", "name": "25063845dfdbff8964797d7bdc7bb429", "rental_uris": {"android": "https://dc.lft.to/lastmile_qr_scan", "ios": "https://dc.lft.to/lastmile_qr_scan"}, "is_disabled": 0, "fusion_lat": 0.0, "lat": 38.88501566666667, "is_reserved": 0}, {"lon": -77.05297616666667, "fusion_lon": 0.0, "bike_id": "4b12a401461d39e4c5b36d3a7638ea5a", "type": "electric_scooter", "name": "4b12a401461d39e4c5b36d3a7638ea5a", "rental_uris": {"android": "https://dc.lft.to/lastmile_qr_scan", "ios": "https://dc.lft.to/lastmile_qr_scan"}, "is_disabled": 0, "fusion_lat": 0.0, "lat": 38.90337566666667, "is_reserved": 0}, {"lon": -77.02790866666666, "fusion_lon": 0.0, "bike_id": "48b3ca2a775fda77f7c2d8d954eead72", "type": "electric_scooter", "name": "48b3ca2a775fda77f7c2d8d954eead72", "rental_uris": {"android": "https://dc.lft.to/lastmile_qr_scan", "ios": "https://dc.lft.to/lastmile_qr_scan"}, "is_disabled": 0, "fusion_lat": 0.0, "lat": 38.93921116666667, "is_reserved": 0}, {"lon": -77.0317105, "fusion_lon": 0.0, "bike_id": "b0d2b9d533645bdf25bf85ae5d4b9275", "type": "electric_scooter", "name": "b0d2b9d533645bdf25bf85ae5d4b9275", "rental_uris": {"android": "https://dc.lft.to/lastmile_qr_scan", "ios": "https://dc.lft.to/lastmile_qr_scan"}, "is_disabled": 0, "fusion_lat": 0.0, "lat": 38.91552133333333, "is_reserved": 0}, {"lon": -77.032208, "fusion_lon": 0.0, "bike_id": "5961225cf02d6cf55cbff5eb20afec62", "type": "electric_scooter", "name": "5961225cf02d6cf55cbff5eb20afec62", "rental_uris": {"android": "https://dc.lft.to/lastmile_qr_scan", "ios": "https://dc.lft.to/lastmile_qr_scan"}, "is_disabled": 0, "fusion_lat": 0.0, "lat": 38.91405533333333, "is_reserved": 0}, {"lon": -77.03096916666667, "fusion_lon": 0.0, "bike_id": "0c80ca20c53b3ed768188c03ad89dc9b", "type": "electric_scooter", "name": "0c80ca20c53b3ed768188c03ad89dc9b", "rental_uris": {"android": "https://dc.lft.to/lastmile_qr_scan", "ios": "https://dc.lft.to/lastmile_qr_scan"}, "is_disabled": 0, "fusion_lat": 0.0, "lat": 38.92375416666667, "is_reserved": 0}, {"lon": -77.02712383333333, "fusion_lon": 0.0, "bike_id": "103dc54001c7ec1e419ce6efcfe92f79", "type": "electric_scooter", "name": "103dc54001c7ec1e419ce6efcfe92f79", "rental_uris": {"android": "https://dc.lft.to/lastmile_qr_scan", "ios": "https://dc.lft.to/lastmile_qr_scan"}, "is_disabled": 0, "fusion_lat": 0.0, "lat": 38.924636666666665, "is_reserved": 0}, {"lon": -76.9782365, "fusion_lon": 0.0, "bike_id": "7b0d80b1271fecb7c4eba38c24d64516", "type": "electric_scooter", "name": "7b0d80b1271fecb7c4eba38c24d64516", "rental_uris": {"android": "https://dc.lft.to/lastmile_qr_scan", "ios": "https://dc.lft.to/lastmile_qr_scan"}, "is_disabled": 0, "fusion_lat": 0.0, "lat": 38.89845416666667, "is_reserved": 0}, {"lon": -76.98882883333333, "fusion_lon": 0.0, "bike_id": "d9f37e7a6a97142b51b265e962925b5e", "type": "electric_scooter", "name": "d9f37e7a6a97142b51b265e962925b5e", "rental_uris": {"android": "https://dc.lft.to/lastmile_qr_scan", "ios": "https://dc.lft.to/lastmile_qr_scan"}, "is_disabled": 0, "fusion_lat": 0.0, "lat": 38.86657983333333, "is_reserved": 0}, {"lon": -77.029663, "fusion_lon": 0.0, "bike_id": "98313663887c11fa94379a8fca58428c", "type": "electric_scooter", "name": "98313663887c11fa94379a8fca58428c", "rental_uris": {"android": "https://dc.lft.to/lastmile_qr_scan", "ios": "https://dc.lft.to/lastmile_qr_scan"}, "is_disabled": 0, "fusion_lat": 0.0, "lat": 38.923363, "is_reserved": 0}, {"lon": -77.032715, "fusion_lon": 0.0, "bike_id": "154ee92f03d1581aeb4d1a92682cf1a2", "type": "electric_scooter", "name": "154ee92f03d1581aeb4d1a92682cf1a2", "rental_uris": {"android": "https://dc.lft.to/lastmile_qr_scan", "ios": "https://dc.lft.to/lastmile_qr_scan"}, "is_disabled": 0, "fusion_lat": 0.0, "lat": 38.93766266666667, "is_reserved": 0}, {"lon": -77.22889233333333, "fusion_lon": 0.0, "bike_id": "13f8362a622f724f4b575fce10bac941", "type": "electric_bike", "name": "13f8362a622f724f4b575fce10bac941", "rental_uris": {"android": "https://dc.lft.to/lastmile_qr_scan", "ios": "https://dc.lft.to/lastmile_qr_scan"}, "is_disabled": 0, "fusion_lat": 0.0, "lat": 38.9095655, "is_reserved": 0}, {"lon": -77.02310233333333, "fusion_lon": 0.0, "bike_id": "982c184f9359b34b25d24b7b4371793a", "type": "electric_bike", "name": "982c184f9359b34b25d24b7b4371793a", "rental_uris": {"android": "https://dc.lft.to/lastmile_qr_scan", "ios": "https://dc.lft.to/lastmile_qr_scan"}, "is_disabled": 0, "fusion_lat": 0.0, "lat": 38.9025325, "is_reserved": 0}, {"lon": -77.03388783333334, "fusion_lon": 0.0, "bike_id": "1e20f631885c17c59705c5fad27ab78f", "type": "electric_scooter", "name": "1e20f631885c17c59705c5fad27ab78f", "rental_uris": {"android": "https://dc.lft.to/lastmile_qr_scan", "ios": "https://dc.lft.to/lastmile_qr_scan"}, "is_disabled": 0, "fusion_lat": 0.0, "lat": 38.92358, "is_reserved": 0}, {"lon": -77.023399, "fusion_lon": 0.0, "bike_id": "b00a7acbaeca5c56a983e400f2499ceb", "type": "electric_scooter", "name": "b00a7acbaeca5c56a983e400f2499ceb", "rental_uris": {"android": "https://dc.lft.to/lastmile_qr_scan", "ios": "https://dc.lft.to/lastmile_qr_scan"}, "is_disabled": 0, "fusion_lat": 0.0, "lat": 38.908600666666665, "is_reserved": 0}, {"lon": -77.03327783333333, "fusion_lon": 0.0, "bike_id": "6bcf260e9aa148bfe1299415b9d632c9", "type": "electric_scooter", "name": "6bcf260e9aa148bfe1299415b9d632c9", "rental_uris": {"android": "https://dc.lft.to/lastmile_qr_scan", "ios": "https://dc.lft.to/lastmile_qr_scan"}, "is_disabled": 0, "fusion_lat": 0.0, "lat": 38.938961166666665, "is_reserved": 0}, {"lon": -77.00711833333334, "fusion_lon": 0.0, "bike_id": "ac9078fe7d2c2565be2340c84eb689a9", "type": "electric_scooter", "name": "ac9078fe7d2c2565be2340c84eb689a9", "rental_uris": {"android": "https://dc.lft.to/lastmile_qr_scan", "ios": "https://dc.lft.to/lastmile_qr_scan"}, "is_disabled": 0, "fusion_lat": 0.0, "lat": 38.884973, "is_reserved": 0}, {"lon": -77.02192366666667, "fusion_lon": 0.0, "bike_id": "c36656b69022aade9aca15c584485f73", "type": "electric_scooter", "name": "c36656b69022aade9aca15c584485f73", "rental_uris": {"android": "https://dc.lft.to/lastmile_qr_scan", "ios": "https://dc.lft.to/lastmile_qr_scan"}, "is_disabled": 0, "fusion_lat": 0.0, "lat": 38.879104166666664, "is_reserved": 0}, {"lon": -77.07335566666667, "fusion_lon": 0.0, "bike_id": "fe5c5a4096de8de04ff2135e28290321", "type": "electric_scooter", "name": "fe5c5a4096de8de04ff2135e28290321", "rental_uris": {"android": "https://dc.lft.to/lastmile_qr_scan", "ios": "https://dc.lft.to/lastmile_qr_scan"}, "is_disabled": 0, "fusion_lat": 0.0, "lat": 38.924940666666664, "is_reserved": 0}, {"lon": -77.0332955, "fusion_lon": 0.0, "bike_id": "acea69f25833feac6a67508877b64672", "type": "electric_scooter", "name": "acea69f25833feac6a67508877b64672", "rental_uris": {"android": "https://dc.lft.to/lastmile_qr_scan", "ios": "https://dc.lft.to/lastmile_qr_scan"}, "is_disabled": 0, "fusion_lat": 0.0, "lat": 38.89843916666667, "is_reserved": 0}, {"lon": -77.0441185, "fusion_lon": 0.0, "bike_id": "f85a5c059aacc6fd934d5214351fb55f", "type": "electric_scooter", "name": "f85a5c059aacc6fd934d5214351fb55f", "rental_uris": {"android": "https://dc.lft.to/lastmile_qr_scan", "ios": "https://dc.lft.to/lastmile_qr_scan"}, "is_disabled": 0, "fusion_lat": 0.0, "lat": 38.934273, "is_reserved": 0}, {"lon": -77.0198015, "fusion_lon": 0.0, "bike_id": "82a9e9097bcc94efe0c38cb2364a305d", "type": "electric_scooter", "name": "82a9e9097bcc94efe0c38cb2364a305d", "rental_uris": {"android": "https://dc.lft.to/lastmile_qr_scan", "ios": "https://dc.lft.to/lastmile_qr_scan"}, "is_disabled": 0, "fusion_lat": 0.0, "lat": 38.9050645, "is_reserved": 0}, {"lon": -77.02050783333334, "fusion_lon": 0.0, "bike_id": "d67469f83fa27978f33887717a6ee3cb", "type": "electric_scooter", "name": "d67469f83fa27978f33887717a6ee3cb", "rental_uris": {"android": "https://dc.lft.to/lastmile_qr_scan", "ios": "https://dc.lft.to/lastmile_qr_scan"}, "is_disabled": 0, "fusion_lat": 0.0, "lat": 38.923275833333335, "is_reserved": 0}, {"lon": -77.0591605, "fusion_lon": 0.0, "bike_id": "312a3dbe7693302babe62d3af1b6d732", "type": "electric_scooter", "name": "312a3dbe7693302babe62d3af1b6d732", "rental_uris": {"android": "https://dc.lft.to/lastmile_qr_scan", "ios": "https://dc.lft.to/lastmile_qr_scan"}, "is_disabled": 0, "fusion_lat": 0.0, "lat": 38.904468333333334, "is_reserved": 0}, {"lon": -77.02590366666666, "fusion_lon": 0.0, "bike_id": "2c2382c3c51df896053ab22f24c1a2ca", "type": "electric_scooter", "name": "2c2382c3c51df896053ab22f24c1a2ca", "rental_uris": {"android": "https://dc.lft.to/lastmile_qr_scan", "ios": "https://dc.lft.to/lastmile_qr_scan"}, "is_disabled": 0, "fusion_lat": 0.0, "lat": 38.904204166666666, "is_reserved": 0}, {"lon": -77.06342616666667, "fusion_lon": 0.0, "bike_id": "3768d1a8da03c0027ea218193878e626", "type": "electric_scooter", "name": "3768d1a8da03c0027ea218193878e626", "rental_uris": {"android": "https://dc.lft.to/lastmile_qr_scan", "ios": "https://dc.lft.to/lastmile_qr_scan"}, "is_disabled": 0, "fusion_lat": 0.0, "lat": 38.90681766666667, "is_reserved": 0}, {"lon": -77.0344905, "fusion_lon": 0.0, "bike_id": "323fdf3eec56dcc4d4b5d414bbd8477a", "type": "electric_scooter", "name": "323fdf3eec56dcc4d4b5d414bbd8477a", "rental_uris": {"android": "https://dc.lft.to/lastmile_qr_scan", "ios": "https://dc.lft.to/lastmile_qr_scan"}, "is_disabled": 0, "fusion_lat": 0.0, "lat": 38.9083905, "is_reserved": 0}, {"lon": -77.02075733333334, "fusion_lon": 0.0, "bike_id": "2ced506fe98508e87979ab3376123b32", "type": "electric_scooter", "name": "2ced506fe98508e87979ab3376123b32", "rental_uris": {"android": "https://dc.lft.to/lastmile_qr_scan", "ios": "https://dc.lft.to/lastmile_qr_scan"}, "is_disabled": 0, "fusion_lat": 0.0, "lat": 38.92696733333333, "is_reserved": 0}, {"lon": -77.03063516666667, "fusion_lon": 0.0, "bike_id": "3fdc342128593fba66527f55e6b9452a", "type": "electric_scooter", "name": "3fdc342128593fba66527f55e6b9452a", "rental_uris": {"android": "https://dc.lft.to/lastmile_qr_scan", "ios": "https://dc.lft.to/lastmile_qr_scan"}, "is_disabled": 0, "fusion_lat": 0.0, "lat": 38.922514166666666, "is_reserved": 0}, {"lon": -77.03342183333334, "fusion_lon": 0.0, "bike_id": "b47e218a3e432353b69559be2787f3e3", "type": "electric_scooter", "name": "b47e218a3e432353b69559be2787f3e3", "rental_uris": {"android": "https://dc.lft.to/lastmile_qr_scan", "ios": "https://dc.lft.to/lastmile_qr_scan"}, "is_disabled": 0, "fusion_lat": 0.0, "lat": 38.902555666666665, "is_reserved": 0}, {"lon": -76.97335266666667, "fusion_lon": 0.0, "bike_id": "2467436c962a7e573bec982049aac0f3", "type": "electric_scooter", "name": "2467436c962a7e573bec982049aac0f3", "rental_uris": {"android": "https://dc.lft.to/lastmile_qr_scan", "ios": "https://dc.lft.to/lastmile_qr_scan"}, "is_disabled": 0, "fusion_lat": 0.0, "lat": 38.904133333333334, "is_reserved": 0}, {"lon": -77.01898616666666, "fusion_lon": 0.0, "bike_id": "b3008999064d423313cbd233f10e18a8", "type": "electric_scooter", "name": "b3008999064d423313cbd233f10e18a8", "rental_uris": {"android": "https://dc.lft.to/lastmile_qr_scan", "ios": "https://dc.lft.to/lastmile_qr_scan"}, "is_disabled": 0, "fusion_lat": 0.0, "lat": 38.90917133333333, "is_reserved": 0}, {"lon": -77.0281175, "fusion_lon": 0.0, "bike_id": "dc4890d88745613a7e24fdc393cf39cb", "type": "electric_scooter", "name": "dc4890d88745613a7e24fdc393cf39cb", "rental_uris": {"android": "https://dc.lft.to/lastmile_qr_scan", "ios": "https://dc.lft.to/lastmile_qr_scan"}, "is_disabled": 0, "fusion_lat": 0.0, "lat": 38.930801333333335, "is_reserved": 0}, {"lon": -77.01768383333334, "fusion_lon": 0.0, "bike_id": "0afb9b1c0bc6487da9c8df08ebf79b5f", "type": "electric_scooter", "name": "0afb9b1c0bc6487da9c8df08ebf79b5f", "rental_uris": {"android": "https://dc.lft.to/lastmile_qr_scan", "ios": "https://dc.lft.to/lastmile_qr_scan"}, "is_disabled": 0, "fusion_lat": 0.0, "lat": 38.90262033333333, "is_reserved": 0}, {"lon": -77.00203616666667, "fusion_lon": 0.0, "bike_id": "db854dc8bba37faae74f659e879602ea", "type": "electric_scooter", "name": "db854dc8bba37faae74f659e879602ea", "rental_uris": {"android": "https://dc.lft.to/lastmile_qr_scan", "ios": "https://dc.lft.to/lastmile_qr_scan"}, "is_disabled": 0, "fusion_lat": 0.0, "lat": 38.902359, "is_reserved": 0}, {"lon": -77.03504866666667, "fusion_lon": 0.0, "bike_id": "2d67d8f009aacfcaaeeecfc6984bc4d7", "type": "electric_scooter", "name": "2d67d8f009aacfcaaeeecfc6984bc4d7", "rental_uris": {"android": "https://dc.lft.to/lastmile_qr_scan", "ios": "https://dc.lft.to/lastmile_qr_scan"}, "is_disabled": 0, "fusion_lat": 0.0, "lat": 38.918801333333334, "is_reserved": 0}, {"lon": -77.12738233333333, "fusion_lon": 0.0, "bike_id": "bb58d5179fc0786cbc384dca70d547e1", "type": "electric_bike", "name": "bb58d5179fc0786cbc384dca70d547e1", "rental_uris": {"android": "https://dc.lft.to/lastmile_qr_scan", "ios": "https://dc.lft.to/lastmile_qr_scan"}, "is_disabled": 0, "fusion_lat": 0.0, "lat": 38.89564283333333, "is_reserved": 0}, {"lon": -77.03345816666666, "fusion_lon": 0.0, "bike_id": "6f2fd1d1e2806dec25e8f4e463215008", "type": "electric_scooter", "name": "6f2fd1d1e2806dec25e8f4e463215008", "rental_uris": {"android": "https://dc.lft.to/lastmile_qr_scan", "ios": "https://dc.lft.to/lastmile_qr_scan"}, "is_disabled": 0, "fusion_lat": 0.0, "lat": 38.921682, "is_reserved": 0},