{"data": {"bikes": [{"lon": -76.997909, "bike_id": "41ef44c3d9c33b093141df7d88d2cf79", "lat": 38.89087633333333, "fusion_lon": 0.0, "fusion_lat": 0.0, "type": "electric_scooter", "name": "41ef44c3d9c33b093141df7d88d2cf79", "is_disabled": 0, "rental_uris": {"ios": "https://dc.lft.to/lastmile_qr_scan", "android": "https://dc.lft.to/lastmile_qr_scan"}, "is_reserved": 0}, {"lon": -77.00302133333334, "bike_id": "058de63db89f3e7312c0ba4ea2ce0572", "lat": 38.9013255, "fusion_lon": 0.0, "fusion_lat": 0.0, "type": "electric_scooter", "name": "058de63db89f3e7312c0ba4ea2ce0572", "is_disabled": 0, "rental_uris": {"ios": "https://dc.lft.to/lastmile_qr_scan", "android": "https://dc.lft.to/lastmile_qr_scan"}, "is_reserved": 0}, {"lon": -76.99872616666667, "bike_id": "99b8bcd44f74116ed6c0d05b5328f2ee", "lat": 38.90019933333333, "fusion_lon": 0.0, "fusion_lat": 0.0, "type": "electric_scooter", "name": "99b8bcd44f74116ed6c0d05b5328f2ee", "is_disabled": 0, "rental_uris": {"ios": "https://dc.lft.to/lastmile_qr_scan", "android": "https://dc.lft.to/lastmile_qr_scan"}, "is_reserved": 0}, {"lon": -77.03722433333333, "bike_id": "d68cf5030515bcfa06d06225f4723ad4", "lat": 38.92837133333333, "fusion_lon": 0.0, "fusion_lat": 0.0, "type": "electric_scooter", "name": "d68cf5030515bcfa06d06225f4723ad4", "is_disabled": 0, "rental_uris": {"ios": "https://dc.lft.to/lastmile_qr_scan", "android": "https://dc.lft.to/lastmile_qr_scan"}, "is_reserved": 0}, {"lon": -77.032071, "bike_id": "91a19a5d24b17e461da905272a511777", "lat": 38.9179045, "fusion_lon": 0.0, "fusion_lat": 0.0, "type": "electric_scooter", "name": "91a19a5d24b17e461da905272a511777", "is_disabled": 0, "rental_uris": {"ios": "https://dc.lft.to/lastmile_qr_scan", "android": "https://dc.lft.to/lastmile_qr_scan"}, "is_reserved": 0}, {"lon": -77.00614633333333, "bike_id": "50a4f0d2fef4f729ef65b48444d78e7b", "lat": 38.900288, "fusion_lon": 0.0, "fusion_lat": 0.0, "type": "electric_scooter", "name": "50a4f0d2fef4f729ef65b48444d78e7b", "is_disabled": 0, "rental_uris": {"ios": "https://dc.lft.to/lastmile_qr_scan", "android": "https://dc.lft.to/lastmile_qr_scan"}, "is_reserved": 0}, {"lon": -77.0024525, "bike_id": "8b97ac51fb623b32423dae6234b38cd8", "lat": 38.885152166666664, "fusion_lon": 0.0, "fusion_lat": 0.0, "type": "electric_scooter", "name": "8b97ac51fb623b32423dae6234b38cd8", "is_disabled": 0, "rental_uris": {"ios": "https://dc.lft.to/lastmile_qr_scan", "android": "https://dc.lft.to/lastmile_qr_scan"}, "is_reserved": 0}, {"lon": -77.01505766666666, "bike_id": "a67dc3935e667c09f8f18e76d5dadd0a", "lat": 38.94531516666667, "fusion_lon": 0.0, "fusion_lat": 0.0, "type": "electric_scooter", "name": "a67dc3935e667c09f8f18e76d5dadd0a", "is_disabled": 0, "rental_uris": {"ios": "https://dc.lft.to/lastmile_qr_scan", "android": "https://dc.lft.to/lastmile_qr_scan"}, "is_reserved": 0}, {"lon": -76.9811225, "bike_id": "003977ece6862146f8075aaba5175b7a", "lat": 38.87728533333333, "fusion_lon": 0.0, "fusion_lat": 0.0, "type": "electric_bike", "name": "003977ece6862146f8075aaba5175b7a", "is_disabled": 0, "rental_uris": {"ios": "https://dc.lft.to/lastmile_qr_scan", "android": "https://dc.lft.to/lastmile_qr_scan"}, "is_reserved": 0}, {"lon": -76.982461, "bike_id": "87b06102320a86954b142a03c8087e94", "lat": 38.864566333333336, "fusion_lon": 0.0, "fusion_lat": 0.0, "type": "electric_scooter", "name": "87b06102320a86954b142a03c8087e94", "is_disabled": 0, "rental_uris": {"ios": "https://dc.lft.to/lastmile_qr_scan", "android": "https://dc.lft.to/lastmile_qr_scan"}, "is_reserved": 0}, {"lon": -77.04701633333333, "bike_id": "c1a0c1287bb7f5b70d435258ed52b4ad", "lat": 38.91898066666667, "fusion_lon": 0.0, "fusion_lat": 0.0, "type": "electric_scooter", "name": "c1a0c1287bb7f5b70d435258ed52b4ad", "is_disabled": 0, "rental_uris": {"ios": "https://dc.lft.to/lastmile_qr_scan", "android": "https://dc.lft.to/lastmile_qr_scan"}, "is_reserved": 0}, {"lon": -77.0401045, "bike_id": "5f3bb9d3f249439ae5c8e9b468ef6542", "lat": 38.934269, "fusion_lon": 0.0, "fusion_lat": 0.0, "type": "electric_scooter", "name": "5f3bb9d3f249439ae5c8e9b468ef6542", "is_disabled": 0, "rental_uris": {"ios": "https://dc.lft.to/lastmile_qr_scan", "android": "https://dc.lft.to/lastmile_qr_scan"}, "is_reserved": 0}, {"lon": -77.03156983333334, "bike_id": "788f4f5d300c9c34456fa1cabc02d413", "lat": 38.917032666666664, "fusion_lon": 0.0, "fusion_lat": 0.0, "type": "electric_scooter", "name": "788f4f5d300c9c34456fa1cabc02d413", "is_disabled": 0, "rental_uris": {"ios": "https://dc.lft.to/lastmile_qr_scan", "android": "https://dc.lft.to/lastmile_qr_scan"}, "is_reserved": 0}, {"lon": -76.949451, "bike_id": "9230bd63514721f135b1140784a16705", "lat": 38.903688, "fusion_lon": 0.0, "fusion_lat": 0.0, "type": "electric_scooter", "name": "9230bd63514721f135b1140784a16705", "is_disabled": 0, "rental_uris": {"ios": "https://dc.lft.to/lastmile_qr_scan", "android": "https://dc.lft.to/lastmile_qr_scan"}, "is_reserved": 0}, {"lon": -77.0321845, "bike_id": "e3542cf53921135bef4da7a2d70ccee3", "lat": 38.91920533333333, "fusion_lon": 0.0, "fusion_lat": 0.0, "type": "electric_scooter", "name": "e3542cf53921135bef4da7a2d70ccee3", "is_disabled": 0, "rental_uris": {"ios": "https://dc.lft.to/lastmile_qr_scan", "android": "https://dc.lft.to/lastmile_qr_scan"}, "is_reserved": 0}, {"lon": -77.05866533333334, "bike_id": "72a3f0c10016562b7813f54f20867bf1", "lat": 38.93604366666667, "fusion_lon": 0.0, "fusion_lat": 0.0, "type": "electric_scooter", "name": "72a3f0c10016562b7813f54f20867bf1", "is_disabled": 0, "rental_uris": {"ios": "https://dc.lft.to/lastmile_qr_scan", "android": "https://dc.lft.to/lastmile_qr_scan"}, "is_reserved": 0}, {"lon": -77.00116366666667, "bike_id": "a05a1b3ff5e47c9864b980679c439514", "lat": 38.9196515, "fusion_lon": 0.0, "fusion_lat": 0.0, "type": "electric_scooter", "name": "a05a1b3ff5e47c9864b980679c439514", "is_disabled": 0, "rental_uris": {"ios": "https://dc.lft.to/lastmile_qr_scan", "android": "https://dc.lft.to/lastmile_qr_scan"}, "is_reserved": 0}, {"lon": -77.03272833333334, "bike_id": "d4282d55a813063ec001b013148c6f39", "lat": 38.900469, "fusion_lon": 0.0, "fusion_lat": 0.0, "type": "electric_scooter", "name": "d4282d55a813063ec001b013148c6f39", "is_disabled": 0, "rental_uris": {"ios": "https://dc.lft.to/lastmile_qr_scan", "android": "https://dc.lft.to/lastmile_qr_scan"}, "is_reserved": 0}, {"lon": -77.02799666666667, "bike_id": "1418d0489b574bbfcd05295d47f8ea49", "lat": 38.902347166666665, "fusion_lon": 0.0, "fusion_lat": 0.0, "type": "electric_scooter", "name": "1418d0489b574bbfcd05295d47f8ea49", "is_disabled": 0, "rental_uris": {"ios": "https://dc.lft.to/lastmile_qr_scan", "android": "https://dc.lft.to/lastmile_qr_scan"}, "is_reserved": 0}, {"lon": -77.03215816666666, "bike_id": "a9f46da971733c143ef2d9464cf6461a", "lat": 38.91912966666666, "fusion_lon": 0.0, "fusion_lat": 0.0, "type": "electric_scooter", "name": "a9f46da971733c143ef2d9464cf6461a", "is_disabled": 0, "rental_uris": {"ios": "https://dc.lft.to/lastmile_qr_scan", "android": "https://dc.lft.to/lastmile_qr_scan"}, "is_reserved": 0}, {"lon": -77.0019195, "bike_id": "13aedb44a0afd2fb3419ca6af6a7ad5b", "lat": 38.89469, "fusion_lon": 0.0, "fusion_lat": 0.0, "type": "electric_scooter", "name": "13aedb44a0afd2fb3419ca6af6a7ad5b", "is_disabled": 0, "rental_uris": {"ios": "https://dc.lft.to/lastmile_qr_scan", "android": "https://dc.lft.to/lastmile_qr_scan"}, "is_reserved": 0}, {"lon": -77.07305683333334, "bike_id": "f29771437c4b3a589ede7a2d251449b0", "lat": 38.91817283333334, "fusion_lon": 0.0, "fusion_lat": 0.0, "type": "electric_bike", "name": "f29771437c4b3a589ede7a2d251449b0", "is_disabled": 0, "rental_uris": {"ios": "https://dc.lft.to/lastmile_qr_scan", "android": "https://dc.lft.to/lastmile_qr_scan"}, "is_reserved": 0}, {"lon": -77.0314205, "bike_id": "6ca2dedeb7a293287f0de52ba7a57ffc", "lat": 38.91762166666667, "fusion_lon": 0.0, "fusion_lat": 0.0, "type": "electric_scooter", "name": "6ca2dedeb7a293287f0de52ba7a57ffc", "is_disabled": 0, "rental_uris": {"ios": "https://dc.lft.to/lastmile_qr_scan", "android": "https://dc.lft.to/lastmile_qr_scan"}, "is_reserved": 0}, {"lon": -77.02249966666666, "bike_id": "12524489770cf1dafa038bf2d5c7cf5e", "lat": 38.903982166666665, "fusion_lon": 0.0, "fusion_lat": 0.0, "type": "electric_scooter", "name": "12524489770cf1dafa038bf2d5c7cf5e", "is_disabled": 0, "rental_uris": {"ios": "https://dc.lft.to/lastmile_qr_scan", "android": "https://dc.lft.to/lastmile_qr_scan"}, "is_reserved": 0}, {"lon": -77.03253083333334, "bike_id": "5cd053df58a267fbe3d0c5e65e8d0b8d", "lat": 38.915644, "fusion_lon": 0.0, "fusion_lat": 0.0, "type": "electric_scooter", "name": "5cd053df58a267fbe3d0c5e65e8d0b8d", "is_disabled": 0, "rental_uris": {"ios": "https://dc.lft.to/lastmile_qr_scan", "android": "https://dc.lft.to/lastmile_qr_scan"}, "is_reserved": 0}, {"lon": -76.97830866666666, "bike_id": "aeb28d8832082b361db6bcc1d046b34f", "lat": 38.84368516666667, "fusion_lon": 0.0, "fusion_lat": 0.0, "type": "electric_bike", "name": "aeb28d8832082b361db6bcc1d046b34f", "is_disabled": 0, "rental_uris": {"ios": "https://dc.lft.to/lastmile_qr_scan", "android": "https://dc.lft.to/lastmile_qr_scan"}, "is_reserved": 0}, {"lon": -77.0476605, "bike_id": "f43a15754b1a74f4cc673cd096c43103", "lat": 38.90944266666666, "fusion_lon": 0.0, "fusion_lat": 0.0, "type": "electric_scooter", "name": "f43a15754b1a74f4cc673cd096c43103", "is_disabled": 0, "rental_uris": {"ios": "https://dc.lft.to/lastmile_qr_scan", "android": "https://dc.lft.to/lastmile_qr_scan"}, "is_reserved": 0}, {"lon": -77.03114016666666, "bike_id": "f426c33594f111a6ac38f21ddecce6ba", "lat": 38.933227, "fusion_lon": 0.0, "fusion_lat": 0.0, "type": "electric_scooter", "name": "f426c33594f111a6ac38f21ddecce6ba", "is_disabled": 0, "rental_uris": {"ios": "https://dc.lft.to/lastmile_qr_scan", "android": "https://dc.lft.to/lastmile_qr_scan"}, "is_reserved": 0}, {"lon": -77.09065783333334, "bike_id": "708bf94e882f48c5204dd402b1d559f4", "lat": 38.8626125, "fusion_lon": 0.0, "fusion_lat": 0.0, "type": "electric_bike", "name": "708bf94e882f48c5204dd402b1d559f4", "is_disabled": 0, "rental_uris": {"ios": "https://dc.lft.to/lastmile_qr_scan", "android": "https://dc.lft.to/lastmile_qr_scan"}, "is_reserved": 0}, {"lon": -76.9307295, "bike_id": "f02a62e764b47b9b76090f545bf192a0", "lat": 38.89553466666667, "fusion_lon": 0.0, "fusion_lat": 0.0, "type": "electric_scooter", "name": "f02a62e764b47b9b76090f545bf192a0", "is_disabled": 0, "rental_uris": {"ios": "https://dc.lft.to/lastmile_qr_scan", "android": "https://dc.lft.to/lastmile_qr_scan"}, "is_reserved": 0}, {"lon": -77.00200933333333, "bike_id": "6d7e16a7eae6d66e0475ef183e2f1edf", "lat": 38.902416833333334, "fusion_lon": 0.0, "fusion_lat": 0.0, "type": "electric_scooter", "name": "6d7e16a7eae6d66e0475ef183e2f1edf", "is_disabled": 0, "rental_uris": {"ios": "https://dc.lft.to/lastmile_qr_scan", "android": "https://dc.lft.to/lastmile_qr_scan"}, "is_reserved": 0}, {"lon": -77.034496, "bike_id": "63e6f9a2a511b6d43b085d6bc30aabc0", "lat": 38.909925666666666, "fusion_lon": 0.0, "fusion_lat": 0.0, "type": "electric_scooter", "name": "63e6f9a2a511b6d43b085d6bc30aabc0", "is_disabled": 0, "rental_uris": {"ios": "https://dc.lft.to/lastmile_qr_scan", "android": "https://dc.lft.to/lastmile_qr_scan"}, "is_reserved": 0}, {"lon": -77.02477933333333, "bike_id": "ac2338612fdd529974e47a92737fde6c", "lat": 38.919992, "fusion_lon": 0.0, "fusion_lat": 0.0, "type": "electric_scooter", "name": "ac2338612fdd529974e47a92737fde6c", "is_disabled": 0, "rental_uris": {"ios": "https://dc.lft.to/lastmile_qr_scan", "android": "https://dc.lft.to/lastmile_qr_scan"}, "is_reserved": 0}, {"lon": -77.03085533333334, "bike_id": "d0ee123114c71554ef1a5e07b2f13607", "lat": 38.91549583333333, "fusion_lon": 0.0, "fusion_lat": 0.0, "type": "electric_scooter", "name": "d0ee123114c71554ef1a5e07b2f13607", "is_disabled": 0, "rental_uris": {"ios": "https://dc.lft.to/lastmile_qr_scan", "android": "https://dc.lft.to/lastmile_qr_scan"}, "is_reserved": 0}, {"lon": -77.0250355, "bike_id": "7a62199382d62a1305b382b087e966bd", "lat": 38.92590666666667, "fusion_lon": 0.0, "fusion_lat": 0.0, "type": "electric_scooter", "name": "7a62199382d62a1305b382b087e966bd", "is_disabled": 0, "rental_uris": {"ios": "https://dc.lft.to/lastmile_qr_scan", "android": "https://dc.lft.to/lastmile_qr_scan"}, "is_reserved": 0}, {"lon": -77.03676583333333, "bike_id": "27153772fd51a542d4a822a1bd8bdd1c", "lat": 38.920982333333335, "fusion_lon": 0.0, "fusion_lat": 0.0, "type": "electric_scooter", "name": "27153772fd51a542d4a822a1bd8bdd1c", "is_disabled": 0, "rental_uris": {"ios": "https://dc.lft.to/lastmile_qr_scan", "android": "https://dc.lft.to/lastmile_qr_scan"}, "is_reserved": 0}, {"lon": -77.029549, "bike_id": "638dd03b7b22e61384d688bb77934e90", "lat": 38.916784666666665, "fusion_lon": 0.0, "fusion_lat": 0.0, "type": "electric_scooter", "name": "638dd03b7b22e61384d688bb77934e90", "is_disabled": 0, "rental_uris": {"ios": "https://dc.lft.to/lastmile_qr_scan", "android": "https://dc.lft.to/lastmile_qr_scan"}, "is_reserved": 0}, {"lon": -77.0297025, "bike_id": "00df8712fd4dfdc26221de8e0631c045", "lat": 38.930825, "fusion_lon": 0.0, "fusion_lat": 0.0, "type": "electric_scooter", "name": "00df8712fd4dfdc26221de8e0631c045", "is_disabled": 0, "rental_uris": {"ios": "https://dc.lft.to/lastmile_qr_scan", "android": "https://dc.lft.to/lastmile_qr_scan"}, "is_reserved": 0}, {"lon": -77.01206683333334, "bike_id": "3cac0d9ae99fa0406dc28aa4c87a3475", "lat": 38.8709245, "fusion_lon": 0.0, "fusion_lat": 0.0, "type": "electric_bike", "name": "3cac0d9ae99fa0406dc28aa4c87a3475", "is_disabled": 0, "rental_uris": {"ios": "https://dc.lft.to/lastmile_qr_scan", "android": "https://dc.lft.to/lastmile_qr_scan"}, "is_reserved": 0}, {"lon": -77.01846516666667, "bike_id": "e88271c4af10e65fbdf4329d9eab9224", "lat": 38.92278066666667, "fusion_lon": 0.0, "fusion_lat": 0.0, "type": "electric_scooter", "name": "e88271c4af10e65fbdf4329d9eab9224", "is_disabled": 0, "rental_uris": {"ios": "https://dc.lft.to/lastmile_qr_scan", "android": "https://dc.lft.to/lastmile_qr_scan"}, "is_reserved": 0}, {"lon": -77.032818, "bike_id": "a8dfa8d13494fb851d99dec5adf78706", "lat": 38.93450516666667, "fusion_lon": 0.0, "fusion_lat": 0.0, "type": "electric_scooter", "name": "a8dfa8d13494fb851d99dec5adf78706", "is_disabled": 0, "rental_uris": {"ios": "https://dc.lft.to/lastmile_qr_scan", "android": "https://dc.lft.to/lastmile_qr_scan"}, "is_reserved": 0}, {"lon": -77.04659, "bike_id": "6fa1126dbf93c0432527ae2a3d30019a", "lat": 38.913631333333335, "fusion_lon": 0.0, "fusion_lat": 0.0, "type": "electric_scooter", "name": "6fa1126dbf93c0432527ae2a3d30019a", "is_disabled": 0, "rental_uris": {"ios": "https://dc.lft.to/lastmile_qr_scan", "android": "https://dc.lft.to/lastmile_qr_scan"}, "is_reserved": 0}, {"lon": -77.0056865, "bike_id": "d361c6f6245d9bb5c964e627a4507a4a", "lat": 38.8747015, "fusion_lon": 0.0, "fusion_lat": 0.0, "type": "electric_scooter", "name": "d361c6f6245d9bb5c964e627a4507a4a", "is_disabled": 0, "rental_uris": {"ios": "https://dc.lft.to/lastmile_qr_scan", "android": "https://dc.lft.to/lastmile_qr_scan"}, "is_reserved": 0}, {"lon": -77.03442116666666, "bike_id": "528aa3496dc9b7e9ce6de63b12de7fb4", "lat": 38.9343455, "fusion_lon": 0.0, "fusion_lat": 0.0, "type": "electric_scooter", "name": "528aa3496dc9b7e9ce6de63b12de7fb4", "is_disabled": 0, "rental_uris": {"ios": "https://dc.lft.to/lastmile_qr_scan", "android": "https://dc.lft.to/lastmile_qr_scan"}, "is_reserved": 0}, {"lon": -77.01957766666666, "bike_id": "bf46092bc8289390d69d8cd278f50228", "lat": 38.9130165, "fusion_lon": 0.0, "fusion_lat": 0.0, "type": "electric_scooter", "name": "bf46092bc8289390d69d8cd278f50228", "is_disabled": 0, "rental_uris": {"ios": "https://dc.lft.to/lastmile_qr_scan", "android": "https://dc.lft.to/lastmile_qr_scan"}, "is_reserved": 0}, {"lon": -77.04596483333333, "bike_id": "bc3b9464aae3fdb53d3ab8f6069ff451", "lat": 38.90772066666667, "fusion_lon": 0.0, "fusion_lat": 0.0, "type": "electric_scooter", "name": "bc3b9464aae3fdb53d3ab8f6069ff451", "is_disabled": 0, "rental_uris": {"ios": "https://dc.lft.to/lastmile_qr_scan", "android": "https://dc.lft.to/lastmile_qr_scan"}, "is_reserved": 0}, {"lon": -76.954728, "bike_id": "bdf243109a968788db6b8e1c79271f63", "lat": 38.8865425, "fusion_lon": 0.0, "fusion_lat": 0.0, "type": "electric_scooter", "name": "bdf243109a968788db6b8e1c79271f63", "is_disabled": 0, "rental_uris": {"ios": "https://dc.lft.to/lastmile_qr_scan", "android": "https://dc.lft.to/lastmile_qr_scan"}, "is_reserved": 0}, {"lon": -76.98671416666667, "bike_id": "62b4d073152e0a6d8066188f2051557a", "lat": 38.867261166666665, "fusion_lon": 0.0, "fusion_lat": 0.0, "type": "electric_scooter", "name": "62b4d073152e0a6d8066188f2051557a", "is_disabled": 0, "rental_uris": {"ios": "https://dc.lft.to/lastmile_qr_scan", "android": "https://dc.lft.to/lastmile_qr_scan"}, "is_reserved": 0}, {"lon": -77.0275745, "bike_id": "acae2da6a9a6122204b0b384f7c60b90", "lat": 38.96567666666667, "fusion_lon": 0.0, "fusion_lat": 0.0, "type": "electric_bike", "name": "acae2da6a9a6122204b0b384f7c60b90", "is_disabled": 0, "rental_uris": {"ios": "https://dc.lft.to/lastmile_qr_scan", "android": "https://dc.lft.to/lastmile_qr_scan"}, "is_reserved": 0}, {"lon": -77.03659766666667, "bike_id": "53f60647a8017cb49e0705adb7d9fbdb", "lat": 38.93582766666667, "fusion_lon": 0.0, "fusion_lat": 0.0, "type": "electric_bike", "name": "53f60647a8017cb49e0705adb7d9fbdb", "is_disabled": 0, "rental_uris": {"ios": "https://dc.lft.to/lastmile_qr_scan", "android": "https://dc.lft.to/lastmile_qr_scan"}, "is_reserved": 0}, {"lon": -76.9566195, "bike_id": "34a2924c3a7d9f51470fce68b748454f", "lat": 38.896248, "fusion_lon": 0.0, "fusion_lat": 0.0, "type": "electric_scooter", "name": "34a2924c3a7d9f51470fce68b748454f", "is_disabled": 0, "rental_uris": {"ios": "https://dc.lft.to/lastmile_qr_scan", "android": "https://dc.lft.to/lastmile_qr_scan"}, "is_reserved": 0}, {"lon": -77.0515815, "bike_id": "a433988d1f22a6e765cefda1f26cb2e9", "lat": 38.90511583333333, "fusion_lon": 0.0, "fusion_lat": 0.0, "type": "electric_scooter", "name": "a433988d1f22a6e765cefda1f26cb2e9", "is_disabled": 0, "rental_uris": {"ios": "https://dc.lft.to/lastmile_qr_scan", "android": "https://dc.lft.to/lastmile_qr_scan"}, "is_reserved": 0}, {"lon": -77.03473816666667, "bike_id": "02ed3e0a10268d4ec2e5492a5fe4fcba", "lat": 38.92070666666667, "fusion_lon": 0.0, "fusion_lat": 0.0, "type": "electric_scooter", "name": "02ed3e0a10268d4ec2e5492a5fe4fcba", "is_disabled": 0, "rental_uris": {"ios": "https://dc.lft.to/lastmile_qr_scan", "android": "https://dc.lft.to/lastmile_qr_scan"}, "is_reserved": 0}, {"lon": -77.06039466666667, "bike_id": "0e1acbe5c151be4dbdc89301db97a25d", "lat": 38.93350433333333, "fusion_lon": 0.0, "fusion_lat": 0.0, "type": "electric_scooter", "name": "0e1acbe5c151be4dbdc89301db97a25d", "is_disabled": 0, "rental_uris": {"ios": "https://dc.lft.to/lastmile_qr_scan", "android": "https://dc.lft.to/lastmile_qr_scan"}, "is_reserved": 0}, {"lon": -77.16237383333333, "bike_id": "afe2a1d2e41013b366fe4d61c63b47b4", "lat": 38.8865645, "fusion_lon": 0.0, "fusion_lat": 0.0, "type": "electric_bike", "name": "afe2a1d2e41013b366fe4d61c63b47b4", "is_disabled": 0, "rental_uris": {"ios": "https://dc.lft.to/lastmile_qr_scan", "android": "https://dc.lft.to/lastmile_qr_scan"}, "is_reserved": 0}, {"lon": -77.01815, "bike_id": "2d4c7c41025e379448af407fb73749fc", "lat": 38.964791, "fusion_lon": 0.0, "fusion_lat": 0.0, "type": "electric_scooter", "name": "2d4c7c41025e379448af407fb73749fc", "is_disabled": 0, "rental_uris": {"ios": "https://dc.lft.to/lastmile_qr_scan", "android": "https://dc.lft.to/lastmile_qr_scan"}, "is_reserved": 0}, {"lon": -77.04653833333333, "bike_id": "d7f6314b77d440ab6ffd7378cb36335c", "lat": 39.05505266666667, "fusion_lon": 0.0, "fusion_lat": 0.0, "type": "electric_bike", "name": "d7f6314b77d440ab6ffd7378cb36335c", "is_disabled": 0, "rental_uris": {"ios": "https://dc.lft.to/lastmile_qr_scan", "android": "https://dc.lft.to/lastmile_qr_scan"}, "is_reserved": 0}, {"lon": -76.9613145, "bike_id": "5d80cb18dad6814ec49c3a72ab6e5e42", "lat": 38.942091833333336, "fusion_lon": 0.0, "fusion_lat": 0.0, "type": "electric_bike", "name": "5d80cb18dad6814ec49c3a72ab6e5e42", "is_disabled": 0, "rental_uris": {"ios": "https://dc.lft.to/lastmile_qr_scan", "android": "https://dc.lft.to/lastmile_qr_scan"}, "is_reserved": 0}, {"lon": -76.99730383333333, "bike_id": "54336a9c8a24109de5f0ef9a1cf4e956", "lat": 38.899963166666666, "fusion_lon": 0.0, "fusion_lat": 0.0, "type": "electric_scooter", "name": "54336a9c8a24109de5f0ef9a1cf4e956", "is_disabled": 0, "rental_uris": {"ios": "https://dc.lft.to/lastmile_qr_scan", "android": "https://dc.lft.to/lastmile_qr_scan"}, "is_reserved": 0}, {"lon": -76.884097, "bike_id": "c8f21bb6bf899d994ec5092885ba0c27", "lat": 38.93165483333333, "fusion_lon": 0.0, "fusion_lat": 0.0, "type": "electric_bike", "name": "c8f21bb6bf899d994ec5092885ba0c27", "is_disabled": 0, "rental_uris": {"ios": "https://dc.lft.to/lastmile_qr_scan", "android": "https://dc.lft.to/lastmile_qr_scan"}, "is_reserved": 0}, {"lon": -77.0388245, "bike_id": "e6049e940bea9083c2adf23754c00618", "lat": 38.948684, "fusion_lon": 0.0, "fusion_lat": 0.0, "type": "electric_scooter", "name": "e6049e940bea9083c2adf23754c00618", "is_disabled": 0, "rental_uris": {"ios": "https://dc.lft.to/lastmile_qr_scan", "android": "https://dc.lft.to/lastmile_qr_scan"}, "is_reserved": 0}, {"lon": -77.05748566666666, "bike_id": "1277b34f126b7b48aaf90f356711d8d1", "lat": 38.93389616666666, "fusion_lon": 0.0, "fusion_lat": 0.0, "type": "electric_scooter", "name": "1277b34f126b7b48aaf90f356711d8d1", "is_disabled": 0, "rental_uris": {"ios": "https://dc.lft.to/lastmile_qr_scan", "android": "https://dc.lft.to/lastmile_qr_scan"}, "is_reserved": 0}, {"lon": -77.031554, "bike_id": "3dff310938e96d241d565abf2c2e64b2", "lat": 38.9285655, "fusion_lon": 0.0, "fusion_lat": 0.0, "type": "electric_scooter", "name": "3dff310938e96d241d565abf2c2e64b2", "is_disabled": 0, "rental_uris": {"ios": "https://dc.lft.to/lastmile_qr_scan", "android": "https://dc.lft.to/lastmile_qr_scan"}, "is_reserved": 0}, {"lon": -77.000756, "bike_id": "0972a3cf009370aa117864cfd386654e", "lat": 38.92429816666667, "fusion_lon": 0.0, "fusion_lat": 0.0, "type": "electric_scooter", "name": "0972a3cf009370aa117864cfd386654e", "is_disabled": 0, "rental_uris": {"ios": "https://dc.lft.to/lastmile_qr_scan", "android": "https://dc.lft.to/lastmile_qr_scan"}, "is_reserved": 0}, {"lon": -77.02797333333334, "bike_id": "53574c00b94d431ef3f2cee8f4417336", "lat": 38.916845333333335, "fusion_lon": 0.0, "fusion_lat": 0.0, "type": "electric_scooter", "name": "53574c00b94d431ef3f2cee8f4417336", "is_disabled": 0, "rental_uris": {"ios": "https://dc.lft.to/lastmile_qr_scan", "android": "https://dc.lft.to/lastmile_qr_scan"}, "is_reserved": 0}, {"lon": -77.04275033333333, "bike_id": "5a8a5ee41b0d7aa6e2167f6edae99d19", "lat": 38.9178725, "fusion_lon": 0.0, "fusion_lat": 0.0, "type": "electric_scooter", "name": "5a8a5ee41b0d7aa6e2167f6edae99d19", "is_disabled": 0, "rental_uris": {"ios": "https://dc.lft.to/lastmile_qr_scan", "android": "https://dc.lft.to/lastmile_qr_scan"}, "is_reserved": 0}, {"lon": -77.02409766666666, "bike_id": "21f4d80b89c0bed3bdb39778ea84e822", "lat": 38.92065233333334, "fusion_lon": 0.0, "fusion_lat": 0.0, "type": "electric_scooter", "name": "21f4d80b89c0bed3bdb39778ea84e822", "is_disabled": 0, "rental_uris": {"ios": "https://dc.lft.to/lastmile_qr_scan", "android": "https://dc.lft.to/lastmile_qr_scan"}, "is_reserved": 0}, {"lon": -76.97613466666667, "bike_id": "0824d3d2cafab2596fd4c6ca6acde1e9", "lat": 38.903811166666664, "fusion_lon": 0.0, "fusion_lat": 0.0, "type": "electric_scooter", "name": "0824d3d2cafab2596fd4c6ca6acde1e9", "is_disabled": 0, "rental_uris": {"ios": "https://dc.lft.to/lastmile_qr_scan", "android": "https://dc.lft.to/lastmile_qr_scan"}, "is_reserved": 0}, {"lon": -76.99835983333334, "bike_id": "e8ce5f7dad7d7a933977c48d93c5e644", "lat": 38.90499366666667, "fusion_lon": 0.0, "fusion_lat": 0.0, "type": "electric_scooter", "name": "e8ce5f7dad7d7a933977c48d93c5e644", "is_disabled": 0, "rental_uris": {"ios": "https://dc.lft.to/lastmile_qr_scan", "android": "https://dc.lft.to/lastmile_qr_scan"}, "is_reserved": 0}, {"lon": -77.02897433333334, "bike_id": "bf8ebf658577ee1bf7f0f18d5b50fe56", "lat": 38.90382, "fusion_lon": 0.0, "fusion_lat": 0.0, "type": "electric_scooter", "name": "bf8ebf658577ee1bf7f0f18d5b50fe56", "is_disabled": 0, "rental_uris": {"ios": "https://dc.lft.to/lastmile_qr_scan", "android": "https://dc.lft.to/lastmile_qr_scan"}, "is_reserved": 0}, {"lon": -77.047199, "bike_id": "16d0e65df3b314c0d544ec915e78b0b5", "lat": 38.92235183333333, "fusion_lon": 0.0, "fusion_lat": 0.0, "type": "electric_scooter", "name": "16d0e65df3b314c0d544ec915e78b0b5", "is_disabled": 0, "rental_uris": {"ios": "https://dc.lft.to/lastmile_qr_scan", "android": "https://dc.lft.to/lastmile_qr_scan"}, "is_reserved": 0}, {"lon": -77.04146816666666, "bike_id": "1c686facc8154ee8e2f2a48a61ce3d0b", "lat": 38.90571766666667, "fusion_lon": 0.0, "fusion_lat": 0.0, "type": "electric_scooter", "name": "1c686facc8154ee8e2f2a48a61ce3d0b", "is_disabled": 0, "rental_uris": {"ios": "https://dc.lft.to/lastmile_qr_scan", "android": "https://dc.lft.to/lastmile_qr_scan"}, "is_reserved": 0}, {"lon": -77.009212, "bike_id": "b03982ffafbf70821d3b293bdf4ec0ff", "lat": 38.82781766666667, "fusion_lon": 0.0, "fusion_lat": 0.0, "type": "electric_bike", "name": "b03982ffafbf70821d3b293bdf4ec0ff", "is_disabled": 0, "rental_uris": {"ios": "https://dc.lft.to/lastmile_qr_scan", "android": "https://dc.lft.to/lastmile_qr_scan"}, "is_reserved": 0}, {"lon": -76.936127, "bike_id": "5b7ce326f653dc56d8c2f891589c9731", "lat": 38.896798, "fusion_lon": 0.0, "fusion_lat": 0.0, "type": "electric_scooter", "name": "5b7ce326f653dc56d8c2f891589c9731", "is_disabled": 0, "rental_uris": {"ios": "https://dc.lft.to/lastmile_qr_scan", "android": "https://dc.lft.to/lastmile_qr_scan"}, "is_reserved": 0}, {"lon": -77.04469083333333, "bike_id": "66c08742f82c5eab8fcfb129b925474b", "lat": 38.9188565, "fusion_lon": 0.0, "fusion_lat": 0.0, "type": "electric_scooter", "name": "66c08742f82c5eab8fcfb129b925474b", "is_disabled": 0, "rental_uris": {"ios": "https://dc.lft.to/lastmile_qr_scan", "android": "https://dc.lft.to/lastmile_qr_scan"}, "is_reserved": 0}, {"lon": -77.03078566666667, "bike_id": "efb55f79a51dc183003ce59240fbdaed", "lat": 38.88036133333333, "fusion_lon": 0.0, "fusion_lat": 0.0, "type": "electric_scooter", "name": "efb55f79a51dc183003ce59240fbdaed", "is_disabled": 0, "rental_uris": {"ios": "https://dc.lft.to/lastmile_qr_scan", "android": "https://dc.lft.to/lastmile_qr_scan"}, "is_reserved": 0}, {"lon": -77.03993383333334, "bike_id": "9ca9d506313733f5089aff8d753e181e", "lat": 38.92445283333333, "fusion_lon": 0.0, "fusion_lat": 0.0, "type": "electric_scooter", "name": "9ca9d506313733f5089aff8d753e181e", "is_disabled": 0, "rental_uris": {"ios": "https://dc.lft.to/lastmile_qr_scan", "android": "https://dc.lft.to/lastmile_qr_scan"}, "is_reserved": 0}, {"lon": -77.02096466666667, "bike_id": "13c35631cfb743cbf77f57dca8f3ff13", "lat": 38.8997795, "fusion_lon": 0.0, "fusion_lat": 0.0, "type": "electric_scooter", "name": "13c35631cfb743cbf77f57dca8f3ff13", "is_disabled": 0, "rental_uris": {"ios": "https://dc.lft.to/lastmile_qr_scan", "android": "https://dc.lft.to/lastmile_qr_scan"}, "is_reserved": 0}, {"lon": -77.04211183333334, "bike_id": "a175c5e81ead55f4f02a5f098145d35a", "lat": 38.921275, "fusion_lon": 0.0, "fusion_lat": 0.0, "type": "electric_scooter", "name": "a175c5e81ead55f4f02a5f098145d35a", "is_disabled": 0, "rental_uris": {"ios": "https://dc.lft.to/lastmile_qr_scan", "android": "https://dc.lft.to/lastmile_qr_scan"}, "is_reserved": 0}, {"lon": -77.0445705, "bike_id": "9ab90ee2b1577c17456517a8836aa0fc", "lat": 38.918689, "fusion_lon": 0.0, "fusion_lat": 0.0, "type": "electric_scooter", "name": "9ab90ee2b1577c17456517a8836aa0fc", "is_disabled": 0, "rental_uris": {"ios": "https://dc.lft.to/lastmile_qr_scan", "android": "https://dc.lft.to/lastmile_qr_scan"}, "is_reserved": 0}, {"lon": -77.02607666666667, "bike_id": "9f4f62794c2abde92ce14f09103f8adb", "lat": 38.92651016666667, "fusion_lon": 0.0, "fusion_lat": 0.0, "type": "electric_scooter", "name": "9f4f62794c2abde92ce14f09103f8adb", "is_disabled": 0, "rental_uris": {"ios": "https://dc.lft.to/lastmile_qr_scan", "android": "https://dc.lft.to/lastmile_qr_scan"}, "is_reserved": 0}, {"lon": -77.02218533333334, "bike_id": "f740712d0a885a72039373c0067f8d1e", "lat": 38.94093683333333, "fusion_lon": 0.0, "fusion_lat": 0.0, "type": "electric_scooter", "name": "f740712d0a885a72039373c0067f8d1e", "is_disabled": 0, "rental_uris": {"ios": "https://dc.lft.to/lastmile_qr_scan", "android": "https://dc.lft.to/lastmile_qr_scan"}, "is_reserved": 0}, {"lon": -77.03596716666667, "bike_id": "7c2b4b206e80a0d87849fc633d73e593", "lat": 38.936725, "fusion_lon": 0.0, "fusion_lat": 0.0, "type": "electric_scooter", "name": "7c2b4b206e80a0d87849fc633d73e593", "is_disabled": 0, "rental_uris": {"ios": "https://dc.lft.to/lastmile_qr_scan", "android": "https://dc.lft.to/lastmile_qr_scan"}, "is_reserved": 0}, {"lon": -76.98882616666667, "bike_id": "dfbf2dfd51eea2276f1219b5713fcf93", "lat": 38.86661866666667, "fusion_lon": 0.0, "fusion_lat": 0.0, "type": "electric_scooter", "name": "dfbf2dfd51eea2276f1219b5713fcf93", "is_disabled": 0, "rental_uris": {"ios": "https://dc.lft.to/lastmile_qr_scan", "android": "https://dc.lft.to/lastmile_qr_scan"}, "is_reserved": 0}, {"lon": -76.994997, "bike_id": "cc63685fa0fe12e8cead8ff7b79724dd", "lat": 38.8814045, "fusion_lon": 0.0, "fusion_lat": 0.0, "type": "electric_scooter", "name": "cc63685fa0fe12e8cead8ff7b79724dd", "is_disabled": 0, "rental_uris": {"ios": "https://dc.lft.to/lastmile_qr_scan", "android": "https://dc.lft.to/lastmile_qr_scan"}, "is_reserved": 0}, {"lon": -77.02363916666667, "bike_id": "2136234022805065cddfd90b9b92c1d0", "lat": 38.896227, "fusion_lon": 0.0, "fusion_lat": 0.0, "type": "electric_scooter", "name": "2136234022805065cddfd90b9b92c1d0", "is_disabled": 0, "rental_uris": {"ios": "https://dc.lft.to/lastmile_qr_scan", "android": "https://dc.lft.to/lastmile_qr_scan"}, "is_reserved": 0}, {"lon": -77.0347105, "bike_id": "4e6dca3f6645e6f331d6d4e2309f8f89", "lat": 38.926471, "fusion_lon": 0.0, "fusion_lat": 0.0, "type": "electric_scooter", "name": "4e6dca3f6645e6f331d6d4e2309f8f89", "is_disabled": 0, "rental_uris": {"ios": "https://dc.lft.to/lastmile_qr_scan", "android": "https://dc.lft.to/lastmile_qr_scan"}, "is_reserved": 0}, {"lon": -77.03677866666666, "bike_id": "f72a9745c9acb7314bd41d4515d3e080", "lat": 38.90876433333333, "fusion_lon": 0.0, "fusion_lat": 0.0, "type": "electric_scooter", "name": "f72a9745c9acb7314bd41d4515d3e080", "is_disabled": 0, "rental_uris": {"ios": "https://dc.lft.to/lastmile_qr_scan", "android": "https://dc.lft.to/lastmile_qr_scan"}, "is_reserved": 0}, {"lon": -77.04655, "bike_id": "4348d1fa7fd1d1b059f01aac80385208", "lat": 38.903277333333335, "fusion_lon": 0.0, "fusion_lat": 0.0, "type": "electric_scooter", "name": "4348d1fa7fd1d1b059f01aac80385208", "is_disabled": 0, "rental_uris": {"ios": "https://dc.lft.to/lastmile_qr_scan", "android": "https://dc.lft.to/lastmile_qr_scan"}, "is_reserved": 0}, {"lon": -77.04929883333334, "bike_id": "40a1db9777021891e746825bc2405a94", "lat": 39.0292525, "fusion_lon": 0.0, "fusion_lat": 0.0, "type": "electric_bike", "name": "40a1db9777021891e746825bc2405a94", "is_disabled": 0, "rental_uris": {"ios": "https://dc.lft.to/lastmile_qr_scan", "android": "https://dc.lft.to/lastmile_qr_scan"}, "is_reserved": 0}, {"lon": -77.02973233333333, "bike_id": "aae9f10ccaac083f9fd496d9d5275153", "lat": 38.916662, "fusion_lon": 0.0, "fusion_lat": 0.0, "type": "electric_scooter", "name": "aae9f10ccaac083f9fd496d9d5275153", "is_disabled": 0, "rental_uris": {"ios": "https://dc.lft.to/lastmile_qr_scan", "android": "https://dc.lft.to/lastmile_qr_scan"}, "is_reserved": 0}, {"lon": -76.9901735, "bike_id": "cd18b9363e39f6efce0138f3ec1c416d", "lat": 38.8941575, "fusion_lon": 0.0, "fusion_lat": 0.0, "type": "electric_scooter", "name": "cd18b9363e39f6efce0138f3ec1c416d", "is_disabled": 0, "rental_uris": {"ios": "https://dc.lft.to/lastmile_qr_scan", "android": "https://dc.lft.to/lastmile_qr_scan"}, "is_reserved": 0}, {"lon": -77.02620683333333, "bike_id": "9a3da8d9b35ce1439dcf7b7414dea01d", "lat": 38.90564666666667, "fusion_lon": 0.0, "fusion_lat": 0.0, "type": "electric_scooter", "name": "9a3da8d9b35ce1439dcf7b7414dea01d", "is_disabled": 0, "rental_uris": {"ios": "https://dc.lft.to/lastmile_qr_scan", "android": "https://dc.lft.to/lastmile_qr_scan"}, "is_reserved": 0}, {"lon": -77.03777166666667, "bike_id": "ed3ce0935d665b5d743056a490ace9f4", "lat": 38.916889, "fusion_lon": 0.0, "fusion_lat": 0.0, "type": "electric_scooter", "name": "ed3ce0935d665b5d743056a490ace9f4", "is_disabled": 0, "rental_uris": {"ios": "https://dc.lft.to/lastmile_qr_scan", "android": "https://dc.lft.to/lastmile_qr_scan"}, "is_reserved": 0}, {"lon": -77.00731233333333, "bike_id": "a1b281c69a636da89f543c2fafd35a1c", "lat": 38.9595665, "fusion_lon": 0.0, "fusion_lat": 0.0, "type": "electric_scooter", "name": "a1b281c69a636da89f543c2fafd35a1c", "is_disabled": 0, "rental_uris": {"ios": "https://dc.lft.to/lastmile_qr_scan", "android": "https://dc.lft.to/lastmile_qr_scan"}, "is_reserved": 0}, {"lon": -77.03393916666667, "bike_id": "30985e915f4af4f8ee5978fcae05b152", "lat": 38.908094166666665, "fusion_lon": 0.0, "fusion_lat": 0.0, "type": "electric_scooter", "name": "30985e915f4af4f8ee5978fcae05b152", "is_disabled": 0, "rental_uris": {"ios": "https://dc.lft.to/lastmile_qr_scan", "android": "https://dc.lft.to/lastmile_qr_scan"}, "is_reserved": 0}, {"lon": -77.01625483333333, "bike_id": "3771b08e6dc81a1dba0850956b0ad459", "lat": 38.907075, "fusion_lon": 0.0, "fusion_lat": 0.0, "type": "electric_scooter", "name": "3771b08e6dc81a1dba0850956b0ad459", "is_disabled": 0, "rental_uris": {"ios": "https://dc.lft.to/lastmile_qr_scan", "android": "https://dc.lft.to/lastmile_qr_scan"}, "is_reserved": 0}, {"lon": -77.0463085, "bike_id": "3de4a2f384e0375a1190c149aea95c79", "lat": 38.919097, "fusion_lon": 0.0, "fusion_lat": 0.0, "type": "electric_scooter", "name": "3de4a2f384e0375a1190c149aea95c79", "is_disabled": 0, "rental_uris": {"ios": "https://dc.lft.to/lastmile_qr_scan", "android": "https://dc.lft.to/lastmile_qr_scan"}, "is_reserved": 0}, {"lon": -77.0614405, "bike_id": "b4b9084818a8789cf77b1aa6680e36b2", "lat": 38.94354, "fusion_lon": 0.0, "fusion_lat": 0.0, "type": "electric_scooter", "name": "b4b9084818a8789cf77b1aa6680e36b2", "is_disabled": 0, "rental_uris": {"ios": "https://dc.lft.to/lastmile_qr_scan", "android": "https://dc.lft.to/lastmile_qr_scan"}, "is_reserved": 0}, {"lon": -77.00166, "bike_id": "0ceedcb56c0b05b5fc833d46076f4d72", "lat": 38.91945966666667, "fusion_lon": 0.0, "fusion_lat": 0.0, "type": "electric_scooter", "name": "0ceedcb56c0b05b5fc833d46076f4d72", "is_disabled": 0, "rental_uris": {"ios": "https://dc.lft.to/lastmile_qr_scan", "android": "https://dc.lft.to/lastmile_qr_scan"}, "is_reserved": 0}, {"lon": -76.997808, "bike_id": "96f62b2a0da89244e215f0b6fa9934ff", "lat": 38.91055983333333, "fusion_lon": 0.0, "fusion_lat": 0.0, "type": "electric_scooter", "name": "96f62b2a0da89244e215f0b6fa9934ff", "is_disabled": 0, "rental_uris": {"ios": "https://dc.lft.to/lastmile_qr_scan", "android": "https://dc.lft.to/lastmile_qr_scan"}, "is_reserved": 0}, {"lon": -77.009346, "bike_id": "f9d4d9abcff4cafd24e35f9fa48b4a6f", "lat": 38.91802416666667, "fusion_lon": 0.0, "fusion_lat": 0.0, "type": "electric_scooter", "name": "f9d4d9abcff4cafd24e35f9fa48b4a6f", "is_disabled": 0, "rental_uris": {"ios": "https://dc.lft.to/lastmile_qr_scan", "android": "https://dc.lft.to/lastmile_qr_scan"}, "is_reserved": 0}, {"lon": -77.025159, "bike_id": "a2736a5d1a6f51464d1d1529a1c529a6", "lat": 38.88385816666667, "fusion_lon": 0.0, "fusion_lat": 0.0, "type": "electric_scooter", "name": "a2736a5d1a6f51464d1d1529a1c529a6", "is_disabled": 0, "rental_uris": {"ios": "https://dc.lft.to/lastmile_qr_scan", "android": "https://dc.lft.to/lastmile_qr_scan"}, "is_reserved": 0}, {"lon": -76.97002166666667, "bike_id": "db72b9b001efeadcd1c830d139ed868f", "lat": 38.873662333333336, "fusion_lon": 0.0, "fusion_lat": 0.0, "type": "electric_scooter", "name": "db72b9b001efeadcd1c830d139ed868f", "is_disabled": 0, "rental_uris": {"ios": "https://dc.lft.to/lastmile_qr_scan", "android": "https://dc.lft.to/lastmile_qr_scan"}, "is_reserved": 0}, {"lon": -77.06110083333333, "bike_id": "5f87bfc49b85fb727c2f87283a5a8b36", "lat": 38.9052795, "fusion_lon": 0.0, "fusion_lat": 0.0, "type": "electric_scooter", "name": "5f87bfc49b85fb727c2f87283a5a8b36", "is_disabled": 0, "rental_uris": {"ios": "https://dc.lft.to/lastmile_qr_scan", "android": "https://dc.lft.to/lastmile_qr_scan"}, "is_reserved": 0}, {"lon": -77.05328266666666, "bike_id": "455db7ab2c1a5ceb7115e92893bc1146", "lat": 38.907304, "fusion_lon": 0.0, "fusion_lat": 0.0, "type": "electric_scooter", "name": "455db7ab2c1a5ceb7115e92893bc1146", "is_disabled": 0, "rental_uris": {"ios": "https://dc.lft.to/lastmile_qr_scan", "android": "https://dc.lft.to/lastmile_qr_scan"}, "is_reserved": 0}, {"lon": -77.0013575, "bike_id": "92f5523bd910eb392e7d51f080f882f8", "lat": 38.88520883333333, "fusion_lon": 0.0, "fusion_lat": 0.0, "type": "electric_scooter", "name": "92f5523bd910eb392e7d51f080f882f8", "is_disabled": 0, "rental_uris": {"ios": "https://dc.lft.to/lastmile_qr_scan", "android": "https://dc.lft.to/lastmile_qr_scan"}, "is_reserved": 0}, {"lon": -77.02512483333334, "bike_id": "504af596b4d1a2f8437e4971d9098ccb", "lat": 38.90402983333333, "fusion_lon": 0.0, "fusion_lat": 0.0, "type": "electric_scooter", "name": "504af596b4d1a2f8437e4971d9098ccb", "is_disabled": 0, "rental_uris": {"ios": "https://dc.lft.to/lastmile_qr_scan", "android": "https://dc.lft.to/lastmile_qr_scan"}, "is_reserved": 0}, {"lon": -77.0325075, "bike_id": "8966afceb7cc904545d66a11ca0b2f95", "lat": 38.91557916666667, "fusion_lon": 0.0, "fusion_lat": 0.0, "type": "electric_scooter", "name": "8966afceb7cc904545d66a11ca0b2f95", "is_disabled": 0, "rental_uris": {"ios": "https://dc.lft.to/lastmile_qr_scan", "android": "https://dc.lft.to/lastmile_qr_scan"}, "is_reserved": 0}, {"lon": -77.07793233333334, "bike_id": "277a77939be5c91e298193fac8754f87", "lat": 38.9960135, "fusion_lon": 0.0, "fusion_lat": 0.0, "type": "electric_bike", "name": "277a77939be5c91e298193fac8754f87", "is_disabled": 0, "rental_uris": {"ios": "https://dc.lft.to/lastmile_qr_scan", "android": "https://dc.lft.to/lastmile_qr_scan"}, "is_reserved": 0}, {"lon": -77.0253645, "bike_id": "acbc34454dbf21eb304150e78ffd543a", "lat": 38.94299616666667, "fusion_lon": 0.0, "fusion_lat": 0.0, "type": "electric_scooter", "name": "acbc34454dbf21eb304150e78ffd543a", "is_disabled": 0, "rental_uris": {"ios": "https://dc.lft.to/lastmile_qr_scan", "android": "https://dc.lft.to/lastmile_qr_scan"}, "is_reserved": 0}, {"lon": -77.023164, "bike_id": "03d0261a2a34000515dfdaccf9a1dc3d", "lat": 38.9095485, "fusion_lon": 0.0, "fusion_lat": 0.0, "type": "electric_scooter", "name": "03d0261a2a34000515dfdaccf9a1dc3d", "is_disabled": 0, "rental_uris": {"ios": "https://dc.lft.to/lastmile_qr_scan", "android": "https://dc.lft.to/lastmile_qr_scan"}, "is_reserved": 0}, {"lon": -77.058638, "bike_id": "87a8a7f05a94120748d433880dd92ce8", "lat": 38.936055, "fusion_lon": 0.0, "fusion_lat": 0.0, "type": "electric_scooter", "name": "87a8a7f05a94120748d433880dd92ce8", "is_disabled": 0, "rental_uris": {"ios": "https://dc.lft.to/lastmile_qr_scan", "android": "https://dc.lft.to/lastmile_qr_scan"}, "is_reserved": 0}, {"lon": -77.02990966666667, "bike_id": "e7498c766fae9e478a0c0be1dc8e423f", "lat": 38.974380333333336, "fusion_lon": 0.0, "fusion_lat": 0.0, "type": "electric_bike", "name": "e7498c766fae9e478a0c0be1dc8e423f", "is_disabled": 0, "rental_uris": {"ios": "https://dc.lft.to/lastmile_qr_scan", "android": "https://dc.lft.to/lastmile_qr_scan"}, "is_reserved": 0}, {"lon": -77.05015633333333, "bike_id": "4fb18146fdd56f903e296549ede2aa58", "lat": 38.897760166666664, "fusion_lon": 0.0, "fusion_lat": 0.0, "type": "electric_scooter", "name": "4fb18146fdd56f903e296549ede2aa58", "is_disabled": 0, "rental_uris": {"ios": "https://dc.lft.to/lastmile_qr_scan", "android": "https://dc.lft.to/lastmile_qr_scan"}, "is_reserved": 0}, {"lon": -77.04566766666667, "bike_id": "576d8f51d10858eada126f8b95d3bfca", "lat": 38.91312466666667, "fusion_lon": 0.0, "fusion_lat": 0.0, "type": "electric_scooter", "name": "576d8f51d10858eada126f8b95d3bfca", "is_disabled": 0, "rental_uris": {"ios": "https://dc.lft.to/lastmile_qr_scan", "android": "https://dc.lft.to/lastmile_qr_scan"}, "is_reserved": 0}, {"lon": -77.03077716666667, "bike_id": "7137f81e49f6ab3de646e142857b542f", "lat": 38.88592466666667, "fusion_lon": 0.0, "fusion_lat": 0.0, "type": "electric_scooter", "name": "7137f81e49f6ab3de646e142857b542f", "is_disabled": 0, "rental_uris": {"ios": "https://dc.lft.to/lastmile_qr_scan", "android": "https://dc.lft.to/lastmile_qr_scan"}, "is_reserved": 0}, {"lon": -76.98350433333333, "bike_id": "0c829934554c67a2cf32dfb527d9ab21", "lat": 38.902874833333335, "fusion_lon": 0.0, "fusion_lat": 0.0, "type": "electric_scooter", "name": "0c829934554c67a2cf32dfb527d9ab21", "is_disabled": 0, "rental_uris": {"ios": "https://dc.lft.to/lastmile_qr_scan", "android": "https://dc.lft.to/lastmile_qr_scan"}, "is_reserved": 0}, {"lon": -77.0112385, "bike_id": "d65eb84b319aac60c71b31aef40f69c7", "lat": 38.868288166666666, "fusion_lon": 0.0, "fusion_lat": 0.0, "type": "electric_scooter", "name": "d65eb84b319aac60c71b31aef40f69c7", "is_disabled": 0, "rental_uris": {"ios": "https://dc.lft.to/lastmile_qr_scan", "android": "https://dc.lft.to/lastmile_qr_scan"}, "is_reserved": 0}, {"lon": -77.05838433333334, "bike_id": "a7b31bc08578aec4426e310ebf37fb1c", "lat": 38.9053785, "fusion_lon": 0.0, "fusion_lat": 0.0, "type": "electric_scooter", "name": "a7b31bc08578aec4426e310ebf37fb1c", "is_disabled": 0, "rental_uris": {"ios": "https://dc.lft.to/lastmile_qr_scan", "android": "https://dc.lft.to/lastmile_qr_scan"}, "is_reserved": 0}, {"lon": -76.99770116666667, "bike_id": "57b16bacdd3858e362bdaea5659ed381", "lat": 38.92443883333333, "fusion_lon": 0.0, "fusion_lat": 0.0, "type": "electric_scooter", "name": "57b16bacdd3858e362bdaea5659ed381", "is_disabled": 0, "rental_uris": {"ios": "https://dc.lft.to/lastmile_qr_scan", "android": "https://dc.lft.to/lastmile_qr_scan"}, "is_reserved": 0}, {"lon": -77.024627, "bike_id": "e155471e37825d679f4da5be0f47c3d7", "lat": 38.896600166666666, "fusion_lon": 0.0, "fusion_lat": 0.0, "type": "electric_scooter", "name": "e155471e37825d679f4da5be0f47c3d7", "is_disabled": 0, "rental_uris": {"ios": "https://dc.lft.to/lastmile_qr_scan", "android": "https://dc.lft.to/lastmile_qr_scan"}, "is_reserved": 0}, {"lon": -76.94730766666666, "bike_id": "13403d2a3f358b6b8305ddff6c2d1a5d", "lat": 38.89735016666667, "fusion_lon": 0.0, "fusion_lat": 0.0, "type": "electric_scooter", "name": "13403d2a3f358b6b8305ddff6c2d1a5d", "is_disabled": 0, "rental_uris": {"ios": "https://dc.lft.to/lastmile_qr_scan", "android": "https://dc.lft.to/lastmile_qr_scan"}, "is_reserved": 0}, {"lon": -77.02686233333333, "bike_id": "6bad1778e8f979f558a1d8e2e5d707f0", "lat": 38.91253066666667, "fusion_lon": 0.0, "fusion_lat": 0.0, "type": "electric_scooter", "name": "6bad1778e8f979f558a1d8e2e5d707f0", "is_disabled": 0, "rental_uris": {"ios": "https://dc.lft.to/lastmile_qr_scan", "android": "https://dc.lft.to/lastmile_qr_scan"}, "is_reserved": 0}, {"lon": -77.01630666666667, "bike_id": "6406b9c5591a2da96140bd06c6829bbb", "lat": 38.965684333333336, "fusion_lon": 0.0, "fusion_lat": 0.0, "type": "electric_scooter", "name": "6406b9c5591a2da96140bd06c6829bbb", "is_disabled": 0, "rental_uris": {"ios": "https://dc.lft.to/lastmile_qr_scan", "android": "https://dc.lft.to/lastmile_qr_scan"}, "is_reserved": 0}, {"lon": -77.041682, "bike_id": "33ecb32eac5cf7bb2e1af7c476a67632", "lat": 38.91506, "fusion_lon": 0.0, "fusion_lat": 0.0, "type": "electric_scooter", "name": "33ecb32eac5cf7bb2e1af7c476a67632", "is_disabled": 0, "rental_uris": {"ios": "https://dc.lft.to/lastmile_qr_scan", "android": "https://dc.lft.to/lastmile_qr_scan"}, "is_reserved": 0}, {"lon": -77.01210966666666, "bike_id": "1b2a02a3f843e95078cff986c5b2f16b", "lat": 38.885586333333336, "fusion_lon": 0.0, "fusion_lat": 0.0, "type": "electric_scooter", "name": "1b2a02a3f843e95078cff986c5b2f16b", "is_disabled": 0, "rental_uris": {"ios": "https://dc.lft.to/lastmile_qr_scan", "android": "https://dc.lft.to/lastmile_qr_scan"}, "is_reserved": 0}, {"lon": -77.0200995, "bike_id": "a31fe34f38aaf6553e7bf11373f18afe", "lat": 38.92413533333333, "fusion_lon": 0.0, "fusion_lat": 0.0, "type": "electric_scooter", "name": "a31fe34f38aaf6553e7bf11373f18afe", "is_disabled": 0, "rental_uris": {"ios": "https://dc.lft.to/lastmile_qr_scan", "android": "https://dc.lft.to/lastmile_qr_scan"}, "is_reserved": 0}, {"lon": -76.9060775, "bike_id": "4fe01d7b6e2ac5769b1c0f000cb00828", "lat": 39.00453183333333, "fusion_lon": 0.0, "fusion_lat": 0.0, "type": "electric_bike", "name": "4fe01d7b6e2ac5769b1c0f000cb00828", "is_disabled": 0, "rental_uris": {"ios": "https://dc.lft.to/lastmile_qr_scan", "android": "https://dc.lft.to/lastmile_qr_scan"}, "is_reserved": 0}, {"lon": -76.97707783333334, "bike_id": "22d84b15290402ab3daca9e7bf0020e2", "lat": 38.94911583333333, "fusion_lon": 0.0, "fusion_lat": 0.0, "type": "electric_bike", "name": "22d84b15290402ab3daca9e7bf0020e2", "is_disabled": 0, "rental_uris": {"ios": "https://dc.lft.to/lastmile_qr_scan", "android": "https://dc.lft.to/lastmile_qr_scan"}, "is_reserved": 0}, {"lon": -77.02457466666667, "bike_id": "5b1de68b4fd7a92ef3ffd2769d83a3df", "lat": 38.917049, "fusion_lon": 0.0, "fusion_lat": 0.0, "type": "electric_scooter", "name": "5b1de68b4fd7a92ef3ffd2769d83a3df", "is_disabled": 0, "rental_uris": {"ios": "https://dc.lft.to/lastmile_qr_scan", "android": "https://dc.lft.to/lastmile_qr_scan"}, "is_reserved": 0}, {"lon": -77.01100983333333, "bike_id": "3c90e76d510e1fc7d6566d67a193fe01", "lat": 38.91556816666667, "fusion_lon": 0.0, "fusion_lat": 0.0, "type": "electric_scooter", "name": "3c90e76d510e1fc7d6566d67a193fe01", "is_disabled": 0, "rental_uris": {"ios": "https://dc.lft.to/lastmile_qr_scan", "android": "https://dc.lft.to/lastmile_qr_scan"}, "is_reserved": 0}, {"lon": -77.007682, "bike_id": "e9bdd019055bbf73221dda3a13f7c86b", "lat": 38.871104833333334, "fusion_lon": 0.0, "fusion_lat": 0.0, "type": "electric_scooter", "name": "e9bdd019055bbf73221dda3a13f7c86b", "is_disabled": 0, "rental_uris": {"ios": "https://dc.lft.to/lastmile_qr_scan", "android": "https://dc.lft.to/lastmile_qr_scan"}, "is_reserved": 0}, {"lon": -77.36095783333333, "bike_id": "224ac04a2b3d3f08923dc51f907a6ea6", "lat": 38.93958966666667, "fusion_lon": 0.0, "fusion_lat": 0.0, "type": "electric_bike", "name": "224ac04a2b3d3f08923dc51f907a6ea6", "is_disabled": 0, "rental_uris": {"ios": "https://dc.lft.to/lastmile_qr_scan", "android": "https://dc.lft.to/lastmile_qr_scan"}, "is_reserved": 0}, {"lon": -77.02597016666667, "bike_id": "a82ea87792f30698a508e3d222dee0a5", "lat": 38.91858533333333, "fusion_lon": 0.0, "fusion_lat": 0.0, "type": "electric_scooter", "name": "a82ea87792f30698a508e3d222dee0a5", "is_disabled": 0, "rental_uris": {"ios": "https://dc.lft.to/lastmile_qr_scan", "android": "https://dc.lft.to/lastmile_qr_scan"}, "is_reserved": 0}, {"lon": -77.032662, "bike_id": "94cf482b2428661f1d51fec71007d59d", "lat": 38.91409383333333, "fusion_lon": 0.0, "fusion_lat": 0.0, "type": "electric_scooter", "name": "94cf482b2428661f1d51fec71007d59d", "is_disabled": 0, "rental_uris": {"ios": "https://dc.lft.to/lastmile_qr_scan", "android": "https://dc.lft.to/lastmile_qr_scan"}, "is_reserved": 0}, {"lon": -76.97755466666666, "bike_id": "621543040b2824a28400322bf4b3cbb8", "lat": 38.864962, "fusion_lon": 0.0, "fusion_lat": 0.0, "type": "electric_scooter", "name": "621543040b2824a28400322bf4b3cbb8", "is_disabled": 0, "rental_uris": {"ios": "https://dc.lft.to/lastmile_qr_scan", "android": "https://dc.lft.to/lastmile_qr_scan"}, "is_reserved": 0}, {"lon": -77.01947133333333, "bike_id": "4950d32f518d5b53377916807b508feb", "lat": 38.931895, "fusion_lon": 0.0, "fusion_lat": 0.0, "type": "electric_scooter", "name": "4950d32f518d5b53377916807b508feb", "is_disabled": 0, "rental_uris": {"ios": "https://dc.lft.to/lastmile_qr_scan", "android": "https://dc.lft.to/lastmile_qr_scan"}, "is_reserved": 0}, {"lon": -76.98847783333333, "bike_id": "7bc72bd297c7ee13df525d355d36316d", "lat": 38.901231333333335, "fusion_lon": 0.0, "fusion_lat": 0.0, "type": "electric_scooter", "name": "7bc72bd297c7ee13df525d355d36316d", "is_disabled": 0, "rental_uris": {"ios": "https://dc.lft.to/lastmile_qr_scan", "android": "https://dc.lft.to/lastmile_qr_scan"}, "is_reserved": 0}, {"lon": -77.12226033333333, "bike_id": "2d3948e20230e578d25b33c9f86268c0", "lat": 38.853018, "fusion_lon": 0.0, "fusion_lat": 0.0, "type": "electric_bike", "name": "2d3948e20230e578d25b33c9f86268c0", "is_disabled": 0, "rental_uris": {"ios": "https://dc.lft.to/lastmile_qr_scan", "android": "https://dc.lft.to/lastmile_qr_scan"}, "is_reserved": 0}, {"lon": -77.01124533333333, "bike_id": "6ee7f94328440fdde612f231c9226669", "lat": 38.89463, "fusion_lon": 0.0, "fusion_lat": 0.0, "type": "electric_scooter", "name": "6ee7f94328440fdde612f231c9226669", "is_disabled": 0, "rental_uris": {"ios": "https://dc.lft.to/lastmile_qr_scan", "android": "https://dc.lft.to/lastmile_qr_scan"}, "is_reserved": 0}, {"lon": -77.01453883333333, "bike_id": "9323855878b58bfdfed081f7646c8d81", "lat": 38.905208, "fusion_lon": 0.0, "fusion_lat": 0.0, "type": "electric_scooter", "name": "9323855878b58bfdfed081f7646c8d81", "is_disabled": 0, "rental_uris": {"ios": "https://dc.lft.to/lastmile_qr_scan", "android": "https://dc.lft.to/lastmile_qr_scan"}, "is_reserved": 0}, {"lon": -77.02457, "bike_id": "9f81d1314befffd1203d6dc8001b1113", "lat": 38.918520666666666, "fusion_lon": 0.0, "fusion_lat": 0.0, "type": "electric_scooter", "name": "9f81d1314befffd1203d6dc8001b1113", "is_disabled": 0, "rental_uris": {"ios": "https://dc.lft.to/lastmile_qr_scan", "android": "https://dc.lft.to/lastmile_qr_scan"}, "is_reserved": 0}, {"lon": -77.01156266666666, "bike_id": "bb8a619e8102aa797901756cc862fb28", "lat": 38.895802333333336, "fusion_lon": 0.0, "fusion_lat": 0.0, "type": "electric_scooter", "name": "bb8a619e8102aa797901756cc862fb28", "is_disabled": 0, "rental_uris": {"ios": "https://dc.lft.to/lastmile_qr_scan", "android": "https://dc.lft.to/lastmile_qr_scan"}, "is_reserved": 0}, {"lon": -77.01795866666667, "bike_id": "806a783b058cb1948e5b5928c3c7e4e4", "lat": 38.91992183333333, "fusion_lon": 0.0, "fusion_lat": 0.0, "type": "electric_scooter", "name": "806a783b058cb1948e5b5928c3c7e4e4", "is_disabled": 0, "rental_uris": {"ios": "https://dc.lft.to/lastmile_qr_scan", "android": "https://dc.lft.to/lastmile_qr_scan"}, "is_reserved": 0}, {"lon": -76.9817755, "bike_id": "c64da2674ef25fa1039999d6a5aaf126", "lat": 38.904351, "fusion_lon": 0.0, "fusion_lat": 0.0, "type": "electric_scooter", "name": "c64da2674ef25fa1039999d6a5aaf126", "is_disabled": 0, "rental_uris": {"ios": "https://dc.lft.to/lastmile_qr_scan", "android": "https://dc.lft.to/lastmile_qr_scan"}, "is_reserved": 0}, {"lon": -76.98113516666666, "bike_id": "df6e9a48ae891937d05b51648ad5c7cc", "lat": 38.90405283333333, "fusion_lon": 0.0, "fusion_lat": 0.0, "type": "electric_scooter", "name": "df6e9a48ae891937d05b51648ad5c7cc", "is_disabled": 0, "rental_uris": {"ios": "https://dc.lft.to/lastmile_qr_scan", "android": "https://dc.lft.to/lastmile_qr_scan"}, "is_reserved": 0}, {"lon": -77.00229916666666, "bike_id": "18e7b74325073507b81dccc5e0f2456f", "lat": 38.87934283333333, "fusion_lon": 0.0, "fusion_lat": 0.0, "type": "electric_scooter", "name": "18e7b74325073507b81dccc5e0f2456f", "is_disabled": 0, "rental_uris": {"ios": "https://dc.lft.to/lastmile_qr_scan", "android": "https://dc.lft.to/lastmile_qr_scan"}, "is_reserved": 0}, {"lon": -77.02350116666666, "bike_id": "d059ab1cba6b03ffaed37e102f516dfb", "lat": 38.92248283333333, "fusion_lon": 0.0, "fusion_lat": 0.0, "type": "electric_scooter", "name": "d059ab1cba6b03ffaed37e102f516dfb", "is_disabled": 0, "rental_uris": {"ios": "https://dc.lft.to/lastmile_qr_scan", "android": "https://dc.lft.to/lastmile_qr_scan"}, "is_reserved": 0}, {"lon": -76.986878, "bike_id": "9f550be8645c273be8e8b302fd85e4d5", "lat": 38.9120915, "fusion_lon": 0.0, "fusion_lat": 0.0, "type": "electric_scooter", "name": "9f550be8645c273be8e8b302fd85e4d5", "is_disabled": 0, "rental_uris": {"ios": "https://dc.lft.to/lastmile_qr_scan", "android": "https://dc.lft.to/lastmile_qr_scan"}, "is_reserved": 0}, {"lon": -77.0216435, "bike_id": "e5f1efa1fd74275af24cff05529a3385", "lat": 38.90966183333333, "fusion_lon": 0.0, "fusion_lat": 0.0, "type": "electric_scooter", "name": "e5f1efa1fd74275af24cff05529a3385", "is_disabled": 0, "rental_uris": {"ios": "https://dc.lft.to/lastmile_qr_scan", "android": "https://dc.lft.to/lastmile_qr_scan"}, "is_reserved": 0}, {"lon": -77.023817, "bike_id": "eb28b25d7620409e6a4cb5bdd08bb518", "lat": 38.909367, "fusion_lon": 0.0, "fusion_lat": 0.0, "type": "electric_scooter", "name": "eb28b25d7620409e6a4cb5bdd08bb518", "is_disabled": 0, "rental_uris": {"ios": "https://dc.lft.to/lastmile_qr_scan", "android": "https://dc.lft.to/lastmile_qr_scan"}, "is_reserved": 0}, {"lon": -77.0277985, "bike_id": "f709eb31f1ba8dfcd22cacb3069b61b7", "lat": 38.941816, "fusion_lon": 0.0, "fusion_lat": 0.0, "type": "electric_bike", "name": "f709eb31f1ba8dfcd22cacb3069b61b7", "is_disabled": 0, "rental_uris": {"ios": "https://dc.lft.to/lastmile_qr_scan", "android": "https://dc.lft.to/lastmile_qr_scan"}, "is_reserved": 0}, {"lon": -76.99487316666666, "bike_id": "2ed36d9814a7615f28fb5d6143779de7", "lat": 38.91570466666667, "fusion_lon": 0.0, "fusion_lat": 0.0, "type": "electric_scooter", "name": "2ed36d9814a7615f28fb5d6143779de7", "is_disabled": 0, "rental_uris": {"ios": "https://dc.lft.to/lastmile_qr_scan", "android": "https://dc.lft.to/lastmile_qr_scan"}, "is_reserved": 0}, {"lon": -77.10097416666666, "bike_id": "4173c0b24a9c18ac3afb9aebe74f5383", "lat": 38.959549833333334, "fusion_lon": 0.0, "fusion_lat": 0.0, "type": "electric_bike", "name": "4173c0b24a9c18ac3afb9aebe74f5383", "is_disabled": 0, "rental_uris": {"ios": "https://dc.lft.to/lastmile_qr_scan", "android": "https://dc.lft.to/lastmile_qr_scan"}, "is_reserved": 0}, {"lon": -76.98594133333333, "bike_id": "3aa4df6cdb75007b4cb772d2ae8f44a3", "lat": 38.908102, "fusion_lon": 0.0, "fusion_lat": 0.0, "type": "electric_scooter", "name": "3aa4df6cdb75007b4cb772d2ae8f44a3", "is_disabled": 0, "rental_uris": {"ios": "https://dc.lft.to/lastmile_qr_scan", "android": "https://dc.lft.to/lastmile_qr_scan"}, "is_reserved": 0}, {"lon": -76.982626, "bike_id": "59ea02f32751d9a58d1497014cdd6b15", "lat": 38.90852966666667, "fusion_lon": 0.0, "fusion_lat": 0.0, "type": "electric_scooter", "name": "59ea02f32751d9a58d1497014cdd6b15", "is_disabled": 0, "rental_uris": {"ios": "https://dc.lft.to/lastmile_qr_scan", "android": "https://dc.lft.to/lastmile_qr_scan"}, "is_reserved": 0}, {"lon": -77.028193, "bike_id": "6664bc4ef5eacdf5735f531edf9393f8", "lat": 38.906130833333336, "fusion_lon": 0.0, "fusion_lat": 0.0, "type": "electric_scooter", "name": "6664bc4ef5eacdf5735f531edf9393f8", "is_disabled": 0, "rental_uris": {"ios": "https://dc.lft.to/lastmile_qr_scan", "android": "https://dc.lft.to/lastmile_qr_scan"}, "is_reserved": 0}, {"lon": -77.00792583333333, "bike_id": "6104a7840f77ab520f2e1fbc0eeeb1c1", "lat": 38.896647, "fusion_lon": 0.0, "fusion_lat": 0.0, "type": "electric_scooter", "name": "6104a7840f77ab520f2e1fbc0eeeb1c1", "is_disabled": 0, "rental_uris": {"ios": "https://dc.lft.to/lastmile_qr_scan", "android": "https://dc.lft.to/lastmile_qr_scan"}, "is_reserved": 0}, {"lon": -76.98906883333333, "bike_id": "57907981a4badf2899ceadc20398dacc", "lat": 38.91344383333333, "fusion_lon": 0.0, "fusion_lat": 0.0, "type": "electric_scooter", "name": "57907981a4badf2899ceadc20398dacc", "is_disabled": 0, "rental_uris": {"ios": "https://dc.lft.to/lastmile_qr_scan", "android": "https://dc.lft.to/lastmile_qr_scan"}, "is_reserved": 0}, {"lon": -77.03464233333334, "bike_id": "1590c34daa90492d1070765213331400", "lat": 38.908099166666666, "fusion_lon": 0.0, "fusion_lat": 0.0, "type": "electric_scooter", "name": "1590c34daa90492d1070765213331400", "is_disabled": 0, "rental_uris": {"ios": "https://dc.lft.to/lastmile_qr_scan", "android": "https://dc.lft.to/lastmile_qr_scan"}, "is_reserved": 0}, {"lon": -76.933734, "bike_id": "429b119014b57b944b0a38782a7550ea", "lat": 38.89912416666667, "fusion_lon": 0.0, "fusion_lat": 0.0, "type": "electric_scooter", "name": "429b119014b57b944b0a38782a7550ea", "is_disabled": 0, "rental_uris": {"ios": "https://dc.lft.to/lastmile_qr_scan", "android": "https://dc.lft.to/lastmile_qr_scan"}, "is_reserved": 0}, {"lon": -76.9567475, "bike_id": "907de6fa561b9ec0650f9252d13313af", "lat": 38.94659866666667, "fusion_lon": 0.0, "fusion_lat": 0.0, "type": "electric_bike", "name": "907de6fa561b9ec0650f9252d13313af", "is_disabled": 0, "rental_uris": {"ios": "https://dc.lft.to/lastmile_qr_scan", "android": "https://dc.lft.to/lastmile_qr_scan"}, "is_reserved": 0}, {"lon": -77.01160266666666, "bike_id": "fcf2dde6b8804f9704924220bb5a7f5b", "lat": 38.914061833333335, "fusion_lon": 0.0, "fusion_lat": 0.0, "type": "electric_scooter", "name": "fcf2dde6b8804f9704924220bb5a7f5b", "is_disabled": 0, "rental_uris": {"ios": "https://dc.lft.to/lastmile_qr_scan", "android": "https://dc.lft.to/lastmile_qr_scan"}, "is_reserved": 0}, {"lon": -76.98887266666667, "bike_id": "ecded41fe947d4d8f3b4c6fd750aaff2", "lat": 38.866495, "fusion_lon": 0.0, "fusion_lat": 0.0, "type": "electric_scooter", "name": "ecded41fe947d4d8f3b4c6fd750aaff2", "is_disabled": 0, "rental_uris": {"ios": "https://dc.lft.to/lastmile_qr_scan", "android": "https://dc.lft.to/lastmile_qr_scan"}, "is_reserved": 0}, {"lon": -76.9941135, "bike_id": "04daf0c08a46096a49aff20c71522bdc", "lat": 38.831362, "fusion_lon": 0.0, "fusion_lat": 0.0, "type": "electric_bike", "name": "04daf0c08a46096a49aff20c71522bdc", "is_disabled": 0, "rental_uris": {"ios": "https://dc.lft.to/lastmile_qr_scan", "android": "https://dc.lft.to/lastmile_qr_scan"}, "is_reserved": 0}, {"lon": -76.98190266666667, "bike_id": "0388d7eaa6c07bbb2d0b6258ea9e647a", "lat": 38.9260135, "fusion_lon": 0.0, "fusion_lat": 0.0, "type": "electric_scooter", "name": "0388d7eaa6c07bbb2d0b6258ea9e647a", "is_disabled": 0, "rental_uris": {"ios": "https://dc.lft.to/lastmile_qr_scan", "android": "https://dc.lft.to/lastmile_qr_scan"}, "is_reserved": 0}, {"lon": -77.03664383333333, "bike_id": "68604d8556191ea0792dd9a19ea872b4", "lat": 38.9174675, "fusion_lon": 0.0, "fusion_lat": 0.0, "type": "electric_scooter", "name": "68604d8556191ea0792dd9a19ea872b4", "is_disabled": 0, "rental_uris": {"ios": "https://dc.lft.to/lastmile_qr_scan", "android": "https://dc.lft.to/lastmile_qr_scan"}, "is_reserved": 0}, {"lon": -76.954765, "bike_id": "ad0f746274263d8eb429d9c7a1610ec4", "lat": 38.884591666666665, "fusion_lon": 0.0, "fusion_lat": 0.0, "type": "electric_scooter", "name": "ad0f746274263d8eb429d9c7a1610ec4", "is_disabled": 0, "rental_uris": {"ios": "https://dc.lft.to/lastmile_qr_scan", "android": "https://dc.lft.to/lastmile_qr_scan"}, "is_reserved": 0}, {"lon": -77.02681516666667, "bike_id": "0c2f6b3d5191589a2945d59395b4a979", "lat": 38.92777433333333, "fusion_lon": 0.0, "fusion_lat": 0.0, "type": "electric_scooter", "name": "0c2f6b3d5191589a2945d59395b4a979", "is_disabled": 0, "rental_uris": {"ios": "https://dc.lft.to/lastmile_qr_scan", "android": "https://dc.lft.to/lastmile_qr_scan"}, "is_reserved": 0}, {"lon": -77.02387466666667, "bike_id": "92d40259c31fe24e00240ae4dd41e335", "lat": 38.9069265, "fusion_lon": 0.0, "fusion_lat": 0.0, "type": "electric_scooter", "name": "92d40259c31fe24e00240ae4dd41e335", "is_disabled": 0, "rental_uris": {"ios": "https://dc.lft.to/lastmile_qr_scan", "android": "https://dc.lft.to/lastmile_qr_scan"}, "is_reserved": 0}, {"lon": -76.95002566666666, "bike_id": "7b691d9d6d603e83cacb386ac8a78baf", "lat": 38.89373166666667, "fusion_lon": 0.0, "fusion_lat": 0.0, "type": "electric_scooter", "name": "7b691d9d6d603e83cacb386ac8a78baf", "is_disabled": 0, "rental_uris": {"ios": "https://dc.lft.to/lastmile_qr_scan", "android": "https://dc.lft.to/lastmile_qr_scan"}, "is_reserved": 0}, {"lon": -76.99757166666667, "bike_id": "014aea01c11fd324b13584f04c240276", "lat": 38.95010633333333, "fusion_lon": 0.0, "fusion_lat": 0.0, "type": "electric_bike", "name": "014aea01c11fd324b13584f04c240276", "is_disabled": 0, "rental_uris": {"ios": "https://dc.lft.to/lastmile_qr_scan", "android": "https://dc.lft.to/lastmile_qr_scan"}, "is_reserved": 0}, {"lon": -77.04245233333333, "bike_id": "8045e0e14db7f0cbbe098e0161b52a7b", "lat": 38.922207666666665, "fusion_lon": 0.0, "fusion_lat": 0.0, "type": "electric_scooter", "name": "8045e0e14db7f0cbbe098e0161b52a7b", "is_disabled": 0, "rental_uris": {"ios": "https://dc.lft.to/lastmile_qr_scan", "android": "https://dc.lft.to/lastmile_qr_scan"}, "is_reserved": 0}, {"lon": -77.01575866666667, "bike_id": "0f796110c16cca97d9af3a72706850fd", "lat": 38.88320733333333, "fusion_lon": 0.0, "fusion_lat": 0.0, "type": "electric_scooter", "name": "0f796110c16cca97d9af3a72706850fd", "is_disabled": 0, "rental_uris": {"ios": "https://dc.lft.to/lastmile_qr_scan", "android": "https://dc.lft.to/lastmile_qr_scan"}, "is_reserved": 0}, {"lon": -77.02259516666666, "bike_id": "70c7c8fe87ded168b830bd4fd0259ae3", "lat": 38.9252535, "fusion_lon": 0.0, "fusion_lat": 0.0, "type": "electric_scooter", "name": "70c7c8fe87ded168b830bd4fd0259ae3", "is_disabled": 0, "rental_uris": {"ios": "https://dc.lft.to/lastmile_qr_scan", "android": "https://dc.lft.to/lastmile_qr_scan"}, "is_reserved": 0}, {"lon": -77.026091, "bike_id": "ddcfe5544e694cc7c59fa9fd127a100f", "lat": 38.89603133333333, "fusion_lon": 0.0, "fusion_lat": 0.0, "type": "electric_bike", "name": "ddcfe5544e694cc7c59fa9fd127a100f", "is_disabled": 0, "rental_uris": {"ios": "https://dc.lft.to/lastmile_qr_scan", "android": "https://dc.lft.to/lastmile_qr_scan"}, "is_reserved": 0}, {"lon": -76.97858333333333, "bike_id": "6bcc1b6d69216459810e74e85bb7262f", "lat": 38.90718833333333, "fusion_lon": 0.0, "fusion_lat": 0.0, "type": "electric_scooter", "name": "6bcc1b6d69216459810e74e85bb7262f", "is_disabled": 0, "rental_uris": {"ios": "https://dc.lft.to/lastmile_qr_scan", "android": "https://dc.lft.to/lastmile_qr_scan"}, "is_reserved": 0}, {"lon": -77.0269395, "bike_id": "a1235a44a6f4c1dcfd612dff9decb5d1", "lat": 38.90484416666666, "fusion_lon": 0.0, "fusion_lat": 0.0, "type": "electric_scooter", "name": "a1235a44a6f4c1dcfd612dff9decb5d1", "is_disabled": 0, "rental_uris": {"ios": "https://dc.lft.to/lastmile_qr_scan", "android": "https://dc.lft.to/lastmile_qr_scan"}, "is_reserved": 0}, {"lon": -77.02370616666667, "bike_id": "c27ca8078eafcf5df28156923d2b4a32", "lat": 38.90301516666667, "fusion_lon": 0.0, "fusion_lat": 0.0, "type": "electric_scooter", "name": "c27ca8078eafcf5df28156923d2b4a32", "is_disabled": 0, "rental_uris": {"ios": "https://dc.lft.to/lastmile_qr_scan", "android": "https://dc.lft.to/lastmile_qr_scan"}, "is_reserved": 0}, {"lon": -77.026165, "bike_id": "dd6190189b261fab12477ba5032d5206", "lat": 38.9141585, "fusion_lon": 0.0, "fusion_lat": 0.0, "type": "electric_scooter", "name": "dd6190189b261fab12477ba5032d5206", "is_disabled": 0, "rental_uris": {"ios": "https://dc.lft.to/lastmile_qr_scan", "android": "https://dc.lft.to/lastmile_qr_scan"}, "is_reserved": 0}, {"lon": -77.02217583333334, "bike_id": "c575fd83ab4de5e6746d394d68c1d4a4", "lat": 38.90538216666667, "fusion_lon": 0.0, "fusion_lat": 0.0, "type": "electric_scooter", "name": "c575fd83ab4de5e6746d394d68c1d4a4", "is_disabled": 0, "rental_uris": {"ios": "https://dc.lft.to/lastmile_qr_scan", "android": "https://dc.lft.to/lastmile_qr_scan"}, "is_reserved": 0}, {"lon": -77.01433483333334, "bike_id": "2fd9bfda20ba8250bf3c119c166cf50f", "lat": 38.90535283333333, "fusion_lon": 0.0, "fusion_lat": 0.0, "type": "electric_scooter", "name": "2fd9bfda20ba8250bf3c119c166cf50f", "is_disabled": 0, "rental_uris": {"ios": "https://dc.lft.to/lastmile_qr_scan", "android": "https://dc.lft.to/lastmile_qr_scan"}, "is_reserved": 0}, {"lon": -77.04354766666667, "bike_id": "0cc4234abde617337c570e916b64ac2e", "lat": 38.915865, "fusion_lon": 0.0, "fusion_lat": 0.0, "type": "electric_scooter", "name": "0cc4234abde617337c570e916b64ac2e", "is_disabled": 0, "rental_uris": {"ios": "https://dc.lft.to/lastmile_qr_scan", "android": "https://dc.lft.to/lastmile_qr_scan"}, "is_reserved": 0}, {"lon": -77.00627016666667, "bike_id": "2ea5ec4e98eadbc66ab3666f92e98aae", "lat": 38.87171333333333, "fusion_lon": 0.0, "fusion_lat": 0.0, "type": "electric_scooter", "name": "2ea5ec4e98eadbc66ab3666f92e98aae", "is_disabled": 0, "rental_uris": {"ios": "https://dc.lft.to/lastmile_qr_scan", "android": "https://dc.lft.to/lastmile_qr_scan"}, "is_reserved": 0}, {"lon": -77.0268365, "bike_id": "6e77c533f4ddcf05c47c5f48c878f280", "lat": 38.984893, "fusion_lon": 0.0, "fusion_lat": 0.0, "type": "electric_scooter", "name": "6e77c533f4ddcf05c47c5f48c878f280", "is_disabled": 0, "rental_uris": {"ios": "https://dc.lft.to/lastmile_qr_scan", "android": "https://dc.lft.to/lastmile_qr_scan"}, "is_reserved": 0}, {"lon": -76.98544033333333, "bike_id": "b208bfa0026f707cfe1eb7c817b0da34", "lat": 38.9101415, "fusion_lon": 0.0, "fusion_lat": 0.0, "type": "electric_scooter", "name": "b208bfa0026f707cfe1eb7c817b0da34", "is_disabled": 0, "rental_uris": {"ios": "https://dc.lft.to/lastmile_qr_scan", "android": "https://dc.lft.to/lastmile_qr_scan"}, "is_reserved": 0}, {"lon": -77.0274925, "bike_id": "860989a958a662608eed9f2257dd2864", "lat": 38.92381266666666, "fusion_lon": 0.0, "fusion_lat": 0.0, "type": "electric_scooter", "name": "860989a958a662608eed9f2257dd2864", "is_disabled": 0, "rental_uris": {"ios": "https://dc.lft.to/lastmile_qr_scan", "android": "https://dc.lft.to/lastmile_qr_scan"}, "is_reserved": 0}, {"lon": -77.01499766666667, "bike_id": "4c4d71b815e5f1ba58ee7122120c6e53", "lat": 38.9267755, "fusion_lon": 0.0, "fusion_lat": 0.0, "type": "electric_scooter", "name": "4c4d71b815e5f1ba58ee7122120c6e53", "is_disabled": 0, "rental_uris": {"ios": "https://dc.lft.to/lastmile_qr_scan", "android": "https://dc.lft.to/lastmile_qr_scan"}, "is_reserved": 0}, {"lon": -77.01987466666667, "bike_id": "802d7542be7cacdfbe65aa2a4e078cb5", "lat": 38.9602485, "fusion_lon": 0.0, "fusion_lat": 0.0, "type": "electric_scooter", "name": "802d7542be7cacdfbe65aa2a4e078cb5", "is_disabled": 0, "rental_uris": {"ios": "https://dc.lft.to/lastmile_qr_scan", "android": "https://dc.lft.to/lastmile_qr_scan"}, "is_reserved": 0}, {"lon": -77.015481, "bike_id": "00109dd325e546c83738a16739114c88", "lat": 38.88317816666667, "fusion_lon": 0.0, "fusion_lat": 0.0, "type": "electric_scooter", "name": "00109dd325e546c83738a16739114c88", "is_disabled": 0, "rental_uris": {"ios": "https://dc.lft.to/lastmile_qr_scan", "android": "https://dc.lft.to/lastmile_qr_scan"}, "is_reserved": 0}, {"lon": -76.98759066666666, "bike_id": "9edff325b820662bcfbafd9d70b61f44", "lat": 38.903796666666665, "fusion_lon": 0.0, "fusion_lat": 0.0, "type": "electric_scooter", "name": "9edff325b820662bcfbafd9d70b61f44", "is_disabled": 0, "rental_uris": {"ios": "https://dc.lft.to/lastmile_qr_scan", "android": "https://dc.lft.to/lastmile_qr_scan"}, "is_reserved": 0}, {"lon": -77.03217283333333, "bike_id": "3d71b94ce89d0ee6e5af4f8cbfe9b830", "lat": 38.908771333333334, "fusion_lon": 0.0, "fusion_lat": 0.0, "type": "electric_scooter", "name": "3d71b94ce89d0ee6e5af4f8cbfe9b830", "is_disabled": 0, "rental_uris": {"ios": "https://dc.lft.to/lastmile_qr_scan", "android": "https://dc.lft.to/lastmile_qr_scan"}, "is_reserved": 0}, {"lon": -77.04321933333334, "bike_id": "2c2ba941dd22714018a09066716163ca", "lat": 38.918772833333335, "fusion_lon": 0.0, "fusion_lat": 0.0, "type": "electric_scooter", "name": "2c2ba941dd22714018a09066716163ca", "is_disabled": 0, "rental_uris": {"ios": "https://dc.lft.to/lastmile_qr_scan", "android": "https://dc.lft.to/lastmile_qr_scan"}, "is_reserved": 0}, {"lon": -77.00289183333334, "bike_id": "6b341c32734dd8dd28b3fbea0f9be673", "lat": 38.91168116666667, "fusion_lon": 0.0, "fusion_lat": 0.0, "type": "electric_bike", "name": "6b341c32734dd8dd28b3fbea0f9be673", "is_disabled": 0, "rental_uris": {"ios": "https://dc.lft.to/lastmile_qr_scan", "android": "https://dc.lft.to/lastmile_qr_scan"}, "is_reserved": 0}, {"lon": -76.93178633333333, "bike_id": "8767302570483889abc493a1cde9a6e2", "lat": 38.89879483333333, "fusion_lon": 0.0, "fusion_lat": 0.0, "type": "electric_scooter", "name": "8767302570483889abc493a1cde9a6e2", "is_disabled": 0, "rental_uris": {"ios": "https://dc.lft.to/lastmile_qr_scan", "android": "https://dc.lft.to/lastmile_qr_scan"}, "is_reserved": 0}, {"lon": -77.03150783333334, "bike_id": "6907ca54b5e9ddffdbd58ff89b7bb916", "lat": 38.884165, "fusion_lon": 0.0, "fusion_lat": 0.0, "type": "electric_scooter", "name": "6907ca54b5e9ddffdbd58ff89b7bb916", "is_disabled": 0, "rental_uris": {"ios": "https://dc.lft.to/lastmile_qr_scan", "android": "https://dc.lft.to/lastmile_qr_scan"}, "is_reserved": 0}, {"lon": -77.01419266666667, "bike_id": "28003ac43350c9a8e52aa803d54fb2e1", "lat": 38.928415666666666, "fusion_lon": 0.0, "fusion_lat": 0.0, "type": "electric_scooter", "name": "28003ac43350c9a8e52aa803d54fb2e1", "is_disabled": 0, "rental_uris": {"ios": "https://dc.lft.to/lastmile_qr_scan", "android": "https://dc.lft.to/lastmile_qr_scan"}, "is_reserved": 0}, {"lon": -76.95018716666667, "bike_id": "55b453973e2f048611693105d47edd43", "lat": 38.893913833333336, "fusion_lon": 0.0, "fusion_lat": 0.0, "type": "electric_scooter", "name": "55b453973e2f048611693105d47edd43", "is_disabled": 0, "rental_uris": {"ios": "https://dc.lft.to/lastmile_qr_scan", "android": "https://dc.lft.to/lastmile_qr_scan"}, "is_reserved": 0}, {"lon": -76.98705, "bike_id": "6ccf9812faabc1f8a725f4f650c29ad0", "lat": 38.866987333333334, "fusion_lon": 0.0, "fusion_lat": 0.0, "type": "electric_scooter", "name": "6ccf9812faabc1f8a725f4f650c29ad0", "is_disabled": 0, "rental_uris": {"ios": "https://dc.lft.to/lastmile_qr_scan", "android": "https://dc.lft.to/lastmile_qr_scan"}, "is_reserved": 0}, {"lon": -77.03192866666667, "bike_id": "ae89c614febb5d95780954498b760368", "lat": 38.91574466666667, "fusion_lon": 0.0, "fusion_lat": 0.0, "type": "electric_scooter", "name": "ae89c614febb5d95780954498b760368", "is_disabled": 0, "rental_uris": {"ios": "https://dc.lft.to/lastmile_qr_scan", "android": "https://dc.lft.to/lastmile_qr_scan"}, "is_reserved": 0}, {"lon": -77.02694866666667, "bike_id": "320dfe83435509d19d79c3d602614fd0", "lat": 38.948829833333335, "fusion_lon": 0.0, "fusion_lat": 0.0, "type": "electric_scooter", "name": "320dfe83435509d19d79c3d602614fd0", "is_disabled": 0, "rental_uris": {"ios": "https://dc.lft.to/lastmile_qr_scan", "android": "https://dc.lft.to/lastmile_qr_scan"}, "is_reserved": 0}, {"lon": -77.00143016666667, "bike_id": "fc379d9c77bdfbc033f9ede722f2778e", "lat": 38.84281283333333, "fusion_lon": 0.0, "fusion_lat": 0.0, "type": "electric_scooter", "name": "fc379d9c77bdfbc033f9ede722f2778e", "is_disabled": 0, "rental_uris": {"ios": "https://dc.lft.to/lastmile_qr_scan", "android": "https://dc.lft.to/lastmile_qr_scan"}, "is_reserved": 0}, {"lon": -77.02109133333333, "bike_id": "0c2e7b5089d7ab31fb1666543fdabc29", "lat": 38.9217195, "fusion_lon": 0.0, "fusion_lat": 0.0, "type": "electric_scooter", "name": "0c2e7b5089d7ab31fb1666543fdabc29", "is_disabled": 0, "rental_uris": {"ios": "https://dc.lft.to/lastmile_qr_scan", "android": "https://dc.lft.to/lastmile_qr_scan"}, "is_reserved": 0}, {"lon": -76.9871645, "bike_id": "c217b1a5e61db219462345033b707148", "lat": 38.86697216666666, "fusion_lon": 0.0, "fusion_lat": 0.0, "type": "electric_scooter", "name": "c217b1a5e61db219462345033b707148", "is_disabled": 0, "rental_uris": {"ios": "https://dc.lft.to/lastmile_qr_scan", "android": "https://dc.lft.to/lastmile_qr_scan"}, "is_reserved": 0}, {"lon": -77.03470783333333, "bike_id": "39bc40171e3d49756e2137cde5d61fc5", "lat": 38.92068066666667, "fusion_lon": 0.0, "fusion_lat": 0.0, "type": "electric_scooter", "name": "39bc40171e3d49756e2137cde5d61fc5", "is_disabled": 0, "rental_uris": {"ios": "https://dc.lft.to/lastmile_qr_scan", "android": "https://dc.lft.to/lastmile_qr_scan"}, "is_reserved": 0}, {"lon": -77.03674516666666, "bike_id": "11a20c07de89cd20440ff4079e20c454", "lat": 38.920996, "fusion_lon": 0.0, "fusion_lat": 0.0, "type": "electric_scooter", "name": "11a20c07de89cd20440ff4079e20c454", "is_disabled": 0, "rental_uris": {"ios": "https://dc.lft.to/lastmile_qr_scan", "android": "https://dc.lft.to/lastmile_qr_scan"}, "is_reserved": 0}, {"lon": -77.0134895, "bike_id": "ed0daaa6f57a1b5ecee835d07b7563e4", "lat": 38.878115, "fusion_lon": 0.0, "fusion_lat": 0.0, "type": "electric_scooter", "name": "ed0daaa6f57a1b5ecee835d07b7563e4", "is_disabled": 0, "rental_uris": {"ios": "https://dc.lft.to/lastmile_qr_scan", "android": "https://dc.lft.to/lastmile_qr_scan"}, "is_reserved": 0}, {"lon": -77.03818516666666, "bike_id": "4f6cfa4b1ac34239cd90a742e775c43d", "lat": 38.93054133333333, "fusion_lon": 0.0, "fusion_lat": 0.0, "type": "electric_scooter", "name": "4f6cfa4b1ac34239cd90a742e775c43d", "is_disabled": 0, "rental_uris": {"ios": "https://dc.lft.to/lastmile_qr_scan", "android": "https://dc.lft.to/lastmile_qr_scan"}, "is_reserved": 0}, {"lon": -77.11712516666667, "bike_id": "c0d6c22db005b865bc9f8b079a6e0144", "lat": 38.8674405, "fusion_lon": 0.0, "fusion_lat": 0.0, "type": "electric_bike", "name": "c0d6c22db005b865bc9f8b079a6e0144", "is_disabled": 0, "rental_uris": {"ios": "https://dc.lft.to/lastmile_qr_scan", "android": "https://dc.lft.to/lastmile_qr_scan"}, "is_reserved": 0}, {"lon": -76.9853215, "bike_id": "f54b834192a95d12197a0cb79854b2e9", "lat": 38.90455933333333, "fusion_lon": 0.0, "fusion_lat": 0.0, "type": "electric_scooter", "name": "f54b834192a95d12197a0cb79854b2e9", "is_disabled": 0, "rental_uris": {"ios": "https://dc.lft.to/lastmile_qr_scan", "android": "https://dc.lft.to/lastmile_qr_scan"}, "is_reserved": 0}, {"lon": -77.03446716666667, "bike_id": "2a1be7ddc9ed05a12112a86d11ff0505", "lat": 38.92736683333333, "fusion_lon": 0.0, "fusion_lat": 0.0, "type": "electric_scooter", "name": "2a1be7ddc9ed05a12112a86d11ff0505", "is_disabled": 0, "rental_uris": {"ios": "https://dc.lft.to/lastmile_qr_scan", "android": "https://dc.lft.to/lastmile_qr_scan"}, "is_reserved": 0}, {"lon": -77.04750333333334, "bike_id": "a39938846f5524e0126dbfb39e328771", "lat": 38.91768833333333, "fusion_lon": 0.0, "fusion_lat": 0.0, "type": "electric_scooter", "name": "a39938846f5524e0126dbfb39e328771", "is_disabled": 0, "rental_uris": {"ios": "https://dc.lft.to/lastmile_qr_scan", "android": "https://dc.lft.to/lastmile_qr_scan"}, "is_reserved": 0}, {"lon": -77.00106, "bike_id": "556bbf2b88f1647ca9315dfc04f5e697", "lat": 38.916300166666666, "fusion_lon": 0.0, "fusion_lat": 0.0, "type": "electric_scooter", "name": "556bbf2b88f1647ca9315dfc04f5e697", "is_disabled": 0, "rental_uris": {"ios": "https://dc.lft.to/lastmile_qr_scan", "android": "https://dc.lft.to/lastmile_qr_scan"}, "is_reserved": 0}, {"lon": -77.02450716666667, "bike_id": "c36ae47b7d14d26e6d947076e70121ee", "lat": 38.907194833333335, "fusion_lon": 0.0, "fusion_lat": 0.0, "type": "electric_scooter", "name": "c36ae47b7d14d26e6d947076e70121ee", "is_disabled": 0, "rental_uris": {"ios": "https://dc.lft.to/lastmile_qr_scan", "android": "https://dc.lft.to/lastmile_qr_scan"}, "is_reserved": 0}, {"lon": -76.9575035, "bike_id": "639b1abe3f771ade5c0a8a4c08578828", "lat": 38.88426283333333, "fusion_lon": 0.0, "fusion_lat": 0.0, "type": "electric_scooter", "name": "639b1abe3f771ade5c0a8a4c08578828", "is_disabled": 0, "rental_uris": {"ios": "https://dc.lft.to/lastmile_qr_scan", "android": "https://dc.lft.to/lastmile_qr_scan"}, "is_reserved": 0}, {"lon": -77.048163, "bike_id": "a445011295e2bcf40a2ed39f6a2c7ffc", "lat": 38.90725466666667, "fusion_lon": 0.0, "fusion_lat": 0.0, "type": "electric_scooter", "name": "a445011295e2bcf40a2ed39f6a2c7ffc", "is_disabled": 0, "rental_uris": {"ios": "https://dc.lft.to/lastmile_qr_scan", "android": "https://dc.lft.to/lastmile_qr_scan"}, "is_reserved": 0}, {"lon": -77.043389, "bike_id": "1a83ddbe96dc225e6d9b923270c928b2", "lat": 38.91578533333333, "fusion_lon": 0.0, "fusion_lat": 0.0, "type": "electric_scooter", "name": "1a83ddbe96dc225e6d9b923270c928b2", "is_disabled": 0, "rental_uris": {"ios": "https://dc.lft.to/lastmile_qr_scan", "android": "https://dc.lft.to/lastmile_qr_scan"}, "is_reserved": 0}, {"lon": -76.9981465, "bike_id": "1cb84aca70dd6b64e1a74345c7f84ee1", "lat": 38.82910016666666, "fusion_lon": 0.0, "fusion_lat": 0.0, "type": "electric_bike", "name": "1cb84aca70dd6b64e1a74345c7f84ee1", "is_disabled": 0, "rental_uris": {"ios": "https://dc.lft.to/lastmile_qr_scan", "android": "https://dc.lft.to/lastmile_qr_scan"}, "is_reserved": 0}, {"lon": -76.991767, "bike_id": "af65dbd4b4bf81bd9891c7485bbe11f8", "lat": 38.88986533333333, "fusion_lon": 0.0, "fusion_lat": 0.0, "type": "electric_scooter", "name": "af65dbd4b4bf81bd9891c7485bbe11f8", "is_disabled": 0, "rental_uris": {"ios": "https://dc.lft.to/lastmile_qr_scan", "android": "https://dc.lft.to/lastmile_qr_scan"}, "is_reserved": 0}, {"lon": -77.023802, "bike_id": "64e285d61ba6b60c6330e1c67462aff8", "lat": 38.9066545, "fusion_lon": 0.0, "fusion_lat": 0.0, "type": "electric_scooter", "name": "64e285d61ba6b60c6330e1c67462aff8", "is_disabled": 0, "rental_uris": {"ios": "https://dc.lft.to/lastmile_qr_scan", "android": "https://dc.lft.to/lastmile_qr_scan"}, "is_reserved": 0}, {"lon": -77.03340916666667, "bike_id": "124aaf546ef9a81a4691de5e45063655", "lat": 38.91555733333333, "fusion_lon": 0.0, "fusion_lat": 0.0, "type": "electric_scooter", "name": "124aaf546ef9a81a4691de5e45063655", "is_disabled": 0, "rental_uris": {"ios": "https://dc.lft.to/lastmile_qr_scan", "android": "https://dc.lft.to/lastmile_qr_scan"}, "is_reserved": 0}, {"lon": -77.03860633333333, "bike_id": "0ed11d24cfeede3d4022beefb2f33811", "lat": 38.910171, "fusion_lon": 0.0, "fusion_lat": 0.0, "type": "electric_scooter", "name": "0ed11d24cfeede3d4022beefb2f33811", "is_disabled": 0, "rental_uris": {"ios": "https://dc.lft.to/lastmile_qr_scan", "android": "https://dc.lft.to/lastmile_qr_scan"}, "is_reserved": 0}, {"lon": -77.02443766666667, "bike_id": "1b8482462de531203df76522afbc6851", "lat": 38.9235175, "fusion_lon": 0.0, "fusion_lat": 0.0, "type": "electric_scooter", "name": "1b8482462de531203df76522afbc6851", "is_disabled": 0, "rental_uris": {"ios": "https://dc.lft.to/lastmile_qr_scan", "android": "https://dc.lft.to/lastmile_qr_scan"}, "is_reserved": 0}, {"lon": -77.0583155, "bike_id": "fc69790549eaba76d06723e1150a5925", "lat": 38.9052495, "fusion_lon": 0.0, "fusion_lat": 0.0, "type": "electric_scooter", "name": "fc69790549eaba76d06723e1150a5925", "is_disabled": 0, "rental_uris": {"ios": "https://dc.lft.to/lastmile_qr_scan", "android": "https://dc.lft.to/lastmile_qr_scan"}, "is_reserved": 0}, {"lon": -77.0332985, "bike_id": "04e8b5f55fcd711dee2232768189ae2f", "lat": 38.933461666666666, "fusion_lon": 0.0, "fusion_lat": 0.0, "type": "electric_scooter", "name": "04e8b5f55fcd711dee2232768189ae2f", "is_disabled": 0, "rental_uris": {"ios": "https://dc.lft.to/lastmile_qr_scan", "android": "https://dc.lft.to/lastmile_qr_scan"}, "is_reserved": 0}, {"lon": -77.02534566666667, "bike_id": "240ef1b9d9ebc9dda07c59cb4c077af0", "lat": 38.880403, "fusion_lon": 0.0, "fusion_lat": 0.0, "type": "electric_scooter", "name": "240ef1b9d9ebc9dda07c59cb4c077af0", "is_disabled": 0, "rental_uris": {"ios": "https://dc.lft.to/lastmile_qr_scan", "android": "https://dc.lft.to/lastmile_qr_scan"}, "is_reserved": 0}, {"lon": -76.98113983333333, "bike_id": "12eab79282efe7830963b07e682ea0ab", "lat": 38.915816, "fusion_lon": 0.0, "fusion_lat": 0.0, "type": "electric_scooter", "name": "12eab79282efe7830963b07e682ea0ab", "is_disabled": 0, "rental_uris": {"ios": "https://dc.lft.to/lastmile_qr_scan", "android": "https://dc.lft.to/lastmile_qr_scan"}, "is_reserved": 0}, {"lon": -77.04239133333333, "bike_id": "5eb57e0a6867b1cede25afd459388128", "lat": 38.92217016666667, "fusion_lon": 0.0, "fusion_lat": 0.0, "type": "electric_scooter", "name": "5eb57e0a6867b1cede25afd459388128", "is_disabled": 0, "rental_uris": {"ios": "https://dc.lft.to/lastmile_qr_scan", "android": "https://dc.lft.to/lastmile_qr_scan"}, "is_reserved": 0}, {"lon": -76.98986483333333, "bike_id": "2a646f9485569d4779d424cfcd960092", "lat": 38.93364716666667, "fusion_lon": 0.0, "fusion_lat": 0.0, "type": "electric_scooter", "name": "2a646f9485569d4779d424cfcd960092", "is_disabled": 0, "rental_uris": {"ios": "https://dc.lft.to/lastmile_qr_scan", "android": "https://dc.lft.to/lastmile_qr_scan"}, "is_reserved": 0}, {"lon": -77.027018, "bike_id": "1fe6ea3f39323890dd3c288ccb409d36", "lat": 38.916336333333334, "fusion_lon": 0.0, "fusion_lat": 0.0, "type": "electric_scooter", "name": "1fe6ea3f39323890dd3c288ccb409d36", "is_disabled": 0, "rental_uris": {"ios": "https://dc.lft.to/lastmile_qr_scan", "android": "https://dc.lft.to/lastmile_qr_scan"}, "is_reserved": 0}, {"lon": -77.02482183333333, "bike_id": "9600e9ba03a8359502ce7a7089c69e1c", "lat": 38.902517333333336, "fusion_lon": 0.0, "fusion_lat": 0.0, "type": "electric_scooter", "name": "9600e9ba03a8359502ce7a7089c69e1c", "is_disabled": 0, "rental_uris": {"ios": "https://dc.lft.to/lastmile_qr_scan", "android": "https://dc.lft.to/lastmile_qr_scan"}, "is_reserved": 0}, {"lon": -76.9964735, "bike_id": "5491a148fb8686d66d7293f2f85cd33c", "lat": 38.887210333333336, "fusion_lon": 0.0, "fusion_lat": 0.0, "type": "electric_scooter", "name": "5491a148fb8686d66d7293f2f85cd33c", "is_disabled": 0, "rental_uris": {"ios": "https://dc.lft.to/lastmile_qr_scan", "android": "https://dc.lft.to/lastmile_qr_scan"}, "is_reserved": 0}, {"lon": -77.02319283333334, "bike_id": "13e9f1cec29cfd045bb81ea0d5ba91ec", "lat": 38.955244666666665, "fusion_lon": 0.0, "fusion_lat": 0.0, "type": "electric_scooter", "name": "13e9f1cec29cfd045bb81ea0d5ba91ec", "is_disabled": 0, "rental_uris": {"ios": "https://dc.lft.to/lastmile_qr_scan", "android": "https://dc.lft.to/lastmile_qr_scan"}, "is_reserved": 0}, {"lon": -77.00567533333333, "bike_id": "dd2775f72c4ce9cca790f0ead33776e8", "lat": 38.87433033333333, "fusion_lon": 0.0, "fusion_lat": 0.0, "type": "electric_scooter", "name": "dd2775f72c4ce9cca790f0ead33776e8", "is_disabled": 0, "rental_uris": {"ios": "https://dc.lft.to/lastmile_qr_scan", "android": "https://dc.lft.to/lastmile_qr_scan"}, "is_reserved": 0}, {"lon": -76.996733, "bike_id": "098141d6be73e392f317b9174aab96f9", "lat": 38.92486183333333, "fusion_lon": 0.0, "fusion_lat": 0.0, "type": "electric_bike", "name": "098141d6be73e392f317b9174aab96f9", "is_disabled": 0, "rental_uris": {"ios": "https://dc.lft.to/lastmile_qr_scan", "android": "https://dc.lft.to/lastmile_qr_scan"}, "is_reserved": 0}, {"lon": -77.02719566666667, "bike_id": "c5c583305541e347cc94ab52831023ab", "lat": 38.900706166666666, "fusion_lon": 0.0, "fusion_lat": 0.0, "type": "electric_scooter", "name": "c5c583305541e347cc94ab52831023ab", "is_disabled": 0, "rental_uris": {"ios": "https://dc.lft.to/lastmile_qr_scan", "android": "https://dc.lft.to/lastmile_qr_scan"}, "is_reserved": 0}, {"lon": -77.014507, "bike_id": "4f2bd0f580f321678465859a19486baf", "lat": 38.912527, "fusion_lon": 0.0, "fusion_lat": 0.0, "type": "electric_scooter", "name": "4f2bd0f580f321678465859a19486baf", "is_disabled": 0, "rental_uris": {"ios": "https://dc.lft.to/lastmile_qr_scan", "android": "https://dc.lft.to/lastmile_qr_scan"}, "is_reserved": 0}, {"lon": -77.02395583333333, "bike_id": "29c8e873298dc454c6b2adaea848e067", "lat": 38.90695633333333, "fusion_lon": 0.0, "fusion_lat": 0.0, "type": "electric_scooter", "name": "29c8e873298dc454c6b2adaea848e067", "is_disabled": 0, "rental_uris": {"ios": "https://dc.lft.to/lastmile_qr_scan", "android": "https://dc.lft.to/lastmile_qr_scan"}, "is_reserved": 0}, {"lon": -76.98538983333333, "bike_id": "a76c18d1fcec02217b3bea9e2380be2d", "lat": 38.89940283333333, "fusion_lon": 0.0, "fusion_lat": 0.0, "type": "electric_scooter", "name": "a76c18d1fcec02217b3bea9e2380be2d", "is_disabled": 0, "rental_uris": {"ios": "https://dc.lft.to/lastmile_qr_scan", "android": "https://dc.lft.to/lastmile_qr_scan"}, "is_reserved": 0}, {"lon": -77.04459783333333, "bike_id": "a74d5c8d288ed02ea90a09f5dcbef43c", "lat": 38.91869916666667, "fusion_lon": 0.0, "fusion_lat": 0.0, "type": "electric_scooter", "name": "a74d5c8d288ed02ea90a09f5dcbef43c", "is_disabled": 0, "rental_uris": {"ios": "https://dc.lft.to/lastmile_qr_scan", "android": "https://dc.lft.to/lastmile_qr_scan"}, "is_reserved": 0}, {"lon": -77.03275733333334, "bike_id": "64a660acaf0d75c8169bc59c1ec70046", "lat": 38.92941966666667, "fusion_lon": 0.0, "fusion_lat": 0.0, "type": "electric_bike", "name": "64a660acaf0d75c8169bc59c1ec70046", "is_disabled": 0, "rental_uris": {"ios": "https://dc.lft.to/lastmile_qr_scan", "android": "https://dc.lft.to/lastmile_qr_scan"}, "is_reserved": 0}, {"lon": -77.03505116666666, "bike_id": "e431ea3b40e59002acb8da132e2ebea9", "lat": 38.914843833333336, "fusion_lon": 0.0, "fusion_lat": 0.0, "type": "electric_scooter", "name": "e431ea3b40e59002acb8da132e2ebea9", "is_disabled": 0, "rental_uris": {"ios": "https://dc.lft.to/lastmile_qr_scan", "android": "https://dc.lft.to/lastmile_qr_scan"}, "is_reserved": 0}, {"lon": -76.946614, "bike_id": "153eb598efab6dbbc281eb3965cf2151", "lat": 38.93690766666667, "fusion_lon": 0.0, "fusion_lat": 0.0, "type": "electric_bike", "name": "153eb598efab6dbbc281eb3965cf2151", "is_disabled": 0, "rental_uris": {"ios": "https://dc.lft.to/lastmile_qr_scan", "android": "https://dc.lft.to/lastmile_qr_scan"}, "is_reserved": 0}, {"lon": -77.07814683333334, "bike_id": "b25527ebfba988891b7fead9efe18ad3", "lat": 38.924563666666664, "fusion_lon": 0.0, "fusion_lat": 0.0, "type": "electric_scooter", "name": "b25527ebfba988891b7fead9efe18ad3", "is_disabled": 0, "rental_uris": {"ios": "https://dc.lft.to/lastmile_qr_scan", "android": "https://dc.lft.to/lastmile_qr_scan"}, "is_reserved": 0}, {"lon": -77.04323883333333, "bike_id": "8d164717abb3259af859e01b145c5b9d", "lat": 38.918764833333334, "fusion_lon": 0.0, "fusion_lat": 0.0, "type": "electric_scooter", "name": "8d164717abb3259af859e01b145c5b9d", "is_disabled": 0, "rental_uris": {"ios": "https://dc.lft.to/lastmile_qr_scan", "android": "https://dc.lft.to/lastmile_qr_scan"}, "is_reserved": 0}, {"lon": -77.02386666666666, "bike_id": "8f5191c46beabb6847a8ed14aab20453", "lat": 38.90626833333334, "fusion_lon": 0.0, "fusion_lat": 0.0, "type": "electric_scooter", "name": "8f5191c46beabb6847a8ed14aab20453", "is_disabled": 0, "rental_uris": {"ios": "https://dc.lft.to/lastmile_qr_scan", "android": "https://dc.lft.to/lastmile_qr_scan"}, "is_reserved": 0}, {"lon": -77.04006433333333, "bike_id": "82bc36fc7fd9247d84a1a95d010f868d", "lat": 38.91408233333333, "fusion_lon": 0.0, "fusion_lat": 0.0, "type": "electric_scooter", "name": "82bc36fc7fd9247d84a1a95d010f868d", "is_disabled": 0, "rental_uris": {"ios": "https://dc.lft.to/lastmile_qr_scan", "android": "https://dc.lft.to/lastmile_qr_scan"}, "is_reserved": 0}, {"lon": -77.03766783333333, "bike_id": "9c99c0347582ccc79896fe7ac67ffa69", "lat": 38.9157025, "fusion_lon": 0.0, "fusion_lat": 0.0, "type": "electric_scooter", "name": "9c99c0347582ccc79896fe7ac67ffa69", "is_disabled": 0, "rental_uris": {"ios": "https://dc.lft.to/lastmile_qr_scan", "android": "https://dc.lft.to/lastmile_qr_scan"}, "is_reserved": 0}, {"lon": -77.03330433333333, "bike_id": "c8321fa5804025309095e9519956e7a8", "lat": 38.9604625, "fusion_lon": 0.0, "fusion_lat": 0.0, "type": "electric_scooter", "name": "c8321fa5804025309095e9519956e7a8", "is_disabled": 0, "rental_uris": {"ios": "https://dc.lft.to/lastmile_qr_scan", "android": "https://dc.lft.to/lastmile_qr_scan"}, "is_reserved": 0}, {"lon": -77.02799483333334, "bike_id": "634ce11f12167bc3533c6ae270a160f0", "lat": 38.954002833333334, "fusion_lon": 0.0, "fusion_lat": 0.0, "type": "electric_scooter", "name": "634ce11f12167bc3533c6ae270a160f0", "is_disabled": 0, "rental_uris": {"ios": "https://dc.lft.to/lastmile_qr_scan", "android": "https://dc.lft.to/lastmile_qr_scan"}, "is_reserved": 0}, {"lon": -77.0219875, "bike_id": "efb13630bb19f12acaa9b1c5c3da86fd", "lat": 38.91077083333333, "fusion_lon": 0.0, "fusion_lat": 0.0, "type": "electric_scooter", "name": "efb13630bb19f12acaa9b1c5c3da86fd", "is_disabled": 0, "rental_uris": {"ios": "https://dc.lft.to/lastmile_qr_scan", "android": "https://dc.lft.to/lastmile_qr_scan"}, "is_reserved": 0}, {"lon": -77.02001983333334, "bike_id": "fd3278f3f2bf9d68c83e62fbfed66d8e", "lat": 38.90447016666667, "fusion_lon": 0.0, "fusion_lat": 0.0, "type": "electric_scooter", "name": "fd3278f3f2bf9d68c83e62fbfed66d8e", "is_disabled": 0, "rental_uris": {"ios": "https://dc.lft.to/lastmile_qr_scan", "android": "https://dc.lft.to/lastmile_qr_scan"}, "is_reserved": 0}, {"lon": -76.99131683333333, "bike_id": "18e0999bc5f945e603be7c403cda7339", "lat": 38.92272416666667, "fusion_lon": 0.0, "fusion_lat": 0.0, "type": "electric_scooter", "name": "18e0999bc5f945e603be7c403cda7339", "is_disabled": 0, "rental_uris": {"ios": "https://dc.lft.to/lastmile_qr_scan", "android": "https://dc.lft.to/lastmile_qr_scan"}, "is_reserved": 0}, {"lon": -76.9638515, "bike_id": "8803a5431eb02a05375d0e72cddfc1c0", "lat": 38.951771666666666, "fusion_lon": 0.0, "fusion_lat": 0.0, "type": "electric_bike", "name": "8803a5431eb02a05375d0e72cddfc1c0", "is_disabled": 0, "rental_uris": {"ios": "https://dc.lft.to/lastmile_qr_scan", "android": "https://dc.lft.to/lastmile_qr_scan"}, "is_reserved": 0}, {"lon": -77.02814416666666, "bike_id": "e7f7445ec7147eebb50735c3e62a3a17", "lat": 38.91704933333333, "fusion_lon": 0.0, "fusion_lat": 0.0, "type": "electric_scooter", "name": "e7f7445ec7147eebb50735c3e62a3a17", "is_disabled": 0, "rental_uris": {"ios": "https://dc.lft.to/lastmile_qr_scan", "android": "https://dc.lft.to/lastmile_qr_scan"}, "is_reserved": 0}, {"lon": -77.02972833333334, "bike_id": "c7f20e41b477360b288f0c466d00d90c", "lat": 38.91721166666667, "fusion_lon": 0.0, "fusion_lat": 0.0, "type": "electric_scooter", "name": "c7f20e41b477360b288f0c466d00d90c", "is_disabled": 0, "rental_uris": {"ios": "https://dc.lft.to/lastmile_qr_scan", "android": "https://dc.lft.to/lastmile_qr_scan"}, "is_reserved": 0}, {"lon": -77.02105266666666, "bike_id": "c179b973c87aec55c048960f444a86a7", "lat": 38.90967966666667, "fusion_lon": 0.0, "fusion_lat": 0.0, "type": "electric_scooter", "name": "c179b973c87aec55c048960f444a86a7", "is_disabled": 0, "rental_uris": {"ios": "https://dc.lft.to/lastmile_qr_scan", "android": "https://dc.lft.to/lastmile_qr_scan"}, "is_reserved": 0}, {"lon": -77.04611416666667, "bike_id": "32f5ce0cebb96d12a334f8fe43532021", "lat": 38.883800666666666, "fusion_lon": 0.0, "fusion_lat": 0.0, "type": "electric_scooter", "name": "32f5ce0cebb96d12a334f8fe43532021", "is_disabled": 0, "rental_uris": {"ios": "https://dc.lft.to/lastmile_qr_scan", "android": "https://dc.lft.to/lastmile_qr_scan"}, "is_reserved": 0}, {"lon": -76.9954985, "bike_id": "f356bea36ad0792e12e033e0d5ba7372", "lat": 38.862501, "fusion_lon": 0.0, "fusion_lat": 0.0, "type": "electric_scooter", "name": "f356bea36ad0792e12e033e0d5ba7372", "is_disabled": 0, "rental_uris": {"ios": "https://dc.lft.to/lastmile_qr_scan", "android": "https://dc.lft.to/lastmile_qr_scan"}, "is_reserved": 0}, {"lon": -77.02215233333334, "bike_id": "d2bfde696f061511113e1bf673f318dc", "lat": 38.90313666666667, "fusion_lon": 0.0, "fusion_lat": 0.0, "type": "electric_scooter", "name": "d2bfde696f061511113e1bf673f318dc", "is_disabled": 0, "rental_uris": {"ios": "https://dc.lft.to/lastmile_qr_scan", "android": "https://dc.lft.to/lastmile_qr_scan"}, "is_reserved": 0}, {"lon": -77.02318833333334, "bike_id": "5c17e8e769131c170e4fd72d2168692e", "lat": 38.90953966666667, "fusion_lon": 0.0, "fusion_lat": 0.0, "type": "electric_scooter", "name": "5c17e8e769131c170e4fd72d2168692e", "is_disabled": 0, "rental_uris": {"ios": "https://dc.lft.to/lastmile_qr_scan", "android": "https://dc.lft.to/lastmile_qr_scan"}, "is_reserved": 0}, {"lon": -77.03886116666666, "bike_id": "11b116d7f7867945aeffe7c456f3c6ef", "lat": 38.920040666666665, "fusion_lon": 0.0, "fusion_lat": 0.0, "type": "electric_scooter", "name": "11b116d7f7867945aeffe7c456f3c6ef", "is_disabled": 0, "rental_uris": {"ios": "https://dc.lft.to/lastmile_qr_scan", "android": "https://dc.lft.to/lastmile_qr_scan"}, "is_reserved": 0}, {"lon": -77.0499655, "bike_id": "2885ceeb4e88eb400dcec52ba2ab053b", "lat": 38.900724, "fusion_lon": 0.0, "fusion_lat": 0.0, "type": "electric_scooter", "name": "2885ceeb4e88eb400dcec52ba2ab053b", "is_disabled": 0, "rental_uris": {"ios": "https://dc.lft.to/lastmile_qr_scan", "android": "https://dc.lft.to/lastmile_qr_scan"}, "is_reserved": 0}, {"lon": -77.021223, "bike_id": "e3af71c6d00353cc7fd61afa7f9337e7", "lat": 38.917357333333335, "fusion_lon": 0.0, "fusion_lat": 0.0, "type": "electric_scooter", "name": "e3af71c6d00353cc7fd61afa7f9337e7", "is_disabled": 0, "rental_uris": {"ios": "https://dc.lft.to/lastmile_qr_scan", "android": "https://dc.lft.to/lastmile_qr_scan"}, "is_reserved": 0}, {"lon": -77.0673185, "bike_id": "2fa1d118c0ef0d95581173c250d88353", "lat": 38.9096555, "fusion_lon": 0.0, "fusion_lat": 0.0, "type": "electric_scooter", "name": "2fa1d118c0ef0d95581173c250d88353", "is_disabled": 0, "rental_uris": {"ios": "https://dc.lft.to/lastmile_qr_scan", "android": "https://dc.lft.to/lastmile_qr_scan"}, "is_reserved": 0}, {"lon": -77.05175883333334, "bike_id": "4857a003780cd7a74a03e470fd7c2d40", "lat": 38.90312816666667, "fusion_lon": 0.0, "fusion_lat": 0.0, "type": "electric_scooter", "name": "4857a003780cd7a74a03e470fd7c2d40", "is_disabled": 0, "rental_uris": {"ios": "https://dc.lft.to/lastmile_qr_scan", "android": "https://dc.lft.to/lastmile_qr_scan"}, "is_reserved": 0}, {"lon": -77.01416133333333, "bike_id": "ae513d57d9df7c0d3b144b7871ba3f2c", "lat": 38.92835933333333, "fusion_lon": 0.0, "fusion_lat": 0.0, "type": "electric_scooter", "name": "ae513d57d9df7c0d3b144b7871ba3f2c", "is_disabled": 0, "rental_uris": {"ios": "https://dc.lft.to/lastmile_qr_scan", "android": "https://dc.lft.to/lastmile_qr_scan"}, "is_reserved": 0}, {"lon": -77.03844616666666, "bike_id": "76068daf7441ae331074ace82a61ce8d", "lat": 38.9123075, "fusion_lon": 0.0, "fusion_lat": 0.0, "type": "electric_scooter", "name": "76068daf7441ae331074ace82a61ce8d", "is_disabled": 0, "rental_uris": {"ios": "https://dc.lft.to/lastmile_qr_scan", "android": "https://dc.lft.to/lastmile_qr_scan"}, "is_reserved": 0}, {"lon": -77.03661116666666, "bike_id": "78209218ffca66d7926b555ae9752a2e", "lat": 38.902627, "fusion_lon": 0.0, "fusion_lat": 0.0, "type": "electric_scooter", "name": "78209218ffca66d7926b555ae9752a2e", "is_disabled": 0, "rental_uris": {"ios": "https://dc.lft.to/lastmile_qr_scan", "android": "https://dc.lft.to/lastmile_qr_scan"}, "is_reserved": 0}, {"lon": -77.10915483333333, "bike_id": "08a30b30c718c4033b24c4a9c25ab6e8", "lat": 39.051986166666666, "fusion_lon": 0.0, "fusion_lat": 0.0, "type": "electric_bike", "name": "08a30b30c718c4033b24c4a9c25ab6e8", "is_disabled": 0, "rental_uris": {"ios": "https://dc.lft.to/lastmile_qr_scan", "android": "https://dc.lft.to/lastmile_qr_scan"}, "is_reserved": 0}, {"lon": -76.9971585, "bike_id": "6aa7a1ec9f27a60388a0349de49c72d2", "lat": 38.911049166666665, "fusion_lon": 0.0, "fusion_lat": 0.0, "type": "electric_scooter", "name": "6aa7a1ec9f27a60388a0349de49c72d2", "is_disabled": 0, "rental_uris": {"ios": "https://dc.lft.to/lastmile_qr_scan", "android": "https://dc.lft.to/lastmile_qr_scan"}, "is_reserved": 0}, {"lon": -76.930009, "bike_id": "36c114dc8d22d82d09a613a5fc82131d", "lat": 38.901879, "fusion_lon": 0.0, "fusion_lat": 0.0, "type": "electric_scooter", "name": "36c114dc8d22d82d09a613a5fc82131d", "is_disabled": 0, "rental_uris": {"ios": "https://dc.lft.to/lastmile_qr_scan", "android": "https://dc.lft.to/lastmile_qr_scan"}, "is_reserved": 0}, {"lon": -77.02655366666667, "bike_id": "db3a7275e31c412accbed28f4e1facc6", "lat": 38.97810533333333, "fusion_lon": 0.0, "fusion_lat": 0.0, "type": "electric_scooter", "name": "db3a7275e31c412accbed28f4e1facc6", "is_disabled": 0, "rental_uris": {"ios": "https://dc.lft.to/lastmile_qr_scan", "android": "https://dc.lft.to/lastmile_qr_scan"}, "is_reserved": 0}, {"lon": -77.0336165, "bike_id": "af1aca490e0abf573ca995e4bcf68951", "lat": 38.935765, "fusion_lon": 0.0, "fusion_lat": 0.0, "type": "electric_scooter", "name": "af1aca490e0abf573ca995e4bcf68951", "is_disabled": 0, "rental_uris": {"ios": "https://dc.lft.to/lastmile_qr_scan", "android": "https://dc.lft.to/lastmile_qr_scan"}, "is_reserved": 0}, {"lon": -77.02199716666667, "bike_id": "f0d410c69ad543d8c189f458de0efdf4", "lat": 38.911243, "fusion_lon": 0.0, "fusion_lat": 0.0, "type": "electric_scooter", "name": "f0d410c69ad543d8c189f458de0efdf4", "is_disabled": 0, "rental_uris": {"ios": "https://dc.lft.to/lastmile_qr_scan", "android": "https://dc.lft.to/lastmile_qr_scan"}, "is_reserved": 0}, {"lon": -77.03450883333333, "bike_id": "709c4228deb48f370978411b8d5c7bab", "lat": 38.90732083333333, "fusion_lon": 0.0, "fusion_lat": 0.0, "type": "electric_scooter", "name": "709c4228deb48f370978411b8d5c7bab", "is_disabled": 0, "rental_uris": {"ios": "https://dc.lft.to/lastmile_qr_scan", "android": "https://dc.lft.to/lastmile_qr_scan"}, "is_reserved": 0}, {"lon": -76.97874466666667, "bike_id": "a5633caebb5b817d4b125424208a1584", "lat": 38.88298116666667, "fusion_lon": 0.0, "fusion_lat": 0.0, "type": "electric_scooter", "name": "a5633caebb5b817d4b125424208a1584", "is_disabled": 0, "rental_uris": {"ios": "https://dc.lft.to/lastmile_qr_scan", "android": "https://dc.lft.to/lastmile_qr_scan"}, "is_reserved": 0}, {"lon": -77.04115583333333, "bike_id": "a9be1d8edc312acc8648cd319b6e986e", "lat": 38.9346395, "fusion_lon": 0.0, "fusion_lat": 0.0, "type": "electric_scooter", "name": "a9be1d8edc312acc8648cd319b6e986e", "is_disabled": 0, "rental_uris": {"ios": "https://dc.lft.to/lastmile_qr_scan", "android": "https://dc.lft.to/lastmile_qr_scan"}, "is_reserved": 0}, {"lon": -77.03912216666667, "bike_id": "673a960385918d7e16fb5cbfa6e59b8b", "lat": 38.9141015, "fusion_lon": 0.0, "fusion_lat": 0.0, "type": "electric_scooter", "name": "673a960385918d7e16fb5cbfa6e59b8b", "is_disabled": 0, "rental_uris": {"ios": "https://dc.lft.to/lastmile_qr_scan", "android": "https://dc.lft.to/lastmile_qr_scan"}, "is_reserved": 0}, {"lon": -76.96528, "bike_id": "83da303cedbda67b63bcf9d42726e7aa", "lat": 38.876259166666664, "fusion_lon": 0.0, "fusion_lat": 0.0, "type": "electric_scooter", "name": "83da303cedbda67b63bcf9d42726e7aa", "is_disabled": 0, "rental_uris": {"ios": "https://dc.lft.to/lastmile_qr_scan", "android": "https://dc.lft.to/lastmile_qr_scan"}, "is_reserved": 0}, {"lon": -77.03281683333333, "bike_id": "09915b7e719feecfd161d466dd60f506", "lat": 38.91994916666667, "fusion_lon": 0.0, "fusion_lat": 0.0, "type": "electric_scooter", "name": "09915b7e719feecfd161d466dd60f506", "is_disabled": 0, "rental_uris": {"ios": "https://dc.lft.to/lastmile_qr_scan", "android": "https://dc.lft.to/lastmile_qr_scan"}, "is_reserved": 0},