{"data": {"bikes": [{"fusion_lat": 0.0, "name": "e28d57f2c8c5d4a469e3e37145d4c436", "is_disabled": 0, "rental_uris": {"android": "https://dc.lft.to/lastmile_qr_scan", "ios": "https://dc.lft.to/lastmile_qr_scan"}, "fusion_lon": 0.0, "lat": 38.92220283333333, "bike_id": "e28d57f2c8c5d4a469e3e37145d4c436", "type": "electric_scooter", "is_reserved": 0, "lon": -76.9837525}, {"fusion_lat": 0.0, "name": "f74cccc34f9262bacbcd8b996b7d88f4", "is_disabled": 0, "rental_uris": {"android": "https://dc.lft.to/lastmile_qr_scan", "ios": "https://dc.lft.to/lastmile_qr_scan"}, "fusion_lon": 0.0, "lat": 38.87662516666666, "bike_id": "f74cccc34f9262bacbcd8b996b7d88f4", "type": "electric_scooter", "is_reserved": 0, "lon": -77.00120833333334}, {"fusion_lat": 0.0, "name": "356faf02308b6ee20bb8eb739cc0c51f", "is_disabled": 0, "rental_uris": {"android": "https://dc.lft.to/lastmile_qr_scan", "ios": "https://dc.lft.to/lastmile_qr_scan"}, "fusion_lon": 0.0, "lat": 38.908671, "bike_id": "356faf02308b6ee20bb8eb739cc0c51f", "type": "electric_bike", "is_reserved": 0, "lon": -77.03217616666667}, {"fusion_lat": 0.0, "name": "0f36c5477d3678fc00688b371c4ed623", "is_disabled": 0, "rental_uris": {"android": "https://dc.lft.to/lastmile_qr_scan", "ios": "https://dc.lft.to/lastmile_qr_scan"}, "fusion_lon": 0.0, "lat": 38.93128016666667, "bike_id": "0f36c5477d3678fc00688b371c4ed623", "type": "electric_scooter", "is_reserved": 0, "lon": -77.03851616666667}, {"fusion_lat": 0.0, "name": "7a3c1dcdc90825561572d31bf2dd6d08", "is_disabled": 0, "rental_uris": {"android": "https://dc.lft.to/lastmile_qr_scan", "ios": "https://dc.lft.to/lastmile_qr_scan"}, "fusion_lon": 0.0, "lat": 38.906162, "bike_id": "7a3c1dcdc90825561572d31bf2dd6d08", "type": "electric_scooter", "is_reserved": 0, "lon": -77.05045166666666}, {"fusion_lat": 0.0, "name": "099e89a3fa184c7d9c886ed41c5abd4c", "is_disabled": 0, "rental_uris": {"android": "https://dc.lft.to/lastmile_qr_scan", "ios": "https://dc.lft.to/lastmile_qr_scan"}, "fusion_lon": 0.0, "lat": 38.90989583333333, "bike_id": "099e89a3fa184c7d9c886ed41c5abd4c", "type": "electric_scooter", "is_reserved": 0, "lon": -77.03204533333333}, {"fusion_lat": 0.0, "name": "7860ad14fde05fb71162842c057da6d0", "is_disabled": 0, "rental_uris": {"android": "https://dc.lft.to/lastmile_qr_scan", "ios": "https://dc.lft.to/lastmile_qr_scan"}, "fusion_lon": 0.0, "lat": 38.919565666666664, "bike_id": "7860ad14fde05fb71162842c057da6d0", "type": "electric_bike", "is_reserved": 0, "lon": -77.1011035}, {"fusion_lat": 0.0, "name": "733b758a738da35f13990f4d4b40a818", "is_disabled": 0, "rental_uris": {"android": "https://dc.lft.to/lastmile_qr_scan", "ios": "https://dc.lft.to/lastmile_qr_scan"}, "fusion_lon": 0.0, "lat": 38.90656533333333, "bike_id": "733b758a738da35f13990f4d4b40a818", "type": "electric_scooter", "is_reserved": 0, "lon": -77.0141215}, {"fusion_lat": 0.0, "name": "cb7ba3273fe4fc4ce2856f25be0d57cf", "is_disabled": 0, "rental_uris": {"android": "https://dc.lft.to/lastmile_qr_scan", "ios": "https://dc.lft.to/lastmile_qr_scan"}, "fusion_lon": 0.0, "lat": 38.907072166666666, "bike_id": "cb7ba3273fe4fc4ce2856f25be0d57cf", "type": "electric_scooter", "is_reserved": 0, "lon": -77.0239215}, {"fusion_lat": 0.0, "name": "a0fb0290919971b27a9945b6cca67b67", "is_disabled": 0, "rental_uris": {"android": "https://dc.lft.to/lastmile_qr_scan", "ios": "https://dc.lft.to/lastmile_qr_scan"}, "fusion_lon": 0.0, "lat": 38.9040915, "bike_id": "a0fb0290919971b27a9945b6cca67b67", "type": "electric_scooter", "is_reserved": 0, "lon": -76.97330966666667}, {"fusion_lat": 0.0, "name": "12711ebd3b4cd7af5c507fbf28a3d4c5", "is_disabled": 0, "rental_uris": {"android": "https://dc.lft.to/lastmile_qr_scan", "ios": "https://dc.lft.to/lastmile_qr_scan"}, "fusion_lon": 0.0, "lat": 38.9559675, "bike_id": "12711ebd3b4cd7af5c507fbf28a3d4c5", "type": "electric_bike", "is_reserved": 0, "lon": -77.01014}, {"fusion_lat": 0.0, "name": "de520dc21ff6d93ef8360dd2bb09ec12", "is_disabled": 0, "rental_uris": {"android": "https://dc.lft.to/lastmile_qr_scan", "ios": "https://dc.lft.to/lastmile_qr_scan"}, "fusion_lon": 0.0, "lat": 38.89764066666667, "bike_id": "de520dc21ff6d93ef8360dd2bb09ec12", "type": "electric_scooter", "is_reserved": 0, "lon": -77.043949}, {"fusion_lat": 0.0, "name": "d27bf464b74bf73ff00a600a2a0bd104", "is_disabled": 0, "rental_uris": {"android": "https://dc.lft.to/lastmile_qr_scan", "ios": "https://dc.lft.to/lastmile_qr_scan"}, "fusion_lon": 0.0, "lat": 38.916897, "bike_id": "d27bf464b74bf73ff00a600a2a0bd104", "type": "electric_scooter", "is_reserved": 0, "lon": -77.03590483333333}, {"fusion_lat": 0.0, "name": "83d4e6a984039456b08fca7bebb64bb2", "is_disabled": 0, "rental_uris": {"android": "https://dc.lft.to/lastmile_qr_scan", "ios": "https://dc.lft.to/lastmile_qr_scan"}, "fusion_lon": 0.0, "lat": 38.94150166666667, "bike_id": "83d4e6a984039456b08fca7bebb64bb2", "type": "electric_bike", "is_reserved": 0, "lon": -77.0019735}, {"fusion_lat": 0.0, "name": "50e66d0409ee5e326ba7aeeacc209097", "is_disabled": 0, "rental_uris": {"android": "https://dc.lft.to/lastmile_qr_scan", "ios": "https://dc.lft.to/lastmile_qr_scan"}, "fusion_lon": 0.0, "lat": 38.87245083333333, "bike_id": "50e66d0409ee5e326ba7aeeacc209097", "type": "electric_scooter", "is_reserved": 0, "lon": -76.97727966666666}, {"fusion_lat": 0.0, "name": "8a3321779c7ba4d10ce1555b6e393aeb", "is_disabled": 0, "rental_uris": {"android": "https://dc.lft.to/lastmile_qr_scan", "ios": "https://dc.lft.to/lastmile_qr_scan"}, "fusion_lon": 0.0, "lat": 38.987665666666665, "bike_id": "8a3321779c7ba4d10ce1555b6e393aeb", "type": "electric_bike", "is_reserved": 0, "lon": -77.14055116666667}, {"fusion_lat": 0.0, "name": "7e596ba37edc085ff54e59a23ebec4d5", "is_disabled": 0, "rental_uris": {"android": "https://dc.lft.to/lastmile_qr_scan", "ios": "https://dc.lft.to/lastmile_qr_scan"}, "fusion_lon": 0.0, "lat": 38.914151833333335, "bike_id": "7e596ba37edc085ff54e59a23ebec4d5", "type": "electric_scooter", "is_reserved": 0, "lon": -77.02213716666667}, {"fusion_lat": 0.0, "name": "42d0412f1461b5eee0f4bb7dc58c7301", "is_disabled": 0, "rental_uris": {"android": "https://dc.lft.to/lastmile_qr_scan", "ios": "https://dc.lft.to/lastmile_qr_scan"}, "fusion_lon": 0.0, "lat": 38.879139, "bike_id": "42d0412f1461b5eee0f4bb7dc58c7301", "type": "electric_scooter", "is_reserved": 0, "lon": -77.0089895}, {"fusion_lat": 0.0, "name": "7bffdd57fbed9112231cc4bce3a82ca3", "is_disabled": 0, "rental_uris": {"android": "https://dc.lft.to/lastmile_qr_scan", "ios": "https://dc.lft.to/lastmile_qr_scan"}, "fusion_lon": 0.0, "lat": 38.9084365, "bike_id": "7bffdd57fbed9112231cc4bce3a82ca3", "type": "electric_scooter", "is_reserved": 0, "lon": -77.041834}, {"fusion_lat": 0.0, "name": "29f300968d438149ea5337b1629b6746", "is_disabled": 0, "rental_uris": {"android": "https://dc.lft.to/lastmile_qr_scan", "ios": "https://dc.lft.to/lastmile_qr_scan"}, "fusion_lon": 0.0, "lat": 38.915613666666665, "bike_id": "29f300968d438149ea5337b1629b6746", "type": "electric_scooter", "is_reserved": 0, "lon": -77.03231616666666}, {"fusion_lat": 0.0, "name": "4a520ab66dc981cf6eb8710be5ea7a8f", "is_disabled": 0, "rental_uris": {"android": "https://dc.lft.to/lastmile_qr_scan", "ios": "https://dc.lft.to/lastmile_qr_scan"}, "fusion_lon": 0.0, "lat": 38.9247985, "bike_id": "4a520ab66dc981cf6eb8710be5ea7a8f", "type": "electric_scooter", "is_reserved": 0, "lon": -77.02653883333333}, {"fusion_lat": 0.0, "name": "c4bfb89bffff304ac6e81b6f8c29fd2c", "is_disabled": 0, "rental_uris": {"android": "https://dc.lft.to/lastmile_qr_scan", "ios": "https://dc.lft.to/lastmile_qr_scan"}, "fusion_lon": 0.0, "lat": 38.9143415, "bike_id": "c4bfb89bffff304ac6e81b6f8c29fd2c", "type": "electric_scooter", "is_reserved": 0, "lon": -77.0156585}, {"fusion_lat": 0.0, "name": "7d5c83b6fcf017617201528764a5821c", "is_disabled": 0, "rental_uris": {"android": "https://dc.lft.to/lastmile_qr_scan", "ios": "https://dc.lft.to/lastmile_qr_scan"}, "fusion_lon": 0.0, "lat": 38.93256233333334, "bike_id": "7d5c83b6fcf017617201528764a5821c", "type": "electric_scooter", "is_reserved": 0, "lon": -77.03266833333333}, {"fusion_lat": 0.0, "name": "56f35c5f8be9b0237d6c231dceee94fe", "is_disabled": 0, "rental_uris": {"android": "https://dc.lft.to/lastmile_qr_scan", "ios": "https://dc.lft.to/lastmile_qr_scan"}, "fusion_lon": 0.0, "lat": 38.95881033333333, "bike_id": "56f35c5f8be9b0237d6c231dceee94fe", "type": "electric_scooter", "is_reserved": 0, "lon": -77.01167216666667}, {"fusion_lat": 0.0, "name": "e7d1a4db44fbffdb3bef1dc3da6705a5", "is_disabled": 0, "rental_uris": {"android": "https://dc.lft.to/lastmile_qr_scan", "ios": "https://dc.lft.to/lastmile_qr_scan"}, "fusion_lon": 0.0, "lat": 38.876537166666665, "bike_id": "e7d1a4db44fbffdb3bef1dc3da6705a5", "type": "electric_scooter", "is_reserved": 0, "lon": -77.0091895}, {"fusion_lat": 0.0, "name": "53ae72c214ec25fa5b2907a9d949a619", "is_disabled": 0, "rental_uris": {"android": "https://dc.lft.to/lastmile_qr_scan", "ios": "https://dc.lft.to/lastmile_qr_scan"}, "fusion_lon": 0.0, "lat": 38.882310833333335, "bike_id": "53ae72c214ec25fa5b2907a9d949a619", "type": "electric_scooter", "is_reserved": 0, "lon": -77.02615816666666}, {"fusion_lat": 0.0, "name": "57f9d23dc7b0acff5c7388cee109f511", "is_disabled": 0, "rental_uris": {"android": "https://dc.lft.to/lastmile_qr_scan", "ios": "https://dc.lft.to/lastmile_qr_scan"}, "fusion_lon": 0.0, "lat": 38.92484066666667, "bike_id": "57f9d23dc7b0acff5c7388cee109f511", "type": "electric_scooter", "is_reserved": 0, "lon": -77.02545966666666}, {"fusion_lat": 0.0, "name": "ca9bc6d451b5273e76d5f705c92432b6", "is_disabled": 0, "rental_uris": {"android": "https://dc.lft.to/lastmile_qr_scan", "ios": "https://dc.lft.to/lastmile_qr_scan"}, "fusion_lon": 0.0, "lat": 38.91550983333333, "bike_id": "ca9bc6d451b5273e76d5f705c92432b6", "type": "electric_scooter", "is_reserved": 0, "lon": -77.032252}, {"fusion_lat": 0.0, "name": "30fdac92887a5325d9a7c30e7059881f", "is_disabled": 0, "rental_uris": {"android": "https://dc.lft.to/lastmile_qr_scan", "ios": "https://dc.lft.to/lastmile_qr_scan"}, "fusion_lon": 0.0, "lat": 38.853078333333336, "bike_id": "30fdac92887a5325d9a7c30e7059881f", "type": "electric_bike", "is_reserved": 0, "lon": -77.04616}, {"fusion_lat": 0.0, "name": "f4130ddb2a82867a76de253b95fe0fa9", "is_disabled": 0, "rental_uris": {"android": "https://dc.lft.to/lastmile_qr_scan", "ios": "https://dc.lft.to/lastmile_qr_scan"}, "fusion_lon": 0.0, "lat": 38.90973866666667, "bike_id": "f4130ddb2a82867a76de253b95fe0fa9", "type": "electric_scooter", "is_reserved": 0, "lon": -77.04486766666666}, {"fusion_lat": 0.0, "name": "6ed24b6b6b7b7df8c86c8ae1c476544d", "is_disabled": 0, "rental_uris": {"android": "https://dc.lft.to/lastmile_qr_scan", "ios": "https://dc.lft.to/lastmile_qr_scan"}, "fusion_lon": 0.0, "lat": 38.900011666666664, "bike_id": "6ed24b6b6b7b7df8c86c8ae1c476544d", "type": "electric_scooter", "is_reserved": 0, "lon": -76.93164266666666}, {"fusion_lat": 0.0, "name": "c1e308c04ff51579fa0ddb68090c85ab", "is_disabled": 0, "rental_uris": {"android": "https://dc.lft.to/lastmile_qr_scan", "ios": "https://dc.lft.to/lastmile_qr_scan"}, "fusion_lon": 0.0, "lat": 38.90423283333333, "bike_id": "c1e308c04ff51579fa0ddb68090c85ab", "type": "electric_scooter", "is_reserved": 0, "lon": -77.03851183333333}, {"fusion_lat": 0.0, "name": "9fa7a66ab2eb5ba33257fcdfabc1339b", "is_disabled": 0, "rental_uris": {"android": "https://dc.lft.to/lastmile_qr_scan", "ios": "https://dc.lft.to/lastmile_qr_scan"}, "fusion_lon": 0.0, "lat": 38.84276633333333, "bike_id": "9fa7a66ab2eb5ba33257fcdfabc1339b", "type": "electric_bike", "is_reserved": 0, "lon": -77.04508916666667}, {"fusion_lat": 0.0, "name": "7da46ed9eafd5bcbda285fb498855ec8", "is_disabled": 0, "rental_uris": {"android": "https://dc.lft.to/lastmile_qr_scan", "ios": "https://dc.lft.to/lastmile_qr_scan"}, "fusion_lon": 0.0, "lat": 38.90009833333333, "bike_id": "7da46ed9eafd5bcbda285fb498855ec8", "type": "electric_scooter", "is_reserved": 0, "lon": -77.00717516666667}, {"fusion_lat": 0.0, "name": "2081ab859c8e9bf7140432905a3d3bf7", "is_disabled": 0, "rental_uris": {"android": "https://dc.lft.to/lastmile_qr_scan", "ios": "https://dc.lft.to/lastmile_qr_scan"}, "fusion_lon": 0.0, "lat": 38.897288333333336, "bike_id": "2081ab859c8e9bf7140432905a3d3bf7", "type": "electric_scooter", "is_reserved": 0, "lon": -77.04359083333334}, {"fusion_lat": 0.0, "name": "d6864ee7592685e80e362ccfdcdc6bc6", "is_disabled": 0, "rental_uris": {"android": "https://dc.lft.to/lastmile_qr_scan", "ios": "https://dc.lft.to/lastmile_qr_scan"}, "fusion_lon": 0.0, "lat": 38.928317666666665, "bike_id": "d6864ee7592685e80e362ccfdcdc6bc6", "type": "electric_scooter", "is_reserved": 0, "lon": -77.03279866666666}, {"fusion_lat": 0.0, "name": "88702210bb21938d288c66e9ecdf35f5", "is_disabled": 0, "rental_uris": {"android": "https://dc.lft.to/lastmile_qr_scan", "ios": "https://dc.lft.to/lastmile_qr_scan"}, "fusion_lon": 0.0, "lat": 38.9224805, "bike_id": "88702210bb21938d288c66e9ecdf35f5", "type": "electric_scooter", "is_reserved": 0, "lon": -77.04208033333333}, {"fusion_lat": 0.0, "name": "b22c3f430090b393b8ba1c5053f445a8", "is_disabled": 0, "rental_uris": {"android": "https://dc.lft.to/lastmile_qr_scan", "ios": "https://dc.lft.to/lastmile_qr_scan"}, "fusion_lon": 0.0, "lat": 38.903943166666664, "bike_id": "b22c3f430090b393b8ba1c5053f445a8", "type": "electric_scooter", "is_reserved": 0, "lon": -77.0383455}, {"fusion_lat": 0.0, "name": "95d77f7fe0e940678c1c39bf0ecd5349", "is_disabled": 0, "rental_uris": {"android": "https://dc.lft.to/lastmile_qr_scan", "ios": "https://dc.lft.to/lastmile_qr_scan"}, "fusion_lon": 0.0, "lat": 38.93529316666667, "bike_id": "95d77f7fe0e940678c1c39bf0ecd5349", "type": "electric_scooter", "is_reserved": 0, "lon": -77.0365245}, {"fusion_lat": 0.0, "name": "cc9252876370c89afe3067aa32b0e28d", "is_disabled": 0, "rental_uris": {"android": "https://dc.lft.to/lastmile_qr_scan", "ios": "https://dc.lft.to/lastmile_qr_scan"}, "fusion_lon": 0.0, "lat": 38.9241095, "bike_id": "cc9252876370c89afe3067aa32b0e28d", "type": "electric_scooter", "is_reserved": 0, "lon": -77.050627}, {"fusion_lat": 0.0, "name": "760743ad26dfc40790232347c478292d", "is_disabled": 0, "rental_uris": {"android": "https://dc.lft.to/lastmile_qr_scan", "ios": "https://dc.lft.to/lastmile_qr_scan"}, "fusion_lon": 0.0, "lat": 38.91272416666666, "bike_id": "760743ad26dfc40790232347c478292d", "type": "electric_scooter", "is_reserved": 0, "lon": -77.02300233333334}, {"fusion_lat": 0.0, "name": "93cc206e60096eb81f9a98773c7a9841", "is_disabled": 0, "rental_uris": {"android": "https://dc.lft.to/lastmile_qr_scan", "ios": "https://dc.lft.to/lastmile_qr_scan"}, "fusion_lon": 0.0, "lat": 38.95279633333333, "bike_id": "93cc206e60096eb81f9a98773c7a9841", "type": "electric_scooter", "is_reserved": 0, "lon": -77.068725}, {"fusion_lat": 0.0, "name": "d60caa9b947be4188aeb85aaab8224da", "is_disabled": 0, "rental_uris": {"android": "https://dc.lft.to/lastmile_qr_scan", "ios": "https://dc.lft.to/lastmile_qr_scan"}, "fusion_lon": 0.0, "lat": 38.892428833333334, "bike_id": "d60caa9b947be4188aeb85aaab8224da", "type": "electric_scooter", "is_reserved": 0, "lon": -77.018122}, {"fusion_lat": 0.0, "name": "ba92b65007ec480b9feb3b86d711dcda", "is_disabled": 0, "rental_uris": {"android": "https://dc.lft.to/lastmile_qr_scan", "ios": "https://dc.lft.to/lastmile_qr_scan"}, "fusion_lon": 0.0, "lat": 38.92093116666667, "bike_id": "ba92b65007ec480b9feb3b86d711dcda", "type": "electric_bike", "is_reserved": 0, "lon": -76.99942416666667}, {"fusion_lat": 0.0, "name": "a8018c00c715e4b88849ca3d7d3b0b7a", "is_disabled": 0, "rental_uris": {"android": "https://dc.lft.to/lastmile_qr_scan", "ios": "https://dc.lft.to/lastmile_qr_scan"}, "fusion_lon": 0.0, "lat": 38.88453533333333, "bike_id": "a8018c00c715e4b88849ca3d7d3b0b7a", "type": "electric_scooter", "is_reserved": 0, "lon": -77.044615}, {"fusion_lat": 0.0, "name": "ceadae6f1abebf48e824857ce1507a0b", "is_disabled": 0, "rental_uris": {"android": "https://dc.lft.to/lastmile_qr_scan", "ios": "https://dc.lft.to/lastmile_qr_scan"}, "fusion_lon": 0.0, "lat": 38.928923, "bike_id": "ceadae6f1abebf48e824857ce1507a0b", "type": "electric_bike", "is_reserved": 0, "lon": -77.23179316666666}, {"fusion_lat": 0.0, "name": "b2ed7e4270243e497a45de854725f3cf", "is_disabled": 0, "rental_uris": {"android": "https://dc.lft.to/lastmile_qr_scan", "ios": "https://dc.lft.to/lastmile_qr_scan"}, "fusion_lon": 0.0, "lat": 38.9134375, "bike_id": "b2ed7e4270243e497a45de854725f3cf", "type": "electric_scooter", "is_reserved": 0, "lon": -77.04266016666666}, {"fusion_lat": 0.0, "name": "69541f63aa7e1832717875cf399a5359", "is_disabled": 0, "rental_uris": {"android": "https://dc.lft.to/lastmile_qr_scan", "ios": "https://dc.lft.to/lastmile_qr_scan"}, "fusion_lon": 0.0, "lat": 38.89780866666667, "bike_id": "69541f63aa7e1832717875cf399a5359", "type": "electric_scooter", "is_reserved": 0, "lon": -77.01203516666666}, {"fusion_lat": 0.0, "name": "b62f00ac93a636730b4ea42a400daef4", "is_disabled": 0, "rental_uris": {"android": "https://dc.lft.to/lastmile_qr_scan", "ios": "https://dc.lft.to/lastmile_qr_scan"}, "fusion_lon": 0.0, "lat": 38.92311816666667, "bike_id": "b62f00ac93a636730b4ea42a400daef4", "type": "electric_scooter", "is_reserved": 0, "lon": -77.03913933333334}, {"fusion_lat": 0.0, "name": "bbe9513b275ec09f576fdd26c6bf80fe", "is_disabled": 0, "rental_uris": {"android": "https://dc.lft.to/lastmile_qr_scan", "ios": "https://dc.lft.to/lastmile_qr_scan"}, "fusion_lon": 0.0, "lat": 38.90862466666667, "bike_id": "bbe9513b275ec09f576fdd26c6bf80fe", "type": "electric_scooter", "is_reserved": 0, "lon": -77.038493}, {"fusion_lat": 0.0, "name": "f91ac82e2c9922e2b74718f17f40af8b", "is_disabled": 0, "rental_uris": {"android": "https://dc.lft.to/lastmile_qr_scan", "ios": "https://dc.lft.to/lastmile_qr_scan"}, "fusion_lon": 0.0, "lat": 38.91414866666667, "bike_id": "f91ac82e2c9922e2b74718f17f40af8b", "type": "electric_scooter", "is_reserved": 0, "lon": -77.02212133333333}, {"fusion_lat": 0.0, "name": "ed994997129e473e634bf8095cc229a5", "is_disabled": 0, "rental_uris": {"android": "https://dc.lft.to/lastmile_qr_scan", "ios": "https://dc.lft.to/lastmile_qr_scan"}, "fusion_lon": 0.0, "lat": 38.902365, "bike_id": "ed994997129e473e634bf8095cc229a5", "type": "electric_scooter", "is_reserved": 0, "lon": -77.03480766666667}, {"fusion_lat": 0.0, "name": "c052f282ded3699bdb659d8c5fd314f0", "is_disabled": 0, "rental_uris": {"android": "https://dc.lft.to/lastmile_qr_scan", "ios": "https://dc.lft.to/lastmile_qr_scan"}, "fusion_lon": 0.0, "lat": 38.9528595, "bike_id": "c052f282ded3699bdb659d8c5fd314f0", "type": "electric_bike", "is_reserved": 0, "lon": -76.9999065}, {"fusion_lat": 0.0, "name": "396d6283252356c4210648fbb43a5017", "is_disabled": 0, "rental_uris": {"android": "https://dc.lft.to/lastmile_qr_scan", "ios": "https://dc.lft.to/lastmile_qr_scan"}, "fusion_lon": 0.0, "lat": 38.92390733333333, "bike_id": "396d6283252356c4210648fbb43a5017", "type": "electric_scooter", "is_reserved": 0, "lon": -77.04306716666666}, {"fusion_lat": 0.0, "name": "9958d6559e3c89ff2d13328c4d8d0b21", "is_disabled": 0, "rental_uris": {"android": "https://dc.lft.to/lastmile_qr_scan", "ios": "https://dc.lft.to/lastmile_qr_scan"}, "fusion_lon": 0.0, "lat": 38.84129883333333, "bike_id": "9958d6559e3c89ff2d13328c4d8d0b21", "type": "electric_bike", "is_reserved": 0, "lon": -77.063098}, {"fusion_lat": 0.0, "name": "2835ef93b53beb1765b871d44f469af7", "is_disabled": 0, "rental_uris": {"android": "https://dc.lft.to/lastmile_qr_scan", "ios": "https://dc.lft.to/lastmile_qr_scan"}, "fusion_lon": 0.0, "lat": 38.903221333333335, "bike_id": "2835ef93b53beb1765b871d44f469af7", "type": "electric_scooter", "is_reserved": 0, "lon": -77.04495383333334}, {"fusion_lat": 0.0, "name": "73aa40579a94c2b626b4535ece1792ff", "is_disabled": 0, "rental_uris": {"android": "https://dc.lft.to/lastmile_qr_scan", "ios": "https://dc.lft.to/lastmile_qr_scan"}, "fusion_lon": 0.0, "lat": 38.9428755, "bike_id": "73aa40579a94c2b626b4535ece1792ff", "type": "electric_scooter", "is_reserved": 0, "lon": -77.02174416666666}, {"fusion_lat": 0.0, "name": "8e5e52abbfad7d4aa98176b00e1a0b6e", "is_disabled": 0, "rental_uris": {"android": "https://dc.lft.to/lastmile_qr_scan", "ios": "https://dc.lft.to/lastmile_qr_scan"}, "fusion_lon": 0.0, "lat": 38.894854333333335, "bike_id": "8e5e52abbfad7d4aa98176b00e1a0b6e", "type": "electric_scooter", "is_reserved": 0, "lon": -77.00254666666666}, {"fusion_lat": 0.0, "name": "1d2db9eb14be145ef9d1651555f8ebfa", "is_disabled": 0, "rental_uris": {"android": "https://dc.lft.to/lastmile_qr_scan", "ios": "https://dc.lft.to/lastmile_qr_scan"}, "fusion_lon": 0.0, "lat": 38.89724733333333, "bike_id": "1d2db9eb14be145ef9d1651555f8ebfa", "type": "electric_scooter", "is_reserved": 0, "lon": -77.00347483333333}, {"fusion_lat": 0.0, "name": "b61768c7f530cb6668fc31f3a520d3d0", "is_disabled": 0, "rental_uris": {"android": "https://dc.lft.to/lastmile_qr_scan", "ios": "https://dc.lft.to/lastmile_qr_scan"}, "fusion_lon": 0.0, "lat": 38.933996666666665, "bike_id": "b61768c7f530cb6668fc31f3a520d3d0", "type": "electric_scooter", "is_reserved": 0, "lon": -77.0284505}, {"fusion_lat": 0.0, "name": "aa3050014ab6b07907d01f4893a26487", "is_disabled": 0, "rental_uris": {"android": "https://dc.lft.to/lastmile_qr_scan", "ios": "https://dc.lft.to/lastmile_qr_scan"}, "fusion_lon": 0.0, "lat": 38.8996405, "bike_id": "aa3050014ab6b07907d01f4893a26487", "type": "electric_scooter", "is_reserved": 0, "lon": -76.98162966666666}, {"fusion_lat": 0.0, "name": "da34cd06188904fcf20ae573926c015b", "is_disabled": 0, "rental_uris": {"android": "https://dc.lft.to/lastmile_qr_scan", "ios": "https://dc.lft.to/lastmile_qr_scan"}, "fusion_lon": 0.0, "lat": 38.89221583333333, "bike_id": "da34cd06188904fcf20ae573926c015b", "type": "electric_scooter", "is_reserved": 0, "lon": -77.04506383333333}, {"fusion_lat": 0.0, "name": "c585727da1636f389899e98de7477309", "is_disabled": 0, "rental_uris": {"android": "https://dc.lft.to/lastmile_qr_scan", "ios": "https://dc.lft.to/lastmile_qr_scan"}, "fusion_lon": 0.0, "lat": 38.89748916666667, "bike_id": "c585727da1636f389899e98de7477309", "type": "electric_scooter", "is_reserved": 0, "lon": -77.02401883333333}, {"fusion_lat": 0.0, "name": "24d943053ba3ffe3e908567c0ce78bd1", "is_disabled": 0, "rental_uris": {"android": "https://dc.lft.to/lastmile_qr_scan", "ios": "https://dc.lft.to/lastmile_qr_scan"}, "fusion_lon": 0.0, "lat": 38.938839, "bike_id": "24d943053ba3ffe3e908567c0ce78bd1", "type": "electric_scooter", "is_reserved": 0, "lon": -77.03282283333333}, {"fusion_lat": 0.0, "name": "e778e2f42b0d20bc8ae7b4128a0b81d7", "is_disabled": 0, "rental_uris": {"android": "https://dc.lft.to/lastmile_qr_scan", "ios": "https://dc.lft.to/lastmile_qr_scan"}, "fusion_lon": 0.0, "lat": 38.91729766666667, "bike_id": "e778e2f42b0d20bc8ae7b4128a0b81d7", "type": "electric_scooter", "is_reserved": 0, "lon": -77.04179933333333}, {"fusion_lat": 0.0, "name": "936b4cc939ae08b1db64d2c2b42d3275", "is_disabled": 0, "rental_uris": {"android": "https://dc.lft.to/lastmile_qr_scan", "ios": "https://dc.lft.to/lastmile_qr_scan"}, "fusion_lon": 0.0, "lat": 38.90646533333334, "bike_id": "936b4cc939ae08b1db64d2c2b42d3275", "type": "electric_scooter", "is_reserved": 0, "lon": -77.00603}, {"fusion_lat": 0.0, "name": "5e89a30026d34f0dc21cd96df237d8e6", "is_disabled": 0, "rental_uris": {"android": "https://dc.lft.to/lastmile_qr_scan", "ios": "https://dc.lft.to/lastmile_qr_scan"}, "fusion_lon": 0.0, "lat": 38.90952733333334, "bike_id": "5e89a30026d34f0dc21cd96df237d8e6", "type": "electric_scooter", "is_reserved": 0, "lon": -76.98539333333333}, {"fusion_lat": 0.0, "name": "b13037b600ce27fb26383409232a5115", "is_disabled": 0, "rental_uris": {"android": "https://dc.lft.to/lastmile_qr_scan", "ios": "https://dc.lft.to/lastmile_qr_scan"}, "fusion_lon": 0.0, "lat": 38.922251, "bike_id": "b13037b600ce27fb26383409232a5115", "type": "electric_scooter", "is_reserved": 0, "lon": -77.046429}, {"fusion_lat": 0.0, "name": "d682f91e2b19cde76e42957f84da594b", "is_disabled": 0, "rental_uris": {"android": "https://dc.lft.to/lastmile_qr_scan", "ios": "https://dc.lft.to/lastmile_qr_scan"}, "fusion_lon": 0.0, "lat": 38.901397333333335, "bike_id": "d682f91e2b19cde76e42957f84da594b", "type": "electric_scooter", "is_reserved": 0, "lon": -76.99047433333334}, {"fusion_lat": 0.0, "name": "c29922666051420752626b430a681120", "is_disabled": 0, "rental_uris": {"android": "https://dc.lft.to/lastmile_qr_scan", "ios": "https://dc.lft.to/lastmile_qr_scan"}, "fusion_lon": 0.0, "lat": 38.95284783333334, "bike_id": "c29922666051420752626b430a681120", "type": "electric_scooter", "is_reserved": 0, "lon": -77.0364635}, {"fusion_lat": 0.0, "name": "174954e94bd501112882b6856c65f57b", "is_disabled": 0, "rental_uris": {"android": "https://dc.lft.to/lastmile_qr_scan", "ios": "https://dc.lft.to/lastmile_qr_scan"}, "fusion_lon": 0.0, "lat": 38.912563, "bike_id": "174954e94bd501112882b6856c65f57b", "type": "electric_scooter", "is_reserved": 0, "lon": -77.00776366666666}, {"fusion_lat": 0.0, "name": "0dda3fd75553d7d78e8bf0b452ffa398", "is_disabled": 0, "rental_uris": {"android": "https://dc.lft.to/lastmile_qr_scan", "ios": "https://dc.lft.to/lastmile_qr_scan"}, "fusion_lon": 0.0, "lat": 38.99221883333333, "bike_id": "0dda3fd75553d7d78e8bf0b452ffa398", "type": "electric_bike", "is_reserved": 0, "lon": -76.94419983333333}, {"fusion_lat": 0.0, "name": "a02004895fd017673072a1890dd32217", "is_disabled": 0, "rental_uris": {"android": "https://dc.lft.to/lastmile_qr_scan", "ios": "https://dc.lft.to/lastmile_qr_scan"}, "fusion_lon": 0.0, "lat": 38.9152105, "bike_id": "a02004895fd017673072a1890dd32217", "type": "electric_scooter", "is_reserved": 0, "lon": -77.013279}, {"fusion_lat": 0.0, "name": "637d6776758d6f9dac1bbbcb2f296b9c", "is_disabled": 0, "rental_uris": {"android": "https://dc.lft.to/lastmile_qr_scan", "ios": "https://dc.lft.to/lastmile_qr_scan"}, "fusion_lon": 0.0, "lat": 38.91730966666667, "bike_id": "637d6776758d6f9dac1bbbcb2f296b9c", "type": "electric_scooter", "is_reserved": 0, "lon": -77.023594}, {"fusion_lat": 0.0, "name": "49d725395bc03545779fcc97539724f9", "is_disabled": 0, "rental_uris": {"android": "https://dc.lft.to/lastmile_qr_scan", "ios": "https://dc.lft.to/lastmile_qr_scan"}, "fusion_lon": 0.0, "lat": 38.85534783333333, "bike_id": "49d725395bc03545779fcc97539724f9", "type": "electric_bike", "is_reserved": 0, "lon": -77.12004166666667}, {"fusion_lat": 0.0, "name": "c92e29923181e872e3a9ff03164c89c2", "is_disabled": 0, "rental_uris": {"android": "https://dc.lft.to/lastmile_qr_scan", "ios": "https://dc.lft.to/lastmile_qr_scan"}, "fusion_lon": 0.0, "lat": 38.9364815, "bike_id": "c92e29923181e872e3a9ff03164c89c2", "type": "electric_scooter", "is_reserved": 0, "lon": -77.03042}, {"fusion_lat": 0.0, "name": "d7cbb607d4273d89085f3439b584ed33", "is_disabled": 0, "rental_uris": {"android": "https://dc.lft.to/lastmile_qr_scan", "ios": "https://dc.lft.to/lastmile_qr_scan"}, "fusion_lon": 0.0, "lat": 38.92078433333333, "bike_id": "d7cbb607d4273d89085f3439b584ed33", "type": "electric_bike", "is_reserved": 0, "lon": -76.98948083333333}, {"fusion_lat": 0.0, "name": "b875ec93c822f42ed3e39c088df8fdd8", "is_disabled": 0, "rental_uris": {"android": "https://dc.lft.to/lastmile_qr_scan", "ios": "https://dc.lft.to/lastmile_qr_scan"}, "fusion_lon": 0.0, "lat": 38.910693333333334, "bike_id": "b875ec93c822f42ed3e39c088df8fdd8", "type": "electric_scooter", "is_reserved": 0, "lon": -77.02717916666667}, {"fusion_lat": 0.0, "name": "c2a72646c45afe8277d9683fad1679ba", "is_disabled": 0, "rental_uris": {"android": "https://dc.lft.to/lastmile_qr_scan", "ios": "https://dc.lft.to/lastmile_qr_scan"}, "fusion_lon": 0.0, "lat": 38.94228666666667, "bike_id": "c2a72646c45afe8277d9683fad1679ba", "type": "electric_scooter", "is_reserved": 0, "lon": -77.01386016666666}, {"fusion_lat": 0.0, "name": "c622d9a4face2c7945ae5e4addc46bff", "is_disabled": 0, "rental_uris": {"android": "https://dc.lft.to/lastmile_qr_scan", "ios": "https://dc.lft.to/lastmile_qr_scan"}, "fusion_lon": 0.0, "lat": 38.9132205, "bike_id": "c622d9a4face2c7945ae5e4addc46bff", "type": "electric_scooter", "is_reserved": 0, "lon": -77.03184716666667}, {"fusion_lat": 0.0, "name": "e2c653c26fb7250242bdb2e76ab4c664", "is_disabled": 0, "rental_uris": {"android": "https://dc.lft.to/lastmile_qr_scan", "ios": "https://dc.lft.to/lastmile_qr_scan"}, "fusion_lon": 0.0, "lat": 38.902358, "bike_id": "e2c653c26fb7250242bdb2e76ab4c664", "type": "electric_scooter", "is_reserved": 0, "lon": -77.05931616666666}, {"fusion_lat": 0.0, "name": "d7e4ae097d3e22ce650d1ce4f5f4489c", "is_disabled": 0, "rental_uris": {"android": "https://dc.lft.to/lastmile_qr_scan", "ios": "https://dc.lft.to/lastmile_qr_scan"}, "fusion_lon": 0.0, "lat": 38.8853105, "bike_id": "d7e4ae097d3e22ce650d1ce4f5f4489c", "type": "electric_scooter", "is_reserved": 0, "lon": -77.01544033333333}, {"fusion_lat": 0.0, "name": "afa44439d71da361ce28ea452a0fc21e", "is_disabled": 0, "rental_uris": {"android": "https://dc.lft.to/lastmile_qr_scan", "ios": "https://dc.lft.to/lastmile_qr_scan"}, "fusion_lon": 0.0, "lat": 38.88736816666667, "bike_id": "afa44439d71da361ce28ea452a0fc21e", "type": "electric_scooter", "is_reserved": 0, "lon": -77.00348783333334}, {"fusion_lat": 0.0, "name": "4054ccf966826828e51598b24417d62f", "is_disabled": 0, "rental_uris": {"android": "https://dc.lft.to/lastmile_qr_scan", "ios": "https://dc.lft.to/lastmile_qr_scan"}, "fusion_lon": 0.0, "lat": 38.924002333333334, "bike_id": "4054ccf966826828e51598b24417d62f", "type": "electric_scooter", "is_reserved": 0, "lon": -77.035046}, {"fusion_lat": 0.0, "name": "8bbf4ba2d7016d48e346830b9982df36", "is_disabled": 0, "rental_uris": {"android": "https://dc.lft.to/lastmile_qr_scan", "ios": "https://dc.lft.to/lastmile_qr_scan"}, "fusion_lon": 0.0, "lat": 38.905031666666666, "bike_id": "8bbf4ba2d7016d48e346830b9982df36", "type": "electric_scooter", "is_reserved": 0, "lon": -77.060191}, {"fusion_lat": 0.0, "name": "054a225584aa5539347fbbd872a28ed7", "is_disabled": 0, "rental_uris": {"android": "https://dc.lft.to/lastmile_qr_scan", "ios": "https://dc.lft.to/lastmile_qr_scan"}, "fusion_lon": 0.0, "lat": 38.896747, "bike_id": "054a225584aa5539347fbbd872a28ed7", "type": "electric_scooter", "is_reserved": 0, "lon": -77.00519066666666}, {"fusion_lat": 0.0, "name": "831e992d6d74a38e4dc1c4cb4039600e", "is_disabled": 0, "rental_uris": {"android": "https://dc.lft.to/lastmile_qr_scan", "ios": "https://dc.lft.to/lastmile_qr_scan"}, "fusion_lon": 0.0, "lat": 38.9339655, "bike_id": "831e992d6d74a38e4dc1c4cb4039600e", "type": "electric_scooter", "is_reserved": 0, "lon": -77.057431}, {"fusion_lat": 0.0, "name": "4cd972308156c70c3cf38b20cdd59a79", "is_disabled": 0, "rental_uris": {"android": "https://dc.lft.to/lastmile_qr_scan", "ios": "https://dc.lft.to/lastmile_qr_scan"}, "fusion_lon": 0.0, "lat": 38.88591816666667, "bike_id": "4cd972308156c70c3cf38b20cdd59a79", "type": "electric_scooter", "is_reserved": 0, "lon": -77.01723083333333}, {"fusion_lat": 0.0, "name": "17721fd7feb8b28d8252fe5583c6feca", "is_disabled": 0, "rental_uris": {"android": "https://dc.lft.to/lastmile_qr_scan", "ios": "https://dc.lft.to/lastmile_qr_scan"}, "fusion_lon": 0.0, "lat": 38.95056916666667, "bike_id": "17721fd7feb8b28d8252fe5583c6feca", "type": "electric_scooter", "is_reserved": 0, "lon": -77.080293}, {"fusion_lat": 0.0, "name": "f95c66e3c94b3b461df0b3cafa6c9301", "is_disabled": 0, "rental_uris": {"android": "https://dc.lft.to/lastmile_qr_scan", "ios": "https://dc.lft.to/lastmile_qr_scan"}, "fusion_lon": 0.0, "lat": 38.916621166666665, "bike_id": "f95c66e3c94b3b461df0b3cafa6c9301", "type": "electric_scooter", "is_reserved": 0, "lon": -77.0385305}, {"fusion_lat": 0.0, "name": "f91625bb3093608edaa94823eceb0578", "is_disabled": 0, "rental_uris": {"android": "https://dc.lft.to/lastmile_qr_scan", "ios": "https://dc.lft.to/lastmile_qr_scan"}, "fusion_lon": 0.0, "lat": 38.9108325, "bike_id": "f91625bb3093608edaa94823eceb0578", "type": "electric_scooter", "is_reserved": 0, "lon": -77.0412095}, {"fusion_lat": 0.0, "name": "be021be8410dc7e73fbb537d51145f6b", "is_disabled": 0, "rental_uris": {"android": "https://dc.lft.to/lastmile_qr_scan", "ios": "https://dc.lft.to/lastmile_qr_scan"}, "fusion_lon": 0.0, "lat": 38.908271, "bike_id": "be021be8410dc7e73fbb537d51145f6b", "type": "electric_scooter", "is_reserved": 0, "lon": -76.98427833333334}, {"fusion_lat": 0.0, "name": "d5b2e3329583b22b999d4dbbef797738", "is_disabled": 0, "rental_uris": {"android": "https://dc.lft.to/lastmile_qr_scan", "ios": "https://dc.lft.to/lastmile_qr_scan"}, "fusion_lon": 0.0, "lat": 38.905558166666665, "bike_id": "d5b2e3329583b22b999d4dbbef797738", "type": "electric_scooter", "is_reserved": 0, "lon": -77.0464875}, {"fusion_lat": 0.0, "name": "24eea8156f602e75767d8cb723f3c13a", "is_disabled": 0, "rental_uris": {"android": "https://dc.lft.to/lastmile_qr_scan", "ios": "https://dc.lft.to/lastmile_qr_scan"}, "fusion_lon": 0.0, "lat": 38.90622033333333, "bike_id": "24eea8156f602e75767d8cb723f3c13a", "type": "electric_scooter", "is_reserved": 0, "lon": -77.02407283333334}, {"fusion_lat": 0.0, "name": "48f444254d1010259afcf6e3653a8d23", "is_disabled": 0, "rental_uris": {"android": "https://dc.lft.to/lastmile_qr_scan", "ios": "https://dc.lft.to/lastmile_qr_scan"}, "fusion_lon": 0.0, "lat": 38.89725116666666, "bike_id": "48f444254d1010259afcf6e3653a8d23", "type": "electric_scooter", "is_reserved": 0, "lon": -77.03175133333333}, {"fusion_lat": 0.0, "name": "cb8ca0e4fbc68444d42bf604dce6725a", "is_disabled": 0, "rental_uris": {"android": "https://dc.lft.to/lastmile_qr_scan", "ios": "https://dc.lft.to/lastmile_qr_scan"}, "fusion_lon": 0.0, "lat": 38.93229933333333, "bike_id": "cb8ca0e4fbc68444d42bf604dce6725a", "type": "electric_scooter", "is_reserved": 0, "lon": -77.02837833333334}, {"fusion_lat": 0.0, "name": "94103f7f0eb085711e47f5691198ee47", "is_disabled": 0, "rental_uris": {"android": "https://dc.lft.to/lastmile_qr_scan", "ios": "https://dc.lft.to/lastmile_qr_scan"}, "fusion_lon": 0.0, "lat": 38.907508, "bike_id": "94103f7f0eb085711e47f5691198ee47", "type": "electric_scooter", "is_reserved": 0, "lon": -77.03854866666667}, {"fusion_lat": 0.0, "name": "200ea02a0dbf5ea3d28a1391e12b620e", "is_disabled": 0, "rental_uris": {"android": "https://dc.lft.to/lastmile_qr_scan", "ios": "https://dc.lft.to/lastmile_qr_scan"}, "fusion_lon": 0.0, "lat": 38.845045166666665, "bike_id": "200ea02a0dbf5ea3d28a1391e12b620e", "type": "electric_bike", "is_reserved": 0, "lon": -76.99353566666667}, {"fusion_lat": 0.0, "name": "3fb7ac5a50140867b61fbe53c16d6655", "is_disabled": 0, "rental_uris": {"android": "https://dc.lft.to/lastmile_qr_scan", "ios": "https://dc.lft.to/lastmile_qr_scan"}, "fusion_lon": 0.0, "lat": 38.90730166666667, "bike_id": "3fb7ac5a50140867b61fbe53c16d6655", "type": "electric_scooter", "is_reserved": 0, "lon": -77.04342683333333}, {"fusion_lat": 0.0, "name": "d824416d1d70b3b9e7c71d5600780bc2", "is_disabled": 0, "rental_uris": {"android": "https://dc.lft.to/lastmile_qr_scan", "ios": "https://dc.lft.to/lastmile_qr_scan"}, "fusion_lon": 0.0, "lat": 38.923809, "bike_id": "d824416d1d70b3b9e7c71d5600780bc2", "type": "electric_scooter", "is_reserved": 0, "lon": -77.07537433333333}, {"fusion_lat": 0.0, "name": "fb22bd29cbbb67c099ab9cf000909ee8", "is_disabled": 0, "rental_uris": {"android": "https://dc.lft.to/lastmile_qr_scan", "ios": "https://dc.lft.to/lastmile_qr_scan"}, "fusion_lon": 0.0, "lat": 38.90411116666667, "bike_id": "fb22bd29cbbb67c099ab9cf000909ee8", "type": "electric_scooter", "is_reserved": 0, "lon": -77.023872}, {"fusion_lat": 0.0, "name": "088303d9c7f2cbbc26d3d4a0ed0d47fd", "is_disabled": 0, "rental_uris": {"android": "https://dc.lft.to/lastmile_qr_scan", "ios": "https://dc.lft.to/lastmile_qr_scan"}, "fusion_lon": 0.0, "lat": 38.9169285, "bike_id": "088303d9c7f2cbbc26d3d4a0ed0d47fd", "type": "electric_scooter", "is_reserved": 0, "lon": -77.01165016666667}, {"fusion_lat": 0.0, "name": "13c89b1849f8205e237a0a3ce9f3cad1", "is_disabled": 0, "rental_uris": {"android": "https://dc.lft.to/lastmile_qr_scan", "ios": "https://dc.lft.to/lastmile_qr_scan"}, "fusion_lon": 0.0, "lat": 38.90379933333333, "bike_id": "13c89b1849f8205e237a0a3ce9f3cad1", "type": "electric_scooter", "is_reserved": 0, "lon": -77.03170783333333}, {"fusion_lat": 0.0, "name": "693fc6f94599791295381271a4af86aa", "is_disabled": 0, "rental_uris": {"android": "https://dc.lft.to/lastmile_qr_scan", "ios": "https://dc.lft.to/lastmile_qr_scan"}, "fusion_lon": 0.0, "lat": 38.892273333333335, "bike_id": "693fc6f94599791295381271a4af86aa", "type": "electric_scooter", "is_reserved": 0, "lon": -77.02825516666667}, {"fusion_lat": 0.0, "name": "349d90abab26b82cc0d0605bf081aa6f", "is_disabled": 0, "rental_uris": {"android": "https://dc.lft.to/lastmile_qr_scan", "ios": "https://dc.lft.to/lastmile_qr_scan"}, "fusion_lon": 0.0, "lat": 38.9298135, "bike_id": "349d90abab26b82cc0d0605bf081aa6f", "type": "electric_scooter", "is_reserved": 0, "lon": -77.01972683333334}, {"fusion_lat": 0.0, "name": "8d5398f3b2df53633c73db065c64c83e", "is_disabled": 0, "rental_uris": {"android": "https://dc.lft.to/lastmile_qr_scan", "ios": "https://dc.lft.to/lastmile_qr_scan"}, "fusion_lon": 0.0, "lat": 38.91595783333333, "bike_id": "8d5398f3b2df53633c73db065c64c83e", "type": "electric_scooter", "is_reserved": 0, "lon": -77.022029}, {"fusion_lat": 0.0, "name": "6bf8d185fbd28017805e20895a3c7fb6", "is_disabled": 0, "rental_uris": {"android": "https://dc.lft.to/lastmile_qr_scan", "ios": "https://dc.lft.to/lastmile_qr_scan"}, "fusion_lon": 0.0, "lat": 38.884122, "bike_id": "6bf8d185fbd28017805e20895a3c7fb6", "type": "electric_bike", "is_reserved": 0, "lon": -76.95417066666667}, {"fusion_lat": 0.0, "name": "d96bb5aa9af48544b997cc4adaaaab48", "is_disabled": 0, "rental_uris": {"android": "https://dc.lft.to/lastmile_qr_scan", "ios": "https://dc.lft.to/lastmile_qr_scan"}, "fusion_lon": 0.0, "lat": 38.901273833333335, "bike_id": "d96bb5aa9af48544b997cc4adaaaab48", "type": "electric_scooter", "is_reserved": 0, "lon": -77.0392355}, {"fusion_lat": 0.0, "name": "7a6deefff0bf917c23829a68c0e4a0fa", "is_disabled": 0, "rental_uris": {"android": "https://dc.lft.to/lastmile_qr_scan", "ios": "https://dc.lft.to/lastmile_qr_scan"}, "fusion_lon": 0.0, "lat": 38.920519, "bike_id": "7a6deefff0bf917c23829a68c0e4a0fa", "type": "electric_scooter", "is_reserved": 0, "lon": -77.0219745}, {"fusion_lat": 0.0, "name": "3bd6503482a4b1034d0b0011decfff2c", "is_disabled": 0, "rental_uris": {"android": "https://dc.lft.to/lastmile_qr_scan", "ios": "https://dc.lft.to/lastmile_qr_scan"}, "fusion_lon": 0.0, "lat": 38.951806166666664, "bike_id": "3bd6503482a4b1034d0b0011decfff2c", "type": "electric_scooter", "is_reserved": 0, "lon": -77.02725716666667}, {"fusion_lat": 0.0, "name": "8227b6d8a5bdfe61f29b7b48c2a46116", "is_disabled": 0, "rental_uris": {"android": "https://dc.lft.to/lastmile_qr_scan", "ios": "https://dc.lft.to/lastmile_qr_scan"}, "fusion_lon": 0.0, "lat": 38.8793565, "bike_id": "8227b6d8a5bdfe61f29b7b48c2a46116", "type": "electric_scooter", "is_reserved": 0, "lon": -77.00926283333334}, {"fusion_lat": 0.0, "name": "ba574a3d63092821a38e06249189671d", "is_disabled": 0, "rental_uris": {"android": "https://dc.lft.to/lastmile_qr_scan", "ios": "https://dc.lft.to/lastmile_qr_scan"}, "fusion_lon": 0.0, "lat": 38.87792866666667, "bike_id": "ba574a3d63092821a38e06249189671d", "type": "electric_scooter", "is_reserved": 0, "lon": -77.00123483333333}, {"fusion_lat": 0.0, "name": "e8da481003c5ba35663a1090a6f6b468", "is_disabled": 0, "rental_uris": {"android": "https://dc.lft.to/lastmile_qr_scan", "ios": "https://dc.lft.to/lastmile_qr_scan"}, "fusion_lon": 0.0, "lat": 38.93734333333333, "bike_id": "e8da481003c5ba35663a1090a6f6b468", "type": "electric_bike", "is_reserved": 0, "lon": -76.972278}, {"fusion_lat": 0.0, "name": "4d60cd593acffe6cc9fd9c5bd86256d1", "is_disabled": 0, "rental_uris": {"android": "https://dc.lft.to/lastmile_qr_scan", "ios": "https://dc.lft.to/lastmile_qr_scan"}, "fusion_lon": 0.0, "lat": 38.887092, "bike_id": "4d60cd593acffe6cc9fd9c5bd86256d1", "type": "electric_scooter", "is_reserved": 0, "lon": -76.996748}, {"fusion_lat": 0.0, "name": "0eb4d7dbaf0b246c2c2ef108e1b0f3d2", "is_disabled": 0, "rental_uris": {"android": "https://dc.lft.to/lastmile_qr_scan", "ios": "https://dc.lft.to/lastmile_qr_scan"}, "fusion_lon": 0.0, "lat": 38.897596666666665, "bike_id": "0eb4d7dbaf0b246c2c2ef108e1b0f3d2", "type": "electric_scooter", "is_reserved": 0, "lon": -77.04419633333333}, {"fusion_lat": 0.0, "name": "a555148ebe925bde024a07c3dfa3e814", "is_disabled": 0, "rental_uris": {"android": "https://dc.lft.to/lastmile_qr_scan", "ios": "https://dc.lft.to/lastmile_qr_scan"}, "fusion_lon": 0.0, "lat": 38.907876333333334, "bike_id": "a555148ebe925bde024a07c3dfa3e814", "type": "electric_scooter", "is_reserved": 0, "lon": -77.04342883333334}, {"fusion_lat": 0.0, "name": "a245a1114a5b5c4aab68f0ef099cf5cb", "is_disabled": 0, "rental_uris": {"android": "https://dc.lft.to/lastmile_qr_scan", "ios": "https://dc.lft.to/lastmile_qr_scan"}, "fusion_lon": 0.0, "lat": 38.892202166666664, "bike_id": "a245a1114a5b5c4aab68f0ef099cf5cb", "type": "electric_scooter", "is_reserved": 0, "lon": -77.04686916666667}, {"fusion_lat": 0.0, "name": "00b33df139714d53f7186afa443ecde0", "is_disabled": 0, "rental_uris": {"android": "https://dc.lft.to/lastmile_qr_scan", "ios": "https://dc.lft.to/lastmile_qr_scan"}, "fusion_lon": 0.0, "lat": 38.8852105, "bike_id": "00b33df139714d53f7186afa443ecde0", "type": "electric_scooter", "is_reserved": 0, "lon": -76.92918333333333}, {"fusion_lat": 0.0, "name": "908c480a8b5c08c33b9bb7579f1708df", "is_disabled": 0, "rental_uris": {"android": "https://dc.lft.to/lastmile_qr_scan", "ios": "https://dc.lft.to/lastmile_qr_scan"}, "fusion_lon": 0.0, "lat": 38.89221283333333, "bike_id": "908c480a8b5c08c33b9bb7579f1708df", "type": "electric_scooter", "is_reserved": 0, "lon": -77.03337666666667}, {"fusion_lat": 0.0, "name": "94a641a3b190eb3cb8ee735df56592ce", "is_disabled": 0, "rental_uris": {"android": "https://dc.lft.to/lastmile_qr_scan", "ios": "https://dc.lft.to/lastmile_qr_scan"}, "fusion_lon": 0.0, "lat": 38.87576933333333, "bike_id": "94a641a3b190eb3cb8ee735df56592ce", "type": "electric_bike", "is_reserved": 0, "lon": -77.23409016666666}, {"fusion_lat": 0.0, "name": "af6e4dec00feed7f2513f69a1e7b1e8b", "is_disabled": 0, "rental_uris": {"android": "https://dc.lft.to/lastmile_qr_scan", "ios": "https://dc.lft.to/lastmile_qr_scan"}, "fusion_lon": 0.0, "lat": 38.93693366666667, "bike_id": "af6e4dec00feed7f2513f69a1e7b1e8b", "type": "electric_scooter", "is_reserved": 0, "lon": -77.0325925}, {"fusion_lat": 0.0, "name": "cfeb251104f7535e10f516c823c5b1c9", "is_disabled": 0, "rental_uris": {"android": "https://dc.lft.to/lastmile_qr_scan", "ios": "https://dc.lft.to/lastmile_qr_scan"}, "fusion_lon": 0.0, "lat": 38.921348333333334, "bike_id": "cfeb251104f7535e10f516c823c5b1c9", "type": "electric_scooter", "is_reserved": 0, "lon": -77.01802233333333}, {"fusion_lat": 0.0, "name": "088e9b0051c436f0b9f1545016c3b241", "is_disabled": 0, "rental_uris": {"android": "https://dc.lft.to/lastmile_qr_scan", "ios": "https://dc.lft.to/lastmile_qr_scan"}, "fusion_lon": 0.0, "lat": 38.898269666666664, "bike_id": "088e9b0051c436f0b9f1545016c3b241", "type": "electric_scooter", "is_reserved": 0, "lon": -76.94651516666667}, {"fusion_lat": 0.0, "name": "025ff7fbfadb0e6eeb976417accbb424", "is_disabled": 0, "rental_uris": {"android": "https://dc.lft.to/lastmile_qr_scan", "ios": "https://dc.lft.to/lastmile_qr_scan"}, "fusion_lon": 0.0, "lat": 38.9171365, "bike_id": "025ff7fbfadb0e6eeb976417accbb424", "type": "electric_scooter", "is_reserved": 0, "lon": -77.03242216666666}, {"fusion_lat": 0.0, "name": "e5eee45f34cf90d1f5c31fbbe7909624", "is_disabled": 0, "rental_uris": {"android": "https://dc.lft.to/lastmile_qr_scan", "ios": "https://dc.lft.to/lastmile_qr_scan"}, "fusion_lon": 0.0, "lat": 38.91939266666667, "bike_id": "e5eee45f34cf90d1f5c31fbbe7909624", "type": "electric_scooter", "is_reserved": 0, "lon": -77.025163}, {"fusion_lat": 0.0, "name": "010ed7dc669fe66881a50b8eda03336e", "is_disabled": 0, "rental_uris": {"android": "https://dc.lft.to/lastmile_qr_scan", "ios": "https://dc.lft.to/lastmile_qr_scan"}, "fusion_lon": 0.0, "lat": 38.89907216666667, "bike_id": "010ed7dc669fe66881a50b8eda03336e", "type": "electric_scooter", "is_reserved": 0, "lon": -76.93354016666666}, {"fusion_lat": 0.0, "name": "79d79e99e69eaf2195d5e613bdcd349a", "is_disabled": 0, "rental_uris": {"android": "https://dc.lft.to/lastmile_qr_scan", "ios": "https://dc.lft.to/lastmile_qr_scan"}, "fusion_lon": 0.0, "lat": 38.89613116666666, "bike_id": "79d79e99e69eaf2195d5e613bdcd349a", "type": "electric_scooter", "is_reserved": 0, "lon": -77.03244533333333}, {"fusion_lat": 0.0, "name": "fcca178dca62f05f178f700b0d2d1d2e", "is_disabled": 0, "rental_uris": {"android": "https://dc.lft.to/lastmile_qr_scan", "ios": "https://dc.lft.to/lastmile_qr_scan"}, "fusion_lon": 0.0, "lat": 38.950566333333335, "bike_id": "fcca178dca62f05f178f700b0d2d1d2e", "type": "electric_scooter", "is_reserved": 0, "lon": -77.08025266666667}, {"fusion_lat": 0.0, "name": "ee96f68ead3048c264b939809828ed3a", "is_disabled": 0, "rental_uris": {"android": "https://dc.lft.to/lastmile_qr_scan", "ios": "https://dc.lft.to/lastmile_qr_scan"}, "fusion_lon": 0.0, "lat": 38.89668133333333, "bike_id": "ee96f68ead3048c264b939809828ed3a", "type": "electric_scooter", "is_reserved": 0, "lon": -77.05130316666667}, {"fusion_lat": 0.0, "name": "66e7ab21824efc080ebdd887bc2e1eb5", "is_disabled": 0, "rental_uris": {"android": "https://dc.lft.to/lastmile_qr_scan", "ios": "https://dc.lft.to/lastmile_qr_scan"}, "fusion_lon": 0.0, "lat": 38.924453166666666, "bike_id": "66e7ab21824efc080ebdd887bc2e1eb5", "type": "electric_scooter", "is_reserved": 0, "lon": -77.008775}, {"fusion_lat": 0.0, "name": "f449dd81b9076a9890331a17fa440551", "is_disabled": 0, "rental_uris": {"android": "https://dc.lft.to/lastmile_qr_scan", "ios": "https://dc.lft.to/lastmile_qr_scan"}, "fusion_lon": 0.0, "lat": 38.906958833333334, "bike_id": "f449dd81b9076a9890331a17fa440551", "type": "electric_scooter", "is_reserved": 0, "lon": -77.06532866666667}, {"fusion_lat": 0.0, "name": "1a4d4dda5851808911aab0e064ed30f7", "is_disabled": 0, "rental_uris": {"android": "https://dc.lft.to/lastmile_qr_scan", "ios": "https://dc.lft.to/lastmile_qr_scan"}, "fusion_lon": 0.0, "lat": 38.9232095, "bike_id": "1a4d4dda5851808911aab0e064ed30f7", "type": "electric_scooter", "is_reserved": 0, "lon": -77.029587}, {"fusion_lat": 0.0, "name": "782fe469ace1a518ef1415e936426661", "is_disabled": 0, "rental_uris": {"android": "https://dc.lft.to/lastmile_qr_scan", "ios": "https://dc.lft.to/lastmile_qr_scan"}, "fusion_lon": 0.0, "lat": 39.038968833333335, "bike_id": "782fe469ace1a518ef1415e936426661", "type": "electric_bike", "is_reserved": 0, "lon": -77.0504005}, {"fusion_lat": 0.0, "name": "18d062f2c749566ef5dcc38cfaeb5621", "is_disabled": 0, "rental_uris": {"android": "https://dc.lft.to/lastmile_qr_scan", "ios": "https://dc.lft.to/lastmile_qr_scan"}, "fusion_lon": 0.0, "lat": 38.883133666666666, "bike_id": "18d062f2c749566ef5dcc38cfaeb5621", "type": "electric_scooter", "is_reserved": 0, "lon": -77.01381333333333}, {"fusion_lat": 0.0, "name": "3c4b8deb86fb0fc0211025df58d8d95e", "is_disabled": 0, "rental_uris": {"android": "https://dc.lft.to/lastmile_qr_scan", "ios": "https://dc.lft.to/lastmile_qr_scan"}, "fusion_lon": 0.0, "lat": 38.923383333333334, "bike_id": "3c4b8deb86fb0fc0211025df58d8d95e", "type": "electric_scooter", "is_reserved": 0, "lon": -77.04139166666667}, {"fusion_lat": 0.0, "name": "f7978649658986c8d3cb8d738b809864", "is_disabled": 0, "rental_uris": {"android": "https://dc.lft.to/lastmile_qr_scan", "ios": "https://dc.lft.to/lastmile_qr_scan"}, "fusion_lon": 0.0, "lat": 38.9025835, "bike_id": "f7978649658986c8d3cb8d738b809864", "type": "electric_scooter", "is_reserved": 0, "lon": -77.04355566666666}, {"fusion_lat": 0.0, "name": "5cc5d23f778e63dd78c2356794670b5a", "is_disabled": 0, "rental_uris": {"android": "https://dc.lft.to/lastmile_qr_scan", "ios": "https://dc.lft.to/lastmile_qr_scan"}, "fusion_lon": 0.0, "lat": 38.97256616666667, "bike_id": "5cc5d23f778e63dd78c2356794670b5a", "type": "electric_bike", "is_reserved": 0, "lon": -76.99278833333334}, {"fusion_lat": 0.0, "name": "f9d5c2216d47be122cdfae7d235d74b1", "is_disabled": 0, "rental_uris": {"android": "https://dc.lft.to/lastmile_qr_scan", "ios": "https://dc.lft.to/lastmile_qr_scan"}, "fusion_lon": 0.0, "lat": 38.899400666666665, "bike_id": "f9d5c2216d47be122cdfae7d235d74b1", "type": "electric_scooter", "is_reserved": 0, "lon": -76.9972615}, {"fusion_lat": 0.0, "name": "6fe3a5307cc182b17bd20cd5e1e08359", "is_disabled": 0, "rental_uris": {"android": "https://dc.lft.to/lastmile_qr_scan", "ios": "https://dc.lft.to/lastmile_qr_scan"}, "fusion_lon": 0.0, "lat": 38.884742333333335, "bike_id": "6fe3a5307cc182b17bd20cd5e1e08359", "type": "electric_scooter", "is_reserved": 0, "lon": -76.9967025}, {"fusion_lat": 0.0, "name": "11c358f4de788d77d46ec50ebad9cd84", "is_disabled": 0, "rental_uris": {"android": "https://dc.lft.to/lastmile_qr_scan", "ios": "https://dc.lft.to/lastmile_qr_scan"}, "fusion_lon": 0.0, "lat": 38.9211095, "bike_id": "11c358f4de788d77d46ec50ebad9cd84", "type": "electric_scooter", "is_reserved": 0, "lon": -77.04205166666667}, {"fusion_lat": 0.0, "name": "037ecb3fe4450e5432254cdbd0a1bff5", "is_disabled": 0, "rental_uris": {"android": "https://dc.lft.to/lastmile_qr_scan", "ios": "https://dc.lft.to/lastmile_qr_scan"}, "fusion_lon": 0.0, "lat": 38.934306166666666, "bike_id": "037ecb3fe4450e5432254cdbd0a1bff5", "type": "electric_scooter", "is_reserved": 0, "lon": -77.04003316666666}, {"fusion_lat": 0.0, "name": "f203670a771b4676875f2b0803e8a8c3", "is_disabled": 0, "rental_uris": {"android": "https://dc.lft.to/lastmile_qr_scan", "ios": "https://dc.lft.to/lastmile_qr_scan"}, "fusion_lon": 0.0, "lat": 38.83544883333333, "bike_id": "f203670a771b4676875f2b0803e8a8c3", "type": "electric_bike", "is_reserved": 0, "lon": -76.98731033333334}, {"fusion_lat": 0.0, "name": "3ca1d904457642da5da03d540d34c6aa", "is_disabled": 0, "rental_uris": {"android": "https://dc.lft.to/lastmile_qr_scan", "ios": "https://dc.lft.to/lastmile_qr_scan"}, "fusion_lon": 0.0, "lat": 38.900620333333336, "bike_id": "3ca1d904457642da5da03d540d34c6aa", "type": "electric_scooter", "is_reserved": 0, "lon": -76.93385033333334}, {"fusion_lat": 0.0, "name": "2e95c552893fcec77f2c653e30e29bc7", "is_disabled": 0, "rental_uris": {"android": "https://dc.lft.to/lastmile_qr_scan", "ios": "https://dc.lft.to/lastmile_qr_scan"}, "fusion_lon": 0.0, "lat": 38.922266666666665, "bike_id": "2e95c552893fcec77f2c653e30e29bc7", "type": "electric_scooter", "is_reserved": 0, "lon": -77.042605}, {"fusion_lat": 0.0, "name": "5aed71aa6c34a541f07a429628cf759f", "is_disabled": 0, "rental_uris": {"android": "https://dc.lft.to/lastmile_qr_scan", "ios": "https://dc.lft.to/lastmile_qr_scan"}, "fusion_lon": 0.0, "lat": 38.88612416666667, "bike_id": "5aed71aa6c34a541f07a429628cf759f", "type": "electric_scooter", "is_reserved": 0, "lon": -77.01557683333333}, {"fusion_lat": 0.0, "name": "0cc691c4e090fb19f9cfa99785f5efed", "is_disabled": 0, "rental_uris": {"android": "https://dc.lft.to/lastmile_qr_scan", "ios": "https://dc.lft.to/lastmile_qr_scan"}, "fusion_lon": 0.0, "lat": 38.9085895, "bike_id": "0cc691c4e090fb19f9cfa99785f5efed", "type": "electric_scooter", "is_reserved": 0, "lon": -77.04292766666667}, {"fusion_lat": 0.0, "name": "c60907b35e28a720be20af0fdf38cec0", "is_disabled": 0, "rental_uris": {"android": "https://dc.lft.to/lastmile_qr_scan", "ios": "https://dc.lft.to/lastmile_qr_scan"}, "fusion_lon": 0.0, "lat": 38.891145, "bike_id": "c60907b35e28a720be20af0fdf38cec0", "type": "electric_scooter", "is_reserved": 0, "lon": -76.94382333333333}, {"fusion_lat": 0.0, "name": "77022c21e08ef52cb8b24cf0c4cd48e0", "is_disabled": 0, "rental_uris": {"android": "https://dc.lft.to/lastmile_qr_scan", "ios": "https://dc.lft.to/lastmile_qr_scan"}, "fusion_lon": 0.0, "lat": 38.896969666666664, "bike_id": "77022c21e08ef52cb8b24cf0c4cd48e0", "type": "electric_scooter", "is_reserved": 0, "lon": -77.04352933333334}, {"fusion_lat": 0.0, "name": "8a2931bb4e7400c6361beb198a80cbe5", "is_disabled": 0, "rental_uris": {"android": "https://dc.lft.to/lastmile_qr_scan", "ios": "https://dc.lft.to/lastmile_qr_scan"}, "fusion_lon": 0.0, "lat": 38.91125266666667, "bike_id": "8a2931bb4e7400c6361beb198a80cbe5", "type": "electric_scooter", "is_reserved": 0, "lon": -77.02091466666667}, {"fusion_lat": 0.0, "name": "e2276fe594c9297e688798af5720e0a4", "is_disabled": 0, "rental_uris": {"android": "https://dc.lft.to/lastmile_qr_scan", "ios": "https://dc.lft.to/lastmile_qr_scan"}, "fusion_lon": 0.0, "lat": 38.89733316666667, "bike_id": "e2276fe594c9297e688798af5720e0a4", "type": "electric_bike", "is_reserved": 0, "lon": -76.92046383333333}, {"fusion_lat": 0.0, "name": "487e149038a81b71a5d4533711e61ee7", "is_disabled": 0, "rental_uris": {"android": "https://dc.lft.to/lastmile_qr_scan", "ios": "https://dc.lft.to/lastmile_qr_scan"}, "fusion_lon": 0.0, "lat": 38.9699125, "bike_id": "487e149038a81b71a5d4533711e61ee7", "type": "electric_scooter", "is_reserved": 0, "lon": -77.01159283333334}, {"fusion_lat": 0.0, "name": "a05e736051328019803f6b1f86e3e046", "is_disabled": 0, "rental_uris": {"android": "https://dc.lft.to/lastmile_qr_scan", "ios": "https://dc.lft.to/lastmile_qr_scan"}, "fusion_lon": 0.0, "lat": 38.892241166666665, "bike_id": "a05e736051328019803f6b1f86e3e046", "type": "electric_scooter", "is_reserved": 0, "lon": -77.03339466666667}, {"fusion_lat": 0.0, "name": "4128225944817a95d16a44014a3c5344", "is_disabled": 0, "rental_uris": {"android": "https://dc.lft.to/lastmile_qr_scan", "ios": "https://dc.lft.to/lastmile_qr_scan"}, "fusion_lon": 0.0, "lat": 38.91108083333334, "bike_id": "4128225944817a95d16a44014a3c5344", "type": "electric_scooter", "is_reserved": 0, "lon": -77.02908416666666}, {"fusion_lat": 0.0, "name": "73f1f8ab51237180262bd4c450961998", "is_disabled": 0, "rental_uris": {"android": "https://dc.lft.to/lastmile_qr_scan", "ios": "https://dc.lft.to/lastmile_qr_scan"}, "fusion_lon": 0.0, "lat": 38.9111755, "bike_id": "73f1f8ab51237180262bd4c450961998", "type": "electric_scooter", "is_reserved": 0, "lon": -77.04467266666667}, {"fusion_lat": 0.0, "name": "365926a4ff59c2d24817c15072b97ad6", "is_disabled": 0, "rental_uris": {"android": "https://dc.lft.to/lastmile_qr_scan", "ios": "https://dc.lft.to/lastmile_qr_scan"}, "fusion_lon": 0.0, "lat": 38.89731, "bike_id": "365926a4ff59c2d24817c15072b97ad6", "type": "electric_scooter", "is_reserved": 0, "lon": -77.00374033333334}, {"fusion_lat": 0.0, "name": "48545bde81033ab4cd46e0932a85e260", "is_disabled": 0, "rental_uris": {"android": "https://dc.lft.to/lastmile_qr_scan", "ios": "https://dc.lft.to/lastmile_qr_scan"}, "fusion_lon": 0.0, "lat": 38.961810166666666, "bike_id": "48545bde81033ab4cd46e0932a85e260", "type": "electric_bike", "is_reserved": 0, "lon": -77.05268433333333}, {"fusion_lat": 0.0, "name": "55b5898e0f6379694266ce8b7d09992e", "is_disabled": 0, "rental_uris": {"android": "https://dc.lft.to/lastmile_qr_scan", "ios": "https://dc.lft.to/lastmile_qr_scan"}, "fusion_lon": 0.0, "lat": 38.9305765, "bike_id": "55b5898e0f6379694266ce8b7d09992e", "type": "electric_scooter", "is_reserved": 0, "lon": -77.04049466666666}, {"fusion_lat": 0.0, "name": "f126209c87d3853b356f78cbed4367b7", "is_disabled": 0, "rental_uris": {"android": "https://dc.lft.to/lastmile_qr_scan", "ios": "https://dc.lft.to/lastmile_qr_scan"}, "fusion_lon": 0.0, "lat": 38.974615166666666, "bike_id": "f126209c87d3853b356f78cbed4367b7", "type": "electric_scooter", "is_reserved": 0, "lon": -77.0131815}, {"fusion_lat": 0.0, "name": "7cd781a2c88619c4655a36b8814fda2f", "is_disabled": 0, "rental_uris": {"android": "https://dc.lft.to/lastmile_qr_scan", "ios": "https://dc.lft.to/lastmile_qr_scan"}, "fusion_lon": 0.0, "lat": 38.919055166666666, "bike_id": "7cd781a2c88619c4655a36b8814fda2f", "type": "electric_scooter", "is_reserved": 0, "lon": -77.00215766666666}, {"fusion_lat": 0.0, "name": "6a2bf916f9d94f6903daa92d9583ac7f", "is_disabled": 0, "rental_uris": {"android": "https://dc.lft.to/lastmile_qr_scan", "ios": "https://dc.lft.to/lastmile_qr_scan"}, "fusion_lon": 0.0, "lat": 38.909157666666665, "bike_id": "6a2bf916f9d94f6903daa92d9583ac7f", "type": "electric_scooter", "is_reserved": 0, "lon": -77.07298783333333}, {"fusion_lat": 0.0, "name": "ad990093d052d3967260ca8b54927326", "is_disabled": 0, "rental_uris": {"android": "https://dc.lft.to/lastmile_qr_scan", "ios": "https://dc.lft.to/lastmile_qr_scan"}, "fusion_lon": 0.0, "lat": 38.9002785, "bike_id": "ad990093d052d3967260ca8b54927326", "type": "electric_scooter", "is_reserved": 0, "lon": -77.00742783333334}, {"fusion_lat": 0.0, "name": "6a723d0ab4c06caabb8b437757af9148", "is_disabled": 0, "rental_uris": {"android": "https://dc.lft.to/lastmile_qr_scan", "ios": "https://dc.lft.to/lastmile_qr_scan"}, "fusion_lon": 0.0, "lat": 38.917810333333335, "bike_id": "6a723d0ab4c06caabb8b437757af9148", "type": "electric_scooter", "is_reserved": 0, "lon": -77.02306233333333}, {"fusion_lat": 0.0, "name": "28d2740cf124981e197c7d307e639a8c", "is_disabled": 0, "rental_uris": {"android": "https://dc.lft.to/lastmile_qr_scan", "ios": "https://dc.lft.to/lastmile_qr_scan"}, "fusion_lon": 0.0, "lat": 38.88765383333333, "bike_id": "28d2740cf124981e197c7d307e639a8c", "type": "electric_scooter", "is_reserved": 0, "lon": -76.97753366666667}, {"fusion_lat": 0.0, "name": "a872df996f2b9550aafefa98e0222e66", "is_disabled": 0, "rental_uris": {"android": "https://dc.lft.to/lastmile_qr_scan", "ios": "https://dc.lft.to/lastmile_qr_scan"}, "fusion_lon": 0.0, "lat": 38.90953066666667, "bike_id": "a872df996f2b9550aafefa98e0222e66", "type": "electric_scooter", "is_reserved": 0, "lon": -76.98552983333333}, {"fusion_lat": 0.0, "name": "0bdc87fe20550ecd9add91bf010a5a01", "is_disabled": 0, "rental_uris": {"android": "https://dc.lft.to/lastmile_qr_scan", "ios": "https://dc.lft.to/lastmile_qr_scan"}, "fusion_lon": 0.0, "lat": 38.913523, "bike_id": "0bdc87fe20550ecd9add91bf010a5a01", "type": "electric_scooter", "is_reserved": 0, "lon": -77.04566766666667}, {"fusion_lat": 0.0, "name": "2cc732241126d0ed232d1c29ad2ed888", "is_disabled": 0, "rental_uris": {"android": "https://dc.lft.to/lastmile_qr_scan", "ios": "https://dc.lft.to/lastmile_qr_scan"}, "fusion_lon": 0.0, "lat": 38.92386316666666, "bike_id": "2cc732241126d0ed232d1c29ad2ed888", "type": "electric_scooter", "is_reserved": 0, "lon": -77.0366335}, {"fusion_lat": 0.0, "name": "7238118435834b0dee1b0e4e7e7b564d", "is_disabled": 0, "rental_uris": {"android": "https://dc.lft.to/lastmile_qr_scan", "ios": "https://dc.lft.to/lastmile_qr_scan"}, "fusion_lon": 0.0, "lat": 38.9026095, "bike_id": "7238118435834b0dee1b0e4e7e7b564d", "type": "electric_scooter", "is_reserved": 0, "lon": -77.0395415}, {"fusion_lat": 0.0, "name": "1f4b1cbed73a49d764924b5600ec331a", "is_disabled": 0, "rental_uris": {"android": "https://dc.lft.to/lastmile_qr_scan", "ios": "https://dc.lft.to/lastmile_qr_scan"}, "fusion_lon": 0.0, "lat": 38.911945, "bike_id": "1f4b1cbed73a49d764924b5600ec331a", "type": "electric_scooter", "is_reserved": 0, "lon": -77.0424755}, {"fusion_lat": 0.0, "name": "0380aa2236063f4da1a8661e126cfc4e", "is_disabled": 0, "rental_uris": {"android": "https://dc.lft.to/lastmile_qr_scan", "ios": "https://dc.lft.to/lastmile_qr_scan"}, "fusion_lon": 0.0, "lat": 38.87682483333333, "bike_id": "0380aa2236063f4da1a8661e126cfc4e", "type": "electric_scooter", "is_reserved": 0, "lon": -77.00763383333333}, {"fusion_lat": 0.0, "name": "32fcee359f54a426840407f56c670d5c", "is_disabled": 0, "rental_uris": {"android": "https://dc.lft.to/lastmile_qr_scan", "ios": "https://dc.lft.to/lastmile_qr_scan"}, "fusion_lon": 0.0, "lat": 38.908640166666665, "bike_id": "32fcee359f54a426840407f56c670d5c", "type": "electric_scooter", "is_reserved": 0, "lon": -77.08589433333333}, {"fusion_lat": 0.0, "name": "d3dae17cee33f6360be56da55cbc26d7", "is_disabled": 0, "rental_uris": {"android": "https://dc.lft.to/lastmile_qr_scan", "ios": "https://dc.lft.to/lastmile_qr_scan"}, "fusion_lon": 0.0, "lat": 38.878823833333335, "bike_id": "d3dae17cee33f6360be56da55cbc26d7", "type": "electric_scooter", "is_reserved": 0, "lon": -77.02235616666667}, {"fusion_lat": 0.0, "name": "7760468a226921747b6eb01b49cc2939", "is_disabled": 0, "rental_uris": {"android": "https://dc.lft.to/lastmile_qr_scan", "ios": "https://dc.lft.to/lastmile_qr_scan"}, "fusion_lon": 0.0, "lat": 38.96142666666667, "bike_id": "7760468a226921747b6eb01b49cc2939", "type": "electric_scooter", "is_reserved": 0, "lon": -77.07365566666667}, {"fusion_lat": 0.0, "name": "fa0fd7493c1203e66a223d53f2c8eaa1", "is_disabled": 0, "rental_uris": {"android": "https://dc.lft.to/lastmile_qr_scan", "ios": "https://dc.lft.to/lastmile_qr_scan"}, "fusion_lon": 0.0, "lat": 38.896111, "bike_id": "fa0fd7493c1203e66a223d53f2c8eaa1", "type": "electric_scooter", "is_reserved": 0, "lon": -76.94813733333334}, {"fusion_lat": 0.0, "name": "dcab58c6871c4de6a33a247895bf3192", "is_disabled": 0, "rental_uris": {"android": "https://dc.lft.to/lastmile_qr_scan", "ios": "https://dc.lft.to/lastmile_qr_scan"}, "fusion_lon": 0.0, "lat": 38.91703316666667, "bike_id": "dcab58c6871c4de6a33a247895bf3192", "type": "electric_scooter", "is_reserved": 0, "lon": -77.0421775}, {"fusion_lat": 0.0, "name": "5c4c466db5692d262a58769851d68ea5", "is_disabled": 0, "rental_uris": {"android": "https://dc.lft.to/lastmile_qr_scan", "ios": "https://dc.lft.to/lastmile_qr_scan"}, "fusion_lon": 0.0, "lat": 38.82459083333333, "bike_id": "5c4c466db5692d262a58769851d68ea5", "type": "electric_bike", "is_reserved": 0, "lon": -77.0079535}, {"fusion_lat": 0.0, "name": "8cdc07d16e1f91404cd993a9510b5446", "is_disabled": 0, "rental_uris": {"android": "https://dc.lft.to/lastmile_qr_scan", "ios": "https://dc.lft.to/lastmile_qr_scan"}, "fusion_lon": 0.0, "lat": 38.89910866666666, "bike_id": "8cdc07d16e1f91404cd993a9510b5446", "type": "electric_scooter", "is_reserved": 0, "lon": -77.03344916666667}, {"fusion_lat": 0.0, "name": "09aacd6c47ec1de618549c1996de7240", "is_disabled": 0, "rental_uris": {"android": "https://dc.lft.to/lastmile_qr_scan", "ios": "https://dc.lft.to/lastmile_qr_scan"}, "fusion_lon": 0.0, "lat": 38.895470333333336, "bike_id": "09aacd6c47ec1de618549c1996de7240", "type": "electric_scooter", "is_reserved": 0, "lon": -77.01212816666667}, {"fusion_lat": 0.0, "name": "808e3d5de8db09102579f3501c15caa6", "is_disabled": 0, "rental_uris": {"android": "https://dc.lft.to/lastmile_qr_scan", "ios": "https://dc.lft.to/lastmile_qr_scan"}, "fusion_lon": 0.0, "lat": 38.925110833333335, "bike_id": "808e3d5de8db09102579f3501c15caa6", "type": "electric_scooter", "is_reserved": 0, "lon": -76.99569683333333}, {"fusion_lat": 0.0, "name": "bce5dbfaabaa50eae98edab5656c8d24", "is_disabled": 0, "rental_uris": {"android": "https://dc.lft.to/lastmile_qr_scan", "ios": "https://dc.lft.to/lastmile_qr_scan"}, "fusion_lon": 0.0, "lat": 38.95640933333333, "bike_id": "bce5dbfaabaa50eae98edab5656c8d24", "type": "electric_scooter", "is_reserved": 0, "lon": -77.02411916666667}, {"fusion_lat": 0.0, "name": "b6d351a7240a5455362547a617ceeee5", "is_disabled": 0, "rental_uris": {"android": "https://dc.lft.to/lastmile_qr_scan", "ios": "https://dc.lft.to/lastmile_qr_scan"}, "fusion_lon": 0.0, "lat": 38.875483833333334, "bike_id": "b6d351a7240a5455362547a617ceeee5", "type": "electric_scooter", "is_reserved": 0, "lon": -77.00563533333333}, {"fusion_lat": 0.0, "name": "27651843284a0267e94d99b5f1265412", "is_disabled": 0, "rental_uris": {"android": "https://dc.lft.to/lastmile_qr_scan", "ios": "https://dc.lft.to/lastmile_qr_scan"}, "fusion_lon": 0.0, "lat": 38.91389216666666, "bike_id": "27651843284a0267e94d99b5f1265412", "type": "electric_scooter", "is_reserved": 0, "lon": -77.03321183333334}, {"fusion_lat": 0.0, "name": "f7d720b049524fd49e37e3310f3ca1c0", "is_disabled": 0, "rental_uris": {"android": "https://dc.lft.to/lastmile_qr_scan", "ios": "https://dc.lft.to/lastmile_qr_scan"}, "fusion_lon": 0.0, "lat": 38.911152333333334, "bike_id": "f7d720b049524fd49e37e3310f3ca1c0", "type": "electric_scooter", "is_reserved": 0, "lon": -77.03831716666667}, {"fusion_lat": 0.0, "name": "a6c85f53a8c4b16ea2809ffe871d54a1", "is_disabled": 0, "rental_uris": {"android": "https://dc.lft.to/lastmile_qr_scan", "ios": "https://dc.lft.to/lastmile_qr_scan"}, "fusion_lon": 0.0, "lat": 38.89903433333333, "bike_id": "a6c85f53a8c4b16ea2809ffe871d54a1", "type": "electric_scooter", "is_reserved": 0, "lon": -77.056707}, {"fusion_lat": 0.0, "name": "0c10daea886159d511563b50b6e61c69", "is_disabled": 0, "rental_uris": {"android": "https://dc.lft.to/lastmile_qr_scan", "ios": "https://dc.lft.to/lastmile_qr_scan"}, "fusion_lon": 0.0, "lat": 38.89060633333333, "bike_id": "0c10daea886159d511563b50b6e61c69", "type": "electric_scooter", "is_reserved": 0, "lon": -76.94450033333334}, {"fusion_lat": 0.0, "name": "3fc548a4742cd6481c4d518c1750756d", "is_disabled": 0, "rental_uris": {"android": "https://dc.lft.to/lastmile_qr_scan", "ios": "https://dc.lft.to/lastmile_qr_scan"}, "fusion_lon": 0.0, "lat": 38.9247755, "bike_id": "3fc548a4742cd6481c4d518c1750756d", "type": "electric_scooter", "is_reserved": 0, "lon": -77.0265115}, {"fusion_lat": 0.0, "name": "76fa2d5571958b61ecee9f8e030ae8fd", "is_disabled": 0, "rental_uris": {"android": "https://dc.lft.to/lastmile_qr_scan", "ios": "https://dc.lft.to/lastmile_qr_scan"}, "fusion_lon": 0.0, "lat": 38.901299333333334, "bike_id": "76fa2d5571958b61ecee9f8e030ae8fd", "type": "electric_scooter", "is_reserved": 0, "lon": -77.0025785}, {"fusion_lat": 0.0, "name": "c4709f782e516efccfa7fc0c5c547bc8", "is_disabled": 0, "rental_uris": {"android": "https://dc.lft.to/lastmile_qr_scan", "ios": "https://dc.lft.to/lastmile_qr_scan"}, "fusion_lon": 0.0, "lat": 38.891669, "bike_id": "c4709f782e516efccfa7fc0c5c547bc8", "type": "electric_scooter", "is_reserved": 0, "lon": -76.99464116666667}, {"fusion_lat": 0.0, "name": "83acc9d3b4558fa22482a22455953ad8", "is_disabled": 0, "rental_uris": {"android": "https://dc.lft.to/lastmile_qr_scan", "ios": "https://dc.lft.to/lastmile_qr_scan"}, "fusion_lon": 0.0, "lat": 38.89928333333334, "bike_id": "83acc9d3b4558fa22482a22455953ad8", "type": "electric_scooter", "is_reserved": 0, "lon": -77.00357183333334}, {"fusion_lat": 0.0, "name": "b55aa2eb40d714177ee666fad558a348", "is_disabled": 0, "rental_uris": {"android": "https://dc.lft.to/lastmile_qr_scan", "ios": "https://dc.lft.to/lastmile_qr_scan"}, "fusion_lon": 0.0, "lat": 38.931953666666665, "bike_id": "b55aa2eb40d714177ee666fad558a348", "type": "electric_scooter", "is_reserved": 0, "lon": -77.02796716666667}, {"fusion_lat": 0.0, "name": "fcd6f78ea482d54d902d9c84a6c661c9", "is_disabled": 0, "rental_uris": {"android": "https://dc.lft.to/lastmile_qr_scan", "ios": "https://dc.lft.to/lastmile_qr_scan"}, "fusion_lon": 0.0, "lat": 38.93142666666667, "bike_id": "fcd6f78ea482d54d902d9c84a6c661c9", "type": "electric_scooter", "is_reserved": 0, "lon": -77.02986533333333}, {"fusion_lat": 0.0, "name": "c3cf5e6804407e3b6e2f0c229b3716a4", "is_disabled": 0, "rental_uris": {"android": "https://dc.lft.to/lastmile_qr_scan", "ios": "https://dc.lft.to/lastmile_qr_scan"}, "fusion_lon": 0.0, "lat": 38.9274535, "bike_id": "c3cf5e6804407e3b6e2f0c229b3716a4", "type": "electric_scooter", "is_reserved": 0, "lon": -77.02533666666666}, {"fusion_lat": 0.0, "name": "c41527bf4e3bacd4eddad415e2d60b15", "is_disabled": 0, "rental_uris": {"android": "https://dc.lft.to/lastmile_qr_scan", "ios": "https://dc.lft.to/lastmile_qr_scan"}, "fusion_lon": 0.0, "lat": 38.898494, "bike_id": "c41527bf4e3bacd4eddad415e2d60b15", "type": "electric_scooter", "is_reserved": 0, "lon": -77.04160416666667}, {"fusion_lat": 0.0, "name": "d30e5613e237405f0c89d79e19fe1afc", "is_disabled": 0, "rental_uris": {"android": "https://dc.lft.to/lastmile_qr_scan", "ios": "https://dc.lft.to/lastmile_qr_scan"}, "fusion_lon": 0.0, "lat": 38.8961255, "bike_id": "d30e5613e237405f0c89d79e19fe1afc", "type": "electric_bike", "is_reserved": 0, "lon": -76.90738066666667}, {"fusion_lat": 0.0, "name": "d0f33bede5054e390575cb2c425458e1", "is_disabled": 0, "rental_uris": {"android": "https://dc.lft.to/lastmile_qr_scan", "ios": "https://dc.lft.to/lastmile_qr_scan"}, "fusion_lon": 0.0, "lat": 38.9165985, "bike_id": "d0f33bede5054e390575cb2c425458e1", "type": "electric_scooter", "is_reserved": 0, "lon": -77.028195}, {"fusion_lat": 0.0, "name": "288de273166793ded5f5f725d1d2cb60", "is_disabled": 0, "rental_uris": {"android": "https://dc.lft.to/lastmile_qr_scan", "ios": "https://dc.lft.to/lastmile_qr_scan"}, "fusion_lon": 0.0, "lat": 38.907957, "bike_id": "288de273166793ded5f5f725d1d2cb60", "type": "electric_scooter", "is_reserved": 0, "lon": -77.03437333333333}, {"fusion_lat": 0.0, "name": "db82d9055762dfd48ec58f0147d7d201", "is_disabled": 0, "rental_uris": {"android": "https://dc.lft.to/lastmile_qr_scan", "ios": "https://dc.lft.to/lastmile_qr_scan"}, "fusion_lon": 0.0, "lat": 38.87877733333333, "bike_id": "db82d9055762dfd48ec58f0147d7d201", "type": "electric_scooter", "is_reserved": 0, "lon": -77.0222695}, {"fusion_lat": 0.0, "name": "c4c06c9ff1a3a58d9f290253bc072401", "is_disabled": 0, "rental_uris": {"android": "https://dc.lft.to/lastmile_qr_scan", "ios": "https://dc.lft.to/lastmile_qr_scan"}, "fusion_lon": 0.0, "lat": 38.92674216666666, "bike_id": "c4c06c9ff1a3a58d9f290253bc072401", "type": "electric_scooter", "is_reserved": 0, "lon": -77.01477933333334}, {"fusion_lat": 0.0, "name": "2d09b0813f086a8c7bbf15f50ba49bab", "is_disabled": 0, "rental_uris": {"android": "https://dc.lft.to/lastmile_qr_scan", "ios": "https://dc.lft.to/lastmile_qr_scan"}, "fusion_lon": 0.0, "lat": 38.93758716666667, "bike_id": "2d09b0813f086a8c7bbf15f50ba49bab", "type": "electric_scooter", "is_reserved": 0, "lon": -77.02362883333333}, {"fusion_lat": 0.0, "name": "632f2d01a2fb5cdc8a4f82417bebbac1", "is_disabled": 0, "rental_uris": {"android": "https://dc.lft.to/lastmile_qr_scan", "ios": "https://dc.lft.to/lastmile_qr_scan"}, "fusion_lon": 0.0, "lat": 38.92335666666666, "bike_id": "632f2d01a2fb5cdc8a4f82417bebbac1", "type": "electric_scooter", "is_reserved": 0, "lon": -77.052992}, {"fusion_lat": 0.0, "name": "e952d84c1f80293740c846e7c2ce5448", "is_disabled": 0, "rental_uris": {"android": "https://dc.lft.to/lastmile_qr_scan", "ios": "https://dc.lft.to/lastmile_qr_scan"}, "fusion_lon": 0.0, "lat": 38.908555166666666, "bike_id": "e952d84c1f80293740c846e7c2ce5448", "type": "electric_scooter", "is_reserved": 0, "lon": -77.04294483333334}, {"fusion_lat": 0.0, "name": "318baebd8e029ea0180aa3fd597b47d2", "is_disabled": 0, "rental_uris": {"android": "https://dc.lft.to/lastmile_qr_scan", "ios": "https://dc.lft.to/lastmile_qr_scan"}, "fusion_lon": 0.0, "lat": 38.92364366666666, "bike_id": "318baebd8e029ea0180aa3fd597b47d2", "type": "electric_scooter", "is_reserved": 0, "lon": -77.04323916666667}, {"fusion_lat": 0.0, "name": "a92070d6da4230fd8513a9b8d5a3fcaa", "is_disabled": 0, "rental_uris": {"android": "https://dc.lft.to/lastmile_qr_scan", "ios": "https://dc.lft.to/lastmile_qr_scan"}, "fusion_lon": 0.0, "lat": 38.90028083333333, "bike_id": "a92070d6da4230fd8513a9b8d5a3fcaa", "type": "electric_bike", "is_reserved": 0, "lon": -76.9874885}, {"fusion_lat": 0.0, "name": "2d5741bf944a267789952171f369f17d", "is_disabled": 0, "rental_uris": {"android": "https://dc.lft.to/lastmile_qr_scan", "ios": "https://dc.lft.to/lastmile_qr_scan"}, "fusion_lon": 0.0, "lat": 38.906095, "bike_id": "2d5741bf944a267789952171f369f17d", "type": "electric_scooter", "is_reserved": 0, "lon": -77.0589755}, {"fusion_lat": 0.0, "name": "867fa034eb1770699da4797b35d4cfaf", "is_disabled": 0, "rental_uris": {"android": "https://dc.lft.to/lastmile_qr_scan", "ios": "https://dc.lft.to/lastmile_qr_scan"}, "fusion_lon": 0.0, "lat": 38.916798, "bike_id": "867fa034eb1770699da4797b35d4cfaf", "type": "electric_scooter", "is_reserved": 0, "lon": -77.04141383333334}, {"fusion_lat": 0.0, "name": "454223513d6c741f6a3a8f9d135922f2", "is_disabled": 0, "rental_uris": {"android": "https://dc.lft.to/lastmile_qr_scan", "ios": "https://dc.lft.to/lastmile_qr_scan"}, "fusion_lon": 0.0, "lat": 38.899879166666665, "bike_id": "454223513d6c741f6a3a8f9d135922f2", "type": "electric_scooter", "is_reserved": 0, "lon": -76.98438266666666}, {"fusion_lat": 0.0, "name": "176d0ff6a52133f0b1e0ed84c1e1a5a4", "is_disabled": 0, "rental_uris": {"android": "https://dc.lft.to/lastmile_qr_scan", "ios": "https://dc.lft.to/lastmile_qr_scan"}, "fusion_lon": 0.0, "lat": 38.9241285, "bike_id": "176d0ff6a52133f0b1e0ed84c1e1a5a4", "type": "electric_scooter", "is_reserved": 0, "lon": -77.0364315}, {"fusion_lat": 0.0, "name": "89c7235176fecd81e4b0a812f3d4fdf0", "is_disabled": 0, "rental_uris": {"android": "https://dc.lft.to/lastmile_qr_scan", "ios": "https://dc.lft.to/lastmile_qr_scan"}, "fusion_lon": 0.0, "lat": 38.928289666666664, "bike_id": "89c7235176fecd81e4b0a812f3d4fdf0", "type": "electric_scooter", "is_reserved": 0, "lon": -77.05972633333333}, {"fusion_lat": 0.0, "name": "c7add3667b648534bf48dce3a31d0f39", "is_disabled": 0, "rental_uris": {"android": "https://dc.lft.to/lastmile_qr_scan", "ios": "https://dc.lft.to/lastmile_qr_scan"}, "fusion_lon": 0.0, "lat": 38.91695833333333, "bike_id": "c7add3667b648534bf48dce3a31d0f39", "type": "electric_scooter", "is_reserved": 0, "lon": -77.04111966666666}, {"fusion_lat": 0.0, "name": "a9f9a540e8dd31e291936fda6d1d91c9", "is_disabled": 0, "rental_uris": {"android": "https://dc.lft.to/lastmile_qr_scan", "ios": "https://dc.lft.to/lastmile_qr_scan"}, "fusion_lon": 0.0, "lat": 39.03606216666667, "bike_id": "a9f9a540e8dd31e291936fda6d1d91c9", "type": "electric_bike", "is_reserved": 0, "lon": -77.055523}, {"fusion_lat": 0.0, "name": "e1c955b670fc500a95991bea620612ac", "is_disabled": 0, "rental_uris": {"android": "https://dc.lft.to/lastmile_qr_scan", "ios": "https://dc.lft.to/lastmile_qr_scan"}, "fusion_lon": 0.0, "lat": 38.9164, "bike_id": "e1c955b670fc500a95991bea620612ac", "type": "electric_scooter", "is_reserved": 0, "lon": -77.047951}, {"fusion_lat": 0.0, "name": "286ee03e43a830c441a849f20ad5fee1", "is_disabled": 0, "rental_uris": {"android": "https://dc.lft.to/lastmile_qr_scan", "ios": "https://dc.lft.to/lastmile_qr_scan"}, "fusion_lon": 0.0, "lat": 38.921735, "bike_id": "286ee03e43a830c441a849f20ad5fee1", "type": "electric_scooter", "is_reserved": 0, "lon": -77.03653666666666}, {"fusion_lat": 0.0, "name": "a2312aba55e0a8ef933d68cdcbf83e5d", "is_disabled": 0, "rental_uris": {"android": "https://dc.lft.to/lastmile_qr_scan", "ios": "https://dc.lft.to/lastmile_qr_scan"}, "fusion_lon": 0.0, "lat": 38.883349833333334, "bike_id": "a2312aba55e0a8ef933d68cdcbf83e5d", "type": "electric_scooter", "is_reserved": 0, "lon": -77.01766366666666}, {"fusion_lat": 0.0, "name": "3c3706cb91d0f6fa59655c84158f5872", "is_disabled": 0, "rental_uris": {"android": "https://dc.lft.to/lastmile_qr_scan", "ios": "https://dc.lft.to/lastmile_qr_scan"}, "fusion_lon": 0.0, "lat": 38.905763666666665, "bike_id": "3c3706cb91d0f6fa59655c84158f5872", "type": "electric_scooter", "is_reserved": 0, "lon": -77.02208266666666}, {"fusion_lat": 0.0, "name": "759c095e3dfd3b5626af18eecca223e3", "is_disabled": 0, "rental_uris": {"android": "https://dc.lft.to/lastmile_qr_scan", "ios": "https://dc.lft.to/lastmile_qr_scan"}, "fusion_lon": 0.0, "lat": 38.9156655, "bike_id": "759c095e3dfd3b5626af18eecca223e3", "type": "electric_scooter", "is_reserved": 0, "lon": -77.03150933333333}, {"fusion_lat": 0.0, "name": "e86095f5024bc8dc3b758c69af843040", "is_disabled": 0, "rental_uris": {"android": "https://dc.lft.to/lastmile_qr_scan", "ios": "https://dc.lft.to/lastmile_qr_scan"}, "fusion_lon": 0.0, "lat": 38.90384366666667, "bike_id": "e86095f5024bc8dc3b758c69af843040", "type": "electric_scooter", "is_reserved": 0, "lon": -76.99008016666667}, {"fusion_lat": 0.0, "name": "8d98d4076763ad5320c6c26fce8a03f8", "is_disabled": 0, "rental_uris": {"android": "https://dc.lft.to/lastmile_qr_scan", "ios": "https://dc.lft.to/lastmile_qr_scan"}, "fusion_lon": 0.0, "lat": 38.921077333333336, "bike_id": "8d98d4076763ad5320c6c26fce8a03f8", "type": "electric_scooter", "is_reserved": 0, "lon": -77.017546}, {"fusion_lat": 0.0, "name": "3911bec705332e04006f0a5c3d334ba7", "is_disabled": 0, "rental_uris": {"android": "https://dc.lft.to/lastmile_qr_scan", "ios": "https://dc.lft.to/lastmile_qr_scan"}, "fusion_lon": 0.0, "lat": 38.93941133333333, "bike_id": "3911bec705332e04006f0a5c3d334ba7", "type": "electric_scooter", "is_reserved": 0, "lon": -77.0332545}, {"fusion_lat": 0.0, "name": "a1c418fe00c2745a446203907cd670c6", "is_disabled": 0, "rental_uris": {"android": "https://dc.lft.to/lastmile_qr_scan", "ios": "https://dc.lft.to/lastmile_qr_scan"}, "fusion_lon": 0.0, "lat": 38.875142, "bike_id": "a1c418fe00c2745a446203907cd670c6", "type": "electric_scooter", "is_reserved": 0, "lon": -77.00068616666667}, {"fusion_lat": 0.0, "name": "213541bf3f60801efea802da31e7dccb", "is_disabled": 0, "rental_uris": {"android": "https://dc.lft.to/lastmile_qr_scan", "ios": "https://dc.lft.to/lastmile_qr_scan"}, "fusion_lon": 0.0, "lat": 38.90931366666667, "bike_id": "213541bf3f60801efea802da31e7dccb", "type": "electric_scooter", "is_reserved": 0, "lon": -77.02128933333333}, {"fusion_lat": 0.0, "name": "8af5c12ca88e3b1a4ea07768a2fad8be", "is_disabled": 0, "rental_uris": {"android": "https://dc.lft.to/lastmile_qr_scan", "ios": "https://dc.lft.to/lastmile_qr_scan"}, "fusion_lon": 0.0, "lat": 38.876406333333335, "bike_id": "8af5c12ca88e3b1a4ea07768a2fad8be", "type": "electric_scooter", "is_reserved": 0, "lon": -77.01528733333333}, {"fusion_lat": 0.0, "name": "fb8d00b3d6cedf7cc805d3ba7879bfc4", "is_disabled": 0, "rental_uris": {"android": "https://dc.lft.to/lastmile_qr_scan", "ios": "https://dc.lft.to/lastmile_qr_scan"}, "fusion_lon": 0.0, "lat": 38.88987483333333, "bike_id": "fb8d00b3d6cedf7cc805d3ba7879bfc4", "type": "electric_scooter", "is_reserved": 0, "lon": -76.98736616666666}, {"fusion_lat": 0.0, "name": "9fc567478c332fb58884c57800c52a93", "is_disabled": 0, "rental_uris": {"android": "https://dc.lft.to/lastmile_qr_scan", "ios": "https://dc.lft.to/lastmile_qr_scan"}, "fusion_lon": 0.0, "lat": 38.90184933333333, "bike_id": "9fc567478c332fb58884c57800c52a93", "type": "electric_scooter", "is_reserved": 0, "lon": -76.92897633333334}, {"fusion_lat": 0.0, "name": "7b38d628ab023e7b84d4bed55308ea14", "is_disabled": 0, "rental_uris": {"android": "https://dc.lft.to/lastmile_qr_scan", "ios": "https://dc.lft.to/lastmile_qr_scan"}, "fusion_lon": 0.0, "lat": 38.886467333333336, "bike_id": "7b38d628ab023e7b84d4bed55308ea14", "type": "electric_scooter", "is_reserved": 0, "lon": -76.9258735}, {"fusion_lat": 0.0, "name": "1a65631a9e53f22a8b0ded37f5e3a042", "is_disabled": 0, "rental_uris": {"android": "https://dc.lft.to/lastmile_qr_scan", "ios": "https://dc.lft.to/lastmile_qr_scan"}, "fusion_lon": 0.0, "lat": 38.9072465, "bike_id": "1a65631a9e53f22a8b0ded37f5e3a042", "type": "electric_scooter", "is_reserved": 0, "lon": -77.02544616666667}, {"fusion_lat": 0.0, "name": "1f75900df59d7994a974f88cd84d22f1", "is_disabled": 0, "rental_uris": {"android": "https://dc.lft.to/lastmile_qr_scan", "ios": "https://dc.lft.to/lastmile_qr_scan"}, "fusion_lon": 0.0, "lat": 38.92046216666667, "bike_id": "1f75900df59d7994a974f88cd84d22f1", "type": "electric_scooter", "is_reserved": 0, "lon": -77.002065}, {"fusion_lat": 0.0, "name": "300bad50db0887e1c41fba35710638b7", "is_disabled": 0, "rental_uris": {"android": "https://dc.lft.to/lastmile_qr_scan", "ios": "https://dc.lft.to/lastmile_qr_scan"}, "fusion_lon": 0.0, "lat": 38.928227166666666, "bike_id": "300bad50db0887e1c41fba35710638b7", "type": "electric_scooter", "is_reserved": 0, "lon": -77.05438}, {"fusion_lat": 0.0, "name": "9a0ed79f5627fe41e8f8dbb77e560003", "is_disabled": 0, "rental_uris": {"android": "https://dc.lft.to/lastmile_qr_scan", "ios": "https://dc.lft.to/lastmile_qr_scan"}, "fusion_lon": 0.0, "lat": 38.892197833333334, "bike_id": "9a0ed79f5627fe41e8f8dbb77e560003", "type": "electric_scooter", "is_reserved": 0, "lon": -77.03990283333333}, {"fusion_lat": 0.0, "name": "0fc3e3d4ed1214ee7a73117104793374", "is_disabled": 0, "rental_uris": {"android": "https://dc.lft.to/lastmile_qr_scan", "ios": "https://dc.lft.to/lastmile_qr_scan"}, "fusion_lon": 0.0, "lat": 38.90574383333333, "bike_id": "0fc3e3d4ed1214ee7a73117104793374", "type": "electric_scooter", "is_reserved": 0, "lon": -77.03058083333333}, {"fusion_lat": 0.0, "name": "c75d675a2fe87f28d2aca987d4c3c049", "is_disabled": 0, "rental_uris": {"android": "https://dc.lft.to/lastmile_qr_scan", "ios": "https://dc.lft.to/lastmile_qr_scan"}, "fusion_lon": 0.0, "lat": 38.946262, "bike_id": "c75d675a2fe87f28d2aca987d4c3c049", "type": "electric_scooter", "is_reserved": 0, "lon": -77.03289966666667}, {"fusion_lat": 0.0, "name": "ab6aab3a55cf025849f5c5de255abce2", "is_disabled": 0, "rental_uris": {"android": "https://dc.lft.to/lastmile_qr_scan", "ios": "https://dc.lft.to/lastmile_qr_scan"}, "fusion_lon": 0.0, "lat": 38.903125333333335, "bike_id": "ab6aab3a55cf025849f5c5de255abce2", "type": "electric_scooter", "is_reserved": 0, "lon": -76.97800616666666}, {"fusion_lat": 0.0, "name": "c3d4d10aaaea1398846913f6b48c5a77", "is_disabled": 0, "rental_uris": {"android": "https://dc.lft.to/lastmile_qr_scan", "ios": "https://dc.lft.to/lastmile_qr_scan"}, "fusion_lon": 0.0, "lat": 38.883550166666666, "bike_id": "c3d4d10aaaea1398846913f6b48c5a77", "type": "electric_scooter", "is_reserved": 0, "lon": -76.99480533333333}, {"fusion_lat": 0.0, "name": "0f3eccee4439c075b237702a0431b740", "is_disabled": 0, "rental_uris": {"android": "https://dc.lft.to/lastmile_qr_scan", "ios": "https://dc.lft.to/lastmile_qr_scan"}, "fusion_lon": 0.0, "lat": 38.85511, "bike_id": "0f3eccee4439c075b237702a0431b740", "type": "electric_bike", "is_reserved": 0, "lon": -77.10538383333333}, {"fusion_lat": 0.0, "name": "01b0a7fc8f363f1fc7cb81c0b52daab0", "is_disabled": 0, "rental_uris": {"android": "https://dc.lft.to/lastmile_qr_scan", "ios": "https://dc.lft.to/lastmile_qr_scan"}, "fusion_lon": 0.0, "lat": 38.888649666666666, "bike_id": "01b0a7fc8f363f1fc7cb81c0b52daab0", "type": "electric_scooter", "is_reserved": 0, "lon": -76.98452433333334}, {"fusion_lat": 0.0, "name": "3f0838a78ccb742f312b594aff36d272", "is_disabled": 0, "rental_uris": {"android": "https://dc.lft.to/lastmile_qr_scan", "ios": "https://dc.lft.to/lastmile_qr_scan"}, "fusion_lon": 0.0, "lat": 38.91966466666667, "bike_id": "3f0838a78ccb742f312b594aff36d272", "type": "electric_scooter", "is_reserved": 0, "lon": -77.00109116666667}, {"fusion_lat": 0.0, "name": "e71c01c69c052445ef3e61ff2ec069a3", "is_disabled": 0, "rental_uris": {"android": "https://dc.lft.to/lastmile_qr_scan", "ios": "https://dc.lft.to/lastmile_qr_scan"}, "fusion_lon": 0.0, "lat": 38.925265833333334, "bike_id": "e71c01c69c052445ef3e61ff2ec069a3", "type": "electric_scooter", "is_reserved": 0, "lon": -77.05566066666667}, {"fusion_lat": 0.0, "name": "8e5f19d0a9b97a7c5cd28369d4a411fd", "is_disabled": 0, "rental_uris": {"android": "https://dc.lft.to/lastmile_qr_scan", "ios": "https://dc.lft.to/lastmile_qr_scan"}, "fusion_lon": 0.0, "lat": 38.90061383333333, "bike_id": "8e5f19d0a9b97a7c5cd28369d4a411fd", "type": "electric_scooter", "is_reserved": 0, "lon": -76.93385966666666}, {"fusion_lat": 0.0, "name": "e82bb4484751e2668458971b842c6138", "is_disabled": 0, "rental_uris": {"android": "https://dc.lft.to/lastmile_qr_scan", "ios": "https://dc.lft.to/lastmile_qr_scan"}, "fusion_lon": 0.0, "lat": 38.935438, "bike_id": "e82bb4484751e2668458971b842c6138", "type": "electric_scooter", "is_reserved": 0, "lon": -77.0326125}, {"fusion_lat": 0.0, "name": "77af8ce7102ab214d247c749e40648b2", "is_disabled": 0, "rental_uris": {"android": "https://dc.lft.to/lastmile_qr_scan", "ios": "https://dc.lft.to/lastmile_qr_scan"}, "fusion_lon": 0.0, "lat": 38.9562595, "bike_id": "77af8ce7102ab214d247c749e40648b2", "type": "electric_scooter", "is_reserved": 0, "lon": -77.028333}, {"fusion_lat": 0.0, "name": "571151d2ad4ab0e4edf8b62c504da53e", "is_disabled": 0, "rental_uris": {"android": "https://dc.lft.to/lastmile_qr_scan", "ios": "https://dc.lft.to/lastmile_qr_scan"}, "fusion_lon": 0.0, "lat": 38.89239583333333, "bike_id": "571151d2ad4ab0e4edf8b62c504da53e", "type": "electric_scooter", "is_reserved": 0, "lon": -77.02205166666667}, {"fusion_lat": 0.0, "name": "7f11eeac1e7cd0b339e691fff66b0cf8", "is_disabled": 0, "rental_uris": {"android": "https://dc.lft.to/lastmile_qr_scan", "ios": "https://dc.lft.to/lastmile_qr_scan"}, "fusion_lon": 0.0, "lat": 38.919146, "bike_id": "7f11eeac1e7cd0b339e691fff66b0cf8", "type": "electric_scooter", "is_reserved": 0, "lon": -77.0358455}, {"fusion_lat": 0.0, "name": "ce858ac0d4bb136cc01a652c507a64cb", "is_disabled": 0, "rental_uris": {"android": "https://dc.lft.to/lastmile_qr_scan", "ios": "https://dc.lft.to/lastmile_qr_scan"}, "fusion_lon": 0.0, "lat": 38.903710833333335, "bike_id": "ce858ac0d4bb136cc01a652c507a64cb", "type": "electric_scooter", "is_reserved": 0, "lon": -77.03169866666667}, {"fusion_lat": 0.0, "name": "4eccab72dd14e997f50df49671323f33", "is_disabled": 0, "rental_uris": {"android": "https://dc.lft.to/lastmile_qr_scan", "ios": "https://dc.lft.to/lastmile_qr_scan"}, "fusion_lon": 0.0, "lat": 38.8577955, "bike_id": "4eccab72dd14e997f50df49671323f33", "type": "electric_scooter", "is_reserved": 0, "lon": -76.972969}, {"fusion_lat": 0.0, "name": "c4c433d51e3a27f4b6c3eb2112234615", "is_disabled": 0, "rental_uris": {"android": "https://dc.lft.to/lastmile_qr_scan", "ios": "https://dc.lft.to/lastmile_qr_scan"}, "fusion_lon": 0.0, "lat": 38.899002, "bike_id": "c4c433d51e3a27f4b6c3eb2112234615", "type": "electric_scooter", "is_reserved": 0, "lon": -77.03980533333333}, {"fusion_lat": 0.0, "name": "d42034354c0281945161e9b1b02d3568", "is_disabled": 0, "rental_uris": {"android": "https://dc.lft.to/lastmile_qr_scan", "ios": "https://dc.lft.to/lastmile_qr_scan"}, "fusion_lon": 0.0, "lat": 38.91942783333333, "bike_id": "d42034354c0281945161e9b1b02d3568", "type": "electric_scooter", "is_reserved": 0, "lon": -77.0248635}, {"fusion_lat": 0.0, "name": "49217e3a0ff6b0499b9495bb7dce7f69", "is_disabled": 0, "rental_uris": {"android": "https://dc.lft.to/lastmile_qr_scan", "ios": "https://dc.lft.to/lastmile_qr_scan"}, "fusion_lon": 0.0, "lat": 38.90390416666666, "bike_id": "49217e3a0ff6b0499b9495bb7dce7f69", "type": "electric_scooter", "is_reserved": 0, "lon": -77.06136266666667}, {"fusion_lat": 0.0, "name": "a28ca7fa7fb52daa1a1980390b7e91ef", "is_disabled": 0, "rental_uris": {"android": "https://dc.lft.to/lastmile_qr_scan", "ios": "https://dc.lft.to/lastmile_qr_scan"}, "fusion_lon": 0.0, "lat": 38.845048166666665, "bike_id": "a28ca7fa7fb52daa1a1980390b7e91ef", "type": "electric_bike", "is_reserved": 0, "lon": -76.99353366666666}, {"fusion_lat": 0.0, "name": "71be6d26eb67f3063566b477d6ce5842", "is_disabled": 0, "rental_uris": {"android": "https://dc.lft.to/lastmile_qr_scan", "ios": "https://dc.lft.to/lastmile_qr_scan"}, "fusion_lon": 0.0, "lat": 38.9579265, "bike_id": "71be6d26eb67f3063566b477d6ce5842", "type": "electric_bike", "is_reserved": 0, "lon": -76.999689}, {"fusion_lat": 0.0, "name": "f5ef9005ed75c972df19d9ab0500dd10", "is_disabled": 0, "rental_uris": {"android": "https://dc.lft.to/lastmile_qr_scan", "ios": "https://dc.lft.to/lastmile_qr_scan"}, "fusion_lon": 0.0, "lat": 38.9373005, "bike_id": "f5ef9005ed75c972df19d9ab0500dd10", "type": "electric_scooter", "is_reserved": 0, "lon": -77.01921566666667}, {"fusion_lat": 0.0, "name": "ad5932a9f00a8e8b2aae72b9a08daf52", "is_disabled": 0, "rental_uris": {"android": "https://dc.lft.to/lastmile_qr_scan", "ios": "https://dc.lft.to/lastmile_qr_scan"}, "fusion_lon": 0.0, "lat": 38.861373666666665, "bike_id": "ad5932a9f00a8e8b2aae72b9a08daf52", "type": "electric_bike", "is_reserved": 0, "lon": -76.97169016666666}, {"fusion_lat": 0.0, "name": "c47dd7a673dea29273a42d5af6f7eb46", "is_disabled": 0, "rental_uris": {"android": "https://dc.lft.to/lastmile_qr_scan", "ios": "https://dc.lft.to/lastmile_qr_scan"}, "fusion_lon": 0.0, "lat": 38.942916333333336, "bike_id": "c47dd7a673dea29273a42d5af6f7eb46", "type": "electric_scooter", "is_reserved": 0, "lon": -77.02170116666667}, {"fusion_lat": 0.0, "name": "fe230c594114b0d319091840e7a1d52b", "is_disabled": 0, "rental_uris": {"android": "https://dc.lft.to/lastmile_qr_scan", "ios": "https://dc.lft.to/lastmile_qr_scan"}, "fusion_lon": 0.0, "lat": 38.9241925, "bike_id": "fe230c594114b0d319091840e7a1d52b", "type": "electric_scooter", "is_reserved": 0, "lon": -77.02010883333334}, {"fusion_lat": 0.0, "name": "51617f774d805a41b927573d45434f26", "is_disabled": 0, "rental_uris": {"android": "https://dc.lft.to/lastmile_qr_scan", "ios": "https://dc.lft.to/lastmile_qr_scan"}, "fusion_lon": 0.0, "lat": 38.900334666666666, "bike_id": "51617f774d805a41b927573d45434f26", "type": "electric_scooter", "is_reserved": 0, "lon": -76.99259666666667}, {"fusion_lat": 0.0, "name": "ea6bd7bb606a145a24c7c5951142dd70", "is_disabled": 0, "rental_uris": {"android": "https://dc.lft.to/lastmile_qr_scan", "ios": "https://dc.lft.to/lastmile_qr_scan"}, "fusion_lon": 0.0, "lat": 38.9050135, "bike_id": "ea6bd7bb606a145a24c7c5951142dd70", "type": "electric_scooter", "is_reserved": 0, "lon": -76.9795645}, {"fusion_lat": 0.0, "name": "903985d61251c7e5452ff187ba743ed8", "is_disabled": 0, "rental_uris": {"android": "https://dc.lft.to/lastmile_qr_scan", "ios": "https://dc.lft.to/lastmile_qr_scan"}, "fusion_lon": 0.0, "lat": 38.93554783333333, "bike_id": "903985d61251c7e5452ff187ba743ed8", "type": "electric_scooter", "is_reserved": 0, "lon": -77.0748135}, {"fusion_lat": 0.0, "name": "23e202533cb105fef03bf75960920f41", "is_disabled": 0, "rental_uris": {"android": "https://dc.lft.to/lastmile_qr_scan", "ios": "https://dc.lft.to/lastmile_qr_scan"}, "fusion_lon": 0.0, "lat": 38.911752666666665, "bike_id": "23e202533cb105fef03bf75960920f41", "type": "electric_scooter", "is_reserved": 0, "lon": -77.06858916666667}, {"fusion_lat": 0.0, "name": "73a4d9f16c6bd2f97db844d0d8ab47ff", "is_disabled": 0, "rental_uris": {"android": "https://dc.lft.to/lastmile_qr_scan", "ios": "https://dc.lft.to/lastmile_qr_scan"}, "fusion_lon": 0.0, "lat": 38.90813083333333, "bike_id": "73a4d9f16c6bd2f97db844d0d8ab47ff", "type": "electric_scooter", "is_reserved": 0, "lon": -77.03425016666667}, {"fusion_lat": 0.0, "name": "359df93abcd9224432cc1efb2970f0cd", "is_disabled": 0, "rental_uris": {"android": "https://dc.lft.to/lastmile_qr_scan", "ios": "https://dc.lft.to/lastmile_qr_scan"}, "fusion_lon": 0.0, "lat": 38.926571333333335, "bike_id": "359df93abcd9224432cc1efb2970f0cd", "type": "electric_scooter", "is_reserved": 0, "lon": -77.02425166666667}, {"fusion_lat": 0.0, "name": "d66744b3b27b58541f6d471928deec8a", "is_disabled": 0, "rental_uris": {"android": "https://dc.lft.to/lastmile_qr_scan", "ios": "https://dc.lft.to/lastmile_qr_scan"}, "fusion_lon": 0.0, "lat": 38.89905066666667, "bike_id": "d66744b3b27b58541f6d471928deec8a", "type": "electric_scooter", "is_reserved": 0, "lon": -76.976124}, {"fusion_lat": 0.0, "name": "2084bd2bafc5f2161a994613980972a0", "is_disabled": 0, "rental_uris": {"android": "https://dc.lft.to/lastmile_qr_scan", "ios": "https://dc.lft.to/lastmile_qr_scan"}, "fusion_lon": 0.0, "lat": 38.89825316666666, "bike_id": "2084bd2bafc5f2161a994613980972a0", "type": "electric_scooter", "is_reserved": 0, "lon": -76.94649766666667}, {"fusion_lat": 0.0, "name": "01639b67ee6226789588f197edcc326f", "is_disabled": 0, "rental_uris": {"android": "https://dc.lft.to/lastmile_qr_scan", "ios": "https://dc.lft.to/lastmile_qr_scan"}, "fusion_lon": 0.0, "lat": 38.898335333333335, "bike_id": "01639b67ee6226789588f197edcc326f", "type": "electric_scooter", "is_reserved": 0, "lon": -76.931814}, {"fusion_lat": 0.0, "name": "301f31f4955d57324adfe071edb78420", "is_disabled": 0, "rental_uris": {"android": "https://dc.lft.to/lastmile_qr_scan", "ios": "https://dc.lft.to/lastmile_qr_scan"}, "fusion_lon": 0.0, "lat": 38.90450833333333, "bike_id": "301f31f4955d57324adfe071edb78420", "type": "electric_bike", "is_reserved": 0, "lon": -76.97426116666666}, {"fusion_lat": 0.0, "name": "026247a8f684fe4b2a4a25a72bbe9cc3", "is_disabled": 0, "rental_uris": {"android": "https://dc.lft.to/lastmile_qr_scan", "ios": "https://dc.lft.to/lastmile_qr_scan"}, "fusion_lon": 0.0, "lat": 38.895308166666666, "bike_id": "026247a8f684fe4b2a4a25a72bbe9cc3", "type": "electric_scooter", "is_reserved": 0, "lon": -77.03266583333334}, {"fusion_lat": 0.0, "name": "4b8ea2e5d8ae803bb77b38f8a851eb84", "is_disabled": 0, "rental_uris": {"android": "https://dc.lft.to/lastmile_qr_scan", "ios": "https://dc.lft.to/lastmile_qr_scan"}, "fusion_lon": 0.0, "lat": 38.9377705, "bike_id": "4b8ea2e5d8ae803bb77b38f8a851eb84", "type": "electric_scooter", "is_reserved": 0, "lon": -77.033019}, {"fusion_lat": 0.0, "name": "b45fe1240603fd1dffbe7aa7f4aaedea", "is_disabled": 0, "rental_uris": {"android": "https://dc.lft.to/lastmile_qr_scan", "ios": "https://dc.lft.to/lastmile_qr_scan"}, "fusion_lon": 0.0, "lat": 38.8405215, "bike_id": "b45fe1240603fd1dffbe7aa7f4aaedea", "type": "electric_scooter", "is_reserved": 0, "lon": -76.9766555}, {"fusion_lat": 0.0, "name": "8029b14fb1ed26d3debcba4be63cd060", "is_disabled": 0, "rental_uris": {"android": "https://dc.lft.to/lastmile_qr_scan", "ios": "https://dc.lft.to/lastmile_qr_scan"}, "fusion_lon": 0.0, "lat": 38.92445433333334, "bike_id": "8029b14fb1ed26d3debcba4be63cd060", "type": "electric_scooter", "is_reserved": 0, "lon": -77.05246933333333}, {"fusion_lat": 0.0, "name": "90e454c31af45b7592c2c5153bd81686", "is_disabled": 0, "rental_uris": {"android": "https://dc.lft.to/lastmile_qr_scan", "ios": "https://dc.lft.to/lastmile_qr_scan"}, "fusion_lon": 0.0, "lat": 38.89746616666667, "bike_id": "90e454c31af45b7592c2c5153bd81686", "type": "electric_scooter", "is_reserved": 0, "lon": -77.03217933333333}, {"fusion_lat": 0.0, "name": "79288298f233f3f4c7a94085be13bbf5", "is_disabled": 0, "rental_uris": {"android": "https://dc.lft.to/lastmile_qr_scan", "ios": "https://dc.lft.to/lastmile_qr_scan"}, "fusion_lon": 0.0, "lat": 38.92053833333333, "bike_id": "79288298f233f3f4c7a94085be13bbf5", "type": "electric_scooter", "is_reserved": 0, "lon": -77.03407383333334}, {"fusion_lat": 0.0, "name": "5765ff0a6c9e12d935b9e5a89fba4488", "is_disabled": 0, "rental_uris": {"android": "https://dc.lft.to/lastmile_qr_scan", "ios": "https://dc.lft.to/lastmile_qr_scan"}, "fusion_lon": 0.0, "lat": 38.90560766666667, "bike_id": "5765ff0a6c9e12d935b9e5a89fba4488", "type": "electric_scooter", "is_reserved": 0, "lon": -77.00565466666667}, {"fusion_lat": 0.0, "name": "c0212b2a8b79ef89074aaabd05cbb9dc", "is_disabled": 0, "rental_uris": {"android": "https://dc.lft.to/lastmile_qr_scan", "ios": "https://dc.lft.to/lastmile_qr_scan"}, "fusion_lon": 0.0, "lat": 38.988166, "bike_id": "c0212b2a8b79ef89074aaabd05cbb9dc", "type": "electric_bike", "is_reserved": 0, "lon": -77.02646933333334}, {"fusion_lat": 0.0, "name": "19d5683a9a7b910be5766617e31c780a", "is_disabled": 0, "rental_uris": {"android": "https://dc.lft.to/lastmile_qr_scan", "ios": "https://dc.lft.to/lastmile_qr_scan"}, "fusion_lon": 0.0, "lat": 38.82092683333333, "bike_id": "19d5683a9a7b910be5766617e31c780a", "type": "electric_bike", "is_reserved": 0, "lon": -77.0530675}, {"fusion_lat": 0.0, "name": "8c0ea640b341547bfa3e0f07c641ba78", "is_disabled": 0, "rental_uris": {"android": "https://dc.lft.to/lastmile_qr_scan", "ios": "https://dc.lft.to/lastmile_qr_scan"}, "fusion_lon": 0.0, "lat": 38.9097115, "bike_id": "8c0ea640b341547bfa3e0f07c641ba78", "type": "electric_scooter", "is_reserved": 0, "lon": -77.04645866666667}, {"fusion_lat": 0.0, "name": "874308357939f0e1fe1fe75f56501ffe", "is_disabled": 0, "rental_uris": {"android": "https://dc.lft.to/lastmile_qr_scan", "ios": "https://dc.lft.to/lastmile_qr_scan"}, "fusion_lon": 0.0, "lat": 38.87569716666667, "bike_id": "874308357939f0e1fe1fe75f56501ffe", "type": "electric_scooter", "is_reserved": 0, "lon": -77.009325}, {"fusion_lat": 0.0, "name": "75f66a5335eebcf71cef9d137854484a", "is_disabled": 0, "rental_uris": {"android": "https://dc.lft.to/lastmile_qr_scan", "ios": "https://dc.lft.to/lastmile_qr_scan"}, "fusion_lon": 0.0, "lat": 38.9226615, "bike_id": "75f66a5335eebcf71cef9d137854484a", "type": "electric_scooter", "is_reserved": 0, "lon": -77.04245483333334}, {"fusion_lat": 0.0, "name": "e6407eec52adfae1fa5b799e2848f395", "is_disabled": 0, "rental_uris": {"android": "https://dc.lft.to/lastmile_qr_scan", "ios": "https://dc.lft.to/lastmile_qr_scan"}, "fusion_lon": 0.0, "lat": 38.892949333333334, "bike_id": "e6407eec52adfae1fa5b799e2848f395", "type": "electric_scooter", "is_reserved": 0, "lon": -77.02146416666666}, {"fusion_lat": 0.0, "name": "8698d0916204db4f24e8d4f70e77b1a0", "is_disabled": 0, "rental_uris": {"android": "https://dc.lft.to/lastmile_qr_scan", "ios": "https://dc.lft.to/lastmile_qr_scan"}, "fusion_lon": 0.0, "lat": 38.91939633333333, "bike_id": "8698d0916204db4f24e8d4f70e77b1a0", "type": "electric_scooter", "is_reserved": 0, "lon": -77.03193583333334}, {"fusion_lat": 0.0, "name": "9450521884f506868f0e53677b51023a", "is_disabled": 0, "rental_uris": {"android": "https://dc.lft.to/lastmile_qr_scan", "ios": "https://dc.lft.to/lastmile_qr_scan"}, "fusion_lon": 0.0, "lat": 38.9279775, "bike_id": "9450521884f506868f0e53677b51023a", "type": "electric_scooter", "is_reserved": 0, "lon": -76.95559}, {"fusion_lat": 0.0, "name": "29eb656ef05088fa3c7af63a5d6930bd", "is_disabled": 0, "rental_uris": {"android": "https://dc.lft.to/lastmile_qr_scan", "ios": "https://dc.lft.to/lastmile_qr_scan"}, "fusion_lon": 0.0, "lat": 38.88244366666667, "bike_id": "29eb656ef05088fa3c7af63a5d6930bd", "type": "electric_bike", "is_reserved": 0, "lon": -76.96265266666667}, {"fusion_lat": 0.0, "name": "b8bf20a3de9266c5dba4013ebefceb33", "is_disabled": 0, "rental_uris": {"android": "https://dc.lft.to/lastmile_qr_scan", "ios": "https://dc.lft.to/lastmile_qr_scan"}, "fusion_lon": 0.0, "lat": 38.89747533333333, "bike_id": "b8bf20a3de9266c5dba4013ebefceb33", "type": "electric_scooter", "is_reserved": 0, "lon": -77.02207733333333}, {"fusion_lat": 0.0, "name": "98c95bc7ce09645fcb500615b86c1799", "is_disabled": 0, "rental_uris": {"android": "https://dc.lft.to/lastmile_qr_scan", "ios": "https://dc.lft.to/lastmile_qr_scan"}, "fusion_lon": 0.0, "lat": 38.9491915, "bike_id": "98c95bc7ce09645fcb500615b86c1799", "type": "electric_scooter", "is_reserved": 0, "lon": -77.01851166666667}, {"fusion_lat": 0.0, "name": "a24c5987373612456bfd54c645f17bc5", "is_disabled": 0, "rental_uris": {"android": "https://dc.lft.to/lastmile_qr_scan", "ios": "https://dc.lft.to/lastmile_qr_scan"}, "fusion_lon": 0.0, "lat": 38.904801, "bike_id": "a24c5987373612456bfd54c645f17bc5", "type": "electric_scooter", "is_reserved": 0, "lon": -76.9495215}, {"fusion_lat": 0.0, "name": "7e91912c993fd5d089350376ca356b40", "is_disabled": 0, "rental_uris": {"android": "https://dc.lft.to/lastmile_qr_scan", "ios": "https://dc.lft.to/lastmile_qr_scan"}, "fusion_lon": 0.0, "lat": 38.92428483333333, "bike_id": "7e91912c993fd5d089350376ca356b40", "type": "electric_scooter", "is_reserved": 0, "lon": -77.01951016666666}, {"fusion_lat": 0.0, "name": "410eb9e8dfef6a0a13e9573d7899bb25", "is_disabled": 0, "rental_uris": {"android": "https://dc.lft.to/lastmile_qr_scan", "ios": "https://dc.lft.to/lastmile_qr_scan"}, "fusion_lon": 0.0, "lat": 38.928222166666664, "bike_id": "410eb9e8dfef6a0a13e9573d7899bb25", "type": "electric_scooter", "is_reserved": 0, "lon": -77.054569},