{"data": {"bikes": [{"lat": 38.86595283333333, "is_disabled": 0, "type": "electric_bike", "lon": -76.932277, "bike_id": "29087af0d22dc01502b61be4f07e8ac0", "fusion_lat": 0.0, "name": "29087af0d22dc01502b61be4f07e8ac0", "is_reserved": 0, "rental_uris": {"android": "https://dc.lft.to/lastmile_qr_scan", "ios": "https://dc.lft.to/lastmile_qr_scan"}, "fusion_lon": 0.0}, {"lat": 38.92171416666667, "is_disabled": 0, "type": "electric_scooter", "lon": -77.051346, "bike_id": "e5ff6e9c50bb6416b05e51645ac17fa3", "fusion_lat": 0.0, "name": "e5ff6e9c50bb6416b05e51645ac17fa3", "is_reserved": 0, "rental_uris": {"android": "https://dc.lft.to/lastmile_qr_scan", "ios": "https://dc.lft.to/lastmile_qr_scan"}, "fusion_lon": 0.0}, {"lat": 38.918173, "is_disabled": 0, "type": "electric_scooter", "lon": -76.99964433333334, "bike_id": "f624466a5078f9a88b9730a7c7fa1950", "fusion_lat": 0.0, "name": "f624466a5078f9a88b9730a7c7fa1950", "is_reserved": 0, "rental_uris": {"android": "https://dc.lft.to/lastmile_qr_scan", "ios": "https://dc.lft.to/lastmile_qr_scan"}, "fusion_lon": 0.0}, {"lat": 38.96213266666667, "is_disabled": 0, "type": "electric_bike", "lon": -77.02793333333334, "bike_id": "dd56c6f6891ec29c9a11f3ef69948677", "fusion_lat": 0.0, "name": "dd56c6f6891ec29c9a11f3ef69948677", "is_reserved": 0, "rental_uris": {"android": "https://dc.lft.to/lastmile_qr_scan", "ios": "https://dc.lft.to/lastmile_qr_scan"}, "fusion_lon": 0.0}, {"lat": 38.91002733333333, "is_disabled": 0, "type": "electric_scooter", "lon": -77.04007933333334, "bike_id": "555906787e7bf37ef39fbe6af7b3101e", "fusion_lat": 0.0, "name": "555906787e7bf37ef39fbe6af7b3101e", "is_reserved": 0, "rental_uris": {"android": "https://dc.lft.to/lastmile_qr_scan", "ios": "https://dc.lft.to/lastmile_qr_scan"}, "fusion_lon": 0.0}, {"lat": 38.934928166666666, "is_disabled": 0, "type": "electric_scooter", "lon": -77.0323315, "bike_id": "4b5cc05fd4d80d71270b6456fe54be9a", "fusion_lat": 0.0, "name": "4b5cc05fd4d80d71270b6456fe54be9a", "is_reserved": 0, "rental_uris": {"android": "https://dc.lft.to/lastmile_qr_scan", "ios": "https://dc.lft.to/lastmile_qr_scan"}, "fusion_lon": 0.0}, {"lat": 38.88538466666667, "is_disabled": 0, "type": "electric_scooter", "lon": -77.01498016666666, "bike_id": "db5bbac393bb4bc9f51c4ae4fb099c35", "fusion_lat": 0.0, "name": "db5bbac393bb4bc9f51c4ae4fb099c35", "is_reserved": 0, "rental_uris": {"android": "https://dc.lft.to/lastmile_qr_scan", "ios": "https://dc.lft.to/lastmile_qr_scan"}, "fusion_lon": 0.0}, {"lat": 38.932273333333335, "is_disabled": 0, "type": "electric_scooter", "lon": -77.04414866666667, "bike_id": "0da156d3d782675457ce8191679cc864", "fusion_lat": 0.0, "name": "0da156d3d782675457ce8191679cc864", "is_reserved": 0, "rental_uris": {"android": "https://dc.lft.to/lastmile_qr_scan", "ios": "https://dc.lft.to/lastmile_qr_scan"}, "fusion_lon": 0.0}, {"lat": 38.865219333333336, "is_disabled": 0, "type": "electric_scooter", "lon": -76.9903015, "bike_id": "1e9500a194e19b6db0a5fa1c8baf1e17", "fusion_lat": 0.0, "name": "1e9500a194e19b6db0a5fa1c8baf1e17", "is_reserved": 0, "rental_uris": {"android": "https://dc.lft.to/lastmile_qr_scan", "ios": "https://dc.lft.to/lastmile_qr_scan"}, "fusion_lon": 0.0}, {"lat": 38.8522295, "is_disabled": 0, "type": "electric_bike", "lon": -77.12949616666667, "bike_id": "0da0c10b526381e367d7f016cc09ae5e", "fusion_lat": 0.0, "name": "0da0c10b526381e367d7f016cc09ae5e", "is_reserved": 0, "rental_uris": {"android": "https://dc.lft.to/lastmile_qr_scan", "ios": "https://dc.lft.to/lastmile_qr_scan"}, "fusion_lon": 0.0}, {"lat": 38.91121966666667, "is_disabled": 0, "type": "electric_scooter", "lon": -77.0373415, "bike_id": "55ada7c83e40b6fc05230e4fedf28877", "fusion_lat": 0.0, "name": "55ada7c83e40b6fc05230e4fedf28877", "is_reserved": 0, "rental_uris": {"android": "https://dc.lft.to/lastmile_qr_scan", "ios": "https://dc.lft.to/lastmile_qr_scan"}, "fusion_lon": 0.0}, {"lat": 38.920198666666664, "is_disabled": 0, "type": "electric_scooter", "lon": -77.04189416666667, "bike_id": "b7ccff7e14336cef4f4789840baf05b0", "fusion_lat": 0.0, "name": "b7ccff7e14336cef4f4789840baf05b0", "is_reserved": 0, "rental_uris": {"android": "https://dc.lft.to/lastmile_qr_scan", "ios": "https://dc.lft.to/lastmile_qr_scan"}, "fusion_lon": 0.0}, {"lat": 38.91756783333334, "is_disabled": 0, "type": "electric_scooter", "lon": -77.00448166666666, "bike_id": "038c400d912148ac2fcb5f30bf2613e2", "fusion_lat": 0.0, "name": "038c400d912148ac2fcb5f30bf2613e2", "is_reserved": 0, "rental_uris": {"android": "https://dc.lft.to/lastmile_qr_scan", "ios": "https://dc.lft.to/lastmile_qr_scan"}, "fusion_lon": 0.0}, {"lat": 38.800525, "is_disabled": 0, "type": "electric_bike", "lon": -77.07117366666667, "bike_id": "28c920481802040e0621a5aac790ab4d", "fusion_lat": 0.0, "name": "28c920481802040e0621a5aac790ab4d", "is_reserved": 0, "rental_uris": {"android": "https://dc.lft.to/lastmile_qr_scan", "ios": "https://dc.lft.to/lastmile_qr_scan"}, "fusion_lon": 0.0}, {"lat": 38.90047466666667, "is_disabled": 0, "type": "electric_scooter", "lon": -77.00754083333334, "bike_id": "9194af8644cf7b925949c5489cc50851", "fusion_lat": 0.0, "name": "9194af8644cf7b925949c5489cc50851", "is_reserved": 0, "rental_uris": {"android": "https://dc.lft.to/lastmile_qr_scan", "ios": "https://dc.lft.to/lastmile_qr_scan"}, "fusion_lon": 0.0}, {"lat": 38.899019, "is_disabled": 0, "type": "electric_scooter", "lon": -77.00350016666667, "bike_id": "1b530c2b1c48ec9b0fde9802c720d0c7", "fusion_lat": 0.0, "name": "1b530c2b1c48ec9b0fde9802c720d0c7", "is_reserved": 0, "rental_uris": {"android": "https://dc.lft.to/lastmile_qr_scan", "ios": "https://dc.lft.to/lastmile_qr_scan"}, "fusion_lon": 0.0}, {"lat": 38.8960665, "is_disabled": 0, "type": "electric_scooter", "lon": -77.04419333333334, "bike_id": "83cc007445254cb7659a70ad66a74e79", "fusion_lat": 0.0, "name": "83cc007445254cb7659a70ad66a74e79", "is_reserved": 0, "rental_uris": {"android": "https://dc.lft.to/lastmile_qr_scan", "ios": "https://dc.lft.to/lastmile_qr_scan"}, "fusion_lon": 0.0}, {"lat": 38.9037505, "is_disabled": 0, "type": "electric_scooter", "lon": -77.00883833333333, "bike_id": "7dda56260044cd35907f9add6aca0e0f", "fusion_lat": 0.0, "name": "7dda56260044cd35907f9add6aca0e0f", "is_reserved": 0, "rental_uris": {"android": "https://dc.lft.to/lastmile_qr_scan", "ios": "https://dc.lft.to/lastmile_qr_scan"}, "fusion_lon": 0.0}, {"lat": 38.94135966666666, "is_disabled": 0, "type": "electric_scooter", "lon": -77.07613133333334, "bike_id": "5a9fbc513f6111b2167f6b124de68122", "fusion_lat": 0.0, "name": "5a9fbc513f6111b2167f6b124de68122", "is_reserved": 0, "rental_uris": {"android": "https://dc.lft.to/lastmile_qr_scan", "ios": "https://dc.lft.to/lastmile_qr_scan"}, "fusion_lon": 0.0}, {"lat": 38.935813833333334, "is_disabled": 0, "type": "electric_bike", "lon": -77.10680383333333, "bike_id": "ef0dfde19c760cc4a747f0b24aeb89f4", "fusion_lat": 0.0, "name": "ef0dfde19c760cc4a747f0b24aeb89f4", "is_reserved": 0, "rental_uris": {"android": "https://dc.lft.to/lastmile_qr_scan", "ios": "https://dc.lft.to/lastmile_qr_scan"}, "fusion_lon": 0.0}, {"lat": 38.900026, "is_disabled": 0, "type": "electric_scooter", "lon": -77.03303266666667, "bike_id": "69bcbd466a223428d19bf864a91d6300", "fusion_lat": 0.0, "name": "69bcbd466a223428d19bf864a91d6300", "is_reserved": 0, "rental_uris": {"android": "https://dc.lft.to/lastmile_qr_scan", "ios": "https://dc.lft.to/lastmile_qr_scan"}, "fusion_lon": 0.0}, {"lat": 38.9094675, "is_disabled": 0, "type": "electric_scooter", "lon": -77.04653566666667, "bike_id": "8bde71f6d68807ac4798a9785b023ba9", "fusion_lat": 0.0, "name": "8bde71f6d68807ac4798a9785b023ba9", "is_reserved": 0, "rental_uris": {"android": "https://dc.lft.to/lastmile_qr_scan", "ios": "https://dc.lft.to/lastmile_qr_scan"}, "fusion_lon": 0.0}, {"lat": 38.916349, "is_disabled": 0, "type": "electric_scooter", "lon": -77.0269565, "bike_id": "6a678161301761c72e751e1ad686b22b", "fusion_lat": 0.0, "name": "6a678161301761c72e751e1ad686b22b", "is_reserved": 0, "rental_uris": {"android": "https://dc.lft.to/lastmile_qr_scan", "ios": "https://dc.lft.to/lastmile_qr_scan"}, "fusion_lon": 0.0}, {"lat": 38.900185, "is_disabled": 0, "type": "electric_scooter", "lon": -77.03323783333333, "bike_id": "e67a476716dff74418dc8cb410a23584", "fusion_lat": 0.0, "name": "e67a476716dff74418dc8cb410a23584", "is_reserved": 0, "rental_uris": {"android": "https://dc.lft.to/lastmile_qr_scan", "ios": "https://dc.lft.to/lastmile_qr_scan"}, "fusion_lon": 0.0}, {"lat": 38.89527483333333, "is_disabled": 0, "type": "electric_scooter", "lon": -77.00057716666667, "bike_id": "414073538717748af4bbc6af3e1f26cd", "fusion_lat": 0.0, "name": "414073538717748af4bbc6af3e1f26cd", "is_reserved": 0, "rental_uris": {"android": "https://dc.lft.to/lastmile_qr_scan", "ios": "https://dc.lft.to/lastmile_qr_scan"}, "fusion_lon": 0.0}, {"lat": 38.950530666666666, "is_disabled": 0, "type": "electric_scooter", "lon": -77.00723333333333, "bike_id": "84ae4df12a0232cb65a35a4e0215135e", "fusion_lat": 0.0, "name": "84ae4df12a0232cb65a35a4e0215135e", "is_reserved": 0, "rental_uris": {"android": "https://dc.lft.to/lastmile_qr_scan", "ios": "https://dc.lft.to/lastmile_qr_scan"}, "fusion_lon": 0.0}, {"lat": 38.9483285, "is_disabled": 0, "type": "electric_scooter", "lon": -77.02576616666667, "bike_id": "d9b8ea3cd732d87b4d2a5e9f980449b7", "fusion_lat": 0.0, "name": "d9b8ea3cd732d87b4d2a5e9f980449b7", "is_reserved": 0, "rental_uris": {"android": "https://dc.lft.to/lastmile_qr_scan", "ios": "https://dc.lft.to/lastmile_qr_scan"}, "fusion_lon": 0.0}, {"lat": 38.90276466666667, "is_disabled": 0, "type": "electric_scooter", "lon": -77.011609, "bike_id": "0e8480ec50e77b892c7a6562c277e7c5", "fusion_lat": 0.0, "name": "0e8480ec50e77b892c7a6562c277e7c5", "is_reserved": 0, "rental_uris": {"android": "https://dc.lft.to/lastmile_qr_scan", "ios": "https://dc.lft.to/lastmile_qr_scan"}, "fusion_lon": 0.0}, {"lat": 38.86364283333333, "is_disabled": 0, "type": "electric_scooter", "lon": -76.99026583333334, "bike_id": "ae84b034b0e06e398f51f6f66e9146d5", "fusion_lat": 0.0, "name": "ae84b034b0e06e398f51f6f66e9146d5", "is_reserved": 0, "rental_uris": {"android": "https://dc.lft.to/lastmile_qr_scan", "ios": "https://dc.lft.to/lastmile_qr_scan"}, "fusion_lon": 0.0}, {"lat": 38.94498266666667, "is_disabled": 0, "type": "electric_bike", "lon": -77.00675766666667, "bike_id": "1971ab5788cd00d83764933a2217d647", "fusion_lat": 0.0, "name": "1971ab5788cd00d83764933a2217d647", "is_reserved": 0, "rental_uris": {"android": "https://dc.lft.to/lastmile_qr_scan", "ios": "https://dc.lft.to/lastmile_qr_scan"}, "fusion_lon": 0.0}, {"lat": 38.908724, "is_disabled": 0, "type": "electric_scooter", "lon": -77.03843633333334, "bike_id": "134566f24482a1e0630784622cdd86b6", "fusion_lat": 0.0, "name": "134566f24482a1e0630784622cdd86b6", "is_reserved": 0, "rental_uris": {"android": "https://dc.lft.to/lastmile_qr_scan", "ios": "https://dc.lft.to/lastmile_qr_scan"}, "fusion_lon": 0.0}, {"lat": 38.9662375, "is_disabled": 0, "type": "electric_bike", "lon": -76.9766665, "bike_id": "8140164710023cbcde2d99429c602cf7", "fusion_lat": 0.0, "name": "8140164710023cbcde2d99429c602cf7", "is_reserved": 0, "rental_uris": {"android": "https://dc.lft.to/lastmile_qr_scan", "ios": "https://dc.lft.to/lastmile_qr_scan"}, "fusion_lon": 0.0}, {"lat": 38.91006316666667, "is_disabled": 0, "type": "electric_scooter", "lon": -77.04005, "bike_id": "2f36f431f3711754fb10c934b703ef52", "fusion_lat": 0.0, "name": "2f36f431f3711754fb10c934b703ef52", "is_reserved": 0, "rental_uris": {"android": "https://dc.lft.to/lastmile_qr_scan", "ios": "https://dc.lft.to/lastmile_qr_scan"}, "fusion_lon": 0.0}, {"lat": 38.92790133333333, "is_disabled": 0, "type": "electric_scooter", "lon": -77.02679116666667, "bike_id": "4a9905daf125ee4b8e8850b37a14dabe", "fusion_lat": 0.0, "name": "4a9905daf125ee4b8e8850b37a14dabe", "is_reserved": 0, "rental_uris": {"android": "https://dc.lft.to/lastmile_qr_scan", "ios": "https://dc.lft.to/lastmile_qr_scan"}, "fusion_lon": 0.0}, {"lat": 38.923413833333335, "is_disabled": 0, "type": "electric_scooter", "lon": -77.03502266666666, "bike_id": "363eee8f6fa1accbfb2bfde6466486b9", "fusion_lat": 0.0, "name": "363eee8f6fa1accbfb2bfde6466486b9", "is_reserved": 0, "rental_uris": {"android": "https://dc.lft.to/lastmile_qr_scan", "ios": "https://dc.lft.to/lastmile_qr_scan"}, "fusion_lon": 0.0}, {"lat": 38.87143483333333, "is_disabled": 0, "type": "electric_bike", "lon": -76.93666483333334, "bike_id": "23b368057b764075b91f19ee4d3d817d", "fusion_lat": 0.0, "name": "23b368057b764075b91f19ee4d3d817d", "is_reserved": 0, "rental_uris": {"android": "https://dc.lft.to/lastmile_qr_scan", "ios": "https://dc.lft.to/lastmile_qr_scan"}, "fusion_lon": 0.0}, {"lat": 38.90317666666667, "is_disabled": 0, "type": "electric_scooter", "lon": -77.0534695, "bike_id": "3e069ec302585bdf6cfc855d27bc4229", "fusion_lat": 0.0, "name": "3e069ec302585bdf6cfc855d27bc4229", "is_reserved": 0, "rental_uris": {"android": "https://dc.lft.to/lastmile_qr_scan", "ios": "https://dc.lft.to/lastmile_qr_scan"}, "fusion_lon": 0.0}, {"lat": 38.93086533333334, "is_disabled": 0, "type": "electric_scooter", "lon": -77.0774835, "bike_id": "6d365afb04dbab390666b8af0d24a600", "fusion_lat": 0.0, "name": "6d365afb04dbab390666b8af0d24a600", "is_reserved": 0, "rental_uris": {"android": "https://dc.lft.to/lastmile_qr_scan", "ios": "https://dc.lft.to/lastmile_qr_scan"}, "fusion_lon": 0.0}, {"lat": 38.935253833333334, "is_disabled": 0, "type": "electric_scooter", "lon": -77.03410933333333, "bike_id": "94bbcb5f38d3e9754c5d6bfbfaeba4d3", "fusion_lat": 0.0, "name": "94bbcb5f38d3e9754c5d6bfbfaeba4d3", "is_reserved": 0, "rental_uris": {"android": "https://dc.lft.to/lastmile_qr_scan", "ios": "https://dc.lft.to/lastmile_qr_scan"}, "fusion_lon": 0.0}, {"lat": 38.866987, "is_disabled": 0, "type": "electric_scooter", "lon": -76.987113, "bike_id": "3de9038dc57897c9b2c184cee5436d71", "fusion_lat": 0.0, "name": "3de9038dc57897c9b2c184cee5436d71", "is_reserved": 0, "rental_uris": {"android": "https://dc.lft.to/lastmile_qr_scan", "ios": "https://dc.lft.to/lastmile_qr_scan"}, "fusion_lon": 0.0}, {"lat": 38.894241666666666, "is_disabled": 0, "type": "electric_scooter", "lon": -77.0318295, "bike_id": "56d8515d3c26db82c0e829131cb80578", "fusion_lat": 0.0, "name": "56d8515d3c26db82c0e829131cb80578", "is_reserved": 0, "rental_uris": {"android": "https://dc.lft.to/lastmile_qr_scan", "ios": "https://dc.lft.to/lastmile_qr_scan"}, "fusion_lon": 0.0}, {"lat": 38.95255566666667, "is_disabled": 0, "type": "electric_bike", "lon": -77.0239145, "bike_id": "d2e10f8bbff9a64ac7a9daef21461701", "fusion_lat": 0.0, "name": "d2e10f8bbff9a64ac7a9daef21461701", "is_reserved": 0, "rental_uris": {"android": "https://dc.lft.to/lastmile_qr_scan", "ios": "https://dc.lft.to/lastmile_qr_scan"}, "fusion_lon": 0.0}, {"lat": 38.910035666666666, "is_disabled": 0, "type": "electric_scooter", "lon": -76.98617166666666, "bike_id": "fc195386871ca4e452277dcd48c6892f", "fusion_lat": 0.0, "name": "fc195386871ca4e452277dcd48c6892f", "is_reserved": 0, "rental_uris": {"android": "https://dc.lft.to/lastmile_qr_scan", "ios": "https://dc.lft.to/lastmile_qr_scan"}, "fusion_lon": 0.0}, {"lat": 38.916826, "is_disabled": 0, "type": "electric_scooter", "lon": -77.02970033333334, "bike_id": "3628bf930328c547b0a7778197b3c624", "fusion_lat": 0.0, "name": "3628bf930328c547b0a7778197b3c624", "is_reserved": 0, "rental_uris": {"android": "https://dc.lft.to/lastmile_qr_scan", "ios": "https://dc.lft.to/lastmile_qr_scan"}, "fusion_lon": 0.0}, {"lat": 38.899420666666664, "is_disabled": 0, "type": "electric_scooter", "lon": -77.03394116666666, "bike_id": "97ddcbf5911b31591763efc9827cec77", "fusion_lat": 0.0, "name": "97ddcbf5911b31591763efc9827cec77", "is_reserved": 0, "rental_uris": {"android": "https://dc.lft.to/lastmile_qr_scan", "ios": "https://dc.lft.to/lastmile_qr_scan"}, "fusion_lon": 0.0}, {"lat": 38.924214166666665, "is_disabled": 0, "type": "electric_scooter", "lon": -77.0295555, "bike_id": "ff04c280b5d72c42cf7ece799657568b", "fusion_lat": 0.0, "name": "ff04c280b5d72c42cf7ece799657568b", "is_reserved": 0, "rental_uris": {"android": "https://dc.lft.to/lastmile_qr_scan", "ios": "https://dc.lft.to/lastmile_qr_scan"}, "fusion_lon": 0.0}, {"lat": 38.90127583333334, "is_disabled": 0, "type": "electric_scooter", "lon": -77.01588633333333, "bike_id": "c99e7d6ab9eb352c1b678d42cb0e361a", "fusion_lat": 0.0, "name": "c99e7d6ab9eb352c1b678d42cb0e361a", "is_reserved": 0, "rental_uris": {"android": "https://dc.lft.to/lastmile_qr_scan", "ios": "https://dc.lft.to/lastmile_qr_scan"}, "fusion_lon": 0.0}, {"lat": 38.91921933333333, "is_disabled": 0, "type": "electric_scooter", "lon": -77.03185233333333, "bike_id": "45e82795bccd2e5e41a5bc9965cf4211", "fusion_lat": 0.0, "name": "45e82795bccd2e5e41a5bc9965cf4211", "is_reserved": 0, "rental_uris": {"android": "https://dc.lft.to/lastmile_qr_scan", "ios": "https://dc.lft.to/lastmile_qr_scan"}, "fusion_lon": 0.0}, {"lat": 38.90285016666667, "is_disabled": 0, "type": "electric_scooter", "lon": -77.0384705, "bike_id": "9b0bb1a40937a84372deda4bbcc3bc27", "fusion_lat": 0.0, "name": "9b0bb1a40937a84372deda4bbcc3bc27", "is_reserved": 0, "rental_uris": {"android": "https://dc.lft.to/lastmile_qr_scan", "ios": "https://dc.lft.to/lastmile_qr_scan"}, "fusion_lon": 0.0}, {"lat": 38.93959383333333, "is_disabled": 0, "type": "electric_bike", "lon": -77.36096333333333, "bike_id": "ae5954a3531981a516185a93b34f93d0", "fusion_lat": 0.0, "name": "ae5954a3531981a516185a93b34f93d0", "is_reserved": 0, "rental_uris": {"android": "https://dc.lft.to/lastmile_qr_scan", "ios": "https://dc.lft.to/lastmile_qr_scan"}, "fusion_lon": 0.0}, {"lat": 38.952857, "is_disabled": 0, "type": "electric_bike", "lon": -76.94595283333334, "bike_id": "89bb36c0946f1031264df8e9c06c3bfc", "fusion_lat": 0.0, "name": "89bb36c0946f1031264df8e9c06c3bfc", "is_reserved": 0, "rental_uris": {"android": "https://dc.lft.to/lastmile_qr_scan", "ios": "https://dc.lft.to/lastmile_qr_scan"}, "fusion_lon": 0.0}, {"lat": 38.95642566666667, "is_disabled": 0, "type": "electric_bike", "lon": -77.02258583333334, "bike_id": "c9764f4094a2f5aeff841722a62ef360", "fusion_lat": 0.0, "name": "c9764f4094a2f5aeff841722a62ef360", "is_reserved": 0, "rental_uris": {"android": "https://dc.lft.to/lastmile_qr_scan", "ios": "https://dc.lft.to/lastmile_qr_scan"}, "fusion_lon": 0.0}, {"lat": 38.92259716666667, "is_disabled": 0, "type": "electric_scooter", "lon": -77.04149733333334, "bike_id": "ce0521e4fb6cd22427dbbce6cbaf1830", "fusion_lat": 0.0, "name": "ce0521e4fb6cd22427dbbce6cbaf1830", "is_reserved": 0, "rental_uris": {"android": "https://dc.lft.to/lastmile_qr_scan", "ios": "https://dc.lft.to/lastmile_qr_scan"}, "fusion_lon": 0.0}, {"lat": 38.917083, "is_disabled": 0, "type": "electric_scooter", "lon": -77.00110333333333, "bike_id": "1b1e5dbf7507fdc327dc2cd4dd25904d", "fusion_lat": 0.0, "name": "1b1e5dbf7507fdc327dc2cd4dd25904d", "is_reserved": 0, "rental_uris": {"android": "https://dc.lft.to/lastmile_qr_scan", "ios": "https://dc.lft.to/lastmile_qr_scan"}, "fusion_lon": 0.0}, {"lat": 38.884914, "is_disabled": 0, "type": "electric_scooter", "lon": -77.0072595, "bike_id": "0cbf1db3dbb0a70f37f53c013aa355ed", "fusion_lat": 0.0, "name": "0cbf1db3dbb0a70f37f53c013aa355ed", "is_reserved": 0, "rental_uris": {"android": "https://dc.lft.to/lastmile_qr_scan", "ios": "https://dc.lft.to/lastmile_qr_scan"}, "fusion_lon": 0.0}, {"lat": 38.89555333333333, "is_disabled": 0, "type": "electric_scooter", "lon": -76.930781, "bike_id": "22e1700b975ea8ad506679a9f85e2c19", "fusion_lat": 0.0, "name": "22e1700b975ea8ad506679a9f85e2c19", "is_reserved": 0, "rental_uris": {"android": "https://dc.lft.to/lastmile_qr_scan", "ios": "https://dc.lft.to/lastmile_qr_scan"}, "fusion_lon": 0.0}, {"lat": 38.902726333333334, "is_disabled": 0, "type": "electric_scooter", "lon": -77.00318683333333, "bike_id": "cedb8046a9bb3653a7e1dd3c2e2d611e", "fusion_lat": 0.0, "name": "cedb8046a9bb3653a7e1dd3c2e2d611e", "is_reserved": 0, "rental_uris": {"android": "https://dc.lft.to/lastmile_qr_scan", "ios": "https://dc.lft.to/lastmile_qr_scan"}, "fusion_lon": 0.0}, {"lat": 38.928216666666664, "is_disabled": 0, "type": "electric_scooter", "lon": -77.0262915, "bike_id": "62926f0f7a08a1979ec83b4dac4ace1d", "fusion_lat": 0.0, "name": "62926f0f7a08a1979ec83b4dac4ace1d", "is_reserved": 0, "rental_uris": {"android": "https://dc.lft.to/lastmile_qr_scan", "ios": "https://dc.lft.to/lastmile_qr_scan"}, "fusion_lon": 0.0}, {"lat": 38.86910983333333, "is_disabled": 0, "type": "electric_bike", "lon": -77.1318175, "bike_id": "a4da6cc2ba4e89b34388f1042ed45db1", "fusion_lat": 0.0, "name": "a4da6cc2ba4e89b34388f1042ed45db1", "is_reserved": 0, "rental_uris": {"android": "https://dc.lft.to/lastmile_qr_scan", "ios": "https://dc.lft.to/lastmile_qr_scan"}, "fusion_lon": 0.0}, {"lat": 38.88612333333333, "is_disabled": 0, "type": "electric_scooter", "lon": -77.02195716666667, "bike_id": "d4c612292bba60797fdf92a2dc9f92ea", "fusion_lat": 0.0, "name": "d4c612292bba60797fdf92a2dc9f92ea", "is_reserved": 0, "rental_uris": {"android": "https://dc.lft.to/lastmile_qr_scan", "ios": "https://dc.lft.to/lastmile_qr_scan"}, "fusion_lon": 0.0}, {"lat": 38.9174115, "is_disabled": 0, "type": "electric_scooter", "lon": -77.00745333333333, "bike_id": "5c6b535fff4bba510f41ef2d366892be", "fusion_lat": 0.0, "name": "5c6b535fff4bba510f41ef2d366892be", "is_reserved": 0, "rental_uris": {"android": "https://dc.lft.to/lastmile_qr_scan", "ios": "https://dc.lft.to/lastmile_qr_scan"}, "fusion_lon": 0.0}, {"lat": 38.90378883333333, "is_disabled": 0, "type": "electric_scooter", "lon": -77.04335466666667, "bike_id": "17686b6e5837f8ea08e78e4247c96443", "fusion_lat": 0.0, "name": "17686b6e5837f8ea08e78e4247c96443", "is_reserved": 0, "rental_uris": {"android": "https://dc.lft.to/lastmile_qr_scan", "ios": "https://dc.lft.to/lastmile_qr_scan"}, "fusion_lon": 0.0}, {"lat": 38.93172533333333, "is_disabled": 0, "type": "electric_scooter", "lon": -77.02813433333333, "bike_id": "d563f7860e24cb66214dde1dfc8421d1", "fusion_lat": 0.0, "name": "d563f7860e24cb66214dde1dfc8421d1", "is_reserved": 0, "rental_uris": {"android": "https://dc.lft.to/lastmile_qr_scan", "ios": "https://dc.lft.to/lastmile_qr_scan"}, "fusion_lon": 0.0}, {"lat": 38.890414, "is_disabled": 0, "type": "electric_scooter", "lon": -76.951395, "bike_id": "94f3b3807ca2c1bcd380558e041ed860", "fusion_lat": 0.0, "name": "94f3b3807ca2c1bcd380558e041ed860", "is_reserved": 0, "rental_uris": {"android": "https://dc.lft.to/lastmile_qr_scan", "ios": "https://dc.lft.to/lastmile_qr_scan"}, "fusion_lon": 0.0}, {"lat": 38.90543683333333, "is_disabled": 0, "type": "electric_scooter", "lon": -77.03398483333334, "bike_id": "8dea705f00b1cabb64afe4bd14387537", "fusion_lat": 0.0, "name": "8dea705f00b1cabb64afe4bd14387537", "is_reserved": 0, "rental_uris": {"android": "https://dc.lft.to/lastmile_qr_scan", "ios": "https://dc.lft.to/lastmile_qr_scan"}, "fusion_lon": 0.0}, {"lat": 38.910441666666664, "is_disabled": 0, "type": "electric_scooter", "lon": -77.01504733333333, "bike_id": "b7968a12fbe32a4585d9016454bca39c", "fusion_lat": 0.0, "name": "b7968a12fbe32a4585d9016454bca39c", "is_reserved": 0, "rental_uris": {"android": "https://dc.lft.to/lastmile_qr_scan", "ios": "https://dc.lft.to/lastmile_qr_scan"}, "fusion_lon": 0.0}, {"lat": 38.90655116666667, "is_disabled": 0, "type": "electric_scooter", "lon": -77.025916, "bike_id": "791fe55e9cebe3258662728d67d6ee87", "fusion_lat": 0.0, "name": "791fe55e9cebe3258662728d67d6ee87", "is_reserved": 0, "rental_uris": {"android": "https://dc.lft.to/lastmile_qr_scan", "ios": "https://dc.lft.to/lastmile_qr_scan"}, "fusion_lon": 0.0}, {"lat": 38.90766583333333, "is_disabled": 0, "type": "electric_scooter", "lon": -77.042378, "bike_id": "5e9004f043e3001c653b98958d30e77a", "fusion_lat": 0.0, "name": "5e9004f043e3001c653b98958d30e77a", "is_reserved": 0, "rental_uris": {"android": "https://dc.lft.to/lastmile_qr_scan", "ios": "https://dc.lft.to/lastmile_qr_scan"}, "fusion_lon": 0.0}, {"lat": 38.93413066666667, "is_disabled": 0, "type": "electric_scooter", "lon": -77.05779066666666, "bike_id": "48bb0bd178099372a410e012ea24e582", "fusion_lat": 0.0, "name": "48bb0bd178099372a410e012ea24e582", "is_reserved": 0, "rental_uris": {"android": "https://dc.lft.to/lastmile_qr_scan", "ios": "https://dc.lft.to/lastmile_qr_scan"}, "fusion_lon": 0.0}, {"lat": 38.840321, "is_disabled": 0, "type": "electric_bike", "lon": -76.97624933333333, "bike_id": "f89cebf729dc771235673b195dd0885f", "fusion_lat": 0.0, "name": "f89cebf729dc771235673b195dd0885f", "is_reserved": 0, "rental_uris": {"android": "https://dc.lft.to/lastmile_qr_scan", "ios": "https://dc.lft.to/lastmile_qr_scan"}, "fusion_lon": 0.0}, {"lat": 38.9105885, "is_disabled": 0, "type": "electric_scooter", "lon": -77.0265565, "bike_id": "2c237c52eb30b6a67dd811160e8155ff", "fusion_lat": 0.0, "name": "2c237c52eb30b6a67dd811160e8155ff", "is_reserved": 0, "rental_uris": {"android": "https://dc.lft.to/lastmile_qr_scan", "ios": "https://dc.lft.to/lastmile_qr_scan"}, "fusion_lon": 0.0}, {"lat": 38.905709, "is_disabled": 0, "type": "electric_scooter", "lon": -77.0293005, "bike_id": "4deb88b6b27acd908caa5a43721ce847", "fusion_lat": 0.0, "name": "4deb88b6b27acd908caa5a43721ce847", "is_reserved": 0, "rental_uris": {"android": "https://dc.lft.to/lastmile_qr_scan", "ios": "https://dc.lft.to/lastmile_qr_scan"}, "fusion_lon": 0.0}, {"lat": 38.922022, "is_disabled": 0, "type": "electric_scooter", "lon": -77.04014383333333, "bike_id": "e340a0d067ce247d4a2c2f70e2ffabc7", "fusion_lat": 0.0, "name": "e340a0d067ce247d4a2c2f70e2ffabc7", "is_reserved": 0, "rental_uris": {"android": "https://dc.lft.to/lastmile_qr_scan", "ios": "https://dc.lft.to/lastmile_qr_scan"}, "fusion_lon": 0.0}, {"lat": 38.954018, "is_disabled": 0, "type": "electric_scooter", "lon": -77.0362755, "bike_id": "724a912d74e6b10f0d759190a76f253a", "fusion_lat": 0.0, "name": "724a912d74e6b10f0d759190a76f253a", "is_reserved": 0, "rental_uris": {"android": "https://dc.lft.to/lastmile_qr_scan", "ios": "https://dc.lft.to/lastmile_qr_scan"}, "fusion_lon": 0.0}, {"lat": 38.92326466666667, "is_disabled": 0, "type": "electric_scooter", "lon": -77.03566866666667, "bike_id": "579e1436ccf7b1d3af1615d3c9116a6a", "fusion_lat": 0.0, "name": "579e1436ccf7b1d3af1615d3c9116a6a", "is_reserved": 0, "rental_uris": {"android": "https://dc.lft.to/lastmile_qr_scan", "ios": "https://dc.lft.to/lastmile_qr_scan"}, "fusion_lon": 0.0}, {"lat": 38.895153, "is_disabled": 0, "type": "electric_scooter", "lon": -76.9490155, "bike_id": "e0e1bf40b62b6e58c4ab3152cadd7f2c", "fusion_lat": 0.0, "name": "e0e1bf40b62b6e58c4ab3152cadd7f2c", "is_reserved": 0, "rental_uris": {"android": "https://dc.lft.to/lastmile_qr_scan", "ios": "https://dc.lft.to/lastmile_qr_scan"}, "fusion_lon": 0.0}, {"lat": 38.910092, "is_disabled": 0, "type": "electric_scooter", "lon": -77.02693933333333, "bike_id": "53169f53751afe2bb7660c14690bd76a", "fusion_lat": 0.0, "name": "53169f53751afe2bb7660c14690bd76a", "is_reserved": 0, "rental_uris": {"android": "https://dc.lft.to/lastmile_qr_scan", "ios": "https://dc.lft.to/lastmile_qr_scan"}, "fusion_lon": 0.0}, {"lat": 38.912887166666664, "is_disabled": 0, "type": "electric_scooter", "lon": -77.04000883333333, "bike_id": "4c2411faa1da2d26dd4db243fa980e0f", "fusion_lat": 0.0, "name": "4c2411faa1da2d26dd4db243fa980e0f", "is_reserved": 0, "rental_uris": {"android": "https://dc.lft.to/lastmile_qr_scan", "ios": "https://dc.lft.to/lastmile_qr_scan"}, "fusion_lon": 0.0}, {"lat": 38.9170835, "is_disabled": 0, "type": "electric_scooter", "lon": -77.034703, "bike_id": "52dbf8e70010463ef5c58ef974cf591a", "fusion_lat": 0.0, "name": "52dbf8e70010463ef5c58ef974cf591a", "is_reserved": 0, "rental_uris": {"android": "https://dc.lft.to/lastmile_qr_scan", "ios": "https://dc.lft.to/lastmile_qr_scan"}, "fusion_lon": 0.0}, {"lat": 38.970828, "is_disabled": 0, "type": "electric_bike", "lon": -77.06965333333333, "bike_id": "61ecf934b13dde18e958e34926c367aa", "fusion_lat": 0.0, "name": "61ecf934b13dde18e958e34926c367aa", "is_reserved": 0, "rental_uris": {"android": "https://dc.lft.to/lastmile_qr_scan", "ios": "https://dc.lft.to/lastmile_qr_scan"}, "fusion_lon": 0.0}, {"lat": 38.85209583333334, "is_disabled": 0, "type": "electric_bike", "lon": -77.101316, "bike_id": "c1d36e6059e4cdb0365e14f68cdda631", "fusion_lat": 0.0, "name": "c1d36e6059e4cdb0365e14f68cdda631", "is_reserved": 0, "rental_uris": {"android": "https://dc.lft.to/lastmile_qr_scan", "ios": "https://dc.lft.to/lastmile_qr_scan"}, "fusion_lon": 0.0}, {"lat": 38.926768, "is_disabled": 0, "type": "electric_scooter", "lon": -77.02861083333333, "bike_id": "a584e67da1d8c9b0c00680a33fc1200d", "fusion_lat": 0.0, "name": "a584e67da1d8c9b0c00680a33fc1200d", "is_reserved": 0, "rental_uris": {"android": "https://dc.lft.to/lastmile_qr_scan", "ios": "https://dc.lft.to/lastmile_qr_scan"}, "fusion_lon": 0.0}, {"lat": 38.9210685, "is_disabled": 0, "type": "electric_scooter", "lon": -77.01808683333333, "bike_id": "f4f46bb785ec54252fa0a7d1beeaaf6e", "fusion_lat": 0.0, "name": "f4f46bb785ec54252fa0a7d1beeaaf6e", "is_reserved": 0, "rental_uris": {"android": "https://dc.lft.to/lastmile_qr_scan", "ios": "https://dc.lft.to/lastmile_qr_scan"}, "fusion_lon": 0.0}, {"lat": 38.905645, "is_disabled": 0, "type": "electric_scooter", "lon": -77.0179185, "bike_id": "20602ab919ac8392426f45537c20b140", "fusion_lat": 0.0, "name": "20602ab919ac8392426f45537c20b140", "is_reserved": 0, "rental_uris": {"android": "https://dc.lft.to/lastmile_qr_scan", "ios": "https://dc.lft.to/lastmile_qr_scan"}, "fusion_lon": 0.0}, {"lat": 38.92909783333333, "is_disabled": 0, "type": "electric_scooter", "lon": -77.02187383333333, "bike_id": "61b16eb76ba182eacf33e5b4eaa007de", "fusion_lat": 0.0, "name": "61b16eb76ba182eacf33e5b4eaa007de", "is_reserved": 0, "rental_uris": {"android": "https://dc.lft.to/lastmile_qr_scan", "ios": "https://dc.lft.to/lastmile_qr_scan"}, "fusion_lon": 0.0}, {"lat": 38.96112466666666, "is_disabled": 0, "type": "electric_scooter", "lon": -77.028151, "bike_id": "fcf3630b08ff805b44c9d07a732523e6", "fusion_lat": 0.0, "name": "fcf3630b08ff805b44c9d07a732523e6", "is_reserved": 0, "rental_uris": {"android": "https://dc.lft.to/lastmile_qr_scan", "ios": "https://dc.lft.to/lastmile_qr_scan"}, "fusion_lon": 0.0}, {"lat": 38.892214833333334, "is_disabled": 0, "type": "electric_scooter", "lon": -77.0211995, "bike_id": "4822d2160c72bbe1f045260cf549e09a", "fusion_lat": 0.0, "name": "4822d2160c72bbe1f045260cf549e09a", "is_reserved": 0, "rental_uris": {"android": "https://dc.lft.to/lastmile_qr_scan", "ios": "https://dc.lft.to/lastmile_qr_scan"}, "fusion_lon": 0.0}, {"lat": 38.90685583333333, "is_disabled": 0, "type": "electric_scooter", "lon": -77.0606745, "bike_id": "c81652adf3742ef44682561799a416fe", "fusion_lat": 0.0, "name": "c81652adf3742ef44682561799a416fe", "is_reserved": 0, "rental_uris": {"android": "https://dc.lft.to/lastmile_qr_scan", "ios": "https://dc.lft.to/lastmile_qr_scan"}, "fusion_lon": 0.0}, {"lat": 38.92589183333333, "is_disabled": 0, "type": "electric_scooter", "lon": -77.05759833333333, "bike_id": "20fb12031117bf5c4636c8c73ba1b0b4", "fusion_lat": 0.0, "name": "20fb12031117bf5c4636c8c73ba1b0b4", "is_reserved": 0, "rental_uris": {"android": "https://dc.lft.to/lastmile_qr_scan", "ios": "https://dc.lft.to/lastmile_qr_scan"}, "fusion_lon": 0.0}, {"lat": 38.9023705, "is_disabled": 0, "type": "electric_scooter", "lon": -77.01757816666667, "bike_id": "7a4609fdff59c7e3fd30b0103c2d3706", "fusion_lat": 0.0, "name": "7a4609fdff59c7e3fd30b0103c2d3706", "is_reserved": 0, "rental_uris": {"android": "https://dc.lft.to/lastmile_qr_scan", "ios": "https://dc.lft.to/lastmile_qr_scan"}, "fusion_lon": 0.0}, {"lat": 38.90297533333333, "is_disabled": 0, "type": "electric_scooter", "lon": -77.0004395, "bike_id": "bab81a4814b63a38e44d4bbb49a85e00", "fusion_lat": 0.0, "name": "bab81a4814b63a38e44d4bbb49a85e00", "is_reserved": 0, "rental_uris": {"android": "https://dc.lft.to/lastmile_qr_scan", "ios": "https://dc.lft.to/lastmile_qr_scan"}, "fusion_lon": 0.0}, {"lat": 38.922092166666665, "is_disabled": 0, "type": "electric_scooter", "lon": -77.0397815, "bike_id": "b9303777039252212e30fc2e377a40a1", "fusion_lat": 0.0, "name": "b9303777039252212e30fc2e377a40a1", "is_reserved": 0, "rental_uris": {"android": "https://dc.lft.to/lastmile_qr_scan", "ios": "https://dc.lft.to/lastmile_qr_scan"}, "fusion_lon": 0.0}, {"lat": 38.924817, "is_disabled": 0, "type": "electric_scooter", "lon": -77.02829483333333, "bike_id": "c377cd40c53ddf9f4b4db5a37cb80890", "fusion_lat": 0.0, "name": "c377cd40c53ddf9f4b4db5a37cb80890", "is_reserved": 0, "rental_uris": {"android": "https://dc.lft.to/lastmile_qr_scan", "ios": "https://dc.lft.to/lastmile_qr_scan"}, "fusion_lon": 0.0}, {"lat": 38.986680666666665, "is_disabled": 0, "type": "electric_bike", "lon": -77.0563245, "bike_id": "de9f7560278c80e97915c01225674dac", "fusion_lat": 0.0, "name": "de9f7560278c80e97915c01225674dac", "is_reserved": 0, "rental_uris": {"android": "https://dc.lft.to/lastmile_qr_scan", "ios": "https://dc.lft.to/lastmile_qr_scan"}, "fusion_lon": 0.0}, {"lat": 38.906813666666665, "is_disabled": 0, "type": "electric_scooter", "lon": -77.06272233333334, "bike_id": "8cd2cce0d08d2bae9b440755a1120715", "fusion_lat": 0.0, "name": "8cd2cce0d08d2bae9b440755a1120715", "is_reserved": 0, "rental_uris": {"android": "https://dc.lft.to/lastmile_qr_scan", "ios": "https://dc.lft.to/lastmile_qr_scan"}, "fusion_lon": 0.0}, {"lat": 38.9154995, "is_disabled": 0, "type": "electric_scooter", "lon": -77.01233466666666, "bike_id": "1906bd0d1c4333a1314e0e51708f7801", "fusion_lat": 0.0, "name": "1906bd0d1c4333a1314e0e51708f7801", "is_reserved": 0, "rental_uris": {"android": "https://dc.lft.to/lastmile_qr_scan", "ios": "https://dc.lft.to/lastmile_qr_scan"}, "fusion_lon": 0.0}, {"lat": 38.914724, "is_disabled": 0, "type": "electric_scooter", "lon": -77.00348016666666, "bike_id": "9bd5887e7c83f7e8c3e353ae4dfb5e5a", "fusion_lat": 0.0, "name": "9bd5887e7c83f7e8c3e353ae4dfb5e5a", "is_reserved": 0, "rental_uris": {"android": "https://dc.lft.to/lastmile_qr_scan", "ios": "https://dc.lft.to/lastmile_qr_scan"}, "fusion_lon": 0.0}, {"lat": 38.9502995, "is_disabled": 0, "type": "electric_bike", "lon": -77.02966183333334, "bike_id": "041f1a429b5c2120f5cd38babcae6ac2", "fusion_lat": 0.0, "name": "041f1a429b5c2120f5cd38babcae6ac2", "is_reserved": 0, "rental_uris": {"android": "https://dc.lft.to/lastmile_qr_scan", "ios": "https://dc.lft.to/lastmile_qr_scan"}, "fusion_lon": 0.0}, {"lat": 38.92301, "is_disabled": 0, "type": "electric_bike", "lon": -76.9938075, "bike_id": "f74022f435114aea15dc43aff1e9b117", "fusion_lat": 0.0, "name": "f74022f435114aea15dc43aff1e9b117", "is_reserved": 0, "rental_uris": {"android": "https://dc.lft.to/lastmile_qr_scan", "ios": "https://dc.lft.to/lastmile_qr_scan"}, "fusion_lon": 0.0}, {"lat": 38.9240525, "is_disabled": 0, "type": "electric_scooter", "lon": -77.03555583333333, "bike_id": "47f938b466a3305f9fce3fe9a7458697", "fusion_lat": 0.0, "name": "47f938b466a3305f9fce3fe9a7458697", "is_reserved": 0, "rental_uris": {"android": "https://dc.lft.to/lastmile_qr_scan", "ios": "https://dc.lft.to/lastmile_qr_scan"}, "fusion_lon": 0.0}, {"lat": 38.90780183333333, "is_disabled": 0, "type": "electric_scooter", "lon": -77.038556, "bike_id": "0ad1a6dfb3304cd48fb69ecce8b1442f", "fusion_lat": 0.0, "name": "0ad1a6dfb3304cd48fb69ecce8b1442f", "is_reserved": 0, "rental_uris": {"android": "https://dc.lft.to/lastmile_qr_scan", "ios": "https://dc.lft.to/lastmile_qr_scan"}, "fusion_lon": 0.0}, {"lat": 38.844244833333335, "is_disabled": 0, "type": "electric_scooter", "lon": -76.99778766666667, "bike_id": "c52a9ab526eb0355777112b47edb0849", "fusion_lat": 0.0, "name": "c52a9ab526eb0355777112b47edb0849", "is_reserved": 0, "rental_uris": {"android": "https://dc.lft.to/lastmile_qr_scan", "ios": "https://dc.lft.to/lastmile_qr_scan"}, "fusion_lon": 0.0}, {"lat": 38.850217666666666, "is_disabled": 0, "type": "electric_bike", "lon": -77.09808383333333, "bike_id": "19a84be5216fc6dcff90112f1d36e28d", "fusion_lat": 0.0, "name": "19a84be5216fc6dcff90112f1d36e28d", "is_reserved": 0, "rental_uris": {"android": "https://dc.lft.to/lastmile_qr_scan", "ios": "https://dc.lft.to/lastmile_qr_scan"}, "fusion_lon": 0.0}, {"lat": 38.94064316666667, "is_disabled": 0, "type": "electric_scooter", "lon": -76.99461266666667, "bike_id": "816fa4749895c72e4e9462a481ba07e2", "fusion_lat": 0.0, "name": "816fa4749895c72e4e9462a481ba07e2", "is_reserved": 0, "rental_uris": {"android": "https://dc.lft.to/lastmile_qr_scan", "ios": "https://dc.lft.to/lastmile_qr_scan"}, "fusion_lon": 0.0}, {"lat": 38.901728, "is_disabled": 0, "type": "electric_scooter", "lon": -77.02422166666666, "bike_id": "854c07923fa233e0fef787e5534f6e49", "fusion_lat": 0.0, "name": "854c07923fa233e0fef787e5534f6e49", "is_reserved": 0, "rental_uris": {"android": "https://dc.lft.to/lastmile_qr_scan", "ios": "https://dc.lft.to/lastmile_qr_scan"}, "fusion_lon": 0.0}, {"lat": 38.89765666666667, "is_disabled": 0, "type": "electric_scooter", "lon": -77.05004666666666, "bike_id": "5a7824865b17c34159ccca244f45ce63", "fusion_lat": 0.0, "name": "5a7824865b17c34159ccca244f45ce63", "is_reserved": 0, "rental_uris": {"android": "https://dc.lft.to/lastmile_qr_scan", "ios": "https://dc.lft.to/lastmile_qr_scan"}, "fusion_lon": 0.0}, {"lat": 38.9307215, "is_disabled": 0, "type": "electric_scooter", "lon": -77.07758816666667, "bike_id": "dfc029fbe57438ac8b768cf4de60bcb1", "fusion_lat": 0.0, "name": "dfc029fbe57438ac8b768cf4de60bcb1", "is_reserved": 0, "rental_uris": {"android": "https://dc.lft.to/lastmile_qr_scan", "ios": "https://dc.lft.to/lastmile_qr_scan"}, "fusion_lon": 0.0}, {"lat": 38.88484033333334, "is_disabled": 0, "type": "electric_scooter", "lon": -76.94524233333334, "bike_id": "c96282ce91e54c3a75025e3ec29de51d", "fusion_lat": 0.0, "name": "c96282ce91e54c3a75025e3ec29de51d", "is_reserved": 0, "rental_uris": {"android": "https://dc.lft.to/lastmile_qr_scan", "ios": "https://dc.lft.to/lastmile_qr_scan"}, "fusion_lon": 0.0}, {"lat": 38.91778983333333, "is_disabled": 0, "type": "electric_scooter", "lon": -77.02233216666667, "bike_id": "b1c32a77c64034b9fea75b00ada6d63e", "fusion_lat": 0.0, "name": "b1c32a77c64034b9fea75b00ada6d63e", "is_reserved": 0, "rental_uris": {"android": "https://dc.lft.to/lastmile_qr_scan", "ios": "https://dc.lft.to/lastmile_qr_scan"}, "fusion_lon": 0.0}, {"lat": 38.900247666666665, "is_disabled": 0, "type": "electric_scooter", "lon": -76.983675, "bike_id": "32a19b44c1d3f6e341864051f52792e7", "fusion_lat": 0.0, "name": "32a19b44c1d3f6e341864051f52792e7", "is_reserved": 0, "rental_uris": {"android": "https://dc.lft.to/lastmile_qr_scan", "ios": "https://dc.lft.to/lastmile_qr_scan"}, "fusion_lon": 0.0}, {"lat": 38.931423333333335, "is_disabled": 0, "type": "electric_scooter", "lon": -77.021433, "bike_id": "8f55bc099b93ee82cf65b06bd820493b", "fusion_lat": 0.0, "name": "8f55bc099b93ee82cf65b06bd820493b", "is_reserved": 0, "rental_uris": {"android": "https://dc.lft.to/lastmile_qr_scan", "ios": "https://dc.lft.to/lastmile_qr_scan"}, "fusion_lon": 0.0}, {"lat": 38.904176166666666, "is_disabled": 0, "type": "electric_scooter", "lon": -77.02904783333334, "bike_id": "d47387329dcf4791ce398aa2a02a3d04", "fusion_lat": 0.0, "name": "d47387329dcf4791ce398aa2a02a3d04", "is_reserved": 0, "rental_uris": {"android": "https://dc.lft.to/lastmile_qr_scan", "ios": "https://dc.lft.to/lastmile_qr_scan"}, "fusion_lon": 0.0}, {"lat": 38.90867733333333, "is_disabled": 0, "type": "electric_scooter", "lon": -77.045913, "bike_id": "0e37c89dcfacbe36319cf6f24095c6bf", "fusion_lat": 0.0, "name": "0e37c89dcfacbe36319cf6f24095c6bf", "is_reserved": 0, "rental_uris": {"android": "https://dc.lft.to/lastmile_qr_scan", "ios": "https://dc.lft.to/lastmile_qr_scan"}, "fusion_lon": 0.0}, {"lat": 38.8701335, "is_disabled": 0, "type": "electric_bike", "lon": -76.96020533333333, "bike_id": "268587709730fd997c8de71d791bab57", "fusion_lat": 0.0, "name": "268587709730fd997c8de71d791bab57", "is_reserved": 0, "rental_uris": {"android": "https://dc.lft.to/lastmile_qr_scan", "ios": "https://dc.lft.to/lastmile_qr_scan"}, "fusion_lon": 0.0}, {"lat": 38.8367475, "is_disabled": 0, "type": "electric_scooter", "lon": -77.00572566666666, "bike_id": "03427c27a690236c788e5c04a18981e8", "fusion_lat": 0.0, "name": "03427c27a690236c788e5c04a18981e8", "is_reserved": 0, "rental_uris": {"android": "https://dc.lft.to/lastmile_qr_scan", "ios": "https://dc.lft.to/lastmile_qr_scan"}, "fusion_lon": 0.0}, {"lat": 38.906062, "is_disabled": 0, "type": "electric_scooter", "lon": -77.0629625, "bike_id": "261777dd2a3695a5a68b1c2415574df6", "fusion_lat": 0.0, "name": "261777dd2a3695a5a68b1c2415574df6", "is_reserved": 0, "rental_uris": {"android": "https://dc.lft.to/lastmile_qr_scan", "ios": "https://dc.lft.to/lastmile_qr_scan"}, "fusion_lon": 0.0}, {"lat": 38.90051366666667, "is_disabled": 0, "type": "electric_scooter", "lon": -77.00208116666667, "bike_id": "8d78700789e603ff259cdb85525167f9", "fusion_lat": 0.0, "name": "8d78700789e603ff259cdb85525167f9", "is_reserved": 0, "rental_uris": {"android": "https://dc.lft.to/lastmile_qr_scan", "ios": "https://dc.lft.to/lastmile_qr_scan"}, "fusion_lon": 0.0}, {"lat": 38.953707333333334, "is_disabled": 0, "type": "electric_bike", "lon": -76.97973816666666, "bike_id": "d90da854540856ec246f493bd040a428", "fusion_lat": 0.0, "name": "d90da854540856ec246f493bd040a428", "is_reserved": 0, "rental_uris": {"android": "https://dc.lft.to/lastmile_qr_scan", "ios": "https://dc.lft.to/lastmile_qr_scan"}, "fusion_lon": 0.0}, {"lat": 38.90854566666667, "is_disabled": 0, "type": "electric_scooter", "lon": -77.04769216666666, "bike_id": "cc62ffb4c58d16b6ae6e6b7e06e875da", "fusion_lat": 0.0, "name": "cc62ffb4c58d16b6ae6e6b7e06e875da", "is_reserved": 0, "rental_uris": {"android": "https://dc.lft.to/lastmile_qr_scan", "ios": "https://dc.lft.to/lastmile_qr_scan"}, "fusion_lon": 0.0}, {"lat": 38.9097075, "is_disabled": 0, "type": "electric_bike", "lon": -77.08824516666667, "bike_id": "18713d8d7d88e5b339d4c6cda95e2c3f", "fusion_lat": 0.0, "name": "18713d8d7d88e5b339d4c6cda95e2c3f", "is_reserved": 0, "rental_uris": {"android": "https://dc.lft.to/lastmile_qr_scan", "ios": "https://dc.lft.to/lastmile_qr_scan"}, "fusion_lon": 0.0}, {"lat": 38.91554816666667, "is_disabled": 0, "type": "electric_scooter", "lon": -77.0104815, "bike_id": "94880f5a7be06ae612b3c8ca277bbd7d", "fusion_lat": 0.0, "name": "94880f5a7be06ae612b3c8ca277bbd7d", "is_reserved": 0, "rental_uris": {"android": "https://dc.lft.to/lastmile_qr_scan", "ios": "https://dc.lft.to/lastmile_qr_scan"}, "fusion_lon": 0.0}, {"lat": 38.9247585, "is_disabled": 0, "type": "electric_bike", "lon": -77.03745566666667, "bike_id": "05c841abf2b97dd3820909fc79e049f4", "fusion_lat": 0.0, "name": "05c841abf2b97dd3820909fc79e049f4", "is_reserved": 0, "rental_uris": {"android": "https://dc.lft.to/lastmile_qr_scan", "ios": "https://dc.lft.to/lastmile_qr_scan"}, "fusion_lon": 0.0}, {"lat": 38.9329105, "is_disabled": 0, "type": "electric_scooter", "lon": -77.04527983333334, "bike_id": "f26fd1868f0f6eba571837d18d23de09", "fusion_lat": 0.0, "name": "f26fd1868f0f6eba571837d18d23de09", "is_reserved": 0, "rental_uris": {"android": "https://dc.lft.to/lastmile_qr_scan", "ios": "https://dc.lft.to/lastmile_qr_scan"}, "fusion_lon": 0.0}, {"lat": 38.98432916666667, "is_disabled": 0, "type": "electric_scooter", "lon": -77.0267115, "bike_id": "6b4430ca1221cc4265cde8e435576d68", "fusion_lat": 0.0, "name": "6b4430ca1221cc4265cde8e435576d68", "is_reserved": 0, "rental_uris": {"android": "https://dc.lft.to/lastmile_qr_scan", "ios": "https://dc.lft.to/lastmile_qr_scan"}, "fusion_lon": 0.0}, {"lat": 38.91468233333333, "is_disabled": 0, "type": "electric_scooter", "lon": -77.01430916666666, "bike_id": "7784a63ac1f9497a277da73476a3191b", "fusion_lat": 0.0, "name": "7784a63ac1f9497a277da73476a3191b", "is_reserved": 0, "rental_uris": {"android": "https://dc.lft.to/lastmile_qr_scan", "ios": "https://dc.lft.to/lastmile_qr_scan"}, "fusion_lon": 0.0}, {"lat": 38.87738316666667, "is_disabled": 0, "type": "electric_scooter", "lon": -77.00296283333333, "bike_id": "0ac4ea33023d6d8c171448233e2e9e18", "fusion_lat": 0.0, "name": "0ac4ea33023d6d8c171448233e2e9e18", "is_reserved": 0, "rental_uris": {"android": "https://dc.lft.to/lastmile_qr_scan", "ios": "https://dc.lft.to/lastmile_qr_scan"}, "fusion_lon": 0.0}, {"lat": 38.870722, "is_disabled": 0, "type": "electric_bike", "lon": -76.97845983333333, "bike_id": "bef1d804e3a183d65b6a81379867acf1", "fusion_lat": 0.0, "name": "bef1d804e3a183d65b6a81379867acf1", "is_reserved": 0, "rental_uris": {"android": "https://dc.lft.to/lastmile_qr_scan", "ios": "https://dc.lft.to/lastmile_qr_scan"}, "fusion_lon": 0.0}, {"lat": 38.887987, "is_disabled": 0, "type": "electric_scooter", "lon": -76.93361516666667, "bike_id": "4307cad4203a431209c331af103d09f2", "fusion_lat": 0.0, "name": "4307cad4203a431209c331af103d09f2", "is_reserved": 0, "rental_uris": {"android": "https://dc.lft.to/lastmile_qr_scan", "ios": "https://dc.lft.to/lastmile_qr_scan"}, "fusion_lon": 0.0}, {"lat": 38.92355, "is_disabled": 0, "type": "electric_scooter", "lon": -77.05423783333333, "bike_id": "fb33fdc5d041b58ce2be160dd8882a21", "fusion_lat": 0.0, "name": "fb33fdc5d041b58ce2be160dd8882a21", "is_reserved": 0, "rental_uris": {"android": "https://dc.lft.to/lastmile_qr_scan", "ios": "https://dc.lft.to/lastmile_qr_scan"}, "fusion_lon": 0.0}, {"lat": 38.8277715, "is_disabled": 0, "type": "electric_bike", "lon": -77.00914016666667, "bike_id": "0041574d09cd4bb376882a5fffa53b07", "fusion_lat": 0.0, "name": "0041574d09cd4bb376882a5fffa53b07", "is_reserved": 0, "rental_uris": {"android": "https://dc.lft.to/lastmile_qr_scan", "ios": "https://dc.lft.to/lastmile_qr_scan"}, "fusion_lon": 0.0}, {"lat": 38.912539833333334, "is_disabled": 0, "type": "electric_scooter", "lon": -77.07107283333333, "bike_id": "b0f8591241ff030154b443288ff3072b", "fusion_lat": 0.0, "name": "b0f8591241ff030154b443288ff3072b", "is_reserved": 0, "rental_uris": {"android": "https://dc.lft.to/lastmile_qr_scan", "ios": "https://dc.lft.to/lastmile_qr_scan"}, "fusion_lon": 0.0}, {"lat": 38.89493783333333, "is_disabled": 0, "type": "electric_scooter", "lon": -77.0021335, "bike_id": "a64f4229d13fb32b9b8fddf39b41403c", "fusion_lat": 0.0, "name": "a64f4229d13fb32b9b8fddf39b41403c", "is_reserved": 0, "rental_uris": {"android": "https://dc.lft.to/lastmile_qr_scan", "ios": "https://dc.lft.to/lastmile_qr_scan"}, "fusion_lon": 0.0}, {"lat": 38.920297, "is_disabled": 0, "type": "electric_scooter", "lon": -77.01325066666666, "bike_id": "bad79da649baee5424778d64d0711978", "fusion_lat": 0.0, "name": "bad79da649baee5424778d64d0711978", "is_reserved": 0, "rental_uris": {"android": "https://dc.lft.to/lastmile_qr_scan", "ios": "https://dc.lft.to/lastmile_qr_scan"}, "fusion_lon": 0.0}, {"lat": 38.9262835, "is_disabled": 0, "type": "electric_scooter", "lon": -77.0418925, "bike_id": "3fa9a25fe478a77038b6c677f775f209", "fusion_lat": 0.0, "name": "3fa9a25fe478a77038b6c677f775f209", "is_reserved": 0, "rental_uris": {"android": "https://dc.lft.to/lastmile_qr_scan", "ios": "https://dc.lft.to/lastmile_qr_scan"}, "fusion_lon": 0.0}, {"lat": 38.89736083333333, "is_disabled": 0, "type": "electric_scooter", "lon": -77.02384133333334, "bike_id": "a9b23d9bbe4efc8851f62c5ffc756460", "fusion_lat": 0.0, "name": "a9b23d9bbe4efc8851f62c5ffc756460", "is_reserved": 0, "rental_uris": {"android": "https://dc.lft.to/lastmile_qr_scan", "ios": "https://dc.lft.to/lastmile_qr_scan"}, "fusion_lon": 0.0}, {"lat": 38.90837533333333, "is_disabled": 0, "type": "electric_scooter", "lon": -77.03461466666667, "bike_id": "fe358de5e0b39ecec960b022db3d382d", "fusion_lat": 0.0, "name": "fe358de5e0b39ecec960b022db3d382d", "is_reserved": 0, "rental_uris": {"android": "https://dc.lft.to/lastmile_qr_scan", "ios": "https://dc.lft.to/lastmile_qr_scan"}, "fusion_lon": 0.0}, {"lat": 38.91188833333333, "is_disabled": 0, "type": "electric_scooter", "lon": -77.023361, "bike_id": "e67d546dee417a1667cd29f5f9d6b0b8", "fusion_lat": 0.0, "name": "e67d546dee417a1667cd29f5f9d6b0b8", "is_reserved": 0, "rental_uris": {"android": "https://dc.lft.to/lastmile_qr_scan", "ios": "https://dc.lft.to/lastmile_qr_scan"}, "fusion_lon": 0.0}, {"lat": 38.90701133333334, "is_disabled": 0, "type": "electric_scooter", "lon": -77.02940783333334, "bike_id": "5d116756903b27af990aeb65b75b8bd8", "fusion_lat": 0.0, "name": "5d116756903b27af990aeb65b75b8bd8", "is_reserved": 0, "rental_uris": {"android": "https://dc.lft.to/lastmile_qr_scan", "ios": "https://dc.lft.to/lastmile_qr_scan"}, "fusion_lon": 0.0}, {"lat": 38.916576166666665, "is_disabled": 0, "type": "electric_scooter", "lon": -77.02273433333333, "bike_id": "e41ce3a84ec4d482125511c516a4ddef", "fusion_lat": 0.0, "name": "e41ce3a84ec4d482125511c516a4ddef", "is_reserved": 0, "rental_uris": {"android": "https://dc.lft.to/lastmile_qr_scan", "ios": "https://dc.lft.to/lastmile_qr_scan"}, "fusion_lon": 0.0}, {"lat": 38.907404, "is_disabled": 0, "type": "electric_scooter", "lon": -77.00930183333334, "bike_id": "27d1a8b125925d2857e2715d2bef2a20", "fusion_lat": 0.0, "name": "27d1a8b125925d2857e2715d2bef2a20", "is_reserved": 0, "rental_uris": {"android": "https://dc.lft.to/lastmile_qr_scan", "ios": "https://dc.lft.to/lastmile_qr_scan"}, "fusion_lon": 0.0}, {"lat": 38.901894, "is_disabled": 0, "type": "electric_scooter", "lon": -77.02484233333334, "bike_id": "48f098fcbc94b77908e9fd5e5e05ba69", "fusion_lat": 0.0, "name": "48f098fcbc94b77908e9fd5e5e05ba69", "is_reserved": 0, "rental_uris": {"android": "https://dc.lft.to/lastmile_qr_scan", "ios": "https://dc.lft.to/lastmile_qr_scan"}, "fusion_lon": 0.0}, {"lat": 38.8664535, "is_disabled": 0, "type": "electric_scooter", "lon": -76.98884133333334, "bike_id": "2e2767b94b79291ae65282c75207c334", "fusion_lat": 0.0, "name": "2e2767b94b79291ae65282c75207c334", "is_reserved": 0, "rental_uris": {"android": "https://dc.lft.to/lastmile_qr_scan", "ios": "https://dc.lft.to/lastmile_qr_scan"}, "fusion_lon": 0.0}, {"lat": 38.921477833333334, "is_disabled": 0, "type": "electric_scooter", "lon": -77.03345766666666, "bike_id": "4ec3e4f1fdf016553993e589788555ec", "fusion_lat": 0.0, "name": "4ec3e4f1fdf016553993e589788555ec", "is_reserved": 0, "rental_uris": {"android": "https://dc.lft.to/lastmile_qr_scan", "ios": "https://dc.lft.to/lastmile_qr_scan"}, "fusion_lon": 0.0}, {"lat": 38.9230825, "is_disabled": 0, "type": "electric_scooter", "lon": -77.0396095, "bike_id": "d1c437968ecf004cd94c9f8f5c732036", "fusion_lat": 0.0, "name": "d1c437968ecf004cd94c9f8f5c732036", "is_reserved": 0, "rental_uris": {"android": "https://dc.lft.to/lastmile_qr_scan", "ios": "https://dc.lft.to/lastmile_qr_scan"}, "fusion_lon": 0.0}, {"lat": 38.905746666666666, "is_disabled": 0, "type": "electric_scooter", "lon": -77.02955733333333, "bike_id": "f8927094975c0d6bb157a4175df8ce5d", "fusion_lat": 0.0, "name": "f8927094975c0d6bb157a4175df8ce5d", "is_reserved": 0, "rental_uris": {"android": "https://dc.lft.to/lastmile_qr_scan", "ios": "https://dc.lft.to/lastmile_qr_scan"}, "fusion_lon": 0.0}, {"lat": 38.913578, "is_disabled": 0, "type": "electric_scooter", "lon": -77.06921616666666, "bike_id": "585cb0ace2deebc9b83505be7c8226bb", "fusion_lat": 0.0, "name": "585cb0ace2deebc9b83505be7c8226bb", "is_reserved": 0, "rental_uris": {"android": "https://dc.lft.to/lastmile_qr_scan", "ios": "https://dc.lft.to/lastmile_qr_scan"}, "fusion_lon": 0.0}, {"lat": 38.931429, "is_disabled": 0, "type": "electric_scooter", "lon": -77.04144583333333, "bike_id": "ac57187d51bd9c444740f7055f39282f", "fusion_lat": 0.0, "name": "ac57187d51bd9c444740f7055f39282f", "is_reserved": 0, "rental_uris": {"android": "https://dc.lft.to/lastmile_qr_scan", "ios": "https://dc.lft.to/lastmile_qr_scan"}, "fusion_lon": 0.0}, {"lat": 38.927468166666664, "is_disabled": 0, "type": "electric_scooter", "lon": -77.02418816666666, "bike_id": "6d1a3af06332973018f44b445e229000", "fusion_lat": 0.0, "name": "6d1a3af06332973018f44b445e229000", "is_reserved": 0, "rental_uris": {"android": "https://dc.lft.to/lastmile_qr_scan", "ios": "https://dc.lft.to/lastmile_qr_scan"}, "fusion_lon": 0.0}, {"lat": 38.9274635, "is_disabled": 0, "type": "electric_bike", "lon": -77.034174, "bike_id": "b52df69eef109bb7c3e6b9cf6f01317a", "fusion_lat": 0.0, "name": "b52df69eef109bb7c3e6b9cf6f01317a", "is_reserved": 0, "rental_uris": {"android": "https://dc.lft.to/lastmile_qr_scan", "ios": "https://dc.lft.to/lastmile_qr_scan"}, "fusion_lon": 0.0}, {"lat": 38.95734266666667, "is_disabled": 0, "type": "electric_scooter", "lon": -77.024022, "bike_id": "4fdc680903ef909af2d127b82c4adaad", "fusion_lat": 0.0, "name": "4fdc680903ef909af2d127b82c4adaad", "is_reserved": 0, "rental_uris": {"android": "https://dc.lft.to/lastmile_qr_scan", "ios": "https://dc.lft.to/lastmile_qr_scan"}, "fusion_lon": 0.0}, {"lat": 38.923589, "is_disabled": 0, "type": "electric_scooter", "lon": -77.04151466666667, "bike_id": "dd71887ccaebc7101b974fb712c6113d", "fusion_lat": 0.0, "name": "dd71887ccaebc7101b974fb712c6113d", "is_reserved": 0, "rental_uris": {"android": "https://dc.lft.to/lastmile_qr_scan", "ios": "https://dc.lft.to/lastmile_qr_scan"}, "fusion_lon": 0.0}, {"lat": 38.922949333333335, "is_disabled": 0, "type": "electric_scooter", "lon": -77.042659, "bike_id": "7734f023eadd260085cfafe3f68f6869", "fusion_lat": 0.0, "name": "7734f023eadd260085cfafe3f68f6869", "is_reserved": 0, "rental_uris": {"android": "https://dc.lft.to/lastmile_qr_scan", "ios": "https://dc.lft.to/lastmile_qr_scan"}, "fusion_lon": 0.0}, {"lat": 38.94632283333333, "is_disabled": 0, "type": "electric_scooter", "lon": -77.02522933333333, "bike_id": "37dc4fb0d9a870b412ed40b62a9e3b0e", "fusion_lat": 0.0, "name": "37dc4fb0d9a870b412ed40b62a9e3b0e", "is_reserved": 0, "rental_uris": {"android": "https://dc.lft.to/lastmile_qr_scan", "ios": "https://dc.lft.to/lastmile_qr_scan"}, "fusion_lon": 0.0}, {"lat": 38.8973705, "is_disabled": 0, "type": "electric_scooter", "lon": -77.04671166666667, "bike_id": "ad332b8b6c097443f036c83200b15b11", "fusion_lat": 0.0, "name": "ad332b8b6c097443f036c83200b15b11", "is_reserved": 0, "rental_uris": {"android": "https://dc.lft.to/lastmile_qr_scan", "ios": "https://dc.lft.to/lastmile_qr_scan"}, "fusion_lon": 0.0}, {"lat": 38.90150366666667, "is_disabled": 0, "type": "electric_scooter", "lon": -77.00074933333333, "bike_id": "be30316e4e8ba56e7d1a844a3ed541d2", "fusion_lat": 0.0, "name": "be30316e4e8ba56e7d1a844a3ed541d2", "is_reserved": 0, "rental_uris": {"android": "https://dc.lft.to/lastmile_qr_scan", "ios": "https://dc.lft.to/lastmile_qr_scan"}, "fusion_lon": 0.0}, {"lat": 38.906396, "is_disabled": 0, "type": "electric_scooter", "lon": -77.0628555, "bike_id": "f309f9ea185f0ef7aa713a81d01278b6", "fusion_lat": 0.0, "name": "f309f9ea185f0ef7aa713a81d01278b6", "is_reserved": 0, "rental_uris": {"android": "https://dc.lft.to/lastmile_qr_scan", "ios": "https://dc.lft.to/lastmile_qr_scan"}, "fusion_lon": 0.0}, {"lat": 38.86254233333333, "is_disabled": 0, "type": "electric_scooter", "lon": -76.99509983333333, "bike_id": "f7f4af0886c6058f2bc0881bbf489d14", "fusion_lat": 0.0, "name": "f7f4af0886c6058f2bc0881bbf489d14", "is_reserved": 0, "rental_uris": {"android": "https://dc.lft.to/lastmile_qr_scan", "ios": "https://dc.lft.to/lastmile_qr_scan"}, "fusion_lon": 0.0}, {"lat": 38.92050116666667, "is_disabled": 0, "type": "electric_scooter", "lon": -77.02409583333333, "bike_id": "5eafc4d29a576abe5833bbfa4cc2aee6", "fusion_lat": 0.0, "name": "5eafc4d29a576abe5833bbfa4cc2aee6", "is_reserved": 0, "rental_uris": {"android": "https://dc.lft.to/lastmile_qr_scan", "ios": "https://dc.lft.to/lastmile_qr_scan"}, "fusion_lon": 0.0}, {"lat": 38.8972855, "is_disabled": 0, "type": "electric_scooter", "lon": -77.02388816666667, "bike_id": "1974a82c7c277b1dc4d1158b941a09b0", "fusion_lat": 0.0, "name": "1974a82c7c277b1dc4d1158b941a09b0", "is_reserved": 0, "rental_uris": {"android": "https://dc.lft.to/lastmile_qr_scan", "ios": "https://dc.lft.to/lastmile_qr_scan"}, "fusion_lon": 0.0}, {"lat": 38.92571983333333, "is_disabled": 0, "type": "electric_scooter", "lon": -77.02886733333334, "bike_id": "eeedc8f8ba52b912f8ef6ab682c2f892", "fusion_lat": 0.0, "name": "eeedc8f8ba52b912f8ef6ab682c2f892", "is_reserved": 0, "rental_uris": {"android": "https://dc.lft.to/lastmile_qr_scan", "ios": "https://dc.lft.to/lastmile_qr_scan"}, "fusion_lon": 0.0}, {"lat": 38.94091816666667, "is_disabled": 0, "type": "electric_scooter", "lon": -77.02303116666667, "bike_id": "481c7199e0b31bffead3a9b28d9e83f8", "fusion_lat": 0.0, "name": "481c7199e0b31bffead3a9b28d9e83f8", "is_reserved": 0, "rental_uris": {"android": "https://dc.lft.to/lastmile_qr_scan", "ios": "https://dc.lft.to/lastmile_qr_scan"}, "fusion_lon": 0.0}, {"lat": 38.879802166666664, "is_disabled": 0, "type": "electric_bike", "lon": -76.91598816666666, "bike_id": "b460cfa7dc4ce8796a3c40fb621e5e9f", "fusion_lat": 0.0, "name": "b460cfa7dc4ce8796a3c40fb621e5e9f", "is_reserved": 0, "rental_uris": {"android": "https://dc.lft.to/lastmile_qr_scan", "ios": "https://dc.lft.to/lastmile_qr_scan"}, "fusion_lon": 0.0}, {"lat": 38.90858816666667, "is_disabled": 0, "type": "electric_scooter", "lon": -77.04764316666666, "bike_id": "88d80bf7dfd103599dbe1dbd5b83b960", "fusion_lat": 0.0, "name": "88d80bf7dfd103599dbe1dbd5b83b960", "is_reserved": 0, "rental_uris": {"android": "https://dc.lft.to/lastmile_qr_scan", "ios": "https://dc.lft.to/lastmile_qr_scan"}, "fusion_lon": 0.0}, {"lat": 38.9022445, "is_disabled": 0, "type": "electric_scooter", "lon": -77.04588266666667, "bike_id": "da0b2bf64893cead805a4f0f73bf87b7", "fusion_lat": 0.0, "name": "da0b2bf64893cead805a4f0f73bf87b7", "is_reserved": 0, "rental_uris": {"android": "https://dc.lft.to/lastmile_qr_scan", "ios": "https://dc.lft.to/lastmile_qr_scan"}, "fusion_lon": 0.0}, {"lat": 38.889229666666665, "is_disabled": 0, "type": "electric_scooter", "lon": -76.97374416666666, "bike_id": "ed4afe68ed8f4c72e6b4bc44d3d5f6e7", "fusion_lat": 0.0, "name": "ed4afe68ed8f4c72e6b4bc44d3d5f6e7", "is_reserved": 0, "rental_uris": {"android": "https://dc.lft.to/lastmile_qr_scan", "ios": "https://dc.lft.to/lastmile_qr_scan"}, "fusion_lon": 0.0}, {"lat": 38.93513033333333, "is_disabled": 0, "type": "electric_scooter", "lon": -77.03671883333334, "bike_id": "76e6b3524bf282fcc1711e49c96a19ee", "fusion_lat": 0.0, "name": "76e6b3524bf282fcc1711e49c96a19ee", "is_reserved": 0, "rental_uris": {"android": "https://dc.lft.to/lastmile_qr_scan", "ios": "https://dc.lft.to/lastmile_qr_scan"}, "fusion_lon": 0.0}, {"lat": 38.90928916666667, "is_disabled": 0, "type": "electric_scooter", "lon": -77.038558, "bike_id": "8edfd3aeeba67ecff66f2d5a9297bcd6", "fusion_lat": 0.0, "name": "8edfd3aeeba67ecff66f2d5a9297bcd6", "is_reserved": 0, "rental_uris": {"android": "https://dc.lft.to/lastmile_qr_scan", "ios": "https://dc.lft.to/lastmile_qr_scan"}, "fusion_lon": 0.0}, {"lat": 38.861599, "is_disabled": 0, "type": "electric_bike", "lon": -77.13093016666667, "bike_id": "47e8a037b34dd590fe34f7f41c076e7e", "fusion_lat": 0.0, "name": "47e8a037b34dd590fe34f7f41c076e7e", "is_reserved": 0, "rental_uris": {"android": "https://dc.lft.to/lastmile_qr_scan", "ios": "https://dc.lft.to/lastmile_qr_scan"}, "fusion_lon": 0.0}, {"lat": 38.881097, "is_disabled": 0, "type": "electric_scooter", "lon": -76.983403, "bike_id": "b4716a1c35ccc9e912172178061583ef", "fusion_lat": 0.0, "name": "b4716a1c35ccc9e912172178061583ef", "is_reserved": 0, "rental_uris": {"android": "https://dc.lft.to/lastmile_qr_scan", "ios": "https://dc.lft.to/lastmile_qr_scan"}, "fusion_lon": 0.0}, {"lat": 38.916097666666666, "is_disabled": 0, "type": "electric_scooter", "lon": -77.03296733333333, "bike_id": "5f6eac1b8920b62f6994c90645b2a7b8", "fusion_lat": 0.0, "name": "5f6eac1b8920b62f6994c90645b2a7b8", "is_reserved": 0, "rental_uris": {"android": "https://dc.lft.to/lastmile_qr_scan", "ios": "https://dc.lft.to/lastmile_qr_scan"}, "fusion_lon": 0.0}, {"lat": 38.93664916666667, "is_disabled": 0, "type": "electric_scooter", "lon": -77.0592855, "bike_id": "98d4dd391bde015569e1e60764034746", "fusion_lat": 0.0, "name": "98d4dd391bde015569e1e60764034746", "is_reserved": 0, "rental_uris": {"android": "https://dc.lft.to/lastmile_qr_scan", "ios": "https://dc.lft.to/lastmile_qr_scan"}, "fusion_lon": 0.0}, {"lat": 38.84566433333333, "is_disabled": 0, "type": "electric_bike", "lon": -77.09622066666667, "bike_id": "c0e7ad8551c9a08b78040de419e2ca64", "fusion_lat": 0.0, "name": "c0e7ad8551c9a08b78040de419e2ca64", "is_reserved": 0, "rental_uris": {"android": "https://dc.lft.to/lastmile_qr_scan", "ios": "https://dc.lft.to/lastmile_qr_scan"}, "fusion_lon": 0.0}, {"lat": 38.86708933333333, "is_disabled": 0, "type": "electric_scooter", "lon": -76.98726733333334, "bike_id": "721aede380e25135a2eaa3e8bf045a58", "fusion_lat": 0.0, "name": "721aede380e25135a2eaa3e8bf045a58", "is_reserved": 0, "rental_uris": {"android": "https://dc.lft.to/lastmile_qr_scan", "ios": "https://dc.lft.to/lastmile_qr_scan"}, "fusion_lon": 0.0}, {"lat": 38.92703133333333, "is_disabled": 0, "type": "electric_scooter", "lon": -77.020908, "bike_id": "92e5328f7ab0749253cb3dce32f70404", "fusion_lat": 0.0, "name": "92e5328f7ab0749253cb3dce32f70404", "is_reserved": 0, "rental_uris": {"android": "https://dc.lft.to/lastmile_qr_scan", "ios": "https://dc.lft.to/lastmile_qr_scan"}, "fusion_lon": 0.0}, {"lat": 38.900712166666665, "is_disabled": 0, "type": "electric_scooter", "lon": -77.0505985, "bike_id": "36658f28ac08f3af1f678449df848a2e", "fusion_lat": 0.0, "name": "36658f28ac08f3af1f678449df848a2e", "is_reserved": 0, "rental_uris": {"android": "https://dc.lft.to/lastmile_qr_scan", "ios": "https://dc.lft.to/lastmile_qr_scan"}, "fusion_lon": 0.0}, {"lat": 38.83697033333333, "is_disabled": 0, "type": "electric_scooter", "lon": -77.10304283333333, "bike_id": "af21c9d90465909b4c438b42e41e91b3", "fusion_lat": 0.0, "name": "af21c9d90465909b4c438b42e41e91b3", "is_reserved": 0, "rental_uris": {"android": "https://dc.lft.to/lastmile_qr_scan", "ios": "https://dc.lft.to/lastmile_qr_scan"}, "fusion_lon": 0.0}, {"lat": 38.871452166666664, "is_disabled": 0, "type": "electric_bike", "lon": -76.93704616666666, "bike_id": "ca27f0c57ac6111d2a83ef1b54fbba0e", "fusion_lat": 0.0, "name": "ca27f0c57ac6111d2a83ef1b54fbba0e", "is_reserved": 0, "rental_uris": {"android": "https://dc.lft.to/lastmile_qr_scan", "ios": "https://dc.lft.to/lastmile_qr_scan"}, "fusion_lon": 0.0}, {"lat": 38.88693283333333, "is_disabled": 0, "type": "electric_scooter", "lon": -77.01762183333334, "bike_id": "7ffecceb6c9478f469b5f4b6234494fc", "fusion_lat": 0.0, "name": "7ffecceb6c9478f469b5f4b6234494fc", "is_reserved": 0, "rental_uris": {"android": "https://dc.lft.to/lastmile_qr_scan", "ios": "https://dc.lft.to/lastmile_qr_scan"}, "fusion_lon": 0.0}, {"lat": 38.9133735, "is_disabled": 0, "type": "electric_scooter", "lon": -77.0126105, "bike_id": "d311e655d60cd369e338e7a2ce03e3f1", "fusion_lat": 0.0, "name": "d311e655d60cd369e338e7a2ce03e3f1", "is_reserved": 0, "rental_uris": {"android": "https://dc.lft.to/lastmile_qr_scan", "ios": "https://dc.lft.to/lastmile_qr_scan"}, "fusion_lon": 0.0}, {"lat": 38.931967666666665, "is_disabled": 0, "type": "electric_scooter", "lon": -77.02351833333333, "bike_id": "e13b558308107807b6c66670ac232af5", "fusion_lat": 0.0, "name": "e13b558308107807b6c66670ac232af5", "is_reserved": 0, "rental_uris": {"android": "https://dc.lft.to/lastmile_qr_scan", "ios": "https://dc.lft.to/lastmile_qr_scan"}, "fusion_lon": 0.0}, {"lat": 38.8949685, "is_disabled": 0, "type": "electric_scooter", "lon": -77.00210433333334, "bike_id": "b70ec03bf7a284dbd3a255d19c08fba6", "fusion_lat": 0.0, "name": "b70ec03bf7a284dbd3a255d19c08fba6", "is_reserved": 0, "rental_uris": {"android": "https://dc.lft.to/lastmile_qr_scan", "ios": "https://dc.lft.to/lastmile_qr_scan"}, "fusion_lon": 0.0}, {"lat": 38.89840316666667, "is_disabled": 0, "type": "electric_scooter", "lon": -76.99499783333333, "bike_id": "b642ccbb049be425f1358717d5b397e1", "fusion_lat": 0.0, "name": "b642ccbb049be425f1358717d5b397e1", "is_reserved": 0, "rental_uris": {"android": "https://dc.lft.to/lastmile_qr_scan", "ios": "https://dc.lft.to/lastmile_qr_scan"}, "fusion_lon": 0.0}, {"lat": 38.90858133333333, "is_disabled": 0, "type": "electric_scooter", "lon": -77.0037525, "bike_id": "dd766959dbecf2baaddb2ccbc083ca9e", "fusion_lat": 0.0, "name": "dd766959dbecf2baaddb2ccbc083ca9e", "is_reserved": 0, "rental_uris": {"android": "https://dc.lft.to/lastmile_qr_scan", "ios": "https://dc.lft.to/lastmile_qr_scan"}, "fusion_lon": 0.0}, {"lat": 38.903989333333335, "is_disabled": 0, "type": "electric_scooter", "lon": -76.9846405, "bike_id": "620c986bb3ae60d028092d51168cc2fc", "fusion_lat": 0.0, "name": "620c986bb3ae60d028092d51168cc2fc", "is_reserved": 0, "rental_uris": {"android": "https://dc.lft.to/lastmile_qr_scan", "ios": "https://dc.lft.to/lastmile_qr_scan"}, "fusion_lon": 0.0}, {"lat": 38.917081333333336, "is_disabled": 0, "type": "electric_scooter", "lon": -77.03864083333333, "bike_id": "9c36065cb79575e8584504b68f8d20b0", "fusion_lat": 0.0, "name": "9c36065cb79575e8584504b68f8d20b0", "is_reserved": 0, "rental_uris": {"android": "https://dc.lft.to/lastmile_qr_scan", "ios": "https://dc.lft.to/lastmile_qr_scan"}, "fusion_lon": 0.0}, {"lat": 38.96230766666667, "is_disabled": 0, "type": "electric_bike", "lon": -77.02625516666667, "bike_id": "d41137ecf07c5016e75c15b677339562", "fusion_lat": 0.0, "name": "d41137ecf07c5016e75c15b677339562", "is_reserved": 0, "rental_uris": {"android": "https://dc.lft.to/lastmile_qr_scan", "ios": "https://dc.lft.to/lastmile_qr_scan"}, "fusion_lon": 0.0}, {"lat": 38.926784166666664, "is_disabled": 0, "type": "electric_scooter", "lon": -77.00741633333334, "bike_id": "a1a9907d55e5e37e37442ee3f1ca5a7d", "fusion_lat": 0.0, "name": "a1a9907d55e5e37e37442ee3f1ca5a7d", "is_reserved": 0, "rental_uris": {"android": "https://dc.lft.to/lastmile_qr_scan", "ios": "https://dc.lft.to/lastmile_qr_scan"}, "fusion_lon": 0.0}, {"lat": 38.8935305, "is_disabled": 0, "type": "electric_scooter", "lon": -77.03987333333333, "bike_id": "0233e8d65735fe66b35482237b270657", "fusion_lat": 0.0, "name": "0233e8d65735fe66b35482237b270657", "is_reserved": 0, "rental_uris": {"android": "https://dc.lft.to/lastmile_qr_scan", "ios": "https://dc.lft.to/lastmile_qr_scan"}, "fusion_lon": 0.0}, {"lat": 38.892226666666666, "is_disabled": 0, "type": "electric_bike", "lon": -77.1078065, "bike_id": "845b32f0fe2d912d9d0e38d9cf28bdc1", "fusion_lat": 0.0, "name": "845b32f0fe2d912d9d0e38d9cf28bdc1", "is_reserved": 0, "rental_uris": {"android": "https://dc.lft.to/lastmile_qr_scan", "ios": "https://dc.lft.to/lastmile_qr_scan"}, "fusion_lon": 0.0}, {"lat": 38.902536166666664, "is_disabled": 0, "type": "electric_scooter", "lon": -77.0280425, "bike_id": "4b4d4a628944b82c33abfaab0ce1c4c5", "fusion_lat": 0.0, "name": "4b4d4a628944b82c33abfaab0ce1c4c5", "is_reserved": 0, "rental_uris": {"android": "https://dc.lft.to/lastmile_qr_scan", "ios": "https://dc.lft.to/lastmile_qr_scan"}, "fusion_lon": 0.0}, {"lat": 38.990140833333335, "is_disabled": 0, "type": "electric_bike", "lon": -77.0043625, "bike_id": "be6a9eaf9115eccfe0553ca84a7ecbb2", "fusion_lat": 0.0, "name": "be6a9eaf9115eccfe0553ca84a7ecbb2", "is_reserved": 0, "rental_uris": {"android": "https://dc.lft.to/lastmile_qr_scan", "ios": "https://dc.lft.to/lastmile_qr_scan"}, "fusion_lon": 0.0}, {"lat": 38.8550815, "is_disabled": 0, "type": "electric_bike", "lon": -77.12009016666667, "bike_id": "e65d3b62a372fa64ddcbdd58e907cb1d", "fusion_lat": 0.0, "name": "e65d3b62a372fa64ddcbdd58e907cb1d", "is_reserved": 0, "rental_uris": {"android": "https://dc.lft.to/lastmile_qr_scan", "ios": "https://dc.lft.to/lastmile_qr_scan"}, "fusion_lon": 0.0}, {"lat": 38.901025, "is_disabled": 0, "type": "electric_scooter", "lon": -77.02530883333333, "bike_id": "1c0b9f584e39402d77af64ff68a8c3dc", "fusion_lat": 0.0, "name": "1c0b9f584e39402d77af64ff68a8c3dc", "is_reserved": 0, "rental_uris": {"android": "https://dc.lft.to/lastmile_qr_scan", "ios": "https://dc.lft.to/lastmile_qr_scan"}, "fusion_lon": 0.0}, {"lat": 38.931856, "is_disabled": 0, "type": "electric_scooter", "lon": -77.03658683333333, "bike_id": "cc7c3137683e888eb1e4d979af6dbc54", "fusion_lat": 0.0, "name": "cc7c3137683e888eb1e4d979af6dbc54", "is_reserved": 0, "rental_uris": {"android": "https://dc.lft.to/lastmile_qr_scan", "ios": "https://dc.lft.to/lastmile_qr_scan"}, "fusion_lon": 0.0}, {"lat": 38.943909, "is_disabled": 0, "type": "electric_scooter", "lon": -77.01982533333333, "bike_id": "741f0e49dfe1748fb491c1ea11eb9123", "fusion_lat": 0.0, "name": "741f0e49dfe1748fb491c1ea11eb9123", "is_reserved": 0, "rental_uris": {"android": "https://dc.lft.to/lastmile_qr_scan", "ios": "https://dc.lft.to/lastmile_qr_scan"}, "fusion_lon": 0.0}, {"lat": 38.91886066666667, "is_disabled": 0, "type": "electric_scooter", "lon": -77.0348965, "bike_id": "8d78a114355604189504a4f3176c3253", "fusion_lat": 0.0, "name": "8d78a114355604189504a4f3176c3253", "is_reserved": 0, "rental_uris": {"android": "https://dc.lft.to/lastmile_qr_scan", "ios": "https://dc.lft.to/lastmile_qr_scan"}, "fusion_lon": 0.0}, {"lat": 38.85189866666666, "is_disabled": 0, "type": "electric_bike", "lon": -76.96106716666667, "bike_id": "38f7ad27310de61e60052fdfb14ffcf0", "fusion_lat": 0.0, "name": "38f7ad27310de61e60052fdfb14ffcf0", "is_reserved": 0, "rental_uris": {"android": "https://dc.lft.to/lastmile_qr_scan", "ios": "https://dc.lft.to/lastmile_qr_scan"}, "fusion_lon": 0.0}, {"lat": 38.92342266666667, "is_disabled": 0, "type": "electric_scooter", "lon": -77.033948, "bike_id": "98d235087651b07e8fb6f0d1e85c4e87", "fusion_lat": 0.0, "name": "98d235087651b07e8fb6f0d1e85c4e87", "is_reserved": 0, "rental_uris": {"android": "https://dc.lft.to/lastmile_qr_scan", "ios": "https://dc.lft.to/lastmile_qr_scan"}, "fusion_lon": 0.0}, {"lat": 38.94434183333333, "is_disabled": 0, "type": "electric_scooter", "lon": -77.015016, "bike_id": "09ada9aab2cbd1e7efedaa1fbc79ef1a", "fusion_lat": 0.0, "name": "09ada9aab2cbd1e7efedaa1fbc79ef1a", "is_reserved": 0, "rental_uris": {"android": "https://dc.lft.to/lastmile_qr_scan", "ios": "https://dc.lft.to/lastmile_qr_scan"}, "fusion_lon": 0.0}, {"lat": 38.936585, "is_disabled": 0, "type": "electric_scooter", "lon": -77.0365015, "bike_id": "0e72b0c65add4c07acf24d0f73bec570", "fusion_lat": 0.0, "name": "0e72b0c65add4c07acf24d0f73bec570", "is_reserved": 0, "rental_uris": {"android": "https://dc.lft.to/lastmile_qr_scan", "ios": "https://dc.lft.to/lastmile_qr_scan"}, "fusion_lon": 0.0}, {"lat": 38.93288, "is_disabled": 0, "type": "electric_scooter", "lon": -77.0283005, "bike_id": "61cf374b44008dd68603c139d1eb2a60", "fusion_lat": 0.0, "name": "61cf374b44008dd68603c139d1eb2a60", "is_reserved": 0, "rental_uris": {"android": "https://dc.lft.to/lastmile_qr_scan", "ios": "https://dc.lft.to/lastmile_qr_scan"}, "fusion_lon": 0.0}, {"lat": 38.93106683333333, "is_disabled": 0, "type": "electric_scooter", "lon": -77.03507766666667, "bike_id": "c32cd4377554bb26e706fb8fc8b77f15", "fusion_lat": 0.0, "name": "c32cd4377554bb26e706fb8fc8b77f15", "is_reserved": 0, "rental_uris": {"android": "https://dc.lft.to/lastmile_qr_scan", "ios": "https://dc.lft.to/lastmile_qr_scan"}, "fusion_lon": 0.0}, {"lat": 38.91477233333333, "is_disabled": 0, "type": "electric_scooter", "lon": -76.98352883333334, "bike_id": "5146af11ee5bd4525957b214ab4d1c58", "fusion_lat": 0.0, "name": "5146af11ee5bd4525957b214ab4d1c58", "is_reserved": 0, "rental_uris": {"android": "https://dc.lft.to/lastmile_qr_scan", "ios": "https://dc.lft.to/lastmile_qr_scan"}, "fusion_lon": 0.0}, {"lat": 38.905296166666666, "is_disabled": 0, "type": "electric_scooter", "lon": -77.00563766666667, "bike_id": "b6bb2c6cbeeea55892f086f4ebcbe823", "fusion_lat": 0.0, "name": "b6bb2c6cbeeea55892f086f4ebcbe823", "is_reserved": 0, "rental_uris": {"android": "https://dc.lft.to/lastmile_qr_scan", "ios": "https://dc.lft.to/lastmile_qr_scan"}, "fusion_lon": 0.0}, {"lat": 38.876295166666665, "is_disabled": 0, "type": "electric_scooter", "lon": -76.96526, "bike_id": "0f4fd0095619308113d038e1064645ff", "fusion_lat": 0.0, "name": "0f4fd0095619308113d038e1064645ff", "is_reserved": 0, "rental_uris": {"android": "https://dc.lft.to/lastmile_qr_scan", "ios": "https://dc.lft.to/lastmile_qr_scan"}, "fusion_lon": 0.0}, {"lat": 38.896217166666666, "is_disabled": 0, "type": "electric_scooter", "lon": -76.99850133333334, "bike_id": "bc7899917637118d410bbb06ce6edac0", "fusion_lat": 0.0, "name": "bc7899917637118d410bbb06ce6edac0", "is_reserved": 0, "rental_uris": {"android": "https://dc.lft.to/lastmile_qr_scan", "ios": "https://dc.lft.to/lastmile_qr_scan"}, "fusion_lon": 0.0}, {"lat": 38.893218166666664, "is_disabled": 0, "type": "electric_scooter", "lon": -76.92995216666667, "bike_id": "858b866f384d3b1c97654acbbee3fc44", "fusion_lat": 0.0, "name": "858b866f384d3b1c97654acbbee3fc44", "is_reserved": 0, "rental_uris": {"android": "https://dc.lft.to/lastmile_qr_scan", "ios": "https://dc.lft.to/lastmile_qr_scan"}, "fusion_lon": 0.0}, {"lat": 38.932055, "is_disabled": 0, "type": "electric_scooter", "lon": -77.0442245, "bike_id": "6d57ca66422287e040c60b75f844f913", "fusion_lat": 0.0, "name": "6d57ca66422287e040c60b75f844f913", "is_reserved": 0, "rental_uris": {"android": "https://dc.lft.to/lastmile_qr_scan", "ios": "https://dc.lft.to/lastmile_qr_scan"}, "fusion_lon": 0.0}, {"lat": 38.94074633333334, "is_disabled": 0, "type": "electric_scooter", "lon": -77.0613795, "bike_id": "233ad45d6f2ec645b3e2a30faac615ef", "fusion_lat": 0.0, "name": "233ad45d6f2ec645b3e2a30faac615ef", "is_reserved": 0, "rental_uris": {"android": "https://dc.lft.to/lastmile_qr_scan", "ios": "https://dc.lft.to/lastmile_qr_scan"}, "fusion_lon": 0.0}, {"lat": 38.932527, "is_disabled": 0, "type": "electric_scooter", "lon": -77.03265016666667, "bike_id": "adc79d98721f5091317f556a767de844", "fusion_lat": 0.0, "name": "adc79d98721f5091317f556a767de844", "is_reserved": 0, "rental_uris": {"android": "https://dc.lft.to/lastmile_qr_scan", "ios": "https://dc.lft.to/lastmile_qr_scan"}, "fusion_lon": 0.0}, {"lat": 38.86643616666667, "is_disabled": 0, "type": "electric_scooter", "lon": -76.988836, "bike_id": "eac7ad04ad10233ec5b784bb1ab6c510", "fusion_lat": 0.0, "name": "eac7ad04ad10233ec5b784bb1ab6c510", "is_reserved": 0, "rental_uris": {"android": "https://dc.lft.to/lastmile_qr_scan", "ios": "https://dc.lft.to/lastmile_qr_scan"}, "fusion_lon": 0.0}, {"lat": 38.920673666666666, "is_disabled": 0, "type": "electric_scooter", "lon": -77.0437155, "bike_id": "8333cf6d8df269c60bde1609bc466194", "fusion_lat": 0.0, "name": "8333cf6d8df269c60bde1609bc466194", "is_reserved": 0, "rental_uris": {"android": "https://dc.lft.to/lastmile_qr_scan", "ios": "https://dc.lft.to/lastmile_qr_scan"}, "fusion_lon": 0.0}, {"lat": 38.92302883333333, "is_disabled": 0, "type": "electric_bike", "lon": -77.03556116666667, "bike_id": "c841ae3f32daa75decb65c7aeb85b343", "fusion_lat": 0.0, "name": "c841ae3f32daa75decb65c7aeb85b343", "is_reserved": 0, "rental_uris": {"android": "https://dc.lft.to/lastmile_qr_scan", "ios": "https://dc.lft.to/lastmile_qr_scan"}, "fusion_lon": 0.0}, {"lat": 38.9387495, "is_disabled": 0, "type": "electric_scooter", "lon": -77.03125866666667, "bike_id": "7bc3363a8f13568fa1fcfd6515f99c26", "fusion_lat": 0.0, "name": "7bc3363a8f13568fa1fcfd6515f99c26", "is_reserved": 0, "rental_uris": {"android": "https://dc.lft.to/lastmile_qr_scan", "ios": "https://dc.lft.to/lastmile_qr_scan"}, "fusion_lon": 0.0}, {"lat": 38.89955416666667, "is_disabled": 0, "type": "electric_bike", "lon": -77.021031, "bike_id": "771ff518c7095b71e0e00cb177beebbf", "fusion_lat": 0.0, "name": "771ff518c7095b71e0e00cb177beebbf", "is_reserved": 0, "rental_uris": {"android": "https://dc.lft.to/lastmile_qr_scan", "ios": "https://dc.lft.to/lastmile_qr_scan"}, "fusion_lon": 0.0}, {"lat": 38.8978245, "is_disabled": 0, "type": "electric_scooter", "lon": -77.0092115, "bike_id": "81e790c3179c98ac1d941d3d9b831ce1", "fusion_lat": 0.0, "name": "81e790c3179c98ac1d941d3d9b831ce1", "is_reserved": 0, "rental_uris": {"android": "https://dc.lft.to/lastmile_qr_scan", "ios": "https://dc.lft.to/lastmile_qr_scan"}, "fusion_lon": 0.0}, {"lat": 38.9191415, "is_disabled": 0, "type": "electric_scooter", "lon": -77.02504233333333, "bike_id": "6b8c9b609dcb67579a1a7228cd4983f0", "fusion_lat": 0.0, "name": "6b8c9b609dcb67579a1a7228cd4983f0", "is_reserved": 0, "rental_uris": {"android": "https://dc.lft.to/lastmile_qr_scan", "ios": "https://dc.lft.to/lastmile_qr_scan"}, "fusion_lon": 0.0}, {"lat": 38.887602666666666, "is_disabled": 0, "type": "electric_scooter", "lon": -76.95593466666666, "bike_id": "ada9aa51572178d62f213ca88e576c80", "fusion_lat": 0.0, "name": "ada9aa51572178d62f213ca88e576c80", "is_reserved": 0, "rental_uris": {"android": "https://dc.lft.to/lastmile_qr_scan", "ios": "https://dc.lft.to/lastmile_qr_scan"}, "fusion_lon": 0.0}, {"lat": 38.952901, "is_disabled": 0, "type": "electric_scooter", "lon": -77.08156166666667, "bike_id": "37fc3baba715dc31c8fb100013bf08b8", "fusion_lat": 0.0, "name": "37fc3baba715dc31c8fb100013bf08b8", "is_reserved": 0, "rental_uris": {"android": "https://dc.lft.to/lastmile_qr_scan", "ios": "https://dc.lft.to/lastmile_qr_scan"}, "fusion_lon": 0.0}, {"lat": 38.923165166666664, "is_disabled": 0, "type": "electric_scooter", "lon": -77.03861383333333, "bike_id": "b1508e8db4bb68d0457cb1d6cff4d797", "fusion_lat": 0.0, "name": "b1508e8db4bb68d0457cb1d6cff4d797", "is_reserved": 0, "rental_uris": {"android": "https://dc.lft.to/lastmile_qr_scan", "ios": "https://dc.lft.to/lastmile_qr_scan"}, "fusion_lon": 0.0}, {"lat": 39.05204333333333, "is_disabled": 0, "type": "electric_bike", "lon": -77.10909083333334, "bike_id": "6d4269d32cd6a09adb967ac86e15980c", "fusion_lat": 0.0, "name": "6d4269d32cd6a09adb967ac86e15980c", "is_reserved": 0, "rental_uris": {"android": "https://dc.lft.to/lastmile_qr_scan", "ios": "https://dc.lft.to/lastmile_qr_scan"}, "fusion_lon": 0.0}, {"lat": 38.905052166666664, "is_disabled": 0, "type": "electric_scooter", "lon": -77.02949666666666, "bike_id": "dd1b9a04595ec898aeaf36584a3062cd", "fusion_lat": 0.0, "name": "dd1b9a04595ec898aeaf36584a3062cd", "is_reserved": 0, "rental_uris": {"android": "https://dc.lft.to/lastmile_qr_scan", "ios": "https://dc.lft.to/lastmile_qr_scan"}, "fusion_lon": 0.0}, {"lat": 38.9071235, "is_disabled": 0, "type": "electric_scooter", "lon": -77.04825916666667, "bike_id": "538a52cac47a1570d2df8105fb3e315c", "fusion_lat": 0.0, "name": "538a52cac47a1570d2df8105fb3e315c", "is_reserved": 0, "rental_uris": {"android": "https://dc.lft.to/lastmile_qr_scan", "ios": "https://dc.lft.to/lastmile_qr_scan"}, "fusion_lon": 0.0}, {"lat": 38.89231133333333, "is_disabled": 0, "type": "electric_scooter", "lon": -77.04999866666667, "bike_id": "bb5c0d88dddbe0d48dd743297afc873e", "fusion_lat": 0.0, "name": "bb5c0d88dddbe0d48dd743297afc873e", "is_reserved": 0, "rental_uris": {"android": "https://dc.lft.to/lastmile_qr_scan", "ios": "https://dc.lft.to/lastmile_qr_scan"}, "fusion_lon": 0.0}, {"lat": 38.900566166666664, "is_disabled": 0, "type": "electric_scooter", "lon": -77.00189033333334, "bike_id": "8622f8e745fa4b6bcb43fc222f2f0b5f", "fusion_lat": 0.0, "name": "8622f8e745fa4b6bcb43fc222f2f0b5f", "is_reserved": 0, "rental_uris": {"android": "https://dc.lft.to/lastmile_qr_scan", "ios": "https://dc.lft.to/lastmile_qr_scan"}, "fusion_lon": 0.0}, {"lat": 38.92328783333333, "is_disabled": 0, "type": "electric_scooter", "lon": -77.0270105, "bike_id": "2bf93b5cc853ea8413cdb0887e24e749", "fusion_lat": 0.0, "name": "2bf93b5cc853ea8413cdb0887e24e749", "is_reserved": 0, "rental_uris": {"android": "https://dc.lft.to/lastmile_qr_scan", "ios": "https://dc.lft.to/lastmile_qr_scan"}, "fusion_lon": 0.0}, {"lat": 38.89965816666667, "is_disabled": 0, "type": "electric_scooter", "lon": -76.92656033333333, "bike_id": "ccebb80a3fa47b41e96506a81c75f8b8", "fusion_lat": 0.0, "name": "ccebb80a3fa47b41e96506a81c75f8b8", "is_reserved": 0, "rental_uris": {"android": "https://dc.lft.to/lastmile_qr_scan", "ios": "https://dc.lft.to/lastmile_qr_scan"}, "fusion_lon": 0.0}, {"lat": 38.93375233333333, "is_disabled": 0, "type": "electric_scooter", "lon": -77.03793366666666, "bike_id": "c2bf3b47ddaba7aac3579fffe3c27976", "fusion_lat": 0.0, "name": "c2bf3b47ddaba7aac3579fffe3c27976", "is_reserved": 0, "rental_uris": {"android": "https://dc.lft.to/lastmile_qr_scan", "ios": "https://dc.lft.to/lastmile_qr_scan"}, "fusion_lon": 0.0}, {"lat": 38.892229666666665, "is_disabled": 0, "type": "electric_scooter", "lon": -77.02092266666666, "bike_id": "42f4b47b3b00d8ebe3d29ab5595f1e1c", "fusion_lat": 0.0, "name": "42f4b47b3b00d8ebe3d29ab5595f1e1c", "is_reserved": 0, "rental_uris": {"android": "https://dc.lft.to/lastmile_qr_scan", "ios": "https://dc.lft.to/lastmile_qr_scan"}, "fusion_lon": 0.0}, {"lat": 38.92345016666667, "is_disabled": 0, "type": "electric_scooter", "lon": -77.02446216666667, "bike_id": "564f475ad2f2584cfc8322187d57fb2d", "fusion_lat": 0.0, "name": "564f475ad2f2584cfc8322187d57fb2d", "is_reserved": 0, "rental_uris": {"android": "https://dc.lft.to/lastmile_qr_scan", "ios": "https://dc.lft.to/lastmile_qr_scan"}, "fusion_lon": 0.0}, {"lat": 38.92234933333334, "is_disabled": 0, "type": "electric_scooter", "lon": -77.04566516666667, "bike_id": "4dee316c7b95af5240bde631e60f39ee", "fusion_lat": 0.0, "name": "4dee316c7b95af5240bde631e60f39ee", "is_reserved": 0, "rental_uris": {"android": "https://dc.lft.to/lastmile_qr_scan", "ios": "https://dc.lft.to/lastmile_qr_scan"}, "fusion_lon": 0.0}, {"lat": 38.9031025, "is_disabled": 0, "type": "electric_scooter", "lon": -77.03753033333334, "bike_id": "24d185f8264abc07bf0dde3c539079be", "fusion_lat": 0.0, "name": "24d185f8264abc07bf0dde3c539079be", "is_reserved": 0, "rental_uris": {"android": "https://dc.lft.to/lastmile_qr_scan", "ios": "https://dc.lft.to/lastmile_qr_scan"}, "fusion_lon": 0.0}, {"lat": 38.972290666666666, "is_disabled": 0, "type": "electric_bike", "lon": -76.9934265, "bike_id": "cb53151bf136d0b81a55925027988604", "fusion_lat": 0.0, "name": "cb53151bf136d0b81a55925027988604", "is_reserved": 0, "rental_uris": {"android": "https://dc.lft.to/lastmile_qr_scan", "ios": "https://dc.lft.to/lastmile_qr_scan"}, "fusion_lon": 0.0}, {"lat": 38.91734266666667, "is_disabled": 0, "type": "electric_scooter", "lon": -77.03645083333333, "bike_id": "4c9e7bc9b92129a6dc017150015adfdb", "fusion_lat": 0.0, "name": "4c9e7bc9b92129a6dc017150015adfdb", "is_reserved": 0, "rental_uris": {"android": "https://dc.lft.to/lastmile_qr_scan", "ios": "https://dc.lft.to/lastmile_qr_scan"}, "fusion_lon": 0.0}, {"lat": 38.93315616666667, "is_disabled": 0, "type": "electric_scooter", "lon": -77.045254, "bike_id": "e858c873d1537e836bfd62cfe04cd51c", "fusion_lat": 0.0, "name": "e858c873d1537e836bfd62cfe04cd51c", "is_reserved": 0, "rental_uris": {"android": "https://dc.lft.to/lastmile_qr_scan", "ios": "https://dc.lft.to/lastmile_qr_scan"}, "fusion_lon": 0.0}, {"lat": 38.89265483333333, "is_disabled": 0, "type": "electric_scooter", "lon": -77.020248, "bike_id": "c7353dd05efb75f5c2289d64dd17f109", "fusion_lat": 0.0, "name": "c7353dd05efb75f5c2289d64dd17f109", "is_reserved": 0, "rental_uris": {"android": "https://dc.lft.to/lastmile_qr_scan", "ios": "https://dc.lft.to/lastmile_qr_scan"}, "fusion_lon": 0.0}, {"lat": 38.924628, "is_disabled": 0, "type": "electric_scooter", "lon": -77.0803205, "bike_id": "ef56aca43eb09db8f6524a98c6b1a2f6", "fusion_lat": 0.0, "name": "ef56aca43eb09db8f6524a98c6b1a2f6", "is_reserved": 0, "rental_uris": {"android": "https://dc.lft.to/lastmile_qr_scan", "ios": "https://dc.lft.to/lastmile_qr_scan"}, "fusion_lon": 0.0}, {"lat": 38.9151225, "is_disabled": 0, "type": "electric_scooter", "lon": -77.03836766666667, "bike_id": "790a7e415e6eb08b4503acceb1cb017a", "fusion_lat": 0.0, "name": "790a7e415e6eb08b4503acceb1cb017a", "is_reserved": 0, "rental_uris": {"android": "https://dc.lft.to/lastmile_qr_scan", "ios": "https://dc.lft.to/lastmile_qr_scan"}, "fusion_lon": 0.0}, {"lat": 38.9295345, "is_disabled": 0, "type": "electric_scooter", "lon": -76.990886, "bike_id": "a9dfe9d2cba28a00bfca50637a71b92a", "fusion_lat": 0.0, "name": "a9dfe9d2cba28a00bfca50637a71b92a", "is_reserved": 0, "rental_uris": {"android": "https://dc.lft.to/lastmile_qr_scan", "ios": "https://dc.lft.to/lastmile_qr_scan"}, "fusion_lon": 0.0}, {"lat": 38.879338833333335, "is_disabled": 0, "type": "electric_scooter", "lon": -77.004056, "bike_id": "dfe4236588e5b2d93edb1fb4a6326e1f", "fusion_lat": 0.0, "name": "dfe4236588e5b2d93edb1fb4a6326e1f", "is_reserved": 0, "rental_uris": {"android": "https://dc.lft.to/lastmile_qr_scan", "ios": "https://dc.lft.to/lastmile_qr_scan"}, "fusion_lon": 0.0}, {"lat": 38.913284, "is_disabled": 0, "type": "electric_scooter", "lon": -77.03131383333333, "bike_id": "9c7e3957679c695fd421c30f55642b01", "fusion_lat": 0.0, "name": "9c7e3957679c695fd421c30f55642b01", "is_reserved": 0, "rental_uris": {"android": "https://dc.lft.to/lastmile_qr_scan", "ios": "https://dc.lft.to/lastmile_qr_scan"}, "fusion_lon": 0.0}, {"lat": 38.89284933333333, "is_disabled": 0, "type": "electric_scooter", "lon": -76.95847683333334, "bike_id": "00571b235a02f7c239d9607c0cc422cb", "fusion_lat": 0.0, "name": "00571b235a02f7c239d9607c0cc422cb", "is_reserved": 0, "rental_uris": {"android": "https://dc.lft.to/lastmile_qr_scan", "ios": "https://dc.lft.to/lastmile_qr_scan"}, "fusion_lon": 0.0}, {"lat": 38.899953333333336, "is_disabled": 0, "type": "electric_scooter", "lon": -76.99959983333333, "bike_id": "822c5462f5989755fb66d34edbade44d", "fusion_lat": 0.0, "name": "822c5462f5989755fb66d34edbade44d", "is_reserved": 0, "rental_uris": {"android": "https://dc.lft.to/lastmile_qr_scan", "ios": "https://dc.lft.to/lastmile_qr_scan"}, "fusion_lon": 0.0}, {"lat": 38.91329016666667, "is_disabled": 0, "type": "electric_scooter", "lon": -77.03181283333333, "bike_id": "9acf247cf536f11965c95fc4fb50976f", "fusion_lat": 0.0, "name": "9acf247cf536f11965c95fc4fb50976f", "is_reserved": 0, "rental_uris": {"android": "https://dc.lft.to/lastmile_qr_scan", "ios": "https://dc.lft.to/lastmile_qr_scan"}, "fusion_lon": 0.0}, {"lat": 38.96210966666666, "is_disabled": 0, "type": "electric_bike", "lon": -77.02627383333333, "bike_id": "91c4a509fb21b222997622e330c6a1a7", "fusion_lat": 0.0, "name": "91c4a509fb21b222997622e330c6a1a7", "is_reserved": 0, "rental_uris": {"android": "https://dc.lft.to/lastmile_qr_scan", "ios": "https://dc.lft.to/lastmile_qr_scan"}, "fusion_lon": 0.0}, {"lat": 38.91698566666667, "is_disabled": 0, "type": "electric_scooter", "lon": -77.03219616666667, "bike_id": "89c907bebf96fd15b7341be3ec3e6161", "fusion_lat": 0.0, "name": "89c907bebf96fd15b7341be3ec3e6161", "is_reserved": 0, "rental_uris": {"android": "https://dc.lft.to/lastmile_qr_scan", "ios": "https://dc.lft.to/lastmile_qr_scan"}, "fusion_lon": 0.0}, {"lat": 38.876475166666665, "is_disabled": 0, "type": "electric_scooter", "lon": -77.005625, "bike_id": "36b0014fac0f355b54464aea13be8cad", "fusion_lat": 0.0, "name": "36b0014fac0f355b54464aea13be8cad", "is_reserved": 0, "rental_uris": {"android": "https://dc.lft.to/lastmile_qr_scan", "ios": "https://dc.lft.to/lastmile_qr_scan"}, "fusion_lon": 0.0}, {"lat": 38.9161575, "is_disabled": 0, "type": "electric_scooter", "lon": -77.03740033333334, "bike_id": "acecce580394e57e1118c1decc7238d2", "fusion_lat": 0.0, "name": "acecce580394e57e1118c1decc7238d2", "is_reserved": 0, "rental_uris": {"android": "https://dc.lft.to/lastmile_qr_scan", "ios": "https://dc.lft.to/lastmile_qr_scan"}, "fusion_lon": 0.0}, {"lat": 38.89675283333333, "is_disabled": 0, "type": "electric_scooter", "lon": -77.00518316666667, "bike_id": "25df2194bf4ef0fbef85c3af7c99d25b", "fusion_lat": 0.0, "name": "25df2194bf4ef0fbef85c3af7c99d25b", "is_reserved": 0, "rental_uris": {"android": "https://dc.lft.to/lastmile_qr_scan", "ios": "https://dc.lft.to/lastmile_qr_scan"}, "fusion_lon": 0.0}, {"lat": 38.920813333333335, "is_disabled": 0, "type": "electric_scooter", "lon": -77.02551216666667, "bike_id": "ad54e338d222f3cc1014dbf8e0315144", "fusion_lat": 0.0, "name": "ad54e338d222f3cc1014dbf8e0315144", "is_reserved": 0, "rental_uris": {"android": "https://dc.lft.to/lastmile_qr_scan", "ios": "https://dc.lft.to/lastmile_qr_scan"}, "fusion_lon": 0.0}, {"lat": 38.948180666666666, "is_disabled": 0, "type": "electric_scooter", "lon": -76.99903766666667, "bike_id": "b18c05d3aa68843576865cbf7a30c112", "fusion_lat": 0.0, "name": "b18c05d3aa68843576865cbf7a30c112", "is_reserved": 0, "rental_uris": {"android": "https://dc.lft.to/lastmile_qr_scan", "ios": "https://dc.lft.to/lastmile_qr_scan"}, "fusion_lon": 0.0}, {"lat": 38.878621833333334, "is_disabled": 0, "type": "electric_bike", "lon": -77.01768166666666, "bike_id": "2159a9407e0696a9f55efdaf59fbcbc4", "fusion_lat": 0.0, "name": "2159a9407e0696a9f55efdaf59fbcbc4", "is_reserved": 0, "rental_uris": {"android": "https://dc.lft.to/lastmile_qr_scan", "ios": "https://dc.lft.to/lastmile_qr_scan"}, "fusion_lon": 0.0}, {"lat": 38.911993333333335, "is_disabled": 0, "type": "electric_scooter", "lon": -77.00473133333334, "bike_id": "c68aa7c9c1fa2bafe132d0a4b5867773", "fusion_lat": 0.0, "name": "c68aa7c9c1fa2bafe132d0a4b5867773", "is_reserved": 0, "rental_uris": {"android": "https://dc.lft.to/lastmile_qr_scan", "ios": "https://dc.lft.to/lastmile_qr_scan"}, "fusion_lon": 0.0}, {"lat": 38.89735316666667, "is_disabled": 0, "type": "electric_scooter", "lon": -76.947218, "bike_id": "1f95e0e704839513782443050dedfdb5", "fusion_lat": 0.0, "name": "1f95e0e704839513782443050dedfdb5", "is_reserved": 0, "rental_uris": {"android": "https://dc.lft.to/lastmile_qr_scan", "ios": "https://dc.lft.to/lastmile_qr_scan"}, "fusion_lon": 0.0}, {"lat": 38.86507016666667, "is_disabled": 0, "type": "electric_scooter", "lon": -76.99006683333333, "bike_id": "cca09ad890c09192fb158fe97c7de948", "fusion_lat": 0.0, "name": "cca09ad890c09192fb158fe97c7de948", "is_reserved": 0, "rental_uris": {"android": "https://dc.lft.to/lastmile_qr_scan", "ios": "https://dc.lft.to/lastmile_qr_scan"}, "fusion_lon": 0.0}, {"lat": 38.9324175, "is_disabled": 0, "type": "electric_bike", "lon": -76.97423966666666, "bike_id": "20a1e3ee0b0cb72785208ffe5237f66f", "fusion_lat": 0.0, "name": "20a1e3ee0b0cb72785208ffe5237f66f", "is_reserved": 0, "rental_uris": {"android": "https://dc.lft.to/lastmile_qr_scan", "ios": "https://dc.lft.to/lastmile_qr_scan"}, "fusion_lon": 0.0}, {"lat": 38.90377133333333, "is_disabled": 0, "type": "electric_scooter", "lon": -77.04368866666667, "bike_id": "c684b68f6376c0e0cd18cfbf68dd021a", "fusion_lat": 0.0, "name": "c684b68f6376c0e0cd18cfbf68dd021a", "is_reserved": 0, "rental_uris": {"android": "https://dc.lft.to/lastmile_qr_scan", "ios": "https://dc.lft.to/lastmile_qr_scan"}, "fusion_lon": 0.0}, {"lat": 38.900155166666664, "is_disabled": 0, "type": "electric_scooter", "lon": -77.04423116666666, "bike_id": "841bcd402a8883525068510a6fefdfde", "fusion_lat": 0.0, "name": "841bcd402a8883525068510a6fefdfde", "is_reserved": 0, "rental_uris": {"android": "https://dc.lft.to/lastmile_qr_scan", "ios": "https://dc.lft.to/lastmile_qr_scan"}, "fusion_lon": 0.0}, {"lat": 38.9071705, "is_disabled": 0, "type": "electric_scooter", "lon": -77.04780983333333, "bike_id": "c67b8a97aeb2c1e599dd5378377a7a5f", "fusion_lat": 0.0, "name": "c67b8a97aeb2c1e599dd5378377a7a5f", "is_reserved": 0, "rental_uris": {"android": "https://dc.lft.to/lastmile_qr_scan", "ios": "https://dc.lft.to/lastmile_qr_scan"}, "fusion_lon": 0.0}, {"lat": 38.9112115, "is_disabled": 0, "type": "electric_scooter", "lon": -77.04219566666667, "bike_id": "64f800701a55f07338d2585274f34eb3", "fusion_lat": 0.0, "name": "64f800701a55f07338d2585274f34eb3", "is_reserved": 0, "rental_uris": {"android": "https://dc.lft.to/lastmile_qr_scan", "ios": "https://dc.lft.to/lastmile_qr_scan"}, "fusion_lon": 0.0}, {"lat": 38.92252466666667, "is_disabled": 0, "type": "electric_scooter", "lon": -77.030817, "bike_id": "6a09161fef68eb25d307c7bc9d52fc8f", "fusion_lat": 0.0, "name": "6a09161fef68eb25d307c7bc9d52fc8f", "is_reserved": 0, "rental_uris": {"android": "https://dc.lft.to/lastmile_qr_scan", "ios": "https://dc.lft.to/lastmile_qr_scan"}, "fusion_lon": 0.0}, {"lat": 38.9417345, "is_disabled": 0, "type": "electric_scooter", "lon": -77.03282083333333, "bike_id": "b7f6fa17b23685379ddb82e7b638671f", "fusion_lat": 0.0, "name": "b7f6fa17b23685379ddb82e7b638671f", "is_reserved": 0, "rental_uris": {"android": "https://dc.lft.to/lastmile_qr_scan", "ios": "https://dc.lft.to/lastmile_qr_scan"}, "fusion_lon": 0.0}, {"lat": 38.9195855, "is_disabled": 0, "type": "electric_scooter", "lon": -77.04883633333333, "bike_id": "7b84eaf16d404002eccb25122966b766", "fusion_lat": 0.0, "name": "7b84eaf16d404002eccb25122966b766", "is_reserved": 0, "rental_uris": {"android": "https://dc.lft.to/lastmile_qr_scan", "ios": "https://dc.lft.to/lastmile_qr_scan"}, "fusion_lon": 0.0}, {"lat": 38.94154183333333, "is_disabled": 0, "type": "electric_scooter", "lon": -77.03284183333334, "bike_id": "c88bb8b28c558ec028e3e2602568544c", "fusion_lat": 0.0, "name": "c88bb8b28c558ec028e3e2602568544c", "is_reserved": 0, "rental_uris": {"android": "https://dc.lft.to/lastmile_qr_scan", "ios": "https://dc.lft.to/lastmile_qr_scan"}, "fusion_lon": 0.0}, {"lat": 38.87340016666667, "is_disabled": 0, "type": "electric_scooter", "lon": -76.99164716666667, "bike_id": "a9751b81dff80e2469db0484b6048724", "fusion_lat": 0.0, "name": "a9751b81dff80e2469db0484b6048724", "is_reserved": 0, "rental_uris": {"android": "https://dc.lft.to/lastmile_qr_scan", "ios": "https://dc.lft.to/lastmile_qr_scan"}, "fusion_lon": 0.0}, {"lat": 38.90242633333333, "is_disabled": 0, "type": "electric_scooter", "lon": -77.02614266666667, "bike_id": "519e90dbc03e5dfe18b6cdd56d86a898", "fusion_lat": 0.0, "name": "519e90dbc03e5dfe18b6cdd56d86a898", "is_reserved": 0, "rental_uris": {"android": "https://dc.lft.to/lastmile_qr_scan", "ios": "https://dc.lft.to/lastmile_qr_scan"}, "fusion_lon": 0.0}, {"lat": 38.901162166666666, "is_disabled": 0, "type": "electric_scooter", "lon": -77.03303266666667, "bike_id": "efce2abd2b618cb96cb9021bbbb54de1", "fusion_lat": 0.0, "name": "efce2abd2b618cb96cb9021bbbb54de1", "is_reserved": 0, "rental_uris": {"android": "https://dc.lft.to/lastmile_qr_scan", "ios": "https://dc.lft.to/lastmile_qr_scan"}, "fusion_lon": 0.0}, {"lat": 38.876301, "is_disabled": 0, "type": "electric_scooter", "lon": -76.96523333333333, "bike_id": "2cba5fdad4d0a988872943ca0eb69e5f", "fusion_lat": 0.0, "name": "2cba5fdad4d0a988872943ca0eb69e5f", "is_reserved": 0, "rental_uris": {"android": "https://dc.lft.to/lastmile_qr_scan", "ios": "https://dc.lft.to/lastmile_qr_scan"}, "fusion_lon": 0.0}, {"lat": 38.95083316666667, "is_disabled": 0, "type": "electric_scooter", "lon": -77.06647166666667, "bike_id": "d81db8ce206aef38480b37e0c7de9b18", "fusion_lat": 0.0, "name": "d81db8ce206aef38480b37e0c7de9b18", "is_reserved": 0, "rental_uris": {"android": "https://dc.lft.to/lastmile_qr_scan", "ios": "https://dc.lft.to/lastmile_qr_scan"}, "fusion_lon": 0.0}, {"lat": 38.91643666666667, "is_disabled": 0, "type": "electric_scooter", "lon": -76.9821605, "bike_id": "216bcede867b656714394f2eca4e5ce9", "fusion_lat": 0.0, "name": "216bcede867b656714394f2eca4e5ce9", "is_reserved": 0, "rental_uris": {"android": "https://dc.lft.to/lastmile_qr_scan", "ios": "https://dc.lft.to/lastmile_qr_scan"}, "fusion_lon": 0.0}, {"lat": 38.936593, "is_disabled": 0, "type": "electric_bike", "lon": -76.95216683333334, "bike_id": "f23bfbd60bd98a8bcd5814803cb4ea61", "fusion_lat": 0.0, "name": "f23bfbd60bd98a8bcd5814803cb4ea61", "is_reserved": 0, "rental_uris": {"android": "https://dc.lft.to/lastmile_qr_scan", "ios": "https://dc.lft.to/lastmile_qr_scan"}, "fusion_lon": 0.0}, {"lat": 38.9055695, "is_disabled": 0, "type": "electric_scooter", "lon": -77.00580833333333, "bike_id": "dbb2b2ce5be952f7fb9b3934027fcaaf", "fusion_lat": 0.0, "name": "dbb2b2ce5be952f7fb9b3934027fcaaf", "is_reserved": 0, "rental_uris": {"android": "https://dc.lft.to/lastmile_qr_scan", "ios": "https://dc.lft.to/lastmile_qr_scan"}, "fusion_lon": 0.0}, {"lat": 38.91757466666667, "is_disabled": 0, "type": "electric_scooter", "lon": -77.01476433333333, "bike_id": "158f31b64009223fad68f84796775fa5", "fusion_lat": 0.0, "name": "158f31b64009223fad68f84796775fa5", "is_reserved": 0, "rental_uris": {"android": "https://dc.lft.to/lastmile_qr_scan", "ios": "https://dc.lft.to/lastmile_qr_scan"}, "fusion_lon": 0.0}, {"lat": 39.03419366666667, "is_disabled": 0, "type": "electric_bike", "lon": -77.04308783333333, "bike_id": "1fbc20a76ed446d63f0a132ab7fc82fe", "fusion_lat": 0.0, "name": "1fbc20a76ed446d63f0a132ab7fc82fe", "is_reserved": 0, "rental_uris": {"android": "https://dc.lft.to/lastmile_qr_scan", "ios": "https://dc.lft.to/lastmile_qr_scan"}, "fusion_lon": 0.0}, {"lat": 38.90913583333333, "is_disabled": 0, "type": "electric_scooter", "lon": -77.04466633333334, "bike_id": "6b60b3493004aec35953237f5f9ade89", "fusion_lat": 0.0, "name": "6b60b3493004aec35953237f5f9ade89", "is_reserved": 0, "rental_uris": {"android": "https://dc.lft.to/lastmile_qr_scan", "ios": "https://dc.lft.to/lastmile_qr_scan"}, "fusion_lon": 0.0}, {"lat": 38.844316, "is_disabled": 0, "type": "electric_scooter", "lon": -76.99662716666667, "bike_id": "18300b58f641f1cca0d2af415b0e8184", "fusion_lat": 0.0, "name": "18300b58f641f1cca0d2af415b0e8184", "is_reserved": 0, "rental_uris": {"android": "https://dc.lft.to/lastmile_qr_scan", "ios": "https://dc.lft.to/lastmile_qr_scan"}, "fusion_lon": 0.0}, {"lat": 38.937387, "is_disabled": 0, "type": "electric_scooter", "lon": -77.0362515, "bike_id": "8185b2f1fb16fd8d3baf65145175f47d", "fusion_lat": 0.0, "name": "8185b2f1fb16fd8d3baf65145175f47d", "is_reserved": 0, "rental_uris": {"android": "https://dc.lft.to/lastmile_qr_scan", "ios": "https://dc.lft.to/lastmile_qr_scan"}, "fusion_lon": 0.0}, {"lat": 38.85187483333333, "is_disabled": 0, "type": "electric_scooter", "lon": -76.9762, "bike_id": "ea883144a001a6414c1d8b9c79d02afd", "fusion_lat": 0.0, "name": "ea883144a001a6414c1d8b9c79d02afd", "is_reserved": 0, "rental_uris": {"android": "https://dc.lft.to/lastmile_qr_scan", "ios": "https://dc.lft.to/lastmile_qr_scan"}, "fusion_lon": 0.0}, {"lat": 38.892472, "is_disabled": 0, "type": "electric_scooter", "lon": -77.03350983333333, "bike_id": "9c31d5b0f7af1be8fa899b6414d77959", "fusion_lat": 0.0, "name": "9c31d5b0f7af1be8fa899b6414d77959", "is_reserved": 0, "rental_uris": {"android": "https://dc.lft.to/lastmile_qr_scan", "ios": "https://dc.lft.to/lastmile_qr_scan"}, "fusion_lon": 0.0}, {"lat": 38.9259055, "is_disabled": 0, "type": "electric_scooter", "lon": -77.044053, "bike_id": "262121f558e8395f920ddb8558d5c97a", "fusion_lat": 0.0, "name": "262121f558e8395f920ddb8558d5c97a", "is_reserved": 0, "rental_uris": {"android": "https://dc.lft.to/lastmile_qr_scan", "ios": "https://dc.lft.to/lastmile_qr_scan"}, "fusion_lon": 0.0}, {"lat": 38.86255283333333, "is_disabled": 0, "type": "electric_scooter", "lon": -76.9951685, "bike_id": "981924954946c8d2984bd0b4522f675c", "fusion_lat": 0.0, "name": "981924954946c8d2984bd0b4522f675c", "is_reserved": 0, "rental_uris": {"android": "https://dc.lft.to/lastmile_qr_scan", "ios": "https://dc.lft.to/lastmile_qr_scan"}, "fusion_lon": 0.0}, {"lat": 38.964336, "is_disabled": 0, "type": "electric_bike", "lon": -77.02150383333333, "bike_id": "3598dbaafdeabe9425f11caf7a394834", "fusion_lat": 0.0, "name": "3598dbaafdeabe9425f11caf7a394834", "is_reserved": 0, "rental_uris": {"android": "https://dc.lft.to/lastmile_qr_scan", "ios": "https://dc.lft.to/lastmile_qr_scan"}, "fusion_lon": 0.0},