{"data": {"bikes": [{"is_disabled": 0, "fusion_lon": 0.0, "fusion_lat": 0.0, "lat": 38.97576516666667, "type": "electric_bike", "lon": -76.9640275, "bike_id": "abad4e724f2ea18c395f79571ad7636a", "rental_uris": {"android": "https://dc.lft.to/lastmile_qr_scan", "ios": "https://dc.lft.to/lastmile_qr_scan"}, "name": "abad4e724f2ea18c395f79571ad7636a", "is_reserved": 0}, {"is_disabled": 0, "fusion_lon": 0.0, "fusion_lat": 0.0, "lat": 38.888295666666664, "type": "electric_bike", "lon": -77.127442, "bike_id": "5a9779796f3c43b50885923924439aec", "rental_uris": {"android": "https://dc.lft.to/lastmile_qr_scan", "ios": "https://dc.lft.to/lastmile_qr_scan"}, "name": "5a9779796f3c43b50885923924439aec", "is_reserved": 0}, {"is_disabled": 0, "fusion_lon": 0.0, "fusion_lat": 0.0, "lat": 38.88738583333333, "type": "electric_scooter", "lon": -77.02271783333333, "bike_id": "028920264dbfe57299d616bb9b030771", "rental_uris": {"android": "https://dc.lft.to/lastmile_qr_scan", "ios": "https://dc.lft.to/lastmile_qr_scan"}, "name": "028920264dbfe57299d616bb9b030771", "is_reserved": 0}, {"is_disabled": 0, "fusion_lon": 0.0, "fusion_lat": 0.0, "lat": 38.908313, "type": "electric_bike", "lon": -76.94156333333333, "bike_id": "55a3fc1edeff2698abaec7ee2cfb5db2", "rental_uris": {"android": "https://dc.lft.to/lastmile_qr_scan", "ios": "https://dc.lft.to/lastmile_qr_scan"}, "name": "55a3fc1edeff2698abaec7ee2cfb5db2", "is_reserved": 0}, {"is_disabled": 0, "fusion_lon": 0.0, "fusion_lat": 0.0, "lat": 38.9287265, "type": "electric_scooter", "lon": -77.031062, "bike_id": "e23ac3d5303bd94e3b9c6c8bd973089f", "rental_uris": {"android": "https://dc.lft.to/lastmile_qr_scan", "ios": "https://dc.lft.to/lastmile_qr_scan"}, "name": "e23ac3d5303bd94e3b9c6c8bd973089f", "is_reserved": 0}, {"is_disabled": 0, "fusion_lon": 0.0, "fusion_lat": 0.0, "lat": 38.9909355, "type": "electric_bike", "lon": -76.87494383333333, "bike_id": "a78c59d6fdb34e88ea1aac3717f698b5", "rental_uris": {"android": "https://dc.lft.to/lastmile_qr_scan", "ios": "https://dc.lft.to/lastmile_qr_scan"}, "name": "a78c59d6fdb34e88ea1aac3717f698b5", "is_reserved": 0}, {"is_disabled": 0, "fusion_lon": 0.0, "fusion_lat": 0.0, "lat": 38.889708666666664, "type": "electric_bike", "lon": -76.9486255, "bike_id": "47be26a71b48f6caf9bbbe896d954360", "rental_uris": {"android": "https://dc.lft.to/lastmile_qr_scan", "ios": "https://dc.lft.to/lastmile_qr_scan"}, "name": "47be26a71b48f6caf9bbbe896d954360", "is_reserved": 0}, {"is_disabled": 0, "fusion_lon": 0.0, "fusion_lat": 0.0, "lat": 38.93290866666667, "type": "electric_scooter", "lon": -77.02389566666666, "bike_id": "26c8ec95a0acc1dffdc8ec5f16499121", "rental_uris": {"android": "https://dc.lft.to/lastmile_qr_scan", "ios": "https://dc.lft.to/lastmile_qr_scan"}, "name": "26c8ec95a0acc1dffdc8ec5f16499121", "is_reserved": 0}, {"is_disabled": 0, "fusion_lon": 0.0, "fusion_lat": 0.0, "lat": 38.907719666666665, "type": "electric_scooter", "lon": -77.03268466666667, "bike_id": "63b69cfdbb3ba08d7ba3d89b4ce302b9", "rental_uris": {"android": "https://dc.lft.to/lastmile_qr_scan", "ios": "https://dc.lft.to/lastmile_qr_scan"}, "name": "63b69cfdbb3ba08d7ba3d89b4ce302b9", "is_reserved": 0}, {"is_disabled": 0, "fusion_lon": 0.0, "fusion_lat": 0.0, "lat": 38.91655316666667, "type": "electric_scooter", "lon": -77.02179216666667, "bike_id": "a06c23e522bb1d58ed63f799750d293e", "rental_uris": {"android": "https://dc.lft.to/lastmile_qr_scan", "ios": "https://dc.lft.to/lastmile_qr_scan"}, "name": "a06c23e522bb1d58ed63f799750d293e", "is_reserved": 0}, {"is_disabled": 0, "fusion_lon": 0.0, "fusion_lat": 0.0, "lat": 38.91631833333334, "type": "electric_scooter", "lon": -77.04346266666667, "bike_id": "3639788d4aee17aee03b68549c8eaef0", "rental_uris": {"android": "https://dc.lft.to/lastmile_qr_scan", "ios": "https://dc.lft.to/lastmile_qr_scan"}, "name": "3639788d4aee17aee03b68549c8eaef0", "is_reserved": 0}, {"is_disabled": 0, "fusion_lon": 0.0, "fusion_lat": 0.0, "lat": 38.9039965, "type": "electric_scooter", "lon": -76.99004733333334, "bike_id": "4eec8fd8139133fe87354c6ebe8711bb", "rental_uris": {"android": "https://dc.lft.to/lastmile_qr_scan", "ios": "https://dc.lft.to/lastmile_qr_scan"}, "name": "4eec8fd8139133fe87354c6ebe8711bb", "is_reserved": 0}, {"is_disabled": 0, "fusion_lon": 0.0, "fusion_lat": 0.0, "lat": 38.9193555, "type": "electric_scooter", "lon": -76.98074483333333, "bike_id": "5c49aac8f601b30062cb8aa0a2e15d36", "rental_uris": {"android": "https://dc.lft.to/lastmile_qr_scan", "ios": "https://dc.lft.to/lastmile_qr_scan"}, "name": "5c49aac8f601b30062cb8aa0a2e15d36", "is_reserved": 0}, {"is_disabled": 0, "fusion_lon": 0.0, "fusion_lat": 0.0, "lat": 38.89863183333333, "type": "electric_scooter", "lon": -77.031965, "bike_id": "2c25535a003d8e71e67af80a453d4801", "rental_uris": {"android": "https://dc.lft.to/lastmile_qr_scan", "ios": "https://dc.lft.to/lastmile_qr_scan"}, "name": "2c25535a003d8e71e67af80a453d4801", "is_reserved": 0}, {"is_disabled": 0, "fusion_lon": 0.0, "fusion_lat": 0.0, "lat": 38.90963633333333, "type": "electric_scooter", "lon": -77.01572983333334, "bike_id": "4939279ef65281b3b0a860139ff1d1e9", "rental_uris": {"android": "https://dc.lft.to/lastmile_qr_scan", "ios": "https://dc.lft.to/lastmile_qr_scan"}, "name": "4939279ef65281b3b0a860139ff1d1e9", "is_reserved": 0}, {"is_disabled": 0, "fusion_lon": 0.0, "fusion_lat": 0.0, "lat": 38.88502233333333, "type": "electric_scooter", "lon": -76.9964895, "bike_id": "540b9e5d20168b0ce9cd949388320425", "rental_uris": {"android": "https://dc.lft.to/lastmile_qr_scan", "ios": "https://dc.lft.to/lastmile_qr_scan"}, "name": "540b9e5d20168b0ce9cd949388320425", "is_reserved": 0}, {"is_disabled": 0, "fusion_lon": 0.0, "fusion_lat": 0.0, "lat": 38.8551795, "type": "electric_bike", "lon": -76.9584125, "bike_id": "6d1127086d3b5e47cd586a58076305ef", "rental_uris": {"android": "https://dc.lft.to/lastmile_qr_scan", "ios": "https://dc.lft.to/lastmile_qr_scan"}, "name": "6d1127086d3b5e47cd586a58076305ef", "is_reserved": 0}, {"is_disabled": 0, "fusion_lon": 0.0, "fusion_lat": 0.0, "lat": 38.915671333333336, "type": "electric_scooter", "lon": -77.03269716666667, "bike_id": "0cfd7dcc272d555a5fc755ebe77734b0", "rental_uris": {"android": "https://dc.lft.to/lastmile_qr_scan", "ios": "https://dc.lft.to/lastmile_qr_scan"}, "name": "0cfd7dcc272d555a5fc755ebe77734b0", "is_reserved": 0}, {"is_disabled": 0, "fusion_lon": 0.0, "fusion_lat": 0.0, "lat": 38.92762583333333, "type": "electric_scooter", "lon": -77.00589383333333, "bike_id": "7de2d9a7a280ff068430646960a34c13", "rental_uris": {"android": "https://dc.lft.to/lastmile_qr_scan", "ios": "https://dc.lft.to/lastmile_qr_scan"}, "name": "7de2d9a7a280ff068430646960a34c13", "is_reserved": 0}, {"is_disabled": 0, "fusion_lon": 0.0, "fusion_lat": 0.0, "lat": 38.918237166666664, "type": "electric_scooter", "lon": -77.012101, "bike_id": "32f655dbe51e3e224b9290593715cb31", "rental_uris": {"android": "https://dc.lft.to/lastmile_qr_scan", "ios": "https://dc.lft.to/lastmile_qr_scan"}, "name": "32f655dbe51e3e224b9290593715cb31", "is_reserved": 0}, {"is_disabled": 0, "fusion_lon": 0.0, "fusion_lat": 0.0, "lat": 38.886003333333335, "type": "electric_scooter", "lon": -77.031644, "bike_id": "e3ada40341a5f7734fe7d25849882d00", "rental_uris": {"android": "https://dc.lft.to/lastmile_qr_scan", "ios": "https://dc.lft.to/lastmile_qr_scan"}, "name": "e3ada40341a5f7734fe7d25849882d00", "is_reserved": 0}, {"is_disabled": 0, "fusion_lon": 0.0, "fusion_lat": 0.0, "lat": 38.888356333333334, "type": "electric_scooter", "lon": -76.91776433333334, "bike_id": "aa9ef8322f5f69dad51bcafa1665d78d", "rental_uris": {"android": "https://dc.lft.to/lastmile_qr_scan", "ios": "https://dc.lft.to/lastmile_qr_scan"}, "name": "aa9ef8322f5f69dad51bcafa1665d78d", "is_reserved": 0}, {"is_disabled": 0, "fusion_lon": 0.0, "fusion_lat": 0.0, "lat": 38.91258166666667, "type": "electric_scooter", "lon": -77.03752083333333, "bike_id": "6b8473422b9e36c1c5a80083e279ad94", "rental_uris": {"android": "https://dc.lft.to/lastmile_qr_scan", "ios": "https://dc.lft.to/lastmile_qr_scan"}, "name": "6b8473422b9e36c1c5a80083e279ad94", "is_reserved": 0}, {"is_disabled": 0, "fusion_lon": 0.0, "fusion_lat": 0.0, "lat": 38.90717933333333, "type": "electric_scooter", "lon": -77.02397766666667, "bike_id": "e20aba897f65bd67cf5be399ea5679ce", "rental_uris": {"android": "https://dc.lft.to/lastmile_qr_scan", "ios": "https://dc.lft.to/lastmile_qr_scan"}, "name": "e20aba897f65bd67cf5be399ea5679ce", "is_reserved": 0}, {"is_disabled": 0, "fusion_lon": 0.0, "fusion_lat": 0.0, "lat": 38.943136, "type": "electric_scooter", "lon": -77.02184783333334, "bike_id": "07fb5458ca008b7e60d58973c0788c27", "rental_uris": {"android": "https://dc.lft.to/lastmile_qr_scan", "ios": "https://dc.lft.to/lastmile_qr_scan"}, "name": "07fb5458ca008b7e60d58973c0788c27", "is_reserved": 0}, {"is_disabled": 0, "fusion_lon": 0.0, "fusion_lat": 0.0, "lat": 38.93682533333333, "type": "electric_scooter", "lon": -77.03575166666667, "bike_id": "453e373ae0089cfb7ece157b0a95a5d5", "rental_uris": {"android": "https://dc.lft.to/lastmile_qr_scan", "ios": "https://dc.lft.to/lastmile_qr_scan"}, "name": "453e373ae0089cfb7ece157b0a95a5d5", "is_reserved": 0}, {"is_disabled": 0, "fusion_lon": 0.0, "fusion_lat": 0.0, "lat": 38.912639666666664, "type": "electric_scooter", "lon": -77.03145966666666, "bike_id": "f07d28e836496c8c1a45907ad044fb5d", "rental_uris": {"android": "https://dc.lft.to/lastmile_qr_scan", "ios": "https://dc.lft.to/lastmile_qr_scan"}, "name": "f07d28e836496c8c1a45907ad044fb5d", "is_reserved": 0}, {"is_disabled": 0, "fusion_lon": 0.0, "fusion_lat": 0.0, "lat": 38.9106155, "type": "electric_scooter", "lon": -77.04588733333334, "bike_id": "6d993d45be8ae7193a479f46b8aba440", "rental_uris": {"android": "https://dc.lft.to/lastmile_qr_scan", "ios": "https://dc.lft.to/lastmile_qr_scan"}, "name": "6d993d45be8ae7193a479f46b8aba440", "is_reserved": 0}, {"is_disabled": 0, "fusion_lon": 0.0, "fusion_lat": 0.0, "lat": 38.917115333333335, "type": "electric_scooter", "lon": -77.03674033333333, "bike_id": "ae38e52ebabaf23606bea2ba540eeffc", "rental_uris": {"android": "https://dc.lft.to/lastmile_qr_scan", "ios": "https://dc.lft.to/lastmile_qr_scan"}, "name": "ae38e52ebabaf23606bea2ba540eeffc", "is_reserved": 0}, {"is_disabled": 0, "fusion_lon": 0.0, "fusion_lat": 0.0, "lat": 38.90139683333334, "type": "electric_bike", "lon": -77.015838, "bike_id": "605b3fd22cd7a085699205f506af9abb", "rental_uris": {"android": "https://dc.lft.to/lastmile_qr_scan", "ios": "https://dc.lft.to/lastmile_qr_scan"}, "name": "605b3fd22cd7a085699205f506af9abb", "is_reserved": 0}, {"is_disabled": 0, "fusion_lon": 0.0, "fusion_lat": 0.0, "lat": 38.93235816666667, "type": "electric_scooter", "lon": -76.9993075, "bike_id": "e59dacda15a0506dbf257e19071762c1", "rental_uris": {"android": "https://dc.lft.to/lastmile_qr_scan", "ios": "https://dc.lft.to/lastmile_qr_scan"}, "name": "e59dacda15a0506dbf257e19071762c1", "is_reserved": 0}, {"is_disabled": 0, "fusion_lon": 0.0, "fusion_lat": 0.0, "lat": 38.83105583333333, "type": "electric_bike", "lon": -77.04259683333333, "bike_id": "499e72f31a671bc68d4e16e2f48623c3", "rental_uris": {"android": "https://dc.lft.to/lastmile_qr_scan", "ios": "https://dc.lft.to/lastmile_qr_scan"}, "name": "499e72f31a671bc68d4e16e2f48623c3", "is_reserved": 0}, {"is_disabled": 0, "fusion_lon": 0.0, "fusion_lat": 0.0, "lat": 38.90481316666666, "type": "electric_scooter", "lon": -77.02717366666667, "bike_id": "7a593af68e8dbd8f1c10f221a638aee5", "rental_uris": {"android": "https://dc.lft.to/lastmile_qr_scan", "ios": "https://dc.lft.to/lastmile_qr_scan"}, "name": "7a593af68e8dbd8f1c10f221a638aee5", "is_reserved": 0}, {"is_disabled": 0, "fusion_lon": 0.0, "fusion_lat": 0.0, "lat": 39.03884083333333, "type": "electric_bike", "lon": -77.10909366666667, "bike_id": "8a2c3d79ed2da0913783336c5b0a22d3", "rental_uris": {"android": "https://dc.lft.to/lastmile_qr_scan", "ios": "https://dc.lft.to/lastmile_qr_scan"}, "name": "8a2c3d79ed2da0913783336c5b0a22d3", "is_reserved": 0}, {"is_disabled": 0, "fusion_lon": 0.0, "fusion_lat": 0.0, "lat": 38.95625616666667, "type": "electric_scooter", "lon": -77.027852, "bike_id": "9273ca423b50f33f767ca56a86219b27", "rental_uris": {"android": "https://dc.lft.to/lastmile_qr_scan", "ios": "https://dc.lft.to/lastmile_qr_scan"}, "name": "9273ca423b50f33f767ca56a86219b27", "is_reserved": 0}, {"is_disabled": 0, "fusion_lon": 0.0, "fusion_lat": 0.0, "lat": 38.95330383333334, "type": "electric_scooter", "lon": -77.06853333333333, "bike_id": "cbb3337b072aaf229f61df8cec3680b9", "rental_uris": {"android": "https://dc.lft.to/lastmile_qr_scan", "ios": "https://dc.lft.to/lastmile_qr_scan"}, "name": "cbb3337b072aaf229f61df8cec3680b9", "is_reserved": 0}, {"is_disabled": 0, "fusion_lon": 0.0, "fusion_lat": 0.0, "lat": 38.922229, "type": "electric_scooter", "lon": -77.043336, "bike_id": "6c6da9b26a1edca08f1e7a9b7ef09967", "rental_uris": {"android": "https://dc.lft.to/lastmile_qr_scan", "ios": "https://dc.lft.to/lastmile_qr_scan"}, "name": "6c6da9b26a1edca08f1e7a9b7ef09967", "is_reserved": 0}, {"is_disabled": 0, "fusion_lon": 0.0, "fusion_lat": 0.0, "lat": 38.916502333333334, "type": "electric_scooter", "lon": -77.02181766666666, "bike_id": "e8e31056400ee9956e56526c277b754b", "rental_uris": {"android": "https://dc.lft.to/lastmile_qr_scan", "ios": "https://dc.lft.to/lastmile_qr_scan"}, "name": "e8e31056400ee9956e56526c277b754b", "is_reserved": 0}, {"is_disabled": 0, "fusion_lon": 0.0, "fusion_lat": 0.0, "lat": 38.871745, "type": "electric_scooter", "lon": -77.0062045, "bike_id": "4d2caec8bac96d3946fef0506c0ff39c", "rental_uris": {"android": "https://dc.lft.to/lastmile_qr_scan", "ios": "https://dc.lft.to/lastmile_qr_scan"}, "name": "4d2caec8bac96d3946fef0506c0ff39c", "is_reserved": 0}, {"is_disabled": 0, "fusion_lon": 0.0, "fusion_lat": 0.0, "lat": 38.88582066666667, "type": "electric_scooter", "lon": -76.91907983333333, "bike_id": "5efd6dbf521fd2402e1fd2f850fb93e0", "rental_uris": {"android": "https://dc.lft.to/lastmile_qr_scan", "ios": "https://dc.lft.to/lastmile_qr_scan"}, "name": "5efd6dbf521fd2402e1fd2f850fb93e0", "is_reserved": 0}, {"is_disabled": 0, "fusion_lon": 0.0, "fusion_lat": 0.0, "lat": 38.92421216666666, "type": "electric_scooter", "lon": -77.05253433333333, "bike_id": "8fa46d9f215d6bf91f2d0725c3ee2f3a", "rental_uris": {"android": "https://dc.lft.to/lastmile_qr_scan", "ios": "https://dc.lft.to/lastmile_qr_scan"}, "name": "8fa46d9f215d6bf91f2d0725c3ee2f3a", "is_reserved": 0}, {"is_disabled": 0, "fusion_lon": 0.0, "fusion_lat": 0.0, "lat": 38.91564866666667, "type": "electric_scooter", "lon": -77.03242333333333, "bike_id": "1679c50a96aeed25fb2900c9851ee367", "rental_uris": {"android": "https://dc.lft.to/lastmile_qr_scan", "ios": "https://dc.lft.to/lastmile_qr_scan"}, "name": "1679c50a96aeed25fb2900c9851ee367", "is_reserved": 0}, {"is_disabled": 0, "fusion_lon": 0.0, "fusion_lat": 0.0, "lat": 38.912775, "type": "electric_scooter", "lon": -77.03756533333333, "bike_id": "c87476c49ebcd9938104ca3a08da9bc8", "rental_uris": {"android": "https://dc.lft.to/lastmile_qr_scan", "ios": "https://dc.lft.to/lastmile_qr_scan"}, "name": "c87476c49ebcd9938104ca3a08da9bc8", "is_reserved": 0}, {"is_disabled": 0, "fusion_lon": 0.0, "fusion_lat": 0.0, "lat": 38.91119116666667, "type": "electric_scooter", "lon": -77.04405333333334, "bike_id": "8fdebd04f283642c8e1784ba2af752f1", "rental_uris": {"android": "https://dc.lft.to/lastmile_qr_scan", "ios": "https://dc.lft.to/lastmile_qr_scan"}, "name": "8fdebd04f283642c8e1784ba2af752f1", "is_reserved": 0}, {"is_disabled": 0, "fusion_lon": 0.0, "fusion_lat": 0.0, "lat": 38.8920035, "type": "electric_scooter", "lon": -77.022392, "bike_id": "da1894f05823ae9a91629446eabb8b5a", "rental_uris": {"android": "https://dc.lft.to/lastmile_qr_scan", "ios": "https://dc.lft.to/lastmile_qr_scan"}, "name": "da1894f05823ae9a91629446eabb8b5a", "is_reserved": 0}, {"is_disabled": 0, "fusion_lon": 0.0, "fusion_lat": 0.0, "lat": 38.89748916666667, "type": "electric_scooter", "lon": -77.02892933333334, "bike_id": "4825ed4cf262b988b997f6461b69232f", "rental_uris": {"android": "https://dc.lft.to/lastmile_qr_scan", "ios": "https://dc.lft.to/lastmile_qr_scan"}, "name": "4825ed4cf262b988b997f6461b69232f", "is_reserved": 0}, {"is_disabled": 0, "fusion_lon": 0.0, "fusion_lat": 0.0, "lat": 38.90575533333333, "type": "electric_scooter", "lon": -77.04338466666667, "bike_id": "eee2f2c1812f8528c15c5a1da90d2664", "rental_uris": {"android": "https://dc.lft.to/lastmile_qr_scan", "ios": "https://dc.lft.to/lastmile_qr_scan"}, "name": "eee2f2c1812f8528c15c5a1da90d2664", "is_reserved": 0}, {"is_disabled": 0, "fusion_lon": 0.0, "fusion_lat": 0.0, "lat": 38.9120185, "type": "electric_scooter", "lon": -77.0416695, "bike_id": "89b417318c4bc3844831e464498ec77a", "rental_uris": {"android": "https://dc.lft.to/lastmile_qr_scan", "ios": "https://dc.lft.to/lastmile_qr_scan"}, "name": "89b417318c4bc3844831e464498ec77a", "is_reserved": 0}, {"is_disabled": 0, "fusion_lon": 0.0, "fusion_lat": 0.0, "lat": 38.9088825, "type": "electric_scooter", "lon": -77.04132233333333, "bike_id": "f9587256c74bc3acbe96de01059cfbfb", "rental_uris": {"android": "https://dc.lft.to/lastmile_qr_scan", "ios": "https://dc.lft.to/lastmile_qr_scan"}, "name": "f9587256c74bc3acbe96de01059cfbfb", "is_reserved": 0}, {"is_disabled": 0, "fusion_lon": 0.0, "fusion_lat": 0.0, "lat": 38.91196266666667, "type": "electric_scooter", "lon": -77.03707966666667, "bike_id": "4ba6a1609a6d77a3fdbf8e70abab5883", "rental_uris": {"android": "https://dc.lft.to/lastmile_qr_scan", "ios": "https://dc.lft.to/lastmile_qr_scan"}, "name": "4ba6a1609a6d77a3fdbf8e70abab5883", "is_reserved": 0}, {"is_disabled": 0, "fusion_lon": 0.0, "fusion_lat": 0.0, "lat": 38.893995833333335, "type": "electric_scooter", "lon": -76.949996, "bike_id": "d0117f0e9c4119a0d35b436aff55e20a", "rental_uris": {"android": "https://dc.lft.to/lastmile_qr_scan", "ios": "https://dc.lft.to/lastmile_qr_scan"}, "name": "d0117f0e9c4119a0d35b436aff55e20a", "is_reserved": 0}, {"is_disabled": 0, "fusion_lon": 0.0, "fusion_lat": 0.0, "lat": 38.895321, "type": "electric_scooter", "lon": -77.02679733333333, "bike_id": "d26c300761abfd09612f00e8ac83698f", "rental_uris": {"android": "https://dc.lft.to/lastmile_qr_scan", "ios": "https://dc.lft.to/lastmile_qr_scan"}, "name": "d26c300761abfd09612f00e8ac83698f", "is_reserved": 0}, {"is_disabled": 0, "fusion_lon": 0.0, "fusion_lat": 0.0, "lat": 38.9001435, "type": "electric_scooter", "lon": -77.01192333333333, "bike_id": "52b20b70c1e849f71cc16b9466734c13", "rental_uris": {"android": "https://dc.lft.to/lastmile_qr_scan", "ios": "https://dc.lft.to/lastmile_qr_scan"}, "name": "52b20b70c1e849f71cc16b9466734c13", "is_reserved": 0}, {"is_disabled": 0, "fusion_lon": 0.0, "fusion_lat": 0.0, "lat": 38.91708116666667, "type": "electric_scooter", "lon": -77.0412025, "bike_id": "49dde0b94399e9510cd8f7f75c76df4d", "rental_uris": {"android": "https://dc.lft.to/lastmile_qr_scan", "ios": "https://dc.lft.to/lastmile_qr_scan"}, "name": "49dde0b94399e9510cd8f7f75c76df4d", "is_reserved": 0}, {"is_disabled": 0, "fusion_lon": 0.0, "fusion_lat": 0.0, "lat": 38.90923733333333, "type": "electric_scooter", "lon": -77.02293983333334, "bike_id": "44b6f166e64af11ad80f364c21c252ed", "rental_uris": {"android": "https://dc.lft.to/lastmile_qr_scan", "ios": "https://dc.lft.to/lastmile_qr_scan"}, "name": "44b6f166e64af11ad80f364c21c252ed", "is_reserved": 0}, {"is_disabled": 0, "fusion_lon": 0.0, "fusion_lat": 0.0, "lat": 38.90516, "type": "electric_scooter", "lon": -77.02502333333334, "bike_id": "d21b72014846c1b0b8b1363def085080", "rental_uris": {"android": "https://dc.lft.to/lastmile_qr_scan", "ios": "https://dc.lft.to/lastmile_qr_scan"}, "name": "d21b72014846c1b0b8b1363def085080", "is_reserved": 0}, {"is_disabled": 0, "fusion_lon": 0.0, "fusion_lat": 0.0, "lat": 38.917072, "type": "electric_scooter", "lon": -77.00113416666667, "bike_id": "c66b04491da9e0149536164bb73e32f1", "rental_uris": {"android": "https://dc.lft.to/lastmile_qr_scan", "ios": "https://dc.lft.to/lastmile_qr_scan"}, "name": "c66b04491da9e0149536164bb73e32f1", "is_reserved": 0}, {"is_disabled": 0, "fusion_lon": 0.0, "fusion_lat": 0.0, "lat": 38.98503816666667, "type": "electric_bike", "lon": -76.98209466666667, "bike_id": "bdb834f8c0155bbbc633ef1e3f2bba8a", "rental_uris": {"android": "https://dc.lft.to/lastmile_qr_scan", "ios": "https://dc.lft.to/lastmile_qr_scan"}, "name": "bdb834f8c0155bbbc633ef1e3f2bba8a", "is_reserved": 0}, {"is_disabled": 0, "fusion_lon": 0.0, "fusion_lat": 0.0, "lat": 38.915668833333335, "type": "electric_scooter", "lon": -77.0102255, "bike_id": "a2f5eba3475c3d3264c3cebeb8900249", "rental_uris": {"android": "https://dc.lft.to/lastmile_qr_scan", "ios": "https://dc.lft.to/lastmile_qr_scan"}, "name": "a2f5eba3475c3d3264c3cebeb8900249", "is_reserved": 0}, {"is_disabled": 0, "fusion_lon": 0.0, "fusion_lat": 0.0, "lat": 38.905596833333334, "type": "electric_scooter", "lon": -77.0324775, "bike_id": "0deec9bb8f87440f099942606cf6ee94", "rental_uris": {"android": "https://dc.lft.to/lastmile_qr_scan", "ios": "https://dc.lft.to/lastmile_qr_scan"}, "name": "0deec9bb8f87440f099942606cf6ee94", "is_reserved": 0}, {"is_disabled": 0, "fusion_lon": 0.0, "fusion_lat": 0.0, "lat": 38.900184833333334, "type": "electric_scooter", "lon": -77.03397133333333, "bike_id": "f67f31bc0753acf73a4cfd65b13e9d06", "rental_uris": {"android": "https://dc.lft.to/lastmile_qr_scan", "ios": "https://dc.lft.to/lastmile_qr_scan"}, "name": "f67f31bc0753acf73a4cfd65b13e9d06", "is_reserved": 0}, {"is_disabled": 0, "fusion_lon": 0.0, "fusion_lat": 0.0, "lat": 38.9181865, "type": "electric_scooter", "lon": -77.0463315, "bike_id": "b725304c50b50d261a29fa43746c0e2a", "rental_uris": {"android": "https://dc.lft.to/lastmile_qr_scan", "ios": "https://dc.lft.to/lastmile_qr_scan"}, "name": "b725304c50b50d261a29fa43746c0e2a", "is_reserved": 0}, {"is_disabled": 0, "fusion_lon": 0.0, "fusion_lat": 0.0, "lat": 38.92440083333334, "type": "electric_bike", "lon": -76.9075435, "bike_id": "d4b5480da78b84137322af42bc79aeef", "rental_uris": {"android": "https://dc.lft.to/lastmile_qr_scan", "ios": "https://dc.lft.to/lastmile_qr_scan"}, "name": "d4b5480da78b84137322af42bc79aeef", "is_reserved": 0}, {"is_disabled": 0, "fusion_lon": 0.0, "fusion_lat": 0.0, "lat": 38.88918266666667, "type": "electric_scooter", "lon": -76.98006533333333, "bike_id": "b982a09c56bebe7c4f9c97958690d11a", "rental_uris": {"android": "https://dc.lft.to/lastmile_qr_scan", "ios": "https://dc.lft.to/lastmile_qr_scan"}, "name": "b982a09c56bebe7c4f9c97958690d11a", "is_reserved": 0}, {"is_disabled": 0, "fusion_lon": 0.0, "fusion_lat": 0.0, "lat": 38.917122, "type": "electric_scooter", "lon": -77.02614983333333, "bike_id": "c65e82df2033dc609cd1df0e6edbad22", "rental_uris": {"android": "https://dc.lft.to/lastmile_qr_scan", "ios": "https://dc.lft.to/lastmile_qr_scan"}, "name": "c65e82df2033dc609cd1df0e6edbad22", "is_reserved": 0}, {"is_disabled": 0, "fusion_lon": 0.0, "fusion_lat": 0.0, "lat": 38.90817716666667, "type": "electric_scooter", "lon": -77.00131016666667, "bike_id": "3a160fe75df7f8eee8469eb3703f62f5", "rental_uris": {"android": "https://dc.lft.to/lastmile_qr_scan", "ios": "https://dc.lft.to/lastmile_qr_scan"}, "name": "3a160fe75df7f8eee8469eb3703f62f5", "is_reserved": 0}, {"is_disabled": 0, "fusion_lon": 0.0, "fusion_lat": 0.0, "lat": 38.907097666666665, "type": "electric_scooter", "lon": -77.06312383333334, "bike_id": "70b298d1a5682636b95130a0db6b17a6", "rental_uris": {"android": "https://dc.lft.to/lastmile_qr_scan", "ios": "https://dc.lft.to/lastmile_qr_scan"}, "name": "70b298d1a5682636b95130a0db6b17a6", "is_reserved": 0}, {"is_disabled": 0, "fusion_lon": 0.0, "fusion_lat": 0.0, "lat": 38.90595666666667, "type": "electric_scooter", "lon": -77.06908283333334, "bike_id": "0c1beb76d017bf9fff02f535d1900812", "rental_uris": {"android": "https://dc.lft.to/lastmile_qr_scan", "ios": "https://dc.lft.to/lastmile_qr_scan"}, "name": "0c1beb76d017bf9fff02f535d1900812", "is_reserved": 0}, {"is_disabled": 0, "fusion_lon": 0.0, "fusion_lat": 0.0, "lat": 38.916865333333334, "type": "electric_scooter", "lon": -77.04139433333333, "bike_id": "b7edd9a8990ad16b9f636d48c34e8f7a", "rental_uris": {"android": "https://dc.lft.to/lastmile_qr_scan", "ios": "https://dc.lft.to/lastmile_qr_scan"}, "name": "b7edd9a8990ad16b9f636d48c34e8f7a", "is_reserved": 0}, {"is_disabled": 0, "fusion_lon": 0.0, "fusion_lat": 0.0, "lat": 38.919798666666665, "type": "electric_scooter", "lon": -77.04177716666666, "bike_id": "5e1cb6edbecbe6d53fe5e4a9c18f509b", "rental_uris": {"android": "https://dc.lft.to/lastmile_qr_scan", "ios": "https://dc.lft.to/lastmile_qr_scan"}, "name": "5e1cb6edbecbe6d53fe5e4a9c18f509b", "is_reserved": 0}, {"is_disabled": 0, "fusion_lon": 0.0, "fusion_lat": 0.0, "lat": 38.95615033333333, "type": "electric_scooter", "lon": -77.02759266666666, "bike_id": "3ffe6c69d08d27a7411db79a837f5906", "rental_uris": {"android": "https://dc.lft.to/lastmile_qr_scan", "ios": "https://dc.lft.to/lastmile_qr_scan"}, "name": "3ffe6c69d08d27a7411db79a837f5906", "is_reserved": 0}, {"is_disabled": 0, "fusion_lon": 0.0, "fusion_lat": 0.0, "lat": 38.90946916666667, "type": "electric_scooter", "lon": -77.04667766666667, "bike_id": "e99b4e1ee2eabf5e90b9d7266efb3c72", "rental_uris": {"android": "https://dc.lft.to/lastmile_qr_scan", "ios": "https://dc.lft.to/lastmile_qr_scan"}, "name": "e99b4e1ee2eabf5e90b9d7266efb3c72", "is_reserved": 0}, {"is_disabled": 0, "fusion_lon": 0.0, "fusion_lat": 0.0, "lat": 38.89675033333333, "type": "electric_scooter", "lon": -77.01158583333333, "bike_id": "8820bc1e2e95783b0400aa51626d02ca", "rental_uris": {"android": "https://dc.lft.to/lastmile_qr_scan", "ios": "https://dc.lft.to/lastmile_qr_scan"}, "name": "8820bc1e2e95783b0400aa51626d02ca", "is_reserved": 0}, {"is_disabled": 0, "fusion_lon": 0.0, "fusion_lat": 0.0, "lat": 38.99072866666667, "type": "electric_bike", "lon": -77.02377616666666, "bike_id": "2e329b673197463c5976ad8e0f12c050", "rental_uris": {"android": "https://dc.lft.to/lastmile_qr_scan", "ios": "https://dc.lft.to/lastmile_qr_scan"}, "name": "2e329b673197463c5976ad8e0f12c050", "is_reserved": 0}, {"is_disabled": 0, "fusion_lon": 0.0, "fusion_lat": 0.0, "lat": 38.903692666666664, "type": "electric_scooter", "lon": -77.0219635, "bike_id": "225fbb8d8ede4a6087e49265a6882345", "rental_uris": {"android": "https://dc.lft.to/lastmile_qr_scan", "ios": "https://dc.lft.to/lastmile_qr_scan"}, "name": "225fbb8d8ede4a6087e49265a6882345", "is_reserved": 0}, {"is_disabled": 0, "fusion_lon": 0.0, "fusion_lat": 0.0, "lat": 38.884179, "type": "electric_scooter", "lon": -77.03300016666667, "bike_id": "303ee6068cc8904a309ea0904277fe32", "rental_uris": {"android": "https://dc.lft.to/lastmile_qr_scan", "ios": "https://dc.lft.to/lastmile_qr_scan"}, "name": "303ee6068cc8904a309ea0904277fe32", "is_reserved": 0}, {"is_disabled": 0, "fusion_lon": 0.0, "fusion_lat": 0.0, "lat": 38.91791583333333, "type": "electric_scooter", "lon": -77.04358916666666, "bike_id": "42bae41f5980c93b86e0747684308bc4", "rental_uris": {"android": "https://dc.lft.to/lastmile_qr_scan", "ios": "https://dc.lft.to/lastmile_qr_scan"}, "name": "42bae41f5980c93b86e0747684308bc4", "is_reserved": 0}, {"is_disabled": 0, "fusion_lon": 0.0, "fusion_lat": 0.0, "lat": 38.9114765, "type": "electric_bike", "lon": -77.01152616666667, "bike_id": "319dcb1197694b3eb0a64807d0de0baa", "rental_uris": {"android": "https://dc.lft.to/lastmile_qr_scan", "ios": "https://dc.lft.to/lastmile_qr_scan"}, "name": "319dcb1197694b3eb0a64807d0de0baa", "is_reserved": 0}, {"is_disabled": 0, "fusion_lon": 0.0, "fusion_lat": 0.0, "lat": 38.881288166666664, "type": "electric_scooter", "lon": -77.02075616666667, "bike_id": "4c04c55d17a61306eb834ac371bdd574", "rental_uris": {"android": "https://dc.lft.to/lastmile_qr_scan", "ios": "https://dc.lft.to/lastmile_qr_scan"}, "name": "4c04c55d17a61306eb834ac371bdd574", "is_reserved": 0}, {"is_disabled": 0, "fusion_lon": 0.0, "fusion_lat": 0.0, "lat": 38.93777383333333, "type": "electric_scooter", "lon": -77.0243995, "bike_id": "bd55649c912adb45d2561f239ce697ad", "rental_uris": {"android": "https://dc.lft.to/lastmile_qr_scan", "ios": "https://dc.lft.to/lastmile_qr_scan"}, "name": "bd55649c912adb45d2561f239ce697ad", "is_reserved": 0}, {"is_disabled": 0, "fusion_lon": 0.0, "fusion_lat": 0.0, "lat": 38.92350033333334, "type": "electric_bike", "lon": -76.99250016666667, "bike_id": "a07f8ac2f3e973695960d0e3d8bfab6f", "rental_uris": {"android": "https://dc.lft.to/lastmile_qr_scan", "ios": "https://dc.lft.to/lastmile_qr_scan"}, "name": "a07f8ac2f3e973695960d0e3d8bfab6f", "is_reserved": 0}, {"is_disabled": 0, "fusion_lon": 0.0, "fusion_lat": 0.0, "lat": 38.836838, "type": "electric_bike", "lon": -77.04995966666667, "bike_id": "cf29635533c7f400b1df0b810569432f", "rental_uris": {"android": "https://dc.lft.to/lastmile_qr_scan", "ios": "https://dc.lft.to/lastmile_qr_scan"}, "name": "cf29635533c7f400b1df0b810569432f", "is_reserved": 0}, {"is_disabled": 0, "fusion_lon": 0.0, "fusion_lat": 0.0, "lat": 38.906898166666664, "type": "electric_scooter", "lon": -77.02690283333334, "bike_id": "308f5afb234ff4fd6875d02e966d20ae", "rental_uris": {"android": "https://dc.lft.to/lastmile_qr_scan", "ios": "https://dc.lft.to/lastmile_qr_scan"}, "name": "308f5afb234ff4fd6875d02e966d20ae", "is_reserved": 0}, {"is_disabled": 0, "fusion_lon": 0.0, "fusion_lat": 0.0, "lat": 38.876748, "type": "electric_scooter", "lon": -76.93194316666667, "bike_id": "8d8f2f24457eaf61c59bdf63d4c8f089", "rental_uris": {"android": "https://dc.lft.to/lastmile_qr_scan", "ios": "https://dc.lft.to/lastmile_qr_scan"}, "name": "8d8f2f24457eaf61c59bdf63d4c8f089", "is_reserved": 0}, {"is_disabled": 0, "fusion_lon": 0.0, "fusion_lat": 0.0, "lat": 38.905279666666665, "type": "electric_scooter", "lon": -77.061995, "bike_id": "ec4f882cbad5557dceaa8321db52c282", "rental_uris": {"android": "https://dc.lft.to/lastmile_qr_scan", "ios": "https://dc.lft.to/lastmile_qr_scan"}, "name": "ec4f882cbad5557dceaa8321db52c282", "is_reserved": 0}, {"is_disabled": 0, "fusion_lon": 0.0, "fusion_lat": 0.0, "lat": 38.950062333333335, "type": "electric_bike", "lon": -77.35312916666666, "bike_id": "c280547ade4bfb5a7d470dfe9ba2850e", "rental_uris": {"android": "https://dc.lft.to/lastmile_qr_scan", "ios": "https://dc.lft.to/lastmile_qr_scan"}, "name": "c280547ade4bfb5a7d470dfe9ba2850e", "is_reserved": 0}, {"is_disabled": 0, "fusion_lon": 0.0, "fusion_lat": 0.0, "lat": 38.89486433333333, "type": "electric_scooter", "lon": -77.022085, "bike_id": "d761b1db2d82f0e476c9d2a34d543579", "rental_uris": {"android": "https://dc.lft.to/lastmile_qr_scan", "ios": "https://dc.lft.to/lastmile_qr_scan"}, "name": "d761b1db2d82f0e476c9d2a34d543579", "is_reserved": 0}, {"is_disabled": 0, "fusion_lon": 0.0, "fusion_lat": 0.0, "lat": 38.897338166666664, "type": "electric_scooter", "lon": -77.04809016666667, "bike_id": "0e5ed9cac019fd25c1115870eb7412f7", "rental_uris": {"android": "https://dc.lft.to/lastmile_qr_scan", "ios": "https://dc.lft.to/lastmile_qr_scan"}, "name": "0e5ed9cac019fd25c1115870eb7412f7", "is_reserved": 0}, {"is_disabled": 0, "fusion_lon": 0.0, "fusion_lat": 0.0, "lat": 38.878280833333335, "type": "electric_scooter", "lon": -76.9631675, "bike_id": "52a663f4c56ea82324a7c352ab97986b", "rental_uris": {"android": "https://dc.lft.to/lastmile_qr_scan", "ios": "https://dc.lft.to/lastmile_qr_scan"}, "name": "52a663f4c56ea82324a7c352ab97986b", "is_reserved": 0}, {"is_disabled": 0, "fusion_lon": 0.0, "fusion_lat": 0.0, "lat": 38.8922685, "type": "electric_scooter", "lon": -77.0264345, "bike_id": "e36be39fe2a06a6ad8a758df79ac21cd", "rental_uris": {"android": "https://dc.lft.to/lastmile_qr_scan", "ios": "https://dc.lft.to/lastmile_qr_scan"}, "name": "e36be39fe2a06a6ad8a758df79ac21cd", "is_reserved": 0}, {"is_disabled": 0, "fusion_lon": 0.0, "fusion_lat": 0.0, "lat": 38.905842666666665, "type": "electric_scooter", "lon": -77.006973, "bike_id": "17bcc4ea7898fb8116dfa70f07683e27", "rental_uris": {"android": "https://dc.lft.to/lastmile_qr_scan", "ios": "https://dc.lft.to/lastmile_qr_scan"}, "name": "17bcc4ea7898fb8116dfa70f07683e27", "is_reserved": 0}, {"is_disabled": 0, "fusion_lon": 0.0, "fusion_lat": 0.0, "lat": 38.915188, "type": "electric_scooter", "lon": -77.0198325, "bike_id": "403b036060841bd0b50088950da1d8c6", "rental_uris": {"android": "https://dc.lft.to/lastmile_qr_scan", "ios": "https://dc.lft.to/lastmile_qr_scan"}, "name": "403b036060841bd0b50088950da1d8c6", "is_reserved": 0}, {"is_disabled": 0, "fusion_lon": 0.0, "fusion_lat": 0.0, "lat": 38.942023666666664, "type": "electric_scooter", "lon": -77.02410833333333, "bike_id": "783a11a086a385776b9329f011de18d2", "rental_uris": {"android": "https://dc.lft.to/lastmile_qr_scan", "ios": "https://dc.lft.to/lastmile_qr_scan"}, "name": "783a11a086a385776b9329f011de18d2", "is_reserved": 0}, {"is_disabled": 0, "fusion_lon": 0.0, "fusion_lat": 0.0, "lat": 38.89518183333333, "type": "electric_scooter", "lon": -77.021994, "bike_id": "1f2d85f62f7113ad74e9c43fcc459b3c", "rental_uris": {"android": "https://dc.lft.to/lastmile_qr_scan", "ios": "https://dc.lft.to/lastmile_qr_scan"}, "name": "1f2d85f62f7113ad74e9c43fcc459b3c", "is_reserved": 0}, {"is_disabled": 0, "fusion_lon": 0.0, "fusion_lat": 0.0, "lat": 38.92156, "type": "electric_scooter", "lon": -77.03865816666666, "bike_id": "1d640897c7652f93f376f290819b3ece", "rental_uris": {"android": "https://dc.lft.to/lastmile_qr_scan", "ios": "https://dc.lft.to/lastmile_qr_scan"}, "name": "1d640897c7652f93f376f290819b3ece", "is_reserved": 0}, {"is_disabled": 0, "fusion_lon": 0.0, "fusion_lat": 0.0, "lat": 38.93499883333333, "type": "electric_scooter", "lon": -77.02604616666666, "bike_id": "fb00eeb8331031ba6c9c5cfcde1e573c", "rental_uris": {"android": "https://dc.lft.to/lastmile_qr_scan", "ios": "https://dc.lft.to/lastmile_qr_scan"}, "name": "fb00eeb8331031ba6c9c5cfcde1e573c", "is_reserved": 0}, {"is_disabled": 0, "fusion_lon": 0.0, "fusion_lat": 0.0, "lat": 38.9285855, "type": "electric_scooter", "lon": -77.01408983333333, "bike_id": "ad03aad7b0b869f2732b48439005814c", "rental_uris": {"android": "https://dc.lft.to/lastmile_qr_scan", "ios": "https://dc.lft.to/lastmile_qr_scan"}, "name": "ad03aad7b0b869f2732b48439005814c", "is_reserved": 0}, {"is_disabled": 0, "fusion_lon": 0.0, "fusion_lat": 0.0, "lat": 38.9168445, "type": "electric_scooter", "lon": -77.02975116666667, "bike_id": "c1b02d69e8e0c3d68dbf9ce5fe107076", "rental_uris": {"android": "https://dc.lft.to/lastmile_qr_scan", "ios": "https://dc.lft.to/lastmile_qr_scan"}, "name": "c1b02d69e8e0c3d68dbf9ce5fe107076", "is_reserved": 0}, {"is_disabled": 0, "fusion_lon": 0.0, "fusion_lat": 0.0, "lat": 38.930710833333336, "type": "electric_scooter", "lon": -77.03188883333333, "bike_id": "65433b46bb8a8611ac49b73a42de216b", "rental_uris": {"android": "https://dc.lft.to/lastmile_qr_scan", "ios": "https://dc.lft.to/lastmile_qr_scan"}, "name": "65433b46bb8a8611ac49b73a42de216b", "is_reserved": 0}, {"is_disabled": 0, "fusion_lon": 0.0, "fusion_lat": 0.0, "lat": 38.8591665, "type": "electric_scooter", "lon": -76.98780516666666, "bike_id": "47a8701a955e7a6fa52d7659b28ec617", "rental_uris": {"android": "https://dc.lft.to/lastmile_qr_scan", "ios": "https://dc.lft.to/lastmile_qr_scan"}, "name": "47a8701a955e7a6fa52d7659b28ec617", "is_reserved": 0}, {"is_disabled": 0, "fusion_lon": 0.0, "fusion_lat": 0.0, "lat": 38.98600416666667, "type": "electric_bike", "lon": -77.03748583333333, "bike_id": "948cb20671001aca51c4485358fbaf1f", "rental_uris": {"android": "https://dc.lft.to/lastmile_qr_scan", "ios": "https://dc.lft.to/lastmile_qr_scan"}, "name": "948cb20671001aca51c4485358fbaf1f", "is_reserved": 0}, {"is_disabled": 0, "fusion_lon": 0.0, "fusion_lat": 0.0, "lat": 38.91831166666667, "type": "electric_scooter", "lon": -77.03656783333334, "bike_id": "957ec21d9847c0721b9a3044cfa7fe5b", "rental_uris": {"android": "https://dc.lft.to/lastmile_qr_scan", "ios": "https://dc.lft.to/lastmile_qr_scan"}, "name": "957ec21d9847c0721b9a3044cfa7fe5b", "is_reserved": 0}, {"is_disabled": 0, "fusion_lon": 0.0, "fusion_lat": 0.0, "lat": 38.91081783333333, "type": "electric_scooter", "lon": -77.02090333333334, "bike_id": "9f50dfca712e7ce57a08c5e46ee2dd05", "rental_uris": {"android": "https://dc.lft.to/lastmile_qr_scan", "ios": "https://dc.lft.to/lastmile_qr_scan"}, "name": "9f50dfca712e7ce57a08c5e46ee2dd05", "is_reserved": 0}, {"is_disabled": 0, "fusion_lon": 0.0, "fusion_lat": 0.0, "lat": 38.93314083333333, "type": "electric_scooter", "lon": -77.03292333333333, "bike_id": "b89607b3ec5358f5628b66f8a5df78e2", "rental_uris": {"android": "https://dc.lft.to/lastmile_qr_scan", "ios": "https://dc.lft.to/lastmile_qr_scan"}, "name": "b89607b3ec5358f5628b66f8a5df78e2", "is_reserved": 0}, {"is_disabled": 0, "fusion_lon": 0.0, "fusion_lat": 0.0, "lat": 38.923649, "type": "electric_scooter", "lon": -77.05027166666666, "bike_id": "05d42def27553f8f17ab546f90657bbc", "rental_uris": {"android": "https://dc.lft.to/lastmile_qr_scan", "ios": "https://dc.lft.to/lastmile_qr_scan"}, "name": "05d42def27553f8f17ab546f90657bbc", "is_reserved": 0}, {"is_disabled": 0, "fusion_lon": 0.0, "fusion_lat": 0.0, "lat": 38.923756166666664, "type": "electric_scooter", "lon": -77.028192, "bike_id": "e215ff30c060fa8b050fdfe491c79a7e", "rental_uris": {"android": "https://dc.lft.to/lastmile_qr_scan", "ios": "https://dc.lft.to/lastmile_qr_scan"}, "name": "e215ff30c060fa8b050fdfe491c79a7e", "is_reserved": 0}, {"is_disabled": 0, "fusion_lon": 0.0, "fusion_lat": 0.0, "lat": 38.883459333333334, "type": "electric_scooter", "lon": -77.02512216666666, "bike_id": "179452a8a986c53195c4d2fad846d5a5", "rental_uris": {"android": "https://dc.lft.to/lastmile_qr_scan", "ios": "https://dc.lft.to/lastmile_qr_scan"}, "name": "179452a8a986c53195c4d2fad846d5a5", "is_reserved": 0}, {"is_disabled": 0, "fusion_lon": 0.0, "fusion_lat": 0.0, "lat": 38.8461925, "type": "electric_scooter", "lon": -76.99628566666667, "bike_id": "27ec035376745041480901ec13a5da1b", "rental_uris": {"android": "https://dc.lft.to/lastmile_qr_scan", "ios": "https://dc.lft.to/lastmile_qr_scan"}, "name": "27ec035376745041480901ec13a5da1b", "is_reserved": 0}, {"is_disabled": 0, "fusion_lon": 0.0, "fusion_lat": 0.0, "lat": 38.918105, "type": "electric_scooter", "lon": -77.034324, "bike_id": "5c0f5d4edaeb1965ab275bea83894316", "rental_uris": {"android": "https://dc.lft.to/lastmile_qr_scan", "ios": "https://dc.lft.to/lastmile_qr_scan"}, "name": "5c0f5d4edaeb1965ab275bea83894316", "is_reserved": 0}, {"is_disabled": 0, "fusion_lon": 0.0, "fusion_lat": 0.0, "lat": 38.918127, "type": "electric_scooter", "lon": -77.03132033333333, "bike_id": "511d43ccb39debdfdfc6c9a3d31b4449", "rental_uris": {"android": "https://dc.lft.to/lastmile_qr_scan", "ios": "https://dc.lft.to/lastmile_qr_scan"}, "name": "511d43ccb39debdfdfc6c9a3d31b4449", "is_reserved": 0}, {"is_disabled": 0, "fusion_lon": 0.0, "fusion_lat": 0.0, "lat": 38.8624865, "type": "electric_scooter", "lon": -76.99481816666666, "bike_id": "39e64fb1df0e3bdfd76f9a67ae1b7de5", "rental_uris": {"android": "https://dc.lft.to/lastmile_qr_scan", "ios": "https://dc.lft.to/lastmile_qr_scan"}, "name": "39e64fb1df0e3bdfd76f9a67ae1b7de5", "is_reserved": 0}, {"is_disabled": 0, "fusion_lon": 0.0, "fusion_lat": 0.0, "lat": 38.924473, "type": "electric_scooter", "lon": -77.0260965, "bike_id": "ad66e5f9c3504c8e0ad5057bc673ba8d", "rental_uris": {"android": "https://dc.lft.to/lastmile_qr_scan", "ios": "https://dc.lft.to/lastmile_qr_scan"}, "name": "ad66e5f9c3504c8e0ad5057bc673ba8d", "is_reserved": 0}, {"is_disabled": 0, "fusion_lon": 0.0, "fusion_lat": 0.0, "lat": 38.9096025, "type": "electric_scooter", "lon": -77.02182083333334, "bike_id": "86305628782196de4a1ff7b53243af62", "rental_uris": {"android": "https://dc.lft.to/lastmile_qr_scan", "ios": "https://dc.lft.to/lastmile_qr_scan"}, "name": "86305628782196de4a1ff7b53243af62", "is_reserved": 0}, {"is_disabled": 0, "fusion_lon": 0.0, "fusion_lat": 0.0, "lat": 38.96735, "type": "electric_scooter", "lon": -77.02762, "bike_id": "706f57710ecfa7f6dfba912c0f6678cd", "rental_uris": {"android": "https://dc.lft.to/lastmile_qr_scan", "ios": "https://dc.lft.to/lastmile_qr_scan"}, "name": "706f57710ecfa7f6dfba912c0f6678cd", "is_reserved": 0}, {"is_disabled": 0, "fusion_lon": 0.0, "fusion_lat": 0.0, "lat": 38.9563015, "type": "electric_scooter", "lon": -77.0245645, "bike_id": "d46b6173ae91042dc71712260ca7123e", "rental_uris": {"android": "https://dc.lft.to/lastmile_qr_scan", "ios": "https://dc.lft.to/lastmile_qr_scan"}, "name": "d46b6173ae91042dc71712260ca7123e", "is_reserved": 0}, {"is_disabled": 0, "fusion_lon": 0.0, "fusion_lat": 0.0, "lat": 38.913120166666666, "type": "electric_scooter", "lon": -77.03191033333333, "bike_id": "1926cba03bec5d83896d6fa48f149f38", "rental_uris": {"android": "https://dc.lft.to/lastmile_qr_scan", "ios": "https://dc.lft.to/lastmile_qr_scan"}, "name": "1926cba03bec5d83896d6fa48f149f38", "is_reserved": 0}, {"is_disabled": 0, "fusion_lon": 0.0, "fusion_lat": 0.0, "lat": 38.88583783333333, "type": "electric_scooter", "lon": -77.01224783333333, "bike_id": "5f2b48158e0e4b1b0fb3fe7c30083356", "rental_uris": {"android": "https://dc.lft.to/lastmile_qr_scan", "ios": "https://dc.lft.to/lastmile_qr_scan"}, "name": "5f2b48158e0e4b1b0fb3fe7c30083356", "is_reserved": 0}, {"is_disabled": 0, "fusion_lon": 0.0, "fusion_lat": 0.0, "lat": 38.92863583333333, "type": "electric_scooter", "lon": -77.0323145, "bike_id": "df9d51e69d471184e58e6e3f815029a7", "rental_uris": {"android": "https://dc.lft.to/lastmile_qr_scan", "ios": "https://dc.lft.to/lastmile_qr_scan"}, "name": "df9d51e69d471184e58e6e3f815029a7", "is_reserved": 0}, {"is_disabled": 0, "fusion_lon": 0.0, "fusion_lat": 0.0, "lat": 38.91607366666667, "type": "electric_scooter", "lon": -77.02342883333333, "bike_id": "095d62c9ae98eaa321cc2827aa4bca77", "rental_uris": {"android": "https://dc.lft.to/lastmile_qr_scan", "ios": "https://dc.lft.to/lastmile_qr_scan"}, "name": "095d62c9ae98eaa321cc2827aa4bca77", "is_reserved": 0}, {"is_disabled": 0, "fusion_lon": 0.0, "fusion_lat": 0.0, "lat": 38.90357866666667, "type": "electric_scooter", "lon": -77.00732, "bike_id": "a53eb983571d0f5406d274c61e98cf35", "rental_uris": {"android": "https://dc.lft.to/lastmile_qr_scan", "ios": "https://dc.lft.to/lastmile_qr_scan"}, "name": "a53eb983571d0f5406d274c61e98cf35", "is_reserved": 0}, {"is_disabled": 0, "fusion_lon": 0.0, "fusion_lat": 0.0, "lat": 38.9163715, "type": "electric_scooter", "lon": -77.04620616666666, "bike_id": "3abc04fb4bafa77adb3a221ed7347d3d", "rental_uris": {"android": "https://dc.lft.to/lastmile_qr_scan", "ios": "https://dc.lft.to/lastmile_qr_scan"}, "name": "3abc04fb4bafa77adb3a221ed7347d3d", "is_reserved": 0}, {"is_disabled": 0, "fusion_lon": 0.0, "fusion_lat": 0.0, "lat": 38.903357666666665, "type": "electric_bike", "lon": -76.97531366666666, "bike_id": "9b73e5a66b84fdeed1622adc9e64b596", "rental_uris": {"android": "https://dc.lft.to/lastmile_qr_scan", "ios": "https://dc.lft.to/lastmile_qr_scan"}, "name": "9b73e5a66b84fdeed1622adc9e64b596", "is_reserved": 0}, {"is_disabled": 0, "fusion_lon": 0.0, "fusion_lat": 0.0, "lat": 38.9104615, "type": "electric_scooter", "lon": -77.03859433333334, "bike_id": "3531ca0cce2cfbf2f465a26d8836b1e6", "rental_uris": {"android": "https://dc.lft.to/lastmile_qr_scan", "ios": "https://dc.lft.to/lastmile_qr_scan"}, "name": "3531ca0cce2cfbf2f465a26d8836b1e6", "is_reserved": 0}, {"is_disabled": 0, "fusion_lon": 0.0, "fusion_lat": 0.0, "lat": 38.928792333333334, "type": "electric_scooter", "lon": -77.03305016666667, "bike_id": "6434d6e755e9acdc6aa4c8a6bbd60832", "rental_uris": {"android": "https://dc.lft.to/lastmile_qr_scan", "ios": "https://dc.lft.to/lastmile_qr_scan"}, "name": "6434d6e755e9acdc6aa4c8a6bbd60832", "is_reserved": 0}, {"is_disabled": 0, "fusion_lon": 0.0, "fusion_lat": 0.0, "lat": 38.9056265, "type": "electric_scooter", "lon": -77.04171533333333, "bike_id": "d9b043acac688cf8fc9b4f6219cc5245", "rental_uris": {"android": "https://dc.lft.to/lastmile_qr_scan", "ios": "https://dc.lft.to/lastmile_qr_scan"}, "name": "d9b043acac688cf8fc9b4f6219cc5245", "is_reserved": 0}, {"is_disabled": 0, "fusion_lon": 0.0, "fusion_lat": 0.0, "lat": 38.9337395, "type": "electric_scooter", "lon": -77.0238635, "bike_id": "bd24fe7a0ca26f0113c26141ef35b684", "rental_uris": {"android": "https://dc.lft.to/lastmile_qr_scan", "ios": "https://dc.lft.to/lastmile_qr_scan"}, "name": "bd24fe7a0ca26f0113c26141ef35b684", "is_reserved": 0}, {"is_disabled": 0, "fusion_lon": 0.0, "fusion_lat": 0.0, "lat": 38.89536116666667, "type": "electric_scooter", "lon": -76.977269, "bike_id": "4f4a0e761bec288c3b5e1f75ec5137bc", "rental_uris": {"android": "https://dc.lft.to/lastmile_qr_scan", "ios": "https://dc.lft.to/lastmile_qr_scan"}, "name": "4f4a0e761bec288c3b5e1f75ec5137bc", "is_reserved": 0}, {"is_disabled": 0, "fusion_lon": 0.0, "fusion_lat": 0.0, "lat": 38.9045145, "type": "electric_scooter", "lon": -77.02268366666667, "bike_id": "def3b7315df41fd41c65a3ec7a870e0f", "rental_uris": {"android": "https://dc.lft.to/lastmile_qr_scan", "ios": "https://dc.lft.to/lastmile_qr_scan"}, "name": "def3b7315df41fd41c65a3ec7a870e0f", "is_reserved": 0}, {"is_disabled": 0, "fusion_lon": 0.0, "fusion_lat": 0.0, "lat": 38.939705833333335, "type": "electric_scooter", "lon": -77.0326655, "bike_id": "f06b07e6c533f5e3cb386abfb67f23ec", "rental_uris": {"android": "https://dc.lft.to/lastmile_qr_scan", "ios": "https://dc.lft.to/lastmile_qr_scan"}, "name": "f06b07e6c533f5e3cb386abfb67f23ec", "is_reserved": 0}, {"is_disabled": 0, "fusion_lon": 0.0, "fusion_lat": 0.0, "lat": 39.007879833333334, "type": "electric_bike", "lon": -76.99565283333334, "bike_id": "a39475f218622d4e8a1a0c8b7fb321c0", "rental_uris": {"android": "https://dc.lft.to/lastmile_qr_scan", "ios": "https://dc.lft.to/lastmile_qr_scan"}, "name": "a39475f218622d4e8a1a0c8b7fb321c0", "is_reserved": 0}, {"is_disabled": 0, "fusion_lon": 0.0, "fusion_lat": 0.0, "lat": 38.90669183333333, "type": "electric_scooter", "lon": -77.0453515, "bike_id": "a2d4cfe3e99cb4fbf70be641a9382c20", "rental_uris": {"android": "https://dc.lft.to/lastmile_qr_scan", "ios": "https://dc.lft.to/lastmile_qr_scan"}, "name": "a2d4cfe3e99cb4fbf70be641a9382c20", "is_reserved": 0}, {"is_disabled": 0, "fusion_lon": 0.0, "fusion_lat": 0.0, "lat": 38.914604833333335, "type": "electric_scooter", "lon": -77.02292033333333, "bike_id": "e1cf35bd9ec33db072e26e06bebf4ead", "rental_uris": {"android": "https://dc.lft.to/lastmile_qr_scan", "ios": "https://dc.lft.to/lastmile_qr_scan"}, "name": "e1cf35bd9ec33db072e26e06bebf4ead", "is_reserved": 0}, {"is_disabled": 0, "fusion_lon": 0.0, "fusion_lat": 0.0, "lat": 38.942905, "type": "electric_bike", "lon": -77.06921033333333, "bike_id": "4420f7352c9bd51606c31998d4c50ea4", "rental_uris": {"android": "https://dc.lft.to/lastmile_qr_scan", "ios": "https://dc.lft.to/lastmile_qr_scan"}, "name": "4420f7352c9bd51606c31998d4c50ea4", "is_reserved": 0}, {"is_disabled": 0, "fusion_lon": 0.0, "fusion_lat": 0.0, "lat": 38.9169905, "type": "electric_scooter", "lon": -77.02598366666666, "bike_id": "a125e42e5d8908bb3f85ede8b8d82596", "rental_uris": {"android": "https://dc.lft.to/lastmile_qr_scan", "ios": "https://dc.lft.to/lastmile_qr_scan"}, "name": "a125e42e5d8908bb3f85ede8b8d82596", "is_reserved": 0}, {"is_disabled": 0, "fusion_lon": 0.0, "fusion_lat": 0.0, "lat": 38.85562616666667, "type": "electric_bike", "lon": -77.10699533333333, "bike_id": "94d46acea7ee69cf86b2bca1688c58ef", "rental_uris": {"android": "https://dc.lft.to/lastmile_qr_scan", "ios": "https://dc.lft.to/lastmile_qr_scan"}, "name": "94d46acea7ee69cf86b2bca1688c58ef", "is_reserved": 0}, {"is_disabled": 0, "fusion_lon": 0.0, "fusion_lat": 0.0, "lat": 38.906362333333334, "type": "electric_scooter", "lon": -77.02499683333333, "bike_id": "d6ebd6ee18accad84b4558a35f4ff781", "rental_uris": {"android": "https://dc.lft.to/lastmile_qr_scan", "ios": "https://dc.lft.to/lastmile_qr_scan"}, "name": "d6ebd6ee18accad84b4558a35f4ff781", "is_reserved": 0}, {"is_disabled": 0, "fusion_lon": 0.0, "fusion_lat": 0.0, "lat": 38.9122765, "type": "electric_scooter", "lon": -77.047814, "bike_id": "e68a13380a6f705c02fa62e289e5cd20", "rental_uris": {"android": "https://dc.lft.to/lastmile_qr_scan", "ios": "https://dc.lft.to/lastmile_qr_scan"}, "name": "e68a13380a6f705c02fa62e289e5cd20", "is_reserved": 0}, {"is_disabled": 0, "fusion_lon": 0.0, "fusion_lat": 0.0, "lat": 38.860339, "type": "electric_scooter", "lon": -76.99681233333334, "bike_id": "47b91f9f2f8fea03c0aef331e0667c48", "rental_uris": {"android": "https://dc.lft.to/lastmile_qr_scan", "ios": "https://dc.lft.to/lastmile_qr_scan"}, "name": "47b91f9f2f8fea03c0aef331e0667c48", "is_reserved": 0}, {"is_disabled": 0, "fusion_lon": 0.0, "fusion_lat": 0.0, "lat": 38.99938983333333, "type": "electric_bike", "lon": -77.00119816666667, "bike_id": "ec580938a37a794a61dcdaefc7f14205", "rental_uris": {"android": "https://dc.lft.to/lastmile_qr_scan", "ios": "https://dc.lft.to/lastmile_qr_scan"}, "name": "ec580938a37a794a61dcdaefc7f14205", "is_reserved": 0}, {"is_disabled": 0, "fusion_lon": 0.0, "fusion_lat": 0.0, "lat": 38.8950305, "type": "electric_scooter", "lon": -76.9487675, "bike_id": "b8606d537a737a57c4a5ffa6140b2ca4", "rental_uris": {"android": "https://dc.lft.to/lastmile_qr_scan", "ios": "https://dc.lft.to/lastmile_qr_scan"}, "name": "b8606d537a737a57c4a5ffa6140b2ca4", "is_reserved": 0}, {"is_disabled": 0, "fusion_lon": 0.0, "fusion_lat": 0.0, "lat": 38.900072, "type": "electric_scooter", "lon": -77.03204983333333, "bike_id": "87304975a45ac327b2c9e90aefa03524", "rental_uris": {"android": "https://dc.lft.to/lastmile_qr_scan", "ios": "https://dc.lft.to/lastmile_qr_scan"}, "name": "87304975a45ac327b2c9e90aefa03524", "is_reserved": 0}, {"is_disabled": 0, "fusion_lon": 0.0, "fusion_lat": 0.0, "lat": 39.095903666666665, "type": "electric_bike", "lon": -77.14775133333333, "bike_id": "4f601e88e5f3eb694ff7dedeec6a5490", "rental_uris": {"android": "https://dc.lft.to/lastmile_qr_scan", "ios": "https://dc.lft.to/lastmile_qr_scan"}, "name": "4f601e88e5f3eb694ff7dedeec6a5490", "is_reserved": 0}, {"is_disabled": 0, "fusion_lon": 0.0, "fusion_lat": 0.0, "lat": 38.919417333333335, "type": "electric_scooter", "lon": -77.08136083333333, "bike_id": "9cd32dfc1631082290f2068b10f37b43", "rental_uris": {"android": "https://dc.lft.to/lastmile_qr_scan", "ios": "https://dc.lft.to/lastmile_qr_scan"}, "name": "9cd32dfc1631082290f2068b10f37b43", "is_reserved": 0}, {"is_disabled": 0, "fusion_lon": 0.0, "fusion_lat": 0.0, "lat": 38.928803, "type": "electric_scooter", "lon": -77.01402316666666, "bike_id": "955396b4b27a93b4069f8de7cc925b0e", "rental_uris": {"android": "https://dc.lft.to/lastmile_qr_scan", "ios": "https://dc.lft.to/lastmile_qr_scan"}, "name": "955396b4b27a93b4069f8de7cc925b0e", "is_reserved": 0}, {"is_disabled": 0, "fusion_lon": 0.0, "fusion_lat": 0.0, "lat": 38.8995555, "type": "electric_scooter", "lon": -77.05144383333334, "bike_id": "87b7efd9d969dbeecdeb934539cd4081", "rental_uris": {"android": "https://dc.lft.to/lastmile_qr_scan", "ios": "https://dc.lft.to/lastmile_qr_scan"}, "name": "87b7efd9d969dbeecdeb934539cd4081", "is_reserved": 0}, {"is_disabled": 0, "fusion_lon": 0.0, "fusion_lat": 0.0, "lat": 38.990649833333336, "type": "electric_bike", "lon": -77.10028416666667, "bike_id": "b493b4501078326daf0c61e1d7e9f5d6", "rental_uris": {"android": "https://dc.lft.to/lastmile_qr_scan", "ios": "https://dc.lft.to/lastmile_qr_scan"}, "name": "b493b4501078326daf0c61e1d7e9f5d6", "is_reserved": 0}, {"is_disabled": 0, "fusion_lon": 0.0, "fusion_lat": 0.0, "lat": 38.99090966666667, "type": "electric_bike", "lon": -76.87494783333334, "bike_id": "94e20d594c3152da3fffaa813e8de66f", "rental_uris": {"android": "https://dc.lft.to/lastmile_qr_scan", "ios": "https://dc.lft.to/lastmile_qr_scan"}, "name": "94e20d594c3152da3fffaa813e8de66f", "is_reserved": 0}, {"is_disabled": 0, "fusion_lon": 0.0, "fusion_lat": 0.0, "lat": 38.907359666666665, "type": "electric_scooter", "lon": -77.0407755, "bike_id": "b0deed0d9fc8ec32c7ed64d21ed4de87", "rental_uris": {"android": "https://dc.lft.to/lastmile_qr_scan", "ios": "https://dc.lft.to/lastmile_qr_scan"}, "name": "b0deed0d9fc8ec32c7ed64d21ed4de87", "is_reserved": 0}, {"is_disabled": 0, "fusion_lon": 0.0, "fusion_lat": 0.0, "lat": 38.905381166666665, "type": "electric_scooter", "lon": -77.065311, "bike_id": "8a22db149886903ef838e92d89413d63", "rental_uris": {"android": "https://dc.lft.to/lastmile_qr_scan", "ios": "https://dc.lft.to/lastmile_qr_scan"}, "name": "8a22db149886903ef838e92d89413d63", "is_reserved": 0}, {"is_disabled": 0, "fusion_lon": 0.0, "fusion_lat": 0.0, "lat": 38.8749715, "type": "electric_bike", "lon": -77.04900516666666, "bike_id": "4c39da078a4e200738e4397cd7bb612a", "rental_uris": {"android": "https://dc.lft.to/lastmile_qr_scan", "ios": "https://dc.lft.to/lastmile_qr_scan"}, "name": "4c39da078a4e200738e4397cd7bb612a", "is_reserved": 0}, {"is_disabled": 0, "fusion_lon": 0.0, "fusion_lat": 0.0, "lat": 38.93301833333334, "type": "electric_scooter", "lon": -77.02141233333333, "bike_id": "c679c337c105d1e0e7512af75daa658a", "rental_uris": {"android": "https://dc.lft.to/lastmile_qr_scan", "ios": "https://dc.lft.to/lastmile_qr_scan"}, "name": "c679c337c105d1e0e7512af75daa658a", "is_reserved": 0}, {"is_disabled": 0, "fusion_lon": 0.0, "fusion_lat": 0.0, "lat": 38.962144333333335, "type": "electric_scooter", "lon": -77.02807866666667, "bike_id": "d37fce718cead2b288ecea20fe8198c7", "rental_uris": {"android": "https://dc.lft.to/lastmile_qr_scan", "ios": "https://dc.lft.to/lastmile_qr_scan"}, "name": "d37fce718cead2b288ecea20fe8198c7", "is_reserved": 0}, {"is_disabled": 0, "fusion_lon": 0.0, "fusion_lat": 0.0, "lat": 38.863618, "type": "electric_scooter", "lon": -76.99074483333334, "bike_id": "b15a7c20a8a042452d5184c93afcecbf", "rental_uris": {"android": "https://dc.lft.to/lastmile_qr_scan", "ios": "https://dc.lft.to/lastmile_qr_scan"}, "name": "b15a7c20a8a042452d5184c93afcecbf", "is_reserved": 0}, {"is_disabled": 0, "fusion_lon": 0.0, "fusion_lat": 0.0, "lat": 38.95635983333333, "type": "electric_scooter", "lon": -77.02978666666667, "bike_id": "8578bd2889097a474e4f6a951477da7a", "rental_uris": {"android": "https://dc.lft.to/lastmile_qr_scan", "ios": "https://dc.lft.to/lastmile_qr_scan"}, "name": "8578bd2889097a474e4f6a951477da7a", "is_reserved": 0}, {"is_disabled": 0, "fusion_lon": 0.0, "fusion_lat": 0.0, "lat": 38.906053, "type": "electric_scooter", "lon": -77.00702866666667, "bike_id": "9c6a90bdf92b045d0d18aad03410d88b", "rental_uris": {"android": "https://dc.lft.to/lastmile_qr_scan", "ios": "https://dc.lft.to/lastmile_qr_scan"}, "name": "9c6a90bdf92b045d0d18aad03410d88b", "is_reserved": 0}, {"is_disabled": 0, "fusion_lon": 0.0, "fusion_lat": 0.0, "lat": 38.952594500000004, "type": "electric_bike", "lon": -77.06977333333333, "bike_id": "cb18cf367d21ce53a7b73b20f20c9f0a", "rental_uris": {"android": "https://dc.lft.to/lastmile_qr_scan", "ios": "https://dc.lft.to/lastmile_qr_scan"}, "name": "cb18cf367d21ce53a7b73b20f20c9f0a", "is_reserved": 0}, {"is_disabled": 0, "fusion_lon": 0.0, "fusion_lat": 0.0, "lat": 38.92795916666667, "type": "electric_scooter", "lon": -77.02294033333334, "bike_id": "844b48c3b647fb8c62092b44cb7ccfe7", "rental_uris": {"android": "https://dc.lft.to/lastmile_qr_scan", "ios": "https://dc.lft.to/lastmile_qr_scan"}, "name": "844b48c3b647fb8c62092b44cb7ccfe7", "is_reserved": 0}, {"is_disabled": 0, "fusion_lon": 0.0, "fusion_lat": 0.0, "lat": 38.896685833333336, "type": "electric_scooter", "lon": -77.02713166666666, "bike_id": "5789af14920f0ff92621cf4fb34d45e9", "rental_uris": {"android": "https://dc.lft.to/lastmile_qr_scan", "ios": "https://dc.lft.to/lastmile_qr_scan"}, "name": "5789af14920f0ff92621cf4fb34d45e9", "is_reserved": 0}, {"is_disabled": 0, "fusion_lon": 0.0, "fusion_lat": 0.0, "lat": 38.9013955, "type": "electric_scooter", "lon": -77.017842, "bike_id": "1508150a43719a37805daf4ee088b6e3", "rental_uris": {"android": "https://dc.lft.to/lastmile_qr_scan", "ios": "https://dc.lft.to/lastmile_qr_scan"}, "name": "1508150a43719a37805daf4ee088b6e3", "is_reserved": 0}, {"is_disabled": 0, "fusion_lon": 0.0, "fusion_lat": 0.0, "lat": 38.9036155, "type": "electric_scooter", "lon": -77.03511066666667, "bike_id": "9be30e8d59cfe0625d8def14563c7bb8", "rental_uris": {"android": "https://dc.lft.to/lastmile_qr_scan", "ios": "https://dc.lft.to/lastmile_qr_scan"}, "name": "9be30e8d59cfe0625d8def14563c7bb8", "is_reserved": 0}, {"is_disabled": 0, "fusion_lon": 0.0, "fusion_lat": 0.0, "lat": 38.8506795, "type": "electric_bike", "lon": -76.97330483333333, "bike_id": "e0f39479f48fe28219ebcc5481da5904", "rental_uris": {"android": "https://dc.lft.to/lastmile_qr_scan", "ios": "https://dc.lft.to/lastmile_qr_scan"}, "name": "e0f39479f48fe28219ebcc5481da5904", "is_reserved": 0}, {"is_disabled": 0, "fusion_lon": 0.0, "fusion_lat": 0.0, "lat": 38.859753, "type": "electric_scooter", "lon": -76.98407833333333, "bike_id": "6c8ee861b366f1f5acba23dd9260f1a1", "rental_uris": {"android": "https://dc.lft.to/lastmile_qr_scan", "ios": "https://dc.lft.to/lastmile_qr_scan"}, "name": "6c8ee861b366f1f5acba23dd9260f1a1", "is_reserved": 0}, {"is_disabled": 0, "fusion_lon": 0.0, "fusion_lat": 0.0, "lat": 38.913915, "type": "electric_scooter", "lon": -77.03848166666667, "bike_id": "2e75db0a2164a5030abc63c1828c75a1", "rental_uris": {"android": "https://dc.lft.to/lastmile_qr_scan", "ios": "https://dc.lft.to/lastmile_qr_scan"}, "name": "2e75db0a2164a5030abc63c1828c75a1", "is_reserved": 0}, {"is_disabled": 0, "fusion_lon": 0.0, "fusion_lat": 0.0, "lat": 38.91186616666667, "type": "electric_scooter", "lon": -77.04180616666666, "bike_id": "3f2e2bb841ab4d1ddbd1a47aad9f26af", "rental_uris": {"android": "https://dc.lft.to/lastmile_qr_scan", "ios": "https://dc.lft.to/lastmile_qr_scan"}, "name": "3f2e2bb841ab4d1ddbd1a47aad9f26af", "is_reserved": 0}, {"is_disabled": 0, "fusion_lon": 0.0, "fusion_lat": 0.0, "lat": 38.907095166666664, "type": "electric_scooter", "lon": -77.0631285, "bike_id": "d74362a2f8968286a2de946bde477e58", "rental_uris": {"android": "https://dc.lft.to/lastmile_qr_scan", "ios": "https://dc.lft.to/lastmile_qr_scan"}, "name": "d74362a2f8968286a2de946bde477e58", "is_reserved": 0}, {"is_disabled": 0, "fusion_lon": 0.0, "fusion_lat": 0.0, "lat": 38.92027516666667, "type": "electric_scooter", "lon": -77.03198433333333, "bike_id": "8f0ae17d89e5b005e560037e617fa257", "rental_uris": {"android": "https://dc.lft.to/lastmile_qr_scan", "ios": "https://dc.lft.to/lastmile_qr_scan"}, "name": "8f0ae17d89e5b005e560037e617fa257", "is_reserved": 0}, {"is_disabled": 0, "fusion_lon": 0.0, "fusion_lat": 0.0, "lat": 38.978291, "type": "electric_bike", "lon": -76.92880416666667, "bike_id": "c4e8756ff7befd1a4d3181247639535e", "rental_uris": {"android": "https://dc.lft.to/lastmile_qr_scan", "ios": "https://dc.lft.to/lastmile_qr_scan"}, "name": "c4e8756ff7befd1a4d3181247639535e", "is_reserved": 0}, {"is_disabled": 0, "fusion_lon": 0.0, "fusion_lat": 0.0, "lat": 38.858802833333336, "type": "electric_scooter", "lon": -76.99032366666667, "bike_id": "3e7e4d87a880e7988d993ad06d837328", "rental_uris": {"android": "https://dc.lft.to/lastmile_qr_scan", "ios": "https://dc.lft.to/lastmile_qr_scan"}, "name": "3e7e4d87a880e7988d993ad06d837328", "is_reserved": 0}, {"is_disabled": 0, "fusion_lon": 0.0, "fusion_lat": 0.0, "lat": 38.8937395, "type": "electric_scooter", "lon": -76.97814233333334, "bike_id": "d8215773a2dd2e2dd6009e50323b0799", "rental_uris": {"android": "https://dc.lft.to/lastmile_qr_scan", "ios": "https://dc.lft.to/lastmile_qr_scan"}, "name": "d8215773a2dd2e2dd6009e50323b0799", "is_reserved": 0}, {"is_disabled": 0, "fusion_lon": 0.0, "fusion_lat": 0.0, "lat": 38.893148, "type": "electric_scooter", "lon": -77.022045, "bike_id": "3ebb56f2ecf89b0006e04e6be6f3414d", "rental_uris": {"android": "https://dc.lft.to/lastmile_qr_scan", "ios": "https://dc.lft.to/lastmile_qr_scan"}, "name": "3ebb56f2ecf89b0006e04e6be6f3414d", "is_reserved": 0}, {"is_disabled": 0, "fusion_lon": 0.0, "fusion_lat": 0.0, "lat": 38.91692033333333, "type": "electric_scooter", "lon": -77.0375145, "bike_id": "f24001f966550fc177475631d64127db", "rental_uris": {"android": "https://dc.lft.to/lastmile_qr_scan", "ios": "https://dc.lft.to/lastmile_qr_scan"}, "name": "f24001f966550fc177475631d64127db", "is_reserved": 0}, {"is_disabled": 0, "fusion_lon": 0.0, "fusion_lat": 0.0, "lat": 38.897311, "type": "electric_scooter", "lon": -77.02503133333333, "bike_id": "aefefd5250f6e3e7e7fdd1fe773289d0", "rental_uris": {"android": "https://dc.lft.to/lastmile_qr_scan", "ios": "https://dc.lft.to/lastmile_qr_scan"}, "name": "aefefd5250f6e3e7e7fdd1fe773289d0", "is_reserved": 0}, {"is_disabled": 0, "fusion_lon": 0.0, "fusion_lat": 0.0, "lat": 38.88536783333333, "type": "electric_scooter", "lon": -76.99801366666667, "bike_id": "c10391e4ab0310447e62b0f93d8c098b", "rental_uris": {"android": "https://dc.lft.to/lastmile_qr_scan", "ios": "https://dc.lft.to/lastmile_qr_scan"}, "name": "c10391e4ab0310447e62b0f93d8c098b", "is_reserved": 0}, {"is_disabled": 0, "fusion_lon": 0.0, "fusion_lat": 0.0, "lat": 38.9051595, "type": "electric_scooter", "lon": -77.0515095, "bike_id": "3d1b6cd434378198ea2c008e12631b93", "rental_uris": {"android": "https://dc.lft.to/lastmile_qr_scan", "ios": "https://dc.lft.to/lastmile_qr_scan"}, "name": "3d1b6cd434378198ea2c008e12631b93", "is_reserved": 0}, {"is_disabled": 0, "fusion_lon": 0.0, "fusion_lat": 0.0, "lat": 38.91701333333334, "type": "electric_scooter", "lon": -77.02595683333334, "bike_id": "02e20b55272f628d7ef6676a8cc3f26f", "rental_uris": {"android": "https://dc.lft.to/lastmile_qr_scan", "ios": "https://dc.lft.to/lastmile_qr_scan"}, "name": "02e20b55272f628d7ef6676a8cc3f26f", "is_reserved": 0}, {"is_disabled": 0, "fusion_lon": 0.0, "fusion_lat": 0.0, "lat": 38.89227966666667, "type": "electric_scooter", "lon": -77.02260833333334, "bike_id": "5d7355a4e473bfdbe6ac9e7a77a18e30", "rental_uris": {"android": "https://dc.lft.to/lastmile_qr_scan", "ios": "https://dc.lft.to/lastmile_qr_scan"}, "name": "5d7355a4e473bfdbe6ac9e7a77a18e30", "is_reserved": 0}, {"is_disabled": 0, "fusion_lon": 0.0, "fusion_lat": 0.0, "lat": 38.89239083333333, "type": "electric_scooter", "lon": -77.031731, "bike_id": "efc6577ceec42a5b3357a365d9889526", "rental_uris": {"android": "https://dc.lft.to/lastmile_qr_scan", "ios": "https://dc.lft.to/lastmile_qr_scan"}, "name": "efc6577ceec42a5b3357a365d9889526", "is_reserved": 0}, {"is_disabled": 0, "fusion_lon": 0.0, "fusion_lat": 0.0, "lat": 38.888896833333334, "type": "electric_scooter", "lon": -77.015058, "bike_id": "5eaa8388bfb2956ef1a3bbb6d2b887f1", "rental_uris": {"android": "https://dc.lft.to/lastmile_qr_scan", "ios": "https://dc.lft.to/lastmile_qr_scan"}, "name": "5eaa8388bfb2956ef1a3bbb6d2b887f1", "is_reserved": 0}, {"is_disabled": 0, "fusion_lon": 0.0, "fusion_lat": 0.0, "lat": 38.88581333333333, "type": "electric_scooter", "lon": -77.012258, "bike_id": "7bfcc23e7b39fb61602b0e0ee02c151e", "rental_uris": {"android": "https://dc.lft.to/lastmile_qr_scan", "ios": "https://dc.lft.to/lastmile_qr_scan"}, "name": "7bfcc23e7b39fb61602b0e0ee02c151e", "is_reserved": 0}, {"is_disabled": 0, "fusion_lon": 0.0, "fusion_lat": 0.0, "lat": 38.86470383333333, "type": "electric_scooter", "lon": -76.99605316666667, "bike_id": "b6c9ce9ee090a5a61deb8a865b56fb52", "rental_uris": {"android": "https://dc.lft.to/lastmile_qr_scan", "ios": "https://dc.lft.to/lastmile_qr_scan"}, "name": "b6c9ce9ee090a5a61deb8a865b56fb52", "is_reserved": 0}, {"is_disabled": 0, "fusion_lon": 0.0, "fusion_lat": 0.0, "lat": 38.9408575, "type": "electric_scooter", "lon": -77.061378, "bike_id": "604da38243d66d1987c3d4b0781b2318", "rental_uris": {"android": "https://dc.lft.to/lastmile_qr_scan", "ios": "https://dc.lft.to/lastmile_qr_scan"}, "name": "604da38243d66d1987c3d4b0781b2318", "is_reserved": 0}, {"is_disabled": 0, "fusion_lon": 0.0, "fusion_lat": 0.0, "lat": 38.951766166666665, "type": "electric_scooter", "lon": -77.03333083333334, "bike_id": "5d53f3d99133e283f20f83f72d86888f", "rental_uris": {"android": "https://dc.lft.to/lastmile_qr_scan", "ios": "https://dc.lft.to/lastmile_qr_scan"}, "name": "5d53f3d99133e283f20f83f72d86888f", "is_reserved": 0}, {"is_disabled": 0, "fusion_lon": 0.0, "fusion_lat": 0.0, "lat": 38.89687033333333, "type": "electric_scooter", "lon": -77.00495616666667, "bike_id": "96aac79f3990d19772eeaeefeb877132", "rental_uris": {"android": "https://dc.lft.to/lastmile_qr_scan", "ios": "https://dc.lft.to/lastmile_qr_scan"}, "name": "96aac79f3990d19772eeaeefeb877132", "is_reserved": 0}, {"is_disabled": 0, "fusion_lon": 0.0, "fusion_lat": 0.0, "lat": 38.901895833333334, "type": "electric_scooter", "lon": -77.02195316666666, "bike_id": "1fec36e40969d55e1e5ba5f459d1f8f6", "rental_uris": {"android": "https://dc.lft.to/lastmile_qr_scan", "ios": "https://dc.lft.to/lastmile_qr_scan"}, "name": "1fec36e40969d55e1e5ba5f459d1f8f6", "is_reserved": 0}, {"is_disabled": 0, "fusion_lon": 0.0, "fusion_lat": 0.0, "lat": 38.91830616666667, "type": "electric_scooter", "lon": -77.03659083333334, "bike_id": "87f425ce90d8251c8ae7ba873df8514e", "rental_uris": {"android": "https://dc.lft.to/lastmile_qr_scan", "ios": "https://dc.lft.to/lastmile_qr_scan"}, "name": "87f425ce90d8251c8ae7ba873df8514e", "is_reserved": 0}, {"is_disabled": 0, "fusion_lon": 0.0, "fusion_lat": 0.0, "lat": 38.907333666666666, "type": "electric_scooter", "lon": -77.02417983333333, "bike_id": "8132df9fdde4478485c36d461bdef2d6", "rental_uris": {"android": "https://dc.lft.to/lastmile_qr_scan", "ios": "https://dc.lft.to/lastmile_qr_scan"}, "name": "8132df9fdde4478485c36d461bdef2d6", "is_reserved": 0}, {"is_disabled": 0, "fusion_lon": 0.0, "fusion_lat": 0.0, "lat": 38.93074433333334, "type": "electric_scooter", "lon": -77.03800183333334, "bike_id": "d941ceb7ba949647896f222f168b0d87", "rental_uris": {"android": "https://dc.lft.to/lastmile_qr_scan", "ios": "https://dc.lft.to/lastmile_qr_scan"}, "name": "d941ceb7ba949647896f222f168b0d87", "is_reserved": 0}, {"is_disabled": 0, "fusion_lon": 0.0, "fusion_lat": 0.0, "lat": 38.91603833333333, "type": "electric_scooter", "lon": -77.0230105, "bike_id": "130ccd1c359ad4e8afd11a33f98c8912", "rental_uris": {"android": "https://dc.lft.to/lastmile_qr_scan", "ios": "https://dc.lft.to/lastmile_qr_scan"}, "name": "130ccd1c359ad4e8afd11a33f98c8912", "is_reserved": 0}, {"is_disabled": 0, "fusion_lon": 0.0, "fusion_lat": 0.0, "lat": 38.905137333333336, "type": "electric_scooter", "lon": -77.06519116666666, "bike_id": "b2b854bdb92a3a332f9e325d7c359221", "rental_uris": {"android": "https://dc.lft.to/lastmile_qr_scan", "ios": "https://dc.lft.to/lastmile_qr_scan"}, "name": "b2b854bdb92a3a332f9e325d7c359221", "is_reserved": 0}, {"is_disabled": 0, "fusion_lon": 0.0, "fusion_lat": 0.0, "lat": 38.8996935, "type": "electric_scooter", "lon": -76.93990383333333, "bike_id": "dfb93ff30e411fc36d4e0c8a422b570e", "rental_uris": {"android": "https://dc.lft.to/lastmile_qr_scan", "ios": "https://dc.lft.to/lastmile_qr_scan"}, "name": "dfb93ff30e411fc36d4e0c8a422b570e", "is_reserved": 0}, {"is_disabled": 0, "fusion_lon": 0.0, "fusion_lat": 0.0, "lat": 38.96267066666667, "type": "electric_scooter", "lon": -77.02899933333333, "bike_id": "0efeac3bc9034405699e5832dddc9446", "rental_uris": {"android": "https://dc.lft.to/lastmile_qr_scan", "ios": "https://dc.lft.to/lastmile_qr_scan"}, "name": "0efeac3bc9034405699e5832dddc9446", "is_reserved": 0}, {"is_disabled": 0, "fusion_lon": 0.0, "fusion_lat": 0.0, "lat": 38.909757, "type": "electric_scooter", "lon": -77.031801, "bike_id": "aa77cecae004a8a1e4ad6b554532f44a", "rental_uris": {"android": "https://dc.lft.to/lastmile_qr_scan", "ios": "https://dc.lft.to/lastmile_qr_scan"}, "name": "aa77cecae004a8a1e4ad6b554532f44a", "is_reserved": 0}, {"is_disabled": 0, "fusion_lon": 0.0, "fusion_lat": 0.0, "lat": 38.91559566666667, "type": "electric_scooter", "lon": -77.03168066666667, "bike_id": "e7b85ea2dbc287ca8cc4b88f954a8289", "rental_uris": {"android": "https://dc.lft.to/lastmile_qr_scan", "ios": "https://dc.lft.to/lastmile_qr_scan"}, "name": "e7b85ea2dbc287ca8cc4b88f954a8289", "is_reserved": 0}, {"is_disabled": 0, "fusion_lon": 0.0, "fusion_lat": 0.0, "lat": 38.922654666666666, "type": "electric_scooter", "lon": -77.0421105, "bike_id": "f2394cb4c161c90ae398474915309bb2", "rental_uris": {"android": "https://dc.lft.to/lastmile_qr_scan", "ios": "https://dc.lft.to/lastmile_qr_scan"}, "name": "f2394cb4c161c90ae398474915309bb2", "is_reserved": 0}, {"is_disabled": 0, "fusion_lon": 0.0, "fusion_lat": 0.0, "lat": 38.827837, "type": "electric_bike", "lon": -77.110814, "bike_id": "a09d8bd44ba01cafdb847e6b03721049", "rental_uris": {"android": "https://dc.lft.to/lastmile_qr_scan", "ios": "https://dc.lft.to/lastmile_qr_scan"}, "name": "a09d8bd44ba01cafdb847e6b03721049", "is_reserved": 0}, {"is_disabled": 0, "fusion_lon": 0.0, "fusion_lat": 0.0, "lat": 38.91999216666667, "type": "electric_scooter", "lon": -77.0254845, "bike_id": "d8553998381fbedbe46630462f2e5cab", "rental_uris": {"android": "https://dc.lft.to/lastmile_qr_scan", "ios": "https://dc.lft.to/lastmile_qr_scan"}, "name": "d8553998381fbedbe46630462f2e5cab", "is_reserved": 0}, {"is_disabled": 0, "fusion_lon": 0.0, "fusion_lat": 0.0, "lat": 38.91428116666667, "type": "electric_scooter", "lon": -77.03217333333333, "bike_id": "63dd5b3604daa9cce48ba819c6f4e3e8", "rental_uris": {"android": "https://dc.lft.to/lastmile_qr_scan", "ios": "https://dc.lft.to/lastmile_qr_scan"}, "name": "63dd5b3604daa9cce48ba819c6f4e3e8", "is_reserved": 0}, {"is_disabled": 0, "fusion_lon": 0.0, "fusion_lat": 0.0, "lat": 38.91175233333333, "type": "electric_scooter", "lon": -77.03184016666667, "bike_id": "b300ed69d7450b9ecb0fb84c3c855a8e", "rental_uris": {"android": "https://dc.lft.to/lastmile_qr_scan", "ios": "https://dc.lft.to/lastmile_qr_scan"}, "name": "b300ed69d7450b9ecb0fb84c3c855a8e", "is_reserved": 0}, {"is_disabled": 0, "fusion_lon": 0.0, "fusion_lat": 0.0, "lat": 38.89996416666666, "type": "electric_scooter", "lon": -76.92227933333334, "bike_id": "a4df9b94d731cfef84e071b2f1371fd5", "rental_uris": {"android": "https://dc.lft.to/lastmile_qr_scan", "ios": "https://dc.lft.to/lastmile_qr_scan"}, "name": "a4df9b94d731cfef84e071b2f1371fd5", "is_reserved": 0}, {"is_disabled": 0, "fusion_lon": 0.0, "fusion_lat": 0.0, "lat": 38.88210083333333, "type": "electric_bike", "lon": -77.10773216666666, "bike_id": "17162a5d6b12bd7680d66f842d688bee", "rental_uris": {"android": "https://dc.lft.to/lastmile_qr_scan", "ios": "https://dc.lft.to/lastmile_qr_scan"}, "name": "17162a5d6b12bd7680d66f842d688bee", "is_reserved": 0}, {"is_disabled": 0, "fusion_lon": 0.0, "fusion_lat": 0.0, "lat": 38.88339916666666, "type": "electric_scooter", "lon": -76.9419405, "bike_id": "47ef635d44a66f361f2440852fdd1510", "rental_uris": {"android": "https://dc.lft.to/lastmile_qr_scan", "ios": "https://dc.lft.to/lastmile_qr_scan"}, "name": "47ef635d44a66f361f2440852fdd1510", "is_reserved": 0}, {"is_disabled": 0, "fusion_lon": 0.0, "fusion_lat": 0.0, "lat": 38.92155616666667, "type": "electric_scooter", "lon": -77.03510983333334, "bike_id": "dfc7089d65dfb57ffdf98c70ea888ef7", "rental_uris": {"android": "https://dc.lft.to/lastmile_qr_scan", "ios": "https://dc.lft.to/lastmile_qr_scan"}, "name": "dfc7089d65dfb57ffdf98c70ea888ef7", "is_reserved": 0}, {"is_disabled": 0, "fusion_lon": 0.0, "fusion_lat": 0.0, "lat": 38.926546333333334, "type": "electric_scooter", "lon": -77.0242705, "bike_id": "9c86c43e093bf8fec848a0a04cd53f1d", "rental_uris": {"android": "https://dc.lft.to/lastmile_qr_scan", "ios": "https://dc.lft.to/lastmile_qr_scan"}, "name": "9c86c43e093bf8fec848a0a04cd53f1d", "is_reserved": 0}, {"is_disabled": 0, "fusion_lon": 0.0, "fusion_lat": 0.0, "lat": 38.84113, "type": "electric_bike", "lon": -77.089391, "bike_id": "4b489f72ef2df38ba17df361416a63bc", "rental_uris": {"android": "https://dc.lft.to/lastmile_qr_scan", "ios": "https://dc.lft.to/lastmile_qr_scan"}, "name": "4b489f72ef2df38ba17df361416a63bc", "is_reserved": 0}, {"is_disabled": 0, "fusion_lon": 0.0, "fusion_lat": 0.0, "lat": 38.925049, "type": "electric_scooter", "lon": -76.99576783333333, "bike_id": "581b446b56778a7515c043cbb2ca0022", "rental_uris": {"android": "https://dc.lft.to/lastmile_qr_scan", "ios": "https://dc.lft.to/lastmile_qr_scan"}, "name": "581b446b56778a7515c043cbb2ca0022", "is_reserved": 0}, {"is_disabled": 0, "fusion_lon": 0.0, "fusion_lat": 0.0, "lat": 38.901825333333335, "type": "electric_scooter", "lon": -76.92824716666667, "bike_id": "63e21c1e63bba365ba55b82473a5e52c", "rental_uris": {"android": "https://dc.lft.to/lastmile_qr_scan", "ios": "https://dc.lft.to/lastmile_qr_scan"}, "name": "63e21c1e63bba365ba55b82473a5e52c", "is_reserved": 0}, {"is_disabled": 0, "fusion_lon": 0.0, "fusion_lat": 0.0, "lat": 38.91484666666667, "type": "electric_scooter", "lon": -77.03215166666666, "bike_id": "2796667520f2fb84486b1e8cae389c5b", "rental_uris": {"android": "https://dc.lft.to/lastmile_qr_scan", "ios": "https://dc.lft.to/lastmile_qr_scan"}, "name": "2796667520f2fb84486b1e8cae389c5b", "is_reserved": 0}, {"is_disabled": 0, "fusion_lon": 0.0, "fusion_lat": 0.0, "lat": 38.91102266666667, "type": "electric_scooter", "lon": -77.03855266666666, "bike_id": "42b055e3a4f28b0775cac6c55afadd32", "rental_uris": {"android": "https://dc.lft.to/lastmile_qr_scan", "ios": "https://dc.lft.to/lastmile_qr_scan"}, "name": "42b055e3a4f28b0775cac6c55afadd32", "is_reserved": 0}, {"is_disabled": 0, "fusion_lon": 0.0, "fusion_lat": 0.0, "lat": 38.915632, "type": "electric_scooter", "lon": -77.03270233333333, "bike_id": "69e41d043f3e5a3dfd371924f3519857", "rental_uris": {"android": "https://dc.lft.to/lastmile_qr_scan", "ios": "https://dc.lft.to/lastmile_qr_scan"}, "name": "69e41d043f3e5a3dfd371924f3519857", "is_reserved": 0}, {"is_disabled": 0, "fusion_lon": 0.0, "fusion_lat": 0.0, "lat": 38.92255683333333, "type": "electric_scooter", "lon": -77.03073033333334, "bike_id": "1641f21d47bc3449725e1c5e070b3dc6", "rental_uris": {"android": "https://dc.lft.to/lastmile_qr_scan", "ios": "https://dc.lft.to/lastmile_qr_scan"}, "name": "1641f21d47bc3449725e1c5e070b3dc6", "is_reserved": 0}, {"is_disabled": 0, "fusion_lon": 0.0, "fusion_lat": 0.0, "lat": 38.91630633333333, "type": "electric_scooter", "lon": -77.023075, "bike_id": "307ab23dbff7af70ec6574e4e2330a28", "rental_uris": {"android": "https://dc.lft.to/lastmile_qr_scan", "ios": "https://dc.lft.to/lastmile_qr_scan"}, "name": "307ab23dbff7af70ec6574e4e2330a28", "is_reserved": 0}, {"is_disabled": 0, "fusion_lon": 0.0, "fusion_lat": 0.0, "lat": 38.94792483333333, "type": "electric_scooter", "lon": -77.0927915, "bike_id": "972a4e26f9b3a5c35d42724aa69c0c9d", "rental_uris": {"android": "https://dc.lft.to/lastmile_qr_scan", "ios": "https://dc.lft.to/lastmile_qr_scan"}, "name": "972a4e26f9b3a5c35d42724aa69c0c9d", "is_reserved": 0}, {"is_disabled": 0, "fusion_lon": 0.0, "fusion_lat": 0.0, "lat": 38.8658645, "type": "electric_scooter", "lon": -76.99028683333333, "bike_id": "2281b256eabd34dcd01603129a80c058", "rental_uris": {"android": "https://dc.lft.to/lastmile_qr_scan", "ios": "https://dc.lft.to/lastmile_qr_scan"}, "name": "2281b256eabd34dcd01603129a80c058", "is_reserved": 0}, {"is_disabled": 0, "fusion_lon": 0.0, "fusion_lat": 0.0, "lat": 38.887203666666665, "type": "electric_scooter", "lon": -77.02829816666667, "bike_id": "1a8b1d92e6c224e9aa4d0a98dce4508d", "rental_uris": {"android": "https://dc.lft.to/lastmile_qr_scan", "ios": "https://dc.lft.to/lastmile_qr_scan"}, "name": "1a8b1d92e6c224e9aa4d0a98dce4508d", "is_reserved": 0}, {"is_disabled": 0, "fusion_lon": 0.0, "fusion_lat": 0.0, "lat": 38.920844, "type": "electric_scooter", "lon": -77.01804666666666, "bike_id": "ebd76252408e8776df82ebd427a75958", "rental_uris": {"android": "https://dc.lft.to/lastmile_qr_scan", "ios": "https://dc.lft.to/lastmile_qr_scan"}, "name": "ebd76252408e8776df82ebd427a75958", "is_reserved": 0}, {"is_disabled": 0, "fusion_lon": 0.0, "fusion_lat": 0.0, "lat": 38.93114933333333, "type": "electric_scooter", "lon": -77.03481333333333, "bike_id": "440ca41167e50eac2c1bb0410162c230", "rental_uris": {"android": "https://dc.lft.to/lastmile_qr_scan", "ios": "https://dc.lft.to/lastmile_qr_scan"}, "name": "440ca41167e50eac2c1bb0410162c230", "is_reserved": 0}, {"is_disabled": 0, "fusion_lon": 0.0, "fusion_lat": 0.0, "lat": 38.896199333333335, "type": "electric_scooter", "lon": -76.99635416666666, "bike_id": "454ca639f6443778fa01b44c2c2f7844", "rental_uris": {"android": "https://dc.lft.to/lastmile_qr_scan", "ios": "https://dc.lft.to/lastmile_qr_scan"}, "name": "454ca639f6443778fa01b44c2c2f7844", "is_reserved": 0}, {"is_disabled": 0, "fusion_lon": 0.0, "fusion_lat": 0.0, "lat": 38.93708433333333, "type": "electric_scooter", "lon": -77.06102566666667, "bike_id": "4899963caaad280be9260ea4afc8fbfc", "rental_uris": {"android": "https://dc.lft.to/lastmile_qr_scan", "ios": "https://dc.lft.to/lastmile_qr_scan"}, "name": "4899963caaad280be9260ea4afc8fbfc", "is_reserved": 0}, {"is_disabled": 0, "fusion_lon": 0.0, "fusion_lat": 0.0, "lat": 38.91198766666667, "type": "electric_scooter", "lon": -77.04171383333333, "bike_id": "0c8ebed5733573c72b505af128852646", "rental_uris": {"android": "https://dc.lft.to/lastmile_qr_scan", "ios": "https://dc.lft.to/lastmile_qr_scan"}, "name": "0c8ebed5733573c72b505af128852646", "is_reserved": 0}, {"is_disabled": 0, "fusion_lon": 0.0, "fusion_lat": 0.0, "lat": 38.838131, "type": "electric_scooter", "lon": -77.0043225, "bike_id": "c29ceba029b5056b6f5c7678846ab15a", "rental_uris": {"android": "https://dc.lft.to/lastmile_qr_scan", "ios": "https://dc.lft.to/lastmile_qr_scan"}, "name": "c29ceba029b5056b6f5c7678846ab15a", "is_reserved": 0}, {"is_disabled": 0, "fusion_lon": 0.0, "fusion_lat": 0.0, "lat": 38.90293483333333, "type": "electric_scooter", "lon": -77.02418083333333, "bike_id": "8520cc54f52a9c12d815ef41d6a0644b", "rental_uris": {"android": "https://dc.lft.to/lastmile_qr_scan", "ios": "https://dc.lft.to/lastmile_qr_scan"}, "name": "8520cc54f52a9c12d815ef41d6a0644b", "is_reserved": 0}, {"is_disabled": 0, "fusion_lon": 0.0, "fusion_lat": 0.0, "lat": 38.937211833333336, "type": "electric_scooter", "lon": -77.02446916666666, "bike_id": "42e3fd60e36656515fb725c682535cf5", "rental_uris": {"android": "https://dc.lft.to/lastmile_qr_scan", "ios": "https://dc.lft.to/lastmile_qr_scan"}, "name": "42e3fd60e36656515fb725c682535cf5", "is_reserved": 0}, {"is_disabled": 0, "fusion_lon": 0.0, "fusion_lat": 0.0, "lat": 38.89238533333334, "type": "electric_bike", "lon": -76.952206, "bike_id": "f71ace02310d2f1d4ce6baaef4d57bd4", "rental_uris": {"android": "https://dc.lft.to/lastmile_qr_scan", "ios": "https://dc.lft.to/lastmile_qr_scan"}, "name": "f71ace02310d2f1d4ce6baaef4d57bd4", "is_reserved": 0}, {"is_disabled": 0, "fusion_lon": 0.0, "fusion_lat": 0.0, "lat": 38.91420183333334, "type": "electric_scooter", "lon": -77.03227516666666, "bike_id": "966ccabbb71ca37abfb8ca3da3fecd04", "rental_uris": {"android": "https://dc.lft.to/lastmile_qr_scan", "ios": "https://dc.lft.to/lastmile_qr_scan"}, "name": "966ccabbb71ca37abfb8ca3da3fecd04", "is_reserved": 0}, {"is_disabled": 0, "fusion_lon": 0.0, "fusion_lat": 0.0, "lat": 38.925967666666665, "type": "electric_bike", "lon": -76.8890735, "bike_id": "d33bbf8909042fe75d73db52e6b793b0", "rental_uris": {"android": "https://dc.lft.to/lastmile_qr_scan", "ios": "https://dc.lft.to/lastmile_qr_scan"}, "name": "d33bbf8909042fe75d73db52e6b793b0", "is_reserved": 0}, {"is_disabled": 0, "fusion_lon": 0.0, "fusion_lat": 0.0, "lat": 38.91345833333333, "type": "electric_scooter", "lon": -77.03184266666666, "bike_id": "560c0dd19ab7cf0f8b9914759171f26c", "rental_uris": {"android": "https://dc.lft.to/lastmile_qr_scan", "ios": "https://dc.lft.to/lastmile_qr_scan"}, "name": "560c0dd19ab7cf0f8b9914759171f26c", "is_reserved": 0}, {"is_disabled": 0, "fusion_lon": 0.0, "fusion_lat": 0.0, "lat": 38.976779, "type": "electric_bike", "lon": -76.97165666666666, "bike_id": "00352a0c2b85f82d471340afc52bd177", "rental_uris": {"android": "https://dc.lft.to/lastmile_qr_scan", "ios": "https://dc.lft.to/lastmile_qr_scan"}, "name": "00352a0c2b85f82d471340afc52bd177", "is_reserved": 0}, {"is_disabled": 0, "fusion_lon": 0.0, "fusion_lat": 0.0, "lat": 38.9541725, "type": "electric_scooter", "lon": -77.0284295, "bike_id": "6d72d16c46d370384b0bec8bff299ab8", "rental_uris": {"android": "https://dc.lft.to/lastmile_qr_scan", "ios": "https://dc.lft.to/lastmile_qr_scan"}, "name": "6d72d16c46d370384b0bec8bff299ab8", "is_reserved": 0}, {"is_disabled": 0, "fusion_lon": 0.0, "fusion_lat": 0.0, "lat": 38.90540433333334, "type": "electric_scooter", "lon": -77.00565183333333, "bike_id": "c7596e7f7ab4694b5edb09296e3daf3d", "rental_uris": {"android": "https://dc.lft.to/lastmile_qr_scan", "ios": "https://dc.lft.to/lastmile_qr_scan"}, "name": "c7596e7f7ab4694b5edb09296e3daf3d", "is_reserved": 0}, {"is_disabled": 0, "fusion_lon": 0.0, "fusion_lat": 0.0, "lat": 38.95785866666667, "type": "electric_bike", "lon": -76.9409915, "bike_id": "b1d553425ea8c4a938968a43b0c1ad38", "rental_uris": {"android": "https://dc.lft.to/lastmile_qr_scan", "ios": "https://dc.lft.to/lastmile_qr_scan"}, "name": "b1d553425ea8c4a938968a43b0c1ad38", "is_reserved": 0}, {"is_disabled": 0, "fusion_lon": 0.0, "fusion_lat": 0.0, "lat": 38.92948283333333, "type": "electric_scooter", "lon": -77.01890733333333, "bike_id": "ccecbaaf30080f58e67cfd759b129d3e", "rental_uris": {"android": "https://dc.lft.to/lastmile_qr_scan", "ios": "https://dc.lft.to/lastmile_qr_scan"}, "name": "ccecbaaf30080f58e67cfd759b129d3e", "is_reserved": 0}, {"is_disabled": 0, "fusion_lon": 0.0, "fusion_lat": 0.0, "lat": 38.906906666666664, "type": "electric_bike", "lon": -76.95194783333334, "bike_id": "a89dc2c94fcbe94e3b6f392e3a80e071", "rental_uris": {"android": "https://dc.lft.to/lastmile_qr_scan", "ios": "https://dc.lft.to/lastmile_qr_scan"}, "name": "a89dc2c94fcbe94e3b6f392e3a80e071", "is_reserved": 0}, {"is_disabled": 0, "fusion_lon": 0.0, "fusion_lat": 0.0, "lat": 38.91624133333333, "type": "electric_scooter", "lon": -77.02150766666666, "bike_id": "f447cee56985b047bd3b3fd6cfd763e5", "rental_uris": {"android": "https://dc.lft.to/lastmile_qr_scan", "ios": "https://dc.lft.to/lastmile_qr_scan"}, "name": "f447cee56985b047bd3b3fd6cfd763e5", "is_reserved": 0}, {"is_disabled": 0, "fusion_lon": 0.0, "fusion_lat": 0.0, "lat": 38.919565, "type": "electric_scooter", "lon": -77.01654983333333, "bike_id": "5408a8ad89ae1e3c8dc317466780ad79", "rental_uris": {"android": "https://dc.lft.to/lastmile_qr_scan", "ios": "https://dc.lft.to/lastmile_qr_scan"}, "name": "5408a8ad89ae1e3c8dc317466780ad79", "is_reserved": 0}, {"is_disabled": 0, "fusion_lon": 0.0, "fusion_lat": 0.0, "lat": 38.91955433333333, "type": "electric_scooter", "lon": -77.0007615, "bike_id": "07a8e7436fcf7e9e4fdb7503e45fe8cb", "rental_uris": {"android": "https://dc.lft.to/lastmile_qr_scan", "ios": "https://dc.lft.to/lastmile_qr_scan"}, "name": "07a8e7436fcf7e9e4fdb7503e45fe8cb", "is_reserved": 0}, {"is_disabled": 0, "fusion_lon": 0.0, "fusion_lat": 0.0, "lat": 38.93231183333333, "type": "electric_scooter", "lon": -77.02026133333334, "bike_id": "005f78d2c2022afd58a290f68aba5957", "rental_uris": {"android": "https://dc.lft.to/lastmile_qr_scan", "ios": "https://dc.lft.to/lastmile_qr_scan"}, "name": "005f78d2c2022afd58a290f68aba5957", "is_reserved": 0}, {"is_disabled": 0, "fusion_lon": 0.0, "fusion_lat": 0.0, "lat": 38.91213183333333, "type": "electric_scooter", "lon": -77.0384095, "bike_id": "7972ef9d91dd4f6b84d9af297275477b", "rental_uris": {"android": "https://dc.lft.to/lastmile_qr_scan", "ios": "https://dc.lft.to/lastmile_qr_scan"}, "name": "7972ef9d91dd4f6b84d9af297275477b", "is_reserved": 0}, {"is_disabled": 0, "fusion_lon": 0.0, "fusion_lat": 0.0, "lat": 38.900658166666666, "type": "electric_scooter", "lon": -76.9347675, "bike_id": "300511e7a34369fbb8d43a7038dcff5b", "rental_uris": {"android": "https://dc.lft.to/lastmile_qr_scan", "ios": "https://dc.lft.to/lastmile_qr_scan"}, "name": "300511e7a34369fbb8d43a7038dcff5b", "is_reserved": 0}, {"is_disabled": 0, "fusion_lon": 0.0, "fusion_lat": 0.0, "lat": 38.91854933333333, "type": "electric_scooter", "lon": -77.0321115, "bike_id": "8116c69afbd6762f2cb90f95b21b3a1a", "rental_uris": {"android": "https://dc.lft.to/lastmile_qr_scan", "ios": "https://dc.lft.to/lastmile_qr_scan"}, "name": "8116c69afbd6762f2cb90f95b21b3a1a", "is_reserved": 0}, {"is_disabled": 0, "fusion_lon": 0.0, "fusion_lat": 0.0, "lat": 38.89235983333333, "type": "electric_scooter", "lon": -77.03180416666666, "bike_id": "2f6d2d5acdf8c73ed5fc735b9ebb9a72", "rental_uris": {"android": "https://dc.lft.to/lastmile_qr_scan", "ios": "https://dc.lft.to/lastmile_qr_scan"}, "name": "2f6d2d5acdf8c73ed5fc735b9ebb9a72", "is_reserved": 0}, {"is_disabled": 0, "fusion_lon": 0.0, "fusion_lat": 0.0, "lat": 38.8874105, "type": "electric_scooter", "lon": -77.0152545, "bike_id": "1428ca5e3cabaa59be7756bf8f13db64", "rental_uris": {"android": "https://dc.lft.to/lastmile_qr_scan", "ios": "https://dc.lft.to/lastmile_qr_scan"}, "name": "1428ca5e3cabaa59be7756bf8f13db64", "is_reserved": 0}, {"is_disabled": 0, "fusion_lon": 0.0, "fusion_lat": 0.0, "lat": 38.899981, "type": "electric_scooter", "lon": -76.9947885, "bike_id": "f560dc7ba5620643942a70095cd4c57e", "rental_uris": {"android": "https://dc.lft.to/lastmile_qr_scan", "ios": "https://dc.lft.to/lastmile_qr_scan"}, "name": "f560dc7ba5620643942a70095cd4c57e", "is_reserved": 0}, {"is_disabled": 0, "fusion_lon": 0.0, "fusion_lat": 0.0, "lat": 38.90729183333333, "type": "electric_scooter", "lon": -77.02986166666666, "bike_id": "f3940c55dae0776885c6260b40cd083c", "rental_uris": {"android": "https://dc.lft.to/lastmile_qr_scan", "ios": "https://dc.lft.to/lastmile_qr_scan"}, "name": "f3940c55dae0776885c6260b40cd083c", "is_reserved": 0}, {"is_disabled": 0, "fusion_lon": 0.0, "fusion_lat": 0.0, "lat": 38.9062695, "type": "electric_scooter", "lon": -77.02816733333333, "bike_id": "96816b50408f2050e0d54eab076018ba", "rental_uris": {"android": "https://dc.lft.to/lastmile_qr_scan", "ios": "https://dc.lft.to/lastmile_qr_scan"}, "name": "96816b50408f2050e0d54eab076018ba", "is_reserved": 0}, {"is_disabled": 0, "fusion_lon": 0.0, "fusion_lat": 0.0, "lat": 38.887396333333335, "type": "electric_scooter", "lon": -77.03207166666667, "bike_id": "65bdc34ec5b71143d3a5eff2ea26f65f", "rental_uris": {"android": "https://dc.lft.to/lastmile_qr_scan", "ios": "https://dc.lft.to/lastmile_qr_scan"}, "name": "65bdc34ec5b71143d3a5eff2ea26f65f", "is_reserved": 0}, {"is_disabled": 0, "fusion_lon": 0.0, "fusion_lat": 0.0, "lat": 38.90160933333333, "type": "electric_scooter", "lon": -77.04168633333333, "bike_id": "ec82c0219f9c0d61d77ae1c738d58ef4", "rental_uris": {"android": "https://dc.lft.to/lastmile_qr_scan", "ios": "https://dc.lft.to/lastmile_qr_scan"}, "name": "ec82c0219f9c0d61d77ae1c738d58ef4", "is_reserved": 0}, {"is_disabled": 0, "fusion_lon": 0.0, "fusion_lat": 0.0, "lat": 38.8965945, "type": "electric_scooter", "lon": -77.04359433333333, "bike_id": "f890f7a73832412556751a6edb199046", "rental_uris": {"android": "https://dc.lft.to/lastmile_qr_scan", "ios": "https://dc.lft.to/lastmile_qr_scan"}, "name": "f890f7a73832412556751a6edb199046", "is_reserved": 0}, {"is_disabled": 0, "fusion_lon": 0.0, "fusion_lat": 0.0, "lat": 38.9016665, "type": "electric_scooter", "lon": -77.04139183333334, "bike_id": "a71152223e81e8d319e17921d80b3b4e", "rental_uris": {"android": "https://dc.lft.to/lastmile_qr_scan", "ios": "https://dc.lft.to/lastmile_qr_scan"}, "name": "a71152223e81e8d319e17921d80b3b4e", "is_reserved": 0}, {"is_disabled": 0, "fusion_lon": 0.0, "fusion_lat": 0.0, "lat": 38.905739833333335, "type": "electric_scooter", "lon": -77.03359583333334, "bike_id": "83bbe6ab275b04d57345f72bd5e52373", "rental_uris": {"android": "https://dc.lft.to/lastmile_qr_scan", "ios": "https://dc.lft.to/lastmile_qr_scan"}, "name": "83bbe6ab275b04d57345f72bd5e52373", "is_reserved": 0}, {"is_disabled": 0, "fusion_lon": 0.0, "fusion_lat": 0.0, "lat": 38.90543483333333, "type": "electric_scooter", "lon": -77.0221085, "bike_id": "7ac6dac9481e4e00ac805f9b41dd53f3", "rental_uris": {"android": "https://dc.lft.to/lastmile_qr_scan", "ios": "https://dc.lft.to/lastmile_qr_scan"}, "name": "7ac6dac9481e4e00ac805f9b41dd53f3", "is_reserved": 0}, {"is_disabled": 0, "fusion_lon": 0.0, "fusion_lat": 0.0, "lat": 38.8886585, "type": "electric_scooter", "lon": -76.97739516666667, "bike_id": "7766a27f70c9f46af4babc90e4815da1", "rental_uris": {"android": "https://dc.lft.to/lastmile_qr_scan", "ios": "https://dc.lft.to/lastmile_qr_scan"}, "name": "7766a27f70c9f46af4babc90e4815da1", "is_reserved": 0}, {"is_disabled": 0, "fusion_lon": 0.0, "fusion_lat": 0.0, "lat": 38.89783333333333, "type": "electric_scooter", "lon": -77.0220615, "bike_id": "d27286ffe2ee87dfb9345bdaf097325d", "rental_uris": {"android": "https://dc.lft.to/lastmile_qr_scan", "ios": "https://dc.lft.to/lastmile_qr_scan"}, "name": "d27286ffe2ee87dfb9345bdaf097325d", "is_reserved": 0}, {"is_disabled": 0, "fusion_lon": 0.0, "fusion_lat": 0.0, "lat": 38.89845833333333, "type": "electric_scooter", "lon": -77.033501, "bike_id": "b73123690b3303e2720aae171a174b80", "rental_uris": {"android": "https://dc.lft.to/lastmile_qr_scan", "ios": "https://dc.lft.to/lastmile_qr_scan"}, "name": "b73123690b3303e2720aae171a174b80", "is_reserved": 0}, {"is_disabled": 0, "fusion_lon": 0.0, "fusion_lat": 0.0, "lat": 38.8951075, "type": "electric_scooter", "lon": -77.02196366666666, "bike_id": "4822ac1ab4185ba4a0a4030d743698ea", "rental_uris": {"android": "https://dc.lft.to/lastmile_qr_scan", "ios": "https://dc.lft.to/lastmile_qr_scan"}, "name": "4822ac1ab4185ba4a0a4030d743698ea", "is_reserved": 0}, {"is_disabled": 0, "fusion_lon": 0.0, "fusion_lat": 0.0, "lat": 38.82730216666667, "type": "electric_bike", "lon": -77.00861983333333, "bike_id": "0415db4394fe129a0ede9cad1f0cd89c", "rental_uris": {"android": "https://dc.lft.to/lastmile_qr_scan", "ios": "https://dc.lft.to/lastmile_qr_scan"}, "name": "0415db4394fe129a0ede9cad1f0cd89c", "is_reserved": 0}, {"is_disabled": 0, "fusion_lon": 0.0, "fusion_lat": 0.0, "lat": 38.91975683333333, "type": "electric_scooter", "lon": -77.04180116666667, "bike_id": "257aa0303c1b345bf0dc3eb1c1856a2c", "rental_uris": {"android": "https://dc.lft.to/lastmile_qr_scan", "ios": "https://dc.lft.to/lastmile_qr_scan"}, "name": "257aa0303c1b345bf0dc3eb1c1856a2c", "is_reserved": 0}, {"is_disabled": 0, "fusion_lon": 0.0, "fusion_lat": 0.0, "lat": 38.9481025, "type": "electric_bike", "lon": -76.97210116666666, "bike_id": "738b1ea2cb07d816368632903a33947e", "rental_uris": {"android": "https://dc.lft.to/lastmile_qr_scan", "ios": "https://dc.lft.to/lastmile_qr_scan"}, "name": "738b1ea2cb07d816368632903a33947e", "is_reserved": 0}, {"is_disabled": 0, "fusion_lon": 0.0, "fusion_lat": 0.0, "lat": 38.9173605, "type": "electric_scooter", "lon": -76.99180433333333, "bike_id": "58eeed60fd66185a4ac7961bec6afbdb", "rental_uris": {"android": "https://dc.lft.to/lastmile_qr_scan", "ios": "https://dc.lft.to/lastmile_qr_scan"}, "name": "58eeed60fd66185a4ac7961bec6afbdb", "is_reserved": 0}, {"is_disabled": 0, "fusion_lon": 0.0, "fusion_lat": 0.0, "lat": 38.87212933333333, "type": "electric_bike", "lon": -76.954827, "bike_id": "be745ea3cbbe676d1e4fc5385bb0391f", "rental_uris": {"android": "https://dc.lft.to/lastmile_qr_scan", "ios": "https://dc.lft.to/lastmile_qr_scan"}, "name": "be745ea3cbbe676d1e4fc5385bb0391f", "is_reserved": 0}, {"is_disabled": 0, "fusion_lon": 0.0, "fusion_lat": 0.0, "lat": 38.91207566666667, "type": "electric_scooter", "lon": -76.984836, "bike_id": "cbfd69df426285c9a4a69cf0e620d0be", "rental_uris": {"android": "https://dc.lft.to/lastmile_qr_scan", "ios": "https://dc.lft.to/lastmile_qr_scan"}, "name": "cbfd69df426285c9a4a69cf0e620d0be", "is_reserved": 0}, {"is_disabled": 0, "fusion_lon": 0.0, "fusion_lat": 0.0, "lat": 38.902066, "type": "electric_scooter", "lon": -77.039288, "bike_id": "a22576b9a92d18ccadd4b01d810c5c32", "rental_uris": {"android": "https://dc.lft.to/lastmile_qr_scan", "ios": "https://dc.lft.to/lastmile_qr_scan"}, "name": "a22576b9a92d18ccadd4b01d810c5c32", "is_reserved": 0}, {"is_disabled": 0, "fusion_lon": 0.0, "fusion_lat": 0.0, "lat": 38.88762416666667, "type": "electric_scooter", "lon": -77.00222216666667, "bike_id": "341265b383a360855629490dda8c0442", "rental_uris": {"android": "https://dc.lft.to/lastmile_qr_scan", "ios": "https://dc.lft.to/lastmile_qr_scan"}, "name": "341265b383a360855629490dda8c0442", "is_reserved": 0}, {"is_disabled": 0, "fusion_lon": 0.0, "fusion_lat": 0.0, "lat": 38.914181166666665, "type": "electric_scooter", "lon": -77.02363533333333, "bike_id": "307fb7911ef99bbef3c1cab7ad7f03b5", "rental_uris": {"android": "https://dc.lft.to/lastmile_qr_scan", "ios": "https://dc.lft.to/lastmile_qr_scan"}, "name": "307fb7911ef99bbef3c1cab7ad7f03b5", "is_reserved": 0}, {"is_disabled": 0, "fusion_lon": 0.0, "fusion_lat": 0.0, "lat": 38.97067283333333, "type": "electric_bike", "lon": -76.96051466666667, "bike_id": "69cf03f6a5c814dff239792e7c688f78", "rental_uris": {"android": "https://dc.lft.to/lastmile_qr_scan", "ios": "https://dc.lft.to/lastmile_qr_scan"}, "name": "69cf03f6a5c814dff239792e7c688f78", "is_reserved": 0}, {"is_disabled": 0, "fusion_lon": 0.0, "fusion_lat": 0.0, "lat": 38.90183016666667, "type": "electric_scooter", "lon": -76.99382916666667, "bike_id": "96d4513b24610fc69fc649e4f2b44a3a", "rental_uris": {"android": "https://dc.lft.to/lastmile_qr_scan", "ios": "https://dc.lft.to/lastmile_qr_scan"}, "name": "96d4513b24610fc69fc649e4f2b44a3a", "is_reserved": 0}, {"is_disabled": 0, "fusion_lon": 0.0, "fusion_lat": 0.0, "lat": 38.8857475, "type": "electric_scooter", "lon": -77.00065683333334, "bike_id": "0eb4e83125cc03b27254c0dc0b9eeef8", "rental_uris": {"android": "https://dc.lft.to/lastmile_qr_scan", "ios": "https://dc.lft.to/lastmile_qr_scan"}, "name": "0eb4e83125cc03b27254c0dc0b9eeef8", "is_reserved": 0}, {"is_disabled": 0, "fusion_lon": 0.0, "fusion_lat": 0.0, "lat": 38.889955666666665, "type": "electric_scooter", "lon": -76.99514083333334, "bike_id": "326e3e1629784e53a0ceb93da7e0ff8a", "rental_uris": {"android": "https://dc.lft.to/lastmile_qr_scan", "ios": "https://dc.lft.to/lastmile_qr_scan"}, "name": "326e3e1629784e53a0ceb93da7e0ff8a", "is_reserved": 0}, {"is_disabled": 0, "fusion_lon": 0.0, "fusion_lat": 0.0, "lat": 38.915477833333334, "type": "electric_scooter", "lon": -77.0320295, "bike_id": "72e5e73664f6729ec12908bd77396451", "rental_uris": {"android": "https://dc.lft.to/lastmile_qr_scan", "ios": "https://dc.lft.to/lastmile_qr_scan"}, "name": "72e5e73664f6729ec12908bd77396451", "is_reserved": 0}, {"is_disabled": 0, "fusion_lon": 0.0, "fusion_lat": 0.0, "lat": 38.9203625, "type": "electric_scooter", "lon": -77.02584233333333, "bike_id": "75509aab25ed3cb98bf2685e598ddc45", "rental_uris": {"android": "https://dc.lft.to/lastmile_qr_scan", "ios": "https://dc.lft.to/lastmile_qr_scan"}, "name": "75509aab25ed3cb98bf2685e598ddc45", "is_reserved": 0}, {"is_disabled": 0, "fusion_lon": 0.0, "fusion_lat": 0.0, "lat": 38.895372, "type": "electric_scooter", "lon": -77.02818833333333, "bike_id": "6815caa0f0dc87d71c56ba252827c986", "rental_uris": {"android": "https://dc.lft.to/lastmile_qr_scan", "ios": "https://dc.lft.to/lastmile_qr_scan"}, "name": "6815caa0f0dc87d71c56ba252827c986", "is_reserved": 0}, {"is_disabled": 0, "fusion_lon": 0.0, "fusion_lat": 0.0, "lat": 38.952146166666665, "type": "electric_scooter", "lon": -77.03631616666667, "bike_id": "babd8e0650c8e8410e93dbc5fddc13f6", "rental_uris": {"android": "https://dc.lft.to/lastmile_qr_scan", "ios": "https://dc.lft.to/lastmile_qr_scan"}, "name": "babd8e0650c8e8410e93dbc5fddc13f6", "is_reserved": 0}, {"is_disabled": 0, "fusion_lon": 0.0, "fusion_lat": 0.0, "lat": 38.88516416666667, "type": "electric_scooter", "lon": -76.99852, "bike_id": "74cbdbe946be03f8c99f5651151de0b8", "rental_uris": {"android": "https://dc.lft.to/lastmile_qr_scan", "ios": "https://dc.lft.to/lastmile_qr_scan"}, "name": "74cbdbe946be03f8c99f5651151de0b8", "is_reserved": 0}, {"is_disabled": 0, "fusion_lon": 0.0, "fusion_lat": 0.0, "lat": 38.9882905, "type": "electric_bike", "lon": -76.98753183333334, "bike_id": "a9d2b086c1995fa5440dadc149b294cf", "rental_uris": {"android": "https://dc.lft.to/lastmile_qr_scan", "ios": "https://dc.lft.to/lastmile_qr_scan"}, "name": "a9d2b086c1995fa5440dadc149b294cf", "is_reserved": 0}, {"is_disabled": 0, "fusion_lon": 0.0, "fusion_lat": 0.0, "lat": 38.90608, "type": "electric_scooter", "lon": -77.01621366666667, "bike_id": "67a632e063bedb5f5a900d58467d00a4", "rental_uris": {"android": "https://dc.lft.to/lastmile_qr_scan", "ios": "https://dc.lft.to/lastmile_qr_scan"}, "name": "67a632e063bedb5f5a900d58467d00a4", "is_reserved": 0}, {"is_disabled": 0, "fusion_lon": 0.0, "fusion_lat": 0.0, "lat": 38.91348516666667, "type": "electric_scooter", "lon": -77.031821, "bike_id": "c4228cf544777323b2fea51fb34b3de0", "rental_uris": {"android": "https://dc.lft.to/lastmile_qr_scan", "ios": "https://dc.lft.to/lastmile_qr_scan"}, "name": "c4228cf544777323b2fea51fb34b3de0", "is_reserved": 0}, {"is_disabled": 0, "fusion_lon": 0.0, "fusion_lat": 0.0, "lat": 38.960549666666665, "type": "electric_scooter", "lon": -77.08571116666667, "bike_id": "8c2b20a764be17ce485abfa32d83d417", "rental_uris": {"android": "https://dc.lft.to/lastmile_qr_scan", "ios": "https://dc.lft.to/lastmile_qr_scan"}, "name": "8c2b20a764be17ce485abfa32d83d417", "is_reserved": 0}, {"is_disabled": 0, "fusion_lon": 0.0, "fusion_lat": 0.0, "lat": 38.89332516666666, "type": "electric_scooter", "lon": -77.02122883333334, "bike_id": "afa903efc19aefd668bc0c485b46601e", "rental_uris": {"android": "https://dc.lft.to/lastmile_qr_scan", "ios": "https://dc.lft.to/lastmile_qr_scan"}, "name": "afa903efc19aefd668bc0c485b46601e", "is_reserved": 0}, {"is_disabled": 0, "fusion_lon": 0.0, "fusion_lat": 0.0, "lat": 39.0230195, "type": "electric_bike", "lon": -77.02101416666666, "bike_id": "20d5c983535cf06d58f69020d63637d4", "rental_uris": {"android": "https://dc.lft.to/lastmile_qr_scan", "ios": "https://dc.lft.to/lastmile_qr_scan"}, "name": "20d5c983535cf06d58f69020d63637d4", "is_reserved": 0}, {"is_disabled": 0, "fusion_lon": 0.0, "fusion_lat": 0.0, "lat": 38.905184, "type": "electric_scooter", "lon": -77.06631516666667, "bike_id": "88c54a86431574355cb02fc72281185d", "rental_uris": {"android": "https://dc.lft.to/lastmile_qr_scan", "ios": "https://dc.lft.to/lastmile_qr_scan"}, "name": "88c54a86431574355cb02fc72281185d", "is_reserved": 0}, {"is_disabled": 0, "fusion_lon": 0.0, "fusion_lat": 0.0, "lat": 38.9315355, "type": "electric_scooter", "lon": -77.041317, "bike_id": "5f82879db86de966b74cb98cedcf83a6", "rental_uris": {"android": "https://dc.lft.to/lastmile_qr_scan", "ios": "https://dc.lft.to/lastmile_qr_scan"}, "name": "5f82879db86de966b74cb98cedcf83a6", "is_reserved": 0}, {"is_disabled": 0, "fusion_lon": 0.0, "fusion_lat": 0.0, "lat": 38.89561666666667, "type": "electric_scooter", "lon": -76.948769, "bike_id": "225efb8a0ddfd36c0d7d396f341b5309", "rental_uris": {"android": "https://dc.lft.to/lastmile_qr_scan", "ios": "https://dc.lft.to/lastmile_qr_scan"}, "name": "225efb8a0ddfd36c0d7d396f341b5309", "is_reserved": 0}, {"is_disabled": 0, "fusion_lon": 0.0, "fusion_lat": 0.0, "lat": 38.908734333333335, "type": "electric_scooter", "lon": -77.03013316666667, "bike_id": "750633e6a5a1ac2b32a76b37fdd12d06", "rental_uris": {"android": "https://dc.lft.to/lastmile_qr_scan", "ios": "https://dc.lft.to/lastmile_qr_scan"}, "name": "750633e6a5a1ac2b32a76b37fdd12d06", "is_reserved": 0},