{"data": {"bikes": [{"lon": -77.109215, "bike_id": "3ad92625f4bec6ca02b2f75f5995607f", "lat": 39.05205983333333, "fusion_lon": 0.0, "fusion_lat": 0.0, "type": "electric_bike", "name": "3ad92625f4bec6ca02b2f75f5995607f", "is_disabled": 0, "rental_uris": {"ios": "https://dc.lft.to/lastmile_qr_scan", "android": "https://dc.lft.to/lastmile_qr_scan"}, "is_reserved": 0}, {"lon": -77.04022066666667, "bike_id": "0d4b3dc5a917570fe63cde2e6ce6fc22", "lat": 38.91115166666667, "fusion_lon": 0.0, "fusion_lat": 0.0, "type": "electric_scooter", "name": "0d4b3dc5a917570fe63cde2e6ce6fc22", "is_disabled": 0, "rental_uris": {"ios": "https://dc.lft.to/lastmile_qr_scan", "android": "https://dc.lft.to/lastmile_qr_scan"}, "is_reserved": 0}, {"lon": -77.02715516666666, "bike_id": "c007d5974ee675bc4c19ca9806c7dd63", "lat": 38.925898, "fusion_lon": 0.0, "fusion_lat": 0.0, "type": "electric_scooter", "name": "c007d5974ee675bc4c19ca9806c7dd63", "is_disabled": 0, "rental_uris": {"ios": "https://dc.lft.to/lastmile_qr_scan", "android": "https://dc.lft.to/lastmile_qr_scan"}, "is_reserved": 0}, {"lon": -77.03173216666667, "bike_id": "3a0f70264a3c592b447ff37b750f50dc", "lat": 38.9111915, "fusion_lon": 0.0, "fusion_lat": 0.0, "type": "electric_scooter", "name": "3a0f70264a3c592b447ff37b750f50dc", "is_disabled": 0, "rental_uris": {"ios": "https://dc.lft.to/lastmile_qr_scan", "android": "https://dc.lft.to/lastmile_qr_scan"}, "is_reserved": 0}, {"lon": -77.0319945, "bike_id": "79c9c2105e92cba32e8c3a107a763c40", "lat": 38.915387833333334, "fusion_lon": 0.0, "fusion_lat": 0.0, "type": "electric_scooter", "name": "79c9c2105e92cba32e8c3a107a763c40", "is_disabled": 0, "rental_uris": {"ios": "https://dc.lft.to/lastmile_qr_scan", "android": "https://dc.lft.to/lastmile_qr_scan"}, "is_reserved": 0}, {"lon": -77.03204916666667, "bike_id": "a5477282cb988f41a23b6e755a19b476", "lat": 38.89644883333333, "fusion_lon": 0.0, "fusion_lat": 0.0, "type": "electric_scooter", "name": "a5477282cb988f41a23b6e755a19b476", "is_disabled": 0, "rental_uris": {"ios": "https://dc.lft.to/lastmile_qr_scan", "android": "https://dc.lft.to/lastmile_qr_scan"}, "is_reserved": 0}, {"lon": -77.0172695, "bike_id": "a3d1cb67d5316dfa43bd6b19f43a9a9d", "lat": 38.91611483333333, "fusion_lon": 0.0, "fusion_lat": 0.0, "type": "electric_bike", "name": "a3d1cb67d5316dfa43bd6b19f43a9a9d", "is_disabled": 0, "rental_uris": {"ios": "https://dc.lft.to/lastmile_qr_scan", "android": "https://dc.lft.to/lastmile_qr_scan"}, "is_reserved": 0}, {"lon": -76.92993366666667, "bike_id": "fa461d0327266893cb168ec2d88979bf", "lat": 38.90187616666667, "fusion_lon": 0.0, "fusion_lat": 0.0, "type": "electric_scooter", "name": "fa461d0327266893cb168ec2d88979bf", "is_disabled": 0, "rental_uris": {"ios": "https://dc.lft.to/lastmile_qr_scan", "android": "https://dc.lft.to/lastmile_qr_scan"}, "is_reserved": 0}, {"lon": -77.0142025, "bike_id": "e336f3ce1826e07d7d99d5a0e9c80136", "lat": 38.928361833333334, "fusion_lon": 0.0, "fusion_lat": 0.0, "type": "electric_scooter", "name": "e336f3ce1826e07d7d99d5a0e9c80136", "is_disabled": 0, "rental_uris": {"ios": "https://dc.lft.to/lastmile_qr_scan", "android": "https://dc.lft.to/lastmile_qr_scan"}, "is_reserved": 0}, {"lon": -77.005614, "bike_id": "3ef83bd5c07dad2f6454fbe3b392d9ba", "lat": 38.8961105, "fusion_lon": 0.0, "fusion_lat": 0.0, "type": "electric_scooter", "name": "3ef83bd5c07dad2f6454fbe3b392d9ba", "is_disabled": 0, "rental_uris": {"ios": "https://dc.lft.to/lastmile_qr_scan", "android": "https://dc.lft.to/lastmile_qr_scan"}, "is_reserved": 0}, {"lon": -77.02532183333334, "bike_id": "da4319821f7d0e22c7893d5ee21b571f", "lat": 38.92747033333333, "fusion_lon": 0.0, "fusion_lat": 0.0, "type": "electric_scooter", "name": "da4319821f7d0e22c7893d5ee21b571f", "is_disabled": 0, "rental_uris": {"ios": "https://dc.lft.to/lastmile_qr_scan", "android": "https://dc.lft.to/lastmile_qr_scan"}, "is_reserved": 0}, {"lon": -77.026302, "bike_id": "b244809b31e3b165464b57592fe1566e", "lat": 38.96219216666667, "fusion_lon": 0.0, "fusion_lat": 0.0, "type": "electric_bike", "name": "b244809b31e3b165464b57592fe1566e", "is_disabled": 0, "rental_uris": {"ios": "https://dc.lft.to/lastmile_qr_scan", "android": "https://dc.lft.to/lastmile_qr_scan"}, "is_reserved": 0}, {"lon": -76.99534866666667, "bike_id": "1152efde793e0d2060b1a3a89bd18f97", "lat": 38.88373516666667, "fusion_lon": 0.0, "fusion_lat": 0.0, "type": "electric_scooter", "name": "1152efde793e0d2060b1a3a89bd18f97", "is_disabled": 0, "rental_uris": {"ios": "https://dc.lft.to/lastmile_qr_scan", "android": "https://dc.lft.to/lastmile_qr_scan"}, "is_reserved": 0}, {"lon": -76.99942566666667, "bike_id": "1e0cdd64c19b804366e8b1dd7b4857de", "lat": 38.908491833333336, "fusion_lon": 0.0, "fusion_lat": 0.0, "type": "electric_scooter", "name": "1e0cdd64c19b804366e8b1dd7b4857de", "is_disabled": 0, "rental_uris": {"ios": "https://dc.lft.to/lastmile_qr_scan", "android": "https://dc.lft.to/lastmile_qr_scan"}, "is_reserved": 0}, {"lon": -76.985867, "bike_id": "9a9d2586ead755a2bb6dac31fce73400", "lat": 38.8668425, "fusion_lon": 0.0, "fusion_lat": 0.0, "type": "electric_scooter", "name": "9a9d2586ead755a2bb6dac31fce73400", "is_disabled": 0, "rental_uris": {"ios": "https://dc.lft.to/lastmile_qr_scan", "android": "https://dc.lft.to/lastmile_qr_scan"}, "is_reserved": 0}, {"lon": -77.0191415, "bike_id": "cb46872ca95e6967292ca3769c2dc50f", "lat": 38.886042833333335, "fusion_lon": 0.0, "fusion_lat": 0.0, "type": "electric_scooter", "name": "cb46872ca95e6967292ca3769c2dc50f", "is_disabled": 0, "rental_uris": {"ios": "https://dc.lft.to/lastmile_qr_scan", "android": "https://dc.lft.to/lastmile_qr_scan"}, "is_reserved": 0}, {"lon": -77.043072, "bike_id": "3188d34efcf0edf9ff943f99fb0da78f", "lat": 38.903569, "fusion_lon": 0.0, "fusion_lat": 0.0, "type": "electric_scooter", "name": "3188d34efcf0edf9ff943f99fb0da78f", "is_disabled": 0, "rental_uris": {"ios": "https://dc.lft.to/lastmile_qr_scan", "android": "https://dc.lft.to/lastmile_qr_scan"}, "is_reserved": 0}, {"lon": -77.0386175, "bike_id": "297229d279bf774f3b84bd90600ec232", "lat": 38.911682666666664, "fusion_lon": 0.0, "fusion_lat": 0.0, "type": "electric_scooter", "name": "297229d279bf774f3b84bd90600ec232", "is_disabled": 0, "rental_uris": {"ios": "https://dc.lft.to/lastmile_qr_scan", "android": "https://dc.lft.to/lastmile_qr_scan"}, "is_reserved": 0}, {"lon": -77.0882265, "bike_id": "8ce06d58d7f666064b2f011454e0c8d4", "lat": 38.90974516666667, "fusion_lon": 0.0, "fusion_lat": 0.0, "type": "electric_scooter", "name": "8ce06d58d7f666064b2f011454e0c8d4", "is_disabled": 0, "rental_uris": {"ios": "https://dc.lft.to/lastmile_qr_scan", "android": "https://dc.lft.to/lastmile_qr_scan"}, "is_reserved": 0}, {"lon": -76.93732133333333, "bike_id": "ab6e4789153b0469435b48f8adeec871", "lat": 38.890117833333335, "fusion_lon": 0.0, "fusion_lat": 0.0, "type": "electric_scooter", "name": "ab6e4789153b0469435b48f8adeec871", "is_disabled": 0, "rental_uris": {"ios": "https://dc.lft.to/lastmile_qr_scan", "android": "https://dc.lft.to/lastmile_qr_scan"}, "is_reserved": 0}, {"lon": -77.001433, "bike_id": "528a263c06b0c6f71fa8f3f25edb9211", "lat": 38.89473483333333, "fusion_lon": 0.0, "fusion_lat": 0.0, "type": "electric_scooter", "name": "528a263c06b0c6f71fa8f3f25edb9211", "is_disabled": 0, "rental_uris": {"ios": "https://dc.lft.to/lastmile_qr_scan", "android": "https://dc.lft.to/lastmile_qr_scan"}, "is_reserved": 0}, {"lon": -77.03464166666667, "bike_id": "08219b2922d08445471c60464ad86ff8", "lat": 38.920641, "fusion_lon": 0.0, "fusion_lat": 0.0, "type": "electric_scooter", "name": "08219b2922d08445471c60464ad86ff8", "is_disabled": 0, "rental_uris": {"ios": "https://dc.lft.to/lastmile_qr_scan", "android": "https://dc.lft.to/lastmile_qr_scan"}, "is_reserved": 0}, {"lon": -77.00205966666667, "bike_id": "bc167b14137c4737a58ce959b02f8afd", "lat": 38.90037216666666, "fusion_lon": 0.0, "fusion_lat": 0.0, "type": "electric_scooter", "name": "bc167b14137c4737a58ce959b02f8afd", "is_disabled": 0, "rental_uris": {"ios": "https://dc.lft.to/lastmile_qr_scan", "android": "https://dc.lft.to/lastmile_qr_scan"}, "is_reserved": 0}, {"lon": -76.93759583333333, "bike_id": "d3d0df51212f758fa2c3711a6cc6a792", "lat": 38.890427, "fusion_lon": 0.0, "fusion_lat": 0.0, "type": "electric_scooter", "name": "d3d0df51212f758fa2c3711a6cc6a792", "is_disabled": 0, "rental_uris": {"ios": "https://dc.lft.to/lastmile_qr_scan", "android": "https://dc.lft.to/lastmile_qr_scan"}, "is_reserved": 0}, {"lon": -77.02172366666667, "bike_id": "9ddd365db006f01ce5942113a036a7c7", "lat": 38.915628166666664, "fusion_lon": 0.0, "fusion_lat": 0.0, "type": "electric_scooter", "name": "9ddd365db006f01ce5942113a036a7c7", "is_disabled": 0, "rental_uris": {"ios": "https://dc.lft.to/lastmile_qr_scan", "android": "https://dc.lft.to/lastmile_qr_scan"}, "is_reserved": 0}, {"lon": -76.99271033333333, "bike_id": "7a96602795310c8faf3e52083e7b2fe0", "lat": 38.89767466666667, "fusion_lon": 0.0, "fusion_lat": 0.0, "type": "electric_scooter", "name": "7a96602795310c8faf3e52083e7b2fe0", "is_disabled": 0, "rental_uris": {"ios": "https://dc.lft.to/lastmile_qr_scan", "android": "https://dc.lft.to/lastmile_qr_scan"}, "is_reserved": 0}, {"lon": -77.01713, "bike_id": "508e3c4cf6f5a45746e2d5a2ba8b9bff", "lat": 38.9096895, "fusion_lon": 0.0, "fusion_lat": 0.0, "type": "electric_scooter", "name": "508e3c4cf6f5a45746e2d5a2ba8b9bff", "is_disabled": 0, "rental_uris": {"ios": "https://dc.lft.to/lastmile_qr_scan", "android": "https://dc.lft.to/lastmile_qr_scan"}, "is_reserved": 0}, {"lon": -77.1252795, "bike_id": "250d210f0b4720b2ab6bd81c701138c9", "lat": 39.05634416666667, "fusion_lon": 0.0, "fusion_lat": 0.0, "type": "electric_bike", "name": "250d210f0b4720b2ab6bd81c701138c9", "is_disabled": 0, "rental_uris": {"ios": "https://dc.lft.to/lastmile_qr_scan", "android": "https://dc.lft.to/lastmile_qr_scan"}, "is_reserved": 0}, {"lon": -77.036285, "bike_id": "bd4a40a547105ee3a853221d18d9ab71", "lat": 38.930798333333335, "fusion_lon": 0.0, "fusion_lat": 0.0, "type": "electric_scooter", "name": "bd4a40a547105ee3a853221d18d9ab71", "is_disabled": 0, "rental_uris": {"ios": "https://dc.lft.to/lastmile_qr_scan", "android": "https://dc.lft.to/lastmile_qr_scan"}, "is_reserved": 0}, {"lon": -76.99929416666667, "bike_id": "ad0dc22d065c44930b31c54d01b652d4", "lat": 38.843152, "fusion_lon": 0.0, "fusion_lat": 0.0, "type": "electric_scooter", "name": "ad0dc22d065c44930b31c54d01b652d4", "is_disabled": 0, "rental_uris": {"ios": "https://dc.lft.to/lastmile_qr_scan", "android": "https://dc.lft.to/lastmile_qr_scan"}, "is_reserved": 0}, {"lon": -77.00059716666667, "bike_id": "b089e5d61d8631cd25ad1fcaf8401049", "lat": 38.9004105, "fusion_lon": 0.0, "fusion_lat": 0.0, "type": "electric_scooter", "name": "b089e5d61d8631cd25ad1fcaf8401049", "is_disabled": 0, "rental_uris": {"ios": "https://dc.lft.to/lastmile_qr_scan", "android": "https://dc.lft.to/lastmile_qr_scan"}, "is_reserved": 0}, {"lon": -77.07452483333333, "bike_id": "f40e43bc48b9f1d78150e7877005a185", "lat": 38.945105833333336, "fusion_lon": 0.0, "fusion_lat": 0.0, "type": "electric_scooter", "name": "f40e43bc48b9f1d78150e7877005a185", "is_disabled": 0, "rental_uris": {"ios": "https://dc.lft.to/lastmile_qr_scan", "android": "https://dc.lft.to/lastmile_qr_scan"}, "is_reserved": 0}, {"lon": -77.051569, "bike_id": "17352c2c13dd5343543b5156c035abf8", "lat": 38.92740966666667, "fusion_lon": 0.0, "fusion_lat": 0.0, "type": "electric_scooter", "name": "17352c2c13dd5343543b5156c035abf8", "is_disabled": 0, "rental_uris": {"ios": "https://dc.lft.to/lastmile_qr_scan", "android": "https://dc.lft.to/lastmile_qr_scan"}, "is_reserved": 0}, {"lon": -77.02718116666667, "bike_id": "aaec7a3b974431bd540a1cb87b5ed888", "lat": 38.906686666666666, "fusion_lon": 0.0, "fusion_lat": 0.0, "type": "electric_scooter", "name": "aaec7a3b974431bd540a1cb87b5ed888", "is_disabled": 0, "rental_uris": {"ios": "https://dc.lft.to/lastmile_qr_scan", "android": "https://dc.lft.to/lastmile_qr_scan"}, "is_reserved": 0}, {"lon": -77.0343955, "bike_id": "0e1fbddafc73c1c998b8d43aa89a3f49", "lat": 38.90973966666667, "fusion_lon": 0.0, "fusion_lat": 0.0, "type": "electric_scooter", "name": "0e1fbddafc73c1c998b8d43aa89a3f49", "is_disabled": 0, "rental_uris": {"ios": "https://dc.lft.to/lastmile_qr_scan", "android": "https://dc.lft.to/lastmile_qr_scan"}, "is_reserved": 0}, {"lon": -76.937341, "bike_id": "c82ba386f4a0f20ffd256f667e75bbc0", "lat": 38.89012233333333, "fusion_lon": 0.0, "fusion_lat": 0.0, "type": "electric_scooter", "name": "c82ba386f4a0f20ffd256f667e75bbc0", "is_disabled": 0, "rental_uris": {"ios": "https://dc.lft.to/lastmile_qr_scan", "android": "https://dc.lft.to/lastmile_qr_scan"}, "is_reserved": 0}, {"lon": -77.0173375, "bike_id": "9681727bd1f4da8ff11ba07b49b478d5", "lat": 38.94203183333333, "fusion_lon": 0.0, "fusion_lat": 0.0, "type": "electric_scooter", "name": "9681727bd1f4da8ff11ba07b49b478d5", "is_disabled": 0, "rental_uris": {"ios": "https://dc.lft.to/lastmile_qr_scan", "android": "https://dc.lft.to/lastmile_qr_scan"}, "is_reserved": 0}, {"lon": -76.9961095, "bike_id": "01172e0a966391df220d0fc1253c9994", "lat": 38.883142666666664, "fusion_lon": 0.0, "fusion_lat": 0.0, "type": "electric_scooter", "name": "01172e0a966391df220d0fc1253c9994", "is_disabled": 0, "rental_uris": {"ios": "https://dc.lft.to/lastmile_qr_scan", "android": "https://dc.lft.to/lastmile_qr_scan"}, "is_reserved": 0}, {"lon": -76.99568433333333, "bike_id": "75f4becf6d263be7ce3158777e8ea3f1", "lat": 38.85184483333333, "fusion_lon": 0.0, "fusion_lat": 0.0, "type": "electric_bike", "name": "75f4becf6d263be7ce3158777e8ea3f1", "is_disabled": 0, "rental_uris": {"ios": "https://dc.lft.to/lastmile_qr_scan", "android": "https://dc.lft.to/lastmile_qr_scan"}, "is_reserved": 0}, {"lon": -77.0449125, "bike_id": "ea9c029100cecb3ab30fb3a3162b9558", "lat": 38.91236033333333, "fusion_lon": 0.0, "fusion_lat": 0.0, "type": "electric_scooter", "name": "ea9c029100cecb3ab30fb3a3162b9558", "is_disabled": 0, "rental_uris": {"ios": "https://dc.lft.to/lastmile_qr_scan", "android": "https://dc.lft.to/lastmile_qr_scan"}, "is_reserved": 0}, {"lon": -77.01579166666667, "bike_id": "3f597892b96993689db8e0106ef40922", "lat": 38.8946775, "fusion_lon": 0.0, "fusion_lat": 0.0, "type": "electric_scooter", "name": "3f597892b96993689db8e0106ef40922", "is_disabled": 0, "rental_uris": {"ios": "https://dc.lft.to/lastmile_qr_scan", "android": "https://dc.lft.to/lastmile_qr_scan"}, "is_reserved": 0}, {"lon": -77.0320565, "bike_id": "59ba241054b02d012c820d4744dbfc1a", "lat": 38.914224833333336, "fusion_lon": 0.0, "fusion_lat": 0.0, "type": "electric_scooter", "name": "59ba241054b02d012c820d4744dbfc1a", "is_disabled": 0, "rental_uris": {"ios": "https://dc.lft.to/lastmile_qr_scan", "android": "https://dc.lft.to/lastmile_qr_scan"}, "is_reserved": 0}, {"lon": -77.04819016666667, "bike_id": "b2fbe06f179900a008509b9cdab4db98", "lat": 38.90507083333333, "fusion_lon": 0.0, "fusion_lat": 0.0, "type": "electric_scooter", "name": "b2fbe06f179900a008509b9cdab4db98", "is_disabled": 0, "rental_uris": {"ios": "https://dc.lft.to/lastmile_qr_scan", "android": "https://dc.lft.to/lastmile_qr_scan"}, "is_reserved": 0}, {"lon": -76.93365566666667, "bike_id": "8b5005551f5baaf4e37f13b9ec6c14f5", "lat": 38.899161166666666, "fusion_lon": 0.0, "fusion_lat": 0.0, "type": "electric_scooter", "name": "8b5005551f5baaf4e37f13b9ec6c14f5", "is_disabled": 0, "rental_uris": {"ios": "https://dc.lft.to/lastmile_qr_scan", "android": "https://dc.lft.to/lastmile_qr_scan"}, "is_reserved": 0}, {"lon": -77.03887283333333, "bike_id": "ddb9ed5454fbaebc407dc431e699ff73", "lat": 38.911161, "fusion_lon": 0.0, "fusion_lat": 0.0, "type": "electric_scooter", "name": "ddb9ed5454fbaebc407dc431e699ff73", "is_disabled": 0, "rental_uris": {"ios": "https://dc.lft.to/lastmile_qr_scan", "android": "https://dc.lft.to/lastmile_qr_scan"}, "is_reserved": 0}, {"lon": -77.02878516666667, "bike_id": "19f1db004e4fadfd4fc76a3519f64ba0", "lat": 38.932702666666664, "fusion_lon": 0.0, "fusion_lat": 0.0, "type": "electric_scooter", "name": "19f1db004e4fadfd4fc76a3519f64ba0", "is_disabled": 0, "rental_uris": {"ios": "https://dc.lft.to/lastmile_qr_scan", "android": "https://dc.lft.to/lastmile_qr_scan"}, "is_reserved": 0}, {"lon": -76.983626, "bike_id": "995e3d45ce6c8ff4023e24a48bd2f7e4", "lat": 38.86109316666667, "fusion_lon": 0.0, "fusion_lat": 0.0, "type": "electric_scooter", "name": "995e3d45ce6c8ff4023e24a48bd2f7e4", "is_disabled": 0, "rental_uris": {"ios": "https://dc.lft.to/lastmile_qr_scan", "android": "https://dc.lft.to/lastmile_qr_scan"}, "is_reserved": 0}, {"lon": -77.03762883333333, "bike_id": "5bc833226fbc12b4a639a555cea90b19", "lat": 38.907817333333334, "fusion_lon": 0.0, "fusion_lat": 0.0, "type": "electric_scooter", "name": "5bc833226fbc12b4a639a555cea90b19", "is_disabled": 0, "rental_uris": {"ios": "https://dc.lft.to/lastmile_qr_scan", "android": "https://dc.lft.to/lastmile_qr_scan"}, "is_reserved": 0}, {"lon": -76.9317425, "bike_id": "3603bd0b042563f567f99eb05162c5a5", "lat": 38.898824, "fusion_lon": 0.0, "fusion_lat": 0.0, "type": "electric_scooter", "name": "3603bd0b042563f567f99eb05162c5a5", "is_disabled": 0, "rental_uris": {"ios": "https://dc.lft.to/lastmile_qr_scan", "android": "https://dc.lft.to/lastmile_qr_scan"}, "is_reserved": 0}, {"lon": -77.05299616666667, "bike_id": "0090489e7655f3e399fa4493da4b0979", "lat": 38.92555266666667, "fusion_lon": 0.0, "fusion_lat": 0.0, "type": "electric_scooter", "name": "0090489e7655f3e399fa4493da4b0979", "is_disabled": 0, "rental_uris": {"ios": "https://dc.lft.to/lastmile_qr_scan", "android": "https://dc.lft.to/lastmile_qr_scan"}, "is_reserved": 0}, {"lon": -77.0445545, "bike_id": "0eba848953c167494934ef34f3ae194e", "lat": 38.919363833333335, "fusion_lon": 0.0, "fusion_lat": 0.0, "type": "electric_scooter", "name": "0eba848953c167494934ef34f3ae194e", "is_disabled": 0, "rental_uris": {"ios": "https://dc.lft.to/lastmile_qr_scan", "android": "https://dc.lft.to/lastmile_qr_scan"}, "is_reserved": 0}, {"lon": -77.04403916666666, "bike_id": "bc723fbb3ac037b2d711347fdc403d23", "lat": 38.92952533333333, "fusion_lon": 0.0, "fusion_lat": 0.0, "type": "electric_scooter", "name": "bc723fbb3ac037b2d711347fdc403d23", "is_disabled": 0, "rental_uris": {"ios": "https://dc.lft.to/lastmile_qr_scan", "android": "https://dc.lft.to/lastmile_qr_scan"}, "is_reserved": 0}, {"lon": -77.08186633333334, "bike_id": "4ff5075ea50ec70a1ffa33133284a517", "lat": 38.949663, "fusion_lon": 0.0, "fusion_lat": 0.0, "type": "electric_scooter", "name": "4ff5075ea50ec70a1ffa33133284a517", "is_disabled": 0, "rental_uris": {"ios": "https://dc.lft.to/lastmile_qr_scan", "android": "https://dc.lft.to/lastmile_qr_scan"}, "is_reserved": 0}, {"lon": -76.990331, "bike_id": "4021f2c8c280451ace9326d3f10ab211", "lat": 38.8985175, "fusion_lon": 0.0, "fusion_lat": 0.0, "type": "electric_scooter", "name": "4021f2c8c280451ace9326d3f10ab211", "is_disabled": 0, "rental_uris": {"ios": "https://dc.lft.to/lastmile_qr_scan", "android": "https://dc.lft.to/lastmile_qr_scan"}, "is_reserved": 0}, {"lon": -77.01151916666667, "bike_id": "311330c7ffc6d14c559a4062398a9f78", "lat": 38.871969666666665, "fusion_lon": 0.0, "fusion_lat": 0.0, "type": "electric_scooter", "name": "311330c7ffc6d14c559a4062398a9f78", "is_disabled": 0, "rental_uris": {"ios": "https://dc.lft.to/lastmile_qr_scan", "android": "https://dc.lft.to/lastmile_qr_scan"}, "is_reserved": 0}, {"lon": -76.993722, "bike_id": "9f6b6843dbc3354dd1ded7d7d528ab37", "lat": 38.879711, "fusion_lon": 0.0, "fusion_lat": 0.0, "type": "electric_scooter", "name": "9f6b6843dbc3354dd1ded7d7d528ab37", "is_disabled": 0, "rental_uris": {"ios": "https://dc.lft.to/lastmile_qr_scan", "android": "https://dc.lft.to/lastmile_qr_scan"}, "is_reserved": 0}, {"lon": -76.9900465, "bike_id": "82e7e47a1865f30ecaaedd87816b530b", "lat": 38.865095333333336, "fusion_lon": 0.0, "fusion_lat": 0.0, "type": "electric_scooter", "name": "82e7e47a1865f30ecaaedd87816b530b", "is_disabled": 0, "rental_uris": {"ios": "https://dc.lft.to/lastmile_qr_scan", "android": "https://dc.lft.to/lastmile_qr_scan"}, "is_reserved": 0}, {"lon": -77.02768016666667, "bike_id": "7b852c281a57bac4b707788e33d1b4e1", "lat": 38.892178333333334, "fusion_lon": 0.0, "fusion_lat": 0.0, "type": "electric_scooter", "name": "7b852c281a57bac4b707788e33d1b4e1", "is_disabled": 0, "rental_uris": {"ios": "https://dc.lft.to/lastmile_qr_scan", "android": "https://dc.lft.to/lastmile_qr_scan"}, "is_reserved": 0}, {"lon": -77.02211183333333, "bike_id": "9eb4f116c9c33f291550e1e5698f9f41", "lat": 38.900295, "fusion_lon": 0.0, "fusion_lat": 0.0, "type": "electric_scooter", "name": "9eb4f116c9c33f291550e1e5698f9f41", "is_disabled": 0, "rental_uris": {"ios": "https://dc.lft.to/lastmile_qr_scan", "android": "https://dc.lft.to/lastmile_qr_scan"}, "is_reserved": 0}, {"lon": -77.02731733333333, "bike_id": "3d61845b5661aabb6661de6d8a336a52", "lat": 38.897278666666665, "fusion_lon": 0.0, "fusion_lat": 0.0, "type": "electric_scooter", "name": "3d61845b5661aabb6661de6d8a336a52", "is_disabled": 0, "rental_uris": {"ios": "https://dc.lft.to/lastmile_qr_scan", "android": "https://dc.lft.to/lastmile_qr_scan"}, "is_reserved": 0}, {"lon": -77.037461, "bike_id": "68eaac22f83dc53ee84017c25cffc0bf", "lat": 38.918052833333334, "fusion_lon": 0.0, "fusion_lat": 0.0, "type": "electric_scooter", "name": "68eaac22f83dc53ee84017c25cffc0bf", "is_disabled": 0, "rental_uris": {"ios": "https://dc.lft.to/lastmile_qr_scan", "android": "https://dc.lft.to/lastmile_qr_scan"}, "is_reserved": 0}, {"lon": -77.05524016666666, "bike_id": "8ba9d189c17afe7bccfc8944bba78a25", "lat": 38.899809833333336, "fusion_lon": 0.0, "fusion_lat": 0.0, "type": "electric_scooter", "name": "8ba9d189c17afe7bccfc8944bba78a25", "is_disabled": 0, "rental_uris": {"ios": "https://dc.lft.to/lastmile_qr_scan", "android": "https://dc.lft.to/lastmile_qr_scan"}, "is_reserved": 0}, {"lon": -77.02723933333333, "bike_id": "15ce059ff7430cf3c410ba882bd91a6a", "lat": 38.913334666666664, "fusion_lon": 0.0, "fusion_lat": 0.0, "type": "electric_scooter", "name": "15ce059ff7430cf3c410ba882bd91a6a", "is_disabled": 0, "rental_uris": {"ios": "https://dc.lft.to/lastmile_qr_scan", "android": "https://dc.lft.to/lastmile_qr_scan"}, "is_reserved": 0}, {"lon": -76.9792405, "bike_id": "21573b29af6be740fbf251c0a296fe8c", "lat": 38.90498566666667, "fusion_lon": 0.0, "fusion_lat": 0.0, "type": "electric_scooter", "name": "21573b29af6be740fbf251c0a296fe8c", "is_disabled": 0, "rental_uris": {"ios": "https://dc.lft.to/lastmile_qr_scan", "android": "https://dc.lft.to/lastmile_qr_scan"}, "is_reserved": 0}, {"lon": -77.032003, "bike_id": "0840adfe5f32abed8ef341640e42bf1a", "lat": 38.9121995, "fusion_lon": 0.0, "fusion_lat": 0.0, "type": "electric_scooter", "name": "0840adfe5f32abed8ef341640e42bf1a", "is_disabled": 0, "rental_uris": {"ios": "https://dc.lft.to/lastmile_qr_scan", "android": "https://dc.lft.to/lastmile_qr_scan"}, "is_reserved": 0}, {"lon": -76.990202, "bike_id": "3761792bda5a395ece49d3a7ab565294", "lat": 38.866453, "fusion_lon": 0.0, "fusion_lat": 0.0, "type": "electric_scooter", "name": "3761792bda5a395ece49d3a7ab565294", "is_disabled": 0, "rental_uris": {"ios": "https://dc.lft.to/lastmile_qr_scan", "android": "https://dc.lft.to/lastmile_qr_scan"}, "is_reserved": 0}, {"lon": -77.03253416666666, "bike_id": "d61d8d3f53e5aab9a9531153b9d4365f", "lat": 38.915531666666666, "fusion_lon": 0.0, "fusion_lat": 0.0, "type": "electric_scooter", "name": "d61d8d3f53e5aab9a9531153b9d4365f", "is_disabled": 0, "rental_uris": {"ios": "https://dc.lft.to/lastmile_qr_scan", "android": "https://dc.lft.to/lastmile_qr_scan"}, "is_reserved": 0}, {"lon": -77.0343415, "bike_id": "66f369f97af9c9fa0fbe63a37f8bc1d1", "lat": 38.909682333333336, "fusion_lon": 0.0, "fusion_lat": 0.0, "type": "electric_scooter", "name": "66f369f97af9c9fa0fbe63a37f8bc1d1", "is_disabled": 0, "rental_uris": {"ios": "https://dc.lft.to/lastmile_qr_scan", "android": "https://dc.lft.to/lastmile_qr_scan"}, "is_reserved": 0}, {"lon": -77.01940383333333, "bike_id": "c54c93deb0bc00b2b64c39d42cde2aea", "lat": 38.93523416666667, "fusion_lon": 0.0, "fusion_lat": 0.0, "type": "electric_scooter", "name": "c54c93deb0bc00b2b64c39d42cde2aea", "is_disabled": 0, "rental_uris": {"ios": "https://dc.lft.to/lastmile_qr_scan", "android": "https://dc.lft.to/lastmile_qr_scan"}, "is_reserved": 0}, {"lon": -76.99534016666667, "bike_id": "700d198047628a37baa9b8dfd233eba6", "lat": 38.883732, "fusion_lon": 0.0, "fusion_lat": 0.0, "type": "electric_scooter", "name": "700d198047628a37baa9b8dfd233eba6", "is_disabled": 0, "rental_uris": {"ios": "https://dc.lft.to/lastmile_qr_scan", "android": "https://dc.lft.to/lastmile_qr_scan"}, "is_reserved": 0}, {"lon": -77.08070316666667, "bike_id": "a6435202cbf01f52582fcbd93ce9ebd3", "lat": 39.0528005, "fusion_lon": 0.0, "fusion_lat": 0.0, "type": "electric_bike", "name": "a6435202cbf01f52582fcbd93ce9ebd3", "is_disabled": 0, "rental_uris": {"ios": "https://dc.lft.to/lastmile_qr_scan", "android": "https://dc.lft.to/lastmile_qr_scan"}, "is_reserved": 0}, {"lon": -77.022868, "bike_id": "12a4929f13f1b0ec518ad8cc95aab110", "lat": 38.89061483333333, "fusion_lon": 0.0, "fusion_lat": 0.0, "type": "electric_scooter", "name": "12a4929f13f1b0ec518ad8cc95aab110", "is_disabled": 0, "rental_uris": {"ios": "https://dc.lft.to/lastmile_qr_scan", "android": "https://dc.lft.to/lastmile_qr_scan"}, "is_reserved": 0}, {"lon": -77.006482, "bike_id": "dca7211f87faf738a7bff397f5f39a18", "lat": 38.926189666666666, "fusion_lon": 0.0, "fusion_lat": 0.0, "type": "electric_scooter", "name": "dca7211f87faf738a7bff397f5f39a18", "is_disabled": 0, "rental_uris": {"ios": "https://dc.lft.to/lastmile_qr_scan", "android": "https://dc.lft.to/lastmile_qr_scan"}, "is_reserved": 0}, {"lon": -76.97481783333333, "bike_id": "ec875f9b12f358fe63b2000dad5e9f06", "lat": 38.903535, "fusion_lon": 0.0, "fusion_lat": 0.0, "type": "electric_scooter", "name": "ec875f9b12f358fe63b2000dad5e9f06", "is_disabled": 0, "rental_uris": {"ios": "https://dc.lft.to/lastmile_qr_scan", "android": "https://dc.lft.to/lastmile_qr_scan"}, "is_reserved": 0}, {"lon": -76.99089483333333, "bike_id": "9151b90bfde7509eac75a8765161d5a2", "lat": 38.862377333333335, "fusion_lon": 0.0, "fusion_lat": 0.0, "type": "electric_bike", "name": "9151b90bfde7509eac75a8765161d5a2", "is_disabled": 0, "rental_uris": {"ios": "https://dc.lft.to/lastmile_qr_scan", "android": "https://dc.lft.to/lastmile_qr_scan"}, "is_reserved": 0}, {"lon": -77.04185516666666, "bike_id": "6bd4526b89b79ea84711ea503f994d53", "lat": 38.923008833333334, "fusion_lon": 0.0, "fusion_lat": 0.0, "type": "electric_scooter", "name": "6bd4526b89b79ea84711ea503f994d53", "is_disabled": 0, "rental_uris": {"ios": "https://dc.lft.to/lastmile_qr_scan", "android": "https://dc.lft.to/lastmile_qr_scan"}, "is_reserved": 0}, {"lon": -77.06515616666667, "bike_id": "a00af431edd8cd93fc6f102d2a992b21", "lat": 38.903979, "fusion_lon": 0.0, "fusion_lat": 0.0, "type": "electric_scooter", "name": "a00af431edd8cd93fc6f102d2a992b21", "is_disabled": 0, "rental_uris": {"ios": "https://dc.lft.to/lastmile_qr_scan", "android": "https://dc.lft.to/lastmile_qr_scan"}, "is_reserved": 0}, {"lon": -77.00221983333333, "bike_id": "e038878f8fd482441ca2404d722862ae", "lat": 38.900359, "fusion_lon": 0.0, "fusion_lat": 0.0, "type": "electric_scooter", "name": "e038878f8fd482441ca2404d722862ae", "is_disabled": 0, "rental_uris": {"ios": "https://dc.lft.to/lastmile_qr_scan", "android": "https://dc.lft.to/lastmile_qr_scan"}, "is_reserved": 0}, {"lon": -77.02520716666666, "bike_id": "283d56bc22fdca8b2767dd8e3f60884d", "lat": 38.93089766666667, "fusion_lon": 0.0, "fusion_lat": 0.0, "type": "electric_scooter", "name": "283d56bc22fdca8b2767dd8e3f60884d", "is_disabled": 0, "rental_uris": {"ios": "https://dc.lft.to/lastmile_qr_scan", "android": "https://dc.lft.to/lastmile_qr_scan"}, "is_reserved": 0}, {"lon": -77.0317175, "bike_id": "82e17a2317de18fefbd18395007d4655", "lat": 38.914178166666666, "fusion_lon": 0.0, "fusion_lat": 0.0, "type": "electric_scooter", "name": "82e17a2317de18fefbd18395007d4655", "is_disabled": 0, "rental_uris": {"ios": "https://dc.lft.to/lastmile_qr_scan", "android": "https://dc.lft.to/lastmile_qr_scan"}, "is_reserved": 0}, {"lon": -77.01657833333333, "bike_id": "35b598b1455e0fb3caec16abf5ab6e8a", "lat": 38.8811, "fusion_lon": 0.0, "fusion_lat": 0.0, "type": "electric_scooter", "name": "35b598b1455e0fb3caec16abf5ab6e8a", "is_disabled": 0, "rental_uris": {"ios": "https://dc.lft.to/lastmile_qr_scan", "android": "https://dc.lft.to/lastmile_qr_scan"}, "is_reserved": 0}, {"lon": -76.931784, "bike_id": "acfd9871b4c23261ab6810affc2f3465", "lat": 38.903710333333336, "fusion_lon": 0.0, "fusion_lat": 0.0, "type": "electric_scooter", "name": "acfd9871b4c23261ab6810affc2f3465", "is_disabled": 0, "rental_uris": {"ios": "https://dc.lft.to/lastmile_qr_scan", "android": "https://dc.lft.to/lastmile_qr_scan"}, "is_reserved": 0}, {"lon": -76.93361716666666, "bike_id": "b7821655e0ced7153193b64dc95bc0cc", "lat": 38.887976, "fusion_lon": 0.0, "fusion_lat": 0.0, "type": "electric_scooter", "name": "b7821655e0ced7153193b64dc95bc0cc", "is_disabled": 0, "rental_uris": {"ios": "https://dc.lft.to/lastmile_qr_scan", "android": "https://dc.lft.to/lastmile_qr_scan"}, "is_reserved": 0}, {"lon": -77.01000683333334, "bike_id": "40240a57711a44fbdd3ec1ceb42a1733", "lat": 38.9192245, "fusion_lon": 0.0, "fusion_lat": 0.0, "type": "electric_scooter", "name": "40240a57711a44fbdd3ec1ceb42a1733", "is_disabled": 0, "rental_uris": {"ios": "https://dc.lft.to/lastmile_qr_scan", "android": "https://dc.lft.to/lastmile_qr_scan"}, "is_reserved": 0}, {"lon": -77.04794516666666, "bike_id": "870b27c78e9b07bc6d33498048baf05b", "lat": 38.9096355, "fusion_lon": 0.0, "fusion_lat": 0.0, "type": "electric_scooter", "name": "870b27c78e9b07bc6d33498048baf05b", "is_disabled": 0, "rental_uris": {"ios": "https://dc.lft.to/lastmile_qr_scan", "android": "https://dc.lft.to/lastmile_qr_scan"}, "is_reserved": 0}, {"lon": -77.00104616666667, "bike_id": "07952bbf3ecabf5255fbe4065964f54f", "lat": 38.91242416666667, "fusion_lon": 0.0, "fusion_lat": 0.0, "type": "electric_scooter", "name": "07952bbf3ecabf5255fbe4065964f54f", "is_disabled": 0, "rental_uris": {"ios": "https://dc.lft.to/lastmile_qr_scan", "android": "https://dc.lft.to/lastmile_qr_scan"}, "is_reserved": 0}, {"lon": -77.06772133333334, "bike_id": "b27bef97c0b499a516ed51decbbd3f3c", "lat": 38.905076666666666, "fusion_lon": 0.0, "fusion_lat": 0.0, "type": "electric_scooter", "name": "b27bef97c0b499a516ed51decbbd3f3c", "is_disabled": 0, "rental_uris": {"ios": "https://dc.lft.to/lastmile_qr_scan", "android": "https://dc.lft.to/lastmile_qr_scan"}, "is_reserved": 0}, {"lon": -77.03978116666667, "bike_id": "ba6319f02bbdde6d46571e1bec9be690", "lat": 38.92799516666667, "fusion_lon": 0.0, "fusion_lat": 0.0, "type": "electric_scooter", "name": "ba6319f02bbdde6d46571e1bec9be690", "is_disabled": 0, "rental_uris": {"ios": "https://dc.lft.to/lastmile_qr_scan", "android": "https://dc.lft.to/lastmile_qr_scan"}, "is_reserved": 0}, {"lon": -77.0029835, "bike_id": "ac72a0030288755bddfe2e1d2df3f2c4", "lat": 38.901250833333336, "fusion_lon": 0.0, "fusion_lat": 0.0, "type": "electric_scooter", "name": "ac72a0030288755bddfe2e1d2df3f2c4", "is_disabled": 0, "rental_uris": {"ios": "https://dc.lft.to/lastmile_qr_scan", "android": "https://dc.lft.to/lastmile_qr_scan"}, "is_reserved": 0}, {"lon": -77.02797316666667, "bike_id": "fc9916de205856c0dbe4c58ea31f1064", "lat": 38.929616, "fusion_lon": 0.0, "fusion_lat": 0.0, "type": "electric_scooter", "name": "fc9916de205856c0dbe4c58ea31f1064", "is_disabled": 0, "rental_uris": {"ios": "https://dc.lft.to/lastmile_qr_scan", "android": "https://dc.lft.to/lastmile_qr_scan"}, "is_reserved": 0}, {"lon": -77.0315705, "bike_id": "9f78a079fb33adf9c2bd63900b239646", "lat": 38.91697716666667, "fusion_lon": 0.0, "fusion_lat": 0.0, "type": "electric_scooter", "name": "9f78a079fb33adf9c2bd63900b239646", "is_disabled": 0, "rental_uris": {"ios": "https://dc.lft.to/lastmile_qr_scan", "android": "https://dc.lft.to/lastmile_qr_scan"}, "is_reserved": 0}, {"lon": -76.98523316666666, "bike_id": "e26a47e91db9b810ac514f41ff54d4f8", "lat": 38.8668025, "fusion_lon": 0.0, "fusion_lat": 0.0, "type": "electric_scooter", "name": "e26a47e91db9b810ac514f41ff54d4f8", "is_disabled": 0, "rental_uris": {"ios": "https://dc.lft.to/lastmile_qr_scan", "android": "https://dc.lft.to/lastmile_qr_scan"}, "is_reserved": 0}, {"lon": -76.973043, "bike_id": "31b2d7cea6fb4d350f522c2be4a51dff", "lat": 38.91648516666667, "fusion_lon": 0.0, "fusion_lat": 0.0, "type": "electric_bike", "name": "31b2d7cea6fb4d350f522c2be4a51dff", "is_disabled": 0, "rental_uris": {"ios": "https://dc.lft.to/lastmile_qr_scan", "android": "https://dc.lft.to/lastmile_qr_scan"}, "is_reserved": 0}, {"lon": -77.04353483333334, "bike_id": "26b6575c3b77a3aa54d229ef229b170b", "lat": 38.91115583333333, "fusion_lon": 0.0, "fusion_lat": 0.0, "type": "electric_scooter", "name": "26b6575c3b77a3aa54d229ef229b170b", "is_disabled": 0, "rental_uris": {"ios": "https://dc.lft.to/lastmile_qr_scan", "android": "https://dc.lft.to/lastmile_qr_scan"}, "is_reserved": 0}, {"lon": -77.026611, "bike_id": "e5a7748c0edb4202fa84bda8fa175ed6", "lat": 38.8975605, "fusion_lon": 0.0, "fusion_lat": 0.0, "type": "electric_scooter", "name": "e5a7748c0edb4202fa84bda8fa175ed6", "is_disabled": 0, "rental_uris": {"ios": "https://dc.lft.to/lastmile_qr_scan", "android": "https://dc.lft.to/lastmile_qr_scan"}, "is_reserved": 0}, {"lon": -77.233309, "bike_id": "c7d68a64127391b6a8d665bbd3917d3d", "lat": 38.87276216666667, "fusion_lon": 0.0, "fusion_lat": 0.0, "type": "electric_bike", "name": "c7d68a64127391b6a8d665bbd3917d3d", "is_disabled": 0, "rental_uris": {"ios": "https://dc.lft.to/lastmile_qr_scan", "android": "https://dc.lft.to/lastmile_qr_scan"}, "is_reserved": 0}, {"lon": -76.96537333333333, "bike_id": "3bb98d8b0802103e39043326145e1b11", "lat": 38.918440833333335, "fusion_lon": 0.0, "fusion_lat": 0.0, "type": "electric_scooter", "name": "3bb98d8b0802103e39043326145e1b11", "is_disabled": 0, "rental_uris": {"ios": "https://dc.lft.to/lastmile_qr_scan", "android": "https://dc.lft.to/lastmile_qr_scan"}, "is_reserved": 0}, {"lon": -76.99449866666667, "bike_id": "503cf6469401a7e450bd082f98312132", "lat": 38.86280983333333, "fusion_lon": 0.0, "fusion_lat": 0.0, "type": "electric_scooter", "name": "503cf6469401a7e450bd082f98312132", "is_disabled": 0, "rental_uris": {"ios": "https://dc.lft.to/lastmile_qr_scan", "android": "https://dc.lft.to/lastmile_qr_scan"}, "is_reserved": 0}, {"lon": -76.9499085, "bike_id": "cae65b2f7b493aacd4580111d4351f71", "lat": 38.893843833333335, "fusion_lon": 0.0, "fusion_lat": 0.0, "type": "electric_scooter", "name": "cae65b2f7b493aacd4580111d4351f71", "is_disabled": 0, "rental_uris": {"ios": "https://dc.lft.to/lastmile_qr_scan", "android": "https://dc.lft.to/lastmile_qr_scan"}, "is_reserved": 0}, {"lon": -76.98878566666667, "bike_id": "140109ad82b8b67d3535843f5a4bc4af", "lat": 38.866633666666665, "fusion_lon": 0.0, "fusion_lat": 0.0, "type": "electric_scooter", "name": "140109ad82b8b67d3535843f5a4bc4af", "is_disabled": 0, "rental_uris": {"ios": "https://dc.lft.to/lastmile_qr_scan", "android": "https://dc.lft.to/lastmile_qr_scan"}, "is_reserved": 0}, {"lon": -77.0269715, "bike_id": "a8bb558f39e2cbe222bcc28e147e30b9", "lat": 38.908422333333334, "fusion_lon": 0.0, "fusion_lat": 0.0, "type": "electric_scooter", "name": "a8bb558f39e2cbe222bcc28e147e30b9", "is_disabled": 0, "rental_uris": {"ios": "https://dc.lft.to/lastmile_qr_scan", "android": "https://dc.lft.to/lastmile_qr_scan"}, "is_reserved": 0}, {"lon": -77.05142733333334, "bike_id": "827a4eb42236bb2e9556028bfd28d0a6", "lat": 38.90549016666667, "fusion_lon": 0.0, "fusion_lat": 0.0, "type": "electric_scooter", "name": "827a4eb42236bb2e9556028bfd28d0a6", "is_disabled": 0, "rental_uris": {"ios": "https://dc.lft.to/lastmile_qr_scan", "android": "https://dc.lft.to/lastmile_qr_scan"}, "is_reserved": 0}, {"lon": -77.03984, "bike_id": "9e193b2390f38069934bade13f4663af", "lat": 38.9333415, "fusion_lon": 0.0, "fusion_lat": 0.0, "type": "electric_scooter", "name": "9e193b2390f38069934bade13f4663af", "is_disabled": 0, "rental_uris": {"ios": "https://dc.lft.to/lastmile_qr_scan", "android": "https://dc.lft.to/lastmile_qr_scan"}, "is_reserved": 0}, {"lon": -77.04438966666666, "bike_id": "1c701a859f8c12d9414261afbd39db2b", "lat": 38.921635333333334, "fusion_lon": 0.0, "fusion_lat": 0.0, "type": "electric_scooter", "name": "1c701a859f8c12d9414261afbd39db2b", "is_disabled": 0, "rental_uris": {"ios": "https://dc.lft.to/lastmile_qr_scan", "android": "https://dc.lft.to/lastmile_qr_scan"}, "is_reserved": 0}, {"lon": -76.99490033333333, "bike_id": "a8c1f40168dac6baf9a33b4f1a94545a", "lat": 38.862448666666666, "fusion_lon": 0.0, "fusion_lat": 0.0, "type": "electric_scooter", "name": "a8c1f40168dac6baf9a33b4f1a94545a", "is_disabled": 0, "rental_uris": {"ios": "https://dc.lft.to/lastmile_qr_scan", "android": "https://dc.lft.to/lastmile_qr_scan"}, "is_reserved": 0}, {"lon": -77.005947, "bike_id": "996e6368a13d111d915957496db4c5c5", "lat": 38.9062955, "fusion_lon": 0.0, "fusion_lat": 0.0, "type": "electric_scooter", "name": "996e6368a13d111d915957496db4c5c5", "is_disabled": 0, "rental_uris": {"ios": "https://dc.lft.to/lastmile_qr_scan", "android": "https://dc.lft.to/lastmile_qr_scan"}, "is_reserved": 0}, {"lon": -77.031673, "bike_id": "0f973d75e8c2d3cace1c49ac79ddd903", "lat": 38.920933166666664, "fusion_lon": 0.0, "fusion_lat": 0.0, "type": "electric_scooter", "name": "0f973d75e8c2d3cace1c49ac79ddd903", "is_disabled": 0, "rental_uris": {"ios": "https://dc.lft.to/lastmile_qr_scan", "android": "https://dc.lft.to/lastmile_qr_scan"}, "is_reserved": 0}, {"lon": -77.03981583333334, "bike_id": "25944e6eb7f6a4974ccd635072471db3", "lat": 38.892202, "fusion_lon": 0.0, "fusion_lat": 0.0, "type": "electric_scooter", "name": "25944e6eb7f6a4974ccd635072471db3", "is_disabled": 0, "rental_uris": {"ios": "https://dc.lft.to/lastmile_qr_scan", "android": "https://dc.lft.to/lastmile_qr_scan"}, "is_reserved": 0}, {"lon": -77.01374116666666, "bike_id": "ff6cd366c947a70fd8d929db08edc73a", "lat": 38.8921975, "fusion_lon": 0.0, "fusion_lat": 0.0, "type": "electric_scooter", "name": "ff6cd366c947a70fd8d929db08edc73a", "is_disabled": 0, "rental_uris": {"ios": "https://dc.lft.to/lastmile_qr_scan", "android": "https://dc.lft.to/lastmile_qr_scan"}, "is_reserved": 0}, {"lon": -77.02968283333334, "bike_id": "de6900ddee0e7f2f30eea9b87eb3434a", "lat": 38.922869, "fusion_lon": 0.0, "fusion_lat": 0.0, "type": "electric_scooter", "name": "de6900ddee0e7f2f30eea9b87eb3434a", "is_disabled": 0, "rental_uris": {"ios": "https://dc.lft.to/lastmile_qr_scan", "android": "https://dc.lft.to/lastmile_qr_scan"}, "is_reserved": 0}, {"lon": -77.04262833333334, "bike_id": "a0fd55915b4c9422ddac67031b46b27e", "lat": 38.910385833333336, "fusion_lon": 0.0, "fusion_lat": 0.0, "type": "electric_scooter", "name": "a0fd55915b4c9422ddac67031b46b27e", "is_disabled": 0, "rental_uris": {"ios": "https://dc.lft.to/lastmile_qr_scan", "android": "https://dc.lft.to/lastmile_qr_scan"}, "is_reserved": 0}, {"lon": -77.0394455, "bike_id": "f0e03c873a7fde5466ffe2885b1522e2", "lat": 38.93061866666667, "fusion_lon": 0.0, "fusion_lat": 0.0, "type": "electric_scooter", "name": "f0e03c873a7fde5466ffe2885b1522e2", "is_disabled": 0, "rental_uris": {"ios": "https://dc.lft.to/lastmile_qr_scan", "android": "https://dc.lft.to/lastmile_qr_scan"}, "is_reserved": 0}, {"lon": -76.93366733333333, "bike_id": "b8b465654b3683209ec5ab6f31949851", "lat": 38.89917883333333, "fusion_lon": 0.0, "fusion_lat": 0.0, "type": "electric_scooter", "name": "b8b465654b3683209ec5ab6f31949851", "is_disabled": 0, "rental_uris": {"ios": "https://dc.lft.to/lastmile_qr_scan", "android": "https://dc.lft.to/lastmile_qr_scan"}, "is_reserved": 0}, {"lon": -77.0181625, "bike_id": "a96d9c92ef96402d42b2b08dce673226", "lat": 38.909693, "fusion_lon": 0.0, "fusion_lat": 0.0, "type": "electric_scooter", "name": "a96d9c92ef96402d42b2b08dce673226", "is_disabled": 0, "rental_uris": {"ios": "https://dc.lft.to/lastmile_qr_scan", "android": "https://dc.lft.to/lastmile_qr_scan"}, "is_reserved": 0}, {"lon": -77.02629166666667, "bike_id": "40f9e69e583f848f1d91d6713e297c1b", "lat": 38.900475, "fusion_lon": 0.0, "fusion_lat": 0.0, "type": "electric_scooter", "name": "40f9e69e583f848f1d91d6713e297c1b", "is_disabled": 0, "rental_uris": {"ios": "https://dc.lft.to/lastmile_qr_scan", "android": "https://dc.lft.to/lastmile_qr_scan"}, "is_reserved": 0}, {"lon": -76.99780133333333, "bike_id": "1d24886c0478617d3eb657303b2c2701", "lat": 38.844248666666665, "fusion_lon": 0.0, "fusion_lat": 0.0, "type": "electric_scooter", "name": "1d24886c0478617d3eb657303b2c2701", "is_disabled": 0, "rental_uris": {"ios": "https://dc.lft.to/lastmile_qr_scan", "android": "https://dc.lft.to/lastmile_qr_scan"}, "is_reserved": 0}, {"lon": -77.04488616666667, "bike_id": "c47bb039d1d6b9cfe160dfd39a993b35", "lat": 38.900676833333335, "fusion_lon": 0.0, "fusion_lat": 0.0, "type": "electric_scooter", "name": "c47bb039d1d6b9cfe160dfd39a993b35", "is_disabled": 0, "rental_uris": {"ios": "https://dc.lft.to/lastmile_qr_scan", "android": "https://dc.lft.to/lastmile_qr_scan"}, "is_reserved": 0}, {"lon": -76.98102766666666, "bike_id": "88b191b7c58db492711a23d6189b25e6", "lat": 38.9040365, "fusion_lon": 0.0, "fusion_lat": 0.0, "type": "electric_scooter", "name": "88b191b7c58db492711a23d6189b25e6", "is_disabled": 0, "rental_uris": {"ios": "https://dc.lft.to/lastmile_qr_scan", "android": "https://dc.lft.to/lastmile_qr_scan"}, "is_reserved": 0}, {"lon": -77.067584, "bike_id": "e8e6bdc5ce73006791ee891b9a83d965", "lat": 38.90341133333333, "fusion_lon": 0.0, "fusion_lat": 0.0, "type": "electric_scooter", "name": "e8e6bdc5ce73006791ee891b9a83d965", "is_disabled": 0, "rental_uris": {"ios": "https://dc.lft.to/lastmile_qr_scan", "android": "https://dc.lft.to/lastmile_qr_scan"}, "is_reserved": 0}, {"lon": -77.04110216666666, "bike_id": "20a5196c61774b43ddca7e09a12db587", "lat": 38.916969, "fusion_lon": 0.0, "fusion_lat": 0.0, "type": "electric_scooter", "name": "20a5196c61774b43ddca7e09a12db587", "is_disabled": 0, "rental_uris": {"ios": "https://dc.lft.to/lastmile_qr_scan", "android": "https://dc.lft.to/lastmile_qr_scan"}, "is_reserved": 0}, {"lon": -77.021535, "bike_id": "e3816112f804a65f8380de2c358619a2", "lat": 38.8972025, "fusion_lon": 0.0, "fusion_lat": 0.0, "type": "electric_scooter", "name": "e3816112f804a65f8380de2c358619a2", "is_disabled": 0, "rental_uris": {"ios": "https://dc.lft.to/lastmile_qr_scan", "android": "https://dc.lft.to/lastmile_qr_scan"}, "is_reserved": 0}, {"lon": -77.04144033333333, "bike_id": "2a9c0b750c39430101aa19a22d37a9eb", "lat": 38.90663133333334, "fusion_lon": 0.0, "fusion_lat": 0.0, "type": "electric_scooter", "name": "2a9c0b750c39430101aa19a22d37a9eb", "is_disabled": 0, "rental_uris": {"ios": "https://dc.lft.to/lastmile_qr_scan", "android": "https://dc.lft.to/lastmile_qr_scan"}, "is_reserved": 0}, {"lon": -77.2279765, "bike_id": "16eed083281deb693e1344dfe89bc358", "lat": 38.910160833333336, "fusion_lon": 0.0, "fusion_lat": 0.0, "type": "electric_bike", "name": "16eed083281deb693e1344dfe89bc358", "is_disabled": 0, "rental_uris": {"ios": "https://dc.lft.to/lastmile_qr_scan", "android": "https://dc.lft.to/lastmile_qr_scan"}, "is_reserved": 0}, {"lon": -76.96396066666667, "bike_id": "e6a73f357d28b281e0b4991c51d21119", "lat": 38.951725333333336, "fusion_lon": 0.0, "fusion_lat": 0.0, "type": "electric_bike", "name": "e6a73f357d28b281e0b4991c51d21119", "is_disabled": 0, "rental_uris": {"ios": "https://dc.lft.to/lastmile_qr_scan", "android": "https://dc.lft.to/lastmile_qr_scan"}, "is_reserved": 0}, {"lon": -77.02796366666666, "bike_id": "e5b43827c208c990f84ac8efc226800f", "lat": 38.954094833333336, "fusion_lon": 0.0, "fusion_lat": 0.0, "type": "electric_scooter", "name": "e5b43827c208c990f84ac8efc226800f", "is_disabled": 0, "rental_uris": {"ios": "https://dc.lft.to/lastmile_qr_scan", "android": "https://dc.lft.to/lastmile_qr_scan"}, "is_reserved": 0}, {"lon": -77.043488, "bike_id": "d195e5b6bcb088ae0bc9b84806da691e", "lat": 38.9104585, "fusion_lon": 0.0, "fusion_lat": 0.0, "type": "electric_scooter", "name": "d195e5b6bcb088ae0bc9b84806da691e", "is_disabled": 0, "rental_uris": {"ios": "https://dc.lft.to/lastmile_qr_scan", "android": "https://dc.lft.to/lastmile_qr_scan"}, "is_reserved": 0}, {"lon": -77.0209125, "bike_id": "663297eac5836f74b05e6cfdc859ef0d", "lat": 38.9291395, "fusion_lon": 0.0, "fusion_lat": 0.0, "type": "electric_scooter", "name": "663297eac5836f74b05e6cfdc859ef0d", "is_disabled": 0, "rental_uris": {"ios": "https://dc.lft.to/lastmile_qr_scan", "android": "https://dc.lft.to/lastmile_qr_scan"}, "is_reserved": 0}, {"lon": -77.00743883333334, "bike_id": "f51917c27bb567b79f56563db09d7505", "lat": 38.925296, "fusion_lon": 0.0, "fusion_lat": 0.0, "type": "electric_scooter", "name": "f51917c27bb567b79f56563db09d7505", "is_disabled": 0, "rental_uris": {"ios": "https://dc.lft.to/lastmile_qr_scan", "android": "https://dc.lft.to/lastmile_qr_scan"}, "is_reserved": 0}, {"lon": -77.02180316666667, "bike_id": "3d22c822b311df5bf9e273c40f55c155", "lat": 38.9151355, "fusion_lon": 0.0, "fusion_lat": 0.0, "type": "electric_scooter", "name": "3d22c822b311df5bf9e273c40f55c155", "is_disabled": 0, "rental_uris": {"ios": "https://dc.lft.to/lastmile_qr_scan", "android": "https://dc.lft.to/lastmile_qr_scan"}, "is_reserved": 0}, {"lon": -77.023815, "bike_id": "15f7262bdbec0d9af363b2424d6f533a", "lat": 38.91623833333333, "fusion_lon": 0.0, "fusion_lat": 0.0, "type": "electric_scooter", "name": "15f7262bdbec0d9af363b2424d6f533a", "is_disabled": 0, "rental_uris": {"ios": "https://dc.lft.to/lastmile_qr_scan", "android": "https://dc.lft.to/lastmile_qr_scan"}, "is_reserved": 0}, {"lon": -77.0295185, "bike_id": "cab72477356e12ec039947edc526dfde", "lat": 38.927652333333334, "fusion_lon": 0.0, "fusion_lat": 0.0, "type": "electric_scooter", "name": "cab72477356e12ec039947edc526dfde", "is_disabled": 0, "rental_uris": {"ios": "https://dc.lft.to/lastmile_qr_scan", "android": "https://dc.lft.to/lastmile_qr_scan"}, "is_reserved": 0}, {"lon": -77.0588175, "bike_id": "f4bb3be93ab90c7d6ba6e0df60c58fae", "lat": 38.93556683333333, "fusion_lon": 0.0, "fusion_lat": 0.0, "type": "electric_scooter", "name": "f4bb3be93ab90c7d6ba6e0df60c58fae", "is_disabled": 0, "rental_uris": {"ios": "https://dc.lft.to/lastmile_qr_scan", "android": "https://dc.lft.to/lastmile_qr_scan"}, "is_reserved": 0}, {"lon": -77.05314916666667, "bike_id": "45511bc83730eb2eadae7d91f9ece419", "lat": 38.9409815, "fusion_lon": 0.0, "fusion_lat": 0.0, "type": "electric_bike", "name": "45511bc83730eb2eadae7d91f9ece419", "is_disabled": 0, "rental_uris": {"ios": "https://dc.lft.to/lastmile_qr_scan", "android": "https://dc.lft.to/lastmile_qr_scan"}, "is_reserved": 0}, {"lon": -77.03126, "bike_id": "b46c71a7c4e8b606e057df94d12150af", "lat": 38.988305, "fusion_lon": 0.0, "fusion_lat": 0.0, "type": "electric_scooter", "name": "b46c71a7c4e8b606e057df94d12150af", "is_disabled": 0, "rental_uris": {"ios": "https://dc.lft.to/lastmile_qr_scan", "android": "https://dc.lft.to/lastmile_qr_scan"}, "is_reserved": 0}, {"lon": -77.00103433333334, "bike_id": "953a8a268aaaf100f37170ec735f8ace", "lat": 38.9170255, "fusion_lon": 0.0, "fusion_lat": 0.0, "type": "electric_scooter", "name": "953a8a268aaaf100f37170ec735f8ace", "is_disabled": 0, "rental_uris": {"ios": "https://dc.lft.to/lastmile_qr_scan", "android": "https://dc.lft.to/lastmile_qr_scan"}, "is_reserved": 0}, {"lon": -77.0189655, "bike_id": "245a168ae889de3c70b2dc50cbd2ec8f", "lat": 38.87461416666667, "fusion_lon": 0.0, "fusion_lat": 0.0, "type": "electric_scooter", "name": "245a168ae889de3c70b2dc50cbd2ec8f", "is_disabled": 0, "rental_uris": {"ios": "https://dc.lft.to/lastmile_qr_scan", "android": "https://dc.lft.to/lastmile_qr_scan"}, "is_reserved": 0}, {"lon": -77.03271833333334, "bike_id": "e118474af8bd62ecf65a3c23f7a6ab2b", "lat": 38.932680500000004, "fusion_lon": 0.0, "fusion_lat": 0.0, "type": "electric_scooter", "name": "e118474af8bd62ecf65a3c23f7a6ab2b", "is_disabled": 0, "rental_uris": {"ios": "https://dc.lft.to/lastmile_qr_scan", "android": "https://dc.lft.to/lastmile_qr_scan"}, "is_reserved": 0}, {"lon": -77.03437333333333, "bike_id": "1a3145c72625f2e115748169f30d1e70", "lat": 38.90974033333333, "fusion_lon": 0.0, "fusion_lat": 0.0, "type": "electric_scooter", "name": "1a3145c72625f2e115748169f30d1e70", "is_disabled": 0, "rental_uris": {"ios": "https://dc.lft.to/lastmile_qr_scan", "android": "https://dc.lft.to/lastmile_qr_scan"}, "is_reserved": 0}, {"lon": -77.04097133333333, "bike_id": "8c10bbf382075a4d1256bab340b6132b", "lat": 38.892290833333334, "fusion_lon": 0.0, "fusion_lat": 0.0, "type": "electric_scooter", "name": "8c10bbf382075a4d1256bab340b6132b", "is_disabled": 0, "rental_uris": {"ios": "https://dc.lft.to/lastmile_qr_scan", "android": "https://dc.lft.to/lastmile_qr_scan"}, "is_reserved": 0}, {"lon": -77.027119, "bike_id": "b1d9c235d1fca6bcf8cf532856d05082", "lat": 38.90668516666667, "fusion_lon": 0.0, "fusion_lat": 0.0, "type": "electric_scooter", "name": "b1d9c235d1fca6bcf8cf532856d05082", "is_disabled": 0, "rental_uris": {"ios": "https://dc.lft.to/lastmile_qr_scan", "android": "https://dc.lft.to/lastmile_qr_scan"}, "is_reserved": 0}, {"lon": -77.0025555, "bike_id": "d2a399c336e6f78ca8762bb862dba128", "lat": 38.9181815, "fusion_lon": 0.0, "fusion_lat": 0.0, "type": "electric_scooter", "name": "d2a399c336e6f78ca8762bb862dba128", "is_disabled": 0, "rental_uris": {"ios": "https://dc.lft.to/lastmile_qr_scan", "android": "https://dc.lft.to/lastmile_qr_scan"}, "is_reserved": 0}, {"lon": -77.03714733333334, "bike_id": "c73dc59b638d4897aee2a01d26dd47ac", "lat": 38.9148465, "fusion_lon": 0.0, "fusion_lat": 0.0, "type": "electric_scooter", "name": "c73dc59b638d4897aee2a01d26dd47ac", "is_disabled": 0, "rental_uris": {"ios": "https://dc.lft.to/lastmile_qr_scan", "android": "https://dc.lft.to/lastmile_qr_scan"}, "is_reserved": 0}, {"lon": -76.99174216666667, "bike_id": "d47fe58feef10cb8f6bc3ce84945b356", "lat": 38.889895, "fusion_lon": 0.0, "fusion_lat": 0.0, "type": "electric_scooter", "name": "d47fe58feef10cb8f6bc3ce84945b356", "is_disabled": 0, "rental_uris": {"ios": "https://dc.lft.to/lastmile_qr_scan", "android": "https://dc.lft.to/lastmile_qr_scan"}, "is_reserved": 0}, {"lon": -76.990771, "bike_id": "ef557f62524e64b9524b0fc632b1462f", "lat": 38.898204166666666, "fusion_lon": 0.0, "fusion_lat": 0.0, "type": "electric_bike", "name": "ef557f62524e64b9524b0fc632b1462f", "is_disabled": 0, "rental_uris": {"ios": "https://dc.lft.to/lastmile_qr_scan", "android": "https://dc.lft.to/lastmile_qr_scan"}, "is_reserved": 0}, {"lon": -77.018396, "bike_id": "9c139827189dece36b3d138ce51f97ca", "lat": 38.9096135, "fusion_lon": 0.0, "fusion_lat": 0.0, "type": "electric_scooter", "name": "9c139827189dece36b3d138ce51f97ca", "is_disabled": 0, "rental_uris": {"ios": "https://dc.lft.to/lastmile_qr_scan", "android": "https://dc.lft.to/lastmile_qr_scan"}, "is_reserved": 0}, {"lon": -76.97245983333333, "bike_id": "eb60a301009f98ea1a9c955ffbad089c", "lat": 38.90345933333333, "fusion_lon": 0.0, "fusion_lat": 0.0, "type": "electric_scooter", "name": "eb60a301009f98ea1a9c955ffbad089c", "is_disabled": 0, "rental_uris": {"ios": "https://dc.lft.to/lastmile_qr_scan", "android": "https://dc.lft.to/lastmile_qr_scan"}, "is_reserved": 0}, {"lon": -77.0170145, "bike_id": "c8c362eff446ed93387d3ea50cac75f6", "lat": 38.904446666666665, "fusion_lon": 0.0, "fusion_lat": 0.0, "type": "electric_scooter", "name": "c8c362eff446ed93387d3ea50cac75f6", "is_disabled": 0, "rental_uris": {"ios": "https://dc.lft.to/lastmile_qr_scan", "android": "https://dc.lft.to/lastmile_qr_scan"}, "is_reserved": 0}, {"lon": -77.01977733333334, "bike_id": "dc3bcab394e2b0157f13f323a36aaed2", "lat": 38.88585716666667, "fusion_lon": 0.0, "fusion_lat": 0.0, "type": "electric_scooter", "name": "dc3bcab394e2b0157f13f323a36aaed2", "is_disabled": 0, "rental_uris": {"ios": "https://dc.lft.to/lastmile_qr_scan", "android": "https://dc.lft.to/lastmile_qr_scan"}, "is_reserved": 0}, {"lon": -77.01840383333334, "bike_id": "5ff89d47fe7360a190b658b846fb9333", "lat": 38.909301666666664, "fusion_lon": 0.0, "fusion_lat": 0.0, "type": "electric_scooter", "name": "5ff89d47fe7360a190b658b846fb9333", "is_disabled": 0, "rental_uris": {"ios": "https://dc.lft.to/lastmile_qr_scan", "android": "https://dc.lft.to/lastmile_qr_scan"}, "is_reserved": 0}, {"lon": -77.03316133333334, "bike_id": "8464b7a3587416b0becb5e799b1f31b5", "lat": 38.902860833333335, "fusion_lon": 0.0, "fusion_lat": 0.0, "type": "electric_bike", "name": "8464b7a3587416b0becb5e799b1f31b5", "is_disabled": 0, "rental_uris": {"ios": "https://dc.lft.to/lastmile_qr_scan", "android": "https://dc.lft.to/lastmile_qr_scan"}, "is_reserved": 0}, {"lon": -77.01517116666666, "bike_id": "fcfd1a36f152bb8c16666848a5ff2531", "lat": 38.91866066666667, "fusion_lon": 0.0, "fusion_lat": 0.0, "type": "electric_scooter", "name": "fcfd1a36f152bb8c16666848a5ff2531", "is_disabled": 0, "rental_uris": {"ios": "https://dc.lft.to/lastmile_qr_scan", "android": "https://dc.lft.to/lastmile_qr_scan"}, "is_reserved": 0}, {"lon": -77.00677916666666, "bike_id": "fb5d8508e1eda2adb3eeba38eae593c5", "lat": 38.899846, "fusion_lon": 0.0, "fusion_lat": 0.0, "type": "electric_scooter", "name": "fb5d8508e1eda2adb3eeba38eae593c5", "is_disabled": 0, "rental_uris": {"ios": "https://dc.lft.to/lastmile_qr_scan", "android": "https://dc.lft.to/lastmile_qr_scan"}, "is_reserved": 0}, {"lon": -77.038272, "bike_id": "e3bf9399931d18fe4b217e3d15006185", "lat": 38.906708333333334, "fusion_lon": 0.0, "fusion_lat": 0.0, "type": "electric_scooter", "name": "e3bf9399931d18fe4b217e3d15006185", "is_disabled": 0, "rental_uris": {"ios": "https://dc.lft.to/lastmile_qr_scan", "android": "https://dc.lft.to/lastmile_qr_scan"}, "is_reserved": 0}, {"lon": -77.04258583333333, "bike_id": "99243ff1d4cd223a2e2cbbc35f520ab6", "lat": 38.9001545, "fusion_lon": 0.0, "fusion_lat": 0.0, "type": "electric_scooter", "name": "99243ff1d4cd223a2e2cbbc35f520ab6", "is_disabled": 0, "rental_uris": {"ios": "https://dc.lft.to/lastmile_qr_scan", "android": "https://dc.lft.to/lastmile_qr_scan"}, "is_reserved": 0}, {"lon": -77.0366015, "bike_id": "eaaa3d4539837ca3b207bdf8e6fe53cf", "lat": 38.936075, "fusion_lon": 0.0, "fusion_lat": 0.0, "type": "electric_scooter", "name": "eaaa3d4539837ca3b207bdf8e6fe53cf", "is_disabled": 0, "rental_uris": {"ios": "https://dc.lft.to/lastmile_qr_scan", "android": "https://dc.lft.to/lastmile_qr_scan"}, "is_reserved": 0}, {"lon": -77.03441, "bike_id": "b1addeefa173ac823a91299c1e231bcb", "lat": 38.9149245, "fusion_lon": 0.0, "fusion_lat": 0.0, "type": "electric_scooter", "name": "b1addeefa173ac823a91299c1e231bcb", "is_disabled": 0, "rental_uris": {"ios": "https://dc.lft.to/lastmile_qr_scan", "android": "https://dc.lft.to/lastmile_qr_scan"}, "is_reserved": 0}, {"lon": -77.0432235, "bike_id": "845f9ba10bdc9e7ac371ea2cef3995cc", "lat": 38.90726766666667, "fusion_lon": 0.0, "fusion_lat": 0.0, "type": "electric_scooter", "name": "845f9ba10bdc9e7ac371ea2cef3995cc", "is_disabled": 0, "rental_uris": {"ios": "https://dc.lft.to/lastmile_qr_scan", "android": "https://dc.lft.to/lastmile_qr_scan"}, "is_reserved": 0}, {"lon": -76.9888925, "bike_id": "5530b5d5120b6ddb17d3fa6d1d7aafd2", "lat": 38.9133845, "fusion_lon": 0.0, "fusion_lat": 0.0, "type": "electric_scooter", "name": "5530b5d5120b6ddb17d3fa6d1d7aafd2", "is_disabled": 0, "rental_uris": {"ios": "https://dc.lft.to/lastmile_qr_scan", "android": "https://dc.lft.to/lastmile_qr_scan"}, "is_reserved": 0}, {"lon": -77.03442633333333, "bike_id": "26515e2cd5e5383926d0667b60b8d268", "lat": 38.909804666666666, "fusion_lon": 0.0, "fusion_lat": 0.0, "type": "electric_scooter", "name": "26515e2cd5e5383926d0667b60b8d268", "is_disabled": 0, "rental_uris": {"ios": "https://dc.lft.to/lastmile_qr_scan", "android": "https://dc.lft.to/lastmile_qr_scan"}, "is_reserved": 0}, {"lon": -77.00540683333334, "bike_id": "bb83555e15d8bf3dc7e1611f6f34e20b", "lat": 38.900351, "fusion_lon": 0.0, "fusion_lat": 0.0, "type": "electric_scooter", "name": "bb83555e15d8bf3dc7e1611f6f34e20b", "is_disabled": 0, "rental_uris": {"ios": "https://dc.lft.to/lastmile_qr_scan", "android": "https://dc.lft.to/lastmile_qr_scan"}, "is_reserved": 0}, {"lon": -77.0319275, "bike_id": "b39c169280d23713f64ff64a9f032e30", "lat": 38.907906, "fusion_lon": 0.0, "fusion_lat": 0.0, "type": "electric_scooter", "name": "b39c169280d23713f64ff64a9f032e30", "is_disabled": 0, "rental_uris": {"ios": "https://dc.lft.to/lastmile_qr_scan", "android": "https://dc.lft.to/lastmile_qr_scan"}, "is_reserved": 0}, {"lon": -77.02186533333334, "bike_id": "9e92b2e2cdd7afec5bedb7f548708430", "lat": 38.8990085, "fusion_lon": 0.0, "fusion_lat": 0.0, "type": "electric_scooter", "name": "9e92b2e2cdd7afec5bedb7f548708430", "is_disabled": 0, "rental_uris": {"ios": "https://dc.lft.to/lastmile_qr_scan", "android": "https://dc.lft.to/lastmile_qr_scan"}, "is_reserved": 0}, {"lon": -77.0084105, "bike_id": "6fdcb9c85379cf72fbe0f56123c62349", "lat": 38.916224166666666, "fusion_lon": 0.0, "fusion_lat": 0.0, "type": "electric_scooter", "name": "6fdcb9c85379cf72fbe0f56123c62349", "is_disabled": 0, "rental_uris": {"ios": "https://dc.lft.to/lastmile_qr_scan", "android": "https://dc.lft.to/lastmile_qr_scan"}, "is_reserved": 0}, {"lon": -77.00927716666666, "bike_id": "36fe697b21600ccdfa34073613481e77", "lat": 38.899826833333336, "fusion_lon": 0.0, "fusion_lat": 0.0, "type": "electric_scooter", "name": "36fe697b21600ccdfa34073613481e77", "is_disabled": 0, "rental_uris": {"ios": "https://dc.lft.to/lastmile_qr_scan", "android": "https://dc.lft.to/lastmile_qr_scan"}, "is_reserved": 0}, {"lon": -77.03325383333333, "bike_id": "480b31d7e549db94c1f6f9cbaf5189e3", "lat": 38.92164066666667, "fusion_lon": 0.0, "fusion_lat": 0.0, "type": "electric_scooter", "name": "480b31d7e549db94c1f6f9cbaf5189e3", "is_disabled": 0, "rental_uris": {"ios": "https://dc.lft.to/lastmile_qr_scan", "android": "https://dc.lft.to/lastmile_qr_scan"}, "is_reserved": 0}, {"lon": -77.04174416666666, "bike_id": "1ec563b6c928de751d35faa8113c5846", "lat": 38.91397033333333, "fusion_lon": 0.0, "fusion_lat": 0.0, "type": "electric_scooter", "name": "1ec563b6c928de751d35faa8113c5846", "is_disabled": 0, "rental_uris": {"ios": "https://dc.lft.to/lastmile_qr_scan", "android": "https://dc.lft.to/lastmile_qr_scan"}, "is_reserved": 0}, {"lon": -77.08335366666667, "bike_id": "d2d6f84cffb3a21c76e7b81c406cd659", "lat": 38.85439683333333, "fusion_lon": 0.0, "fusion_lat": 0.0, "type": "electric_bike", "name": "d2d6f84cffb3a21c76e7b81c406cd659", "is_disabled": 0, "rental_uris": {"ios": "https://dc.lft.to/lastmile_qr_scan", "android": "https://dc.lft.to/lastmile_qr_scan"}, "is_reserved": 0}, {"lon": -77.03862033333333, "bike_id": "06a48e4d643d9390c339d304d6875604", "lat": 38.9126245, "fusion_lon": 0.0, "fusion_lat": 0.0, "type": "electric_scooter", "name": "06a48e4d643d9390c339d304d6875604", "is_disabled": 0, "rental_uris": {"ios": "https://dc.lft.to/lastmile_qr_scan", "android": "https://dc.lft.to/lastmile_qr_scan"}, "is_reserved": 0}, {"lon": -77.02303883333333, "bike_id": "3f081363a6cb97bbef9798169c560e97", "lat": 38.90894683333333, "fusion_lon": 0.0, "fusion_lat": 0.0, "type": "electric_scooter", "name": "3f081363a6cb97bbef9798169c560e97", "is_disabled": 0, "rental_uris": {"ios": "https://dc.lft.to/lastmile_qr_scan", "android": "https://dc.lft.to/lastmile_qr_scan"}, "is_reserved": 0}, {"lon": -76.97827383333333, "bike_id": "cc813c106b8540ee2fe6e06748901544", "lat": 38.8436965, "fusion_lon": 0.0, "fusion_lat": 0.0, "type": "electric_bike", "name": "cc813c106b8540ee2fe6e06748901544", "is_disabled": 0, "rental_uris": {"ios": "https://dc.lft.to/lastmile_qr_scan", "android": "https://dc.lft.to/lastmile_qr_scan"}, "is_reserved": 0}, {"lon": -77.01721966666666, "bike_id": "b35234d7fc79b1616e45aaa50b715413", "lat": 38.90562, "fusion_lon": 0.0, "fusion_lat": 0.0, "type": "electric_scooter", "name": "b35234d7fc79b1616e45aaa50b715413", "is_disabled": 0, "rental_uris": {"ios": "https://dc.lft.to/lastmile_qr_scan", "android": "https://dc.lft.to/lastmile_qr_scan"}, "is_reserved": 0}, {"lon": -77.03585933333333, "bike_id": "a654acbc641e8984087cc4f67a84c70c", "lat": 38.99227116666667, "fusion_lon": 0.0, "fusion_lat": 0.0, "type": "electric_scooter", "name": "a654acbc641e8984087cc4f67a84c70c", "is_disabled": 0, "rental_uris": {"ios": "https://dc.lft.to/lastmile_qr_scan", "android": "https://dc.lft.to/lastmile_qr_scan"}, "is_reserved": 0}, {"lon": -77.035237, "bike_id": "44d19cd9bea7b55f6362ec02a39691af", "lat": 38.927322333333336, "fusion_lon": 0.0, "fusion_lat": 0.0, "type": "electric_scooter", "name": "44d19cd9bea7b55f6362ec02a39691af", "is_disabled": 0, "rental_uris": {"ios": "https://dc.lft.to/lastmile_qr_scan", "android": "https://dc.lft.to/lastmile_qr_scan"}, "is_reserved": 0}, {"lon": -77.025202, "bike_id": "fd84c2dfe5967ea09aba215b5fcc3d36", "lat": 38.9042475, "fusion_lon": 0.0, "fusion_lat": 0.0, "type": "electric_scooter", "name": "fd84c2dfe5967ea09aba215b5fcc3d36", "is_disabled": 0, "rental_uris": {"ios": "https://dc.lft.to/lastmile_qr_scan", "android": "https://dc.lft.to/lastmile_qr_scan"}, "is_reserved": 0}, {"lon": -77.0298695, "bike_id": "114f56522d5743f667108a2bda617020", "lat": 38.92472816666667, "fusion_lon": 0.0, "fusion_lat": 0.0, "type": "electric_scooter", "name": "114f56522d5743f667108a2bda617020", "is_disabled": 0, "rental_uris": {"ios": "https://dc.lft.to/lastmile_qr_scan", "android": "https://dc.lft.to/lastmile_qr_scan"}, "is_reserved": 0}, {"lon": -76.98848783333334, "bike_id": "f493f90b0c84b69a8c0cd98628162e89", "lat": 38.90126983333333, "fusion_lon": 0.0, "fusion_lat": 0.0, "type": "electric_scooter", "name": "f493f90b0c84b69a8c0cd98628162e89", "is_disabled": 0, "rental_uris": {"ios": "https://dc.lft.to/lastmile_qr_scan", "android": "https://dc.lft.to/lastmile_qr_scan"}, "is_reserved": 0}, {"lon": -77.03325166666667, "bike_id": "72d9334027e09283f3ba8c9ee18b1d90", "lat": 38.896474166666664, "fusion_lon": 0.0, "fusion_lat": 0.0, "type": "electric_scooter", "name": "72d9334027e09283f3ba8c9ee18b1d90", "is_disabled": 0, "rental_uris": {"ios": "https://dc.lft.to/lastmile_qr_scan", "android": "https://dc.lft.to/lastmile_qr_scan"}, "is_reserved": 0}, {"lon": -77.04258733333333, "bike_id": "5d3b1f65f9c5a529cf79d771bbf3aba3", "lat": 38.91036, "fusion_lon": 0.0, "fusion_lat": 0.0, "type": "electric_scooter", "name": "5d3b1f65f9c5a529cf79d771bbf3aba3", "is_disabled": 0, "rental_uris": {"ios": "https://dc.lft.to/lastmile_qr_scan", "android": "https://dc.lft.to/lastmile_qr_scan"}, "is_reserved": 0}, {"lon": -77.01998566666667, "bike_id": "91383110ae53bc0d75988e9a9023122f", "lat": 38.91364883333333, "fusion_lon": 0.0, "fusion_lat": 0.0, "type": "electric_scooter", "name": "91383110ae53bc0d75988e9a9023122f", "is_disabled": 0, "rental_uris": {"ios": "https://dc.lft.to/lastmile_qr_scan", "android": "https://dc.lft.to/lastmile_qr_scan"}, "is_reserved": 0}, {"lon": -76.97735966666667, "bike_id": "43a963243a7fedd4a2c72206398bc79a", "lat": 38.8647535, "fusion_lon": 0.0, "fusion_lat": 0.0, "type": "electric_scooter", "name": "43a963243a7fedd4a2c72206398bc79a", "is_disabled": 0, "rental_uris": {"ios": "https://dc.lft.to/lastmile_qr_scan", "android": "https://dc.lft.to/lastmile_qr_scan"}, "is_reserved": 0}, {"lon": -77.03549083333333, "bike_id": "2c820bb2866ae7f3434ffd6ea090d1ae", "lat": 38.9241555, "fusion_lon": 0.0, "fusion_lat": 0.0, "type": "electric_scooter", "name": "2c820bb2866ae7f3434ffd6ea090d1ae", "is_disabled": 0, "rental_uris": {"ios": "https://dc.lft.to/lastmile_qr_scan", "android": "https://dc.lft.to/lastmile_qr_scan"}, "is_reserved": 0}, {"lon": -77.01934716666666, "bike_id": "a49234324a07ed4a553956e71418afe7", "lat": 38.89447216666667, "fusion_lon": 0.0, "fusion_lat": 0.0, "type": "electric_scooter", "name": "a49234324a07ed4a553956e71418afe7", "is_disabled": 0, "rental_uris": {"ios": "https://dc.lft.to/lastmile_qr_scan", "android": "https://dc.lft.to/lastmile_qr_scan"}, "is_reserved": 0}, {"lon": -77.01960566666666, "bike_id": "4dac2dbe22a3a8c533a7f5535773fe34", "lat": 38.9218765, "fusion_lon": 0.0, "fusion_lat": 0.0, "type": "electric_scooter", "name": "4dac2dbe22a3a8c533a7f5535773fe34", "is_disabled": 0, "rental_uris": {"ios": "https://dc.lft.to/lastmile_qr_scan", "android": "https://dc.lft.to/lastmile_qr_scan"}, "is_reserved": 0}, {"lon": -76.95185116666667, "bike_id": "3ebd9c1cd6c24aa97f9ef3eeed19cc27", "lat": 38.90739416666667, "fusion_lon": 0.0, "fusion_lat": 0.0, "type": "electric_scooter", "name": "3ebd9c1cd6c24aa97f9ef3eeed19cc27", "is_disabled": 0, "rental_uris": {"ios": "https://dc.lft.to/lastmile_qr_scan", "android": "https://dc.lft.to/lastmile_qr_scan"}, "is_reserved": 0}, {"lon": -77.0424135, "bike_id": "b941e576d29ad0539dd0e688b4d3dde7", "lat": 38.92237733333333, "fusion_lon": 0.0, "fusion_lat": 0.0, "type": "electric_scooter", "name": "b941e576d29ad0539dd0e688b4d3dde7", "is_disabled": 0, "rental_uris": {"ios": "https://dc.lft.to/lastmile_qr_scan", "android": "https://dc.lft.to/lastmile_qr_scan"}, "is_reserved": 0}, {"lon": -76.98195283333334, "bike_id": "a20df767d118ab2d52a4dae41981f3f7", "lat": 38.89945516666667, "fusion_lon": 0.0, "fusion_lat": 0.0, "type": "electric_scooter", "name": "a20df767d118ab2d52a4dae41981f3f7", "is_disabled": 0, "rental_uris": {"ios": "https://dc.lft.to/lastmile_qr_scan", "android": "https://dc.lft.to/lastmile_qr_scan"}, "is_reserved": 0}, {"lon": -77.00460066666666, "bike_id": "7032de777d8e88464746d559a0acd91b", "lat": 38.914364166666665, "fusion_lon": 0.0, "fusion_lat": 0.0, "type": "electric_scooter", "name": "7032de777d8e88464746d559a0acd91b", "is_disabled": 0, "rental_uris": {"ios": "https://dc.lft.to/lastmile_qr_scan", "android": "https://dc.lft.to/lastmile_qr_scan"}, "is_reserved": 0}, {"lon": -76.98714733333334, "bike_id": "44e331acb69d7ce5a34dc6d5b0a98fe6", "lat": 38.86627333333333, "fusion_lon": 0.0, "fusion_lat": 0.0, "type": "electric_scooter", "name": "44e331acb69d7ce5a34dc6d5b0a98fe6", "is_disabled": 0, "rental_uris": {"ios": "https://dc.lft.to/lastmile_qr_scan", "android": "https://dc.lft.to/lastmile_qr_scan"}, "is_reserved": 0}, {"lon": -76.98264633333334, "bike_id": "9574e8bf465cd725f92cafc8091a286a", "lat": 38.90859016666667, "fusion_lon": 0.0, "fusion_lat": 0.0, "type": "electric_scooter", "name": "9574e8bf465cd725f92cafc8091a286a", "is_disabled": 0, "rental_uris": {"ios": "https://dc.lft.to/lastmile_qr_scan", "android": "https://dc.lft.to/lastmile_qr_scan"}, "is_reserved": 0}, {"lon": -77.03858633333333, "bike_id": "71ff59c851a24fd8e8d0cbd05d7721e1", "lat": 38.91173166666667, "fusion_lon": 0.0, "fusion_lat": 0.0, "type": "electric_scooter", "name": "71ff59c851a24fd8e8d0cbd05d7721e1", "is_disabled": 0, "rental_uris": {"ios": "https://dc.lft.to/lastmile_qr_scan", "android": "https://dc.lft.to/lastmile_qr_scan"}, "is_reserved": 0}, {"lon": -77.01783916666666, "bike_id": "2f58f0ad0c3a0304a69d67d6e054a2b8", "lat": 38.877108, "fusion_lon": 0.0, "fusion_lat": 0.0, "type": "electric_scooter", "name": "2f58f0ad0c3a0304a69d67d6e054a2b8", "is_disabled": 0, "rental_uris": {"ios": "https://dc.lft.to/lastmile_qr_scan", "android": "https://dc.lft.to/lastmile_qr_scan"}, "is_reserved": 0}, {"lon": -77.02695116666666, "bike_id": "678ff4f03cbfcff3ddd0c14804980802", "lat": 38.91169283333333, "fusion_lon": 0.0, "fusion_lat": 0.0, "type": "electric_scooter", "name": "678ff4f03cbfcff3ddd0c14804980802", "is_disabled": 0, "rental_uris": {"ios": "https://dc.lft.to/lastmile_qr_scan", "android": "https://dc.lft.to/lastmile_qr_scan"}, "is_reserved": 0}, {"lon": -77.08029316666666, "bike_id": "9b0d88ddddc68484039b59a6409a2e65", "lat": 38.86391283333333, "fusion_lon": 0.0, "fusion_lat": 0.0, "type": "electric_bike", "name": "9b0d88ddddc68484039b59a6409a2e65", "is_disabled": 0, "rental_uris": {"ios": "https://dc.lft.to/lastmile_qr_scan", "android": "https://dc.lft.to/lastmile_qr_scan"}, "is_reserved": 0}, {"lon": -77.01950983333333, "bike_id": "cc4d80522fc1dd33ebd9f7a3251a9fef", "lat": 38.922586333333335, "fusion_lon": 0.0, "fusion_lat": 0.0, "type": "electric_scooter", "name": "cc4d80522fc1dd33ebd9f7a3251a9fef", "is_disabled": 0, "rental_uris": {"ios": "https://dc.lft.to/lastmile_qr_scan", "android": "https://dc.lft.to/lastmile_qr_scan"}, "is_reserved": 0}, {"lon": -77.04107116666667, "bike_id": "083e23fdfd1cede354d70268b2da3f10", "lat": 38.923158, "fusion_lon": 0.0, "fusion_lat": 0.0, "type": "electric_scooter", "name": "083e23fdfd1cede354d70268b2da3f10", "is_disabled": 0, "rental_uris": {"ios": "https://dc.lft.to/lastmile_qr_scan", "android": "https://dc.lft.to/lastmile_qr_scan"}, "is_reserved": 0}, {"lon": -77.056858, "bike_id": "eb693a14324f3d3b72f0ab0c5df2ba32", "lat": 38.90513933333333, "fusion_lon": 0.0, "fusion_lat": 0.0, "type": "electric_bike", "name": "eb693a14324f3d3b72f0ab0c5df2ba32", "is_disabled": 0, "rental_uris": {"ios": "https://dc.lft.to/lastmile_qr_scan", "android": "https://dc.lft.to/lastmile_qr_scan"}, "is_reserved": 0}, {"lon": -76.95748866666666, "bike_id": "2ee3e9c2340e0b7c4357fbefed3d09fe", "lat": 38.8842745, "fusion_lon": 0.0, "fusion_lat": 0.0, "type": "electric_scooter", "name": "2ee3e9c2340e0b7c4357fbefed3d09fe", "is_disabled": 0, "rental_uris": {"ios": "https://dc.lft.to/lastmile_qr_scan", "android": "https://dc.lft.to/lastmile_qr_scan"}, "is_reserved": 0}, {"lon": -77.03040316666667, "bike_id": "31ed189181d3e47ba8c6ff7c851a433f", "lat": 38.8783565, "fusion_lon": 0.0, "fusion_lat": 0.0, "type": "electric_scooter", "name": "31ed189181d3e47ba8c6ff7c851a433f", "is_disabled": 0, "rental_uris": {"ios": "https://dc.lft.to/lastmile_qr_scan", "android": "https://dc.lft.to/lastmile_qr_scan"}, "is_reserved": 0}, {"lon": -77.02972383333334, "bike_id": "dc818ca029f45e46a10b25f01cfb88d5", "lat": 38.91243516666667, "fusion_lon": 0.0, "fusion_lat": 0.0, "type": "electric_scooter", "name": "dc818ca029f45e46a10b25f01cfb88d5", "is_disabled": 0, "rental_uris": {"ios": "https://dc.lft.to/lastmile_qr_scan", "android": "https://dc.lft.to/lastmile_qr_scan"}, "is_reserved": 0}, {"lon": -77.05016366666666, "bike_id": "30720ce24e1ea135babc2686043aa795", "lat": 38.901419, "fusion_lon": 0.0, "fusion_lat": 0.0, "type": "electric_scooter", "name": "30720ce24e1ea135babc2686043aa795", "is_disabled": 0, "rental_uris": {"ios": "https://dc.lft.to/lastmile_qr_scan", "android": "https://dc.lft.to/lastmile_qr_scan"}, "is_reserved": 0}, {"lon": -77.0304225, "bike_id": "45a392da1e3bad8a232ffe7e57375ce1", "lat": 38.88429416666666, "fusion_lon": 0.0, "fusion_lat": 0.0, "type": "electric_scooter", "name": "45a392da1e3bad8a232ffe7e57375ce1", "is_disabled": 0, "rental_uris": {"ios": "https://dc.lft.to/lastmile_qr_scan", "android": "https://dc.lft.to/lastmile_qr_scan"}, "is_reserved": 0}, {"lon": -77.04163533333333, "bike_id": "041547186bc406de0bc82c02a749c6a7", "lat": 38.91253, "fusion_lon": 0.0, "fusion_lat": 0.0, "type": "electric_scooter", "name": "041547186bc406de0bc82c02a749c6a7", "is_disabled": 0, "rental_uris": {"ios": "https://dc.lft.to/lastmile_qr_scan", "android": "https://dc.lft.to/lastmile_qr_scan"}, "is_reserved": 0}, {"lon": -77.0417185, "bike_id": "b23e9a248be9d4d653ecfddcd0d7198b", "lat": 38.92313266666667, "fusion_lon": 0.0, "fusion_lat": 0.0, "type": "electric_scooter", "name": "b23e9a248be9d4d653ecfddcd0d7198b", "is_disabled": 0, "rental_uris": {"ios": "https://dc.lft.to/lastmile_qr_scan", "android": "https://dc.lft.to/lastmile_qr_scan"}, "is_reserved": 0}, {"lon": -76.93735866666667, "bike_id": "fa838dc34194756c794b6cd403d95993", "lat": 38.890178166666665, "fusion_lon": 0.0, "fusion_lat": 0.0, "type": "electric_scooter", "name": "fa838dc34194756c794b6cd403d95993", "is_disabled": 0, "rental_uris": {"ios": "https://dc.lft.to/lastmile_qr_scan", "android": "https://dc.lft.to/lastmile_qr_scan"}, "is_reserved": 0}, {"lon": -77.041559, "bike_id": "02a1a602b938bf6397e9fb0b4c5c48ba", "lat": 38.923343333333335, "fusion_lon": 0.0, "fusion_lat": 0.0, "type": "electric_scooter", "name": "02a1a602b938bf6397e9fb0b4c5c48ba", "is_disabled": 0, "rental_uris": {"ios": "https://dc.lft.to/lastmile_qr_scan", "android": "https://dc.lft.to/lastmile_qr_scan"}, "is_reserved": 0}, {"lon": -77.053805, "bike_id": "5e6ce97c0cf56744996df443f7b24464", "lat": 38.90396233333333, "fusion_lon": 0.0, "fusion_lat": 0.0, "type": "electric_scooter", "name": "5e6ce97c0cf56744996df443f7b24464", "is_disabled": 0, "rental_uris": {"ios": "https://dc.lft.to/lastmile_qr_scan", "android": "https://dc.lft.to/lastmile_qr_scan"}, "is_reserved": 0}, {"lon": -77.03089633333333, "bike_id": "f5b9a1ef7cea3ea8cd56e1a613e81a9a", "lat": 38.91003416666667, "fusion_lon": 0.0, "fusion_lat": 0.0, "type": "electric_scooter", "name": "f5b9a1ef7cea3ea8cd56e1a613e81a9a", "is_disabled": 0, "rental_uris": {"ios": "https://dc.lft.to/lastmile_qr_scan", "android": "https://dc.lft.to/lastmile_qr_scan"}, "is_reserved": 0}, {"lon": -77.024002, "bike_id": "34bfc6275638bf5762b6bb807ade41a4", "lat": 38.90022733333333, "fusion_lon": 0.0, "fusion_lat": 0.0, "type": "electric_scooter", "name": "34bfc6275638bf5762b6bb807ade41a4", "is_disabled": 0, "rental_uris": {"ios": "https://dc.lft.to/lastmile_qr_scan", "android": "https://dc.lft.to/lastmile_qr_scan"}, "is_reserved": 0}, {"lon": -76.98998566666667, "bike_id": "8109e09f1b924687ac9c68bceb446b07", "lat": 38.865025833333334, "fusion_lon": 0.0, "fusion_lat": 0.0, "type": "electric_scooter", "name": "8109e09f1b924687ac9c68bceb446b07", "is_disabled": 0, "rental_uris": {"ios": "https://dc.lft.to/lastmile_qr_scan", "android": "https://dc.lft.to/lastmile_qr_scan"}, "is_reserved": 0}, {"lon": -77.03445316666667, "bike_id": "6a89a0dbd2936edbb84cdb6a62bea0e8", "lat": 38.90978716666667, "fusion_lon": 0.0, "fusion_lat": 0.0, "type": "electric_scooter", "name": "6a89a0dbd2936edbb84cdb6a62bea0e8", "is_disabled": 0, "rental_uris": {"ios": "https://dc.lft.to/lastmile_qr_scan", "android": "https://dc.lft.to/lastmile_qr_scan"}, "is_reserved": 0}, {"lon": -76.98922566666667, "bike_id": "725b1fbebf6f5230824295e673333263", "lat": 38.901754333333336, "fusion_lon": 0.0, "fusion_lat": 0.0, "type": "electric_scooter", "name": "725b1fbebf6f5230824295e673333263", "is_disabled": 0, "rental_uris": {"ios": "https://dc.lft.to/lastmile_qr_scan", "android": "https://dc.lft.to/lastmile_qr_scan"}, "is_reserved": 0}, {"lon": -77.00960483333333, "bike_id": "e1e5fc3e78f1b8f68bd36c38f169b07a", "lat": 38.95340933333333, "fusion_lon": 0.0, "fusion_lat": 0.0, "type": "electric_bike", "name": "e1e5fc3e78f1b8f68bd36c38f169b07a", "is_disabled": 0, "rental_uris": {"ios": "https://dc.lft.to/lastmile_qr_scan", "android": "https://dc.lft.to/lastmile_qr_scan"}, "is_reserved": 0}, {"lon": -77.02385166666667, "bike_id": "a01ebda6efd0015a65c6f67851d392a6", "lat": 38.90435816666667, "fusion_lon": 0.0, "fusion_lat": 0.0, "type": "electric_scooter", "name": "a01ebda6efd0015a65c6f67851d392a6", "is_disabled": 0, "rental_uris": {"ios": "https://dc.lft.to/lastmile_qr_scan", "android": "https://dc.lft.to/lastmile_qr_scan"}, "is_reserved": 0}, {"lon": -77.039586, "bike_id": "e2a1e6e88cc6995a9301a8a3915f6fd3", "lat": 38.91558033333333, "fusion_lon": 0.0, "fusion_lat": 0.0, "type": "electric_scooter", "name": "e2a1e6e88cc6995a9301a8a3915f6fd3", "is_disabled": 0, "rental_uris": {"ios": "https://dc.lft.to/lastmile_qr_scan", "android": "https://dc.lft.to/lastmile_qr_scan"}, "is_reserved": 0}, {"lon": -76.98585383333334, "bike_id": "181497f763045f7f16a8bc404a5df17f", "lat": 38.866855, "fusion_lon": 0.0, "fusion_lat": 0.0, "type": "electric_scooter", "name": "181497f763045f7f16a8bc404a5df17f", "is_disabled": 0, "rental_uris": {"ios": "https://dc.lft.to/lastmile_qr_scan", "android": "https://dc.lft.to/lastmile_qr_scan"}, "is_reserved": 0}, {"lon": -77.11578183333333, "bike_id": "a314d3fb61123abef825fd6f5d20887f", "lat": 38.99347483333333, "fusion_lon": 0.0, "fusion_lat": 0.0, "type": "electric_bike", "name": "a314d3fb61123abef825fd6f5d20887f", "is_disabled": 0, "rental_uris": {"ios": "https://dc.lft.to/lastmile_qr_scan", "android": "https://dc.lft.to/lastmile_qr_scan"}, "is_reserved": 0}, {"lon": -76.985241, "bike_id": "a1c071812e895d2e9cf8017888ceb17a", "lat": 38.86687916666666, "fusion_lon": 0.0, "fusion_lat": 0.0, "type": "electric_scooter", "name": "a1c071812e895d2e9cf8017888ceb17a", "is_disabled": 0, "rental_uris": {"ios": "https://dc.lft.to/lastmile_qr_scan", "android": "https://dc.lft.to/lastmile_qr_scan"}, "is_reserved": 0}, {"lon": -77.02904883333333, "bike_id": "743ad6cf60f1daf8fe6b8345e5cab469", "lat": 38.917066166666665, "fusion_lon": 0.0, "fusion_lat": 0.0, "type": "electric_scooter", "name": "743ad6cf60f1daf8fe6b8345e5cab469", "is_disabled": 0, "rental_uris": {"ios": "https://dc.lft.to/lastmile_qr_scan", "android": "https://dc.lft.to/lastmile_qr_scan"}, "is_reserved": 0}, {"lon": -77.07395683333333, "bike_id": "7b968667158bca262b628fcc0713b725", "lat": 38.9621265, "fusion_lon": 0.0, "fusion_lat": 0.0, "type": "electric_scooter", "name": "7b968667158bca262b628fcc0713b725", "is_disabled": 0, "rental_uris": {"ios": "https://dc.lft.to/lastmile_qr_scan", "android": "https://dc.lft.to/lastmile_qr_scan"}, "is_reserved": 0}, {"lon": -77.02554133333334, "bike_id": "216114399916647ec1b2940443aa9fda", "lat": 38.909559333333334, "fusion_lon": 0.0, "fusion_lat": 0.0, "type": "electric_scooter", "name": "216114399916647ec1b2940443aa9fda", "is_disabled": 0, "rental_uris": {"ios": "https://dc.lft.to/lastmile_qr_scan", "android": "https://dc.lft.to/lastmile_qr_scan"}, "is_reserved": 0}, {"lon": -77.06863333333334, "bike_id": "fdd25b7f4dcbb3be9a79def97d005cd4", "lat": 38.80577483333333, "fusion_lon": 0.0, "fusion_lat": 0.0, "type": "electric_bike", "name": "fdd25b7f4dcbb3be9a79def97d005cd4", "is_disabled": 0, "rental_uris": {"ios": "https://dc.lft.to/lastmile_qr_scan", "android": "https://dc.lft.to/lastmile_qr_scan"}, "is_reserved": 0}, {"lon": -76.97615716666667, "bike_id": "5a9fbfcf80e6ea2c880a759e2879c85d", "lat": 38.926517, "fusion_lon": 0.0, "fusion_lat": 0.0, "type": "electric_scooter", "name": "5a9fbfcf80e6ea2c880a759e2879c85d", "is_disabled": 0, "rental_uris": {"ios": "https://dc.lft.to/lastmile_qr_scan", "android": "https://dc.lft.to/lastmile_qr_scan"}, "is_reserved": 0}, {"lon": -76.95233983333333, "bike_id": "aa494c9c3ba61cf1139aceac525fa653", "lat": 38.89098416666667, "fusion_lon": 0.0, "fusion_lat": 0.0, "type": "electric_scooter", "name": "aa494c9c3ba61cf1139aceac525fa653", "is_disabled": 0, "rental_uris": {"ios": "https://dc.lft.to/lastmile_qr_scan", "android": "https://dc.lft.to/lastmile_qr_scan"}, "is_reserved": 0}, {"lon": -77.08812616666667, "bike_id": "1b1fa7a14b4d0b84d94f9214f3ab8395", "lat": 38.911759833333335, "fusion_lon": 0.0, "fusion_lat": 0.0, "type": "electric_bike", "name": "1b1fa7a14b4d0b84d94f9214f3ab8395", "is_disabled": 0, "rental_uris": {"ios": "https://dc.lft.to/lastmile_qr_scan", "android": "https://dc.lft.to/lastmile_qr_scan"}, "is_reserved": 0}, {"lon": -77.03926683333333, "bike_id": "7ab3fb6a50faaf73b8e351b8d02a62df", "lat": 38.9279965, "fusion_lon": 0.0, "fusion_lat": 0.0, "type": "electric_scooter", "name": "7ab3fb6a50faaf73b8e351b8d02a62df", "is_disabled": 0, "rental_uris": {"ios": "https://dc.lft.to/lastmile_qr_scan", "android": "https://dc.lft.to/lastmile_qr_scan"}, "is_reserved": 0}, {"lon": -77.01865383333333, "bike_id": "5f8360f9196c0373584994cb7f5dce72", "lat": 38.95149983333334, "fusion_lon": 0.0, "fusion_lat": 0.0, "type": "electric_scooter", "name": "5f8360f9196c0373584994cb7f5dce72", "is_disabled": 0, "rental_uris": {"ios": "https://dc.lft.to/lastmile_qr_scan", "android": "https://dc.lft.to/lastmile_qr_scan"}, "is_reserved": 0}, {"lon": -76.997794, "bike_id": "d289ad43124bb805ed5b4bebd53929db", "lat": 38.844254166666666, "fusion_lon": 0.0, "fusion_lat": 0.0, "type": "electric_scooter", "name": "d289ad43124bb805ed5b4bebd53929db", "is_disabled": 0, "rental_uris": {"ios": "https://dc.lft.to/lastmile_qr_scan", "android": "https://dc.lft.to/lastmile_qr_scan"}, "is_reserved": 0}, {"lon": -76.991032, "bike_id": "f1c3d5674d2a1045c53f4cdd6ff69612", "lat": 38.903166666666664, "fusion_lon": 0.0, "fusion_lat": 0.0, "type": "electric_scooter", "name": "f1c3d5674d2a1045c53f4cdd6ff69612", "is_disabled": 0, "rental_uris": {"ios": "https://dc.lft.to/lastmile_qr_scan", "android": "https://dc.lft.to/lastmile_qr_scan"}, "is_reserved": 0}, {"lon": -77.063283, "bike_id": "58d170a4eb4fab861359985290d8a584", "lat": 38.907659333333335, "fusion_lon": 0.0, "fusion_lat": 0.0, "type": "electric_scooter", "name": "58d170a4eb4fab861359985290d8a584", "is_disabled": 0, "rental_uris": {"ios": "https://dc.lft.to/lastmile_qr_scan", "android": "https://dc.lft.to/lastmile_qr_scan"}, "is_reserved": 0}, {"lon": -77.02194816666666, "bike_id": "378e6778cb1e4a1f74462d65ddcb43ee", "lat": 38.91054833333333, "fusion_lon": 0.0, "fusion_lat": 0.0, "type": "electric_scooter", "name": "378e6778cb1e4a1f74462d65ddcb43ee", "is_disabled": 0, "rental_uris": {"ios": "https://dc.lft.to/lastmile_qr_scan", "android": "https://dc.lft.to/lastmile_qr_scan"}, "is_reserved": 0}, {"lon": -77.012396, "bike_id": "bc431efb3195014c997103c2a853fa0b", "lat": 38.892938, "fusion_lon": 0.0, "fusion_lat": 0.0, "type": "electric_scooter", "name": "bc431efb3195014c997103c2a853fa0b", "is_disabled": 0, "rental_uris": {"ios": "https://dc.lft.to/lastmile_qr_scan", "android": "https://dc.lft.to/lastmile_qr_scan"}, "is_reserved": 0}, {"lon": -77.04679316666666, "bike_id": "590d6177ef8e30caa76692ae13973c00", "lat": 38.897398333333335, "fusion_lon": 0.0, "fusion_lat": 0.0, "type": "electric_scooter", "name": "590d6177ef8e30caa76692ae13973c00", "is_disabled": 0, "rental_uris": {"ios": "https://dc.lft.to/lastmile_qr_scan", "android": "https://dc.lft.to/lastmile_qr_scan"}, "is_reserved": 0}, {"lon": -77.0414175, "bike_id": "1f60321e20f321ca08e526da7ead6e76", "lat": 38.92262483333333, "fusion_lon": 0.0, "fusion_lat": 0.0, "type": "electric_scooter", "name": "1f60321e20f321ca08e526da7ead6e76", "is_disabled": 0, "rental_uris": {"ios": "https://dc.lft.to/lastmile_qr_scan", "android": "https://dc.lft.to/lastmile_qr_scan"}, "is_reserved": 0}, {"lon": -77.01629833333334, "bike_id": "f769302e6b46cb66fea7b13ff58a9564", "lat": 38.9056885, "fusion_lon": 0.0, "fusion_lat": 0.0, "type": "electric_scooter", "name": "f769302e6b46cb66fea7b13ff58a9564", "is_disabled": 0, "rental_uris": {"ios": "https://dc.lft.to/lastmile_qr_scan", "android": "https://dc.lft.to/lastmile_qr_scan"}, "is_reserved": 0}, {"lon": -77.03177983333333, "bike_id": "8ea5130effcda45ace07f38111ad1ba0", "lat": 38.892210666666664, "fusion_lon": 0.0, "fusion_lat": 0.0, "type": "electric_scooter", "name": "8ea5130effcda45ace07f38111ad1ba0", "is_disabled": 0, "rental_uris": {"ios": "https://dc.lft.to/lastmile_qr_scan", "android": "https://dc.lft.to/lastmile_qr_scan"}, "is_reserved": 0}, {"lon": -77.032593, "bike_id": "bc1a7f927e31cd13de02d7a0f2e32f15", "lat": 38.909621, "fusion_lon": 0.0, "fusion_lat": 0.0, "type": "electric_scooter", "name": "bc1a7f927e31cd13de02d7a0f2e32f15", "is_disabled": 0, "rental_uris": {"ios": "https://dc.lft.to/lastmile_qr_scan", "android": "https://dc.lft.to/lastmile_qr_scan"}, "is_reserved": 0}, {"lon": -76.99146466666667, "bike_id": "876b0b34040e159e8bb757eb69b50ccf", "lat": 38.8897305, "fusion_lon": 0.0, "fusion_lat": 0.0, "type": "electric_scooter", "name": "876b0b34040e159e8bb757eb69b50ccf", "is_disabled": 0, "rental_uris": {"ios": "https://dc.lft.to/lastmile_qr_scan", "android": "https://dc.lft.to/lastmile_qr_scan"}, "is_reserved": 0}, {"lon": -77.02764183333333, "bike_id": "169ffb50bc59837edd6091f515580eef", "lat": 38.93460233333333, "fusion_lon": 0.0, "fusion_lat": 0.0, "type": "electric_scooter", "name": "169ffb50bc59837edd6091f515580eef", "is_disabled": 0, "rental_uris": {"ios": "https://dc.lft.to/lastmile_qr_scan", "android": "https://dc.lft.to/lastmile_qr_scan"}, "is_reserved": 0}, {"lon": -77.031264, "bike_id": "7e9bb6a9771950f51987af129881a0ef", "lat": 38.91491216666667, "fusion_lon": 0.0, "fusion_lat": 0.0, "type": "electric_scooter", "name": "7e9bb6a9771950f51987af129881a0ef", "is_disabled": 0, "rental_uris": {"ios": "https://dc.lft.to/lastmile_qr_scan", "android": "https://dc.lft.to/lastmile_qr_scan"}, "is_reserved": 0}, {"lon": -77.10124416666666, "bike_id": "e26d15239ac107476e91355151d3481e", "lat": 38.85206216666667, "fusion_lon": 0.0, "fusion_lat": 0.0, "type": "electric_bike", "name": "e26d15239ac107476e91355151d3481e", "is_disabled": 0, "rental_uris": {"ios": "https://dc.lft.to/lastmile_qr_scan", "android": "https://dc.lft.to/lastmile_qr_scan"}, "is_reserved": 0}, {"lon": -77.04864483333333, "bike_id": "63d22e8c5d2fc8b9400d37f09b4d0491", "lat": 38.909577, "fusion_lon": 0.0, "fusion_lat": 0.0, "type": "electric_scooter", "name": "63d22e8c5d2fc8b9400d37f09b4d0491", "is_disabled": 0, "rental_uris": {"ios": "https://dc.lft.to/lastmile_qr_scan", "android": "https://dc.lft.to/lastmile_qr_scan"}, "is_reserved": 0}, {"lon": -77.03912633333333, "bike_id": "04b46ba2b4f53b82d27afc4851526205", "lat": 38.92575, "fusion_lon": 0.0, "fusion_lat": 0.0, "type": "electric_scooter", "name": "04b46ba2b4f53b82d27afc4851526205", "is_disabled": 0, "rental_uris": {"ios": "https://dc.lft.to/lastmile_qr_scan", "android": "https://dc.lft.to/lastmile_qr_scan"}, "is_reserved": 0}, {"lon": -77.0868215, "bike_id": "99f8d23cf23f07778fd08ce39495db30", "lat": 38.873947666666666, "fusion_lon": 0.0, "fusion_lat": 0.0, "type": "electric_bike", "name": "99f8d23cf23f07778fd08ce39495db30", "is_disabled": 0, "rental_uris": {"ios": "https://dc.lft.to/lastmile_qr_scan", "android": "https://dc.lft.to/lastmile_qr_scan"}, "is_reserved": 0}, {"lon": -76.95756366666667, "bike_id": "8cb4d03cd3a6dd12fc30122ba47c153f", "lat": 38.88432533333334, "fusion_lon": 0.0, "fusion_lat": 0.0, "type": "electric_scooter", "name": "8cb4d03cd3a6dd12fc30122ba47c153f", "is_disabled": 0, "rental_uris": {"ios": "https://dc.lft.to/lastmile_qr_scan", "android": "https://dc.lft.to/lastmile_qr_scan"}, "is_reserved": 0}, {"lon": -77.02508616666667, "bike_id": "bfac99703854c62c2f7427e6e1e32ef0", "lat": 38.926427333333336, "fusion_lon": 0.0, "fusion_lat": 0.0, "type": "electric_scooter", "name": "bfac99703854c62c2f7427e6e1e32ef0", "is_disabled": 0, "rental_uris": {"ios": "https://dc.lft.to/lastmile_qr_scan", "android": "https://dc.lft.to/lastmile_qr_scan"}, "is_reserved": 0}, {"lon": -77.015164, "bike_id": "712231222629293e935e8b5c61c64e47", "lat": 38.9267125, "fusion_lon": 0.0, "fusion_lat": 0.0, "type": "electric_bike", "name": "712231222629293e935e8b5c61c64e47", "is_disabled": 0, "rental_uris": {"ios": "https://dc.lft.to/lastmile_qr_scan", "android": "https://dc.lft.to/lastmile_qr_scan"}, "is_reserved": 0}, {"lon": -77.02839583333333, "bike_id": "3079afcbee2755c05ec2a764056f66be", "lat": 38.92576833333333, "fusion_lon": 0.0, "fusion_lat": 0.0, "type": "electric_scooter", "name": "3079afcbee2755c05ec2a764056f66be", "is_disabled": 0, "rental_uris": {"ios": "https://dc.lft.to/lastmile_qr_scan", "android": "https://dc.lft.to/lastmile_qr_scan"}, "is_reserved": 0}, {"lon": -77.060195, "bike_id": "cd0f4728e686f492c58181db164bba7d", "lat": 38.905002, "fusion_lon": 0.0, "fusion_lat": 0.0, "type": "electric_scooter", "name": "cd0f4728e686f492c58181db164bba7d", "is_disabled": 0, "rental_uris": {"ios": "https://dc.lft.to/lastmile_qr_scan", "android": "https://dc.lft.to/lastmile_qr_scan"}, "is_reserved": 0}, {"lon": -77.00752883333334, "bike_id": "c199bc022f33a3ea08cb3c27b9319597", "lat": 38.870993666666664, "fusion_lon": 0.0, "fusion_lat": 0.0, "type": "electric_scooter", "name": "c199bc022f33a3ea08cb3c27b9319597", "is_disabled": 0, "rental_uris": {"ios": "https://dc.lft.to/lastmile_qr_scan", "android": "https://dc.lft.to/lastmile_qr_scan"}, "is_reserved": 0}, {"lon": -76.94635583333333, "bike_id": "4269acfb48db3432429042abb00545a6", "lat": 38.898323166666664, "fusion_lon": 0.0, "fusion_lat": 0.0, "type": "electric_scooter", "name": "4269acfb48db3432429042abb00545a6", "is_disabled": 0, "rental_uris": {"ios": "https://dc.lft.to/lastmile_qr_scan", "android": "https://dc.lft.to/lastmile_qr_scan"}, "is_reserved": 0}, {"lon": -77.04036583333334, "bike_id": "a4750bf49c00871e4f4a7490d99c1d20", "lat": 38.924048, "fusion_lon": 0.0, "fusion_lat": 0.0, "type": "electric_scooter", "name": "a4750bf49c00871e4f4a7490d99c1d20", "is_disabled": 0, "rental_uris": {"ios": "https://dc.lft.to/lastmile_qr_scan", "android": "https://dc.lft.to/lastmile_qr_scan"}, "is_reserved": 0}, {"lon": -77.02256716666666, "bike_id": "3e9598b4d80f9eaca9de898bb1ba1bdf", "lat": 38.92895733333334, "fusion_lon": 0.0, "fusion_lat": 0.0, "type": "electric_scooter", "name": "3e9598b4d80f9eaca9de898bb1ba1bdf", "is_disabled": 0, "rental_uris": {"ios": "https://dc.lft.to/lastmile_qr_scan", "android": "https://dc.lft.to/lastmile_qr_scan"}, "is_reserved": 0}, {"lon": -77.02162433333334, "bike_id": "dd13b19b953cbd8d0cfeb87f47c4c0ad", "lat": 38.92600016666667, "fusion_lon": 0.0, "fusion_lat": 0.0, "type": "electric_scooter", "name": "dd13b19b953cbd8d0cfeb87f47c4c0ad", "is_disabled": 0, "rental_uris": {"ios": "https://dc.lft.to/lastmile_qr_scan", "android": "https://dc.lft.to/lastmile_qr_scan"}, "is_reserved": 0}, {"lon": -77.02143116666667, "bike_id": "fd8c47b1b5ed17daf72ceed99d569dc2", "lat": 38.902691833333336, "fusion_lon": 0.0, "fusion_lat": 0.0, "type": "electric_scooter", "name": "fd8c47b1b5ed17daf72ceed99d569dc2", "is_disabled": 0, "rental_uris": {"ios": "https://dc.lft.to/lastmile_qr_scan", "android": "https://dc.lft.to/lastmile_qr_scan"}, "is_reserved": 0}, {"lon": -77.0216385, "bike_id": "37d5a6704a961e6ab0ab3894d996f5e1", "lat": 38.89490766666667, "fusion_lon": 0.0, "fusion_lat": 0.0, "type": "electric_scooter", "name": "37d5a6704a961e6ab0ab3894d996f5e1", "is_disabled": 0, "rental_uris": {"ios": "https://dc.lft.to/lastmile_qr_scan", "android": "https://dc.lft.to/lastmile_qr_scan"}, "is_reserved": 0}, {"lon": -76.9653105, "bike_id": "02f2dd79a0588db5073edda4ac2ec4ab", "lat": 38.874804833333336, "fusion_lon": 0.0, "fusion_lat": 0.0, "type": "electric_scooter", "name": "02f2dd79a0588db5073edda4ac2ec4ab", "is_disabled": 0, "rental_uris": {"ios": "https://dc.lft.to/lastmile_qr_scan", "android": "https://dc.lft.to/lastmile_qr_scan"}, "is_reserved": 0}, {"lon": -77.07224566666666, "bike_id": "78c437675a2c1176b74e0b7e35ddbe65", "lat": 38.92265116666667, "fusion_lon": 0.0, "fusion_lat": 0.0, "type": "electric_scooter", "name": "78c437675a2c1176b74e0b7e35ddbe65", "is_disabled": 0, "rental_uris": {"ios": "https://dc.lft.to/lastmile_qr_scan", "android": "https://dc.lft.to/lastmile_qr_scan"}, "is_reserved": 0}, {"lon": -77.04004083333334, "bike_id": "3de99e04e91dd0300dab0466a362e177", "lat": 38.903708333333334, "fusion_lon": 0.0, "fusion_lat": 0.0, "type": "electric_scooter", "name": "3de99e04e91dd0300dab0466a362e177", "is_disabled": 0, "rental_uris": {"ios": "https://dc.lft.to/lastmile_qr_scan", "android": "https://dc.lft.to/lastmile_qr_scan"}, "is_reserved": 0}, {"lon": -77.0431895, "bike_id": "a63b2f2c0b477b1f1aefb0aa77039e44", "lat": 38.90356716666667, "fusion_lon": 0.0, "fusion_lat": 0.0, "type": "electric_scooter", "name": "a63b2f2c0b477b1f1aefb0aa77039e44", "is_disabled": 0, "rental_uris": {"ios": "https://dc.lft.to/lastmile_qr_scan", "android": "https://dc.lft.to/lastmile_qr_scan"}, "is_reserved": 0}, {"lon": -77.03940566666667, "bike_id": "cb1aaf46f3fdd3f18308dd3b6e48a1d3", "lat": 38.899689, "fusion_lon": 0.0, "fusion_lat": 0.0, "type": "electric_scooter", "name": "cb1aaf46f3fdd3f18308dd3b6e48a1d3", "is_disabled": 0, "rental_uris": {"ios": "https://dc.lft.to/lastmile_qr_scan", "android": "https://dc.lft.to/lastmile_qr_scan"}, "is_reserved": 0}, {"lon": -77.024217, "bike_id": "8ee748258c552948c71ab80cbdb84f7f", "lat": 38.920525166666664, "fusion_lon": 0.0, "fusion_lat": 0.0, "type": "electric_scooter", "name": "8ee748258c552948c71ab80cbdb84f7f", "is_disabled": 0, "rental_uris": {"ios": "https://dc.lft.to/lastmile_qr_scan", "android": "https://dc.lft.to/lastmile_qr_scan"}, "is_reserved": 0}, {"lon": -77.0255945, "bike_id": "11d275fb30ce283104674f74c47645db", "lat": 38.93352933333333, "fusion_lon": 0.0, "fusion_lat": 0.0, "type": "electric_scooter", "name": "11d275fb30ce283104674f74c47645db", "is_disabled": 0, "rental_uris": {"ios": "https://dc.lft.to/lastmile_qr_scan", "android": "https://dc.lft.to/lastmile_qr_scan"}, "is_reserved": 0}, {"lon": -77.061045, "bike_id": "0df6175c3dd73ece1726168f7492cf62", "lat": 38.937056, "fusion_lon": 0.0, "fusion_lat": 0.0, "type": "electric_scooter", "name": "0df6175c3dd73ece1726168f7492cf62", "is_disabled": 0, "rental_uris": {"ios": "https://dc.lft.to/lastmile_qr_scan", "android": "https://dc.lft.to/lastmile_qr_scan"}, "is_reserved": 0}, {"lon": -77.0426595, "bike_id": "c1a53e893cf878a3dac9f90c199ff23d", "lat": 38.900152166666665, "fusion_lon": 0.0, "fusion_lat": 0.0, "type": "electric_scooter", "name": "c1a53e893cf878a3dac9f90c199ff23d", "is_disabled": 0, "rental_uris": {"ios": "https://dc.lft.to/lastmile_qr_scan", "android": "https://dc.lft.to/lastmile_qr_scan"}, "is_reserved": 0}, {"lon": -77.03765616666666, "bike_id": "450ee9f5297b6ccd748e50990457e9c2", "lat": 38.92473483333333, "fusion_lon": 0.0, "fusion_lat": 0.0, "type": "electric_scooter", "name": "450ee9f5297b6ccd748e50990457e9c2", "is_disabled": 0, "rental_uris": {"ios": "https://dc.lft.to/lastmile_qr_scan", "android": "https://dc.lft.to/lastmile_qr_scan"}, "is_reserved": 0}, {"lon": -77.0692215, "bike_id": "772f7f0247281ab1e2023ca349828833", "lat": 38.95555016666667, "fusion_lon": 0.0, "fusion_lat": 0.0, "type": "electric_bike", "name": "772f7f0247281ab1e2023ca349828833", "is_disabled": 0, "rental_uris": {"ios": "https://dc.lft.to/lastmile_qr_scan", "android": "https://dc.lft.to/lastmile_qr_scan"}, "is_reserved": 0}, {"lon": -77.04036116666667, "bike_id": "c6e4335728743a25efdb411497686119", "lat": 38.92567416666667, "fusion_lon": 0.0, "fusion_lat": 0.0, "type": "electric_scooter", "name": "c6e4335728743a25efdb411497686119", "is_disabled": 0, "rental_uris": {"ios": "https://dc.lft.to/lastmile_qr_scan", "android": "https://dc.lft.to/lastmile_qr_scan"}, "is_reserved": 0}, {"lon": -76.948851, "bike_id": "11131c999d4bd228688970147d26a6f7", "lat": 38.895116, "fusion_lon": 0.0, "fusion_lat": 0.0, "type": "electric_scooter", "name": "11131c999d4bd228688970147d26a6f7", "is_disabled": 0, "rental_uris": {"ios": "https://dc.lft.to/lastmile_qr_scan", "android": "https://dc.lft.to/lastmile_qr_scan"}, "is_reserved": 0}, {"lon": -77.0317515, "bike_id": "d92c8d2cca9b39db734b0db41e222b61", "lat": 38.91277016666667, "fusion_lon": 0.0, "fusion_lat": 0.0, "type": "electric_scooter", "name": "d92c8d2cca9b39db734b0db41e222b61", "is_disabled": 0, "rental_uris": {"ios": "https://dc.lft.to/lastmile_qr_scan", "android": "https://dc.lft.to/lastmile_qr_scan"}, "is_reserved": 0}, {"lon": -77.04356, "bike_id": "87e97c37b7c057db4e012f05118aae2b", "lat": 38.910364, "fusion_lon": 0.0, "fusion_lat": 0.0, "type": "electric_scooter", "name": "87e97c37b7c057db4e012f05118aae2b", "is_disabled": 0, "rental_uris": {"ios": "https://dc.lft.to/lastmile_qr_scan", "android": "https://dc.lft.to/lastmile_qr_scan"}, "is_reserved": 0}, {"lon": -77.03407716666666, "bike_id": "9f2080618be3a15296e26319b1d190d1", "lat": 38.934186833333335, "fusion_lon": 0.0, "fusion_lat": 0.0, "type": "electric_scooter", "name": "9f2080618be3a15296e26319b1d190d1", "is_disabled": 0, "rental_uris": {"ios": "https://dc.lft.to/lastmile_qr_scan", "android": "https://dc.lft.to/lastmile_qr_scan"}, "is_reserved": 0}, {"lon": -77.03648016666666, "bike_id": "c0c73de5fdbf76b1eecfed43471bffd2", "lat": 38.90467316666667, "fusion_lon": 0.0, "fusion_lat": 0.0, "type": "electric_scooter", "name": "c0c73de5fdbf76b1eecfed43471bffd2", "is_disabled": 0, "rental_uris": {"ios": "https://dc.lft.to/lastmile_qr_scan", "android": "https://dc.lft.to/lastmile_qr_scan"}, "is_reserved": 0}, {"lon": -77.04636866666667, "bike_id": "fd6c4bcbf0da9c99be3c099556a94434", "lat": 38.921169666666664, "fusion_lon": 0.0, "fusion_lat": 0.0, "type": "electric_scooter", "name": "fd6c4bcbf0da9c99be3c099556a94434", "is_disabled": 0, "rental_uris": {"ios": "https://dc.lft.to/lastmile_qr_scan", "android": "https://dc.lft.to/lastmile_qr_scan"}, "is_reserved": 0}, {"lon": -77.04127933333334, "bike_id": "d67c8f605fab41da9039e6b67ec1e7f5", "lat": 38.92303716666667, "fusion_lon": 0.0, "fusion_lat": 0.0, "type": "electric_scooter", "name": "d67c8f605fab41da9039e6b67ec1e7f5", "is_disabled": 0, "rental_uris": {"ios": "https://dc.lft.to/lastmile_qr_scan", "android": "https://dc.lft.to/lastmile_qr_scan"}, "is_reserved": 0}, {"lon": -76.99952016666667, "bike_id": "c3ef6f1f819ecc0790a5288aa4b416e6", "lat": 38.908356166666664, "fusion_lon": 0.0, "fusion_lat": 0.0, "type": "electric_scooter", "name": "c3ef6f1f819ecc0790a5288aa4b416e6", "is_disabled": 0, "rental_uris": {"ios": "https://dc.lft.to/lastmile_qr_scan", "android": "https://dc.lft.to/lastmile_qr_scan"}, "is_reserved": 0}, {"lon": -77.05908633333334, "bike_id": "a151490d5bf83527fb4a3af0309106e6", "lat": 38.9362505, "fusion_lon": 0.0, "fusion_lat": 0.0, "type": "electric_scooter", "name": "a151490d5bf83527fb4a3af0309106e6", "is_disabled": 0, "rental_uris": {"ios": "https://dc.lft.to/lastmile_qr_scan", "android": "https://dc.lft.to/lastmile_qr_scan"}, "is_reserved": 0}, {"lon": -77.03828433333334, "bike_id": "5ef4a15f631656043fbc5cae21a4f6ce", "lat": 38.906764333333335, "fusion_lon": 0.0, "fusion_lat": 0.0, "type": "electric_scooter", "name": "5ef4a15f631656043fbc5cae21a4f6ce", "is_disabled": 0, "rental_uris": {"ios": "https://dc.lft.to/lastmile_qr_scan", "android": "https://dc.lft.to/lastmile_qr_scan"}, "is_reserved": 0}, {"lon": -77.03075, "bike_id": "98442f23550ab9fc225d488b28f80b37", "lat": 38.90286583333334, "fusion_lon": 0.0, "fusion_lat": 0.0, "type": "electric_scooter", "name": "98442f23550ab9fc225d488b28f80b37", "is_disabled": 0, "rental_uris": {"ios": "https://dc.lft.to/lastmile_qr_scan", "android": "https://dc.lft.to/lastmile_qr_scan"}, "is_reserved": 0}, {"lon": -77.03408183333333, "bike_id": "76bbe8a568f100184a61603ca6e880ae", "lat": 38.92317933333333, "fusion_lon": 0.0, "fusion_lat": 0.0, "type": "electric_scooter", "name": "76bbe8a568f100184a61603ca6e880ae", "is_disabled": 0, "rental_uris": {"ios": "https://dc.lft.to/lastmile_qr_scan", "android": "https://dc.lft.to/lastmile_qr_scan"}, "is_reserved": 0}, {"lon": -77.02389533333333, "bike_id": "971f86a5381fb8860e17ad4d31d02047", "lat": 38.919853333333336, "fusion_lon": 0.0, "fusion_lat": 0.0, "type": "electric_scooter", "name": "971f86a5381fb8860e17ad4d31d02047", "is_disabled": 0, "rental_uris": {"ios": "https://dc.lft.to/lastmile_qr_scan", "android": "https://dc.lft.to/lastmile_qr_scan"}, "is_reserved": 0}, {"lon": -77.03378933333333, "bike_id": "08f1a96f0a97837109293a6774c39ed0", "lat": 38.909720666666665, "fusion_lon": 0.0, "fusion_lat": 0.0, "type": "electric_scooter", "name": "08f1a96f0a97837109293a6774c39ed0", "is_disabled": 0, "rental_uris": {"ios": "https://dc.lft.to/lastmile_qr_scan", "android": "https://dc.lft.to/lastmile_qr_scan"}, "is_reserved": 0}, {"lon": -77.05263933333333, "bike_id": "3d6f0468d0426196a059ccf44c4ca444", "lat": 38.927755166666664, "fusion_lon": 0.0, "fusion_lat": 0.0, "type": "electric_scooter", "name": "3d6f0468d0426196a059ccf44c4ca444", "is_disabled": 0, "rental_uris": {"ios": "https://dc.lft.to/lastmile_qr_scan", "android": "https://dc.lft.to/lastmile_qr_scan"}, "is_reserved": 0},