{"data": {"bikes": [{"fusion_lon": 0.0, "name": "9a2f34330fff7e4642ddee1e2f488f87", "rental_uris": {"android": "https://dc.lft.to/lastmile_qr_scan", "ios": "https://dc.lft.to/lastmile_qr_scan"}, "lat": 38.900312, "bike_id": "9a2f34330fff7e4642ddee1e2f488f87", "is_disabled": 0, "lon": -77.01200066666667, "is_reserved": 0, "fusion_lat": 0.0, "type": "electric_scooter"}, {"fusion_lon": 0.0, "name": "96b186fae2fda544b588647c1b09ead0", "rental_uris": {"android": "https://dc.lft.to/lastmile_qr_scan", "ios": "https://dc.lft.to/lastmile_qr_scan"}, "lat": 38.880457, "bike_id": "96b186fae2fda544b588647c1b09ead0", "is_disabled": 0, "lon": -77.01175766666667, "is_reserved": 0, "fusion_lat": 0.0, "type": "electric_scooter"}, {"fusion_lon": 0.0, "name": "ebc5acac4eea78570668c6def2848918", "rental_uris": {"android": "https://dc.lft.to/lastmile_qr_scan", "ios": "https://dc.lft.to/lastmile_qr_scan"}, "lat": 38.923829166666664, "bike_id": "ebc5acac4eea78570668c6def2848918", "is_disabled": 0, "lon": -77.0305285, "is_reserved": 0, "fusion_lat": 0.0, "type": "electric_scooter"}, {"fusion_lon": 0.0, "name": "84a82298f4b9232ca492c42c6ec0bc41", "rental_uris": {"android": "https://dc.lft.to/lastmile_qr_scan", "ios": "https://dc.lft.to/lastmile_qr_scan"}, "lat": 38.905780166666666, "bike_id": "84a82298f4b9232ca492c42c6ec0bc41", "is_disabled": 0, "lon": -77.03474633333333, "is_reserved": 0, "fusion_lat": 0.0, "type": "electric_scooter"}, {"fusion_lon": 0.0, "name": "2e20d37700b3c8e1dedcdd2a549f6c85", "rental_uris": {"android": "https://dc.lft.to/lastmile_qr_scan", "ios": "https://dc.lft.to/lastmile_qr_scan"}, "lat": 38.89987516666667, "bike_id": "2e20d37700b3c8e1dedcdd2a549f6c85", "is_disabled": 0, "lon": -77.0220785, "is_reserved": 0, "fusion_lat": 0.0, "type": "electric_scooter"}, {"fusion_lon": 0.0, "name": "af5c92b8b685f2d10c50e95c9839d4bc", "rental_uris": {"android": "https://dc.lft.to/lastmile_qr_scan", "ios": "https://dc.lft.to/lastmile_qr_scan"}, "lat": 38.915775, "bike_id": "af5c92b8b685f2d10c50e95c9839d4bc", "is_disabled": 0, "lon": -77.0503025, "is_reserved": 0, "fusion_lat": 0.0, "type": "electric_scooter"}, {"fusion_lon": 0.0, "name": "b4855c346026df22221297d6a9e310ab", "rental_uris": {"android": "https://dc.lft.to/lastmile_qr_scan", "ios": "https://dc.lft.to/lastmile_qr_scan"}, "lat": 38.910246666666666, "bike_id": "b4855c346026df22221297d6a9e310ab", "is_disabled": 0, "lon": -77.04155016666667, "is_reserved": 0, "fusion_lat": 0.0, "type": "electric_scooter"}, {"fusion_lon": 0.0, "name": "9154fbebfbf962dd619d86063d83d320", "rental_uris": {"android": "https://dc.lft.to/lastmile_qr_scan", "ios": "https://dc.lft.to/lastmile_qr_scan"}, "lat": 38.925680666666665, "bike_id": "9154fbebfbf962dd619d86063d83d320", "is_disabled": 0, "lon": -76.99956583333334, "is_reserved": 0, "fusion_lat": 0.0, "type": "electric_scooter"}, {"fusion_lon": 0.0, "name": "a78bb4ef0e519eda2acda9fc513c7a2e", "rental_uris": {"android": "https://dc.lft.to/lastmile_qr_scan", "ios": "https://dc.lft.to/lastmile_qr_scan"}, "lat": 38.89626033333333, "bike_id": "a78bb4ef0e519eda2acda9fc513c7a2e", "is_disabled": 0, "lon": -77.03215266666666, "is_reserved": 0, "fusion_lat": 0.0, "type": "electric_scooter"}, {"fusion_lon": 0.0, "name": "84e3730f54165623fefa064d2b54bc8a", "rental_uris": {"android": "https://dc.lft.to/lastmile_qr_scan", "ios": "https://dc.lft.to/lastmile_qr_scan"}, "lat": 38.92429966666667, "bike_id": "84e3730f54165623fefa064d2b54bc8a", "is_disabled": 0, "lon": -77.03773583333333, "is_reserved": 0, "fusion_lat": 0.0, "type": "electric_scooter"}, {"fusion_lon": 0.0, "name": "7d0e6605aa2f4cc84fb02e4172786035", "rental_uris": {"android": "https://dc.lft.to/lastmile_qr_scan", "ios": "https://dc.lft.to/lastmile_qr_scan"}, "lat": 38.8824425, "bike_id": "7d0e6605aa2f4cc84fb02e4172786035", "is_disabled": 0, "lon": -77.02586566666666, "is_reserved": 0, "fusion_lat": 0.0, "type": "electric_scooter"}, {"fusion_lon": 0.0, "name": "c7f47fe0c9f059f2dfabf3ce72bf8db5", "rental_uris": {"android": "https://dc.lft.to/lastmile_qr_scan", "ios": "https://dc.lft.to/lastmile_qr_scan"}, "lat": 38.90600533333333, "bike_id": "c7f47fe0c9f059f2dfabf3ce72bf8db5", "is_disabled": 0, "lon": -77.12882016666667, "is_reserved": 0, "fusion_lat": 0.0, "type": "electric_bike"}, {"fusion_lon": 0.0, "name": "8e3ead50e7ec43bd65b1cbc73d11dcdc", "rental_uris": {"android": "https://dc.lft.to/lastmile_qr_scan", "ios": "https://dc.lft.to/lastmile_qr_scan"}, "lat": 38.900624, "bike_id": "8e3ead50e7ec43bd65b1cbc73d11dcdc", "is_disabled": 0, "lon": -76.98703833333333, "is_reserved": 0, "fusion_lat": 0.0, "type": "electric_scooter"}, {"fusion_lon": 0.0, "name": "43811517d3fdd41925f564f0dc75d985", "rental_uris": {"android": "https://dc.lft.to/lastmile_qr_scan", "ios": "https://dc.lft.to/lastmile_qr_scan"}, "lat": 38.86246916666666, "bike_id": "43811517d3fdd41925f564f0dc75d985", "is_disabled": 0, "lon": -76.9950105, "is_reserved": 0, "fusion_lat": 0.0, "type": "electric_scooter"}, {"fusion_lon": 0.0, "name": "3b2e4f10650640ca8e3ef09fd063abe8", "rental_uris": {"android": "https://dc.lft.to/lastmile_qr_scan", "ios": "https://dc.lft.to/lastmile_qr_scan"}, "lat": 38.899606666666664, "bike_id": "3b2e4f10650640ca8e3ef09fd063abe8", "is_disabled": 0, "lon": -77.050256, "is_reserved": 0, "fusion_lat": 0.0, "type": "electric_scooter"}, {"fusion_lon": 0.0, "name": "9846afd6275c6fadbbbd473de5d73458", "rental_uris": {"android": "https://dc.lft.to/lastmile_qr_scan", "ios": "https://dc.lft.to/lastmile_qr_scan"}, "lat": 38.92605233333333, "bike_id": "9846afd6275c6fadbbbd473de5d73458", "is_disabled": 0, "lon": -77.0243705, "is_reserved": 0, "fusion_lat": 0.0, "type": "electric_bike"}, {"fusion_lon": 0.0, "name": "98582957c73a90b2109bdf0d540749ab", "rental_uris": {"android": "https://dc.lft.to/lastmile_qr_scan", "ios": "https://dc.lft.to/lastmile_qr_scan"}, "lat": 38.898839333333335, "bike_id": "98582957c73a90b2109bdf0d540749ab", "is_disabled": 0, "lon": -76.98836883333334, "is_reserved": 0, "fusion_lat": 0.0, "type": "electric_scooter"}, {"fusion_lon": 0.0, "name": "145d7ba30e8a4fe6122b27ee2460b1ef", "rental_uris": {"android": "https://dc.lft.to/lastmile_qr_scan", "ios": "https://dc.lft.to/lastmile_qr_scan"}, "lat": 38.923300833333336, "bike_id": "145d7ba30e8a4fe6122b27ee2460b1ef", "is_disabled": 0, "lon": -77.019587, "is_reserved": 0, "fusion_lat": 0.0, "type": "electric_scooter"}, {"fusion_lon": 0.0, "name": "f2c967aee20dc45e6be4fc183b65cf4a", "rental_uris": {"android": "https://dc.lft.to/lastmile_qr_scan", "ios": "https://dc.lft.to/lastmile_qr_scan"}, "lat": 38.93636816666667, "bike_id": "f2c967aee20dc45e6be4fc183b65cf4a", "is_disabled": 0, "lon": -77.03667766666666, "is_reserved": 0, "fusion_lat": 0.0, "type": "electric_scooter"}, {"fusion_lon": 0.0, "name": "2f41ccc76b55b735e0a30c94ff8cbac7", "rental_uris": {"android": "https://dc.lft.to/lastmile_qr_scan", "ios": "https://dc.lft.to/lastmile_qr_scan"}, "lat": 38.89709766666667, "bike_id": "2f41ccc76b55b735e0a30c94ff8cbac7", "is_disabled": 0, "lon": -76.99116316666667, "is_reserved": 0, "fusion_lat": 0.0, "type": "electric_scooter"}, {"fusion_lon": 0.0, "name": "7370b99676a950f5a963cd10043bdd17", "rental_uris": {"android": "https://dc.lft.to/lastmile_qr_scan", "ios": "https://dc.lft.to/lastmile_qr_scan"}, "lat": 38.9264085, "bike_id": "7370b99676a950f5a963cd10043bdd17", "is_disabled": 0, "lon": -77.02508333333333, "is_reserved": 0, "fusion_lat": 0.0, "type": "electric_scooter"}, {"fusion_lon": 0.0, "name": "fca8cb1cd946606fdd1a319ffccd4183", "rental_uris": {"android": "https://dc.lft.to/lastmile_qr_scan", "ios": "https://dc.lft.to/lastmile_qr_scan"}, "lat": 38.8860245, "bike_id": "fca8cb1cd946606fdd1a319ffccd4183", "is_disabled": 0, "lon": -77.04510483333334, "is_reserved": 0, "fusion_lat": 0.0, "type": "electric_scooter"}, {"fusion_lon": 0.0, "name": "125c5093ba45b75092eb1a68ebcb97f4", "rental_uris": {"android": "https://dc.lft.to/lastmile_qr_scan", "ios": "https://dc.lft.to/lastmile_qr_scan"}, "lat": 38.92363866666667, "bike_id": "125c5093ba45b75092eb1a68ebcb97f4", "is_disabled": 0, "lon": -77.01956066666666, "is_reserved": 0, "fusion_lat": 0.0, "type": "electric_scooter"}, {"fusion_lon": 0.0, "name": "0c5ac0216f82627fb359af044e5dbafb", "rental_uris": {"android": "https://dc.lft.to/lastmile_qr_scan", "ios": "https://dc.lft.to/lastmile_qr_scan"}, "lat": 38.92353966666667, "bike_id": "0c5ac0216f82627fb359af044e5dbafb", "is_disabled": 0, "lon": -77.0542205, "is_reserved": 0, "fusion_lat": 0.0, "type": "electric_scooter"}, {"fusion_lon": 0.0, "name": "0b6336e8bb5328e3c5e7535800f6ef13", "rental_uris": {"android": "https://dc.lft.to/lastmile_qr_scan", "ios": "https://dc.lft.to/lastmile_qr_scan"}, "lat": 38.9518405, "bike_id": "0b6336e8bb5328e3c5e7535800f6ef13", "is_disabled": 0, "lon": -77.026105, "is_reserved": 0, "fusion_lat": 0.0, "type": "electric_scooter"}, {"fusion_lon": 0.0, "name": "24e12bd8b6a7df3c293e6ab1dbbd5eb7", "rental_uris": {"android": "https://dc.lft.to/lastmile_qr_scan", "ios": "https://dc.lft.to/lastmile_qr_scan"}, "lat": 38.899626166666664, "bike_id": "24e12bd8b6a7df3c293e6ab1dbbd5eb7", "is_disabled": 0, "lon": -76.98565933333333, "is_reserved": 0, "fusion_lat": 0.0, "type": "electric_scooter"}, {"fusion_lon": 0.0, "name": "8bd5b609f4a55cc25228ecaf4d24820d", "rental_uris": {"android": "https://dc.lft.to/lastmile_qr_scan", "ios": "https://dc.lft.to/lastmile_qr_scan"}, "lat": 38.9899415, "bike_id": "8bd5b609f4a55cc25228ecaf4d24820d", "is_disabled": 0, "lon": -77.03362133333333, "is_reserved": 0, "fusion_lat": 0.0, "type": "electric_scooter"}, {"fusion_lon": 0.0, "name": "c55bc06fbe0d4911c82a84990bbbe8c5", "rental_uris": {"android": "https://dc.lft.to/lastmile_qr_scan", "ios": "https://dc.lft.to/lastmile_qr_scan"}, "lat": 38.934934166666665, "bike_id": "c55bc06fbe0d4911c82a84990bbbe8c5", "is_disabled": 0, "lon": -77.0445425, "is_reserved": 0, "fusion_lat": 0.0, "type": "electric_scooter"}, {"fusion_lon": 0.0, "name": "fa93a6054e2583a4b7c7f82fe4676226", "rental_uris": {"android": "https://dc.lft.to/lastmile_qr_scan", "ios": "https://dc.lft.to/lastmile_qr_scan"}, "lat": 38.91809933333333, "bike_id": "fa93a6054e2583a4b7c7f82fe4676226", "is_disabled": 0, "lon": -77.03152366666667, "is_reserved": 0, "fusion_lat": 0.0, "type": "electric_scooter"}, {"fusion_lon": 0.0, "name": "1e13790e558228fde66c759d50c834cb", "rental_uris": {"android": "https://dc.lft.to/lastmile_qr_scan", "ios": "https://dc.lft.to/lastmile_qr_scan"}, "lat": 38.9010965, "bike_id": "1e13790e558228fde66c759d50c834cb", "is_disabled": 0, "lon": -77.04477666666666, "is_reserved": 0, "fusion_lat": 0.0, "type": "electric_scooter"}, {"fusion_lon": 0.0, "name": "ac333325eea4a5e5192b9e7088882a2b", "rental_uris": {"android": "https://dc.lft.to/lastmile_qr_scan", "ios": "https://dc.lft.to/lastmile_qr_scan"}, "lat": 38.8624685, "bike_id": "ac333325eea4a5e5192b9e7088882a2b", "is_disabled": 0, "lon": -76.99499516666667, "is_reserved": 0, "fusion_lat": 0.0, "type": "electric_scooter"}, {"fusion_lon": 0.0, "name": "b18c5075b8cb2a920e6c2fff04b81ecb", "rental_uris": {"android": "https://dc.lft.to/lastmile_qr_scan", "ios": "https://dc.lft.to/lastmile_qr_scan"}, "lat": 38.89451366666667, "bike_id": "b18c5075b8cb2a920e6c2fff04b81ecb", "is_disabled": 0, "lon": -76.97485066666667, "is_reserved": 0, "fusion_lat": 0.0, "type": "electric_bike"}, {"fusion_lon": 0.0, "name": "4476da7277dda05106d56232ebe51fe4", "rental_uris": {"android": "https://dc.lft.to/lastmile_qr_scan", "ios": "https://dc.lft.to/lastmile_qr_scan"}, "lat": 38.9002965, "bike_id": "4476da7277dda05106d56232ebe51fe4", "is_disabled": 0, "lon": -76.9986335, "is_reserved": 0, "fusion_lat": 0.0, "type": "electric_scooter"}, {"fusion_lon": 0.0, "name": "f8ee63c0ab5b9b32454145255355ec18", "rental_uris": {"android": "https://dc.lft.to/lastmile_qr_scan", "ios": "https://dc.lft.to/lastmile_qr_scan"}, "lat": 38.925191166666664, "bike_id": "f8ee63c0ab5b9b32454145255355ec18", "is_disabled": 0, "lon": -77.0228155, "is_reserved": 0, "fusion_lat": 0.0, "type": "electric_scooter"}, {"fusion_lon": 0.0, "name": "9f6fa3fbaeb455aa64863f1aaa8bac0a", "rental_uris": {"android": "https://dc.lft.to/lastmile_qr_scan", "ios": "https://dc.lft.to/lastmile_qr_scan"}, "lat": 38.9126625, "bike_id": "9f6fa3fbaeb455aa64863f1aaa8bac0a", "is_disabled": 0, "lon": -77.03207666666667, "is_reserved": 0, "fusion_lat": 0.0, "type": "electric_scooter"}, {"fusion_lon": 0.0, "name": "6843d1f232065e93e28fc97cfa8fb5b0", "rental_uris": {"android": "https://dc.lft.to/lastmile_qr_scan", "ios": "https://dc.lft.to/lastmile_qr_scan"}, "lat": 38.84886683333333, "bike_id": "6843d1f232065e93e28fc97cfa8fb5b0", "is_disabled": 0, "lon": -77.07802266666667, "is_reserved": 0, "fusion_lat": 0.0, "type": "electric_bike"}, {"fusion_lon": 0.0, "name": "1b7791b2da2cc074669eab241c05cc97", "rental_uris": {"android": "https://dc.lft.to/lastmile_qr_scan", "ios": "https://dc.lft.to/lastmile_qr_scan"}, "lat": 38.923979833333334, "bike_id": "1b7791b2da2cc074669eab241c05cc97", "is_disabled": 0, "lon": -77.02042116666667, "is_reserved": 0, "fusion_lat": 0.0, "type": "electric_scooter"}, {"fusion_lon": 0.0, "name": "95e9e01521a002157b7d7960624407bc", "rental_uris": {"android": "https://dc.lft.to/lastmile_qr_scan", "ios": "https://dc.lft.to/lastmile_qr_scan"}, "lat": 38.908704, "bike_id": "95e9e01521a002157b7d7960624407bc", "is_disabled": 0, "lon": -77.032248, "is_reserved": 0, "fusion_lat": 0.0, "type": "electric_scooter"}, {"fusion_lon": 0.0, "name": "b66af7edb2cd13f79d0f58ded6c78e9f", "rental_uris": {"android": "https://dc.lft.to/lastmile_qr_scan", "ios": "https://dc.lft.to/lastmile_qr_scan"}, "lat": 38.907889833333336, "bike_id": "b66af7edb2cd13f79d0f58ded6c78e9f", "is_disabled": 0, "lon": -76.99421916666667, "is_reserved": 0, "fusion_lat": 0.0, "type": "electric_scooter"}, {"fusion_lon": 0.0, "name": "ef77b66b0f4bfae20b3e8cd73a1b1f97", "rental_uris": {"android": "https://dc.lft.to/lastmile_qr_scan", "ios": "https://dc.lft.to/lastmile_qr_scan"}, "lat": 38.900369166666664, "bike_id": "ef77b66b0f4bfae20b3e8cd73a1b1f97", "is_disabled": 0, "lon": -77.017542, "is_reserved": 0, "fusion_lat": 0.0, "type": "electric_scooter"}, {"fusion_lon": 0.0, "name": "cd733022264b080f2444f0209f4ee294", "rental_uris": {"android": "https://dc.lft.to/lastmile_qr_scan", "ios": "https://dc.lft.to/lastmile_qr_scan"}, "lat": 38.90430083333333, "bike_id": "cd733022264b080f2444f0209f4ee294", "is_disabled": 0, "lon": -77.02839133333333, "is_reserved": 0, "fusion_lat": 0.0, "type": "electric_scooter"}, {"fusion_lon": 0.0, "name": "9d8bc1ce1fe84621edfb2249895364dc", "rental_uris": {"android": "https://dc.lft.to/lastmile_qr_scan", "ios": "https://dc.lft.to/lastmile_qr_scan"}, "lat": 38.904034, "bike_id": "9d8bc1ce1fe84621edfb2249895364dc", "is_disabled": 0, "lon": -77.01842566666667, "is_reserved": 0, "fusion_lat": 0.0, "type": "electric_scooter"}, {"fusion_lon": 0.0, "name": "14db35c080ade25c940233b23761601a", "rental_uris": {"android": "https://dc.lft.to/lastmile_qr_scan", "ios": "https://dc.lft.to/lastmile_qr_scan"}, "lat": 38.9463715, "bike_id": "14db35c080ade25c940233b23761601a", "is_disabled": 0, "lon": -77.06491983333333, "is_reserved": 0, "fusion_lat": 0.0, "type": "electric_scooter"}, {"fusion_lon": 0.0, "name": "1abbc504d2b200bb8c55995f985be87b", "rental_uris": {"android": "https://dc.lft.to/lastmile_qr_scan", "ios": "https://dc.lft.to/lastmile_qr_scan"}, "lat": 38.91932833333333, "bike_id": "1abbc504d2b200bb8c55995f985be87b", "is_disabled": 0, "lon": -77.04632033333333, "is_reserved": 0, "fusion_lat": 0.0, "type": "electric_scooter"}, {"fusion_lon": 0.0, "name": "cdb940538703411a49e6039dfa4daec3", "rental_uris": {"android": "https://dc.lft.to/lastmile_qr_scan", "ios": "https://dc.lft.to/lastmile_qr_scan"}, "lat": 39.0072425, "bike_id": "cdb940538703411a49e6039dfa4daec3", "is_disabled": 0, "lon": -76.9815, "is_reserved": 0, "fusion_lat": 0.0, "type": "electric_bike"}, {"fusion_lon": 0.0, "name": "77c0032763c40f6d1467fe59b0b0475f", "rental_uris": {"android": "https://dc.lft.to/lastmile_qr_scan", "ios": "https://dc.lft.to/lastmile_qr_scan"}, "lat": 38.91559483333333, "bike_id": "77c0032763c40f6d1467fe59b0b0475f", "is_disabled": 0, "lon": -77.00698483333333, "is_reserved": 0, "fusion_lat": 0.0, "type": "electric_scooter"}, {"fusion_lon": 0.0, "name": "ac51f3f5d8fae40a23a237ec7c08f608", "rental_uris": {"android": "https://dc.lft.to/lastmile_qr_scan", "ios": "https://dc.lft.to/lastmile_qr_scan"}, "lat": 38.902804833333334, "bike_id": "ac51f3f5d8fae40a23a237ec7c08f608", "is_disabled": 0, "lon": -77.0175985, "is_reserved": 0, "fusion_lat": 0.0, "type": "electric_scooter"}, {"fusion_lon": 0.0, "name": "1ff4114a24b5ad336f61ef4149c2ddf1", "rental_uris": {"android": "https://dc.lft.to/lastmile_qr_scan", "ios": "https://dc.lft.to/lastmile_qr_scan"}, "lat": 38.895436833333335, "bike_id": "1ff4114a24b5ad336f61ef4149c2ddf1", "is_disabled": 0, "lon": -76.98335516666667, "is_reserved": 0, "fusion_lat": 0.0, "type": "electric_scooter"}, {"fusion_lon": 0.0, "name": "6d09cc878f25ebccd4351c642237a632", "rental_uris": {"android": "https://dc.lft.to/lastmile_qr_scan", "ios": "https://dc.lft.to/lastmile_qr_scan"}, "lat": 38.919189333333335, "bike_id": "6d09cc878f25ebccd4351c642237a632", "is_disabled": 0, "lon": -77.0342135, "is_reserved": 0, "fusion_lat": 0.0, "type": "electric_scooter"}, {"fusion_lon": 0.0, "name": "57c28658f9b641b68ef7a5c9dc6aa6cd", "rental_uris": {"android": "https://dc.lft.to/lastmile_qr_scan", "ios": "https://dc.lft.to/lastmile_qr_scan"}, "lat": 38.907537166666664, "bike_id": "57c28658f9b641b68ef7a5c9dc6aa6cd", "is_disabled": 0, "lon": -77.059756, "is_reserved": 0, "fusion_lat": 0.0, "type": "electric_scooter"}, {"fusion_lon": 0.0, "name": "cb36d15f99493fd34f15cc616640182d", "rental_uris": {"android": "https://dc.lft.to/lastmile_qr_scan", "ios": "https://dc.lft.to/lastmile_qr_scan"}, "lat": 38.92477, "bike_id": "cb36d15f99493fd34f15cc616640182d", "is_disabled": 0, "lon": -77.03818033333333, "is_reserved": 0, "fusion_lat": 0.0, "type": "electric_scooter"}, {"fusion_lon": 0.0, "name": "6de4697b068e28b12d9630d6e9f7d33a", "rental_uris": {"android": "https://dc.lft.to/lastmile_qr_scan", "ios": "https://dc.lft.to/lastmile_qr_scan"}, "lat": 38.917085, "bike_id": "6de4697b068e28b12d9630d6e9f7d33a", "is_disabled": 0, "lon": -77.03864816666666, "is_reserved": 0, "fusion_lat": 0.0, "type": "electric_scooter"}, {"fusion_lon": 0.0, "name": "242fc9eb025f149e0cf0b895ebe6c596", "rental_uris": {"android": "https://dc.lft.to/lastmile_qr_scan", "ios": "https://dc.lft.to/lastmile_qr_scan"}, "lat": 38.944617, "bike_id": "242fc9eb025f149e0cf0b895ebe6c596", "is_disabled": 0, "lon": -77.0638945, "is_reserved": 0, "fusion_lat": 0.0, "type": "electric_scooter"}, {"fusion_lon": 0.0, "name": "2ca9c186dea6e025c01576e4c3b084cc", "rental_uris": {"android": "https://dc.lft.to/lastmile_qr_scan", "ios": "https://dc.lft.to/lastmile_qr_scan"}, "lat": 38.92319483333333, "bike_id": "2ca9c186dea6e025c01576e4c3b084cc", "is_disabled": 0, "lon": -77.0404405, "is_reserved": 0, "fusion_lat": 0.0, "type": "electric_scooter"}, {"fusion_lon": 0.0, "name": "8f860b2c8ddd8347bf21391b6da46a3c", "rental_uris": {"android": "https://dc.lft.to/lastmile_qr_scan", "ios": "https://dc.lft.to/lastmile_qr_scan"}, "lat": 38.94178683333333, "bike_id": "8f860b2c8ddd8347bf21391b6da46a3c", "is_disabled": 0, "lon": -77.02333566666667, "is_reserved": 0, "fusion_lat": 0.0, "type": "electric_scooter"}, {"fusion_lon": 0.0, "name": "d700f6fb95d26208e32cdaca2ceaa28d", "rental_uris": {"android": "https://dc.lft.to/lastmile_qr_scan", "ios": "https://dc.lft.to/lastmile_qr_scan"}, "lat": 38.898843666666664, "bike_id": "d700f6fb95d26208e32cdaca2ceaa28d", "is_disabled": 0, "lon": -76.98832333333333, "is_reserved": 0, "fusion_lat": 0.0, "type": "electric_scooter"}, {"fusion_lon": 0.0, "name": "4c5c0faada4d3207c72b91b321485ded", "rental_uris": {"android": "https://dc.lft.to/lastmile_qr_scan", "ios": "https://dc.lft.to/lastmile_qr_scan"}, "lat": 38.92456516666667, "bike_id": "4c5c0faada4d3207c72b91b321485ded", "is_disabled": 0, "lon": -77.0328555, "is_reserved": 0, "fusion_lat": 0.0, "type": "electric_scooter"}, {"fusion_lon": 0.0, "name": "4e7bb9d53fecb8d51f961690521a4e6a", "rental_uris": {"android": "https://dc.lft.to/lastmile_qr_scan", "ios": "https://dc.lft.to/lastmile_qr_scan"}, "lat": 38.877726333333335, "bike_id": "4e7bb9d53fecb8d51f961690521a4e6a", "is_disabled": 0, "lon": -77.01208166666666, "is_reserved": 0, "fusion_lat": 0.0, "type": "electric_bike"}, {"fusion_lon": 0.0, "name": "cd243abefa8554ff50eebbfd48b986e1", "rental_uris": {"android": "https://dc.lft.to/lastmile_qr_scan", "ios": "https://dc.lft.to/lastmile_qr_scan"}, "lat": 38.918465, "bike_id": "cd243abefa8554ff50eebbfd48b986e1", "is_disabled": 0, "lon": -77.03856883333333, "is_reserved": 0, "fusion_lat": 0.0, "type": "electric_scooter"}, {"fusion_lon": 0.0, "name": "e202460284364461185549767d0897f7", "rental_uris": {"android": "https://dc.lft.to/lastmile_qr_scan", "ios": "https://dc.lft.to/lastmile_qr_scan"}, "lat": 38.88071083333333, "bike_id": "e202460284364461185549767d0897f7", "is_disabled": 0, "lon": -77.0040365, "is_reserved": 0, "fusion_lat": 0.0, "type": "electric_scooter"}, {"fusion_lon": 0.0, "name": "3bdb11e0941bc8b75cf971907b7d07f6", "rental_uris": {"android": "https://dc.lft.to/lastmile_qr_scan", "ios": "https://dc.lft.to/lastmile_qr_scan"}, "lat": 38.93636, "bike_id": "3bdb11e0941bc8b75cf971907b7d07f6", "is_disabled": 0, "lon": -77.03263716666666, "is_reserved": 0, "fusion_lat": 0.0, "type": "electric_scooter"}, {"fusion_lon": 0.0, "name": "43366e4531f1ab5af25deebdddd5ef88", "rental_uris": {"android": "https://dc.lft.to/lastmile_qr_scan", "ios": "https://dc.lft.to/lastmile_qr_scan"}, "lat": 38.95596333333334, "bike_id": "43366e4531f1ab5af25deebdddd5ef88", "is_disabled": 0, "lon": -77.01006066666666, "is_reserved": 0, "fusion_lat": 0.0, "type": "electric_bike"}, {"fusion_lon": 0.0, "name": "9068bdaf297437b206ba34293e495e8e", "rental_uris": {"android": "https://dc.lft.to/lastmile_qr_scan", "ios": "https://dc.lft.to/lastmile_qr_scan"}, "lat": 38.916805833333335, "bike_id": "9068bdaf297437b206ba34293e495e8e", "is_disabled": 0, "lon": -77.04614333333333, "is_reserved": 0, "fusion_lat": 0.0, "type": "electric_scooter"}, {"fusion_lon": 0.0, "name": "c905a9dbdcb30dbe674b11a9361f0070", "rental_uris": {"android": "https://dc.lft.to/lastmile_qr_scan", "ios": "https://dc.lft.to/lastmile_qr_scan"}, "lat": 38.899969, "bike_id": "c905a9dbdcb30dbe674b11a9361f0070", "is_disabled": 0, "lon": -76.994823, "is_reserved": 0, "fusion_lat": 0.0, "type": "electric_scooter"}, {"fusion_lon": 0.0, "name": "84fe19290423d3353570f0e84c06592d", "rental_uris": {"android": "https://dc.lft.to/lastmile_qr_scan", "ios": "https://dc.lft.to/lastmile_qr_scan"}, "lat": 38.9157095, "bike_id": "84fe19290423d3353570f0e84c06592d", "is_disabled": 0, "lon": -77.0126305, "is_reserved": 0, "fusion_lat": 0.0, "type": "electric_scooter"}, {"fusion_lon": 0.0, "name": "797ef1371ad46bd5a310fb4b5cd3f023", "rental_uris": {"android": "https://dc.lft.to/lastmile_qr_scan", "ios": "https://dc.lft.to/lastmile_qr_scan"}, "lat": 38.92452, "bike_id": "797ef1371ad46bd5a310fb4b5cd3f023", "is_disabled": 0, "lon": -77.03405683333334, "is_reserved": 0, "fusion_lat": 0.0, "type": "electric_scooter"}, {"fusion_lon": 0.0, "name": "4c15a22ee604e0ef4d1cfb8ced0a7f3d", "rental_uris": {"android": "https://dc.lft.to/lastmile_qr_scan", "ios": "https://dc.lft.to/lastmile_qr_scan"}, "lat": 38.926824333333336, "bike_id": "4c15a22ee604e0ef4d1cfb8ced0a7f3d", "is_disabled": 0, "lon": -77.02580566666667, "is_reserved": 0, "fusion_lat": 0.0, "type": "electric_scooter"}, {"fusion_lon": 0.0, "name": "2961423b54d8b40eb6546595fe0e326f", "rental_uris": {"android": "https://dc.lft.to/lastmile_qr_scan", "ios": "https://dc.lft.to/lastmile_qr_scan"}, "lat": 38.92403683333333, "bike_id": "2961423b54d8b40eb6546595fe0e326f", "is_disabled": 0, "lon": -77.04061783333333, "is_reserved": 0, "fusion_lat": 0.0, "type": "electric_scooter"}, {"fusion_lon": 0.0, "name": "32a08d570ae6a3cc3393a81afad3ba30", "rental_uris": {"android": "https://dc.lft.to/lastmile_qr_scan", "ios": "https://dc.lft.to/lastmile_qr_scan"}, "lat": 38.90038333333333, "bike_id": "32a08d570ae6a3cc3393a81afad3ba30", "is_disabled": 0, "lon": -77.026111, "is_reserved": 0, "fusion_lat": 0.0, "type": "electric_scooter"}, {"fusion_lon": 0.0, "name": "55276ef75d6d2eb099538a9b988e170f", "rental_uris": {"android": "https://dc.lft.to/lastmile_qr_scan", "ios": "https://dc.lft.to/lastmile_qr_scan"}, "lat": 38.891973, "bike_id": "55276ef75d6d2eb099538a9b988e170f", "is_disabled": 0, "lon": -77.001968, "is_reserved": 0, "fusion_lat": 0.0, "type": "electric_scooter"}, {"fusion_lon": 0.0, "name": "80a66a58f569b0f0f0942d4c4499e488", "rental_uris": {"android": "https://dc.lft.to/lastmile_qr_scan", "ios": "https://dc.lft.to/lastmile_qr_scan"}, "lat": 38.906975833333334, "bike_id": "80a66a58f569b0f0f0942d4c4499e488", "is_disabled": 0, "lon": -76.95252966666666, "is_reserved": 0, "fusion_lat": 0.0, "type": "electric_bike"}, {"fusion_lon": 0.0, "name": "5afd6b784f459aa74dd5957695e1f945", "rental_uris": {"android": "https://dc.lft.to/lastmile_qr_scan", "ios": "https://dc.lft.to/lastmile_qr_scan"}, "lat": 38.929667333333335, "bike_id": "5afd6b784f459aa74dd5957695e1f945", "is_disabled": 0, "lon": -77.031841, "is_reserved": 0, "fusion_lat": 0.0, "type": "electric_scooter"}, {"fusion_lon": 0.0, "name": "55fddfc92688e2a76ebce227ecd331f9", "rental_uris": {"android": "https://dc.lft.to/lastmile_qr_scan", "ios": "https://dc.lft.to/lastmile_qr_scan"}, "lat": 38.900275666666666, "bike_id": "55fddfc92688e2a76ebce227ecd331f9", "is_disabled": 0, "lon": -76.99874633333333, "is_reserved": 0, "fusion_lat": 0.0, "type": "electric_scooter"}, {"fusion_lon": 0.0, "name": "dc7917682a0dde9eb67aea51b6b76a65", "rental_uris": {"android": "https://dc.lft.to/lastmile_qr_scan", "ios": "https://dc.lft.to/lastmile_qr_scan"}, "lat": 38.880021666666664, "bike_id": "dc7917682a0dde9eb67aea51b6b76a65", "is_disabled": 0, "lon": -77.00533683333333, "is_reserved": 0, "fusion_lat": 0.0, "type": "electric_scooter"}, {"fusion_lon": 0.0, "name": "46f1d12eac5c0c6b215993517712c6e9", "rental_uris": {"android": "https://dc.lft.to/lastmile_qr_scan", "ios": "https://dc.lft.to/lastmile_qr_scan"}, "lat": 38.9148935, "bike_id": "46f1d12eac5c0c6b215993517712c6e9", "is_disabled": 0, "lon": -77.00217683333334, "is_reserved": 0, "fusion_lat": 0.0, "type": "electric_scooter"}, {"fusion_lon": 0.0, "name": "3d65903dd6c2a41e3672c6516ca48da1", "rental_uris": {"android": "https://dc.lft.to/lastmile_qr_scan", "ios": "https://dc.lft.to/lastmile_qr_scan"}, "lat": 38.93053466666667, "bike_id": "3d65903dd6c2a41e3672c6516ca48da1", "is_disabled": 0, "lon": -77.07354, "is_reserved": 0, "fusion_lat": 0.0, "type": "electric_bike"}, {"fusion_lon": 0.0, "name": "75ee47e449c96cfd058ff864ec27e747", "rental_uris": {"android": "https://dc.lft.to/lastmile_qr_scan", "ios": "https://dc.lft.to/lastmile_qr_scan"}, "lat": 38.920924666666664, "bike_id": "75ee47e449c96cfd058ff864ec27e747", "is_disabled": 0, "lon": -77.02505283333333, "is_reserved": 0, "fusion_lat": 0.0, "type": "electric_scooter"}, {"fusion_lon": 0.0, "name": "f5334c5a316e050e6e20f5a7dc263fea", "rental_uris": {"android": "https://dc.lft.to/lastmile_qr_scan", "ios": "https://dc.lft.to/lastmile_qr_scan"}, "lat": 38.9373775, "bike_id": "f5334c5a316e050e6e20f5a7dc263fea", "is_disabled": 0, "lon": -77.02446683333334, "is_reserved": 0, "fusion_lat": 0.0, "type": "electric_scooter"}, {"fusion_lon": 0.0, "name": "6708d6b864a1d15a16243c7f81a4ecae", "rental_uris": {"android": "https://dc.lft.to/lastmile_qr_scan", "ios": "https://dc.lft.to/lastmile_qr_scan"}, "lat": 38.90025416666667, "bike_id": "6708d6b864a1d15a16243c7f81a4ecae", "is_disabled": 0, "lon": -77.0119055, "is_reserved": 0, "fusion_lat": 0.0, "type": "electric_scooter"}, {"fusion_lon": 0.0, "name": "0075bfab2115e314210cf05a4c442ccc", "rental_uris": {"android": "https://dc.lft.to/lastmile_qr_scan", "ios": "https://dc.lft.to/lastmile_qr_scan"}, "lat": 38.92985, "bike_id": "0075bfab2115e314210cf05a4c442ccc", "is_disabled": 0, "lon": -77.032356, "is_reserved": 0, "fusion_lat": 0.0, "type": "electric_scooter"}, {"fusion_lon": 0.0, "name": "4aa746142786657a752249014a75644e", "rental_uris": {"android": "https://dc.lft.to/lastmile_qr_scan", "ios": "https://dc.lft.to/lastmile_qr_scan"}, "lat": 38.87561266666667, "bike_id": "4aa746142786657a752249014a75644e", "is_disabled": 0, "lon": -77.00601116666667, "is_reserved": 0, "fusion_lat": 0.0, "type": "electric_scooter"}, {"fusion_lon": 0.0, "name": "d2e261884d7778bad05d858d50b4ca85", "rental_uris": {"android": "https://dc.lft.to/lastmile_qr_scan", "ios": "https://dc.lft.to/lastmile_qr_scan"}, "lat": 38.92959183333333, "bike_id": "d2e261884d7778bad05d858d50b4ca85", "is_disabled": 0, "lon": -77.01147616666667, "is_reserved": 0, "fusion_lat": 0.0, "type": "electric_scooter"}, {"fusion_lon": 0.0, "name": "f82ca309d982a9b8106563b29c548ef6", "rental_uris": {"android": "https://dc.lft.to/lastmile_qr_scan", "ios": "https://dc.lft.to/lastmile_qr_scan"}, "lat": 38.9510725, "bike_id": "f82ca309d982a9b8106563b29c548ef6", "is_disabled": 0, "lon": -77.0131025, "is_reserved": 0, "fusion_lat": 0.0, "type": "electric_scooter"}, {"fusion_lon": 0.0, "name": "e0087b7572ccff659f5cea5dc52987f0", "rental_uris": {"android": "https://dc.lft.to/lastmile_qr_scan", "ios": "https://dc.lft.to/lastmile_qr_scan"}, "lat": 38.88635933333333, "bike_id": "e0087b7572ccff659f5cea5dc52987f0", "is_disabled": 0, "lon": -77.021431, "is_reserved": 0, "fusion_lat": 0.0, "type": "electric_scooter"}, {"fusion_lon": 0.0, "name": "2638dd1228c0cadc93eac995c4b2416a", "rental_uris": {"android": "https://dc.lft.to/lastmile_qr_scan", "ios": "https://dc.lft.to/lastmile_qr_scan"}, "lat": 38.9238875, "bike_id": "2638dd1228c0cadc93eac995c4b2416a", "is_disabled": 0, "lon": -77.03057366666667, "is_reserved": 0, "fusion_lat": 0.0, "type": "electric_scooter"}, {"fusion_lon": 0.0, "name": "bc5d8a4fe35670ba81ec96948d5a3138", "rental_uris": {"android": "https://dc.lft.to/lastmile_qr_scan", "ios": "https://dc.lft.to/lastmile_qr_scan"}, "lat": 38.906766833333336, "bike_id": "bc5d8a4fe35670ba81ec96948d5a3138", "is_disabled": 0, "lon": -77.03823616666666, "is_reserved": 0, "fusion_lat": 0.0, "type": "electric_scooter"}, {"fusion_lon": 0.0, "name": "d3cd466db9831f9a415a0c96ac03c5ec", "rental_uris": {"android": "https://dc.lft.to/lastmile_qr_scan", "ios": "https://dc.lft.to/lastmile_qr_scan"}, "lat": 38.9322745, "bike_id": "d3cd466db9831f9a415a0c96ac03c5ec", "is_disabled": 0, "lon": -77.0269185, "is_reserved": 0, "fusion_lat": 0.0, "type": "electric_scooter"}, {"fusion_lon": 0.0, "name": "e14504ec4323d59b3342579766b976c1", "rental_uris": {"android": "https://dc.lft.to/lastmile_qr_scan", "ios": "https://dc.lft.to/lastmile_qr_scan"}, "lat": 38.90223133333333, "bike_id": "e14504ec4323d59b3342579766b976c1", "is_disabled": 0, "lon": -77.04583766666667, "is_reserved": 0, "fusion_lat": 0.0, "type": "electric_scooter"}, {"fusion_lon": 0.0, "name": "592d377e81c7778af0ca758511933750", "rental_uris": {"android": "https://dc.lft.to/lastmile_qr_scan", "ios": "https://dc.lft.to/lastmile_qr_scan"}, "lat": 38.9226835, "bike_id": "592d377e81c7778af0ca758511933750", "is_disabled": 0, "lon": -77.03664383333333, "is_reserved": 0, "fusion_lat": 0.0, "type": "electric_scooter"}, {"fusion_lon": 0.0, "name": "4f11311f0af626adfb3804795ff19715", "rental_uris": {"android": "https://dc.lft.to/lastmile_qr_scan", "ios": "https://dc.lft.to/lastmile_qr_scan"}, "lat": 38.930595, "bike_id": "4f11311f0af626adfb3804795ff19715", "is_disabled": 0, "lon": -77.02788533333333, "is_reserved": 0, "fusion_lat": 0.0, "type": "electric_scooter"}, {"fusion_lon": 0.0, "name": "22c6c292ebd0dd8396dc52ca54cccd3a", "rental_uris": {"android": "https://dc.lft.to/lastmile_qr_scan", "ios": "https://dc.lft.to/lastmile_qr_scan"}, "lat": 38.9289955, "bike_id": "22c6c292ebd0dd8396dc52ca54cccd3a", "is_disabled": 0, "lon": -77.0326015, "is_reserved": 0, "fusion_lat": 0.0, "type": "electric_scooter"}, {"fusion_lon": 0.0, "name": "826e8da05e8e1badb276945d3f5cf2ee", "rental_uris": {"android": "https://dc.lft.to/lastmile_qr_scan", "ios": "https://dc.lft.to/lastmile_qr_scan"}, "lat": 38.909544, "bike_id": "826e8da05e8e1badb276945d3f5cf2ee", "is_disabled": 0, "lon": -77.0441855, "is_reserved": 0, "fusion_lat": 0.0, "type": "electric_scooter"}, {"fusion_lon": 0.0, "name": "74569b589d6302c57a78b73e07f65ff5", "rental_uris": {"android": "https://dc.lft.to/lastmile_qr_scan", "ios": "https://dc.lft.to/lastmile_qr_scan"}, "lat": 38.91181, "bike_id": "74569b589d6302c57a78b73e07f65ff5", "is_disabled": 0, "lon": -77.03206633333333, "is_reserved": 0, "fusion_lat": 0.0, "type": "electric_scooter"}, {"fusion_lon": 0.0, "name": "f60969ac355e3ee2f60939c95ae18d84", "rental_uris": {"android": "https://dc.lft.to/lastmile_qr_scan", "ios": "https://dc.lft.to/lastmile_qr_scan"}, "lat": 38.90714716666667, "bike_id": "f60969ac355e3ee2f60939c95ae18d84", "is_disabled": 0, "lon": -77.04081316666667, "is_reserved": 0, "fusion_lat": 0.0, "type": "electric_scooter"}, {"fusion_lon": 0.0, "name": "75c6b50803c4432c08806047a8f62ecb", "rental_uris": {"android": "https://dc.lft.to/lastmile_qr_scan", "ios": "https://dc.lft.to/lastmile_qr_scan"}, "lat": 38.909724, "bike_id": "75c6b50803c4432c08806047a8f62ecb", "is_disabled": 0, "lon": -77.073385, "is_reserved": 0, "fusion_lat": 0.0, "type": "electric_scooter"}, {"fusion_lon": 0.0, "name": "f1d8d7bf229d74315607eabfd9ad5822", "rental_uris": {"android": "https://dc.lft.to/lastmile_qr_scan", "ios": "https://dc.lft.to/lastmile_qr_scan"}, "lat": 38.8947155, "bike_id": "f1d8d7bf229d74315607eabfd9ad5822", "is_disabled": 0, "lon": -77.02016133333333, "is_reserved": 0, "fusion_lat": 0.0, "type": "electric_scooter"}, {"fusion_lon": 0.0, "name": "5a25a79fda9a674d4f7855b4ded1a124", "rental_uris": {"android": "https://dc.lft.to/lastmile_qr_scan", "ios": "https://dc.lft.to/lastmile_qr_scan"}, "lat": 38.920932, "bike_id": "5a25a79fda9a674d4f7855b4ded1a124", "is_disabled": 0, "lon": -77.0043505, "is_reserved": 0, "fusion_lat": 0.0, "type": "electric_scooter"}, {"fusion_lon": 0.0, "name": "625c759e002e6e403725f112f20e1c6b", "rental_uris": {"android": "https://dc.lft.to/lastmile_qr_scan", "ios": "https://dc.lft.to/lastmile_qr_scan"}, "lat": 38.89572233333333, "bike_id": "625c759e002e6e403725f112f20e1c6b", "is_disabled": 0, "lon": -76.9941005, "is_reserved": 0, "fusion_lat": 0.0, "type": "electric_scooter"}, {"fusion_lon": 0.0, "name": "5df2e1e7aa18a9dffb812fa5dc161519", "rental_uris": {"android": "https://dc.lft.to/lastmile_qr_scan", "ios": "https://dc.lft.to/lastmile_qr_scan"}, "lat": 38.9192215, "bike_id": "5df2e1e7aa18a9dffb812fa5dc161519", "is_disabled": 0, "lon": -77.00997766666667, "is_reserved": 0, "fusion_lat": 0.0, "type": "electric_scooter"}, {"fusion_lon": 0.0, "name": "1b64893cc2deaa5a170ffd7b3e02f0c9", "rental_uris": {"android": "https://dc.lft.to/lastmile_qr_scan", "ios": "https://dc.lft.to/lastmile_qr_scan"}, "lat": 38.918627, "bike_id": "1b64893cc2deaa5a170ffd7b3e02f0c9", "is_disabled": 0, "lon": -77.02546733333334, "is_reserved": 0, "fusion_lat": 0.0, "type": "electric_scooter"}, {"fusion_lon": 0.0, "name": "5a155a1646517193a267409adece65d7", "rental_uris": {"android": "https://dc.lft.to/lastmile_qr_scan", "ios": "https://dc.lft.to/lastmile_qr_scan"}, "lat": 38.9053195, "bike_id": "5a155a1646517193a267409adece65d7", "is_disabled": 0, "lon": -77.06526716666667, "is_reserved": 0, "fusion_lat": 0.0, "type": "electric_scooter"}, {"fusion_lon": 0.0, "name": "6939f3135f6a7373c123ea92f0cb7d42", "rental_uris": {"android": "https://dc.lft.to/lastmile_qr_scan", "ios": "https://dc.lft.to/lastmile_qr_scan"}, "lat": 38.89225233333333, "bike_id": "6939f3135f6a7373c123ea92f0cb7d42", "is_disabled": 0, "lon": -77.045061, "is_reserved": 0, "fusion_lat": 0.0, "type": "electric_scooter"}, {"fusion_lon": 0.0, "name": "a869526790469b3911ae247e22d3acd9", "rental_uris": {"android": "https://dc.lft.to/lastmile_qr_scan", "ios": "https://dc.lft.to/lastmile_qr_scan"}, "lat": 38.90727833333333, "bike_id": "a869526790469b3911ae247e22d3acd9", "is_disabled": 0, "lon": -77.00739316666666, "is_reserved": 0, "fusion_lat": 0.0, "type": "electric_scooter"}, {"fusion_lon": 0.0, "name": "3a8cc298d79863a71245e2d0c54b1a6b", "rental_uris": {"android": "https://dc.lft.to/lastmile_qr_scan", "ios": "https://dc.lft.to/lastmile_qr_scan"}, "lat": 38.945319166666664, "bike_id": "3a8cc298d79863a71245e2d0c54b1a6b", "is_disabled": 0, "lon": -77.3446125, "is_reserved": 0, "fusion_lat": 0.0, "type": "electric_bike"}, {"fusion_lon": 0.0, "name": "3853c6a959d8e3eb86df9aeb4d345630", "rental_uris": {"android": "https://dc.lft.to/lastmile_qr_scan", "ios": "https://dc.lft.to/lastmile_qr_scan"}, "lat": 38.89579916666667, "bike_id": "3853c6a959d8e3eb86df9aeb4d345630", "is_disabled": 0, "lon": -77.02523933333333, "is_reserved": 0, "fusion_lat": 0.0, "type": "electric_scooter"}, {"fusion_lon": 0.0, "name": "04b9210796c8570635837ac15ab16208", "rental_uris": {"android": "https://dc.lft.to/lastmile_qr_scan", "ios": "https://dc.lft.to/lastmile_qr_scan"}, "lat": 38.9312245, "bike_id": "04b9210796c8570635837ac15ab16208", "is_disabled": 0, "lon": -77.03599533333333, "is_reserved": 0, "fusion_lat": 0.0, "type": "electric_scooter"}, {"fusion_lon": 0.0, "name": "0ce09c3e843a89facb14967cbac6c20d", "rental_uris": {"android": "https://dc.lft.to/lastmile_qr_scan", "ios": "https://dc.lft.to/lastmile_qr_scan"}, "lat": 38.924584833333334, "bike_id": "0ce09c3e843a89facb14967cbac6c20d", "is_disabled": 0, "lon": -77.0216, "is_reserved": 0, "fusion_lat": 0.0, "type": "electric_scooter"}, {"fusion_lon": 0.0, "name": "65d0a345774808015bf97cdba6cfa51f", "rental_uris": {"android": "https://dc.lft.to/lastmile_qr_scan", "ios": "https://dc.lft.to/lastmile_qr_scan"}, "lat": 39.0843285, "bike_id": "65d0a345774808015bf97cdba6cfa51f", "is_disabled": 0, "lon": -76.95142616666666, "is_reserved": 0, "fusion_lat": 0.0, "type": "electric_bike"}, {"fusion_lon": 0.0, "name": "bb154a1f0dccd17f0d5a273bc68bc5dc", "rental_uris": {"android": "https://dc.lft.to/lastmile_qr_scan", "ios": "https://dc.lft.to/lastmile_qr_scan"}, "lat": 38.88661183333333, "bike_id": "bb154a1f0dccd17f0d5a273bc68bc5dc", "is_disabled": 0, "lon": -76.93676833333333, "is_reserved": 0, "fusion_lat": 0.0, "type": "electric_scooter"}, {"fusion_lon": 0.0, "name": "409dcb4d90fce2257f3e9aed6ce52c5c", "rental_uris": {"android": "https://dc.lft.to/lastmile_qr_scan", "ios": "https://dc.lft.to/lastmile_qr_scan"}, "lat": 38.9225495, "bike_id": "409dcb4d90fce2257f3e9aed6ce52c5c", "is_disabled": 0, "lon": -77.043615, "is_reserved": 0, "fusion_lat": 0.0, "type": "electric_scooter"}, {"fusion_lon": 0.0, "name": "b14090b13f068a8ab891e18ec96a035f", "rental_uris": {"android": "https://dc.lft.to/lastmile_qr_scan", "ios": "https://dc.lft.to/lastmile_qr_scan"}, "lat": 38.8760575, "bike_id": "b14090b13f068a8ab891e18ec96a035f", "is_disabled": 0, "lon": -77.00583366666666, "is_reserved": 0, "fusion_lat": 0.0, "type": "electric_scooter"}, {"fusion_lon": 0.0, "name": "4cea2234f5b16292339cb8cdd420fc2a", "rental_uris": {"android": "https://dc.lft.to/lastmile_qr_scan", "ios": "https://dc.lft.to/lastmile_qr_scan"}, "lat": 38.898867333333335, "bike_id": "4cea2234f5b16292339cb8cdd420fc2a", "is_disabled": 0, "lon": -76.98841816666666, "is_reserved": 0, "fusion_lat": 0.0, "type": "electric_scooter"}, {"fusion_lon": 0.0, "name": "9941bcd2f1f997004b3ac7c121f529a1", "rental_uris": {"android": "https://dc.lft.to/lastmile_qr_scan", "ios": "https://dc.lft.to/lastmile_qr_scan"}, "lat": 38.926748, "bike_id": "9941bcd2f1f997004b3ac7c121f529a1", "is_disabled": 0, "lon": -77.03030683333333, "is_reserved": 0, "fusion_lat": 0.0, "type": "electric_scooter"}, {"fusion_lon": 0.0, "name": "869ea13c1b476891ab64dc6d4b35b87b", "rental_uris": {"android": "https://dc.lft.to/lastmile_qr_scan", "ios": "https://dc.lft.to/lastmile_qr_scan"}, "lat": 38.9172075, "bike_id": "869ea13c1b476891ab64dc6d4b35b87b", "is_disabled": 0, "lon": -77.03123816666667, "is_reserved": 0, "fusion_lat": 0.0, "type": "electric_scooter"}, {"fusion_lon": 0.0, "name": "2732261e60087b73d91ddc0fc5893d1d", "rental_uris": {"android": "https://dc.lft.to/lastmile_qr_scan", "ios": "https://dc.lft.to/lastmile_qr_scan"}, "lat": 38.905156166666664, "bike_id": "2732261e60087b73d91ddc0fc5893d1d", "is_disabled": 0, "lon": -77.00212316666666, "is_reserved": 0, "fusion_lat": 0.0, "type": "electric_scooter"}, {"fusion_lon": 0.0, "name": "4b400fb1e40e4c5a416d63b48983175e", "rental_uris": {"android": "https://dc.lft.to/lastmile_qr_scan", "ios": "https://dc.lft.to/lastmile_qr_scan"}, "lat": 38.8787875, "bike_id": "4b400fb1e40e4c5a416d63b48983175e", "is_disabled": 0, "lon": -77.02201333333333, "is_reserved": 0, "fusion_lat": 0.0, "type": "electric_scooter"}, {"fusion_lon": 0.0, "name": "6b9a18125c11f9333b438bff0a1cb08c", "rental_uris": {"android": "https://dc.lft.to/lastmile_qr_scan", "ios": "https://dc.lft.to/lastmile_qr_scan"}, "lat": 38.89224433333333, "bike_id": "6b9a18125c11f9333b438bff0a1cb08c", "is_disabled": 0, "lon": -77.01729583333334, "is_reserved": 0, "fusion_lat": 0.0, "type": "electric_scooter"}, {"fusion_lon": 0.0, "name": "820c80b48a73729cb725ed67fe97c7d3", "rental_uris": {"android": "https://dc.lft.to/lastmile_qr_scan", "ios": "https://dc.lft.to/lastmile_qr_scan"}, "lat": 38.903993166666666, "bike_id": "820c80b48a73729cb725ed67fe97c7d3", "is_disabled": 0, "lon": -76.98100066666666, "is_reserved": 0, "fusion_lat": 0.0, "type": "electric_scooter"}, {"fusion_lon": 0.0, "name": "1cfcc479c9bcc31e55926dd3f48dcacd", "rental_uris": {"android": "https://dc.lft.to/lastmile_qr_scan", "ios": "https://dc.lft.to/lastmile_qr_scan"}, "lat": 38.908842, "bike_id": "1cfcc479c9bcc31e55926dd3f48dcacd", "is_disabled": 0, "lon": -76.99124833333333, "is_reserved": 0, "fusion_lat": 0.0, "type": "electric_scooter"}, {"fusion_lon": 0.0, "name": "fddc5a8b39aee4bd262c3cc308da9db3", "rental_uris": {"android": "https://dc.lft.to/lastmile_qr_scan", "ios": "https://dc.lft.to/lastmile_qr_scan"}, "lat": 38.90015283333334, "bike_id": "fddc5a8b39aee4bd262c3cc308da9db3", "is_disabled": 0, "lon": -76.930262, "is_reserved": 0, "fusion_lat": 0.0, "type": "electric_scooter"}, {"fusion_lon": 0.0, "name": "45ccbbee6325d69ef582c1c9faca3a84", "rental_uris": {"android": "https://dc.lft.to/lastmile_qr_scan", "ios": "https://dc.lft.to/lastmile_qr_scan"}, "lat": 38.895022833333336, "bike_id": "45ccbbee6325d69ef582c1c9faca3a84", "is_disabled": 0, "lon": -77.00212283333333, "is_reserved": 0, "fusion_lat": 0.0, "type": "electric_scooter"}, {"fusion_lon": 0.0, "name": "685c7e3b8a49ced22c21cffa7560530e", "rental_uris": {"android": "https://dc.lft.to/lastmile_qr_scan", "ios": "https://dc.lft.to/lastmile_qr_scan"}, "lat": 38.900288333333336, "bike_id": "685c7e3b8a49ced22c21cffa7560530e", "is_disabled": 0, "lon": -77.00193783333333, "is_reserved": 0, "fusion_lat": 0.0, "type": "electric_scooter"}, {"fusion_lon": 0.0, "name": "03c2b789f50988bc372dc31a7883da1d", "rental_uris": {"android": "https://dc.lft.to/lastmile_qr_scan", "ios": "https://dc.lft.to/lastmile_qr_scan"}, "lat": 38.926566, "bike_id": "03c2b789f50988bc372dc31a7883da1d", "is_disabled": 0, "lon": -77.04061016666667, "is_reserved": 0, "fusion_lat": 0.0, "type": "electric_scooter"}, {"fusion_lon": 0.0, "name": "3fca0a48efebe3b588cc02df1ddde97d", "rental_uris": {"android": "https://dc.lft.to/lastmile_qr_scan", "ios": "https://dc.lft.to/lastmile_qr_scan"}, "lat": 38.893009666666664, "bike_id": "3fca0a48efebe3b588cc02df1ddde97d", "is_disabled": 0, "lon": -76.92985683333333, "is_reserved": 0, "fusion_lat": 0.0, "type": "electric_scooter"}, {"fusion_lon": 0.0, "name": "147bd3e6be52e12aa85667eee603db8c", "rental_uris": {"android": "https://dc.lft.to/lastmile_qr_scan", "ios": "https://dc.lft.to/lastmile_qr_scan"}, "lat": 38.8882425, "bike_id": "147bd3e6be52e12aa85667eee603db8c", "is_disabled": 0, "lon": -76.9769975, "is_reserved": 0, "fusion_lat": 0.0, "type": "electric_scooter"}, {"fusion_lon": 0.0, "name": "bb1ad42244097b8aaaccc92fb993c1d6", "rental_uris": {"android": "https://dc.lft.to/lastmile_qr_scan", "ios": "https://dc.lft.to/lastmile_qr_scan"}, "lat": 38.9288135, "bike_id": "bb1ad42244097b8aaaccc92fb993c1d6", "is_disabled": 0, "lon": -77.02600983333333, "is_reserved": 0, "fusion_lat": 0.0, "type": "electric_scooter"}, {"fusion_lon": 0.0, "name": "f81bac922671cedac44425f5e35e440e", "rental_uris": {"android": "https://dc.lft.to/lastmile_qr_scan", "ios": "https://dc.lft.to/lastmile_qr_scan"}, "lat": 38.9205405, "bike_id": "f81bac922671cedac44425f5e35e440e", "is_disabled": 0, "lon": -77.023408, "is_reserved": 0, "fusion_lat": 0.0, "type": "electric_scooter"}, {"fusion_lon": 0.0, "name": "b8bb44a60acf904eb61cee3403585f96", "rental_uris": {"android": "https://dc.lft.to/lastmile_qr_scan", "ios": "https://dc.lft.to/lastmile_qr_scan"}, "lat": 38.91627833333333, "bike_id": "b8bb44a60acf904eb61cee3403585f96", "is_disabled": 0, "lon": -77.00190516666666, "is_reserved": 0, "fusion_lat": 0.0, "type": "electric_scooter"}, {"fusion_lon": 0.0, "name": "8e89e89e59159f512a350985642cc75f", "rental_uris": {"android": "https://dc.lft.to/lastmile_qr_scan", "ios": "https://dc.lft.to/lastmile_qr_scan"}, "lat": 38.90657733333333, "bike_id": "8e89e89e59159f512a350985642cc75f", "is_disabled": 0, "lon": -77.01435933333333, "is_reserved": 0, "fusion_lat": 0.0, "type": "electric_scooter"}, {"fusion_lon": 0.0, "name": "4605b57b19c579e508d239372f4d4132", "rental_uris": {"android": "https://dc.lft.to/lastmile_qr_scan", "ios": "https://dc.lft.to/lastmile_qr_scan"}, "lat": 38.92053583333333, "bike_id": "4605b57b19c579e508d239372f4d4132", "is_disabled": 0, "lon": -77.0330195, "is_reserved": 0, "fusion_lat": 0.0, "type": "electric_scooter"}, {"fusion_lon": 0.0, "name": "f8a8b04ea9138bfe5146e4bf49ae6e13", "rental_uris": {"android": "https://dc.lft.to/lastmile_qr_scan", "ios": "https://dc.lft.to/lastmile_qr_scan"}, "lat": 38.91261516666667, "bike_id": "f8a8b04ea9138bfe5146e4bf49ae6e13", "is_disabled": 0, "lon": -77.0382335, "is_reserved": 0, "fusion_lat": 0.0, "type": "electric_scooter"}, {"fusion_lon": 0.0, "name": "6d7523a938c1e12c6b1e83a84ab36f20", "rental_uris": {"android": "https://dc.lft.to/lastmile_qr_scan", "ios": "https://dc.lft.to/lastmile_qr_scan"}, "lat": 38.91554333333333, "bike_id": "6d7523a938c1e12c6b1e83a84ab36f20", "is_disabled": 0, "lon": -77.036727, "is_reserved": 0, "fusion_lat": 0.0, "type": "electric_scooter"}, {"fusion_lon": 0.0, "name": "0daaff667a8ae804174b9fd93653e0bb", "rental_uris": {"android": "https://dc.lft.to/lastmile_qr_scan", "ios": "https://dc.lft.to/lastmile_qr_scan"}, "lat": 38.94186466666667, "bike_id": "0daaff667a8ae804174b9fd93653e0bb", "is_disabled": 0, "lon": -77.02492083333334, "is_reserved": 0, "fusion_lat": 0.0, "type": "electric_scooter"}, {"fusion_lon": 0.0, "name": "4fac24cf38bfec4635c6f3e685be8ea0", "rental_uris": {"android": "https://dc.lft.to/lastmile_qr_scan", "ios": "https://dc.lft.to/lastmile_qr_scan"}, "lat": 38.92156583333333, "bike_id": "4fac24cf38bfec4635c6f3e685be8ea0", "is_disabled": 0, "lon": -77.03529716666667, "is_reserved": 0, "fusion_lat": 0.0, "type": "electric_scooter"}, {"fusion_lon": 0.0, "name": "8b2cc126a0735e208fbacfb473d0e69c", "rental_uris": {"android": "https://dc.lft.to/lastmile_qr_scan", "ios": "https://dc.lft.to/lastmile_qr_scan"}, "lat": 38.91671983333333, "bike_id": "8b2cc126a0735e208fbacfb473d0e69c", "is_disabled": 0, "lon": -77.02298816666666, "is_reserved": 0, "fusion_lat": 0.0, "type": "electric_scooter"}, {"fusion_lon": 0.0, "name": "6167640c34e4ffd027ae29034da2595b", "rental_uris": {"android": "https://dc.lft.to/lastmile_qr_scan", "ios": "https://dc.lft.to/lastmile_qr_scan"}, "lat": 38.878615333333336, "bike_id": "6167640c34e4ffd027ae29034da2595b", "is_disabled": 0, "lon": -77.00496716666666, "is_reserved": 0, "fusion_lat": 0.0, "type": "electric_scooter"}, {"fusion_lon": 0.0, "name": "b105e93a2a9f1c48641512e709da0067", "rental_uris": {"android": "https://dc.lft.to/lastmile_qr_scan", "ios": "https://dc.lft.to/lastmile_qr_scan"}, "lat": 38.937392, "bike_id": "b105e93a2a9f1c48641512e709da0067", "is_disabled": 0, "lon": -77.03259416666667, "is_reserved": 0, "fusion_lat": 0.0, "type": "electric_scooter"}, {"fusion_lon": 0.0, "name": "dc41d150b9b7524f206c9bff0dcd72c5", "rental_uris": {"android": "https://dc.lft.to/lastmile_qr_scan", "ios": "https://dc.lft.to/lastmile_qr_scan"}, "lat": 38.8784335, "bike_id": "dc41d150b9b7524f206c9bff0dcd72c5", "is_disabled": 0, "lon": -77.01964466666666, "is_reserved": 0, "fusion_lat": 0.0, "type": "electric_scooter"}, {"fusion_lon": 0.0, "name": "188a36a795578f417442921d502e8af8", "rental_uris": {"android": "https://dc.lft.to/lastmile_qr_scan", "ios": "https://dc.lft.to/lastmile_qr_scan"}, "lat": 38.89524, "bike_id": "188a36a795578f417442921d502e8af8", "is_disabled": 0, "lon": -76.99193233333334, "is_reserved": 0, "fusion_lat": 0.0, "type": "electric_scooter"}, {"fusion_lon": 0.0, "name": "d2b682cd8c3e911843390c9d462c27d9", "rental_uris": {"android": "https://dc.lft.to/lastmile_qr_scan", "ios": "https://dc.lft.to/lastmile_qr_scan"}, "lat": 38.900900166666666, "bike_id": "d2b682cd8c3e911843390c9d462c27d9", "is_disabled": 0, "lon": -77.02010116666666, "is_reserved": 0, "fusion_lat": 0.0, "type": "electric_scooter"}, {"fusion_lon": 0.0, "name": "ac93158b84fc5e61c638d5f5e892d03a", "rental_uris": {"android": "https://dc.lft.to/lastmile_qr_scan", "ios": "https://dc.lft.to/lastmile_qr_scan"}, "lat": 39.02540883333333, "bike_id": "ac93158b84fc5e61c638d5f5e892d03a", "is_disabled": 0, "lon": -77.0444475, "is_reserved": 0, "fusion_lat": 0.0, "type": "electric_bike"}, {"fusion_lon": 0.0, "name": "68d951e366fc733aa871daba191bd118", "rental_uris": {"android": "https://dc.lft.to/lastmile_qr_scan", "ios": "https://dc.lft.to/lastmile_qr_scan"}, "lat": 38.91601133333333, "bike_id": "68d951e366fc733aa871daba191bd118", "is_disabled": 0, "lon": -77.04168766666666, "is_reserved": 0, "fusion_lat": 0.0, "type": "electric_scooter"}, {"fusion_lon": 0.0, "name": "5416b5823e3a5dab6dfbba01c0dc3fdb", "rental_uris": {"android": "https://dc.lft.to/lastmile_qr_scan", "ios": "https://dc.lft.to/lastmile_qr_scan"}, "lat": 38.897374, "bike_id": "5416b5823e3a5dab6dfbba01c0dc3fdb", "is_disabled": 0, "lon": -76.97577966666667, "is_reserved": 0, "fusion_lat": 0.0, "type": "electric_scooter"}, {"fusion_lon": 0.0, "name": "93642bba41d0ab13e0113e2c2a92e0bd", "rental_uris": {"android": "https://dc.lft.to/lastmile_qr_scan", "ios": "https://dc.lft.to/lastmile_qr_scan"}, "lat": 38.9085305, "bike_id": "93642bba41d0ab13e0113e2c2a92e0bd", "is_disabled": 0, "lon": -77.0233355, "is_reserved": 0, "fusion_lat": 0.0, "type": "electric_scooter"}, {"fusion_lon": 0.0, "name": "a6962c8aab8923eb9e26bc90f88561f2", "rental_uris": {"android": "https://dc.lft.to/lastmile_qr_scan", "ios": "https://dc.lft.to/lastmile_qr_scan"}, "lat": 38.9236225, "bike_id": "a6962c8aab8923eb9e26bc90f88561f2", "is_disabled": 0, "lon": -77.05048533333333, "is_reserved": 0, "fusion_lat": 0.0, "type": "electric_scooter"}, {"fusion_lon": 0.0, "name": "96c019fda44f25f3fde5ed91f9ca940e", "rental_uris": {"android": "https://dc.lft.to/lastmile_qr_scan", "ios": "https://dc.lft.to/lastmile_qr_scan"}, "lat": 38.91217566666667, "bike_id": "96c019fda44f25f3fde5ed91f9ca940e", "is_disabled": 0, "lon": -77.031969, "is_reserved": 0, "fusion_lat": 0.0, "type": "electric_scooter"}, {"fusion_lon": 0.0, "name": "c769f3f99d0edeb359f014febb162f4c", "rental_uris": {"android": "https://dc.lft.to/lastmile_qr_scan", "ios": "https://dc.lft.to/lastmile_qr_scan"}, "lat": 38.89230883333333, "bike_id": "c769f3f99d0edeb359f014febb162f4c", "is_disabled": 0, "lon": -77.04998883333333, "is_reserved": 0, "fusion_lat": 0.0, "type": "electric_scooter"}, {"fusion_lon": 0.0, "name": "8a5e44ee63d427cdeac5b101e9657fc0", "rental_uris": {"android": "https://dc.lft.to/lastmile_qr_scan", "ios": "https://dc.lft.to/lastmile_qr_scan"}, "lat": 38.91264983333333, "bike_id": "8a5e44ee63d427cdeac5b101e9657fc0", "is_disabled": 0, "lon": -77.03281816666667, "is_reserved": 0, "fusion_lat": 0.0, "type": "electric_scooter"}, {"fusion_lon": 0.0, "name": "7ccb8e7997b74d492e8670519bce6efd", "rental_uris": {"android": "https://dc.lft.to/lastmile_qr_scan", "ios": "https://dc.lft.to/lastmile_qr_scan"}, "lat": 38.87478333333333, "bike_id": "7ccb8e7997b74d492e8670519bce6efd", "is_disabled": 0, "lon": -77.00886116666666, "is_reserved": 0, "fusion_lat": 0.0, "type": "electric_bike"}, {"fusion_lon": 0.0, "name": "aea5d9a1e19ced99e6deffc08cb65b5e", "rental_uris": {"android": "https://dc.lft.to/lastmile_qr_scan", "ios": "https://dc.lft.to/lastmile_qr_scan"}, "lat": 38.89593583333333, "bike_id": "aea5d9a1e19ced99e6deffc08cb65b5e", "is_disabled": 0, "lon": -77.04806866666667, "is_reserved": 0, "fusion_lat": 0.0, "type": "electric_scooter"}, {"fusion_lon": 0.0, "name": "e839979b3a9e75f4d2644d75a5f57c2a", "rental_uris": {"android": "https://dc.lft.to/lastmile_qr_scan", "ios": "https://dc.lft.to/lastmile_qr_scan"}, "lat": 38.885132, "bike_id": "e839979b3a9e75f4d2644d75a5f57c2a", "is_disabled": 0, "lon": -77.01118433333333, "is_reserved": 0, "fusion_lat": 0.0, "type": "electric_scooter"}, {"fusion_lon": 0.0, "name": "aa537dd7711b9b809a9e2960284ef645", "rental_uris": {"android": "https://dc.lft.to/lastmile_qr_scan", "ios": "https://dc.lft.to/lastmile_qr_scan"}, "lat": 38.8876835, "bike_id": "aa537dd7711b9b809a9e2960284ef645", "is_disabled": 0, "lon": -76.99758333333334, "is_reserved": 0, "fusion_lat": 0.0, "type": "electric_scooter"}, {"fusion_lon": 0.0, "name": "51dde1d20debd9b1e2d951f8611d1395", "rental_uris": {"android": "https://dc.lft.to/lastmile_qr_scan", "ios": "https://dc.lft.to/lastmile_qr_scan"}, "lat": 38.900195333333336, "bike_id": "51dde1d20debd9b1e2d951f8611d1395", "is_disabled": 0, "lon": -77.04666166666667, "is_reserved": 0, "fusion_lat": 0.0, "type": "electric_scooter"}, {"fusion_lon": 0.0, "name": "251fb46babc01cf491a584502affbe7e", "rental_uris": {"android": "https://dc.lft.to/lastmile_qr_scan", "ios": "https://dc.lft.to/lastmile_qr_scan"}, "lat": 38.905978, "bike_id": "251fb46babc01cf491a584502affbe7e", "is_disabled": 0, "lon": -77.02605233333334, "is_reserved": 0, "fusion_lat": 0.0, "type": "electric_scooter"}, {"fusion_lon": 0.0, "name": "963453fdbd9db94851941c79e209e72e", "rental_uris": {"android": "https://dc.lft.to/lastmile_qr_scan", "ios": "https://dc.lft.to/lastmile_qr_scan"}, "lat": 38.90711366666667, "bike_id": "963453fdbd9db94851941c79e209e72e", "is_disabled": 0, "lon": -77.02387383333334, "is_reserved": 0, "fusion_lat": 0.0, "type": "electric_scooter"}, {"fusion_lon": 0.0, "name": "7a698f3238ff38956c6915511ba82b7f", "rental_uris": {"android": "https://dc.lft.to/lastmile_qr_scan", "ios": "https://dc.lft.to/lastmile_qr_scan"}, "lat": 38.92375233333333, "bike_id": "7a698f3238ff38956c6915511ba82b7f", "is_disabled": 0, "lon": -77.0304575, "is_reserved": 0, "fusion_lat": 0.0, "type": "electric_scooter"}, {"fusion_lon": 0.0, "name": "1eca64df3f24470679027876c774b489", "rental_uris": {"android": "https://dc.lft.to/lastmile_qr_scan", "ios": "https://dc.lft.to/lastmile_qr_scan"}, "lat": 38.93843966666667, "bike_id": "1eca64df3f24470679027876c774b489", "is_disabled": 0, "lon": -77.02445866666666, "is_reserved": 0, "fusion_lat": 0.0, "type": "electric_scooter"}, {"fusion_lon": 0.0, "name": "9fa601f8acc6ab842219491df56e6af6", "rental_uris": {"android": "https://dc.lft.to/lastmile_qr_scan", "ios": "https://dc.lft.to/lastmile_qr_scan"}, "lat": 38.902119666666664, "bike_id": "9fa601f8acc6ab842219491df56e6af6", "is_disabled": 0, "lon": -77.01591183333333, "is_reserved": 0, "fusion_lat": 0.0, "type": "electric_scooter"}, {"fusion_lon": 0.0, "name": "07c24bb7d7c4c7cb2e0c216499520ba9", "rental_uris": {"android": "https://dc.lft.to/lastmile_qr_scan", "ios": "https://dc.lft.to/lastmile_qr_scan"}, "lat": 38.915684666666664, "bike_id": "07c24bb7d7c4c7cb2e0c216499520ba9", "is_disabled": 0, "lon": -77.023973, "is_reserved": 0, "fusion_lat": 0.0, "type": "electric_scooter"}, {"fusion_lon": 0.0, "name": "f2d067e10fdaa656ec0160d364e1316d", "rental_uris": {"android": "https://dc.lft.to/lastmile_qr_scan", "ios": "https://dc.lft.to/lastmile_qr_scan"}, "lat": 38.9225915, "bike_id": "f2d067e10fdaa656ec0160d364e1316d", "is_disabled": 0, "lon": -77.0732575, "is_reserved": 0, "fusion_lat": 0.0, "type": "electric_scooter"}, {"fusion_lon": 0.0, "name": "d0ff4216075f54e260f09bb19a1b5dec", "rental_uris": {"android": "https://dc.lft.to/lastmile_qr_scan", "ios": "https://dc.lft.to/lastmile_qr_scan"}, "lat": 38.9572295, "bike_id": "d0ff4216075f54e260f09bb19a1b5dec", "is_disabled": 0, "lon": -77.00235683333334, "is_reserved": 0, "fusion_lat": 0.0, "type": "electric_scooter"}, {"fusion_lon": 0.0, "name": "18cbd947bcb7156a8b37420827083c3d", "rental_uris": {"android": "https://dc.lft.to/lastmile_qr_scan", "ios": "https://dc.lft.to/lastmile_qr_scan"}, "lat": 38.90456483333333, "bike_id": "18cbd947bcb7156a8b37420827083c3d", "is_disabled": 0, "lon": -77.029428, "is_reserved": 0, "fusion_lat": 0.0, "type": "electric_scooter"}, {"fusion_lon": 0.0, "name": "09957a71a1f4540884f7ef55f8da16bd", "rental_uris": {"android": "https://dc.lft.to/lastmile_qr_scan", "ios": "https://dc.lft.to/lastmile_qr_scan"}, "lat": 38.969364, "bike_id": "09957a71a1f4540884f7ef55f8da16bd", "is_disabled": 0, "lon": -77.02707883333333, "is_reserved": 0, "fusion_lat": 0.0, "type": "electric_scooter"}, {"fusion_lon": 0.0, "name": "665456120224fe431e96cbdfe036e99a", "rental_uris": {"android": "https://dc.lft.to/lastmile_qr_scan", "ios": "https://dc.lft.to/lastmile_qr_scan"}, "lat": 38.90036883333333, "bike_id": "665456120224fe431e96cbdfe036e99a", "is_disabled": 0, "lon": -76.99472966666667, "is_reserved": 0, "fusion_lat": 0.0, "type": "electric_scooter"}, {"fusion_lon": 0.0, "name": "90bbc160c0b013b975f68e8d0f335d18", "rental_uris": {"android": "https://dc.lft.to/lastmile_qr_scan", "ios": "https://dc.lft.to/lastmile_qr_scan"}, "lat": 38.923300166666664, "bike_id": "90bbc160c0b013b975f68e8d0f335d18", "is_disabled": 0, "lon": -77.03779766666666, "is_reserved": 0, "fusion_lat": 0.0, "type": "electric_scooter"}, {"fusion_lon": 0.0, "name": "4f3e5b3dbe3155eae736e06c40727f36", "rental_uris": {"android": "https://dc.lft.to/lastmile_qr_scan", "ios": "https://dc.lft.to/lastmile_qr_scan"}, "lat": 38.92684466666667, "bike_id": "4f3e5b3dbe3155eae736e06c40727f36", "is_disabled": 0, "lon": -77.01487616666667, "is_reserved": 0, "fusion_lat": 0.0, "type": "electric_scooter"}, {"fusion_lon": 0.0, "name": "d0009945fb667aabcb7686ac1049274c", "rental_uris": {"android": "https://dc.lft.to/lastmile_qr_scan", "ios": "https://dc.lft.to/lastmile_qr_scan"}, "lat": 38.9239235, "bike_id": "d0009945fb667aabcb7686ac1049274c", "is_disabled": 0, "lon": -77.02556583333333, "is_reserved": 0, "fusion_lat": 0.0, "type": "electric_scooter"}, {"fusion_lon": 0.0, "name": "b3d450bf9c1f37bb77677846bdadcfa7", "rental_uris": {"android": "https://dc.lft.to/lastmile_qr_scan", "ios": "https://dc.lft.to/lastmile_qr_scan"}, "lat": 38.905162833333335, "bike_id": "b3d450bf9c1f37bb77677846bdadcfa7", "is_disabled": 0, "lon": -77.06005516666667, "is_reserved": 0, "fusion_lat": 0.0, "type": "electric_scooter"}, {"fusion_lon": 0.0, "name": "ebcd636c638d883a20dba1aee46d6c8b", "rental_uris": {"android": "https://dc.lft.to/lastmile_qr_scan", "ios": "https://dc.lft.to/lastmile_qr_scan"}, "lat": 38.92224216666666, "bike_id": "ebcd636c638d883a20dba1aee46d6c8b", "is_disabled": 0, "lon": -77.0180695, "is_reserved": 0, "fusion_lat": 0.0, "type": "electric_scooter"}, {"fusion_lon": 0.0, "name": "66b1101753360cbe1332014584acebbc", "rental_uris": {"android": "https://dc.lft.to/lastmile_qr_scan", "ios": "https://dc.lft.to/lastmile_qr_scan"}, "lat": 38.906841666666665, "bike_id": "66b1101753360cbe1332014584acebbc", "is_disabled": 0, "lon": -77.02694833333334, "is_reserved": 0, "fusion_lat": 0.0, "type": "electric_scooter"}, {"fusion_lon": 0.0, "name": "6e4ea05f2d14eec1de6ea4b470bc62e5", "rental_uris": {"android": "https://dc.lft.to/lastmile_qr_scan", "ios": "https://dc.lft.to/lastmile_qr_scan"}, "lat": 38.9012985, "bike_id": "6e4ea05f2d14eec1de6ea4b470bc62e5", "is_disabled": 0, "lon": -77.03051066666667, "is_reserved": 0, "fusion_lat": 0.0, "type": "electric_scooter"}, {"fusion_lon": 0.0, "name": "dfc84cf36bc0669def0d55d43c98e4f0", "rental_uris": {"android": "https://dc.lft.to/lastmile_qr_scan", "ios": "https://dc.lft.to/lastmile_qr_scan"}, "lat": 38.902463833333336, "bike_id": "dfc84cf36bc0669def0d55d43c98e4f0", "is_disabled": 0, "lon": -77.0020265, "is_reserved": 0, "fusion_lat": 0.0, "type": "electric_scooter"}, {"fusion_lon": 0.0, "name": "af9ebaac85fc72b2079ebe1473ff0832", "rental_uris": {"android": "https://dc.lft.to/lastmile_qr_scan", "ios": "https://dc.lft.to/lastmile_qr_scan"}, "lat": 38.901544333333334, "bike_id": "af9ebaac85fc72b2079ebe1473ff0832", "is_disabled": 0, "lon": -77.0216495, "is_reserved": 0, "fusion_lat": 0.0, "type": "electric_scooter"}, {"fusion_lon": 0.0, "name": "d99ee304fdff798ab3e01fbebf1d57d5", "rental_uris": {"android": "https://dc.lft.to/lastmile_qr_scan", "ios": "https://dc.lft.to/lastmile_qr_scan"}, "lat": 38.871813333333336, "bike_id": "d99ee304fdff798ab3e01fbebf1d57d5", "is_disabled": 0, "lon": -77.00627866666666, "is_reserved": 0, "fusion_lat": 0.0, "type": "electric_scooter"}, {"fusion_lon": 0.0, "name": "390b194fb5e071faa2446041c2089b0f", "rental_uris": {"android": "https://dc.lft.to/lastmile_qr_scan", "ios": "https://dc.lft.to/lastmile_qr_scan"}, "lat": 38.934503, "bike_id": "390b194fb5e071faa2446041c2089b0f", "is_disabled": 0, "lon": -77.089629, "is_reserved": 0, "fusion_lat": 0.0, "type": "electric_scooter"}, {"fusion_lon": 0.0, "name": "d1b0c601822d4185bf359e8523ae157c", "rental_uris": {"android": "https://dc.lft.to/lastmile_qr_scan", "ios": "https://dc.lft.to/lastmile_qr_scan"}, "lat": 38.92929266666667, "bike_id": "d1b0c601822d4185bf359e8523ae157c", "is_disabled": 0, "lon": -77.00670833333334, "is_reserved": 0, "fusion_lat": 0.0, "type": "electric_scooter"}, {"fusion_lon": 0.0, "name": "d2cc22123cbb91a8e95d490535c91579", "rental_uris": {"android": "https://dc.lft.to/lastmile_qr_scan", "ios": "https://dc.lft.to/lastmile_qr_scan"}, "lat": 38.925488666666666, "bike_id": "d2cc22123cbb91a8e95d490535c91579", "is_disabled": 0, "lon": -77.02981116666666, "is_reserved": 0, "fusion_lat": 0.0, "type": "electric_scooter"}, {"fusion_lon": 0.0, "name": "3a6c870d82bbc7e0c625c902c11dc847", "rental_uris": {"android": "https://dc.lft.to/lastmile_qr_scan", "ios": "https://dc.lft.to/lastmile_qr_scan"}, "lat": 38.92673416666667, "bike_id": "3a6c870d82bbc7e0c625c902c11dc847", "is_disabled": 0, "lon": -77.0308715, "is_reserved": 0, "fusion_lat": 0.0, "type": "electric_scooter"}, {"fusion_lon": 0.0, "name": "7c12a3dac7a93ed76c42486f85141a97", "rental_uris": {"android": "https://dc.lft.to/lastmile_qr_scan", "ios": "https://dc.lft.to/lastmile_qr_scan"}, "lat": 38.938864333333335, "bike_id": "7c12a3dac7a93ed76c42486f85141a97", "is_disabled": 0, "lon": -77.02483116666667, "is_reserved": 0, "fusion_lat": 0.0, "type": "electric_scooter"}, {"fusion_lon": 0.0, "name": "4b9b6cc9a47fae92e81c402f1d341988", "rental_uris": {"android": "https://dc.lft.to/lastmile_qr_scan", "ios": "https://dc.lft.to/lastmile_qr_scan"}, "lat": 38.91252466666667, "bike_id": "4b9b6cc9a47fae92e81c402f1d341988", "is_disabled": 0, "lon": -76.98358866666666, "is_reserved": 0, "fusion_lat": 0.0, "type": "electric_scooter"}, {"fusion_lon": 0.0, "name": "152ba88bf8e026466fb8d5907d4ae2a4", "rental_uris": {"android": "https://dc.lft.to/lastmile_qr_scan", "ios": "https://dc.lft.to/lastmile_qr_scan"}, "lat": 38.934643, "bike_id": "152ba88bf8e026466fb8d5907d4ae2a4", "is_disabled": 0, "lon": -77.0580875, "is_reserved": 0, "fusion_lat": 0.0, "type": "electric_scooter"}, {"fusion_lon": 0.0, "name": "22b42e2739527540065b7a147b19ddfa", "rental_uris": {"android": "https://dc.lft.to/lastmile_qr_scan", "ios": "https://dc.lft.to/lastmile_qr_scan"}, "lat": 38.905635, "bike_id": "22b42e2739527540065b7a147b19ddfa", "is_disabled": 0, "lon": -76.982115, "is_reserved": 0, "fusion_lat": 0.0, "type": "electric_scooter"}, {"fusion_lon": 0.0, "name": "6b078d108f92b66e258fbd99d8a8f3a1", "rental_uris": {"android": "https://dc.lft.to/lastmile_qr_scan", "ios": "https://dc.lft.to/lastmile_qr_scan"}, "lat": 38.89741183333334, "bike_id": "6b078d108f92b66e258fbd99d8a8f3a1", "is_disabled": 0, "lon": -77.04477933333334, "is_reserved": 0, "fusion_lat": 0.0, "type": "electric_scooter"}, {"fusion_lon": 0.0, "name": "37604c91646393e37c0f2192bd3f0b64", "rental_uris": {"android": "https://dc.lft.to/lastmile_qr_scan", "ios": "https://dc.lft.to/lastmile_qr_scan"}, "lat": 38.876562166666666, "bike_id": "37604c91646393e37c0f2192bd3f0b64", "is_disabled": 0, "lon": -77.00573183333333, "is_reserved": 0, "fusion_lat": 0.0, "type": "electric_scooter"}, {"fusion_lon": 0.0, "name": "e2f3fbdd8a7aac5a69a3a488aea425f8", "rental_uris": {"android": "https://dc.lft.to/lastmile_qr_scan", "ios": "https://dc.lft.to/lastmile_qr_scan"}, "lat": 38.901809, "bike_id": "e2f3fbdd8a7aac5a69a3a488aea425f8", "is_disabled": 0, "lon": -77.02406466666666, "is_reserved": 0, "fusion_lat": 0.0, "type": "electric_scooter"}, {"fusion_lon": 0.0, "name": "27f5190122b1eb4356ebfd2e91229742", "rental_uris": {"android": "https://dc.lft.to/lastmile_qr_scan", "ios": "https://dc.lft.to/lastmile_qr_scan"}, "lat": 38.92802183333333, "bike_id": "27f5190122b1eb4356ebfd2e91229742", "is_disabled": 0, "lon": -77.02188016666666, "is_reserved": 0, "fusion_lat": 0.0, "type": "electric_bike"}, {"fusion_lon": 0.0, "name": "8df5cd999040f353ad81f6350dddfba5", "rental_uris": {"android": "https://dc.lft.to/lastmile_qr_scan", "ios": "https://dc.lft.to/lastmile_qr_scan"}, "lat": 38.90241283333334, "bike_id": "8df5cd999040f353ad81f6350dddfba5", "is_disabled": 0, "lon": -77.0020055, "is_reserved": 0, "fusion_lat": 0.0, "type": "electric_scooter"}, {"fusion_lon": 0.0, "name": "7c3475c78d2480bbaeec8b74ceed7046", "rental_uris": {"android": "https://dc.lft.to/lastmile_qr_scan", "ios": "https://dc.lft.to/lastmile_qr_scan"}, "lat": 38.880346333333335, "bike_id": "7c3475c78d2480bbaeec8b74ceed7046", "is_disabled": 0, "lon": -77.005495, "is_reserved": 0, "fusion_lat": 0.0, "type": "electric_scooter"}, {"fusion_lon": 0.0, "name": "3976b77c1aa1e596e2005ddc65321b36", "rental_uris": {"android": "https://dc.lft.to/lastmile_qr_scan", "ios": "https://dc.lft.to/lastmile_qr_scan"}, "lat": 38.89748766666666, "bike_id": "3976b77c1aa1e596e2005ddc65321b36", "is_disabled": 0, "lon": -77.02673316666667, "is_reserved": 0, "fusion_lat": 0.0, "type": "electric_scooter"}, {"fusion_lon": 0.0, "name": "d146e50e1e6088d4e0280efd69d45c6b", "rental_uris": {"android": "https://dc.lft.to/lastmile_qr_scan", "ios": "https://dc.lft.to/lastmile_qr_scan"}, "lat": 38.899074166666665, "bike_id": "d146e50e1e6088d4e0280efd69d45c6b", "is_disabled": 0, "lon": -76.93867633333333, "is_reserved": 0, "fusion_lat": 0.0, "type": "electric_scooter"}, {"fusion_lon": 0.0, "name": "4ad822a11b4e398d85e0c9aae6d4ea34", "rental_uris": {"android": "https://dc.lft.to/lastmile_qr_scan", "ios": "https://dc.lft.to/lastmile_qr_scan"}, "lat": 38.910232666666666, "bike_id": "4ad822a11b4e398d85e0c9aae6d4ea34", "is_disabled": 0, "lon": -77.04870283333334, "is_reserved": 0, "fusion_lat": 0.0, "type": "electric_scooter"}, {"fusion_lon": 0.0, "name": "b744f5f74dc53a1bde1553d402ecd5e1", "rental_uris": {"android": "https://dc.lft.to/lastmile_qr_scan", "ios": "https://dc.lft.to/lastmile_qr_scan"}, "lat": 38.88072916666667, "bike_id": "b744f5f74dc53a1bde1553d402ecd5e1", "is_disabled": 0, "lon": -77.01521233333334, "is_reserved": 0, "fusion_lat": 0.0, "type": "electric_scooter"}, {"fusion_lon": 0.0, "name": "dae4375bc7d5e427f097dd2cc8fff675", "rental_uris": {"android": "https://dc.lft.to/lastmile_qr_scan", "ios": "https://dc.lft.to/lastmile_qr_scan"}, "lat": 38.9160635, "bike_id": "dae4375bc7d5e427f097dd2cc8fff675", "is_disabled": 0, "lon": -77.02304583333333, "is_reserved": 0, "fusion_lat": 0.0, "type": "electric_scooter"}, {"fusion_lon": 0.0, "name": "f4f45ad6ba1a0b1cb56a241f34250728", "rental_uris": {"android": "https://dc.lft.to/lastmile_qr_scan", "ios": "https://dc.lft.to/lastmile_qr_scan"}, "lat": 38.9737235, "bike_id": "f4f45ad6ba1a0b1cb56a241f34250728", "is_disabled": 0, "lon": -77.01864766666667, "is_reserved": 0, "fusion_lat": 0.0, "type": "electric_scooter"}, {"fusion_lon": 0.0, "name": "647e9d7fa49f83ae05b5cbd1602fc650", "rental_uris": {"android": "https://dc.lft.to/lastmile_qr_scan", "ios": "https://dc.lft.to/lastmile_qr_scan"}, "lat": 38.907795166666666, "bike_id": "647e9d7fa49f83ae05b5cbd1602fc650", "is_disabled": 0, "lon": -76.998582, "is_reserved": 0, "fusion_lat": 0.0, "type": "electric_scooter"}, {"fusion_lon": 0.0, "name": "13a0eea7e0fd55c8ac695968b24c7a91", "rental_uris": {"android": "https://dc.lft.to/lastmile_qr_scan", "ios": "https://dc.lft.to/lastmile_qr_scan"}, "lat": 38.905890166666666, "bike_id": "13a0eea7e0fd55c8ac695968b24c7a91", "is_disabled": 0, "lon": -77.04687, "is_reserved": 0, "fusion_lat": 0.0, "type": "electric_scooter"}, {"fusion_lon": 0.0, "name": "233c06ab56f331bdd3b640a4b2117c06", "rental_uris": {"android": "https://dc.lft.to/lastmile_qr_scan", "ios": "https://dc.lft.to/lastmile_qr_scan"}, "lat": 38.917619333333334, "bike_id": "233c06ab56f331bdd3b640a4b2117c06", "is_disabled": 0, "lon": -77.0092, "is_reserved": 0, "fusion_lat": 0.0, "type": "electric_scooter"}, {"fusion_lon": 0.0, "name": "12e5149a73c28bcd49dd04cd0f54ada2", "rental_uris": {"android": "https://dc.lft.to/lastmile_qr_scan", "ios": "https://dc.lft.to/lastmile_qr_scan"}, "lat": 38.909681166666665, "bike_id": "12e5149a73c28bcd49dd04cd0f54ada2", "is_disabled": 0, "lon": -77.04496283333333, "is_reserved": 0, "fusion_lat": 0.0, "type": "electric_scooter"}, {"fusion_lon": 0.0, "name": "683fc855d056b090a49775f575112444", "rental_uris": {"android": "https://dc.lft.to/lastmile_qr_scan", "ios": "https://dc.lft.to/lastmile_qr_scan"}, "lat": 38.903683666666666, "bike_id": "683fc855d056b090a49775f575112444", "is_disabled": 0, "lon": -76.99835966666667, "is_reserved": 0, "fusion_lat": 0.0, "type": "electric_scooter"}, {"fusion_lon": 0.0, "name": "4a0435baa1713f3e8d8674399d72f894", "rental_uris": {"android": "https://dc.lft.to/lastmile_qr_scan", "ios": "https://dc.lft.to/lastmile_qr_scan"}, "lat": 38.808660833333334, "bike_id": "4a0435baa1713f3e8d8674399d72f894", "is_disabled": 0, "lon": -77.11251583333333, "is_reserved": 0, "fusion_lat": 0.0, "type": "electric_bike"}, {"fusion_lon": 0.0, "name": "39a2c3d7aa087d4d9983d119c239f2ff", "rental_uris": {"android": "https://dc.lft.to/lastmile_qr_scan", "ios": "https://dc.lft.to/lastmile_qr_scan"}, "lat": 38.905320333333336, "bike_id": "39a2c3d7aa087d4d9983d119c239f2ff", "is_disabled": 0, "lon": -77.06241683333333, "is_reserved": 0, "fusion_lat": 0.0, "type": "electric_scooter"}, {"fusion_lon": 0.0, "name": "57a86b3ad0c080c1059e57ef66b17ec7", "rental_uris": {"android": "https://dc.lft.to/lastmile_qr_scan", "ios": "https://dc.lft.to/lastmile_qr_scan"}, "lat": 38.941678333333336, "bike_id": "57a86b3ad0c080c1059e57ef66b17ec7", "is_disabled": 0, "lon": -77.02558316666666, "is_reserved": 0, "fusion_lat": 0.0, "type": "electric_scooter"}, {"fusion_lon": 0.0, "name": "160841cf70b910db4da02450f8f68a06", "rental_uris": {"android": "https://dc.lft.to/lastmile_qr_scan", "ios": "https://dc.lft.to/lastmile_qr_scan"}, "lat": 38.8717685, "bike_id": "160841cf70b910db4da02450f8f68a06", "is_disabled": 0, "lon": -77.23391533333333, "is_reserved": 0, "fusion_lat": 0.0, "type": "electric_bike"}, {"fusion_lon": 0.0, "name": "e8685115dd97331e1cbb7dc7af83f9d6", "rental_uris": {"android": "https://dc.lft.to/lastmile_qr_scan", "ios": "https://dc.lft.to/lastmile_qr_scan"}, "lat": 38.916610166666665, "bike_id": "e8685115dd97331e1cbb7dc7af83f9d6", "is_disabled": 0, "lon": -77.00946883333333, "is_reserved": 0, "fusion_lat": 0.0, "type": "electric_scooter"}, {"fusion_lon": 0.0, "name": "0ff1688f0f26466f613307482927ac70", "rental_uris": {"android": "https://dc.lft.to/lastmile_qr_scan", "ios": "https://dc.lft.to/lastmile_qr_scan"}, "lat": 38.9148195, "bike_id": "0ff1688f0f26466f613307482927ac70", "is_disabled": 0, "lon": -77.04012233333333, "is_reserved": 0, "fusion_lat": 0.0, "type": "electric_scooter"}, {"fusion_lon": 0.0, "name": "fc9306342c4a9ba97c873021a4a8081a", "rental_uris": {"android": "https://dc.lft.to/lastmile_qr_scan", "ios": "https://dc.lft.to/lastmile_qr_scan"}, "lat": 38.872077833333336, "bike_id": "fc9306342c4a9ba97c873021a4a8081a", "is_disabled": 0, "lon": -77.0092375, "is_reserved": 0, "fusion_lat": 0.0, "type": "electric_scooter"}, {"fusion_lon": 0.0, "name": "e1c080f7cd0da46f614f2225e7bcf7eb", "rental_uris": {"android": "https://dc.lft.to/lastmile_qr_scan", "ios": "https://dc.lft.to/lastmile_qr_scan"}, "lat": 38.875729666666665, "bike_id": "e1c080f7cd0da46f614f2225e7bcf7eb", "is_disabled": 0, "lon": -77.00579283333333, "is_reserved": 0, "fusion_lat": 0.0, "type": "electric_scooter"}, {"fusion_lon": 0.0, "name": "3a194efdd54921a667900d9bfd479d9e", "rental_uris": {"android": "https://dc.lft.to/lastmile_qr_scan", "ios": "https://dc.lft.to/lastmile_qr_scan"}, "lat": 38.90969583333333, "bike_id": "3a194efdd54921a667900d9bfd479d9e", "is_disabled": 0, "lon": -77.02434466666666, "is_reserved": 0, "fusion_lat": 0.0, "type": "electric_scooter"}, {"fusion_lon": 0.0, "name": "2b1552991db6ef97f2fe87490df4fbde", "rental_uris": {"android": "https://dc.lft.to/lastmile_qr_scan", "ios": "https://dc.lft.to/lastmile_qr_scan"}, "lat": 38.90867, "bike_id": "2b1552991db6ef97f2fe87490df4fbde", "is_disabled": 0, "lon": -77.0322095, "is_reserved": 0, "fusion_lat": 0.0, "type": "electric_scooter"}, {"fusion_lon": 0.0, "name": "a0a561ecfa9e00fee6b83797fd21ec32", "rental_uris": {"android": "https://dc.lft.to/lastmile_qr_scan", "ios": "https://dc.lft.to/lastmile_qr_scan"}, "lat": 38.875267, "bike_id": "a0a561ecfa9e00fee6b83797fd21ec32", "is_disabled": 0, "lon": -77.01232416666667, "is_reserved": 0, "fusion_lat": 0.0, "type": "electric_scooter"}, {"fusion_lon": 0.0, "name": "4affa575326d9c823c149507609e279f", "rental_uris": {"android": "https://dc.lft.to/lastmile_qr_scan", "ios": "https://dc.lft.to/lastmile_qr_scan"}, "lat": 38.9225475, "bike_id": "4affa575326d9c823c149507609e279f", "is_disabled": 0, "lon": -76.98642683333334, "is_reserved": 0, "fusion_lat": 0.0, "type": "electric_scooter"}, {"fusion_lon": 0.0, "name": "cdeca60717f032bacd6406c902aab2f0", "rental_uris": {"android": "https://dc.lft.to/lastmile_qr_scan", "ios": "https://dc.lft.to/lastmile_qr_scan"}, "lat": 38.973147833333336, "bike_id": "cdeca60717f032bacd6406c902aab2f0", "is_disabled": 0, "lon": -77.02705633333333, "is_reserved": 0, "fusion_lat": 0.0, "type": "electric_scooter"}, {"fusion_lon": 0.0, "name": "0ae887f0d69a95f6d3589bad0d1c5159", "rental_uris": {"android": "https://dc.lft.to/lastmile_qr_scan", "ios": "https://dc.lft.to/lastmile_qr_scan"}, "lat": 38.92060933333333, "bike_id": "0ae887f0d69a95f6d3589bad0d1c5159", "is_disabled": 0, "lon": -77.02311016666667, "is_reserved": 0, "fusion_lat": 0.0, "type": "electric_scooter"}, {"fusion_lon": 0.0, "name": "74d183da0b81bae855bbe931ecdf4347", "rental_uris": {"android": "https://dc.lft.to/lastmile_qr_scan", "ios": "https://dc.lft.to/lastmile_qr_scan"}, "lat": 38.907283166666666, "bike_id": "74d183da0b81bae855bbe931ecdf4347", "is_disabled": 0, "lon": -77.02795066666667, "is_reserved": 0, "fusion_lat": 0.0, "type": "electric_scooter"}, {"fusion_lon": 0.0, "name": "085e42c612be5c40950bcf36b849217c", "rental_uris": {"android": "https://dc.lft.to/lastmile_qr_scan", "ios": "https://dc.lft.to/lastmile_qr_scan"}, "lat": 38.92052016666667, "bike_id": "085e42c612be5c40950bcf36b849217c", "is_disabled": 0, "lon": -76.99874816666667, "is_reserved": 0, "fusion_lat": 0.0, "type": "electric_scooter"}, {"fusion_lon": 0.0, "name": "7d3ab7fc4be97d2b258b2c2deb9e312c", "rental_uris": {"android": "https://dc.lft.to/lastmile_qr_scan", "ios": "https://dc.lft.to/lastmile_qr_scan"}, "lat": 38.92083, "bike_id": "7d3ab7fc4be97d2b258b2c2deb9e312c", "is_disabled": 0, "lon": -77.023031, "is_reserved": 0, "fusion_lat": 0.0, "type": "electric_scooter"}, {"fusion_lon": 0.0, "name": "5cf098aa8afaa1fcdf9efbbae3100d84", "rental_uris": {"android": "https://dc.lft.to/lastmile_qr_scan", "ios": "https://dc.lft.to/lastmile_qr_scan"}, "lat": 38.91618916666667, "bike_id": "5cf098aa8afaa1fcdf9efbbae3100d84", "is_disabled": 0, "lon": -77.0415895, "is_reserved": 0, "fusion_lat": 0.0, "type": "electric_scooter"}, {"fusion_lon": 0.0, "name": "a1376a977a687f6370656311b4a59fc4", "rental_uris": {"android": "https://dc.lft.to/lastmile_qr_scan", "ios": "https://dc.lft.to/lastmile_qr_scan"}, "lat": 38.9238425, "bike_id": "a1376a977a687f6370656311b4a59fc4", "is_disabled": 0, "lon": -77.03053783333333, "is_reserved": 0, "fusion_lat": 0.0, "type": "electric_scooter"}, {"fusion_lon": 0.0, "name": "5d3a44b4da4b0e302ed136379b013539", "rental_uris": {"android": "https://dc.lft.to/lastmile_qr_scan", "ios": "https://dc.lft.to/lastmile_qr_scan"}, "lat": 38.90625433333334, "bike_id": "5d3a44b4da4b0e302ed136379b013539", "is_disabled": 0, "lon": -76.99326683333334, "is_reserved": 0, "fusion_lat": 0.0, "type": "electric_scooter"}, {"fusion_lon": 0.0, "name": "7c71520e243dfb29fc3b8199b463d7a3", "rental_uris": {"android": "https://dc.lft.to/lastmile_qr_scan", "ios": "https://dc.lft.to/lastmile_qr_scan"}, "lat": 38.900546166666665, "bike_id": "7c71520e243dfb29fc3b8199b463d7a3", "is_disabled": 0, "lon": -77.021572, "is_reserved": 0, "fusion_lat": 0.0, "type": "electric_scooter"}, {"fusion_lon": 0.0, "name": "3268b6f68a14d2f0188b83f305d4fe59", "rental_uris": {"android": "https://dc.lft.to/lastmile_qr_scan", "ios": "https://dc.lft.to/lastmile_qr_scan"}, "lat": 38.916889, "bike_id": "3268b6f68a14d2f0188b83f305d4fe59", "is_disabled": 0, "lon": -77.03827916666667, "is_reserved": 0, "fusion_lat": 0.0, "type": "electric_scooter"}, {"fusion_lon": 0.0, "name": "26ee2ce6ef8d7caa3524a834ef026008", "rental_uris": {"android": "https://dc.lft.to/lastmile_qr_scan", "ios": "https://dc.lft.to/lastmile_qr_scan"}, "lat": 38.9056825, "bike_id": "26ee2ce6ef8d7caa3524a834ef026008", "is_disabled": 0, "lon": -77.04072916666667, "is_reserved": 0, "fusion_lat": 0.0, "type": "electric_scooter"}, {"fusion_lon": 0.0, "name": "d62a1e2af081ceddf8884542dba54b05", "rental_uris": {"android": "https://dc.lft.to/lastmile_qr_scan", "ios": "https://dc.lft.to/lastmile_qr_scan"}, "lat": 38.894919, "bike_id": "d62a1e2af081ceddf8884542dba54b05", "is_disabled": 0, "lon": -76.94891466666667, "is_reserved": 0, "fusion_lat": 0.0, "type": "electric_scooter"}, {"fusion_lon": 0.0, "name": "4096ef0b3dfe51fdb53e6348131f9390", "rental_uris": {"android": "https://dc.lft.to/lastmile_qr_scan", "ios": "https://dc.lft.to/lastmile_qr_scan"}, "lat": 38.875383166666666, "bike_id": "4096ef0b3dfe51fdb53e6348131f9390", "is_disabled": 0, "lon": -77.01740533333333, "is_reserved": 0, "fusion_lat": 0.0, "type": "electric_scooter"}, {"fusion_lon": 0.0, "name": "8979fe0e9f56f4791ca539cb89482f09", "rental_uris": {"android": "https://dc.lft.to/lastmile_qr_scan", "ios": "https://dc.lft.to/lastmile_qr_scan"}, "lat": 38.89304416666667, "bike_id": "8979fe0e9f56f4791ca539cb89482f09", "is_disabled": 0, "lon": -76.93965933333334, "is_reserved": 0, "fusion_lat": 0.0, "type": "electric_scooter"}, {"fusion_lon": 0.0, "name": "69b57591e6b3222c5c20355c45564cd9", "rental_uris": {"android": "https://dc.lft.to/lastmile_qr_scan", "ios": "https://dc.lft.to/lastmile_qr_scan"}, "lat": 38.8980715, "bike_id": "69b57591e6b3222c5c20355c45564cd9", "is_disabled": 0, "lon": -77.05005233333333, "is_reserved": 0, "fusion_lat": 0.0, "type": "electric_scooter"}, {"fusion_lon": 0.0, "name": "5bebcb2092a8541dcacf0dbe3b618c70", "rental_uris": {"android": "https://dc.lft.to/lastmile_qr_scan", "ios": "https://dc.lft.to/lastmile_qr_scan"}, "lat": 38.847544, "bike_id": "5bebcb2092a8541dcacf0dbe3b618c70", "is_disabled": 0, "lon": -77.05369866666666, "is_reserved": 0, "fusion_lat": 0.0, "type": "electric_bike"}, {"fusion_lon": 0.0, "name": "151ca42f51d985fdcad3f76ec0e29616", "rental_uris": {"android": "https://dc.lft.to/lastmile_qr_scan", "ios": "https://dc.lft.to/lastmile_qr_scan"}, "lat": 38.922725666666665, "bike_id": "151ca42f51d985fdcad3f76ec0e29616", "is_disabled": 0, "lon": -77.02962283333333, "is_reserved": 0, "fusion_lat": 0.0, "type": "electric_scooter"}, {"fusion_lon": 0.0, "name": "3de67050f93d1f66eda16147bcdb9810", "rental_uris": {"android": "https://dc.lft.to/lastmile_qr_scan", "ios": "https://dc.lft.to/lastmile_qr_scan"}, "lat": 38.891959, "bike_id": "3de67050f93d1f66eda16147bcdb9810", "is_disabled": 0, "lon": -76.99383516666667, "is_reserved": 0, "fusion_lat": 0.0, "type": "electric_scooter"}, {"fusion_lon": 0.0, "name": "29d5d2f827d0a988566cf6448542a858", "rental_uris": {"android": "https://dc.lft.to/lastmile_qr_scan", "ios": "https://dc.lft.to/lastmile_qr_scan"}, "lat": 38.92356616666667, "bike_id": "29d5d2f827d0a988566cf6448542a858", "is_disabled": 0, "lon": -77.05036983333333, "is_reserved": 0, "fusion_lat": 0.0, "type": "electric_scooter"}, {"fusion_lon": 0.0, "name": "e02fc7197004178357b1cdd44b51368d", "rental_uris": {"android": "https://dc.lft.to/lastmile_qr_scan", "ios": "https://dc.lft.to/lastmile_qr_scan"}, "lat": 38.90671783333333, "bike_id": "e02fc7197004178357b1cdd44b51368d", "is_disabled": 0, "lon": -77.04875833333334, "is_reserved": 0, "fusion_lat": 0.0, "type": "electric_scooter"}, {"fusion_lon": 0.0, "name": "f25f8f8d5daadc612e24ab966c946d9a", "rental_uris": {"android": "https://dc.lft.to/lastmile_qr_scan", "ios": "https://dc.lft.to/lastmile_qr_scan"}, "lat": 38.9434835, "bike_id": "f25f8f8d5daadc612e24ab966c946d9a", "is_disabled": 0, "lon": -77.06134466666667, "is_reserved": 0, "fusion_lat": 0.0, "type": "electric_scooter"}, {"fusion_lon": 0.0, "name": "d580aa88575adc2911c26333ea1059bc", "rental_uris": {"android": "https://dc.lft.to/lastmile_qr_scan", "ios": "https://dc.lft.to/lastmile_qr_scan"}, "lat": 38.8742115, "bike_id": "d580aa88575adc2911c26333ea1059bc", "is_disabled": 0, "lon": -76.9733605, "is_reserved": 0, "fusion_lat": 0.0, "type": "electric_scooter"}, {"fusion_lon": 0.0, "name": "573f01ae33caeb8df7914a1c6b5bd6ff", "rental_uris": {"android": "https://dc.lft.to/lastmile_qr_scan", "ios": "https://dc.lft.to/lastmile_qr_scan"}, "lat": 38.9106095, "bike_id": "573f01ae33caeb8df7914a1c6b5bd6ff", "is_disabled": 0, "lon": -77.05320816666666, "is_reserved": 0, "fusion_lat": 0.0, "type": "electric_scooter"}, {"fusion_lon": 0.0, "name": "237d2319fd7c63cfbc9ddee1876119be", "rental_uris": {"android": "https://dc.lft.to/lastmile_qr_scan", "ios": "https://dc.lft.to/lastmile_qr_scan"}, "lat": 38.9036745, "bike_id": "237d2319fd7c63cfbc9ddee1876119be", "is_disabled": 0, "lon": -77.016536, "is_reserved": 0, "fusion_lat": 0.0, "type": "electric_scooter"}, {"fusion_lon": 0.0, "name": "97386cf97b7373db2bee86da98faa0c7", "rental_uris": {"android": "https://dc.lft.to/lastmile_qr_scan", "ios": "https://dc.lft.to/lastmile_qr_scan"}, "lat": 38.923622333333334, "bike_id": "97386cf97b7373db2bee86da98faa0c7", "is_disabled": 0, "lon": -77.05136016666667, "is_reserved": 0, "fusion_lat": 0.0, "type": "electric_scooter"}, {"fusion_lon": 0.0, "name": "e3a8a5473dd8f063e8f33c75967e1cad", "rental_uris": {"android": "https://dc.lft.to/lastmile_qr_scan", "ios": "https://dc.lft.to/lastmile_qr_scan"}, "lat": 38.896332, "bike_id": "e3a8a5473dd8f063e8f33c75967e1cad", "is_disabled": 0, "lon": -77.032086, "is_reserved": 0, "fusion_lat": 0.0, "type": "electric_scooter"}, {"fusion_lon": 0.0, "name": "94c45c9a65df9aede2873835be6aec59", "rental_uris": {"android": "https://dc.lft.to/lastmile_qr_scan", "ios": "https://dc.lft.to/lastmile_qr_scan"}, "lat": 38.93838816666667, "bike_id": "94c45c9a65df9aede2873835be6aec59", "is_disabled": 0, "lon": -77.02445433333334, "is_reserved": 0, "fusion_lat": 0.0, "type": "electric_scooter"}, {"fusion_lon": 0.0, "name": "5a5a3ba724af9c1ea4819dab44561116", "rental_uris": {"android": "https://dc.lft.to/lastmile_qr_scan", "ios": "https://dc.lft.to/lastmile_qr_scan"}, "lat": 38.914075833333335, "bike_id": "5a5a3ba724af9c1ea4819dab44561116", "is_disabled": 0, "lon": -77.01841916666666, "is_reserved": 0, "fusion_lat": 0.0, "type": "electric_scooter"}, {"fusion_lon": 0.0, "name": "4f614e2b137353308e9e4eff6149a6ee", "rental_uris": {"android": "https://dc.lft.to/lastmile_qr_scan", "ios": "https://dc.lft.to/lastmile_qr_scan"}, "lat": 38.8968825, "bike_id": "4f614e2b137353308e9e4eff6149a6ee", "is_disabled": 0, "lon": -77.04326266666666, "is_reserved": 0, "fusion_lat": 0.0, "type": "electric_scooter"}, {"fusion_lon": 0.0, "name": "543716339d81bbd332acbc057e00592c", "rental_uris": {"android": "https://dc.lft.to/lastmile_qr_scan", "ios": "https://dc.lft.to/lastmile_qr_scan"}, "lat": 38.914857, "bike_id": "543716339d81bbd332acbc057e00592c", "is_disabled": 0, "lon": -77.02185666666666, "is_reserved": 0, "fusion_lat": 0.0, "type": "electric_scooter"}, {"fusion_lon": 0.0, "name": "5fc534cc29a48b9c965b7a52b1df1717", "rental_uris": {"android": "https://dc.lft.to/lastmile_qr_scan", "ios": "https://dc.lft.to/lastmile_qr_scan"}, "lat": 38.950726, "bike_id": "5fc534cc29a48b9c965b7a52b1df1717", "is_disabled": 0, "lon": -77.06636483333334, "is_reserved": 0, "fusion_lat": 0.0, "type": "electric_bike"}, {"fusion_lon": 0.0, "name": "754c423ef1bce5666d6ff88b79d16771", "rental_uris": {"android": "https://dc.lft.to/lastmile_qr_scan", "ios": "https://dc.lft.to/lastmile_qr_scan"}, "lat": 38.9035135, "bike_id": "754c423ef1bce5666d6ff88b79d16771", "is_disabled": 0, "lon": -77.06200533333333, "is_reserved": 0, "fusion_lat": 0.0, "type": "electric_scooter"}, {"fusion_lon": 0.0, "name": "747257abac691aec2cb16692aa88423e", "rental_uris": {"android": "https://dc.lft.to/lastmile_qr_scan", "ios": "https://dc.lft.to/lastmile_qr_scan"}, "lat": 38.923537, "bike_id": "747257abac691aec2cb16692aa88423e", "is_disabled": 0, "lon": -77.01904416666666, "is_reserved": 0, "fusion_lat": 0.0, "type": "electric_scooter"}, {"fusion_lon": 0.0, "name": "5c07f79a24da5204d1fd924ba2e89a26", "rental_uris": {"android": "https://dc.lft.to/lastmile_qr_scan", "ios": "https://dc.lft.to/lastmile_qr_scan"}, "lat": 38.93686116666667, "bike_id": "5c07f79a24da5204d1fd924ba2e89a26", "is_disabled": 0, "lon": -77.0193635, "is_reserved": 0, "fusion_lat": 0.0, "type": "electric_scooter"}, {"fusion_lon": 0.0, "name": "8068a903416c4c1ef83b7cb61015f548", "rental_uris": {"android": "https://dc.lft.to/lastmile_qr_scan", "ios": "https://dc.lft.to/lastmile_qr_scan"}, "lat": 38.9279595, "bike_id": "8068a903416c4c1ef83b7cb61015f548", "is_disabled": 0, "lon": -77.03695583333334, "is_reserved": 0, "fusion_lat": 0.0, "type": "electric_scooter"}, {"fusion_lon": 0.0, "name": "7482ce291740ae08299a7421d68b5109", "rental_uris": {"android": "https://dc.lft.to/lastmile_qr_scan", "ios": "https://dc.lft.to/lastmile_qr_scan"}, "lat": 38.90877166666667, "bike_id": "7482ce291740ae08299a7421d68b5109", "is_disabled": 0, "lon": -77.04328333333333, "is_reserved": 0, "fusion_lat": 0.0, "type": "electric_scooter"}, {"fusion_lon": 0.0, "name": "a25aa51d63a254be0b8481186a48cfce", "rental_uris": {"android": "https://dc.lft.to/lastmile_qr_scan", "ios": "https://dc.lft.to/lastmile_qr_scan"}, "lat": 38.9102295, "bike_id": "a25aa51d63a254be0b8481186a48cfce", "is_disabled": 0, "lon": -77.03861133333334, "is_reserved": 0, "fusion_lat": 0.0, "type": "electric_scooter"}, {"fusion_lon": 0.0, "name": "9d6ab32069f6efc9db198570f809b67b", "rental_uris": {"android": "https://dc.lft.to/lastmile_qr_scan", "ios": "https://dc.lft.to/lastmile_qr_scan"}, "lat": 38.924681166666666, "bike_id": "9d6ab32069f6efc9db198570f809b67b", "is_disabled": 0, "lon": -77.0211, "is_reserved": 0, "fusion_lat": 0.0, "type": "electric_scooter"}, {"fusion_lon": 0.0, "name": "30e9a32e956163d7649ba7ede84245c5", "rental_uris": {"android": "https://dc.lft.to/lastmile_qr_scan", "ios": "https://dc.lft.to/lastmile_qr_scan"}, "lat": 38.85788483333333, "bike_id": "30e9a32e956163d7649ba7ede84245c5", "is_disabled": 0, "lon": -76.9875055, "is_reserved": 0, "fusion_lat": 0.0, "type": "electric_bike"}, {"fusion_lon": 0.0, "name": "779248185c72ed02ee53dd3f2787a100", "rental_uris": {"android": "https://dc.lft.to/lastmile_qr_scan", "ios": "https://dc.lft.to/lastmile_qr_scan"}, "lat": 38.917027166666664, "bike_id": "779248185c72ed02ee53dd3f2787a100", "is_disabled": 0, "lon": -77.02892733333333, "is_reserved": 0, "fusion_lat": 0.0, "type": "electric_scooter"}, {"fusion_lon": 0.0, "name": "018bdc41be0c03d19d6565d6b24f7bd5", "rental_uris": {"android": "https://dc.lft.to/lastmile_qr_scan", "ios": "https://dc.lft.to/lastmile_qr_scan"}, "lat": 38.9226275, "bike_id": "018bdc41be0c03d19d6565d6b24f7bd5", "is_disabled": 0, "lon": -77.03666733333333, "is_reserved": 0, "fusion_lat": 0.0, "type": "electric_scooter"}, {"fusion_lon": 0.0, "name": "de42c6021048e3e033f523645c0a68f1", "rental_uris": {"android": "https://dc.lft.to/lastmile_qr_scan", "ios": "https://dc.lft.to/lastmile_qr_scan"}, "lat": 38.90571466666667, "bike_id": "de42c6021048e3e033f523645c0a68f1", "is_disabled": 0, "lon": -77.03475116666667, "is_reserved": 0, "fusion_lat": 0.0, "type": "electric_scooter"}, {"fusion_lon": 0.0, "name": "ba828ba5a303b832ddbfcc71ac175794", "rental_uris": {"android": "https://dc.lft.to/lastmile_qr_scan", "ios": "https://dc.lft.to/lastmile_qr_scan"}, "lat": 38.900889, "bike_id": "ba828ba5a303b832ddbfcc71ac175794", "is_disabled": 0, "lon": -77.02171683333333, "is_reserved": 0, "fusion_lat": 0.0, "type": "electric_scooter"}, {"fusion_lon": 0.0, "name": "62cedd40b786ae939ae04faad46ac146", "rental_uris": {"android": "https://dc.lft.to/lastmile_qr_scan", "ios": "https://dc.lft.to/lastmile_qr_scan"}, "lat": 38.82432816666667, "bike_id": "62cedd40b786ae939ae04faad46ac146", "is_disabled": 0, "lon": -77.12039733333333, "is_reserved": 0, "fusion_lat": 0.0, "type": "electric_bike"}, {"fusion_lon": 0.0, "name": "12c22592cb0ff517376281d0cce5efd8", "rental_uris": {"android": "https://dc.lft.to/lastmile_qr_scan", "ios": "https://dc.lft.to/lastmile_qr_scan"}, "lat": 38.90953733333333, "bike_id": "12c22592cb0ff517376281d0cce5efd8", "is_disabled": 0, "lon": -77.014062, "is_reserved": 0, "fusion_lat": 0.0, "type": "electric_scooter"}, {"fusion_lon": 0.0, "name": "8a80a39c16c85d4ffe099a9078f34f36", "rental_uris": {"android": "https://dc.lft.to/lastmile_qr_scan", "ios": "https://dc.lft.to/lastmile_qr_scan"}, "lat": 38.939701, "bike_id": "8a80a39c16c85d4ffe099a9078f34f36", "is_disabled": 0, "lon": -76.986141, "is_reserved": 0, "fusion_lat": 0.0, "type": "electric_bike"}, {"fusion_lon": 0.0, "name": "2a3b191015ff7b37df36a92e7178f266", "rental_uris": {"android": "https://dc.lft.to/lastmile_qr_scan", "ios": "https://dc.lft.to/lastmile_qr_scan"}, "lat": 38.902701, "bike_id": "2a3b191015ff7b37df36a92e7178f266", "is_disabled": 0, "lon": -77.01754666666666, "is_reserved": 0, "fusion_lat": 0.0, "type": "electric_scooter"}, {"fusion_lon": 0.0, "name": "78dd2b3f0492d1066ccdc133542ed264", "rental_uris": {"android": "https://dc.lft.to/lastmile_qr_scan", "ios": "https://dc.lft.to/lastmile_qr_scan"}, "lat": 38.8982915, "bike_id": "78dd2b3f0492d1066ccdc133542ed264", "is_disabled": 0, "lon": -77.02502133333333, "is_reserved": 0, "fusion_lat": 0.0, "type": "electric_scooter"}, {"fusion_lon": 0.0, "name": "e2dba8a0c8e984253d541aba89cdb850", "rental_uris": {"android": "https://dc.lft.to/lastmile_qr_scan", "ios": "https://dc.lft.to/lastmile_qr_scan"}, "lat": 38.8587625, "bike_id": "e2dba8a0c8e984253d541aba89cdb850", "is_disabled": 0, "lon": -76.99044216666667, "is_reserved": 0, "fusion_lat": 0.0, "type": "electric_scooter"}, {"fusion_lon": 0.0, "name": "5f0697944768a44e8bd58c1a36e4235d", "rental_uris": {"android": "https://dc.lft.to/lastmile_qr_scan", "ios": "https://dc.lft.to/lastmile_qr_scan"}, "lat": 39.04241783333333, "bike_id": "5f0697944768a44e8bd58c1a36e4235d", "is_disabled": 0, "lon": -76.99739016666666, "is_reserved": 0, "fusion_lat": 0.0, "type": "electric_bike"}, {"fusion_lon": 0.0, "name": "1ee9598e5b162aba814b3649f6819873", "rental_uris": {"android": "https://dc.lft.to/lastmile_qr_scan", "ios": "https://dc.lft.to/lastmile_qr_scan"}, "lat": 38.911672833333334, "bike_id": "1ee9598e5b162aba814b3649f6819873", "is_disabled": 0, "lon": -77.041414, "is_reserved": 0, "fusion_lat": 0.0, "type": "electric_scooter"}, {"fusion_lon": 0.0, "name": "c606f6f53ed4d1206d79824223bca496", "rental_uris": {"android": "https://dc.lft.to/lastmile_qr_scan", "ios": "https://dc.lft.to/lastmile_qr_scan"}, "lat": 38.89227116666667, "bike_id": "c606f6f53ed4d1206d79824223bca496", "is_disabled": 0, "lon": -77.04333866666667, "is_reserved": 0, "fusion_lat": 0.0, "type": "electric_scooter"}, {"fusion_lon": 0.0, "name": "501591665b81d7b61eff22e303cd0212", "rental_uris": {"android": "https://dc.lft.to/lastmile_qr_scan", "ios": "https://dc.lft.to/lastmile_qr_scan"}, "lat": 38.97336216666667, "bike_id": "501591665b81d7b61eff22e303cd0212", "is_disabled": 0, "lon": -76.99584166666666, "is_reserved": 0, "fusion_lat": 0.0, "type": "electric_bike"}, {"fusion_lon": 0.0, "name": "2dd4f48c3c5897df1b027e6a4b32a5eb", "rental_uris": {"android": "https://dc.lft.to/lastmile_qr_scan", "ios": "https://dc.lft.to/lastmile_qr_scan"}, "lat": 38.9037535, "bike_id": "2dd4f48c3c5897df1b027e6a4b32a5eb", "is_disabled": 0, "lon": -77.01638183333333, "is_reserved": 0, "fusion_lat": 0.0, "type": "electric_scooter"}, {"fusion_lon": 0.0, "name": "c618faca0b0a9050dd66106eab1dc04b", "rental_uris": {"android": "https://dc.lft.to/lastmile_qr_scan", "ios": "https://dc.lft.to/lastmile_qr_scan"}, "lat": 38.900679, "bike_id": "c618faca0b0a9050dd66106eab1dc04b", "is_disabled": 0, "lon": -76.98489716666667, "is_reserved": 0, "fusion_lat": 0.0, "type": "electric_scooter"}, {"fusion_lon": 0.0, "name": "cad551fee242d5d2b865147d9af678c1", "rental_uris": {"android": "https://dc.lft.to/lastmile_qr_scan", "ios": "https://dc.lft.to/lastmile_qr_scan"}, "lat": 38.911126833333334, "bike_id": "cad551fee242d5d2b865147d9af678c1", "is_disabled": 0, "lon": -77.00392766666667, "is_reserved": 0, "fusion_lat": 0.0, "type": "electric_scooter"}, {"fusion_lon": 0.0, "name": "f7d12bd9881d88a9baea19cb1a977e6f", "rental_uris": {"android": "https://dc.lft.to/lastmile_qr_scan", "ios": "https://dc.lft.to/lastmile_qr_scan"}, "lat": 38.90142133333333, "bike_id": "f7d12bd9881d88a9baea19cb1a977e6f", "is_disabled": 0, "lon": -77.046784, "is_reserved": 0, "fusion_lat": 0.0, "type": "electric_scooter"}, {"fusion_lon": 0.0, "name": "7b54c45eb13a6a1a3c52435f6bb691de", "rental_uris": {"android": "https://dc.lft.to/lastmile_qr_scan", "ios": "https://dc.lft.to/lastmile_qr_scan"}, "lat": 38.9091475, "bike_id": "7b54c45eb13a6a1a3c52435f6bb691de", "is_disabled": 0, "lon": -77.02308283333333, "is_reserved": 0, "fusion_lat": 0.0, "type": "electric_scooter"}, {"fusion_lon": 0.0, "name": "807317a5f65eab932b6663bbf7d25139", "rental_uris": {"android": "https://dc.lft.to/lastmile_qr_scan", "ios": "https://dc.lft.to/lastmile_qr_scan"}, "lat": 38.920608666666666, "bike_id": "807317a5f65eab932b6663bbf7d25139", "is_disabled": 0, "lon": -76.98431483333333, "is_reserved": 0, "fusion_lat": 0.0, "type": "electric_scooter"}, {"fusion_lon": 0.0, "name": "2468cd8fa20d19b80f7ea7936e2e52f4", "rental_uris": {"android": "https://dc.lft.to/lastmile_qr_scan", "ios": "https://dc.lft.to/lastmile_qr_scan"}, "lat": 38.913278166666665, "bike_id": "2468cd8fa20d19b80f7ea7936e2e52f4", "is_disabled": 0, "lon": -77.04540566666667, "is_reserved": 0, "fusion_lat": 0.0, "type": "electric_scooter"}, {"fusion_lon": 0.0, "name": "436a147e4ac7d788905df90e7f37b443", "rental_uris": {"android": "https://dc.lft.to/lastmile_qr_scan", "ios": "https://dc.lft.to/lastmile_qr_scan"}, "lat": 38.87344683333333, "bike_id": "436a147e4ac7d788905df90e7f37b443", "is_disabled": 0, "lon": -76.99168466666667, "is_reserved": 0, "fusion_lat": 0.0, "type": "electric_scooter"}, {"fusion_lon": 0.0, "name": "ef03f92588a038037965c42e269b67df", "rental_uris": {"android": "https://dc.lft.to/lastmile_qr_scan", "ios": "https://dc.lft.to/lastmile_qr_scan"}, "lat": 38.909513, "bike_id": "ef03f92588a038037965c42e269b67df", "is_disabled": 0, "lon": -77.03450366666667, "is_reserved": 0, "fusion_lat": 0.0, "type": "electric_scooter"}, {"fusion_lon": 0.0, "name": "70f4db1a2c9feccc1f6817de5e8e6a1e", "rental_uris": {"android": "https://dc.lft.to/lastmile_qr_scan", "ios": "https://dc.lft.to/lastmile_qr_scan"}, "lat": 38.89764016666667, "bike_id": "70f4db1a2c9feccc1f6817de5e8e6a1e", "is_disabled": 0, "lon": -77.025739, "is_reserved": 0, "fusion_lat": 0.0, "type": "electric_scooter"}, {"fusion_lon": 0.0, "name": "678fe00d02c12da1ee602b6f8abe5baa", "rental_uris": {"android": "https://dc.lft.to/lastmile_qr_scan", "ios": "https://dc.lft.to/lastmile_qr_scan"}, "lat": 38.92202733333333, "bike_id": "678fe00d02c12da1ee602b6f8abe5baa", "is_disabled": 0, "lon": -76.9836935, "is_reserved": 0, "fusion_lat": 0.0, "type": "electric_scooter"}, {"fusion_lon": 0.0, "name": "080ae947c71921e07de3d6db70c6b15a", "rental_uris": {"android": "https://dc.lft.to/lastmile_qr_scan", "ios": "https://dc.lft.to/lastmile_qr_scan"}, "lat": 38.90278816666667, "bike_id": "080ae947c71921e07de3d6db70c6b15a", "is_disabled": 0, "lon": -77.01823033333334, "is_reserved": 0, "fusion_lat": 0.0, "type": "electric_scooter"}, {"fusion_lon": 0.0, "name": "cb7657231674ce61ac51327a9868e0c3", "rental_uris": {"android": "https://dc.lft.to/lastmile_qr_scan", "ios": "https://dc.lft.to/lastmile_qr_scan"}, "lat": 38.86015016666666, "bike_id": "cb7657231674ce61ac51327a9868e0c3", "is_disabled": 0, "lon": -77.06528566666667, "is_reserved": 0, "fusion_lat": 0.0, "type": "electric_bike"}, {"fusion_lon": 0.0, "name": "b4521d8e31acf9f246ff804f596a7dca", "rental_uris": {"android": "https://dc.lft.to/lastmile_qr_scan", "ios": "https://dc.lft.to/lastmile_qr_scan"}, "lat": 38.94184816666667, "bike_id": "b4521d8e31acf9f246ff804f596a7dca", "is_disabled": 0, "lon": -77.0249125, "is_reserved": 0, "fusion_lat": 0.0, "type": "electric_scooter"}, {"fusion_lon": 0.0, "name": "307a0c9dfc073b1b8ac2c1f577602e6c", "rental_uris": {"android": "https://dc.lft.to/lastmile_qr_scan", "ios": "https://dc.lft.to/lastmile_qr_scan"}, "lat": 38.8805425, "bike_id": "307a0c9dfc073b1b8ac2c1f577602e6c", "is_disabled": 0, "lon": -77.00527633333333, "is_reserved": 0, "fusion_lat": 0.0, "type": "electric_scooter"}, {"fusion_lon": 0.0, "name": "5d20dd86a3809a8ca87e862327cd4595", "rental_uris": {"android": "https://dc.lft.to/lastmile_qr_scan", "ios": "https://dc.lft.to/lastmile_qr_scan"}, "lat": 38.9073045, "bike_id": "5d20dd86a3809a8ca87e862327cd4595", "is_disabled": 0, "lon": -77.03203833333333, "is_reserved": 0, "fusion_lat": 0.0, "type": "electric_scooter"}, {"fusion_lon": 0.0, "name": "8cacd09212c4f7195f17dad340a63714", "rental_uris": {"android": "https://dc.lft.to/lastmile_qr_scan", "ios": "https://dc.lft.to/lastmile_qr_scan"}, "lat": 38.9046275, "bike_id": "8cacd09212c4f7195f17dad340a63714", "is_disabled": 0, "lon": -77.02945333333334, "is_reserved": 0, "fusion_lat": 0.0, "type": "electric_scooter"}, {"fusion_lon": 0.0, "name": "c3a6ed137f28d8527ec7228189c49355", "rental_uris": {"android": "https://dc.lft.to/lastmile_qr_scan", "ios": "https://dc.lft.to/lastmile_qr_scan"}, "lat": 38.906679, "bike_id": "c3a6ed137f28d8527ec7228189c49355", "is_disabled": 0, "lon": -77.07116833333333, "is_reserved": 0, "fusion_lat": 0.0, "type": "electric_scooter"}, {"fusion_lon": 0.0, "name": "2991732b18b2b5233945f07ec1c3eea5", "rental_uris": {"android": "https://dc.lft.to/lastmile_qr_scan", "ios": "https://dc.lft.to/lastmile_qr_scan"},