{"data": {"bikes": [{"lon": -77.02953833333333, "is_reserved": 0, "is_disabled": 0, "type": "electric_scooter", "lat": 38.9168295, "rental_uris": {"ios": "https://dc.lft.to/lastmile_qr_scan", "android": "https://dc.lft.to/lastmile_qr_scan"}, "fusion_lat": 0.0, "fusion_lon": 0.0, "bike_id": "0a9f96e835322b9df2383daf79f309f3", "name": "0a9f96e835322b9df2383daf79f309f3"}, {"lon": -77.03980566666667, "is_reserved": 0, "is_disabled": 0, "type": "electric_scooter", "lat": 38.9133345, "rental_uris": {"ios": "https://dc.lft.to/lastmile_qr_scan", "android": "https://dc.lft.to/lastmile_qr_scan"}, "fusion_lat": 0.0, "fusion_lon": 0.0, "bike_id": "3508998336c840a86101cb96b2fce83f", "name": "3508998336c840a86101cb96b2fce83f"}, {"lon": -77.0190775, "is_reserved": 0, "is_disabled": 0, "type": "electric_scooter", "lat": 38.92342766666667, "rental_uris": {"ios": "https://dc.lft.to/lastmile_qr_scan", "android": "https://dc.lft.to/lastmile_qr_scan"}, "fusion_lat": 0.0, "fusion_lon": 0.0, "bike_id": "db0f7bef227ff641b4e0ca23e1b64d40", "name": "db0f7bef227ff641b4e0ca23e1b64d40"}, {"lon": -77.00338633333334, "is_reserved": 0, "is_disabled": 0, "type": "electric_scooter", "lat": 38.907331166666665, "rental_uris": {"ios": "https://dc.lft.to/lastmile_qr_scan", "android": "https://dc.lft.to/lastmile_qr_scan"}, "fusion_lat": 0.0, "fusion_lon": 0.0, "bike_id": "4e441f5b868cbb85e6d8774b985dfb3c", "name": "4e441f5b868cbb85e6d8774b985dfb3c"}, {"lon": -77.0353395, "is_reserved": 0, "is_disabled": 0, "type": "electric_scooter", "lat": 38.925064, "rental_uris": {"ios": "https://dc.lft.to/lastmile_qr_scan", "android": "https://dc.lft.to/lastmile_qr_scan"}, "fusion_lat": 0.0, "fusion_lon": 0.0, "bike_id": "33bff89aaee3f16a6ae6aa7228601329", "name": "33bff89aaee3f16a6ae6aa7228601329"}, {"lon": -77.021996, "is_reserved": 0, "is_disabled": 0, "type": "electric_scooter", "lat": 38.914363333333334, "rental_uris": {"ios": "https://dc.lft.to/lastmile_qr_scan", "android": "https://dc.lft.to/lastmile_qr_scan"}, "fusion_lat": 0.0, "fusion_lon": 0.0, "bike_id": "c3d3fe978a460fffcbebc9d32d0e394e", "name": "c3d3fe978a460fffcbebc9d32d0e394e"}, {"lon": -77.02799933333333, "is_reserved": 0, "is_disabled": 0, "type": "electric_scooter", "lat": 38.950945833333336, "rental_uris": {"ios": "https://dc.lft.to/lastmile_qr_scan", "android": "https://dc.lft.to/lastmile_qr_scan"}, "fusion_lat": 0.0, "fusion_lon": 0.0, "bike_id": "31b14f86503043097cebfb6f99f7e072", "name": "31b14f86503043097cebfb6f99f7e072"}, {"lon": -77.02281833333333, "is_reserved": 0, "is_disabled": 0, "type": "electric_scooter", "lat": 38.878378166666664, "rental_uris": {"ios": "https://dc.lft.to/lastmile_qr_scan", "android": "https://dc.lft.to/lastmile_qr_scan"}, "fusion_lat": 0.0, "fusion_lon": 0.0, "bike_id": "426078cfe3e4486271b3ccc8bda0fe73", "name": "426078cfe3e4486271b3ccc8bda0fe73"}, {"lon": -77.011713, "is_reserved": 0, "is_disabled": 0, "type": "electric_scooter", "lat": 38.897429333333335, "rental_uris": {"ios": "https://dc.lft.to/lastmile_qr_scan", "android": "https://dc.lft.to/lastmile_qr_scan"}, "fusion_lat": 0.0, "fusion_lon": 0.0, "bike_id": "b871df39eed5a058648e8f40a155300a", "name": "b871df39eed5a058648e8f40a155300a"}, {"lon": -77.0179415, "is_reserved": 0, "is_disabled": 0, "type": "electric_scooter", "lat": 38.941153, "rental_uris": {"ios": "https://dc.lft.to/lastmile_qr_scan", "android": "https://dc.lft.to/lastmile_qr_scan"}, "fusion_lat": 0.0, "fusion_lon": 0.0, "bike_id": "5bb5a4fc5c05db2c271153c218c346b4", "name": "5bb5a4fc5c05db2c271153c218c346b4"}, {"lon": -77.009222, "is_reserved": 0, "is_disabled": 0, "type": "electric_scooter", "lat": 38.89883433333333, "rental_uris": {"ios": "https://dc.lft.to/lastmile_qr_scan", "android": "https://dc.lft.to/lastmile_qr_scan"}, "fusion_lat": 0.0, "fusion_lon": 0.0, "bike_id": "8201b8becee5ffc421671d4111e24ad2", "name": "8201b8becee5ffc421671d4111e24ad2"}, {"lon": -77.03057483333333, "is_reserved": 0, "is_disabled": 0, "type": "electric_scooter", "lat": 38.8840535, "rental_uris": {"ios": "https://dc.lft.to/lastmile_qr_scan", "android": "https://dc.lft.to/lastmile_qr_scan"}, "fusion_lat": 0.0, "fusion_lon": 0.0, "bike_id": "80b9d90a33c4a03e4022d3063d77bf12", "name": "80b9d90a33c4a03e4022d3063d77bf12"}, {"lon": -77.049011, "is_reserved": 0, "is_disabled": 0, "type": "electric_bike", "lat": 38.874927166666666, "rental_uris": {"ios": "https://dc.lft.to/lastmile_qr_scan", "android": "https://dc.lft.to/lastmile_qr_scan"}, "fusion_lat": 0.0, "fusion_lon": 0.0, "bike_id": "71dfe749310ac3fbbe6f57533b4b6d52", "name": "71dfe749310ac3fbbe6f57533b4b6d52"}, {"lon": -77.0385335, "is_reserved": 0, "is_disabled": 0, "type": "electric_scooter", "lat": 38.90366183333333, "rental_uris": {"ios": "https://dc.lft.to/lastmile_qr_scan", "android": "https://dc.lft.to/lastmile_qr_scan"}, "fusion_lat": 0.0, "fusion_lon": 0.0, "bike_id": "a9049ee1535505d2f492918092b3a0d0", "name": "a9049ee1535505d2f492918092b3a0d0"}, {"lon": -77.1002995, "is_reserved": 0, "is_disabled": 0, "type": "electric_bike", "lat": 38.99061783333333, "rental_uris": {"ios": "https://dc.lft.to/lastmile_qr_scan", "android": "https://dc.lft.to/lastmile_qr_scan"}, "fusion_lat": 0.0, "fusion_lon": 0.0, "bike_id": "e223827017b0b0c262a2d5902d052311", "name": "e223827017b0b0c262a2d5902d052311"}, {"lon": -77.05919966666667, "is_reserved": 0, "is_disabled": 0, "type": "electric_scooter", "lat": 38.909971, "rental_uris": {"ios": "https://dc.lft.to/lastmile_qr_scan", "android": "https://dc.lft.to/lastmile_qr_scan"}, "fusion_lat": 0.0, "fusion_lon": 0.0, "bike_id": "add1fb284707cc285d5ae92d3bce8f28", "name": "add1fb284707cc285d5ae92d3bce8f28"}, {"lon": -77.00338883333333, "is_reserved": 0, "is_disabled": 0, "type": "electric_scooter", "lat": 38.8874095, "rental_uris": {"ios": "https://dc.lft.to/lastmile_qr_scan", "android": "https://dc.lft.to/lastmile_qr_scan"}, "fusion_lat": 0.0, "fusion_lon": 0.0, "bike_id": "3598b6f23f5dd57be850298e3d95c97e", "name": "3598b6f23f5dd57be850298e3d95c97e"}, {"lon": -77.03669633333334, "is_reserved": 0, "is_disabled": 0, "type": "electric_scooter", "lat": 38.93180383333333, "rental_uris": {"ios": "https://dc.lft.to/lastmile_qr_scan", "android": "https://dc.lft.to/lastmile_qr_scan"}, "fusion_lat": 0.0, "fusion_lon": 0.0, "bike_id": "3d20364a11c3cfe786d82271251e4206", "name": "3d20364a11c3cfe786d82271251e4206"}, {"lon": -77.03218366666667, "is_reserved": 0, "is_disabled": 0, "type": "electric_scooter", "lat": 38.8922275, "rental_uris": {"ios": "https://dc.lft.to/lastmile_qr_scan", "android": "https://dc.lft.to/lastmile_qr_scan"}, "fusion_lat": 0.0, "fusion_lon": 0.0, "bike_id": "c00564819bc836a18d814d1bae04317d", "name": "c00564819bc836a18d814d1bae04317d"}, {"lon": -77.00807466666667, "is_reserved": 0, "is_disabled": 0, "type": "electric_scooter", "lat": 38.8765265, "rental_uris": {"ios": "https://dc.lft.to/lastmile_qr_scan", "android": "https://dc.lft.to/lastmile_qr_scan"}, "fusion_lat": 0.0, "fusion_lon": 0.0, "bike_id": "acea39b285b7b31aa53d9d5193ea64c9", "name": "acea39b285b7b31aa53d9d5193ea64c9"}, {"lon": -76.965622, "is_reserved": 0, "is_disabled": 0, "type": "electric_scooter", "lat": 38.918482166666664, "rental_uris": {"ios": "https://dc.lft.to/lastmile_qr_scan", "android": "https://dc.lft.to/lastmile_qr_scan"}, "fusion_lat": 0.0, "fusion_lon": 0.0, "bike_id": "9a929b450ba14b037a48c466696ddcba", "name": "9a929b450ba14b037a48c466696ddcba"}, {"lon": -77.07703583333333, "is_reserved": 0, "is_disabled": 0, "type": "electric_scooter", "lat": 38.9428975, "rental_uris": {"ios": "https://dc.lft.to/lastmile_qr_scan", "android": "https://dc.lft.to/lastmile_qr_scan"}, "fusion_lat": 0.0, "fusion_lon": 0.0, "bike_id": "54ee2ba4d3e0a8434863582b92548a10", "name": "54ee2ba4d3e0a8434863582b92548a10"}, {"lon": -77.01773166666666, "is_reserved": 0, "is_disabled": 0, "type": "electric_scooter", "lat": 38.877897, "rental_uris": {"ios": "https://dc.lft.to/lastmile_qr_scan", "android": "https://dc.lft.to/lastmile_qr_scan"}, "fusion_lat": 0.0, "fusion_lon": 0.0, "bike_id": "5dfe48b483bc34493a82a43f08429bdd", "name": "5dfe48b483bc34493a82a43f08429bdd"}, {"lon": -77.0145715, "is_reserved": 0, "is_disabled": 0, "type": "electric_bike", "lat": 38.867928166666665, "rental_uris": {"ios": "https://dc.lft.to/lastmile_qr_scan", "android": "https://dc.lft.to/lastmile_qr_scan"}, "fusion_lat": 0.0, "fusion_lon": 0.0, "bike_id": "b34c7324f911b9ae754d8e75941c94c5", "name": "b34c7324f911b9ae754d8e75941c94c5"}, {"lon": -77.00730683333333, "is_reserved": 0, "is_disabled": 0, "type": "electric_scooter", "lat": 38.90066616666667, "rental_uris": {"ios": "https://dc.lft.to/lastmile_qr_scan", "android": "https://dc.lft.to/lastmile_qr_scan"}, "fusion_lat": 0.0, "fusion_lon": 0.0, "bike_id": "d4e4a2651a1e2fd95e0ec4b498d7d98c", "name": "d4e4a2651a1e2fd95e0ec4b498d7d98c"}, {"lon": -77.00418683333334, "is_reserved": 0, "is_disabled": 0, "type": "electric_scooter", "lat": 38.876535, "rental_uris": {"ios": "https://dc.lft.to/lastmile_qr_scan", "android": "https://dc.lft.to/lastmile_qr_scan"}, "fusion_lat": 0.0, "fusion_lon": 0.0, "bike_id": "9b9028edb9d21a6a3ba5e1b31cab5f02", "name": "9b9028edb9d21a6a3ba5e1b31cab5f02"}, {"lon": -77.02189616666666, "is_reserved": 0, "is_disabled": 0, "type": "electric_scooter", "lat": 38.916575333333334, "rental_uris": {"ios": "https://dc.lft.to/lastmile_qr_scan", "android": "https://dc.lft.to/lastmile_qr_scan"}, "fusion_lat": 0.0, "fusion_lon": 0.0, "bike_id": "3c5a108ee3253a52ac4bcead7d21f368", "name": "3c5a108ee3253a52ac4bcead7d21f368"}, {"lon": -77.02410466666667, "is_reserved": 0, "is_disabled": 0, "type": "electric_scooter", "lat": 38.91674583333333, "rental_uris": {"ios": "https://dc.lft.to/lastmile_qr_scan", "android": "https://dc.lft.to/lastmile_qr_scan"}, "fusion_lat": 0.0, "fusion_lon": 0.0, "bike_id": "e129f86afa0af71f7fa2359b21604420", "name": "e129f86afa0af71f7fa2359b21604420"}, {"lon": -77.003377, "is_reserved": 0, "is_disabled": 0, "type": "electric_scooter", "lat": 38.895067833333336, "rental_uris": {"ios": "https://dc.lft.to/lastmile_qr_scan", "android": "https://dc.lft.to/lastmile_qr_scan"}, "fusion_lat": 0.0, "fusion_lon": 0.0, "bike_id": "cb720c48b8f0d7f93a972440c5977f41", "name": "cb720c48b8f0d7f93a972440c5977f41"}, {"lon": -77.04042583333333, "is_reserved": 0, "is_disabled": 0, "type": "electric_scooter", "lat": 38.9056925, "rental_uris": {"ios": "https://dc.lft.to/lastmile_qr_scan", "android": "https://dc.lft.to/lastmile_qr_scan"}, "fusion_lat": 0.0, "fusion_lon": 0.0, "bike_id": "9413b6c0639b2551c348c7ca3d77a517", "name": "9413b6c0639b2551c348c7ca3d77a517"}, {"lon": -77.041825, "is_reserved": 0, "is_disabled": 0, "type": "electric_scooter", "lat": 38.90511083333333, "rental_uris": {"ios": "https://dc.lft.to/lastmile_qr_scan", "android": "https://dc.lft.to/lastmile_qr_scan"}, "fusion_lat": 0.0, "fusion_lon": 0.0, "bike_id": "c6278e385ff5946c7d0a5fa918f47845", "name": "c6278e385ff5946c7d0a5fa918f47845"}, {"lon": -77.01104266666667, "is_reserved": 0, "is_disabled": 0, "type": "electric_scooter", "lat": 38.895785333333336, "rental_uris": {"ios": "https://dc.lft.to/lastmile_qr_scan", "android": "https://dc.lft.to/lastmile_qr_scan"}, "fusion_lat": 0.0, "fusion_lon": 0.0, "bike_id": "8e13bba13e816f79e78a6e2b3df0d303", "name": "8e13bba13e816f79e78a6e2b3df0d303"}, {"lon": -77.01354883333333, "is_reserved": 0, "is_disabled": 0, "type": "electric_scooter", "lat": 38.90377083333333, "rental_uris": {"ios": "https://dc.lft.to/lastmile_qr_scan", "android": "https://dc.lft.to/lastmile_qr_scan"}, "fusion_lat": 0.0, "fusion_lon": 0.0, "bike_id": "1c77251d68e7765b0bdad1d2264b0732", "name": "1c77251d68e7765b0bdad1d2264b0732"}, {"lon": -76.985925, "is_reserved": 0, "is_disabled": 0, "type": "electric_scooter", "lat": 38.889716166666666, "rental_uris": {"ios": "https://dc.lft.to/lastmile_qr_scan", "android": "https://dc.lft.to/lastmile_qr_scan"}, "fusion_lat": 0.0, "fusion_lon": 0.0, "bike_id": "0756bb6dc6c3097a2ca3aa38a679bd60", "name": "0756bb6dc6c3097a2ca3aa38a679bd60"}, {"lon": -77.019267, "is_reserved": 0, "is_disabled": 0, "type": "electric_scooter", "lat": 38.902432, "rental_uris": {"ios": "https://dc.lft.to/lastmile_qr_scan", "android": "https://dc.lft.to/lastmile_qr_scan"}, "fusion_lat": 0.0, "fusion_lon": 0.0, "bike_id": "ad1957d31421839bb492ecc3a54c411d", "name": "ad1957d31421839bb492ecc3a54c411d"}, {"lon": -76.93740133333333, "is_reserved": 0, "is_disabled": 0, "type": "electric_scooter", "lat": 38.890057, "rental_uris": {"ios": "https://dc.lft.to/lastmile_qr_scan", "android": "https://dc.lft.to/lastmile_qr_scan"}, "fusion_lat": 0.0, "fusion_lon": 0.0, "bike_id": "80fd1af138e0c9c6ba895ea947065ff5", "name": "80fd1af138e0c9c6ba895ea947065ff5"}, {"lon": -77.03902266666667, "is_reserved": 0, "is_disabled": 0, "type": "electric_scooter", "lat": 38.90380533333333, "rental_uris": {"ios": "https://dc.lft.to/lastmile_qr_scan", "android": "https://dc.lft.to/lastmile_qr_scan"}, "fusion_lat": 0.0, "fusion_lon": 0.0, "bike_id": "a037f057ff5ca0984e18c5880abcc5a4", "name": "a037f057ff5ca0984e18c5880abcc5a4"}, {"lon": -76.99743083333334, "is_reserved": 0, "is_disabled": 0, "type": "electric_scooter", "lat": 38.9325625, "rental_uris": {"ios": "https://dc.lft.to/lastmile_qr_scan", "android": "https://dc.lft.to/lastmile_qr_scan"}, "fusion_lat": 0.0, "fusion_lon": 0.0, "bike_id": "75c0a478945911e46928390246a570c2", "name": "75c0a478945911e46928390246a570c2"}, {"lon": -76.98563016666667, "is_reserved": 0, "is_disabled": 0, "type": "electric_scooter", "lat": 38.9200655, "rental_uris": {"ios": "https://dc.lft.to/lastmile_qr_scan", "android": "https://dc.lft.to/lastmile_qr_scan"}, "fusion_lat": 0.0, "fusion_lon": 0.0, "bike_id": "def62b42a698c9739b6684c52a8c3838", "name": "def62b42a698c9739b6684c52a8c3838"}, {"lon": -76.91121483333333, "is_reserved": 0, "is_disabled": 0, "type": "electric_bike", "lat": 39.010364833333334, "rental_uris": {"ios": "https://dc.lft.to/lastmile_qr_scan", "android": "https://dc.lft.to/lastmile_qr_scan"}, "fusion_lat": 0.0, "fusion_lon": 0.0, "bike_id": "a2c47c24b9883428512359976e0bf27e", "name": "a2c47c24b9883428512359976e0bf27e"}, {"lon": -77.04066116666667, "is_reserved": 0, "is_disabled": 0, "type": "electric_bike", "lat": 38.90837116666667, "rental_uris": {"ios": "https://dc.lft.to/lastmile_qr_scan", "android": "https://dc.lft.to/lastmile_qr_scan"}, "fusion_lat": 0.0, "fusion_lon": 0.0, "bike_id": "8dc444cf962ea8d07012d556e48ded5c", "name": "8dc444cf962ea8d07012d556e48ded5c"}, {"lon": -77.01041216666667, "is_reserved": 0, "is_disabled": 0, "type": "electric_scooter", "lat": 38.8844835, "rental_uris": {"ios": "https://dc.lft.to/lastmile_qr_scan", "android": "https://dc.lft.to/lastmile_qr_scan"}, "fusion_lat": 0.0, "fusion_lon": 0.0, "bike_id": "c3248f8df7e5b99bdbb46a4a1cc3c5a5", "name": "c3248f8df7e5b99bdbb46a4a1cc3c5a5"}, {"lon": -77.05271633333334, "is_reserved": 0, "is_disabled": 0, "type": "electric_scooter", "lat": 38.927594, "rental_uris": {"ios": "https://dc.lft.to/lastmile_qr_scan", "android": "https://dc.lft.to/lastmile_qr_scan"}, "fusion_lat": 0.0, "fusion_lon": 0.0, "bike_id": "8549e0f3f2120c2e8d734a241eb29763", "name": "8549e0f3f2120c2e8d734a241eb29763"}, {"lon": -77.04794483333333, "is_reserved": 0, "is_disabled": 0, "type": "electric_scooter", "lat": 38.893663, "rental_uris": {"ios": "https://dc.lft.to/lastmile_qr_scan", "android": "https://dc.lft.to/lastmile_qr_scan"}, "fusion_lat": 0.0, "fusion_lon": 0.0, "bike_id": "f32350d37d3866a69795256344db9910", "name": "f32350d37d3866a69795256344db9910"}, {"lon": -76.9923095, "is_reserved": 0, "is_disabled": 0, "type": "electric_scooter", "lat": 38.898812, "rental_uris": {"ios": "https://dc.lft.to/lastmile_qr_scan", "android": "https://dc.lft.to/lastmile_qr_scan"}, "fusion_lat": 0.0, "fusion_lon": 0.0, "bike_id": "9cc3e4d2845edcbcea768970d71dab65", "name": "9cc3e4d2845edcbcea768970d71dab65"}, {"lon": -77.03845266666667, "is_reserved": 0, "is_disabled": 0, "type": "electric_scooter", "lat": 38.903843333333334, "rental_uris": {"ios": "https://dc.lft.to/lastmile_qr_scan", "android": "https://dc.lft.to/lastmile_qr_scan"}, "fusion_lat": 0.0, "fusion_lon": 0.0, "bike_id": "e60f349c85306dd5113395d9c6b7bde4", "name": "e60f349c85306dd5113395d9c6b7bde4"}, {"lon": -76.96559783333333, "is_reserved": 0, "is_disabled": 0, "type": "electric_scooter", "lat": 38.918458333333334, "rental_uris": {"ios": "https://dc.lft.to/lastmile_qr_scan", "android": "https://dc.lft.to/lastmile_qr_scan"}, "fusion_lat": 0.0, "fusion_lon": 0.0, "bike_id": "41668be0b555e039942e41e9a5f4b8ce", "name": "41668be0b555e039942e41e9a5f4b8ce"}, {"lon": -77.025878, "is_reserved": 0, "is_disabled": 0, "type": "electric_scooter", "lat": 38.89497883333333, "rental_uris": {"ios": "https://dc.lft.to/lastmile_qr_scan", "android": "https://dc.lft.to/lastmile_qr_scan"}, "fusion_lat": 0.0, "fusion_lon": 0.0, "bike_id": "7a7e0d8f3a1441eaab30f71eae4eff6d", "name": "7a7e0d8f3a1441eaab30f71eae4eff6d"}, {"lon": -77.04497233333333, "is_reserved": 0, "is_disabled": 0, "type": "electric_scooter", "lat": 38.9142195, "rental_uris": {"ios": "https://dc.lft.to/lastmile_qr_scan", "android": "https://dc.lft.to/lastmile_qr_scan"}, "fusion_lat": 0.0, "fusion_lon": 0.0, "bike_id": "7c276da794199507c9fad7cf406d27ad", "name": "7c276da794199507c9fad7cf406d27ad"}, {"lon": -77.04660233333334, "is_reserved": 0, "is_disabled": 0, "type": "electric_scooter", "lat": 38.9041575, "rental_uris": {"ios": "https://dc.lft.to/lastmile_qr_scan", "android": "https://dc.lft.to/lastmile_qr_scan"}, "fusion_lat": 0.0, "fusion_lon": 0.0, "bike_id": "13d7cdb3db2af95b5b082720f7b26c0f", "name": "13d7cdb3db2af95b5b082720f7b26c0f"}, {"lon": -77.02576466666666, "is_reserved": 0, "is_disabled": 0, "type": "electric_scooter", "lat": 38.8995435, "rental_uris": {"ios": "https://dc.lft.to/lastmile_qr_scan", "android": "https://dc.lft.to/lastmile_qr_scan"}, "fusion_lat": 0.0, "fusion_lon": 0.0, "bike_id": "3253cd8df05e4b30e8dedb1a9e2856fc", "name": "3253cd8df05e4b30e8dedb1a9e2856fc"}, {"lon": -77.0731725, "is_reserved": 0, "is_disabled": 0, "type": "electric_scooter", "lat": 38.91198416666667, "rental_uris": {"ios": "https://dc.lft.to/lastmile_qr_scan", "android": "https://dc.lft.to/lastmile_qr_scan"}, "fusion_lat": 0.0, "fusion_lon": 0.0, "bike_id": "7b7cd1bc4242c37df48a4967d37497e5", "name": "7b7cd1bc4242c37df48a4967d37497e5"}, {"lon": -77.040891, "is_reserved": 0, "is_disabled": 0, "type": "electric_scooter", "lat": 38.923971, "rental_uris": {"ios": "https://dc.lft.to/lastmile_qr_scan", "android": "https://dc.lft.to/lastmile_qr_scan"}, "fusion_lat": 0.0, "fusion_lon": 0.0, "bike_id": "4f9a2c44f64803fa134dded53aa132ab", "name": "4f9a2c44f64803fa134dded53aa132ab"}, {"lon": -77.0903925, "is_reserved": 0, "is_disabled": 0, "type": "electric_bike", "lat": 38.84130483333333, "rental_uris": {"ios": "https://dc.lft.to/lastmile_qr_scan", "android": "https://dc.lft.to/lastmile_qr_scan"}, "fusion_lat": 0.0, "fusion_lon": 0.0, "bike_id": "96c8d02f2c869fdc7fea27da07275dba", "name": "96c8d02f2c869fdc7fea27da07275dba"}, {"lon": -76.94888266666666, "is_reserved": 0, "is_disabled": 0, "type": "electric_scooter", "lat": 38.89510933333333, "rental_uris": {"ios": "https://dc.lft.to/lastmile_qr_scan", "android": "https://dc.lft.to/lastmile_qr_scan"}, "fusion_lat": 0.0, "fusion_lon": 0.0, "bike_id": "ed614b54be6c38bf0d5c87855baa6798", "name": "ed614b54be6c38bf0d5c87855baa6798"}, {"lon": -76.9472795, "is_reserved": 0, "is_disabled": 0, "type": "electric_scooter", "lat": 38.89737483333333, "rental_uris": {"ios": "https://dc.lft.to/lastmile_qr_scan", "android": "https://dc.lft.to/lastmile_qr_scan"}, "fusion_lat": 0.0, "fusion_lon": 0.0, "bike_id": "d209d076c83d04538f77bbe9da2cb445", "name": "d209d076c83d04538f77bbe9da2cb445"}, {"lon": -76.97383016666667, "is_reserved": 0, "is_disabled": 0, "type": "electric_scooter", "lat": 38.883647333333336, "rental_uris": {"ios": "https://dc.lft.to/lastmile_qr_scan", "android": "https://dc.lft.to/lastmile_qr_scan"}, "fusion_lat": 0.0, "fusion_lon": 0.0, "bike_id": "7a56fd0e9ffb28608d2d98d24e812699", "name": "7a56fd0e9ffb28608d2d98d24e812699"}, {"lon": -77.0175835, "is_reserved": 0, "is_disabled": 0, "type": "electric_scooter", "lat": 38.9210895, "rental_uris": {"ios": "https://dc.lft.to/lastmile_qr_scan", "android": "https://dc.lft.to/lastmile_qr_scan"}, "fusion_lat": 0.0, "fusion_lon": 0.0, "bike_id": "7ffbdfa2c916d598c4742ff7c16f4a0f", "name": "7ffbdfa2c916d598c4742ff7c16f4a0f"}, {"lon": -77.00317, "is_reserved": 0, "is_disabled": 0, "type": "electric_scooter", "lat": 38.840304, "rental_uris": {"ios": "https://dc.lft.to/lastmile_qr_scan", "android": "https://dc.lft.to/lastmile_qr_scan"}, "fusion_lat": 0.0, "fusion_lon": 0.0, "bike_id": "7bfe1039a2fcdad6b939f9e5cdaf7b74", "name": "7bfe1039a2fcdad6b939f9e5cdaf7b74"}, {"lon": -77.05660266666666, "is_reserved": 0, "is_disabled": 0, "type": "electric_scooter", "lat": 38.96543966666667, "rental_uris": {"ios": "https://dc.lft.to/lastmile_qr_scan", "android": "https://dc.lft.to/lastmile_qr_scan"}, "fusion_lat": 0.0, "fusion_lon": 0.0, "bike_id": "5bc09b22b6882baed5a8f84efbadd250", "name": "5bc09b22b6882baed5a8f84efbadd250"}, {"lon": -77.03468583333333, "is_reserved": 0, "is_disabled": 0, "type": "electric_scooter", "lat": 38.908367166666665, "rental_uris": {"ios": "https://dc.lft.to/lastmile_qr_scan", "android": "https://dc.lft.to/lastmile_qr_scan"}, "fusion_lat": 0.0, "fusion_lon": 0.0, "bike_id": "c64b48dc6ed203738cd2200207dd4fb1", "name": "c64b48dc6ed203738cd2200207dd4fb1"}, {"lon": -77.04673883333334, "is_reserved": 0, "is_disabled": 0, "type": "electric_scooter", "lat": 38.907216, "rental_uris": {"ios": "https://dc.lft.to/lastmile_qr_scan", "android": "https://dc.lft.to/lastmile_qr_scan"}, "fusion_lat": 0.0, "fusion_lon": 0.0, "bike_id": "2bdf2ef56934fbebf0d7911adacaf02a", "name": "2bdf2ef56934fbebf0d7911adacaf02a"}, {"lon": -77.00036833333333, "is_reserved": 0, "is_disabled": 0, "type": "electric_scooter", "lat": 38.87406683333333, "rental_uris": {"ios": "https://dc.lft.to/lastmile_qr_scan", "android": "https://dc.lft.to/lastmile_qr_scan"}, "fusion_lat": 0.0, "fusion_lon": 0.0, "bike_id": "8a9605ea9e7000e156c25062492610e8", "name": "8a9605ea9e7000e156c25062492610e8"}, {"lon": -77.0378795, "is_reserved": 0, "is_disabled": 0, "type": "electric_scooter", "lat": 38.933219, "rental_uris": {"ios": "https://dc.lft.to/lastmile_qr_scan", "android": "https://dc.lft.to/lastmile_qr_scan"}, "fusion_lat": 0.0, "fusion_lon": 0.0, "bike_id": "1da1f675e977066e927047fc6f2ba456", "name": "1da1f675e977066e927047fc6f2ba456"}, {"lon": -76.99030116666667, "is_reserved": 0, "is_disabled": 0, "type": "electric_scooter", "lat": 38.92869266666666, "rental_uris": {"ios": "https://dc.lft.to/lastmile_qr_scan", "android": "https://dc.lft.to/lastmile_qr_scan"}, "fusion_lat": 0.0, "fusion_lon": 0.0, "bike_id": "286ba256e147af0f56ccb66eecdeed9d", "name": "286ba256e147af0f56ccb66eecdeed9d"}, {"lon": -76.94623316666667, "is_reserved": 0, "is_disabled": 0, "type": "electric_bike", "lat": 38.832330666666664, "rental_uris": {"ios": "https://dc.lft.to/lastmile_qr_scan", "android": "https://dc.lft.to/lastmile_qr_scan"}, "fusion_lat": 0.0, "fusion_lon": 0.0, "bike_id": "a9189622d80e419edbdb7b5dd30561fc", "name": "a9189622d80e419edbdb7b5dd30561fc"}, {"lon": -76.98769683333333, "is_reserved": 0, "is_disabled": 0, "type": "electric_scooter", "lat": 38.8830975, "rental_uris": {"ios": "https://dc.lft.to/lastmile_qr_scan", "android": "https://dc.lft.to/lastmile_qr_scan"}, "fusion_lat": 0.0, "fusion_lon": 0.0, "bike_id": "48cb48041b6a8a8e66fd90061fd95a56", "name": "48cb48041b6a8a8e66fd90061fd95a56"}, {"lon": -77.04357833333333, "is_reserved": 0, "is_disabled": 0, "type": "electric_scooter", "lat": 38.9082265, "rental_uris": {"ios": "https://dc.lft.to/lastmile_qr_scan", "android": "https://dc.lft.to/lastmile_qr_scan"}, "fusion_lat": 0.0, "fusion_lon": 0.0, "bike_id": "20a101f96826021f45ed98edb86f97a7", "name": "20a101f96826021f45ed98edb86f97a7"}, {"lon": -77.02580166666667, "is_reserved": 0, "is_disabled": 0, "type": "electric_scooter", "lat": 38.925052, "rental_uris": {"ios": "https://dc.lft.to/lastmile_qr_scan", "android": "https://dc.lft.to/lastmile_qr_scan"}, "fusion_lat": 0.0, "fusion_lon": 0.0, "bike_id": "2dd67ec099e4f7ac589c0d9e37ca12fd", "name": "2dd67ec099e4f7ac589c0d9e37ca12fd"}, {"lon": -77.07261866666667, "is_reserved": 0, "is_disabled": 0, "type": "electric_scooter", "lat": 38.912937666666664, "rental_uris": {"ios": "https://dc.lft.to/lastmile_qr_scan", "android": "https://dc.lft.to/lastmile_qr_scan"}, "fusion_lat": 0.0, "fusion_lon": 0.0, "bike_id": "637d8b2a498266f4d45707664579f2d3", "name": "637d8b2a498266f4d45707664579f2d3"}, {"lon": -77.03521066666667, "is_reserved": 0, "is_disabled": 0, "type": "electric_scooter", "lat": 38.921574, "rental_uris": {"ios": "https://dc.lft.to/lastmile_qr_scan", "android": "https://dc.lft.to/lastmile_qr_scan"}, "fusion_lat": 0.0, "fusion_lon": 0.0, "bike_id": "54633b43f51747b18e85020e034106e2", "name": "54633b43f51747b18e85020e034106e2"}, {"lon": -77.065205, "is_reserved": 0, "is_disabled": 0, "type": "electric_scooter", "lat": 38.905226666666664, "rental_uris": {"ios": "https://dc.lft.to/lastmile_qr_scan", "android": "https://dc.lft.to/lastmile_qr_scan"}, "fusion_lat": 0.0, "fusion_lon": 0.0, "bike_id": "8d1998bf3fec6a51ea0f65e329d65d73", "name": "8d1998bf3fec6a51ea0f65e329d65d73"}, {"lon": -77.02676966666667, "is_reserved": 0, "is_disabled": 0, "type": "electric_scooter", "lat": 38.896212, "rental_uris": {"ios": "https://dc.lft.to/lastmile_qr_scan", "android": "https://dc.lft.to/lastmile_qr_scan"}, "fusion_lat": 0.0, "fusion_lon": 0.0, "bike_id": "d0caa31a9206c06047e3cc743123b23e", "name": "d0caa31a9206c06047e3cc743123b23e"}, {"lon": -77.03803183333333, "is_reserved": 0, "is_disabled": 0, "type": "electric_scooter", "lat": 38.906960166666664, "rental_uris": {"ios": "https://dc.lft.to/lastmile_qr_scan", "android": "https://dc.lft.to/lastmile_qr_scan"}, "fusion_lat": 0.0, "fusion_lon": 0.0, "bike_id": "9dbd1c54fadfadb26b1f56748042e7a6", "name": "9dbd1c54fadfadb26b1f56748042e7a6"}, {"lon": -77.02251983333333, "is_reserved": 0, "is_disabled": 0, "type": "electric_scooter", "lat": 38.916296, "rental_uris": {"ios": "https://dc.lft.to/lastmile_qr_scan", "android": "https://dc.lft.to/lastmile_qr_scan"}, "fusion_lat": 0.0, "fusion_lon": 0.0, "bike_id": "0ca31de295eadb7e9f22f5629919605e", "name": "0ca31de295eadb7e9f22f5629919605e"}, {"lon": -77.0272185, "is_reserved": 0, "is_disabled": 0, "type": "electric_scooter", "lat": 38.896037166666666, "rental_uris": {"ios": "https://dc.lft.to/lastmile_qr_scan", "android": "https://dc.lft.to/lastmile_qr_scan"}, "fusion_lat": 0.0, "fusion_lon": 0.0, "bike_id": "04179dc3213abc807aeedd82f974b503", "name": "04179dc3213abc807aeedd82f974b503"}, {"lon": -77.06846533333334, "is_reserved": 0, "is_disabled": 0, "type": "electric_scooter", "lat": 38.951946666666664, "rental_uris": {"ios": "https://dc.lft.to/lastmile_qr_scan", "android": "https://dc.lft.to/lastmile_qr_scan"}, "fusion_lat": 0.0, "fusion_lon": 0.0, "bike_id": "f2af44f27e4d6dde6a4783b16f0a4ba8", "name": "f2af44f27e4d6dde6a4783b16f0a4ba8"}, {"lon": -76.9799225, "is_reserved": 0, "is_disabled": 0, "type": "electric_scooter", "lat": 38.8876625, "rental_uris": {"ios": "https://dc.lft.to/lastmile_qr_scan", "android": "https://dc.lft.to/lastmile_qr_scan"}, "fusion_lat": 0.0, "fusion_lon": 0.0, "bike_id": "bf665f395f5a22fd2df6a28c8b694648", "name": "bf665f395f5a22fd2df6a28c8b694648"}, {"lon": -77.01926066666667, "is_reserved": 0, "is_disabled": 0, "type": "electric_scooter", "lat": 38.944804833333336, "rental_uris": {"ios": "https://dc.lft.to/lastmile_qr_scan", "android": "https://dc.lft.to/lastmile_qr_scan"}, "fusion_lat": 0.0, "fusion_lon": 0.0, "bike_id": "9a459f42961b542b05bf099f116e31c4", "name": "9a459f42961b542b05bf099f116e31c4"}, {"lon": -77.04194416666667, "is_reserved": 0, "is_disabled": 0, "type": "electric_scooter", "lat": 38.911340333333335, "rental_uris": {"ios": "https://dc.lft.to/lastmile_qr_scan", "android": "https://dc.lft.to/lastmile_qr_scan"}, "fusion_lat": 0.0, "fusion_lon": 0.0, "bike_id": "5b924d2e8e873651b6d838738692429a", "name": "5b924d2e8e873651b6d838738692429a"}, {"lon": -77.034119, "is_reserved": 0, "is_disabled": 0, "type": "electric_scooter", "lat": 38.931705666666666, "rental_uris": {"ios": "https://dc.lft.to/lastmile_qr_scan", "android": "https://dc.lft.to/lastmile_qr_scan"}, "fusion_lat": 0.0, "fusion_lon": 0.0, "bike_id": "51702f3987d6ece1d0f9ba47255842d9", "name": "51702f3987d6ece1d0f9ba47255842d9"}, {"lon": -77.04784983333333, "is_reserved": 0, "is_disabled": 0, "type": "electric_scooter", "lat": 38.91336716666667, "rental_uris": {"ios": "https://dc.lft.to/lastmile_qr_scan", "android": "https://dc.lft.to/lastmile_qr_scan"}, "fusion_lat": 0.0, "fusion_lon": 0.0, "bike_id": "bba31393488e8ff77af83a2e7f61f6fc", "name": "bba31393488e8ff77af83a2e7f61f6fc"}, {"lon": -77.00332016666667, "is_reserved": 0, "is_disabled": 0, "type": "electric_scooter", "lat": 38.89365133333333, "rental_uris": {"ios": "https://dc.lft.to/lastmile_qr_scan", "android": "https://dc.lft.to/lastmile_qr_scan"}, "fusion_lat": 0.0, "fusion_lon": 0.0, "bike_id": "b5cdc229a3ae218f944126fafcab0bb3", "name": "b5cdc229a3ae218f944126fafcab0bb3"}, {"lon": -77.006717, "is_reserved": 0, "is_disabled": 0, "type": "electric_bike", "lat": 38.94511116666666, "rental_uris": {"ios": "https://dc.lft.to/lastmile_qr_scan", "android": "https://dc.lft.to/lastmile_qr_scan"}, "fusion_lat": 0.0, "fusion_lon": 0.0, "bike_id": "784e48f26cf7148fc8908e0fb025c53a", "name": "784e48f26cf7148fc8908e0fb025c53a"}, {"lon": -77.02977083333333, "is_reserved": 0, "is_disabled": 0, "type": "electric_scooter", "lat": 38.89623616666667, "rental_uris": {"ios": "https://dc.lft.to/lastmile_qr_scan", "android": "https://dc.lft.to/lastmile_qr_scan"}, "fusion_lat": 0.0, "fusion_lon": 0.0, "bike_id": "9f7b0c191fb9d358c463752fa7f6ec40", "name": "9f7b0c191fb9d358c463752fa7f6ec40"}, {"lon": -77.00024566666667, "is_reserved": 0, "is_disabled": 0, "type": "electric_scooter", "lat": 38.90016266666667, "rental_uris": {"ios": "https://dc.lft.to/lastmile_qr_scan", "android": "https://dc.lft.to/lastmile_qr_scan"}, "fusion_lat": 0.0, "fusion_lon": 0.0, "bike_id": "4a0ad2d3e7db0df0eaa48417167467c4", "name": "4a0ad2d3e7db0df0eaa48417167467c4"}, {"lon": -77.02119433333333, "is_reserved": 0, "is_disabled": 0, "type": "electric_scooter", "lat": 38.90337666666667, "rental_uris": {"ios": "https://dc.lft.to/lastmile_qr_scan", "android": "https://dc.lft.to/lastmile_qr_scan"}, "fusion_lat": 0.0, "fusion_lon": 0.0, "bike_id": "6acba65dc06d42592d717748f58c282b", "name": "6acba65dc06d42592d717748f58c282b"}, {"lon": -77.021644, "is_reserved": 0, "is_disabled": 0, "type": "electric_scooter", "lat": 38.92615, "rental_uris": {"ios": "https://dc.lft.to/lastmile_qr_scan", "android": "https://dc.lft.to/lastmile_qr_scan"}, "fusion_lat": 0.0, "fusion_lon": 0.0, "bike_id": "7cdeaaf05fddc5e8a9177795a9693050", "name": "7cdeaaf05fddc5e8a9177795a9693050"}, {"lon": -77.04492016666667, "is_reserved": 0, "is_disabled": 0, "type": "electric_scooter", "lat": 38.90373266666667, "rental_uris": {"ios": "https://dc.lft.to/lastmile_qr_scan", "android": "https://dc.lft.to/lastmile_qr_scan"}, "fusion_lat": 0.0, "fusion_lon": 0.0, "bike_id": "c4153fa53633e41433c12919aa054fb0", "name": "c4153fa53633e41433c12919aa054fb0"}, {"lon": -77.0058735, "is_reserved": 0, "is_disabled": 0, "type": "electric_scooter", "lat": 38.905579833333334, "rental_uris": {"ios": "https://dc.lft.to/lastmile_qr_scan", "android": "https://dc.lft.to/lastmile_qr_scan"}, "fusion_lat": 0.0, "fusion_lon": 0.0, "bike_id": "a7aff05973d29971f72ee91bb48e20ec", "name": "a7aff05973d29971f72ee91bb48e20ec"}, {"lon": -77.03185333333333, "is_reserved": 0, "is_disabled": 0, "type": "electric_scooter", "lat": 38.8976325, "rental_uris": {"ios": "https://dc.lft.to/lastmile_qr_scan", "android": "https://dc.lft.to/lastmile_qr_scan"}, "fusion_lat": 0.0, "fusion_lon": 0.0, "bike_id": "863f841753a0d9be15d3ee43932ea9ac", "name": "863f841753a0d9be15d3ee43932ea9ac"}, {"lon": -77.084443, "is_reserved": 0, "is_disabled": 0, "type": "electric_scooter", "lat": 38.911772166666665, "rental_uris": {"ios": "https://dc.lft.to/lastmile_qr_scan", "android": "https://dc.lft.to/lastmile_qr_scan"}, "fusion_lat": 0.0, "fusion_lon": 0.0, "bike_id": "5b60a4d3deaed7116758db792df142cb", "name": "5b60a4d3deaed7116758db792df142cb"}, {"lon": -76.98333683333334, "is_reserved": 0, "is_disabled": 0, "type": "electric_scooter", "lat": 38.8898355, "rental_uris": {"ios": "https://dc.lft.to/lastmile_qr_scan", "android": "https://dc.lft.to/lastmile_qr_scan"}, "fusion_lat": 0.0, "fusion_lon": 0.0, "bike_id": "28edab81e11db45e4cdd0a9c3e6172f7", "name": "28edab81e11db45e4cdd0a9c3e6172f7"}, {"lon": -76.99098366666666, "is_reserved": 0, "is_disabled": 0, "type": "electric_scooter", "lat": 38.86352, "rental_uris": {"ios": "https://dc.lft.to/lastmile_qr_scan", "android": "https://dc.lft.to/lastmile_qr_scan"}, "fusion_lat": 0.0, "fusion_lon": 0.0, "bike_id": "c3862012c6aacfb6e8ea4b5d4ff41cf6", "name": "c3862012c6aacfb6e8ea4b5d4ff41cf6"}, {"lon": -77.00131883333333, "is_reserved": 0, "is_disabled": 0, "type": "electric_scooter", "lat": 38.873942166666666, "rental_uris": {"ios": "https://dc.lft.to/lastmile_qr_scan", "android": "https://dc.lft.to/lastmile_qr_scan"}, "fusion_lat": 0.0, "fusion_lon": 0.0, "bike_id": "d6ee29d97b8fc3202641f616af0e0495", "name": "d6ee29d97b8fc3202641f616af0e0495"}, {"lon": -76.995181, "is_reserved": 0, "is_disabled": 0, "type": "electric_scooter", "lat": 38.86256016666667, "rental_uris": {"ios": "https://dc.lft.to/lastmile_qr_scan", "android": "https://dc.lft.to/lastmile_qr_scan"}, "fusion_lat": 0.0, "fusion_lon": 0.0, "bike_id": "e352ccfafa6f084c855f89ef0a81ff39", "name": "e352ccfafa6f084c855f89ef0a81ff39"}, {"lon": -77.06404633333334, "is_reserved": 0, "is_disabled": 0, "type": "electric_scooter", "lat": 38.90928483333333, "rental_uris": {"ios": "https://dc.lft.to/lastmile_qr_scan", "android": "https://dc.lft.to/lastmile_qr_scan"}, "fusion_lat": 0.0, "fusion_lon": 0.0, "bike_id": "059c2f5633bed38077b1c0e4c901037d", "name": "059c2f5633bed38077b1c0e4c901037d"}, {"lon": -77.00318966666667, "is_reserved": 0, "is_disabled": 0, "type": "electric_scooter", "lat": 38.88987983333333, "rental_uris": {"ios": "https://dc.lft.to/lastmile_qr_scan", "android": "https://dc.lft.to/lastmile_qr_scan"}, "fusion_lat": 0.0, "fusion_lon": 0.0, "bike_id": "6d2871705585d41de097089c117a57aa", "name": "6d2871705585d41de097089c117a57aa"}, {"lon": -77.0326295, "is_reserved": 0, "is_disabled": 0, "type": "electric_scooter", "lat": 38.93339666666667, "rental_uris": {"ios": "https://dc.lft.to/lastmile_qr_scan", "android": "https://dc.lft.to/lastmile_qr_scan"}, "fusion_lat": 0.0, "fusion_lon": 0.0, "bike_id": "872f2b0b95f3f3b79e12d1b2187d0446", "name": "872f2b0b95f3f3b79e12d1b2187d0446"}, {"lon": -77.003392, "is_reserved": 0, "is_disabled": 0, "type": "electric_scooter", "lat": 38.901466166666665, "rental_uris": {"ios": "https://dc.lft.to/lastmile_qr_scan", "android": "https://dc.lft.to/lastmile_qr_scan"}, "fusion_lat": 0.0, "fusion_lon": 0.0, "bike_id": "117352c3e9ba13fedd2557ead19e13c8", "name": "117352c3e9ba13fedd2557ead19e13c8"}, {"lon": -77.03858716666667, "is_reserved": 0, "is_disabled": 0, "type": "electric_scooter", "lat": 38.9321235, "rental_uris": {"ios": "https://dc.lft.to/lastmile_qr_scan", "android": "https://dc.lft.to/lastmile_qr_scan"}, "fusion_lat": 0.0, "fusion_lon": 0.0, "bike_id": "ec1c3df5e083bac9eb10eea005b42f45", "name": "ec1c3df5e083bac9eb10eea005b42f45"}, {"lon": -76.99373733333333, "is_reserved": 0, "is_disabled": 0, "type": "electric_scooter", "lat": 38.91017383333333, "rental_uris": {"ios": "https://dc.lft.to/lastmile_qr_scan", "android": "https://dc.lft.to/lastmile_qr_scan"}, "fusion_lat": 0.0, "fusion_lon": 0.0, "bike_id": "9d89619cf2fc802e81be10142f23bafa", "name": "9d89619cf2fc802e81be10142f23bafa"}, {"lon": -77.02645766666667, "is_reserved": 0, "is_disabled": 0, "type": "electric_scooter", "lat": 38.90265266666667, "rental_uris": {"ios": "https://dc.lft.to/lastmile_qr_scan", "android": "https://dc.lft.to/lastmile_qr_scan"}, "fusion_lat": 0.0, "fusion_lon": 0.0, "bike_id": "3937fd639829d2115efde2c3093cb52f", "name": "3937fd639829d2115efde2c3093cb52f"}, {"lon": -77.00546633333333, "is_reserved": 0, "is_disabled": 0, "type": "electric_scooter", "lat": 38.874598, "rental_uris": {"ios": "https://dc.lft.to/lastmile_qr_scan", "android": "https://dc.lft.to/lastmile_qr_scan"}, "fusion_lat": 0.0, "fusion_lon": 0.0, "bike_id": "39406b588416caa8b566ede5cf97f878", "name": "39406b588416caa8b566ede5cf97f878"}, {"lon": -76.9374535, "is_reserved": 0, "is_disabled": 0, "type": "electric_scooter", "lat": 38.89015033333333, "rental_uris": {"ios": "https://dc.lft.to/lastmile_qr_scan", "android": "https://dc.lft.to/lastmile_qr_scan"}, "fusion_lat": 0.0, "fusion_lon": 0.0, "bike_id": "b1d3ec4c3b5a91a286c50159d6428a30", "name": "b1d3ec4c3b5a91a286c50159d6428a30"}, {"lon": -77.02823283333333, "is_reserved": 0, "is_disabled": 0, "type": "electric_scooter", "lat": 38.90559116666667, "rental_uris": {"ios": "https://dc.lft.to/lastmile_qr_scan", "android": "https://dc.lft.to/lastmile_qr_scan"}, "fusion_lat": 0.0, "fusion_lon": 0.0, "bike_id": "b8c1f8d5dd7ee7450e4613c4c5c67e83", "name": "b8c1f8d5dd7ee7450e4613c4c5c67e83"}, {"lon": -76.94842466666667, "is_reserved": 0, "is_disabled": 0, "type": "electric_scooter", "lat": 38.894881, "rental_uris": {"ios": "https://dc.lft.to/lastmile_qr_scan", "android": "https://dc.lft.to/lastmile_qr_scan"}, "fusion_lat": 0.0, "fusion_lon": 0.0, "bike_id": "7f4763e1f6973e7e5e5404cd811e2ff8", "name": "7f4763e1f6973e7e5e5404cd811e2ff8"}, {"lon": -77.08213983333333, "is_reserved": 0, "is_disabled": 0, "type": "electric_scooter", "lat": 38.93552583333334, "rental_uris": {"ios": "https://dc.lft.to/lastmile_qr_scan", "android": "https://dc.lft.to/lastmile_qr_scan"}, "fusion_lat": 0.0, "fusion_lon": 0.0, "bike_id": "e4051f970c33375217db21330d5490e9", "name": "e4051f970c33375217db21330d5490e9"}, {"lon": -77.04155266666666, "is_reserved": 0, "is_disabled": 0, "type": "electric_scooter", "lat": 38.917129, "rental_uris": {"ios": "https://dc.lft.to/lastmile_qr_scan", "android": "https://dc.lft.to/lastmile_qr_scan"}, "fusion_lat": 0.0, "fusion_lon": 0.0, "bike_id": "53c9606a3dba0f4f5a0a72880ce47b02", "name": "53c9606a3dba0f4f5a0a72880ce47b02"}, {"lon": -77.056996, "is_reserved": 0, "is_disabled": 0, "type": "electric_scooter", "lat": 38.910591833333335, "rental_uris": {"ios": "https://dc.lft.to/lastmile_qr_scan", "android": "https://dc.lft.to/lastmile_qr_scan"}, "fusion_lat": 0.0, "fusion_lon": 0.0, "bike_id": "1e9e1b4c2284731628d65c870cfc23b7", "name": "1e9e1b4c2284731628d65c870cfc23b7"}, {"lon": -76.9900395, "is_reserved": 0, "is_disabled": 0, "type": "electric_scooter", "lat": 38.865036333333336, "rental_uris": {"ios": "https://dc.lft.to/lastmile_qr_scan", "android": "https://dc.lft.to/lastmile_qr_scan"}, "fusion_lat": 0.0, "fusion_lon": 0.0, "bike_id": "f7a1acc5f90b84ad41fdc0566087edac", "name": "f7a1acc5f90b84ad41fdc0566087edac"}, {"lon": -76.9343075, "is_reserved": 0, "is_disabled": 0, "type": "electric_scooter", "lat": 38.89962216666667, "rental_uris": {"ios": "https://dc.lft.to/lastmile_qr_scan", "android": "https://dc.lft.to/lastmile_qr_scan"}, "fusion_lat": 0.0, "fusion_lon": 0.0, "bike_id": "ee4ff0bd314d7cb8fb4e234b286d8b0e", "name": "ee4ff0bd314d7cb8fb4e234b286d8b0e"}, {"lon": -77.037041, "is_reserved": 0, "is_disabled": 0, "type": "electric_scooter", "lat": 38.92641966666667, "rental_uris": {"ios": "https://dc.lft.to/lastmile_qr_scan", "android": "https://dc.lft.to/lastmile_qr_scan"}, "fusion_lat": 0.0, "fusion_lon": 0.0, "bike_id": "3b6185a8e19bfaad3528c6aea1a27251", "name": "3b6185a8e19bfaad3528c6aea1a27251"}, {"lon": -77.02231033333334, "is_reserved": 0, "is_disabled": 0, "type": "electric_scooter", "lat": 38.88766533333333, "rental_uris": {"ios": "https://dc.lft.to/lastmile_qr_scan", "android": "https://dc.lft.to/lastmile_qr_scan"}, "fusion_lat": 0.0, "fusion_lon": 0.0, "bike_id": "0e821c672a5ed4673b515faa5100bebb", "name": "0e821c672a5ed4673b515faa5100bebb"}, {"lon": -77.02301133333333, "is_reserved": 0, "is_disabled": 0, "type": "electric_scooter", "lat": 38.916848, "rental_uris": {"ios": "https://dc.lft.to/lastmile_qr_scan", "android": "https://dc.lft.to/lastmile_qr_scan"}, "fusion_lat": 0.0, "fusion_lon": 0.0, "bike_id": "49659c3e54a289f30ea81032e4862b51", "name": "49659c3e54a289f30ea81032e4862b51"}, {"lon": -76.94877766666667, "is_reserved": 0, "is_disabled": 0, "type": "electric_scooter", "lat": 38.89589183333333, "rental_uris": {"ios": "https://dc.lft.to/lastmile_qr_scan", "android": "https://dc.lft.to/lastmile_qr_scan"}, "fusion_lat": 0.0, "fusion_lon": 0.0, "bike_id": "a7386a337bc6867cabe637d509a96d01", "name": "a7386a337bc6867cabe637d509a96d01"}, {"lon": -77.05292633333333, "is_reserved": 0, "is_disabled": 0, "type": "electric_scooter", "lat": 38.9278245, "rental_uris": {"ios": "https://dc.lft.to/lastmile_qr_scan", "android": "https://dc.lft.to/lastmile_qr_scan"}, "fusion_lat": 0.0, "fusion_lon": 0.0, "bike_id": "34f4f192252dad3cb0df85cfed98fccd", "name": "34f4f192252dad3cb0df85cfed98fccd"}, {"lon": -77.03214566666666, "is_reserved": 0, "is_disabled": 0, "type": "electric_scooter", "lat": 38.907687333333335, "rental_uris": {"ios": "https://dc.lft.to/lastmile_qr_scan", "android": "https://dc.lft.to/lastmile_qr_scan"}, "fusion_lat": 0.0, "fusion_lon": 0.0, "bike_id": "d2996f873e19dccfe21a0f20771c0c5b", "name": "d2996f873e19dccfe21a0f20771c0c5b"}, {"lon": -77.028504, "is_reserved": 0, "is_disabled": 0, "type": "electric_scooter", "lat": 38.92231366666667, "rental_uris": {"ios": "https://dc.lft.to/lastmile_qr_scan", "android": "https://dc.lft.to/lastmile_qr_scan"}, "fusion_lat": 0.0, "fusion_lon": 0.0, "bike_id": "ecb1527c258d48d83934e2bb67f520a7", "name": "ecb1527c258d48d83934e2bb67f520a7"}, {"lon": -77.02980633333334, "is_reserved": 0, "is_disabled": 0, "type": "electric_scooter", "lat": 38.92454133333333, "rental_uris": {"ios": "https://dc.lft.to/lastmile_qr_scan", "android": "https://dc.lft.to/lastmile_qr_scan"}, "fusion_lat": 0.0, "fusion_lon": 0.0, "bike_id": "778e6ce730747fb864b629ee82bd519e", "name": "778e6ce730747fb864b629ee82bd519e"}, {"lon": -77.03741733333334, "is_reserved": 0, "is_disabled": 0, "type": "electric_scooter", "lat": 38.90232966666667, "rental_uris": {"ios": "https://dc.lft.to/lastmile_qr_scan", "android": "https://dc.lft.to/lastmile_qr_scan"}, "fusion_lat": 0.0, "fusion_lon": 0.0, "bike_id": "66839e9d3f7056e334d4b03f3f48b44c", "name": "66839e9d3f7056e334d4b03f3f48b44c"}, {"lon": -77.00451283333334, "is_reserved": 0, "is_disabled": 0, "type": "electric_scooter", "lat": 38.9117175, "rental_uris": {"ios": "https://dc.lft.to/lastmile_qr_scan", "android": "https://dc.lft.to/lastmile_qr_scan"}, "fusion_lat": 0.0, "fusion_lon": 0.0, "bike_id": "205f33cd4f42819a8a7248413201a69c", "name": "205f33cd4f42819a8a7248413201a69c"}, {"lon": -76.947655, "is_reserved": 0, "is_disabled": 0, "type": "electric_bike", "lat": 38.89631883333333, "rental_uris": {"ios": "https://dc.lft.to/lastmile_qr_scan", "android": "https://dc.lft.to/lastmile_qr_scan"}, "fusion_lat": 0.0, "fusion_lon": 0.0, "bike_id": "4820c977a1b8f043f62e63fd502d06b9", "name": "4820c977a1b8f043f62e63fd502d06b9"}, {"lon": -77.03629233333334, "is_reserved": 0, "is_disabled": 0, "type": "electric_scooter", "lat": 38.90269166666667, "rental_uris": {"ios": "https://dc.lft.to/lastmile_qr_scan", "android": "https://dc.lft.to/lastmile_qr_scan"}, "fusion_lat": 0.0, "fusion_lon": 0.0, "bike_id": "55da3e2bd6b5994ed102dd444d116d4b", "name": "55da3e2bd6b5994ed102dd444d116d4b"}, {"lon": -77.04500433333334, "is_reserved": 0, "is_disabled": 0, "type": "electric_scooter", "lat": 38.903820833333334, "rental_uris": {"ios": "https://dc.lft.to/lastmile_qr_scan", "android": "https://dc.lft.to/lastmile_qr_scan"}, "fusion_lat": 0.0, "fusion_lon": 0.0, "bike_id": "9278261e4a4468115a838af43a27c97b", "name": "9278261e4a4468115a838af43a27c97b"}, {"lon": -76.990877, "is_reserved": 0, "is_disabled": 0, "type": "electric_scooter", "lat": 38.8429235, "rental_uris": {"ios": "https://dc.lft.to/lastmile_qr_scan", "android": "https://dc.lft.to/lastmile_qr_scan"}, "fusion_lat": 0.0, "fusion_lon": 0.0, "bike_id": "d96ff87b1ae3ead92aac659dc56cbdba", "name": "d96ff87b1ae3ead92aac659dc56cbdba"}, {"lon": -77.02740333333334, "is_reserved": 0, "is_disabled": 0, "type": "electric_scooter", "lat": 38.924096166666665, "rental_uris": {"ios": "https://dc.lft.to/lastmile_qr_scan", "android": "https://dc.lft.to/lastmile_qr_scan"}, "fusion_lat": 0.0, "fusion_lon": 0.0, "bike_id": "86011c2140e394dac6c0ecd712e4074b", "name": "86011c2140e394dac6c0ecd712e4074b"}, {"lon": -76.98466066666667, "is_reserved": 0, "is_disabled": 0, "type": "electric_scooter", "lat": 38.89369883333333, "rental_uris": {"ios": "https://dc.lft.to/lastmile_qr_scan", "android": "https://dc.lft.to/lastmile_qr_scan"}, "fusion_lat": 0.0, "fusion_lon": 0.0, "bike_id": "6c8a1b7f6741b5c0944f3ac691d53d59", "name": "6c8a1b7f6741b5c0944f3ac691d53d59"}, {"lon": -77.03340483333334, "is_reserved": 0, "is_disabled": 0, "type": "electric_scooter", "lat": 38.91911283333334, "rental_uris": {"ios": "https://dc.lft.to/lastmile_qr_scan", "android": "https://dc.lft.to/lastmile_qr_scan"}, "fusion_lat": 0.0, "fusion_lon": 0.0, "bike_id": "16723842d8fa8591a56e0875cea5b309", "name": "16723842d8fa8591a56e0875cea5b309"}, {"lon": -77.0113105, "is_reserved": 0, "is_disabled": 0, "type": "electric_scooter", "lat": 38.870779166666665, "rental_uris": {"ios": "https://dc.lft.to/lastmile_qr_scan", "android": "https://dc.lft.to/lastmile_qr_scan"}, "fusion_lat": 0.0, "fusion_lon": 0.0, "bike_id": "5991fa2f13a01d07f8ab2ec671a8bb35", "name": "5991fa2f13a01d07f8ab2ec671a8bb35"}, {"lon": -77.02949933333333, "is_reserved": 0, "is_disabled": 0, "type": "electric_scooter", "lat": 38.89805883333333, "rental_uris": {"ios": "https://dc.lft.to/lastmile_qr_scan", "android": "https://dc.lft.to/lastmile_qr_scan"}, "fusion_lat": 0.0, "fusion_lon": 0.0, "bike_id": "ecc85f1d987c4917ec143c85c6eeeb0c", "name": "ecc85f1d987c4917ec143c85c6eeeb0c"}, {"lon": -77.0190085, "is_reserved": 0, "is_disabled": 0, "type": "electric_scooter", "lat": 38.939171333333334, "rental_uris": {"ios": "https://dc.lft.to/lastmile_qr_scan", "android": "https://dc.lft.to/lastmile_qr_scan"}, "fusion_lat": 0.0, "fusion_lon": 0.0, "bike_id": "691863d68a2a9a89e1c930ac89798f4b", "name": "691863d68a2a9a89e1c930ac89798f4b"}, {"lon": -77.023986, "is_reserved": 0, "is_disabled": 0, "type": "electric_scooter", "lat": 38.907443666666666, "rental_uris": {"ios": "https://dc.lft.to/lastmile_qr_scan", "android": "https://dc.lft.to/lastmile_qr_scan"}, "fusion_lat": 0.0, "fusion_lon": 0.0, "bike_id": "14c4b0ca26630630e218e4a92b18405f", "name": "14c4b0ca26630630e218e4a92b18405f"}, {"lon": -77.02036566666666, "is_reserved": 0, "is_disabled": 0, "type": "electric_scooter", "lat": 38.892708999999996, "rental_uris": {"ios": "https://dc.lft.to/lastmile_qr_scan", "android": "https://dc.lft.to/lastmile_qr_scan"}, "fusion_lat": 0.0, "fusion_lon": 0.0, "bike_id": "306f8a21e0cdf067d0eeb862185201fd", "name": "306f8a21e0cdf067d0eeb862185201fd"}, {"lon": -77.0504765, "is_reserved": 0, "is_disabled": 0, "type": "electric_scooter", "lat": 38.9236145, "rental_uris": {"ios": "https://dc.lft.to/lastmile_qr_scan", "android": "https://dc.lft.to/lastmile_qr_scan"}, "fusion_lat": 0.0, "fusion_lon": 0.0, "bike_id": "c51c444cfb0d7660c021de9a8b5a5cca", "name": "c51c444cfb0d7660c021de9a8b5a5cca"}, {"lon": -76.98454666666666, "is_reserved": 0, "is_disabled": 0, "type": "electric_scooter", "lat": 38.88018183333333, "rental_uris": {"ios": "https://dc.lft.to/lastmile_qr_scan", "android": "https://dc.lft.to/lastmile_qr_scan"}, "fusion_lat": 0.0, "fusion_lon": 0.0, "bike_id": "33739fcc46b31c50b6943a3ba8b5893e", "name": "33739fcc46b31c50b6943a3ba8b5893e"}, {"lon": -77.007477, "is_reserved": 0, "is_disabled": 0, "type": "electric_scooter", "lat": 38.91194083333333, "rental_uris": {"ios": "https://dc.lft.to/lastmile_qr_scan", "android": "https://dc.lft.to/lastmile_qr_scan"}, "fusion_lat": 0.0, "fusion_lon": 0.0, "bike_id": "ff2e2220d171724558051d244fa18dca", "name": "ff2e2220d171724558051d244fa18dca"}, {"lon": -77.0248865, "is_reserved": 0, "is_disabled": 0, "type": "electric_scooter", "lat": 38.91750483333333, "rental_uris": {"ios": "https://dc.lft.to/lastmile_qr_scan", "android": "https://dc.lft.to/lastmile_qr_scan"}, "fusion_lat": 0.0, "fusion_lon": 0.0, "bike_id": "2dfaf5b230e14c8edca7b29d2e7175e0", "name": "2dfaf5b230e14c8edca7b29d2e7175e0"}, {"lon": -76.99388083333334, "is_reserved": 0, "is_disabled": 0, "type": "electric_scooter", "lat": 38.923896666666664, "rental_uris": {"ios": "https://dc.lft.to/lastmile_qr_scan", "android": "https://dc.lft.to/lastmile_qr_scan"}, "fusion_lat": 0.0, "fusion_lon": 0.0, "bike_id": "088c67aad6112a3a0250fb33a4191362", "name": "088c67aad6112a3a0250fb33a4191362"}, {"lon": -77.02506183333334, "is_reserved": 0, "is_disabled": 0, "type": "electric_scooter", "lat": 38.901007166666666, "rental_uris": {"ios": "https://dc.lft.to/lastmile_qr_scan", "android": "https://dc.lft.to/lastmile_qr_scan"}, "fusion_lat": 0.0, "fusion_lon": 0.0, "bike_id": "204147e8654db6f995a7b5336c645ce7", "name": "204147e8654db6f995a7b5336c645ce7"}, {"lon": -77.00862616666667, "is_reserved": 0, "is_disabled": 0, "type": "electric_bike", "lat": 38.82728133333333, "rental_uris": {"ios": "https://dc.lft.to/lastmile_qr_scan", "android": "https://dc.lft.to/lastmile_qr_scan"}, "fusion_lat": 0.0, "fusion_lon": 0.0, "bike_id": "d0c939f82d1d502de36fcfb0e5bf4e11", "name": "d0c939f82d1d502de36fcfb0e5bf4e11"}, {"lon": -77.03480683333333, "is_reserved": 0, "is_disabled": 0, "type": "electric_scooter", "lat": 38.9079375, "rental_uris": {"ios": "https://dc.lft.to/lastmile_qr_scan", "android": "https://dc.lft.to/lastmile_qr_scan"}, "fusion_lat": 0.0, "fusion_lon": 0.0, "bike_id": "0f0c6931d2e7fa9a7b5f1edc20955572", "name": "0f0c6931d2e7fa9a7b5f1edc20955572"}, {"lon": -77.0318315, "is_reserved": 0, "is_disabled": 0, "type": "electric_scooter", "lat": 38.919265, "rental_uris": {"ios": "https://dc.lft.to/lastmile_qr_scan", "android": "https://dc.lft.to/lastmile_qr_scan"}, "fusion_lat": 0.0, "fusion_lon": 0.0, "bike_id": "3787b0d778922eb85c0e197f4a6dba37", "name": "3787b0d778922eb85c0e197f4a6dba37"}, {"lon": -77.05404633333333, "is_reserved": 0, "is_disabled": 0, "type": "electric_scooter", "lat": 38.868960333333334, "rental_uris": {"ios": "https://dc.lft.to/lastmile_qr_scan", "android": "https://dc.lft.to/lastmile_qr_scan"}, "fusion_lat": 0.0, "fusion_lon": 0.0, "bike_id": "ab214c5aa1c4f094264c843235b1b008", "name": "ab214c5aa1c4f094264c843235b1b008"}, {"lon": -77.03858016666666, "is_reserved": 0, "is_disabled": 0, "type": "electric_scooter", "lat": 38.911746, "rental_uris": {"ios": "https://dc.lft.to/lastmile_qr_scan", "android": "https://dc.lft.to/lastmile_qr_scan"}, "fusion_lat": 0.0, "fusion_lon": 0.0, "bike_id": "1034367d446a65c5ce0e733df9a10bee", "name": "1034367d446a65c5ce0e733df9a10bee"}, {"lon": -77.02005033333333, "is_reserved": 0, "is_disabled": 0, "type": "electric_scooter", "lat": 38.879375833333334, "rental_uris": {"ios": "https://dc.lft.to/lastmile_qr_scan", "android": "https://dc.lft.to/lastmile_qr_scan"}, "fusion_lat": 0.0, "fusion_lon": 0.0, "bike_id": "b4e68a0c8e71772481030ec9f14b565b", "name": "b4e68a0c8e71772481030ec9f14b565b"}, {"lon": -76.98623533333334, "is_reserved": 0, "is_disabled": 0, "type": "electric_scooter", "lat": 38.905829833333335, "rental_uris": {"ios": "https://dc.lft.to/lastmile_qr_scan", "android": "https://dc.lft.to/lastmile_qr_scan"}, "fusion_lat": 0.0, "fusion_lon": 0.0, "bike_id": "f04a9269bd6a94017b1ab203df2dbdb3", "name": "f04a9269bd6a94017b1ab203df2dbdb3"}, {"lon": -76.98570533333333, "is_reserved": 0, "is_disabled": 0, "type": "electric_scooter", "lat": 38.855834333333334, "rental_uris": {"ios": "https://dc.lft.to/lastmile_qr_scan", "android": "https://dc.lft.to/lastmile_qr_scan"}, "fusion_lat": 0.0, "fusion_lon": 0.0, "bike_id": "b6b4f34f1a6942ec7d8104dac16d73b4", "name": "b6b4f34f1a6942ec7d8104dac16d73b4"}, {"lon": -76.94248083333333, "is_reserved": 0, "is_disabled": 0, "type": "electric_scooter", "lat": 38.896823499999996, "rental_uris": {"ios": "https://dc.lft.to/lastmile_qr_scan", "android": "https://dc.lft.to/lastmile_qr_scan"}, "fusion_lat": 0.0, "fusion_lon": 0.0, "bike_id": "770fe436e4b05c1aeed1d75978275acc", "name": "770fe436e4b05c1aeed1d75978275acc"}, {"lon": -77.04384766666666, "is_reserved": 0, "is_disabled": 0, "type": "electric_scooter", "lat": 38.90635233333333, "rental_uris": {"ios": "https://dc.lft.to/lastmile_qr_scan", "android": "https://dc.lft.to/lastmile_qr_scan"}, "fusion_lat": 0.0, "fusion_lon": 0.0, "bike_id": "a90e3a82dd9aa7627e54023de5e7010d", "name": "a90e3a82dd9aa7627e54023de5e7010d"}, {"lon": -77.04014066666667, "is_reserved": 0, "is_disabled": 0, "type": "electric_scooter", "lat": 38.913108, "rental_uris": {"ios": "https://dc.lft.to/lastmile_qr_scan", "android": "https://dc.lft.to/lastmile_qr_scan"}, "fusion_lat": 0.0, "fusion_lon": 0.0, "bike_id": "85f8c47932bb7399f6dcaf7f2511ab48", "name": "85f8c47932bb7399f6dcaf7f2511ab48"}, {"lon": -77.01363983333333, "is_reserved": 0, "is_disabled": 0, "type": "electric_scooter", "lat": 38.88704966666667, "rental_uris": {"ios": "https://dc.lft.to/lastmile_qr_scan", "android": "https://dc.lft.to/lastmile_qr_scan"}, "fusion_lat": 0.0, "fusion_lon": 0.0, "bike_id": "6048c2ba31f8e05e463bb4754694939a", "name": "6048c2ba31f8e05e463bb4754694939a"}, {"lon": -77.03842833333333, "is_reserved": 0, "is_disabled": 0, "type": "electric_scooter", "lat": 38.912096166666664, "rental_uris": {"ios": "https://dc.lft.to/lastmile_qr_scan", "android": "https://dc.lft.to/lastmile_qr_scan"}, "fusion_lat": 0.0, "fusion_lon": 0.0, "bike_id": "83a59a55c3e4377be68ffedfafbb9d38", "name": "83a59a55c3e4377be68ffedfafbb9d38"}, {"lon": -77.02582633333333, "is_reserved": 0, "is_disabled": 0, "type": "electric_scooter", "lat": 38.92506366666667, "rental_uris": {"ios": "https://dc.lft.to/lastmile_qr_scan", "android": "https://dc.lft.to/lastmile_qr_scan"}, "fusion_lat": 0.0, "fusion_lon": 0.0, "bike_id": "9b3b7e5fc368e65bfa0107e664d645a9", "name": "9b3b7e5fc368e65bfa0107e664d645a9"}, {"lon": -77.021718, "is_reserved": 0, "is_disabled": 0, "type": "electric_scooter", "lat": 38.8998325, "rental_uris": {"ios": "https://dc.lft.to/lastmile_qr_scan", "android": "https://dc.lft.to/lastmile_qr_scan"}, "fusion_lat": 0.0, "fusion_lon": 0.0, "bike_id": "e755ebbd0855623e9a7016fc0aaf2293", "name": "e755ebbd0855623e9a7016fc0aaf2293"}, {"lon": -77.12265483333333, "is_reserved": 0, "is_disabled": 0, "type": "electric_bike", "lat": 38.89734466666667, "rental_uris": {"ios": "https://dc.lft.to/lastmile_qr_scan", "android": "https://dc.lft.to/lastmile_qr_scan"}, "fusion_lat": 0.0, "fusion_lon": 0.0, "bike_id": "b2c59ad99dafb2f16a86f0157202dbfb", "name": "b2c59ad99dafb2f16a86f0157202dbfb"}, {"lon": -77.0419285, "is_reserved": 0, "is_disabled": 0, "type": "electric_scooter", "lat": 38.92332116666667, "rental_uris": {"ios": "https://dc.lft.to/lastmile_qr_scan", "android": "https://dc.lft.to/lastmile_qr_scan"}, "fusion_lat": 0.0, "fusion_lon": 0.0, "bike_id": "076f7cf3b4af01bcc0e343be7935e508", "name": "076f7cf3b4af01bcc0e343be7935e508"}, {"lon": -77.02587816666667, "is_reserved": 0, "is_disabled": 0, "type": "electric_scooter", "lat": 38.895100666666664, "rental_uris": {"ios": "https://dc.lft.to/lastmile_qr_scan", "android": "https://dc.lft.to/lastmile_qr_scan"}, "fusion_lat": 0.0, "fusion_lon": 0.0, "bike_id": "5d8533f50dbfb2612f3a476491765c54", "name": "5d8533f50dbfb2612f3a476491765c54"}, {"lon": -76.92216966666666, "is_reserved": 0, "is_disabled": 0, "type": "electric_scooter", "lat": 38.89937966666667, "rental_uris": {"ios": "https://dc.lft.to/lastmile_qr_scan", "android": "https://dc.lft.to/lastmile_qr_scan"}, "fusion_lat": 0.0, "fusion_lon": 0.0, "bike_id": "ee97b3547ff78f63780161fe275d826a", "name": "ee97b3547ff78f63780161fe275d826a"}, {"lon": -76.916605, "is_reserved": 0, "is_disabled": 0, "type": "electric_bike", "lat": 38.86858433333333, "rental_uris": {"ios": "https://dc.lft.to/lastmile_qr_scan", "android": "https://dc.lft.to/lastmile_qr_scan"}, "fusion_lat": 0.0, "fusion_lon": 0.0, "bike_id": "e49f9e124b548b65215a520b123bbfbd", "name": "e49f9e124b548b65215a520b123bbfbd"}, {"lon": -77.2338965, "is_reserved": 0, "is_disabled": 0, "type": "electric_bike", "lat": 38.924932, "rental_uris": {"ios": "https://dc.lft.to/lastmile_qr_scan", "android": "https://dc.lft.to/lastmile_qr_scan"}, "fusion_lat": 0.0, "fusion_lon": 0.0, "bike_id": "3c977f7eefcbdf18b3020a48920a2f44", "name": "3c977f7eefcbdf18b3020a48920a2f44"}, {"lon": -77.0711855, "is_reserved": 0, "is_disabled": 0, "type": "electric_scooter", "lat": 38.91972366666667, "rental_uris": {"ios": "https://dc.lft.to/lastmile_qr_scan", "android": "https://dc.lft.to/lastmile_qr_scan"}, "fusion_lat": 0.0, "fusion_lon": 0.0, "bike_id": "a93eb1c689c2c2d5ad738caf49ff13f1", "name": "a93eb1c689c2c2d5ad738caf49ff13f1"}, {"lon": -77.04002033333333, "is_reserved": 0, "is_disabled": 0, "type": "electric_scooter", "lat": 38.9325035, "rental_uris": {"ios": "https://dc.lft.to/lastmile_qr_scan", "android": "https://dc.lft.to/lastmile_qr_scan"}, "fusion_lat": 0.0, "fusion_lon": 0.0, "bike_id": "dbcd26473cb332b17e64a246234a5fa4", "name": "dbcd26473cb332b17e64a246234a5fa4"}, {"lon": -77.02107866666667, "is_reserved": 0, "is_disabled": 0, "type": "electric_scooter", "lat": 38.940989333333334, "rental_uris": {"ios": "https://dc.lft.to/lastmile_qr_scan", "android": "https://dc.lft.to/lastmile_qr_scan"}, "fusion_lat": 0.0, "fusion_lon": 0.0, "bike_id": "c11982eff67b061422929df630bb7e4b", "name": "c11982eff67b061422929df630bb7e4b"}, {"lon": -77.0298055, "is_reserved": 0, "is_disabled": 0, "type": "electric_scooter", "lat": 38.94049416666667, "rental_uris": {"ios": "https://dc.lft.to/lastmile_qr_scan", "android": "https://dc.lft.to/lastmile_qr_scan"}, "fusion_lat": 0.0, "fusion_lon": 0.0, "bike_id": "328da7b2d80d2aca63b96bbc9ff4da06", "name": "328da7b2d80d2aca63b96bbc9ff4da06"}, {"lon": -76.9650435, "is_reserved": 0, "is_disabled": 0, "type": "electric_scooter", "lat": 38.87646866666667, "rental_uris": {"ios": "https://dc.lft.to/lastmile_qr_scan", "android": "https://dc.lft.to/lastmile_qr_scan"}, "fusion_lat": 0.0, "fusion_lon": 0.0, "bike_id": "2d1c9e3671b6563428fff3ad257e477b", "name": "2d1c9e3671b6563428fff3ad257e477b"}, {"lon": -76.9963025, "is_reserved": 0, "is_disabled": 0, "type": "electric_scooter", "lat": 38.84620616666667, "rental_uris": {"ios": "https://dc.lft.to/lastmile_qr_scan", "android": "https://dc.lft.to/lastmile_qr_scan"}, "fusion_lat": 0.0, "fusion_lon": 0.0, "bike_id": "ffdffb248b1c0951645d15fa682d3f3b", "name": "ffdffb248b1c0951645d15fa682d3f3b"}, {"lon": -77.007987, "is_reserved": 0, "is_disabled": 0, "type": "electric_scooter", "lat": 38.896823499999996, "rental_uris": {"ios": "https://dc.lft.to/lastmile_qr_scan", "android": "https://dc.lft.to/lastmile_qr_scan"}, "fusion_lat": 0.0, "fusion_lon": 0.0, "bike_id": "bdaa010948609caf0c93f128f2547f44", "name": "bdaa010948609caf0c93f128f2547f44"}, {"lon": -77.05011816666666, "is_reserved": 0, "is_disabled": 0, "type": "electric_scooter", "lat": 38.89548933333333, "rental_uris": {"ios": "https://dc.lft.to/lastmile_qr_scan", "android": "https://dc.lft.to/lastmile_qr_scan"}, "fusion_lat": 0.0, "fusion_lon": 0.0, "bike_id": "ee3b0b16c9f7b7349552ebe70c93fbbf", "name": "ee3b0b16c9f7b7349552ebe70c93fbbf"}, {"lon": -77.03213866666667, "is_reserved": 0, "is_disabled": 0, "type": "electric_scooter", "lat": 38.928785166666664, "rental_uris": {"ios": "https://dc.lft.to/lastmile_qr_scan", "android": "https://dc.lft.to/lastmile_qr_scan"}, "fusion_lat": 0.0, "fusion_lon": 0.0, "bike_id": "ae820419ae25502b5ee73dc9d64909d3", "name": "ae820419ae25502b5ee73dc9d64909d3"}, {"lon": -77.02575233333333, "is_reserved": 0, "is_disabled": 0, "type": "electric_scooter", "lat": 38.899890666666664, "rental_uris": {"ios": "https://dc.lft.to/lastmile_qr_scan", "android": "https://dc.lft.to/lastmile_qr_scan"}, "fusion_lat": 0.0, "fusion_lon": 0.0, "bike_id": "863195b242f387aa607f918033b82e37", "name": "863195b242f387aa607f918033b82e37"}, {"lon": -77.03068516666667, "is_reserved": 0, "is_disabled": 0, "type": "electric_scooter", "lat": 38.907530666666666, "rental_uris": {"ios": "https://dc.lft.to/lastmile_qr_scan", "android": "https://dc.lft.to/lastmile_qr_scan"}, "fusion_lat": 0.0, "fusion_lon": 0.0, "bike_id": "c205dfe799fdf38ecafb35c03959d102", "name": "c205dfe799fdf38ecafb35c03959d102"}, {"lon": -77.02371766666667, "is_reserved": 0, "is_disabled": 0, "type": "electric_scooter", "lat": 38.90203783333333, "rental_uris": {"ios": "https://dc.lft.to/lastmile_qr_scan", "android": "https://dc.lft.to/lastmile_qr_scan"}, "fusion_lat": 0.0, "fusion_lon": 0.0, "bike_id": "e9f3375effc0d0a17ecd7d8e41367ae2", "name": "e9f3375effc0d0a17ecd7d8e41367ae2"}, {"lon": -76.936724, "is_reserved": 0, "is_disabled": 0, "type": "electric_scooter", "lat": 38.88753966666667, "rental_uris": {"ios": "https://dc.lft.to/lastmile_qr_scan", "android": "https://dc.lft.to/lastmile_qr_scan"}, "fusion_lat": 0.0, "fusion_lon": 0.0, "bike_id": "4e08e8da07b6cb7c900ea9f6c61e9356", "name": "4e08e8da07b6cb7c900ea9f6c61e9356"}, {"lon": -77.0234565, "is_reserved": 0, "is_disabled": 0, "type": "electric_scooter", "lat": 38.9178185, "rental_uris": {"ios": "https://dc.lft.to/lastmile_qr_scan", "android": "https://dc.lft.to/lastmile_qr_scan"}, "fusion_lat": 0.0, "fusion_lon": 0.0, "bike_id": "854637c1fce3db243986881e1fd2df96", "name": "854637c1fce3db243986881e1fd2df96"}, {"lon": -77.03143383333334, "is_reserved": 0, "is_disabled": 0, "type": "electric_scooter", "lat": 38.93184316666667, "rental_uris": {"ios": "https://dc.lft.to/lastmile_qr_scan", "android": "https://dc.lft.to/lastmile_qr_scan"}, "fusion_lat": 0.0, "fusion_lon": 0.0, "bike_id": "46ba258cf461422e226dcc0b50742caf", "name": "46ba258cf461422e226dcc0b50742caf"}, {"lon": -76.99631783333334, "is_reserved": 0, "is_disabled": 0, "type": "electric_scooter", "lat": 38.846180833333335, "rental_uris": {"ios": "https://dc.lft.to/lastmile_qr_scan", "android": "https://dc.lft.to/lastmile_qr_scan"}, "fusion_lat": 0.0, "fusion_lon": 0.0, "bike_id": "84bd7d5b42b83d81dbbd19070373f0a3", "name": "84bd7d5b42b83d81dbbd19070373f0a3"}, {"lon": -76.93755916666667, "is_reserved": 0, "is_disabled": 0, "type": "electric_scooter", "lat": 38.890237166666665, "rental_uris": {"ios": "https://dc.lft.to/lastmile_qr_scan", "android": "https://dc.lft.to/lastmile_qr_scan"}, "fusion_lat": 0.0, "fusion_lon": 0.0, "bike_id": "cdc987cfa59bc7f8309990ff85621755", "name": "cdc987cfa59bc7f8309990ff85621755"}, {"lon": -77.01763816666667, "is_reserved": 0, "is_disabled": 0, "type": "electric_scooter", "lat": 38.921105, "rental_uris": {"ios": "https://dc.lft.to/lastmile_qr_scan", "android": "https://dc.lft.to/lastmile_qr_scan"}, "fusion_lat": 0.0, "fusion_lon": 0.0, "bike_id": "12b99a5ca1e082317a565c3998054a02", "name": "12b99a5ca1e082317a565c3998054a02"}, {"lon": -77.0175515, "is_reserved": 0, "is_disabled": 0, "type": "electric_scooter", "lat": 38.91354, "rental_uris": {"ios": "https://dc.lft.to/lastmile_qr_scan", "android": "https://dc.lft.to/lastmile_qr_scan"}, "fusion_lat": 0.0, "fusion_lon": 0.0, "bike_id": "bbe71a7be67a350382e4748e89c2b467", "name": "bbe71a7be67a350382e4748e89c2b467"}, {"lon": -77.02324516666667, "is_reserved": 0, "is_disabled": 0, "type": "electric_scooter", "lat": 38.878733833333335, "rental_uris": {"ios": "https://dc.lft.to/lastmile_qr_scan", "android": "https://dc.lft.to/lastmile_qr_scan"}, "fusion_lat": 0.0, "fusion_lon": 0.0, "bike_id": "f254df7ec51f558892212e41a160b1b4", "name": "f254df7ec51f558892212e41a160b1b4"}, {"lon": -77.0465085, "is_reserved": 0, "is_disabled": 0, "type": "electric_scooter", "lat": 38.892375333333334, "rental_uris": {"ios": "https://dc.lft.to/lastmile_qr_scan", "android": "https://dc.lft.to/lastmile_qr_scan"}, "fusion_lat": 0.0, "fusion_lon": 0.0, "bike_id": "f9ab23f808e6c605e18e21f319dec76d", "name": "f9ab23f808e6c605e18e21f319dec76d"}, {"lon": -77.012172, "is_reserved": 0, "is_disabled": 0, "type": "electric_scooter", "lat": 38.89532533333333, "rental_uris": {"ios": "https://dc.lft.to/lastmile_qr_scan", "android": "https://dc.lft.to/lastmile_qr_scan"}, "fusion_lat": 0.0, "fusion_lon": 0.0, "bike_id": "fa04cb39858a17cc157ccf971517b883", "name": "fa04cb39858a17cc157ccf971517b883"}, {"lon": -76.93614, "is_reserved": 0, "is_disabled": 0, "type": "electric_bike", "lat": 38.97057233333334, "rental_uris": {"ios": "https://dc.lft.to/lastmile_qr_scan", "android": "https://dc.lft.to/lastmile_qr_scan"}, "fusion_lat": 0.0, "fusion_lon": 0.0, "bike_id": "265026a72e0393622156c037dc966a8d", "name": "265026a72e0393622156c037dc966a8d"}, {"lon": -77.03156983333334, "is_reserved": 0, "is_disabled": 0, "type": "electric_scooter", "lat": 38.928118166666664, "rental_uris": {"ios": "https://dc.lft.to/lastmile_qr_scan", "android": "https://dc.lft.to/lastmile_qr_scan"}, "fusion_lat": 0.0, "fusion_lon": 0.0, "bike_id": "b94be47115956f7c14e478c1f4154174", "name": "b94be47115956f7c14e478c1f4154174"}, {"lon": -77.0463785, "is_reserved": 0, "is_disabled": 0, "type": "electric_bike", "lat": 38.909834833333335, "rental_uris": {"ios": "https://dc.lft.to/lastmile_qr_scan", "android": "https://dc.lft.to/lastmile_qr_scan"}, "fusion_lat": 0.0, "fusion_lon": 0.0, "bike_id": "247593e28ad22edd60f1c879643db7d9", "name": "247593e28ad22edd60f1c879643db7d9"}, {"lon": -77.0386075, "is_reserved": 0, "is_disabled": 0, "type": "electric_scooter", "lat": 38.9094185, "rental_uris": {"ios": "https://dc.lft.to/lastmile_qr_scan", "android": "https://dc.lft.to/lastmile_qr_scan"}, "fusion_lat": 0.0, "fusion_lon": 0.0, "bike_id": "c782c3d09ab93c42ec0b7209b9c20823", "name": "c782c3d09ab93c42ec0b7209b9c20823"}, {"lon": -76.98037083333334, "is_reserved": 0, "is_disabled": 0, "type": "electric_scooter", "lat": 38.907863166666665, "rental_uris": {"ios": "https://dc.lft.to/lastmile_qr_scan", "android": "https://dc.lft.to/lastmile_qr_scan"}, "fusion_lat": 0.0, "fusion_lon": 0.0, "bike_id": "7ba2c7912dc54440d45f3e6c369e9bdd", "name": "7ba2c7912dc54440d45f3e6c369e9bdd"}, {"lon": -76.98750566666666, "is_reserved": 0, "is_disabled": 0, "type": "electric_bike", "lat": 38.9882135, "rental_uris": {"ios": "https://dc.lft.to/lastmile_qr_scan", "android": "https://dc.lft.to/lastmile_qr_scan"}, "fusion_lat": 0.0, "fusion_lon": 0.0, "bike_id": "cf8e5ed5e11f47e2888c9ecfb60742d8", "name": "cf8e5ed5e11f47e2888c9ecfb60742d8"}, {"lon": -77.00515766666666, "is_reserved": 0, "is_disabled": 0, "type": "electric_scooter", "lat": 38.874699666666665, "rental_uris": {"ios": "https://dc.lft.to/lastmile_qr_scan", "android": "https://dc.lft.to/lastmile_qr_scan"}, "fusion_lat": 0.0, "fusion_lon": 0.0, "bike_id": "333c256552419d514f0a495a93f7991c", "name": "333c256552419d514f0a495a93f7991c"}, {"lon": -76.98932216666667, "is_reserved": 0, "is_disabled": 0, "type": "electric_scooter", "lat": 38.865873666666666, "rental_uris": {"ios": "https://dc.lft.to/lastmile_qr_scan", "android": "https://dc.lft.to/lastmile_qr_scan"}, "fusion_lat": 0.0, "fusion_lon": 0.0, "bike_id": "9af2ee865ce17799d82756e8e13926b2", "name": "9af2ee865ce17799d82756e8e13926b2"}, {"lon": -76.99491233333333, "is_reserved": 0, "is_disabled": 0, "type": "electric_scooter", "lat": 38.92574583333333, "rental_uris": {"ios": "https://dc.lft.to/lastmile_qr_scan", "android": "https://dc.lft.to/lastmile_qr_scan"}, "fusion_lat": 0.0, "fusion_lon": 0.0, "bike_id": "c402771c5127662e8336267158ce53c1", "name": "c402771c5127662e8336267158ce53c1"}, {"lon": -77.0436325, "is_reserved": 0, "is_disabled": 0, "type": "electric_scooter", "lat": 38.92109983333334, "rental_uris": {"ios": "https://dc.lft.to/lastmile_qr_scan", "android": "https://dc.lft.to/lastmile_qr_scan"}, "fusion_lat": 0.0, "fusion_lon": 0.0, "bike_id": "d9172285ca6db35bb0ba9f23a2e7e109", "name": "d9172285ca6db35bb0ba9f23a2e7e109"}, {"lon": -77.03907383333333, "is_reserved": 0, "is_disabled": 0, "type": "electric_scooter", "lat": 38.9126905, "rental_uris": {"ios": "https://dc.lft.to/lastmile_qr_scan", "android": "https://dc.lft.to/lastmile_qr_scan"}, "fusion_lat": 0.0, "fusion_lon": 0.0, "bike_id": "c3ee046588be869f10e627b91c042c7c", "name": "c3ee046588be869f10e627b91c042c7c"}, {"lon": -77.03244883333333, "is_reserved": 0, "is_disabled": 0, "type": "electric_scooter", "lat": 38.93047383333333, "rental_uris": {"ios": "https://dc.lft.to/lastmile_qr_scan", "android": "https://dc.lft.to/lastmile_qr_scan"}, "fusion_lat": 0.0, "fusion_lon": 0.0, "bike_id": "18ba0815b835308132508335d12f75b8", "name": "18ba0815b835308132508335d12f75b8"}, {"lon": -76.97553016666667, "is_reserved": 0, "is_disabled": 0, "type": "electric_scooter", "lat": 38.90257533333333, "rental_uris": {"ios": "https://dc.lft.to/lastmile_qr_scan", "android": "https://dc.lft.to/lastmile_qr_scan"}, "fusion_lat": 0.0, "fusion_lon": 0.0, "bike_id": "cfc7e1f4c0adbb86530842cee79834f0", "name": "cfc7e1f4c0adbb86530842cee79834f0"}, {"lon": -77.0398735, "is_reserved": 0, "is_disabled": 0, "type": "electric_bike", "lat": 38.80291783333333, "rental_uris": {"ios": "https://dc.lft.to/lastmile_qr_scan", "android": "https://dc.lft.to/lastmile_qr_scan"}, "fusion_lat": 0.0, "fusion_lon": 0.0, "bike_id": "35a7b8b5bbb382e84b8ee5722e9f51a1", "name": "35a7b8b5bbb382e84b8ee5722e9f51a1"}, {"lon": -77.03937683333334, "is_reserved": 0, "is_disabled": 0, "type": "electric_scooter", "lat": 38.90267983333333, "rental_uris": {"ios": "https://dc.lft.to/lastmile_qr_scan", "android": "https://dc.lft.to/lastmile_qr_scan"}, "fusion_lat": 0.0, "fusion_lon": 0.0, "bike_id": "fffb5b76a1bd0a368e7c2677e64e2da0", "name": "fffb5b76a1bd0a368e7c2677e64e2da0"}, {"lon": -77.0021595, "is_reserved": 0, "is_disabled": 0, "type": "electric_scooter", "lat": 38.90530166666667, "rental_uris": {"ios": "https://dc.lft.to/lastmile_qr_scan", "android": "https://dc.lft.to/lastmile_qr_scan"}, "fusion_lat": 0.0, "fusion_lon": 0.0, "bike_id": "a98b1feaa24e0118797830b9e1f12138", "name": "a98b1feaa24e0118797830b9e1f12138"}, {"lon": -77.01748433333333, "is_reserved": 0, "is_disabled": 0, "type": "electric_scooter", "lat": 38.876652, "rental_uris": {"ios": "https://dc.lft.to/lastmile_qr_scan", "android": "https://dc.lft.to/lastmile_qr_scan"}, "fusion_lat": 0.0, "fusion_lon": 0.0, "bike_id": "67182d96451c6966c37f668e48895d0c", "name": "67182d96451c6966c37f668e48895d0c"}, {"lon": -76.98887333333333, "is_reserved": 0, "is_disabled": 0, "type": "electric_scooter", "lat": 38.90206216666667, "rental_uris": {"ios": "https://dc.lft.to/lastmile_qr_scan", "android": "https://dc.lft.to/lastmile_qr_scan"}, "fusion_lat": 0.0, "fusion_lon": 0.0, "bike_id": "2a5569c4021cf1fad6b4ea27cb4032df", "name": "2a5569c4021cf1fad6b4ea27cb4032df"}, {"lon": -77.05273283333334, "is_reserved": 0, "is_disabled": 0, "type": "electric_scooter", "lat": 38.92569116666667, "rental_uris": {"ios": "https://dc.lft.to/lastmile_qr_scan", "android": "https://dc.lft.to/lastmile_qr_scan"}, "fusion_lat": 0.0, "fusion_lon": 0.0, "bike_id": "a92cd3c8488ca5d119f13b1c607d846b", "name": "a92cd3c8488ca5d119f13b1c607d846b"}, {"lon": -77.015628, "is_reserved": 0, "is_disabled": 0, "type": "electric_scooter", "lat": 38.8725695, "rental_uris": {"ios": "https://dc.lft.to/lastmile_qr_scan", "android": "https://dc.lft.to/lastmile_qr_scan"}, "fusion_lat": 0.0, "fusion_lon": 0.0, "bike_id": "2fd51ab99b1d04ce24ce08b2a058276f", "name": "2fd51ab99b1d04ce24ce08b2a058276f"}, {"lon": -77.03450016666666, "is_reserved": 0, "is_disabled": 0, "type": "electric_scooter", "lat": 38.910061, "rental_uris": {"ios": "https://dc.lft.to/lastmile_qr_scan", "android": "https://dc.lft.to/lastmile_qr_scan"}, "fusion_lat": 0.0, "fusion_lon": 0.0, "bike_id": "d44d638e57f71b80828929f1d2b5907d", "name": "d44d638e57f71b80828929f1d2b5907d"}, {"lon": -77.04334133333333, "is_reserved": 0, "is_disabled": 0, "type": "electric_scooter", "lat": 38.9145275, "rental_uris": {"ios": "https://dc.lft.to/lastmile_qr_scan", "android": "https://dc.lft.to/lastmile_qr_scan"}, "fusion_lat": 0.0, "fusion_lon": 0.0, "bike_id": "0d3fddbb3c12249378eb8bba2f35e87d", "name": "0d3fddbb3c12249378eb8bba2f35e87d"}, {"lon": -77.04822316666667, "is_reserved": 0, "is_disabled": 0, "type": "electric_scooter", "lat": 38.9148505, "rental_uris": {"ios": "https://dc.lft.to/lastmile_qr_scan", "android": "https://dc.lft.to/lastmile_qr_scan"}, "fusion_lat": 0.0, "fusion_lon": 0.0, "bike_id": "1c94a28ea48bcd560acbf8c36a858fa1", "name": "1c94a28ea48bcd560acbf8c36a858fa1"}, {"lon": -77.0034925, "is_reserved": 0, "is_disabled": 0, "type": "electric_scooter", "lat": 38.896869, "rental_uris": {"ios": "https://dc.lft.to/lastmile_qr_scan", "android": "https://dc.lft.to/lastmile_qr_scan"}, "fusion_lat": 0.0, "fusion_lon": 0.0, "bike_id": "090b232471b2701230dd78e23344868d", "name": "090b232471b2701230dd78e23344868d"}, {"lon": -77.0344705, "is_reserved": 0, "is_disabled": 0, "type": "electric_scooter", "lat": 38.91792516666667, "rental_uris": {"ios": "https://dc.lft.to/lastmile_qr_scan", "android": "https://dc.lft.to/lastmile_qr_scan"}, "fusion_lat": 0.0, "fusion_lon": 0.0, "bike_id": "a892216df2c88e5c09ee442f92cf2109", "name": "a892216df2c88e5c09ee442f92cf2109"}, {"lon": -77.044761, "is_reserved": 0, "is_disabled": 0, "type": "electric_scooter", "lat": 38.907127, "rental_uris": {"ios": "https://dc.lft.to/lastmile_qr_scan", "android": "https://dc.lft.to/lastmile_qr_scan"}, "fusion_lat": 0.0, "fusion_lon": 0.0, "bike_id": "1f9924efb36bf306d2397becdad56c40", "name": "1f9924efb36bf306d2397becdad56c40"}, {"lon": -77.00890733333334, "is_reserved": 0, "is_disabled": 0, "type": "electric_scooter", "lat": 38.905757333333334, "rental_uris": {"ios": "https://dc.lft.to/lastmile_qr_scan", "android": "https://dc.lft.to/lastmile_qr_scan"}, "fusion_lat": 0.0, "fusion_lon": 0.0, "bike_id": "b01da4af35013b67093e2bfa764b1553", "name": "b01da4af35013b67093e2bfa764b1553"}, {"lon": -77.02961566666667, "is_reserved": 0, "is_disabled": 0, "type": "electric_scooter", "lat": 38.92145683333333, "rental_uris": {"ios": "https://dc.lft.to/lastmile_qr_scan", "android": "https://dc.lft.to/lastmile_qr_scan"}, "fusion_lat": 0.0, "fusion_lon": 0.0, "bike_id": "6dca4ba39c73d2f0cc63c21ada9dcd88", "name": "6dca4ba39c73d2f0cc63c21ada9dcd88"}, {"lon": -77.02652116666667, "is_reserved": 0, "is_disabled": 0, "type": "electric_scooter", "lat": 38.902392166666665, "rental_uris": {"ios": "https://dc.lft.to/lastmile_qr_scan", "android": "https://dc.lft.to/lastmile_qr_scan"}, "fusion_lat": 0.0, "fusion_lon": 0.0, "bike_id": "36213fcfe7735965daed81f28415c956", "name": "36213fcfe7735965daed81f28415c956"}, {"lon": -76.99064416666667, "is_reserved": 0, "is_disabled": 0, "type": "electric_bike", "lat": 38.89818233333333, "rental_uris": {"ios": "https://dc.lft.to/lastmile_qr_scan", "android": "https://dc.lft.to/lastmile_qr_scan"}, "fusion_lat": 0.0, "fusion_lon": 0.0, "bike_id": "bb34d6ee974e7bd838da797aa52d0f71", "name": "bb34d6ee974e7bd838da797aa52d0f71"}, {"lon": -77.02800283333333, "is_reserved": 0, "is_disabled": 0, "type": "electric_scooter", "lat": 38.961401, "rental_uris": {"ios": "https://dc.lft.to/lastmile_qr_scan", "android": "https://dc.lft.to/lastmile_qr_scan"}, "fusion_lat": 0.0, "fusion_lon": 0.0, "bike_id": "b33826f458142e7327d589ad3e228685", "name": "b33826f458142e7327d589ad3e228685"}, {"lon": -77.02488233333334, "is_reserved": 0, "is_disabled": 0, "type": "electric_scooter", "lat": 38.94192733333333, "rental_uris": {"ios": "https://dc.lft.to/lastmile_qr_scan", "android": "https://dc.lft.to/lastmile_qr_scan"}, "fusion_lat": 0.0, "fusion_lon": 0.0, "bike_id": "87663b3200cbfe023fdefbf82b3a6485", "name": "87663b3200cbfe023fdefbf82b3a6485"}, {"lon": -77.034834, "is_reserved": 0, "is_disabled": 0, "type": "electric_scooter", "lat": 38.911173166666664, "rental_uris": {"ios": "https://dc.lft.to/lastmile_qr_scan", "android": "https://dc.lft.to/lastmile_qr_scan"}, "fusion_lat": 0.0, "fusion_lon": 0.0, "bike_id": "f662c0d31598c2aaafc8878f94cb726c", "name": "f662c0d31598c2aaafc8878f94cb726c"}, {"lon": -76.9948845, "is_reserved": 0, "is_disabled": 0, "type": "electric_scooter", "lat": 38.8624015, "rental_uris": {"ios": "https://dc.lft.to/lastmile_qr_scan", "android": "https://dc.lft.to/lastmile_qr_scan"}, "fusion_lat": 0.0, "fusion_lon": 0.0, "bike_id": "5c4c2e165f05dfddff8e1d93ecd9be27", "name": "5c4c2e165f05dfddff8e1d93ecd9be27"}, {"lon": -77.0450575, "is_reserved": 0, "is_disabled": 0, "type": "electric_scooter", "lat": 38.912757666666664, "rental_uris": {"ios": "https://dc.lft.to/lastmile_qr_scan", "android": "https://dc.lft.to/lastmile_qr_scan"}, "fusion_lat": 0.0, "fusion_lon": 0.0, "bike_id": "e0b4ae1edc9136807a8dff0c6c0d8c8b", "name": "e0b4ae1edc9136807a8dff0c6c0d8c8b"}, {"lon": -77.02755366666666, "is_reserved": 0, "is_disabled": 0, "type": "electric_scooter", "lat": 38.954122166666664, "rental_uris": {"ios": "https://dc.lft.to/lastmile_qr_scan", "android": "https://dc.lft.to/lastmile_qr_scan"}, "fusion_lat": 0.0, "fusion_lon": 0.0, "bike_id": "b0949261294c80919011e14f4cddcd3f", "name": "b0949261294c80919011e14f4cddcd3f"}, {"lon": -77.03294183333334, "is_reserved": 0, "is_disabled": 0, "type": "electric_scooter", "lat": 38.89890166666667, "rental_uris": {"ios": "https://dc.lft.to/lastmile_qr_scan", "android": "https://dc.lft.to/lastmile_qr_scan"}, "fusion_lat": 0.0, "fusion_lon": 0.0, "bike_id": "9535131dce8114cd585f4759e7de2f75", "name": "9535131dce8114cd585f4759e7de2f75"}, {"lon": -77.063912, "is_reserved": 0, "is_disabled": 0, "type": "electric_scooter", "lat": 38.9290645, "rental_uris": {"ios": "https://dc.lft.to/lastmile_qr_scan", "android": "https://dc.lft.to/lastmile_qr_scan"}, "fusion_lat": 0.0, "fusion_lon": 0.0, "bike_id": "e5f815b04a34b776f5d2674fe36dcc8c", "name": "e5f815b04a34b776f5d2674fe36dcc8c"}, {"lon": -77.06046866666667, "is_reserved": 0, "is_disabled": 0, "type": "electric_scooter", "lat": 38.93913233333333, "rental_uris": {"ios": "https://dc.lft.to/lastmile_qr_scan", "android": "https://dc.lft.to/lastmile_qr_scan"}, "fusion_lat": 0.0, "fusion_lon": 0.0, "bike_id": "358a0f7280483fe8ca4cc883616ec07f", "name": "358a0f7280483fe8ca4cc883616ec07f"}, {"lon": -77.02716766666667, "is_reserved": 0, "is_disabled": 0, "type": "electric_scooter", "lat": 38.91761266666666, "rental_uris": {"ios": "https://dc.lft.to/lastmile_qr_scan", "android": "https://dc.lft.to/lastmile_qr_scan"}, "fusion_lat": 0.0, "fusion_lon": 0.0, "bike_id": "f1461b534e4e6ece625ef7b478006458", "name": "f1461b534e4e6ece625ef7b478006458"}, {"lon": -76.94120866666667, "is_reserved": 0, "is_disabled": 0, "type": "electric_scooter", "lat": 38.907951, "rental_uris": {"ios": "https://dc.lft.to/lastmile_qr_scan", "android": "https://dc.lft.to/lastmile_qr_scan"}, "fusion_lat": 0.0, "fusion_lon": 0.0, "bike_id": "4ae7befa0f58553089af26a352773f5f", "name": "4ae7befa0f58553089af26a352773f5f"}, {"lon": -77.02310966666667, "is_reserved": 0, "is_disabled": 0, "type": "electric_scooter", "lat": 38.91604133333333, "rental_uris": {"ios": "https://dc.lft.to/lastmile_qr_scan", "android": "https://dc.lft.to/lastmile_qr_scan"}, "fusion_lat": 0.0, "fusion_lon": 0.0, "bike_id": "70b5c83627c655d7d07fbc719f405f42", "name": "70b5c83627c655d7d07fbc719f405f42"}, {"lon": -77.03652916666667, "is_reserved": 0, "is_disabled": 0, "type": "electric_scooter", "lat": 38.91282916666667, "rental_uris": {"ios": "https://dc.lft.to/lastmile_qr_scan", "android": "https://dc.lft.to/lastmile_qr_scan"}, "fusion_lat": 0.0, "fusion_lon": 0.0, "bike_id": "81e1c862b0c858a50a088ce423425fd0", "name": "81e1c862b0c858a50a088ce423425fd0"}, {"lon": -77.042378, "is_reserved": 0, "is_disabled": 0, "type": "electric_scooter", "lat": 38.94555916666667, "rental_uris": {"ios": "https://dc.lft.to/lastmile_qr_scan", "android": "https://dc.lft.to/lastmile_qr_scan"}, "fusion_lat": 0.0, "fusion_lon": 0.0, "bike_id": "7ab51304ad904a5568f7590f7187e1b6", "name": "7ab51304ad904a5568f7590f7187e1b6"}, {"lon": -77.00705433333333, "is_reserved": 0, "is_disabled": 0, "type": "electric_scooter", "lat": 38.89675116666667, "rental_uris": {"ios": "https://dc.lft.to/lastmile_qr_scan", "android": "https://dc.lft.to/lastmile_qr_scan"}, "fusion_lat": 0.0, "fusion_lon": 0.0, "bike_id": "3a5d9f31d1db88b5d23b10fcf417f144", "name": "3a5d9f31d1db88b5d23b10fcf417f144"}, {"lon": -77.03076733333333, "is_reserved": 0, "is_disabled": 0, "type": "electric_scooter", "lat": 38.90556766666667, "rental_uris": {"ios": "https://dc.lft.to/lastmile_qr_scan", "android": "https://dc.lft.to/lastmile_qr_scan"}, "fusion_lat": 0.0, "fusion_lon": 0.0, "bike_id": "a90939fc8e04de02b183f8f442068e75", "name": "a90939fc8e04de02b183f8f442068e75"}, {"lon": -77.04696283333334, "is_reserved": 0, "is_disabled": 0, "type": "electric_scooter", "lat": 38.9167645, "rental_uris": {"ios": "https://dc.lft.to/lastmile_qr_scan", "android": "https://dc.lft.to/lastmile_qr_scan"}, "fusion_lat": 0.0, "fusion_lon": 0.0, "bike_id": "69b484f487495e60f2203902ab44658e", "name": "69b484f487495e60f2203902ab44658e"}, {"lon": -77.02230416666667, "is_reserved": 0, "is_disabled": 0, "type": "electric_scooter", "lat": 38.887663833333335, "rental_uris": {"ios": "https://dc.lft.to/lastmile_qr_scan", "android": "https://dc.lft.to/lastmile_qr_scan"}, "fusion_lat": 0.0, "fusion_lon": 0.0, "bike_id": "7e61fdaf3295b2e63e24a714347e1c50", "name": "7e61fdaf3295b2e63e24a714347e1c50"}, {"lon": -77.038822, "is_reserved": 0, "is_disabled": 0, "type": "electric_scooter", "lat": 38.906196666666666, "rental_uris": {"ios": "https://dc.lft.to/lastmile_qr_scan", "android": "https://dc.lft.to/lastmile_qr_scan"}, "fusion_lat": 0.0, "fusion_lon": 0.0, "bike_id": "d8fad64e87039415e74ad9c56bb1ced6", "name": "d8fad64e87039415e74ad9c56bb1ced6"}, {"lon": -77.04672683333334, "is_reserved": 0, "is_disabled": 0, "type": "electric_scooter", "lat": 38.895535333333335, "rental_uris": {"ios": "https://dc.lft.to/lastmile_qr_scan", "android": "https://dc.lft.to/lastmile_qr_scan"}, "fusion_lat": 0.0, "fusion_lon": 0.0, "bike_id": "465f1a58a580b3033ff0a62e2a0a0cfe", "name": "465f1a58a580b3033ff0a62e2a0a0cfe"}, {"lon": -77.12902883333334, "is_reserved": 0, "is_disabled": 0, "type": "electric_bike", "lat": 38.863757, "rental_uris": {"ios": "https://dc.lft.to/lastmile_qr_scan", "android": "https://dc.lft.to/lastmile_qr_scan"}, "fusion_lat": 0.0, "fusion_lon": 0.0, "bike_id": "2bd9fc1b920671f057036f7ebe1ab2f8", "name": "2bd9fc1b920671f057036f7ebe1ab2f8"}, {"lon": -77.04236783333333, "is_reserved": 0, "is_disabled": 0, "type": "electric_scooter", "lat": 38.90973783333333, "rental_uris": {"ios": "https://dc.lft.to/lastmile_qr_scan", "android": "https://dc.lft.to/lastmile_qr_scan"}, "fusion_lat": 0.0, "fusion_lon": 0.0, "bike_id": "b5e9a2bb23e1b5d135b26ee14f1cd21b", "name": "b5e9a2bb23e1b5d135b26ee14f1cd21b"}, {"lon": -77.06254166666666, "is_reserved": 0, "is_disabled": 0, "type": "electric_scooter", "lat": 38.90530283333333, "rental_uris": {"ios": "https://dc.lft.to/lastmile_qr_scan", "android": "https://dc.lft.to/lastmile_qr_scan"}, "fusion_lat": 0.0, "fusion_lon": 0.0, "bike_id": "875bd83c63e0d59bdff073106e0323c7", "name": "875bd83c63e0d59bdff073106e0323c7"}, {"lon": -77.06053733333333, "is_reserved": 0, "is_disabled": 0, "type": "electric_scooter", "lat": 38.939119, "rental_uris": {"ios": "https://dc.lft.to/lastmile_qr_scan", "android": "https://dc.lft.to/lastmile_qr_scan"}, "fusion_lat": 0.0, "fusion_lon": 0.0, "bike_id": "9b5070de2ca9ad0b333de6d62f9dd973", "name": "9b5070de2ca9ad0b333de6d62f9dd973"}, {"lon": -77.00582066666666, "is_reserved": 0, "is_disabled": 0, "type": "electric_scooter", "lat": 38.885271333333336, "rental_uris": {"ios": "https://dc.lft.to/lastmile_qr_scan", "android": "https://dc.lft.to/lastmile_qr_scan"}, "fusion_lat": 0.0, "fusion_lon": 0.0, "bike_id": "bfc526ff672d5520c0cc3c90a956f5a0", "name": "bfc526ff672d5520c0cc3c90a956f5a0"}, {"lon": -77.03268266666667, "is_reserved": 0, "is_disabled": 0, "type": "electric_scooter", "lat": 38.92987, "rental_uris": {"ios": "https://dc.lft.to/lastmile_qr_scan", "android": "https://dc.lft.to/lastmile_qr_scan"}, "fusion_lat": 0.0, "fusion_lon": 0.0, "bike_id": "37127103d34d3b4e629905f8a05669d1", "name": "37127103d34d3b4e629905f8a05669d1"}, {"lon": -77.03214233333334, "is_reserved": 0, "is_disabled": 0, "type": "electric_scooter", "lat": 38.938626166666666, "rental_uris": {"ios": "https://dc.lft.to/lastmile_qr_scan", "android": "https://dc.lft.to/lastmile_qr_scan"}, "fusion_lat": 0.0, "fusion_lon": 0.0, "bike_id": "571c97f8b2ff9ce9ae53216479271ee3", "name": "571c97f8b2ff9ce9ae53216479271ee3"}, {"lon": -77.03860133333333, "is_reserved": 0, "is_disabled": 0, "type": "electric_scooter", "lat": 38.90806716666667, "rental_uris": {"ios": "https://dc.lft.to/lastmile_qr_scan", "android": "https://dc.lft.to/lastmile_qr_scan"}, "fusion_lat": 0.0, "fusion_lon": 0.0, "bike_id": "16dacf6d7df5b74035e02bf7e7ef0e1c", "name": "16dacf6d7df5b74035e02bf7e7ef0e1c"}, {"lon": -76.99390083333333, "is_reserved": 0, "is_disabled": 0, "type": "electric_scooter", "lat": 38.88449983333334, "rental_uris": {"ios": "https://dc.lft.to/lastmile_qr_scan", "android": "https://dc.lft.to/lastmile_qr_scan"}, "fusion_lat": 0.0, "fusion_lon": 0.0, "bike_id": "a8d13d1ccf287d570876262c5695723a", "name": "a8d13d1ccf287d570876262c5695723a"}, {"lon": -77.02112383333333, "is_reserved": 0, "is_disabled": 0, "type": "electric_bike", "lat": 39.022957, "rental_uris": {"ios": "https://dc.lft.to/lastmile_qr_scan", "android": "https://dc.lft.to/lastmile_qr_scan"}, "fusion_lat": 0.0, "fusion_lon": 0.0, "bike_id": "d17dfbf7f0b5353a0eeb3f6b11c3cc87", "name": "d17dfbf7f0b5353a0eeb3f6b11c3cc87"}, {"lon": -77.00919066666667, "is_reserved": 0, "is_disabled": 0, "type": "electric_scooter", "lat": 38.95950783333333, "rental_uris": {"ios": "https://dc.lft.to/lastmile_qr_scan", "android": "https://dc.lft.to/lastmile_qr_scan"}, "fusion_lat": 0.0, "fusion_lon": 0.0, "bike_id": "32f49bbf736d254643be29212636dc75", "name": "32f49bbf736d254643be29212636dc75"}, {"lon": -77.074442, "is_reserved": 0, "is_disabled": 0, "type": "electric_scooter", "lat": 38.91093816666667, "rental_uris": {"ios": "https://dc.lft.to/lastmile_qr_scan", "android": "https://dc.lft.to/lastmile_qr_scan"}, "fusion_lat": 0.0, "fusion_lon": 0.0, "bike_id": "5b1cd280c5f51228720ace1f388b8a3e", "name": "5b1cd280c5f51228720ace1f388b8a3e"}, {"lon": -77.03820683333333, "is_reserved": 0, "is_disabled": 0, "type": "electric_scooter", "lat": 38.90666683333333, "rental_uris": {"ios": "https://dc.lft.to/lastmile_qr_scan", "android": "https://dc.lft.to/lastmile_qr_scan"}, "fusion_lat": 0.0, "fusion_lon": 0.0, "bike_id": "d7c6e7ba8c68c1c219300438b018ec82", "name": "d7c6e7ba8c68c1c219300438b018ec82"}, {"lon": -76.98851383333333, "is_reserved": 0, "is_disabled": 0, "type": "electric_bike", "lat": 38.842768166666666, "rental_uris": {"ios": "https://dc.lft.to/lastmile_qr_scan", "android": "https://dc.lft.to/lastmile_qr_scan"}, "fusion_lat": 0.0, "fusion_lon": 0.0, "bike_id": "103a7cb2d96c057330255cdaf5d354fc", "name": "103a7cb2d96c057330255cdaf5d354fc"}, {"lon": -77.02297683333333, "is_reserved": 0, "is_disabled": 0, "type": "electric_scooter", "lat": 38.93760916666667, "rental_uris": {"ios": "https://dc.lft.to/lastmile_qr_scan", "android": "https://dc.lft.to/lastmile_qr_scan"}, "fusion_lat": 0.0, "fusion_lon": 0.0, "bike_id": "c1473b8b6acd619163e26425adc761c5", "name": "c1473b8b6acd619163e26425adc761c5"}, {"lon": -76.94944366666667, "is_reserved": 0, "is_disabled": 0, "type": "electric_scooter", "lat": 38.88318133333333, "rental_uris": {"ios": "https://dc.lft.to/lastmile_qr_scan", "android": "https://dc.lft.to/lastmile_qr_scan"}, "fusion_lat": 0.0, "fusion_lon": 0.0, "bike_id": "9d7d54bf8aa7b328254063b87a557d47", "name": "9d7d54bf8aa7b328254063b87a557d47"}, {"lon": -77.02388233333333, "is_reserved": 0, "is_disabled": 0, "type": "electric_scooter", "lat": 38.9074115, "rental_uris": {"ios": "https://dc.lft.to/lastmile_qr_scan", "android": "https://dc.lft.to/lastmile_qr_scan"}, "fusion_lat": 0.0, "fusion_lon": 0.0, "bike_id": "517367178b5484e2c270f878cc878054", "name": "517367178b5484e2c270f878cc878054"}, {"lon": -76.976181, "is_reserved": 0, "is_disabled": 0, "type": "electric_bike", "lat": 38.892914833333336, "rental_uris": {"ios": "https://dc.lft.to/lastmile_qr_scan", "android": "https://dc.lft.to/lastmile_qr_scan"}, "fusion_lat": 0.0, "fusion_lon": 0.0, "bike_id": "95ca436a55188586380c6f96098af48d", "name": "95ca436a55188586380c6f96098af48d"}, {"lon": -77.029978, "is_reserved": 0, "is_disabled": 0, "type": "electric_scooter", "lat": 38.924773333333334, "rental_uris": {"ios": "https://dc.lft.to/lastmile_qr_scan", "android": "https://dc.lft.to/lastmile_qr_scan"}, "fusion_lat": 0.0, "fusion_lon": 0.0, "bike_id": "d6b7ef9f3993b39509162cc70ccb724e", "name": "d6b7ef9f3993b39509162cc70ccb724e"}, {"lon": -77.04351483333333, "is_reserved": 0, "is_disabled": 0, "type": "electric_scooter", "lat": 38.9071925, "rental_uris": {"ios": "https://dc.lft.to/lastmile_qr_scan", "android": "https://dc.lft.to/lastmile_qr_scan"}, "fusion_lat": 0.0, "fusion_lon": 0.0, "bike_id": "40882920dcf47e503da8e0acea2c930e", "name": "40882920dcf47e503da8e0acea2c930e"}, {"lon": -76.94769266666667, "is_reserved": 0, "is_disabled": 0, "type": "electric_scooter", "lat": 38.896241833333335, "rental_uris": {"ios": "https://dc.lft.to/lastmile_qr_scan", "android": "https://dc.lft.to/lastmile_qr_scan"}, "fusion_lat": 0.0, "fusion_lon": 0.0, "bike_id": "35704a855a902c23212c9894156ee3b8", "name": "35704a855a902c23212c9894156ee3b8"}, {"lon": -77.004304, "is_reserved": 0, "is_disabled": 0, "type": "electric_scooter", "lat": 38.90745783333333, "rental_uris": {"ios": "https://dc.lft.to/lastmile_qr_scan", "android": "https://dc.lft.to/lastmile_qr_scan"}, "fusion_lat": 0.0, "fusion_lon": 0.0, "bike_id": "4fea095ad9687a3d6b54bb41f8f98657", "name": "4fea095ad9687a3d6b54bb41f8f98657"}, {"lon": -77.08943266666667, "is_reserved": 0, "is_disabled": 0, "type": "electric_bike", "lat": 38.841068166666666, "rental_uris": {"ios": "https://dc.lft.to/lastmile_qr_scan", "android": "https://dc.lft.to/lastmile_qr_scan"}, "fusion_lat": 0.0, "fusion_lon": 0.0, "bike_id": "d4e0bce66781bcdee889b6929e364f38", "name": "d4e0bce66781bcdee889b6929e364f38"}, {"lon": -77.03825566666667, "is_reserved": 0, "is_disabled": 0, "type": "electric_scooter", "lat": 38.90775383333333, "rental_uris": {"ios": "https://dc.lft.to/lastmile_qr_scan", "android": "https://dc.lft.to/lastmile_qr_scan"}, "fusion_lat": 0.0, "fusion_lon": 0.0, "bike_id": "adc42c0107ea2b12ed436745c1a97e6f", "name": "adc42c0107ea2b12ed436745c1a97e6f"}, {"lon": -76.9837705, "is_reserved": 0, "is_disabled": 0, "type": "electric_scooter", "lat": 38.899705166666664, "rental_uris": {"ios": "https://dc.lft.to/lastmile_qr_scan", "android": "https://dc.lft.to/lastmile_qr_scan"}, "fusion_lat": 0.0, "fusion_lon": 0.0, "bike_id": "3a58906e43aae92d11887a177204e98c", "name": "3a58906e43aae92d11887a177204e98c"}, {"lon": -77.031803, "is_reserved": 0, "is_disabled": 0, "type": "electric_scooter", "lat": 38.921009, "rental_uris": {"ios": "https://dc.lft.to/lastmile_qr_scan", "android": "https://dc.lft.to/lastmile_qr_scan"}, "fusion_lat": 0.0, "fusion_lon": 0.0, "bike_id": "76d5ebc08c0ccf1b18d31ff06f050411", "name": "76d5ebc08c0ccf1b18d31ff06f050411"}, {"lon": -77.01510266666666, "is_reserved": 0, "is_disabled": 0, "type": "electric_scooter", "lat": 38.89925133333333, "rental_uris": {"ios": "https://dc.lft.to/lastmile_qr_scan", "android": "https://dc.lft.to/lastmile_qr_scan"}, "fusion_lat": 0.0, "fusion_lon": 0.0, "bike_id": "b5b17375b1d343fb84db59dafed1ec0d", "name": "b5b17375b1d343fb84db59dafed1ec0d"}, {"lon": -77.02227716666667, "is_reserved": 0, "is_disabled": 0, "type": "electric_scooter", "lat": 38.912724, "rental_uris": {"ios": "https://dc.lft.to/lastmile_qr_scan", "android": "https://dc.lft.to/lastmile_qr_scan"}, "fusion_lat": 0.0, "fusion_lon": 0.0, "bike_id": "95c9bcb3facdef118fba195d40c017e7", "name": "95c9bcb3facdef118fba195d40c017e7"}, {"lon": -77.027236, "is_reserved": 0, "is_disabled": 0, "type": "electric_scooter", "lat": 38.901285666666666, "rental_uris": {"ios": "https://dc.lft.to/lastmile_qr_scan", "android": "https://dc.lft.to/lastmile_qr_scan"}, "fusion_lat": 0.0, "fusion_lon": 0.0, "bike_id": "db0633d280e0caef9e64b4fab2fe6a7e", "name": "db0633d280e0caef9e64b4fab2fe6a7e"}, {"lon": -77.02529416666667, "is_reserved": 0, "is_disabled": 0, "type": "electric_scooter", "lat": 38.905712333333334, "rental_uris": {"ios": "https://dc.lft.to/lastmile_qr_scan", "android": "https://dc.lft.to/lastmile_qr_scan"}, "fusion_lat": 0.0, "fusion_lon": 0.0, "bike_id": "27910237d8e95a230c271307b606bd02", "name": "27910237d8e95a230c271307b606bd02"}, {"lon": -76.93160183333333, "is_reserved": 0, "is_disabled": 0, "type": "electric_scooter", "lat": 38.898776833333336, "rental_uris": {"ios": "https://dc.lft.to/lastmile_qr_scan", "android": "https://dc.lft.to/lastmile_qr_scan"}, "fusion_lat": 0.0, "fusion_lon": 0.0, "bike_id": "417951ef930333507aaaea3c961b64e8", "name": "417951ef930333507aaaea3c961b64e8"}, {"lon": -76.87498333333333, "is_reserved": 0, "is_disabled": 0, "type": "electric_bike", "lat": 38.990867333333334, "rental_uris": {"ios": "https://dc.lft.to/lastmile_qr_scan", "android": "https://dc.lft.to/lastmile_qr_scan"}, "fusion_lat": 0.0, "fusion_lon": 0.0, "bike_id": "8724da9f416d5c4df70e30890df87357", "name": "8724da9f416d5c4df70e30890df87357"}, {"lon": -77.0384395, "is_reserved": 0, "is_disabled": 0, "type": "electric_scooter", "lat": 38.9121025, "rental_uris": {"ios": "https://dc.lft.to/lastmile_qr_scan", "android": "https://dc.lft.to/lastmile_qr_scan"}, "fusion_lat": 0.0, "fusion_lon": 0.0, "bike_id": "300e93ccf86669ea3060ecb047dbe66b", "name": "300e93ccf86669ea3060ecb047dbe66b"}, {"lon": -77.00337816666666, "is_reserved": 0, "is_disabled": 0, "type": "electric_scooter", "lat": 38.895041666666664, "rental_uris": {"ios": "https://dc.lft.to/lastmile_qr_scan", "android": "https://dc.lft.to/lastmile_qr_scan"}, "fusion_lat": 0.0, "fusion_lon": 0.0, "bike_id": "1b6d822a9f898c8ce3673b7939f501e4", "name": "1b6d822a9f898c8ce3673b7939f501e4"}, {"lon": -77.11218783333334, "is_reserved": 0, "is_disabled": 0, "type": "electric_bike", "lat": 38.82872866666666, "rental_uris": {"ios": "https://dc.lft.to/lastmile_qr_scan", "android": "https://dc.lft.to/lastmile_qr_scan"}, "fusion_lat": 0.0, "fusion_lon": 0.0, "bike_id": "89d5f64aea16200a2131ebbfd64e8c45", "name": "89d5f64aea16200a2131ebbfd64e8c45"}, {"lon": -77.025997, "is_reserved": 0, "is_disabled": 0, "type": "electric_scooter", "lat": 38.91690083333334, "rental_uris": {"ios": "https://dc.lft.to/lastmile_qr_scan", "android": "https://dc.lft.to/lastmile_qr_scan"}, "fusion_lat": 0.0, "fusion_lon": 0.0, "bike_id": "ee135f87488c94e82dbafa19e841d21c", "name": "ee135f87488c94e82dbafa19e841d21c"}, {"lon": -76.99513666666667, "is_reserved": 0, "is_disabled": 0, "type": "electric_scooter", "lat": 38.885802, "rental_uris": {"ios": "https://dc.lft.to/lastmile_qr_scan", "android": "https://dc.lft.to/lastmile_qr_scan"}, "fusion_lat": 0.0, "fusion_lon": 0.0, "bike_id": "c258ee5a0f843851b820da217d46152c", "name": "c258ee5a0f843851b820da217d46152c"}, {"lon": -77.07253, "is_reserved": 0, "is_disabled": 0, "type": "electric_scooter", "lat": 38.907826, "rental_uris": {"ios": "https://dc.lft.to/lastmile_qr_scan", "android": "https://dc.lft.to/lastmile_qr_scan"}, "fusion_lat": 0.0, "fusion_lon": 0.0, "bike_id": "1237536e7f8e0edcb00627f9e15477ce", "name": "1237536e7f8e0edcb00627f9e15477ce"}, {"lon": -77.17802016666667, "is_reserved": 0, "is_disabled": 0, "type": "electric_bike", "lat": 39.088401166666664, "rental_uris": {"ios": "https://dc.lft.to/lastmile_qr_scan", "android": "https://dc.lft.to/lastmile_qr_scan"}, "fusion_lat": 0.0, "fusion_lon": 0.0, "bike_id": "9d7c40379df5dc6eb7b81faa53b6a06f", "name": "9d7c40379df5dc6eb7b81faa53b6a06f"}, {"lon": -77.04482833333333, "is_reserved": 0, "is_disabled": 0, "type": "electric_scooter", "lat": 38.91269, "rental_uris": {"ios": "https://dc.lft.to/lastmile_qr_scan", "android": "https://dc.lft.to/lastmile_qr_scan"}, "fusion_lat": 0.0, "fusion_lon": 0.0, "bike_id": "16fa396f2afb169ba8bb4cd5fbea5ff0", "name": "16fa396f2afb169ba8bb4cd5fbea5ff0"}, {"lon": -77.04877133333333, "is_reserved": 0, "is_disabled": 0, "type": "electric_scooter", "lat": 38.8923465, "rental_uris": {"ios": "https://dc.lft.to/lastmile_qr_scan", "android": "https://dc.lft.to/lastmile_qr_scan"}, "fusion_lat": 0.0, "fusion_lon": 0.0, "bike_id": "088298e80ed943472af43114f594d85a", "name": "088298e80ed943472af43114f594d85a"}, {"lon": -76.994865, "is_reserved": 0, "is_disabled": 0, "type": "electric_scooter", "lat": 38.8421675, "rental_uris": {"ios": "https://dc.lft.to/lastmile_qr_scan", "android": "https://dc.lft.to/lastmile_qr_scan"}, "fusion_lat": 0.0, "fusion_lon": 0.0, "bike_id": "2aa02434d2de175198e5119f8c69eed8", "name": "2aa02434d2de175198e5119f8c69eed8"}, {"lon": -77.04366366666666, "is_reserved": 0, "is_disabled": 0, "type": "electric_scooter", "lat": 38.904631, "rental_uris": {"ios": "https://dc.lft.to/lastmile_qr_scan", "android": "https://dc.lft.to/lastmile_qr_scan"}, "fusion_lat": 0.0, "fusion_lon": 0.0, "bike_id": "a1049a7cbf2b6d69b527fdf14eab6bc6", "name": "a1049a7cbf2b6d69b527fdf14eab6bc6"}, {"lon": -77.0653865, "is_reserved": 0, "is_disabled": 0, "type": "electric_scooter", "lat": 38.9506465, "rental_uris": {"ios": "https://dc.lft.to/lastmile_qr_scan", "android": "https://dc.lft.to/lastmile_qr_scan"}, "fusion_lat": 0.0, "fusion_lon": 0.0, "bike_id": "adc523782a20e182e90f7f94c748db44", "name": "adc523782a20e182e90f7f94c748db44"}, {"lon": -77.02037933333334, "is_reserved": 0, "is_disabled": 0, "type": "electric_scooter", "lat": 38.89270766666667, "rental_uris": {"ios": "https://dc.lft.to/lastmile_qr_scan", "android": "https://dc.lft.to/lastmile_qr_scan"}, "fusion_lat": 0.0, "fusion_lon": 0.0, "bike_id": "b6f765399e2b629c9ea02b26ca134c66", "name": "b6f765399e2b629c9ea02b26ca134c66"}, {"lon": -76.9887745, "is_reserved": 0, "is_disabled": 0, "type": "electric_scooter", "lat": 38.86675666666667, "rental_uris": {"ios": "https://dc.lft.to/lastmile_qr_scan", "android": "https://dc.lft.to/lastmile_qr_scan"}, "fusion_lat": 0.0, "fusion_lon": 0.0, "bike_id": "193d8faebc456593691991fb5159d019", "name": "193d8faebc456593691991fb5159d019"}, {"lon": -77.020494, "is_reserved": 0, "is_disabled": 0, "type": "electric_scooter", "lat": 38.9154985, "rental_uris": {"ios": "https://dc.lft.to/lastmile_qr_scan", "android": "https://dc.lft.to/lastmile_qr_scan"}, "fusion_lat": 0.0, "fusion_lon": 0.0, "bike_id": "4af374e8876b4d7385b24a493da5fc81", "name": "4af374e8876b4d7385b24a493da5fc81"}, {"lon": -77.00749433333333, "is_reserved": 0, "is_disabled": 0, "type": "electric_scooter", "lat": 38.898354, "rental_uris": {"ios": "https://dc.lft.to/lastmile_qr_scan", "android": "https://dc.lft.to/lastmile_qr_scan"}, "fusion_lat": 0.0, "fusion_lon": 0.0, "bike_id": "db4111bf1445f1058aeb68e13ee2f091", "name": "db4111bf1445f1058aeb68e13ee2f091"}, {"lon": -76.96558666666667, "is_reserved": 0, "is_disabled": 0, "type": "electric_scooter", "lat": 38.91850433333333, "rental_uris": {"ios": "https://dc.lft.to/lastmile_qr_scan", "android": "https://dc.lft.to/lastmile_qr_scan"}, "fusion_lat": 0.0, "fusion_lon": 0.0, "bike_id": "3c6bb9ee3efd70c8b64674568d09d5aa", "name": "3c6bb9ee3efd70c8b64674568d09d5aa"},