{"data": {"bikes": [{"bike_id": "aad9354c98727fa5f4753a3cb1a488e8", "fusion_lon": 0.0, "lon": -77.01410916666667, "name": "aad9354c98727fa5f4753a3cb1a488e8", "is_disabled": 0, "rental_uris": {"android": "https://dc.lft.to/lastmile_qr_scan", "ios": "https://dc.lft.to/lastmile_qr_scan"}, "type": "electric_scooter", "lat": 38.927928333333334, "is_reserved": 0, "fusion_lat": 0.0}, {"bike_id": "7bda0918e44e437e03ff2847293cb338", "fusion_lon": 0.0, "lon": -77.06010983333333, "name": "7bda0918e44e437e03ff2847293cb338", "is_disabled": 0, "rental_uris": {"android": "https://dc.lft.to/lastmile_qr_scan", "ios": "https://dc.lft.to/lastmile_qr_scan"}, "type": "electric_scooter", "lat": 38.90178866666667, "is_reserved": 0, "fusion_lat": 0.0}, {"bike_id": "0c30bd8a6b21dee756fa6be272fcf9bf", "fusion_lon": 0.0, "lon": -77.023941, "name": "0c30bd8a6b21dee756fa6be272fcf9bf", "is_disabled": 0, "rental_uris": {"android": "https://dc.lft.to/lastmile_qr_scan", "ios": "https://dc.lft.to/lastmile_qr_scan"}, "type": "electric_scooter", "lat": 38.91524533333333, "is_reserved": 0, "fusion_lat": 0.0}, {"bike_id": "f989d16de2f5e768002708cd7e9aa8a1", "fusion_lon": 0.0, "lon": -76.99899883333333, "name": "f989d16de2f5e768002708cd7e9aa8a1", "is_disabled": 0, "rental_uris": {"android": "https://dc.lft.to/lastmile_qr_scan", "ios": "https://dc.lft.to/lastmile_qr_scan"}, "type": "electric_scooter", "lat": 38.948273666666665, "is_reserved": 0, "fusion_lat": 0.0}, {"bike_id": "4f18583bdcb197b3585e9e2c74be9a9f", "fusion_lon": 0.0, "lon": -77.02721616666666, "name": "4f18583bdcb197b3585e9e2c74be9a9f", "is_disabled": 0, "rental_uris": {"android": "https://dc.lft.to/lastmile_qr_scan", "ios": "https://dc.lft.to/lastmile_qr_scan"}, "type": "electric_scooter", "lat": 38.909493833333336, "is_reserved": 0, "fusion_lat": 0.0}, {"bike_id": "327ef99ddc51d434e3b2dfe4128fe7e1", "fusion_lon": 0.0, "lon": -77.051009, "name": "327ef99ddc51d434e3b2dfe4128fe7e1", "is_disabled": 0, "rental_uris": {"android": "https://dc.lft.to/lastmile_qr_scan", "ios": "https://dc.lft.to/lastmile_qr_scan"}, "type": "electric_scooter", "lat": 38.905174333333335, "is_reserved": 0, "fusion_lat": 0.0}, {"bike_id": "c2a7890fe8b704db7a13e20623b0c464", "fusion_lon": 0.0, "lon": -76.9871335, "name": "c2a7890fe8b704db7a13e20623b0c464", "is_disabled": 0, "rental_uris": {"android": "https://dc.lft.to/lastmile_qr_scan", "ios": "https://dc.lft.to/lastmile_qr_scan"}, "type": "electric_scooter", "lat": 38.900678166666665, "is_reserved": 0, "fusion_lat": 0.0}, {"bike_id": "51ab40bed7cf43a15561545e7fef197a", "fusion_lon": 0.0, "lon": -77.02496133333334, "name": "51ab40bed7cf43a15561545e7fef197a", "is_disabled": 0, "rental_uris": {"android": "https://dc.lft.to/lastmile_qr_scan", "ios": "https://dc.lft.to/lastmile_qr_scan"}, "type": "electric_scooter", "lat": 38.94308916666667, "is_reserved": 0, "fusion_lat": 0.0}, {"bike_id": "94832af7e53fd33177a34ae522208bf1", "fusion_lon": 0.0, "lon": -76.98687716666667, "name": "94832af7e53fd33177a34ae522208bf1", "is_disabled": 0, "rental_uris": {"android": "https://dc.lft.to/lastmile_qr_scan", "ios": "https://dc.lft.to/lastmile_qr_scan"}, "type": "electric_bike", "lat": 38.9447595, "is_reserved": 0, "fusion_lat": 0.0}, {"bike_id": "6221ea0e4837e07351344a5e2bbf7be7", "fusion_lon": 0.0, "lon": -77.05548733333333, "name": "6221ea0e4837e07351344a5e2bbf7be7", "is_disabled": 0, "rental_uris": {"android": "https://dc.lft.to/lastmile_qr_scan", "ios": "https://dc.lft.to/lastmile_qr_scan"}, "type": "electric_scooter", "lat": 38.930110666666664, "is_reserved": 0, "fusion_lat": 0.0}, {"bike_id": "2a4bb5d4c3542995d7ff0dd069227a88", "fusion_lon": 0.0, "lon": -77.02449033333333, "name": "2a4bb5d4c3542995d7ff0dd069227a88", "is_disabled": 0, "rental_uris": {"android": "https://dc.lft.to/lastmile_qr_scan", "ios": "https://dc.lft.to/lastmile_qr_scan"}, "type": "electric_scooter", "lat": 38.91263933333333, "is_reserved": 0, "fusion_lat": 0.0}, {"bike_id": "fec0b262fceb8f303f776910528994ea", "fusion_lon": 0.0, "lon": -77.0311405, "name": "fec0b262fceb8f303f776910528994ea", "is_disabled": 0, "rental_uris": {"android": "https://dc.lft.to/lastmile_qr_scan", "ios": "https://dc.lft.to/lastmile_qr_scan"}, "type": "electric_scooter", "lat": 38.916998166666666, "is_reserved": 0, "fusion_lat": 0.0}, {"bike_id": "474601a9750365aa1b43c9269e9c95ac", "fusion_lon": 0.0, "lon": -76.99945266666667, "name": "474601a9750365aa1b43c9269e9c95ac", "is_disabled": 0, "rental_uris": {"android": "https://dc.lft.to/lastmile_qr_scan", "ios": "https://dc.lft.to/lastmile_qr_scan"}, "type": "electric_scooter", "lat": 38.84295916666667, "is_reserved": 0, "fusion_lat": 0.0}, {"bike_id": "a145858360f62cf97cabef31435bd264", "fusion_lon": 0.0, "lon": -76.981166, "name": "a145858360f62cf97cabef31435bd264", "is_disabled": 0, "rental_uris": {"android": "https://dc.lft.to/lastmile_qr_scan", "ios": "https://dc.lft.to/lastmile_qr_scan"}, "type": "electric_bike", "lat": 38.9147325, "is_reserved": 0, "fusion_lat": 0.0}, {"bike_id": "2b429af025ab4aa3f380f60a39e0ec90", "fusion_lon": 0.0, "lon": -77.03266683333334, "name": "2b429af025ab4aa3f380f60a39e0ec90", "is_disabled": 0, "rental_uris": {"android": "https://dc.lft.to/lastmile_qr_scan", "ios": "https://dc.lft.to/lastmile_qr_scan"}, "type": "electric_scooter", "lat": 38.914102166666666, "is_reserved": 0, "fusion_lat": 0.0}, {"bike_id": "267e6919391a3d896ed90c5716a6bccb", "fusion_lon": 0.0, "lon": -77.04197233333333, "name": "267e6919391a3d896ed90c5716a6bccb", "is_disabled": 0, "rental_uris": {"android": "https://dc.lft.to/lastmile_qr_scan", "ios": "https://dc.lft.to/lastmile_qr_scan"}, "type": "electric_scooter", "lat": 38.926144666666666, "is_reserved": 0, "fusion_lat": 0.0}, {"bike_id": "de151d391ceea74f264887314d9ef2da", "fusion_lon": 0.0, "lon": -76.91161233333334, "name": "de151d391ceea74f264887314d9ef2da", "is_disabled": 0, "rental_uris": {"android": "https://dc.lft.to/lastmile_qr_scan", "ios": "https://dc.lft.to/lastmile_qr_scan"}, "type": "electric_scooter", "lat": 38.89410616666667, "is_reserved": 0, "fusion_lat": 0.0}, {"bike_id": "cff3c441e4cfd70b59b4da481297a107", "fusion_lon": 0.0, "lon": -77.00327866666667, "name": "cff3c441e4cfd70b59b4da481297a107", "is_disabled": 0, "rental_uris": {"android": "https://dc.lft.to/lastmile_qr_scan", "ios": "https://dc.lft.to/lastmile_qr_scan"}, "type": "electric_scooter", "lat": 38.90266183333333, "is_reserved": 0, "fusion_lat": 0.0}, {"bike_id": "d00f8f7af284053a1e0c73decfea7bf4", "fusion_lon": 0.0, "lon": -77.02006866666666, "name": "d00f8f7af284053a1e0c73decfea7bf4", "is_disabled": 0, "rental_uris": {"android": "https://dc.lft.to/lastmile_qr_scan", "ios": "https://dc.lft.to/lastmile_qr_scan"}, "type": "electric_scooter", "lat": 38.913145166666666, "is_reserved": 0, "fusion_lat": 0.0}, {"bike_id": "c80cebdca2bcc7b23991bcd3d8c92dcc", "fusion_lon": 0.0, "lon": -77.040891, "name": "c80cebdca2bcc7b23991bcd3d8c92dcc", "is_disabled": 0, "rental_uris": {"android": "https://dc.lft.to/lastmile_qr_scan", "ios": "https://dc.lft.to/lastmile_qr_scan"}, "type": "electric_scooter", "lat": 38.91694016666667, "is_reserved": 0, "fusion_lat": 0.0}, {"bike_id": "76638ac0bfd20eeee3fcac354589bd6e", "fusion_lon": 0.0, "lon": -77.0220515, "name": "76638ac0bfd20eeee3fcac354589bd6e", "is_disabled": 0, "rental_uris": {"android": "https://dc.lft.to/lastmile_qr_scan", "ios": "https://dc.lft.to/lastmile_qr_scan"}, "type": "electric_scooter", "lat": 38.91148283333333, "is_reserved": 0, "fusion_lat": 0.0}, {"bike_id": "a4a330bdaef5014022cc44eab841c1fa", "fusion_lon": 0.0, "lon": -77.03508583333333, "name": "a4a330bdaef5014022cc44eab841c1fa", "is_disabled": 0, "rental_uris": {"android": "https://dc.lft.to/lastmile_qr_scan", "ios": "https://dc.lft.to/lastmile_qr_scan"}, "type": "electric_scooter", "lat": 38.923379833333335, "is_reserved": 0, "fusion_lat": 0.0}, {"bike_id": "da4b070902675eabacbdd2f6870a14b7", "fusion_lon": 0.0, "lon": -77.05421683333333, "name": "da4b070902675eabacbdd2f6870a14b7", "is_disabled": 0, "rental_uris": {"android": "https://dc.lft.to/lastmile_qr_scan", "ios": "https://dc.lft.to/lastmile_qr_scan"}, "type": "electric_scooter", "lat": 38.902389666666664, "is_reserved": 0, "fusion_lat": 0.0}, {"bike_id": "276e2606ef389b2dc2ce34285de6c5bd", "fusion_lon": 0.0, "lon": -77.02404816666666, "name": "276e2606ef389b2dc2ce34285de6c5bd", "is_disabled": 0, "rental_uris": {"android": "https://dc.lft.to/lastmile_qr_scan", "ios": "https://dc.lft.to/lastmile_qr_scan"}, "type": "electric_scooter", "lat": 38.897279166666664, "is_reserved": 0, "fusion_lat": 0.0}, {"bike_id": "1d191d79f81f7d640d9131f01c5a28d8", "fusion_lon": 0.0, "lon": -77.05143566666666, "name": "1d191d79f81f7d640d9131f01c5a28d8", "is_disabled": 0, "rental_uris": {"android": "https://dc.lft.to/lastmile_qr_scan", "ios": "https://dc.lft.to/lastmile_qr_scan"}, "type": "electric_scooter", "lat": 38.905679666666664, "is_reserved": 0, "fusion_lat": 0.0}, {"bike_id": "f800907176d699b087ba10a6977919fe", "fusion_lon": 0.0, "lon": -77.03229783333333, "name": "f800907176d699b087ba10a6977919fe", "is_disabled": 0, "rental_uris": {"android": "https://dc.lft.to/lastmile_qr_scan", "ios": "https://dc.lft.to/lastmile_qr_scan"}, "type": "electric_scooter", "lat": 38.91405183333333, "is_reserved": 0, "fusion_lat": 0.0}, {"bike_id": "db12ee31dd6bb396e8d80ade34b70069", "fusion_lon": 0.0, "lon": -77.0323565, "name": "db12ee31dd6bb396e8d80ade34b70069", "is_disabled": 0, "rental_uris": {"android": "https://dc.lft.to/lastmile_qr_scan", "ios": "https://dc.lft.to/lastmile_qr_scan"}, "type": "electric_scooter", "lat": 38.927616666666665, "is_reserved": 0, "fusion_lat": 0.0}, {"bike_id": "4f95d6b8ac786e1cceb24c7928577ff8", "fusion_lon": 0.0, "lon": -77.0333055, "name": "4f95d6b8ac786e1cceb24c7928577ff8", "is_disabled": 0, "rental_uris": {"android": "https://dc.lft.to/lastmile_qr_scan", "ios": "https://dc.lft.to/lastmile_qr_scan"}, "type": "electric_scooter", "lat": 38.898264, "is_reserved": 0, "fusion_lat": 0.0}, {"bike_id": "ab076e5aad38cb1d005cc6c95a213c2c", "fusion_lon": 0.0, "lon": -76.99400766666666, "name": "ab076e5aad38cb1d005cc6c95a213c2c", "is_disabled": 0, "rental_uris": {"android": "https://dc.lft.to/lastmile_qr_scan", "ios": "https://dc.lft.to/lastmile_qr_scan"}, "type": "electric_scooter", "lat": 38.921654833333335, "is_reserved": 0, "fusion_lat": 0.0}, {"bike_id": "6d42f2e4f731eb2eae8ae86801ffe56d", "fusion_lon": 0.0, "lon": -77.0088765, "name": "6d42f2e4f731eb2eae8ae86801ffe56d", "is_disabled": 0, "rental_uris": {"android": "https://dc.lft.to/lastmile_qr_scan", "ios": "https://dc.lft.to/lastmile_qr_scan"}, "type": "electric_scooter", "lat": 38.924880333333334, "is_reserved": 0, "fusion_lat": 0.0}, {"bike_id": "36dd5555f2b50480e683b1113f65d0a6", "fusion_lon": 0.0, "lon": -77.04534933333333, "name": "36dd5555f2b50480e683b1113f65d0a6", "is_disabled": 0, "rental_uris": {"android": "https://dc.lft.to/lastmile_qr_scan", "ios": "https://dc.lft.to/lastmile_qr_scan"}, "type": "electric_scooter", "lat": 38.91330333333333, "is_reserved": 0, "fusion_lat": 0.0}, {"bike_id": "38032a0e5f6633e4ce394c699de373d5", "fusion_lon": 0.0, "lon": -76.9986925, "name": "38032a0e5f6633e4ce394c699de373d5", "is_disabled": 0, "rental_uris": {"android": "https://dc.lft.to/lastmile_qr_scan", "ios": "https://dc.lft.to/lastmile_qr_scan"}, "type": "electric_scooter", "lat": 38.90027383333333, "is_reserved": 0, "fusion_lat": 0.0}, {"bike_id": "92030a2293058bf8c7620dc544bbecc2", "fusion_lon": 0.0, "lon": -77.03500433333333, "name": "92030a2293058bf8c7620dc544bbecc2", "is_disabled": 0, "rental_uris": {"android": "https://dc.lft.to/lastmile_qr_scan", "ios": "https://dc.lft.to/lastmile_qr_scan"}, "type": "electric_bike", "lat": 38.937570666666666, "is_reserved": 0, "fusion_lat": 0.0}, {"bike_id": "6bb27833181640b32f7971dd23455119", "fusion_lon": 0.0, "lon": -77.016992, "name": "6bb27833181640b32f7971dd23455119", "is_disabled": 0, "rental_uris": {"android": "https://dc.lft.to/lastmile_qr_scan", "ios": "https://dc.lft.to/lastmile_qr_scan"}, "type": "electric_scooter", "lat": 38.881076166666666, "is_reserved": 0, "fusion_lat": 0.0}, {"bike_id": "8663c34a2d77244db65daffb38a21228", "fusion_lon": 0.0, "lon": -77.01216383333333, "name": "8663c34a2d77244db65daffb38a21228", "is_disabled": 0, "rental_uris": {"android": "https://dc.lft.to/lastmile_qr_scan", "ios": "https://dc.lft.to/lastmile_qr_scan"}, "type": "electric_scooter", "lat": 38.87091816666667, "is_reserved": 0, "fusion_lat": 0.0}, {"bike_id": "34c894d7376ba650f054f1b12a0d03b9", "fusion_lon": 0.0, "lon": -77.03214916666667, "name": "34c894d7376ba650f054f1b12a0d03b9", "is_disabled": 0, "rental_uris": {"android": "https://dc.lft.to/lastmile_qr_scan", "ios": "https://dc.lft.to/lastmile_qr_scan"}, "type": "electric_bike", "lat": 38.933097, "is_reserved": 0, "fusion_lat": 0.0}, {"bike_id": "a707d696d87e577ce7b3ed18febab316", "fusion_lon": 0.0, "lon": -77.03307916666667, "name": "a707d696d87e577ce7b3ed18febab316", "is_disabled": 0, "rental_uris": {"android": "https://dc.lft.to/lastmile_qr_scan", "ios": "https://dc.lft.to/lastmile_qr_scan"}, "type": "electric_scooter", "lat": 38.907165, "is_reserved": 0, "fusion_lat": 0.0}, {"bike_id": "5d5abf2e105e4f5875b40c9803e3c43b", "fusion_lon": 0.0, "lon": -77.0216985, "name": "5d5abf2e105e4f5875b40c9803e3c43b", "is_disabled": 0, "rental_uris": {"android": "https://dc.lft.to/lastmile_qr_scan", "ios": "https://dc.lft.to/lastmile_qr_scan"}, "type": "electric_scooter", "lat": 38.897257, "is_reserved": 0, "fusion_lat": 0.0}, {"bike_id": "d442945d0ea032e407ce979c8fb55e5f", "fusion_lon": 0.0, "lon": -77.023, "name": "d442945d0ea032e407ce979c8fb55e5f", "is_disabled": 0, "rental_uris": {"android": "https://dc.lft.to/lastmile_qr_scan", "ios": "https://dc.lft.to/lastmile_qr_scan"}, "type": "electric_scooter", "lat": 38.916010166666666, "is_reserved": 0, "fusion_lat": 0.0}, {"bike_id": "bbb831d91d17deb1d748dbc7a6bebcf8", "fusion_lon": 0.0, "lon": -77.0071385, "name": "bbb831d91d17deb1d748dbc7a6bebcf8", "is_disabled": 0, "rental_uris": {"android": "https://dc.lft.to/lastmile_qr_scan", "ios": "https://dc.lft.to/lastmile_qr_scan"}, "type": "electric_scooter", "lat": 38.87923466666667, "is_reserved": 0, "fusion_lat": 0.0}, {"bike_id": "0faa98097dd72b8f77b4693a3917cd60", "fusion_lon": 0.0, "lon": -77.0321175, "name": "0faa98097dd72b8f77b4693a3917cd60", "is_disabled": 0, "rental_uris": {"android": "https://dc.lft.to/lastmile_qr_scan", "ios": "https://dc.lft.to/lastmile_qr_scan"}, "type": "electric_scooter", "lat": 38.909417833333336, "is_reserved": 0, "fusion_lat": 0.0}, {"bike_id": "cbb521ce587a9cca03d45fe8d7dc0ab8", "fusion_lon": 0.0, "lon": -76.98723150000001, "name": "cbb521ce587a9cca03d45fe8d7dc0ab8", "is_disabled": 0, "rental_uris": {"android": "https://dc.lft.to/lastmile_qr_scan", "ios": "https://dc.lft.to/lastmile_qr_scan"}, "type": "electric_scooter", "lat": 38.866349666666665, "is_reserved": 0, "fusion_lat": 0.0}, {"bike_id": "b3116ee71134a0c14f81164ea18004c8", "fusion_lon": 0.0, "lon": -77.04640866666666, "name": "b3116ee71134a0c14f81164ea18004c8", "is_disabled": 0, "rental_uris": {"android": "https://dc.lft.to/lastmile_qr_scan", "ios": "https://dc.lft.to/lastmile_qr_scan"}, "type": "electric_scooter", "lat": 38.8953035, "is_reserved": 0, "fusion_lat": 0.0}, {"bike_id": "b49481ede279c208d847718d1e17e943", "fusion_lon": 0.0, "lon": -77.0419, "name": "b49481ede279c208d847718d1e17e943", "is_disabled": 0, "rental_uris": {"android": "https://dc.lft.to/lastmile_qr_scan", "ios": "https://dc.lft.to/lastmile_qr_scan"}, "type": "electric_scooter", "lat": 38.92058733333333, "is_reserved": 0, "fusion_lat": 0.0}, {"bike_id": "90c4e488a8a4be673dfda0900a360850", "fusion_lon": 0.0, "lon": -77.01798433333333, "name": "90c4e488a8a4be673dfda0900a360850", "is_disabled": 0, "rental_uris": {"android": "https://dc.lft.to/lastmile_qr_scan", "ios": "https://dc.lft.to/lastmile_qr_scan"}, "type": "electric_scooter", "lat": 38.90828833333333, "is_reserved": 0, "fusion_lat": 0.0}, {"bike_id": "88f3f41d2b65232e35b66826a210ab95", "fusion_lon": 0.0, "lon": -77.03458383333333, "name": "88f3f41d2b65232e35b66826a210ab95", "is_disabled": 0, "rental_uris": {"android": "https://dc.lft.to/lastmile_qr_scan", "ios": "https://dc.lft.to/lastmile_qr_scan"}, "type": "electric_scooter", "lat": 38.9076345, "is_reserved": 0, "fusion_lat": 0.0}, {"bike_id": "76e9f2530a2d52333e470b7ed16624fa", "fusion_lon": 0.0, "lon": -77.03342033333334, "name": "76e9f2530a2d52333e470b7ed16624fa", "is_disabled": 0, "rental_uris": {"android": "https://dc.lft.to/lastmile_qr_scan", "ios": "https://dc.lft.to/lastmile_qr_scan"}, "type": "electric_scooter", "lat": 38.89840616666667, "is_reserved": 0, "fusion_lat": 0.0}, {"bike_id": "27b24c41fe2d3bd73457c7abff1a0992", "fusion_lon": 0.0, "lon": -77.02328366666667, "name": "27b24c41fe2d3bd73457c7abff1a0992", "is_disabled": 0, "rental_uris": {"android": "https://dc.lft.to/lastmile_qr_scan", "ios": "https://dc.lft.to/lastmile_qr_scan"}, "type": "electric_scooter", "lat": 38.927019666666666, "is_reserved": 0, "fusion_lat": 0.0}, {"bike_id": "50a84b0dcada84d37ce3c422d349b839", "fusion_lon": 0.0, "lon": -76.9908665, "name": "50a84b0dcada84d37ce3c422d349b839", "is_disabled": 0, "rental_uris": {"android": "https://dc.lft.to/lastmile_qr_scan", "ios": "https://dc.lft.to/lastmile_qr_scan"}, "type": "electric_scooter", "lat": 38.929567, "is_reserved": 0, "fusion_lat": 0.0}, {"bike_id": "26f42640c26c80d243e443a350facd89", "fusion_lon": 0.0, "lon": -77.01652383333334, "name": "26f42640c26c80d243e443a350facd89", "is_disabled": 0, "rental_uris": {"android": "https://dc.lft.to/lastmile_qr_scan", "ios": "https://dc.lft.to/lastmile_qr_scan"}, "type": "electric_scooter", "lat": 38.915885333333335, "is_reserved": 0, "fusion_lat": 0.0}, {"bike_id": "eea0a92f31cfc2be3b135164a6773881", "fusion_lon": 0.0, "lon": -77.0350495, "name": "eea0a92f31cfc2be3b135164a6773881", "is_disabled": 0, "rental_uris": {"android": "https://dc.lft.to/lastmile_qr_scan", "ios": "https://dc.lft.to/lastmile_qr_scan"}, "type": "electric_scooter", "lat": 38.926381666666664, "is_reserved": 0, "fusion_lat": 0.0}, {"bike_id": "1f1cd32ac9b2709ca6de8beb7d24821f", "fusion_lon": 0.0, "lon": -77.00926166666666, "name": "1f1cd32ac9b2709ca6de8beb7d24821f", "is_disabled": 0, "rental_uris": {"android": "https://dc.lft.to/lastmile_qr_scan", "ios": "https://dc.lft.to/lastmile_qr_scan"}, "type": "electric_scooter", "lat": 38.91265416666667, "is_reserved": 0, "fusion_lat": 0.0}, {"bike_id": "506fba55f602a5f5a08d059cbab3fcab", "fusion_lon": 0.0, "lon": -77.36096316666666, "name": "506fba55f602a5f5a08d059cbab3fcab", "is_disabled": 0, "rental_uris": {"android": "https://dc.lft.to/lastmile_qr_scan", "ios": "https://dc.lft.to/lastmile_qr_scan"}, "type": "electric_bike", "lat": 38.939624, "is_reserved": 0, "fusion_lat": 0.0}, {"bike_id": "b0ccccd844b81fae6cc173dc01b1dfa2", "fusion_lon": 0.0, "lon": -77.03277633333333, "name": "b0ccccd844b81fae6cc173dc01b1dfa2", "is_disabled": 0, "rental_uris": {"android": "https://dc.lft.to/lastmile_qr_scan", "ios": "https://dc.lft.to/lastmile_qr_scan"}, "type": "electric_scooter", "lat": 38.900142, "is_reserved": 0, "fusion_lat": 0.0}, {"bike_id": "19a1eb9cfb8c4c0f439891f4faa6811b", "fusion_lon": 0.0, "lon": -76.95141883333334, "name": "19a1eb9cfb8c4c0f439891f4faa6811b", "is_disabled": 0, "rental_uris": {"android": "https://dc.lft.to/lastmile_qr_scan", "ios": "https://dc.lft.to/lastmile_qr_scan"}, "type": "electric_scooter", "lat": 38.890389166666665, "is_reserved": 0, "fusion_lat": 0.0}, {"bike_id": "4073ab3eb9450d3eb6333135f807e01f", "fusion_lon": 0.0, "lon": -77.05263566666666, "name": "4073ab3eb9450d3eb6333135f807e01f", "is_disabled": 0, "rental_uris": {"android": "https://dc.lft.to/lastmile_qr_scan", "ios": "https://dc.lft.to/lastmile_qr_scan"}, "type": "electric_scooter", "lat": 38.92562683333333, "is_reserved": 0, "fusion_lat": 0.0}, {"bike_id": "610f2dd26cc3e2cd4706b6deb148e889", "fusion_lon": 0.0, "lon": -77.00157816666666, "name": "610f2dd26cc3e2cd4706b6deb148e889", "is_disabled": 0, "rental_uris": {"android": "https://dc.lft.to/lastmile_qr_scan", "ios": "https://dc.lft.to/lastmile_qr_scan"}, "type": "electric_scooter", "lat": 38.923448, "is_reserved": 0, "fusion_lat": 0.0}, {"bike_id": "943ea3a95c6ded9d11a27558d350d53c", "fusion_lon": 0.0, "lon": -77.02102183333334, "name": "943ea3a95c6ded9d11a27558d350d53c", "is_disabled": 0, "rental_uris": {"android": "https://dc.lft.to/lastmile_qr_scan", "ios": "https://dc.lft.to/lastmile_qr_scan"}, "type": "electric_scooter", "lat": 38.924118666666665, "is_reserved": 0, "fusion_lat": 0.0}, {"bike_id": "dc7597593d197cfb84532cdd66a9f560", "fusion_lon": 0.0, "lon": -77.0298375, "name": "dc7597593d197cfb84532cdd66a9f560", "is_disabled": 0, "rental_uris": {"android": "https://dc.lft.to/lastmile_qr_scan", "ios": "https://dc.lft.to/lastmile_qr_scan"}, "type": "electric_scooter", "lat": 38.89562216666667, "is_reserved": 0, "fusion_lat": 0.0}, {"bike_id": "1435e2fb5e546db36acf8fcf545d2b41", "fusion_lon": 0.0, "lon": -77.086157, "name": "1435e2fb5e546db36acf8fcf545d2b41", "is_disabled": 0, "rental_uris": {"android": "https://dc.lft.to/lastmile_qr_scan", "ios": "https://dc.lft.to/lastmile_qr_scan"}, "type": "electric_bike", "lat": 38.89124533333333, "is_reserved": 0, "fusion_lat": 0.0}, {"bike_id": "7dc7af68ce612a5c2439795f6fed3a2c", "fusion_lon": 0.0, "lon": -77.02357066666667, "name": "7dc7af68ce612a5c2439795f6fed3a2c", "is_disabled": 0, "rental_uris": {"android": "https://dc.lft.to/lastmile_qr_scan", "ios": "https://dc.lft.to/lastmile_qr_scan"}, "type": "electric_scooter", "lat": 38.91963533333333, "is_reserved": 0, "fusion_lat": 0.0}, {"bike_id": "36b686b46232328092b491265363e2c8", "fusion_lon": 0.0, "lon": -77.01976083333334, "name": "36b686b46232328092b491265363e2c8", "is_disabled": 0, "rental_uris": {"android": "https://dc.lft.to/lastmile_qr_scan", "ios": "https://dc.lft.to/lastmile_qr_scan"}, "type": "electric_scooter", "lat": 38.897301, "is_reserved": 0, "fusion_lat": 0.0}, {"bike_id": "2c369a769bc3d6b996aa51118af144ac", "fusion_lon": 0.0, "lon": -77.04335816666666, "name": "2c369a769bc3d6b996aa51118af144ac", "is_disabled": 0, "rental_uris": {"android": "https://dc.lft.to/lastmile_qr_scan", "ios": "https://dc.lft.to/lastmile_qr_scan"}, "type": "electric_scooter", "lat": 38.907331666666664, "is_reserved": 0, "fusion_lat": 0.0}, {"bike_id": "0725f11981e398b4b1bae2ac88b6e67a", "fusion_lon": 0.0, "lon": -77.03975816666667, "name": "0725f11981e398b4b1bae2ac88b6e67a", "is_disabled": 0, "rental_uris": {"android": "https://dc.lft.to/lastmile_qr_scan", "ios": "https://dc.lft.to/lastmile_qr_scan"}, "type": "electric_scooter", "lat": 38.91201933333333, "is_reserved": 0, "fusion_lat": 0.0}, {"bike_id": "8b16efe0997e3f1875c7aa0bc9abcea4", "fusion_lon": 0.0, "lon": -77.0262785, "name": "8b16efe0997e3f1875c7aa0bc9abcea4", "is_disabled": 0, "rental_uris": {"android": "https://dc.lft.to/lastmile_qr_scan", "ios": "https://dc.lft.to/lastmile_qr_scan"}, "type": "electric_bike", "lat": 38.962250166666664, "is_reserved": 0, "fusion_lat": 0.0}, {"bike_id": "a69d8365e1b90380a449fc0e54c03d02", "fusion_lon": 0.0, "lon": -77.02408, "name": "a69d8365e1b90380a449fc0e54c03d02", "is_disabled": 0, "rental_uris": {"android": "https://dc.lft.to/lastmile_qr_scan", "ios": "https://dc.lft.to/lastmile_qr_scan"}, "type": "electric_scooter", "lat": 38.915981333333335, "is_reserved": 0, "fusion_lat": 0.0}, {"bike_id": "62a4f541d9d0a6870fc608a982edf220", "fusion_lon": 0.0, "lon": -77.02831383333333, "name": "62a4f541d9d0a6870fc608a982edf220", "is_disabled": 0, "rental_uris": {"android": "https://dc.lft.to/lastmile_qr_scan", "ios": "https://dc.lft.to/lastmile_qr_scan"}, "type": "electric_bike", "lat": 38.9650895, "is_reserved": 0, "fusion_lat": 0.0}, {"bike_id": "9a5f2ae15d369cade8c9d308a640a414", "fusion_lon": 0.0, "lon": -77.03484116666667, "name": "9a5f2ae15d369cade8c9d308a640a414", "is_disabled": 0, "rental_uris": {"android": "https://dc.lft.to/lastmile_qr_scan", "ios": "https://dc.lft.to/lastmile_qr_scan"}, "type": "electric_scooter", "lat": 38.918533833333335, "is_reserved": 0, "fusion_lat": 0.0}, {"bike_id": "a22b25a9c796ad88a0dc15d69a5ef094", "fusion_lon": 0.0, "lon": -77.03660583333334, "name": "a22b25a9c796ad88a0dc15d69a5ef094", "is_disabled": 0, "rental_uris": {"android": "https://dc.lft.to/lastmile_qr_scan", "ios": "https://dc.lft.to/lastmile_qr_scan"}, "type": "electric_scooter", "lat": 38.922868666666666, "is_reserved": 0, "fusion_lat": 0.0}, {"bike_id": "a537a060ab6b5d3c0a0e64bb2d4b2994", "fusion_lon": 0.0, "lon": -76.88378533333334, "name": "a537a060ab6b5d3c0a0e64bb2d4b2994", "is_disabled": 0, "rental_uris": {"android": "https://dc.lft.to/lastmile_qr_scan", "ios": "https://dc.lft.to/lastmile_qr_scan"}, "type": "electric_bike", "lat": 38.99822183333333, "is_reserved": 0, "fusion_lat": 0.0}, {"bike_id": "9c5c77b92641a23db5263a291bfa8f62", "fusion_lon": 0.0, "lon": -76.9770515, "name": "9c5c77b92641a23db5263a291bfa8f62", "is_disabled": 0, "rental_uris": {"android": "https://dc.lft.to/lastmile_qr_scan", "ios": "https://dc.lft.to/lastmile_qr_scan"}, "type": "electric_bike", "lat": 38.9491685, "is_reserved": 0, "fusion_lat": 0.0}, {"bike_id": "12ad4dda3f14a0d2b2524d1dcdaa00ed", "fusion_lon": 0.0, "lon": -77.0323885, "name": "12ad4dda3f14a0d2b2524d1dcdaa00ed", "is_disabled": 0, "rental_uris": {"android": "https://dc.lft.to/lastmile_qr_scan", "ios": "https://dc.lft.to/lastmile_qr_scan"}, "type": "electric_scooter", "lat": 38.92016066666667, "is_reserved": 0, "fusion_lat": 0.0}, {"bike_id": "770093aea79cc2c71677aeb9fd280d19", "fusion_lon": 0.0, "lon": -77.0276495, "name": "770093aea79cc2c71677aeb9fd280d19", "is_disabled": 0, "rental_uris": {"android": "https://dc.lft.to/lastmile_qr_scan", "ios": "https://dc.lft.to/lastmile_qr_scan"}, "type": "electric_scooter", "lat": 38.95607033333334, "is_reserved": 0, "fusion_lat": 0.0}, {"bike_id": "f50fe80c87a6b1ac563fe770e91f5b05", "fusion_lon": 0.0, "lon": -76.98513566666666, "name": "f50fe80c87a6b1ac563fe770e91f5b05", "is_disabled": 0, "rental_uris": {"android": "https://dc.lft.to/lastmile_qr_scan", "ios": "https://dc.lft.to/lastmile_qr_scan"}, "type": "electric_scooter", "lat": 38.8666325, "is_reserved": 0, "fusion_lat": 0.0}, {"bike_id": "15dcfb76ceb3300db42cf09cd57120e3", "fusion_lon": 0.0, "lon": -77.05697283333333, "name": "15dcfb76ceb3300db42cf09cd57120e3", "is_disabled": 0, "rental_uris": {"android": "https://dc.lft.to/lastmile_qr_scan", "ios": "https://dc.lft.to/lastmile_qr_scan"}, "type": "electric_bike", "lat": 38.935319, "is_reserved": 0, "fusion_lat": 0.0}, {"bike_id": "8117b7e23dc9c800071d584645c7bdd6", "fusion_lon": 0.0, "lon": -77.03050616666667, "name": "8117b7e23dc9c800071d584645c7bdd6", "is_disabled": 0, "rental_uris": {"android": "https://dc.lft.to/lastmile_qr_scan", "ios": "https://dc.lft.to/lastmile_qr_scan"}, "type": "electric_scooter", "lat": 38.88395283333333, "is_reserved": 0, "fusion_lat": 0.0}, {"bike_id": "fd04ddb92f6a740b0313ca9e8418e6fa", "fusion_lon": 0.0, "lon": -77.0294345, "name": "fd04ddb92f6a740b0313ca9e8418e6fa", "is_disabled": 0, "rental_uris": {"android": "https://dc.lft.to/lastmile_qr_scan", "ios": "https://dc.lft.to/lastmile_qr_scan"}, "type": "electric_scooter", "lat": 38.904918, "is_reserved": 0, "fusion_lat": 0.0}, {"bike_id": "b5947a852846def2b055090d44cff741", "fusion_lon": 0.0, "lon": -76.98276383333334, "name": "b5947a852846def2b055090d44cff741", "is_disabled": 0, "rental_uris": {"android": "https://dc.lft.to/lastmile_qr_scan", "ios": "https://dc.lft.to/lastmile_qr_scan"}, "type": "electric_scooter", "lat": 38.904306166666665, "is_reserved": 0, "fusion_lat": 0.0}, {"bike_id": "14b6eeb6eae03e1f4aa435cdff54cefb", "fusion_lon": 0.0, "lon": -77.02256033333333, "name": "14b6eeb6eae03e1f4aa435cdff54cefb", "is_disabled": 0, "rental_uris": {"android": "https://dc.lft.to/lastmile_qr_scan", "ios": "https://dc.lft.to/lastmile_qr_scan"}, "type": "electric_scooter", "lat": 38.9230745, "is_reserved": 0, "fusion_lat": 0.0}, {"bike_id": "afd174907e3e4400507f397d3f6d4458", "fusion_lon": 0.0, "lon": -77.04166866666667, "name": "afd174907e3e4400507f397d3f6d4458", "is_disabled": 0, "rental_uris": {"android": "https://dc.lft.to/lastmile_qr_scan", "ios": "https://dc.lft.to/lastmile_qr_scan"}, "type": "electric_scooter", "lat": 38.91652766666667, "is_reserved": 0, "fusion_lat": 0.0}, {"bike_id": "65561df43cf1aff525cea1ed84b56740", "fusion_lon": 0.0, "lon": -77.02716816666667, "name": "65561df43cf1aff525cea1ed84b56740", "is_disabled": 0, "rental_uris": {"android": "https://dc.lft.to/lastmile_qr_scan", "ios": "https://dc.lft.to/lastmile_qr_scan"}, "type": "electric_scooter", "lat": 38.8960825, "is_reserved": 0, "fusion_lat": 0.0}, {"bike_id": "60365483c685f2348070b761e4c5e3f3", "fusion_lon": 0.0, "lon": -76.99557883333334, "name": "60365483c685f2348070b761e4c5e3f3", "is_disabled": 0, "rental_uris": {"android": "https://dc.lft.to/lastmile_qr_scan", "ios": "https://dc.lft.to/lastmile_qr_scan"}, "type": "electric_scooter", "lat": 38.88265533333333, "is_reserved": 0, "fusion_lat": 0.0}, {"bike_id": "ee861551d828e9fd96557175243aa18d", "fusion_lon": 0.0, "lon": -76.99777333333333, "name": "ee861551d828e9fd96557175243aa18d", "is_disabled": 0, "rental_uris": {"android": "https://dc.lft.to/lastmile_qr_scan", "ios": "https://dc.lft.to/lastmile_qr_scan"}, "type": "electric_scooter", "lat": 38.844309, "is_reserved": 0, "fusion_lat": 0.0}, {"bike_id": "24c3bcc40143c1d6eaa51883235054b0", "fusion_lon": 0.0, "lon": -76.98311183333334, "name": "24c3bcc40143c1d6eaa51883235054b0", "is_disabled": 0, "rental_uris": {"android": "https://dc.lft.to/lastmile_qr_scan", "ios": "https://dc.lft.to/lastmile_qr_scan"}, "type": "electric_scooter", "lat": 38.86894233333334, "is_reserved": 0, "fusion_lat": 0.0}, {"bike_id": "bb68d702e483e8d38813fe34a9d8fbfe", "fusion_lon": 0.0, "lon": -77.04351933333334, "name": "bb68d702e483e8d38813fe34a9d8fbfe", "is_disabled": 0, "rental_uris": {"android": "https://dc.lft.to/lastmile_qr_scan", "ios": "https://dc.lft.to/lastmile_qr_scan"}, "type": "electric_scooter", "lat": 38.921729, "is_reserved": 0, "fusion_lat": 0.0}, {"bike_id": "34d869729a3ff4aa4110c8a5ea1f5971", "fusion_lon": 0.0, "lon": -77.0326815, "name": "34d869729a3ff4aa4110c8a5ea1f5971", "is_disabled": 0, "rental_uris": {"android": "https://dc.lft.to/lastmile_qr_scan", "ios": "https://dc.lft.to/lastmile_qr_scan"}, "type": "electric_scooter", "lat": 38.933038833333335, "is_reserved": 0, "fusion_lat": 0.0}, {"bike_id": "e8277c01e464cbfdd9fe32fd255977fe", "fusion_lon": 0.0, "lon": -77.03208833333333, "name": "e8277c01e464cbfdd9fe32fd255977fe", "is_disabled": 0, "rental_uris": {"android": "https://dc.lft.to/lastmile_qr_scan", "ios": "https://dc.lft.to/lastmile_qr_scan"}, "type": "electric_scooter", "lat": 38.895701833333334, "is_reserved": 0, "fusion_lat": 0.0}, {"bike_id": "daa36f81abeb44ed2e5e82b66c571356", "fusion_lon": 0.0, "lon": -77.05290816666667, "name": "daa36f81abeb44ed2e5e82b66c571356", "is_disabled": 0, "rental_uris": {"android": "https://dc.lft.to/lastmile_qr_scan", "ios": "https://dc.lft.to/lastmile_qr_scan"}, "type": "electric_scooter", "lat": 38.92717533333333, "is_reserved": 0, "fusion_lat": 0.0}, {"bike_id": "362fbdfecfe47b736174e1958736e684", "fusion_lon": 0.0, "lon": -77.003172, "name": "362fbdfecfe47b736174e1958736e684", "is_disabled": 0, "rental_uris": {"android": "https://dc.lft.to/lastmile_qr_scan", "ios": "https://dc.lft.to/lastmile_qr_scan"}, "type": "electric_scooter", "lat": 38.90881, "is_reserved": 0, "fusion_lat": 0.0}, {"bike_id": "d14eb096734c98be49256248220275f2", "fusion_lon": 0.0, "lon": -77.00568333333334, "name": "d14eb096734c98be49256248220275f2", "is_disabled": 0, "rental_uris": {"android": "https://dc.lft.to/lastmile_qr_scan", "ios": "https://dc.lft.to/lastmile_qr_scan"}, "type": "electric_scooter", "lat": 38.905697833333335, "is_reserved": 0, "fusion_lat": 0.0}, {"bike_id": "ba5e59700bcf2d176db2fbc75f2d1814", "fusion_lon": 0.0, "lon": -77.0542925, "name": "ba5e59700bcf2d176db2fbc75f2d1814", "is_disabled": 0, "rental_uris": {"android": "https://dc.lft.to/lastmile_qr_scan", "ios": "https://dc.lft.to/lastmile_qr_scan"}, "type": "electric_scooter", "lat": 38.923411, "is_reserved": 0, "fusion_lat": 0.0}, {"bike_id": "32662402b9701feb0eac6704c9380e39", "fusion_lon": 0.0, "lon": -77.0228885, "name": "32662402b9701feb0eac6704c9380e39", "is_disabled": 0, "rental_uris": {"android": "https://dc.lft.to/lastmile_qr_scan", "ios": "https://dc.lft.to/lastmile_qr_scan"}, "type": "electric_scooter", "lat": 38.915679, "is_reserved": 0, "fusion_lat": 0.0}, {"bike_id": "6dfd98ce0a854de9e53a1b991ef97b4a", "fusion_lon": 0.0, "lon": -77.03801633333333, "name": "6dfd98ce0a854de9e53a1b991ef97b4a", "is_disabled": 0, "rental_uris": {"android": "https://dc.lft.to/lastmile_qr_scan", "ios": "https://dc.lft.to/lastmile_qr_scan"}, "type": "electric_scooter", "lat": 38.9218755, "is_reserved": 0, "fusion_lat": 0.0}, {"bike_id": "e192e5939559ab6d6da42b6c7940d5a7", "fusion_lon": 0.0, "lon": -77.05329716666667, "name": "e192e5939559ab6d6da42b6c7940d5a7", "is_disabled": 0, "rental_uris": {"android": "https://dc.lft.to/lastmile_qr_scan", "ios": "https://dc.lft.to/lastmile_qr_scan"}, "type": "electric_scooter", "lat": 38.90417716666666, "is_reserved": 0, "fusion_lat": 0.0}, {"bike_id": "95dbab8e34e91c46a150e664c1e2ca8d", "fusion_lon": 0.0, "lon": -77.05265316666667, "name": "95dbab8e34e91c46a150e664c1e2ca8d", "is_disabled": 0, "rental_uris": {"android": "https://dc.lft.to/lastmile_qr_scan", "ios": "https://dc.lft.to/lastmile_qr_scan"}, "type": "electric_scooter", "lat": 38.89971533333333, "is_reserved": 0, "fusion_lat": 0.0}, {"bike_id": "d6bfcd5f9f2e4ac92bfe6c5ee451781b", "fusion_lon": 0.0, "lon": -77.0097135, "name": "d6bfcd5f9f2e4ac92bfe6c5ee451781b", "is_disabled": 0, "rental_uris": {"android": "https://dc.lft.to/lastmile_qr_scan", "ios": "https://dc.lft.to/lastmile_qr_scan"}, "type": "electric_scooter", "lat": 38.915626833333334, "is_reserved": 0, "fusion_lat": 0.0}, {"bike_id": "f5933aef810def6955a9316501247561", "fusion_lon": 0.0, "lon": -77.038452, "name": "f5933aef810def6955a9316501247561", "is_disabled": 0, "rental_uris": {"android": "https://dc.lft.to/lastmile_qr_scan", "ios": "https://dc.lft.to/lastmile_qr_scan"}, "type": "electric_scooter", "lat": 38.90954583333333, "is_reserved": 0, "fusion_lat": 0.0}, {"bike_id": "e0f2ab3e96ec34e3b904a26845871eab", "fusion_lon": 0.0, "lon": -76.93527266666666, "name": "e0f2ab3e96ec34e3b904a26845871eab", "is_disabled": 0, "rental_uris": {"android": "https://dc.lft.to/lastmile_qr_scan", "ios": "https://dc.lft.to/lastmile_qr_scan"}, "type": "electric_scooter", "lat": 38.87895916666667, "is_reserved": 0, "fusion_lat": 0.0}, {"bike_id": "bf365760be5d2cdf8f3beb5691e5f94e", "fusion_lon": 0.0, "lon": -77.03657566666666, "name": "bf365760be5d2cdf8f3beb5691e5f94e", "is_disabled": 0, "rental_uris": {"android": "https://dc.lft.to/lastmile_qr_scan", "ios": "https://dc.lft.to/lastmile_qr_scan"}, "type": "electric_scooter", "lat": 38.9209245, "is_reserved": 0, "fusion_lat": 0.0}, {"bike_id": "91b491b8bd36b52bc7265763e2611d90", "fusion_lon": 0.0, "lon": -77.03488033333333, "name": "91b491b8bd36b52bc7265763e2611d90", "is_disabled": 0, "rental_uris": {"android": "https://dc.lft.to/lastmile_qr_scan", "ios": "https://dc.lft.to/lastmile_qr_scan"}, "type": "electric_scooter", "lat": 38.93270183333333, "is_reserved": 0, "fusion_lat": 0.0}, {"bike_id": "6c84e3f47b1d3bf55a2b7fbd160e30f3", "fusion_lon": 0.0, "lon": -77.039894, "name": "6c84e3f47b1d3bf55a2b7fbd160e30f3", "is_disabled": 0, "rental_uris": {"android": "https://dc.lft.to/lastmile_qr_scan", "ios": "https://dc.lft.to/lastmile_qr_scan"}, "type": "electric_bike", "lat": 38.93333033333333, "is_reserved": 0, "fusion_lat": 0.0}, {"bike_id": "fc782c3260a17d69dcc0a56114b5aaaa", "fusion_lon": 0.0, "lon": -77.041061, "name": "fc782c3260a17d69dcc0a56114b5aaaa", "is_disabled": 0, "rental_uris": {"android": "https://dc.lft.to/lastmile_qr_scan", "ios": "https://dc.lft.to/lastmile_qr_scan"}, "type": "electric_scooter", "lat": 38.92449883333333, "is_reserved": 0, "fusion_lat": 0.0}, {"bike_id": "0d4e334b7fadccd43223b9eb5ea88e00", "fusion_lon": 0.0, "lon": -77.16091233333333, "name": "0d4e334b7fadccd43223b9eb5ea88e00", "is_disabled": 0, "rental_uris": {"android": "https://dc.lft.to/lastmile_qr_scan", "ios": "https://dc.lft.to/lastmile_qr_scan"}, "type": "electric_bike", "lat": 38.88680383333333, "is_reserved": 0, "fusion_lat": 0.0}, {"bike_id": "c9ea48f949a10e8b0e87c69b3da8253a", "fusion_lon": 0.0, "lon": -77.079151, "name": "c9ea48f949a10e8b0e87c69b3da8253a", "is_disabled": 0, "rental_uris": {"android": "https://dc.lft.to/lastmile_qr_scan", "ios": "https://dc.lft.to/lastmile_qr_scan"}, "type": "electric_bike", "lat": 38.802294833333335, "is_reserved": 0, "fusion_lat": 0.0}, {"bike_id": "48e39ceabd810acb28a306b362f854aa", "fusion_lon": 0.0, "lon": -77.0449395, "name": "48e39ceabd810acb28a306b362f854aa", "is_disabled": 0, "rental_uris": {"android": "https://dc.lft.to/lastmile_qr_scan", "ios": "https://dc.lft.to/lastmile_qr_scan"}, "type": "electric_scooter", "lat": 38.90132583333333, "is_reserved": 0, "fusion_lat": 0.0}, {"bike_id": "e975dbfeadf19fc1b9e24e52ee05ce29", "fusion_lon": 0.0, "lon": -76.9884625, "name": "e975dbfeadf19fc1b9e24e52ee05ce29", "is_disabled": 0, "rental_uris": {"android": "https://dc.lft.to/lastmile_qr_scan", "ios": "https://dc.lft.to/lastmile_qr_scan"}, "type": "electric_bike", "lat": 38.84275933333333, "is_reserved": 0, "fusion_lat": 0.0}, {"bike_id": "d1958dd447ee20155c3b383abcc0ae2f", "fusion_lon": 0.0, "lon": -77.04355366666667, "name": "d1958dd447ee20155c3b383abcc0ae2f", "is_disabled": 0, "rental_uris": {"android": "https://dc.lft.to/lastmile_qr_scan", "ios": "https://dc.lft.to/lastmile_qr_scan"}, "type": "electric_scooter", "lat": 38.902300333333336, "is_reserved": 0, "fusion_lat": 0.0}, {"bike_id": "d09bd5ea192ac0be3cc16658adc62240", "fusion_lon": 0.0, "lon": -76.98250916666667, "name": "d09bd5ea192ac0be3cc16658adc62240", "is_disabled": 0, "rental_uris": {"android": "https://dc.lft.to/lastmile_qr_scan", "ios": "https://dc.lft.to/lastmile_qr_scan"}, "type": "electric_bike", "lat": 38.95330966666667, "is_reserved": 0, "fusion_lat": 0.0}, {"bike_id": "3e535b9c616f146bc264fc8b61e95e0c", "fusion_lon": 0.0, "lon": -77.03266816666667, "name": "3e535b9c616f146bc264fc8b61e95e0c", "is_disabled": 0, "rental_uris": {"android": "https://dc.lft.to/lastmile_qr_scan", "ios": "https://dc.lft.to/lastmile_qr_scan"}, "type": "electric_scooter", "lat": 38.93310316666667, "is_reserved": 0, "fusion_lat": 0.0}, {"bike_id": "10e6fa559383ba12a6a8145886fc7a0f", "fusion_lon": 0.0, "lon": -76.98703, "name": "10e6fa559383ba12a6a8145886fc7a0f", "is_disabled": 0, "rental_uris": {"android": "https://dc.lft.to/lastmile_qr_scan", "ios": "https://dc.lft.to/lastmile_qr_scan"}, "type": "electric_scooter", "lat": 38.85962583333333, "is_reserved": 0, "fusion_lat": 0.0}, {"bike_id": "beefb7a2b1b421708e9079c550f773f3", "fusion_lon": 0.0, "lon": -76.96547133333334, "name": "beefb7a2b1b421708e9079c550f773f3", "is_disabled": 0, "rental_uris": {"android": "https://dc.lft.to/lastmile_qr_scan", "ios": "https://dc.lft.to/lastmile_qr_scan"}, "type": "electric_scooter", "lat": 38.918713833333335, "is_reserved": 0, "fusion_lat": 0.0}, {"bike_id": "c175fb41047c787b9b98f47054336dfb", "fusion_lon": 0.0, "lon": -76.99499116666667, "name": "c175fb41047c787b9b98f47054336dfb", "is_disabled": 0, "rental_uris": {"android": "https://dc.lft.to/lastmile_qr_scan", "ios": "https://dc.lft.to/lastmile_qr_scan"}, "type": "electric_scooter", "lat": 38.891579166666666, "is_reserved": 0, "fusion_lat": 0.0}, {"bike_id": "da8ccf7d89863c671694683eeb144dfe", "fusion_lon": 0.0, "lon": -77.0091975, "name": "da8ccf7d89863c671694683eeb144dfe", "is_disabled": 0, "rental_uris": {"android": "https://dc.lft.to/lastmile_qr_scan", "ios": "https://dc.lft.to/lastmile_qr_scan"}, "type": "electric_scooter", "lat": 38.827862833333334, "is_reserved": 0, "fusion_lat": 0.0}, {"bike_id": "0b43b59f0a6a0a794afe0f447b234b2d", "fusion_lon": 0.0, "lon": -76.99714716666666, "name": "0b43b59f0a6a0a794afe0f447b234b2d", "is_disabled": 0, "rental_uris": {"android": "https://dc.lft.to/lastmile_qr_scan", "ios": "https://dc.lft.to/lastmile_qr_scan"}, "type": "electric_bike", "lat": 38.910943333333336, "is_reserved": 0, "fusion_lat": 0.0}, {"bike_id": "8773de927e11328eb9cc14f134257fda", "fusion_lon": 0.0, "lon": -77.01855, "name": "8773de927e11328eb9cc14f134257fda", "is_disabled": 0, "rental_uris": {"android": "https://dc.lft.to/lastmile_qr_scan", "ios": "https://dc.lft.to/lastmile_qr_scan"}, "type": "electric_scooter", "lat": 38.973699333333336, "is_reserved": 0, "fusion_lat": 0.0}, {"bike_id": "609c549367ec74ced3e13e3f174d8018", "fusion_lon": 0.0, "lon": -77.00933983333333, "name": "609c549367ec74ced3e13e3f174d8018", "is_disabled": 0, "rental_uris": {"android": "https://dc.lft.to/lastmile_qr_scan", "ios": "https://dc.lft.to/lastmile_qr_scan"}, "type": "electric_scooter", "lat": 38.897257, "is_reserved": 0, "fusion_lat": 0.0}, {"bike_id": "53c5a1ada7409d93cceeedd37ec1e468", "fusion_lon": 0.0, "lon": -77.03186933333333, "name": "53c5a1ada7409d93cceeedd37ec1e468", "is_disabled": 0, "rental_uris": {"android": "https://dc.lft.to/lastmile_qr_scan", "ios": "https://dc.lft.to/lastmile_qr_scan"}, "type": "electric_scooter", "lat": 38.92488183333333, "is_reserved": 0, "fusion_lat": 0.0}, {"bike_id": "ccc6b8cafc180b99f04acea490fde521", "fusion_lon": 0.0, "lon": -77.02429116666667, "name": "ccc6b8cafc180b99f04acea490fde521", "is_disabled": 0, "rental_uris": {"android": "https://dc.lft.to/lastmile_qr_scan", "ios": "https://dc.lft.to/lastmile_qr_scan"}, "type": "electric_scooter", "lat": 38.91902433333333, "is_reserved": 0, "fusion_lat": 0.0}, {"bike_id": "741f0246bf821fa6745feeafeec93b60", "fusion_lon": 0.0, "lon": -77.02906716666666, "name": "741f0246bf821fa6745feeafeec93b60", "is_disabled": 0, "rental_uris": {"android": "https://dc.lft.to/lastmile_qr_scan", "ios": "https://dc.lft.to/lastmile_qr_scan"}, "type": "electric_scooter", "lat": 38.92814633333333, "is_reserved": 0, "fusion_lat": 0.0}, {"bike_id": "7252648eb14a23c919398fa6b202f82a", "fusion_lon": 0.0, "lon": -77.03754583333334, "name": "7252648eb14a23c919398fa6b202f82a", "is_disabled": 0, "rental_uris": {"android": "https://dc.lft.to/lastmile_qr_scan", "ios": "https://dc.lft.to/lastmile_qr_scan"}, "type": "electric_scooter", "lat": 38.9260565, "is_reserved": 0, "fusion_lat": 0.0}, {"bike_id": "c35d6a318acb288be74b625089c96d42", "fusion_lon": 0.0, "lon": -77.02831916666666, "name": "c35d6a318acb288be74b625089c96d42", "is_disabled": 0, "rental_uris": {"android": "https://dc.lft.to/lastmile_qr_scan", "ios": "https://dc.lft.to/lastmile_qr_scan"}, "type": "electric_scooter", "lat": 38.924844, "is_reserved": 0, "fusion_lat": 0.0}, {"bike_id": "629e79bd3ea991caeec6399d707c54bd", "fusion_lon": 0.0, "lon": -77.113266, "name": "629e79bd3ea991caeec6399d707c54bd", "is_disabled": 0, "rental_uris": {"android": "https://dc.lft.to/lastmile_qr_scan", "ios": "https://dc.lft.to/lastmile_qr_scan"}, "type": "electric_bike", "lat": 38.83156983333333, "is_reserved": 0, "fusion_lat": 0.0}, {"bike_id": "a99d02bf8b83da933ec2e07dd0636336", "fusion_lon": 0.0, "lon": -77.01140216666667, "name": "a99d02bf8b83da933ec2e07dd0636336", "is_disabled": 0, "rental_uris": {"android": "https://dc.lft.to/lastmile_qr_scan", "ios": "https://dc.lft.to/lastmile_qr_scan"}, "type": "electric_scooter", "lat": 38.90643566666667, "is_reserved": 0, "fusion_lat": 0.0}, {"bike_id": "14e6c320c29d23abbfe04c2fbd143142", "fusion_lon": 0.0, "lon": -77.20837616666667, "name": "14e6c320c29d23abbfe04c2fbd143142", "is_disabled": 0, "rental_uris": {"android": "https://dc.lft.to/lastmile_qr_scan", "ios": "https://dc.lft.to/lastmile_qr_scan"}, "type": "electric_bike", "lat": 38.92469583333333, "is_reserved": 0, "fusion_lat": 0.0}, {"bike_id": "708ccda5c7a765e609deb8f319b0fcf7", "fusion_lon": 0.0, "lon": -77.03659816666666, "name": "708ccda5c7a765e609deb8f319b0fcf7", "is_disabled": 0, "rental_uris": {"android": "https://dc.lft.to/lastmile_qr_scan", "ios": "https://dc.lft.to/lastmile_qr_scan"}, "type": "electric_scooter", "lat": 38.936283333333336, "is_reserved": 0, "fusion_lat": 0.0}, {"bike_id": "bbbe990e4e277d2fad5f2911dac50939", "fusion_lon": 0.0, "lon": -77.01453066666667, "name": "bbbe990e4e277d2fad5f2911dac50939", "is_disabled": 0, "rental_uris": {"android": "https://dc.lft.to/lastmile_qr_scan", "ios": "https://dc.lft.to/lastmile_qr_scan"}, "type": "electric_scooter", "lat": 38.91774233333334, "is_reserved": 0, "fusion_lat": 0.0}, {"bike_id": "f2d80030ff99368f11f375772ae2fb37", "fusion_lon": 0.0, "lon": -76.9970485, "name": "f2d80030ff99368f11f375772ae2fb37", "is_disabled": 0, "rental_uris": {"android": "https://dc.lft.to/lastmile_qr_scan", "ios": "https://dc.lft.to/lastmile_qr_scan"}, "type": "electric_scooter", "lat": 38.9219115, "is_reserved": 0, "fusion_lat": 0.0}, {"bike_id": "925d5d3dbe18c53ff70ad8933e0aca17", "fusion_lon": 0.0, "lon": -77.02043533333334, "name": "925d5d3dbe18c53ff70ad8933e0aca17", "is_disabled": 0, "rental_uris": {"android": "https://dc.lft.to/lastmile_qr_scan", "ios": "https://dc.lft.to/lastmile_qr_scan"}, "type": "electric_scooter", "lat": 38.90848283333333, "is_reserved": 0, "fusion_lat": 0.0}, {"bike_id": "187f0feaa30670ebda455de784daeadb", "fusion_lon": 0.0, "lon": -77.0383715, "name": "187f0feaa30670ebda455de784daeadb", "is_disabled": 0, "rental_uris": {"android": "https://dc.lft.to/lastmile_qr_scan", "ios": "https://dc.lft.to/lastmile_qr_scan"}, "type": "electric_scooter", "lat": 38.91109183333333, "is_reserved": 0, "fusion_lat": 0.0}, {"bike_id": "d0aa53277204b32166d929ba0fc42081", "fusion_lon": 0.0, "lon": -77.11312483333333, "name": "d0aa53277204b32166d929ba0fc42081", "is_disabled": 0, "rental_uris": {"android": "https://dc.lft.to/lastmile_qr_scan", "ios": "https://dc.lft.to/lastmile_qr_scan"}, "type": "electric_bike", "lat": 38.855673333333336, "is_reserved": 0, "fusion_lat": 0.0}, {"bike_id": "3e8c9ef61de67c89138f48df8b599a0b", "fusion_lon": 0.0, "lon": -76.99265633333333, "name": "3e8c9ef61de67c89138f48df8b599a0b", "is_disabled": 0, "rental_uris": {"android": "https://dc.lft.to/lastmile_qr_scan", "ios": "https://dc.lft.to/lastmile_qr_scan"}, "type": "electric_scooter", "lat": 38.90392033333333, "is_reserved": 0, "fusion_lat": 0.0}, {"bike_id": "37447fa297b5011b41ade676dbccc8ed", "fusion_lon": 0.0, "lon": -76.98036733333333, "name": "37447fa297b5011b41ade676dbccc8ed", "is_disabled": 0, "rental_uris": {"android": "https://dc.lft.to/lastmile_qr_scan", "ios": "https://dc.lft.to/lastmile_qr_scan"}, "type": "electric_scooter", "lat": 38.8533405, "is_reserved": 0, "fusion_lat": 0.0}, {"bike_id": "6af64cecd3bd5dd5c41c5280a646d3a3", "fusion_lon": 0.0, "lon": -77.04872783333333, "name": "6af64cecd3bd5dd5c41c5280a646d3a3", "is_disabled": 0, "rental_uris": {"android": "https://dc.lft.to/lastmile_qr_scan", "ios": "https://dc.lft.to/lastmile_qr_scan"}, "type": "electric_scooter", "lat": 38.89222066666667, "is_reserved": 0, "fusion_lat": 0.0}, {"bike_id": "7546112acd1b090e082b1059ecdd56cb", "fusion_lon": 0.0, "lon": -77.04697266666666, "name": "7546112acd1b090e082b1059ecdd56cb", "is_disabled": 0, "rental_uris": {"android": "https://dc.lft.to/lastmile_qr_scan", "ios": "https://dc.lft.to/lastmile_qr_scan"}, "type": "electric_scooter", "lat": 38.92111766666667, "is_reserved": 0, "fusion_lat": 0.0}, {"bike_id": "cce27f0f68e83228b7fc6e9eb10b4f1e", "fusion_lon": 0.0, "lon": -77.019495, "name": "cce27f0f68e83228b7fc6e9eb10b4f1e", "is_disabled": 0, "rental_uris": {"android": "https://dc.lft.to/lastmile_qr_scan", "ios": "https://dc.lft.to/lastmile_qr_scan"}, "type": "electric_scooter", "lat": 38.924195166666664, "is_reserved": 0, "fusion_lat": 0.0}, {"bike_id": "08e9e1111ae35d8ee427d4f6c3fea098", "fusion_lon": 0.0, "lon": -77.03084316666667, "name": "08e9e1111ae35d8ee427d4f6c3fea098", "is_disabled": 0, "rental_uris": {"android": "https://dc.lft.to/lastmile_qr_scan", "ios": "https://dc.lft.to/lastmile_qr_scan"}, "type": "electric_scooter", "lat": 38.922536666666666, "is_reserved": 0, "fusion_lat": 0.0}, {"bike_id": "ca25c1b287d63f711a04e35e22af1761", "fusion_lon": 0.0, "lon": -77.00590416666667, "name": "ca25c1b287d63f711a04e35e22af1761", "is_disabled": 0, "rental_uris": {"android": "https://dc.lft.to/lastmile_qr_scan", "ios": "https://dc.lft.to/lastmile_qr_scan"}, "type": "electric_scooter", "lat": 38.905583166666666, "is_reserved": 0, "fusion_lat": 0.0}, {"bike_id": "aa2a2f12502c5bb6f7b47ff651a6c9c3", "fusion_lon": 0.0, "lon": -77.011558, "name": "aa2a2f12502c5bb6f7b47ff651a6c9c3", "is_disabled": 0, "rental_uris": {"android": "https://dc.lft.to/lastmile_qr_scan", "ios": "https://dc.lft.to/lastmile_qr_scan"}, "type": "electric_scooter", "lat": 38.911820666666664, "is_reserved": 0, "fusion_lat": 0.0}, {"bike_id": "dfb64c0e970c83f24fdda5f3823c1fbd", "fusion_lon": 0.0, "lon": -77.05277216666667, "name": "dfb64c0e970c83f24fdda5f3823c1fbd", "is_disabled": 0, "rental_uris": {"android": "https://dc.lft.to/lastmile_qr_scan", "ios": "https://dc.lft.to/lastmile_qr_scan"}, "type": "electric_scooter", "lat": 38.9254835, "is_reserved": 0, "fusion_lat": 0.0}, {"bike_id": "6357aecbf088a99753b55051b920b044", "fusion_lon": 0.0, "lon": -77.00123266666667, "name": "6357aecbf088a99753b55051b920b044", "is_disabled": 0, "rental_uris": {"android": "https://dc.lft.to/lastmile_qr_scan", "ios": "https://dc.lft.to/lastmile_qr_scan"}, "type": "electric_scooter", "lat": 38.905553166666664, "is_reserved": 0, "fusion_lat": 0.0}, {"bike_id": "6bb213f4f616636783e0205a1f3ebdf8", "fusion_lon": 0.0, "lon": -76.99533833333334, "name": "6bb213f4f616636783e0205a1f3ebdf8", "is_disabled": 0, "rental_uris": {"android": "https://dc.lft.to/lastmile_qr_scan", "ios": "https://dc.lft.to/lastmile_qr_scan"}, "type": "electric_bike", "lat": 38.900295166666666, "is_reserved": 0, "fusion_lat": 0.0}, {"bike_id": "bc68f98fba4956d7b88d027a9d82bef6", "fusion_lon": 0.0, "lon": -76.999664, "name": "bc68f98fba4956d7b88d027a9d82bef6", "is_disabled": 0, "rental_uris": {"android": "https://dc.lft.to/lastmile_qr_scan", "ios": "https://dc.lft.to/lastmile_qr_scan"}, "type": "electric_scooter", "lat": 38.92445816666667, "is_reserved": 0, "fusion_lat": 0.0}, {"bike_id": "d23f971ac9cb5d0f29a94a72b7b09808", "fusion_lon": 0.0, "lon": -77.04883033333333, "name": "d23f971ac9cb5d0f29a94a72b7b09808", "is_disabled": 0, "rental_uris": {"android": "https://dc.lft.to/lastmile_qr_scan", "ios": "https://dc.lft.to/lastmile_qr_scan"}, "type": "electric_scooter", "lat": 38.898890333333334, "is_reserved": 0, "fusion_lat": 0.0}, {"bike_id": "4a87277e05b9322226ddbe3a500e1eda", "fusion_lon": 0.0, "lon": -77.0487845, "name": "4a87277e05b9322226ddbe3a500e1eda", "is_disabled": 0, "rental_uris": {"android": "https://dc.lft.to/lastmile_qr_scan", "ios": "https://dc.lft.to/lastmile_qr_scan"}, "type": "electric_scooter", "lat": 38.905689833333334, "is_reserved": 0, "fusion_lat": 0.0}, {"bike_id": "da15d1992136448e064252c3a274a488", "fusion_lon": 0.0, "lon": -76.9860955, "name": "da15d1992136448e064252c3a274a488", "is_disabled": 0, "rental_uris": {"android": "https://dc.lft.to/lastmile_qr_scan", "ios": "https://dc.lft.to/lastmile_qr_scan"}, "type": "electric_scooter", "lat": 38.87836083333333, "is_reserved": 0, "fusion_lat": 0.0}, {"bike_id": "b8e179cdd9dca674e4e4d4e7dcb269f6", "fusion_lon": 0.0, "lon": -77.02206433333333, "name": "b8e179cdd9dca674e4e4d4e7dcb269f6", "is_disabled": 0, "rental_uris": {"android": "https://dc.lft.to/lastmile_qr_scan", "ios": "https://dc.lft.to/lastmile_qr_scan"}, "type": "electric_scooter", "lat": 38.87890933333333, "is_reserved": 0, "fusion_lat": 0.0}, {"bike_id": "c0d2a1f7627f4f2ea7dbf0053a839015", "fusion_lon": 0.0, "lon": -77.02564933333333, "name": "c0d2a1f7627f4f2ea7dbf0053a839015", "is_disabled": 0, "rental_uris": {"android": "https://dc.lft.to/lastmile_qr_scan", "ios": "https://dc.lft.to/lastmile_qr_scan"}, "type": "electric_scooter", "lat": 38.9147835, "is_reserved": 0, "fusion_lat": 0.0}, {"bike_id": "38a0627798661cdd64efc3dac272a0ff", "fusion_lon": 0.0, "lon": -77.032992, "name": "38a0627798661cdd64efc3dac272a0ff", "is_disabled": 0, "rental_uris": {"android": "https://dc.lft.to/lastmile_qr_scan", "ios": "https://dc.lft.to/lastmile_qr_scan"}, "type": "electric_scooter", "lat": 38.920570166666664, "is_reserved": 0, "fusion_lat": 0.0}, {"bike_id": "9323e472d9c89a93e90510abd4363fc2", "fusion_lon": 0.0, "lon": -77.04627983333333, "name": "9323e472d9c89a93e90510abd4363fc2", "is_disabled": 0, "rental_uris": {"android": "https://dc.lft.to/lastmile_qr_scan", "ios": "https://dc.lft.to/lastmile_qr_scan"}, "type": "electric_scooter", "lat": 38.919270833333336, "is_reserved": 0, "fusion_lat": 0.0}, {"bike_id": "7f205922d625bc9d026610c9524125cb", "fusion_lon": 0.0, "lon": -77.04354683333334, "name": "7f205922d625bc9d026610c9524125cb", "is_disabled": 0, "rental_uris": {"android": "https://dc.lft.to/lastmile_qr_scan", "ios": "https://dc.lft.to/lastmile_qr_scan"}, "type": "electric_scooter", "lat": 38.92139016666667, "is_reserved": 0, "fusion_lat": 0.0}, {"bike_id": "ed56cefdec8b0c98e933dc5b68e38c41", "fusion_lon": 0.0, "lon": -77.0183755, "name": "ed56cefdec8b0c98e933dc5b68e38c41", "is_disabled": 0, "rental_uris": {"android": "https://dc.lft.to/lastmile_qr_scan", "ios": "https://dc.lft.to/lastmile_qr_scan"}, "type": "electric_scooter", "lat": 38.90023933333333, "is_reserved": 0, "fusion_lat": 0.0}, {"bike_id": "4c459e52d55393cc1f31fb10560cefc7", "fusion_lon": 0.0, "lon": -77.01616833333334, "name": "4c459e52d55393cc1f31fb10560cefc7", "is_disabled": 0, "rental_uris": {"android": "https://dc.lft.to/lastmile_qr_scan", "ios": "https://dc.lft.to/lastmile_qr_scan"}, "type": "electric_scooter", "lat": 38.89971033333333, "is_reserved": 0, "fusion_lat": 0.0}, {"bike_id": "1c0082b784626ecd6c0fca33e4ee7b95", "fusion_lon": 0.0, "lon": -77.02025516666667, "name": "1c0082b784626ecd6c0fca33e4ee7b95", "is_disabled": 0, "rental_uris": {"android": "https://dc.lft.to/lastmile_qr_scan", "ios": "https://dc.lft.to/lastmile_qr_scan"}, "type": "electric_scooter", "lat": 38.901504333333335, "is_reserved": 0, "fusion_lat": 0.0}, {"bike_id": "165f52c264ff69756186bbced1d09302", "fusion_lon": 0.0, "lon": -77.027726, "name": "165f52c264ff69756186bbced1d09302", "is_disabled": 0, "rental_uris": {"android": "https://dc.lft.to/lastmile_qr_scan", "ios": "https://dc.lft.to/lastmile_qr_scan"}, "type": "electric_scooter", "lat": 38.939635333333335, "is_reserved": 0, "fusion_lat": 0.0}, {"bike_id": "6a6e03ed4736308a5166425807aa5ee1", "fusion_lon": 0.0, "lon": -77.02174583333333, "name": "6a6e03ed4736308a5166425807aa5ee1", "is_disabled": 0, "rental_uris": {"android": "https://dc.lft.to/lastmile_qr_scan", "ios": "https://dc.lft.to/lastmile_qr_scan"}, "type": "electric_scooter", "lat": 38.91992483333333, "is_reserved": 0, "fusion_lat": 0.0}, {"bike_id": "3a89c218f0314bb78fd2962883f0cbb3", "fusion_lon": 0.0, "lon": -77.0052055, "name": "3a89c218f0314bb78fd2962883f0cbb3", "is_disabled": 0, "rental_uris": {"android": "https://dc.lft.to/lastmile_qr_scan", "ios": "https://dc.lft.to/lastmile_qr_scan"}, "type": "electric_scooter", "lat": 38.880183833333334, "is_reserved": 0, "fusion_lat": 0.0}, {"bike_id": "e4d3aa1f416f12183711393ed1938ce5", "fusion_lon": 0.0, "lon": -76.99823383333333, "name": "e4d3aa1f416f12183711393ed1938ce5", "is_disabled": 0, "rental_uris": {"android": "https://dc.lft.to/lastmile_qr_scan", "ios": "https://dc.lft.to/lastmile_qr_scan"}, "type": "electric_bike", "lat": 38.910168, "is_reserved": 0, "fusion_lat": 0.0}, {"bike_id": "97e4862d0fd1fb1f673ed78628cbaa75", "fusion_lon": 0.0, "lon": -77.02560633333333, "name": "97e4862d0fd1fb1f673ed78628cbaa75", "is_disabled": 0, "rental_uris": {"android": "https://dc.lft.to/lastmile_qr_scan", "ios": "https://dc.lft.to/lastmile_qr_scan"}, "type": "electric_scooter", "lat": 38.915531666666666, "is_reserved": 0, "fusion_lat": 0.0}, {"bike_id": "b036db7a95f697a07168de6aec8760e1", "fusion_lon": 0.0, "lon": -77.02573866666667, "name": "b036db7a95f697a07168de6aec8760e1", "is_disabled": 0, "rental_uris": {"android": "https://dc.lft.to/lastmile_qr_scan", "ios": "https://dc.lft.to/lastmile_qr_scan"}, "type": "electric_scooter", "lat": 38.916015333333334, "is_reserved": 0, "fusion_lat": 0.0}, {"bike_id": "dc3dba469e3801db655e3a323072d060", "fusion_lon": 0.0, "lon": -77.03195, "name": "dc3dba469e3801db655e3a323072d060", "is_disabled": 0, "rental_uris": {"android": "https://dc.lft.to/lastmile_qr_scan", "ios": "https://dc.lft.to/lastmile_qr_scan"}, "type": "electric_scooter", "lat": 38.9035295, "is_reserved": 0, "fusion_lat": 0.0}, {"bike_id": "93cd65f7bade8ecfa10ee082c2a06573", "fusion_lon": 0.0, "lon": -77.01182333333334, "name": "93cd65f7bade8ecfa10ee082c2a06573", "is_disabled": 0, "rental_uris": {"android": "https://dc.lft.to/lastmile_qr_scan", "ios": "https://dc.lft.to/lastmile_qr_scan"}, "type": "electric_scooter", "lat": 38.9095765, "is_reserved": 0, "fusion_lat": 0.0}, {"bike_id": "24f303f3d5a33d70fbc3183c4aecb8d1", "fusion_lon": 0.0, "lon": -76.99777816666666, "name": "24f303f3d5a33d70fbc3183c4aecb8d1", "is_disabled": 0, "rental_uris": {"android": "https://dc.lft.to/lastmile_qr_scan", "ios": "https://dc.lft.to/lastmile_qr_scan"}, "type": "electric_scooter", "lat": 38.844265, "is_reserved": 0, "fusion_lat": 0.0}, {"bike_id": "84eb20a69d57e481c9d7fd2cea96cea7", "fusion_lon": 0.0, "lon": -77.0270295, "name": "84eb20a69d57e481c9d7fd2cea96cea7", "is_disabled": 0, "rental_uris": {"android": "https://dc.lft.to/lastmile_qr_scan", "ios": "https://dc.lft.to/lastmile_qr_scan"}, "type": "electric_scooter", "lat": 38.928870333333336, "is_reserved": 0, "fusion_lat": 0.0}, {"bike_id": "73ecc523c6cfbd4f788a003cd7e63b94", "fusion_lon": 0.0, "lon": -77.03463983333333, "name": "73ecc523c6cfbd4f788a003cd7e63b94", "is_disabled": 0, "rental_uris": {"android": "https://dc.lft.to/lastmile_qr_scan", "ios": "https://dc.lft.to/lastmile_qr_scan"}, "type": "electric_scooter", "lat": 38.90764016666667, "is_reserved": 0, "fusion_lat": 0.0}, {"bike_id": "53b11af653d20d277a4fa0996fed9e4e", "fusion_lon": 0.0, "lon": -76.9463775, "name": "53b11af653d20d277a4fa0996fed9e4e", "is_disabled": 0, "rental_uris": {"android": "https://dc.lft.to/lastmile_qr_scan", "ios": "https://dc.lft.to/lastmile_qr_scan"}, "type": "electric_scooter", "lat": 38.8984535, "is_reserved": 0, "fusion_lat": 0.0}, {"bike_id": "6042b1fcb57e820b53ea16964d762863", "fusion_lon": 0.0, "lon": -76.95742, "name": "6042b1fcb57e820b53ea16964d762863", "is_disabled": 0, "rental_uris": {"android": "https://dc.lft.to/lastmile_qr_scan", "ios": "https://dc.lft.to/lastmile_qr_scan"}, "type": "electric_scooter", "lat": 38.884299166666665, "is_reserved": 0, "fusion_lat": 0.0}, {"bike_id": "09ad4d09519fe57ba49374e8ecd130ce", "fusion_lon": 0.0, "lon": -77.00338316666667, "name": "09ad4d09519fe57ba49374e8ecd130ce", "is_disabled": 0, "rental_uris": {"android": "https://dc.lft.to/lastmile_qr_scan", "ios": "https://dc.lft.to/lastmile_qr_scan"}, "type": "electric_scooter", "lat": 38.895232666666665, "is_reserved": 0, "fusion_lat": 0.0}, {"bike_id": "ba641b8c6e04b7fcd401a088f4339a24", "fusion_lon": 0.0, "lon": -76.97111616666666, "name": "ba641b8c6e04b7fcd401a088f4339a24", "is_disabled": 0, "rental_uris": {"android": "https://dc.lft.to/lastmile_qr_scan", "ios": "https://dc.lft.to/lastmile_qr_scan"}, "type": "electric_bike", "lat": 38.857144, "is_reserved": 0, "fusion_lat": 0.0}, {"bike_id": "93cc01524e54d72a4007d244d4d3c297", "fusion_lon": 0.0, "lon": -76.99778333333333, "name": "93cc01524e54d72a4007d244d4d3c297", "is_disabled": 0, "rental_uris": {"android": "https://dc.lft.to/lastmile_qr_scan", "ios": "https://dc.lft.to/lastmile_qr_scan"}, "type": "electric_scooter", "lat": 38.84434133333333, "is_reserved": 0, "fusion_lat": 0.0}, {"bike_id": "ef9455632cb00430ca36a3e4546306a1", "fusion_lon": 0.0, "lon": -77.02032616666666, "name": "ef9455632cb00430ca36a3e4546306a1", "is_disabled": 0, "rental_uris": {"android": "https://dc.lft.to/lastmile_qr_scan", "ios": "https://dc.lft.to/lastmile_qr_scan"}, "type": "electric_scooter", "lat": 38.924171, "is_reserved": 0, "fusion_lat": 0.0}, {"bike_id": "ac3982b1d72ed57566dae358c6c48fa9", "fusion_lon": 0.0, "lon": -77.0223605, "name": "ac3982b1d72ed57566dae358c6c48fa9", "is_disabled": 0, "rental_uris": {"android": "https://dc.lft.to/lastmile_qr_scan", "ios": "https://dc.lft.to/lastmile_qr_scan"}, "type": "electric_scooter", "lat": 38.9613495, "is_reserved": 0, "fusion_lat": 0.0}, {"bike_id": "aab2d3327dc5948fbd0f06c2eff0b1ba", "fusion_lon": 0.0, "lon": -77.0503105, "name": "aab2d3327dc5948fbd0f06c2eff0b1ba", "is_disabled": 0, "rental_uris": {"android": "https://dc.lft.to/lastmile_qr_scan", "ios": "https://dc.lft.to/lastmile_qr_scan"}, "type": "electric_scooter", "lat": 38.89655283333333, "is_reserved": 0, "fusion_lat": 0.0}, {"bike_id": "1759b35c46f92f876d76892911850cd3", "fusion_lon": 0.0, "lon": -76.926916, "name": "1759b35c46f92f876d76892911850cd3", "is_disabled": 0, "rental_uris": {"android": "https://dc.lft.to/lastmile_qr_scan", "ios": "https://dc.lft.to/lastmile_qr_scan"}, "type": "electric_scooter", "lat": 38.89366916666667, "is_reserved": 0, "fusion_lat": 0.0}, {"bike_id": "82700f636cb9824551bfcb1da1bc1b3c", "fusion_lon": 0.0, "lon": -77.00137733333334, "name": "82700f636cb9824551bfcb1da1bc1b3c", "is_disabled": 0, "rental_uris": {"android": "https://dc.lft.to/lastmile_qr_scan", "ios": "https://dc.lft.to/lastmile_qr_scan"}, "type": "electric_scooter", "lat": 38.905187833333336, "is_reserved": 0, "fusion_lat": 0.0}, {"bike_id": "267443b5606030b2d02429c89a841042", "fusion_lon": 0.0, "lon": -76.93736833333334, "name": "267443b5606030b2d02429c89a841042", "is_disabled": 0, "rental_uris": {"android": "https://dc.lft.to/lastmile_qr_scan", "ios": "https://dc.lft.to/lastmile_qr_scan"}, "type": "electric_scooter", "lat": 38.89015833333333, "is_reserved": 0, "fusion_lat": 0.0}, {"bike_id": "2fca4d82b02c95df2f95bf3b66fff6bb", "fusion_lon": 0.0, "lon": -76.98986433333333, "name": "2fca4d82b02c95df2f95bf3b66fff6bb", "is_disabled": 0, "rental_uris": {"android": "https://dc.lft.to/lastmile_qr_scan", "ios": "https://dc.lft.to/lastmile_qr_scan"}, "type": "electric_scooter", "lat": 38.86491916666667, "is_reserved": 0, "fusion_lat": 0.0}, {"bike_id": "7c124368a22bcaf2e71e2b4fdc952309", "fusion_lon": 0.0, "lon": -77.03844966666666, "name": "7c124368a22bcaf2e71e2b4fdc952309", "is_disabled": 0, "rental_uris": {"android": "https://dc.lft.to/lastmile_qr_scan", "ios": "https://dc.lft.to/lastmile_qr_scan"}, "type": "electric_scooter", "lat": 38.908492333333335, "is_reserved": 0, "fusion_lat": 0.0}, {"bike_id": "71a4a1ff29a5e1e16113c3cb02893dae", "fusion_lon": 0.0, "lon": -77.00567716666667, "name": "71a4a1ff29a5e1e16113c3cb02893dae", "is_disabled": 0, "rental_uris": {"android": "https://dc.lft.to/lastmile_qr_scan", "ios": "https://dc.lft.to/lastmile_qr_scan"}, "type": "electric_scooter", "lat": 38.885050166666666, "is_reserved": 0, "fusion_lat": 0.0}, {"bike_id": "c4063718f609cb1b83ea01fb05dd9f93", "fusion_lon": 0.0, "lon": -76.95185666666667, "name": "c4063718f609cb1b83ea01fb05dd9f93", "is_disabled": 0, "rental_uris": {"android": "https://dc.lft.to/lastmile_qr_scan", "ios": "https://dc.lft.to/lastmile_qr_scan"}, "type": "electric_scooter", "lat": 38.90738183333333, "is_reserved": 0, "fusion_lat": 0.0}, {"bike_id": "2f6a166211de23ea299675fdbb9613be", "fusion_lon": 0.0, "lon": -77.0177825, "name": "2f6a166211de23ea299675fdbb9613be", "is_disabled": 0, "rental_uris": {"android": "https://dc.lft.to/lastmile_qr_scan", "ios": "https://dc.lft.to/lastmile_qr_scan"}, "type": "electric_scooter", "lat": 38.90782683333333, "is_reserved": 0, "fusion_lat": 0.0}, {"bike_id": "922eb64d1a268fb5e7886e607aa78463", "fusion_lon": 0.0, "lon": -77.04401666666666, "name": "922eb64d1a268fb5e7886e607aa78463", "is_disabled": 0, "rental_uris": {"android": "https://dc.lft.to/lastmile_qr_scan", "ios": "https://dc.lft.to/lastmile_qr_scan"}, "type": "electric_scooter", "lat": 38.92061533333333, "is_reserved": 0, "fusion_lat": 0.0}, {"bike_id": "a36ab2d9973317438424fe67dfa4fb25", "fusion_lon": 0.0, "lon": -77.0561085, "name": "a36ab2d9973317438424fe67dfa4fb25", "is_disabled": 0, "rental_uris": {"android": "https://dc.lft.to/lastmile_qr_scan", "ios": "https://dc.lft.to/lastmile_qr_scan"}, "type": "electric_scooter", "lat": 38.931611333333336, "is_reserved": 0, "fusion_lat": 0.0}, {"bike_id": "1c72b380dbd5623fc5d7ec1103ac445a", "fusion_lon": 0.0, "lon": -77.081912, "name": "1c72b380dbd5623fc5d7ec1103ac445a", "is_disabled": 0, "rental_uris": {"android": "https://dc.lft.to/lastmile_qr_scan", "ios": "https://dc.lft.to/lastmile_qr_scan"}, "type": "electric_bike", "lat": 38.855661, "is_reserved": 0, "fusion_lat": 0.0}, {"bike_id": "f89e44f21df1af6d7dd7fd434e442a5f", "fusion_lon": 0.0, "lon": -77.02429766666667, "name": "f89e44f21df1af6d7dd7fd434e442a5f", "is_disabled": 0, "rental_uris": {"android": "https://dc.lft.to/lastmile_qr_scan", "ios": "https://dc.lft.to/lastmile_qr_scan"}, "type": "electric_scooter", "lat": 38.926535666666666, "is_reserved": 0, "fusion_lat": 0.0}, {"bike_id": "cab3b75387c843600ec5f1b0566deb53", "fusion_lon": 0.0, "lon": -77.03182666666666, "name": "cab3b75387c843600ec5f1b0566deb53", "is_disabled": 0, "rental_uris": {"android": "https://dc.lft.to/lastmile_qr_scan", "ios": "https://dc.lft.to/lastmile_qr_scan"}, "type": "electric_scooter", "lat": 38.92091683333334, "is_reserved": 0, "fusion_lat": 0.0}, {"bike_id": "bbf9f7fb765404885c033c66df606fbe", "fusion_lon": 0.0, "lon": -77.04190966666667, "name": "bbf9f7fb765404885c033c66df606fbe", "is_disabled": 0, "rental_uris": {"android": "https://dc.lft.to/lastmile_qr_scan", "ios": "https://dc.lft.to/lastmile_qr_scan"}, "type": "electric_scooter", "lat": 38.90549033333333, "is_reserved": 0, "fusion_lat": 0.0}, {"bike_id": "095d567610ff701fd0af7aeaa5510dc5", "fusion_lon": 0.0, "lon": -77.03712683333333, "name": "095d567610ff701fd0af7aeaa5510dc5", "is_disabled": 0, "rental_uris": {"android": "https://dc.lft.to/lastmile_qr_scan", "ios": "https://dc.lft.to/lastmile_qr_scan"}, "type": "electric_scooter", "lat": 38.909674833333334, "is_reserved": 0, "fusion_lat": 0.0}, {"bike_id": "856a9127b89e630039227f00e8a5e4dc", "fusion_lon": 0.0, "lon": -77.0538665, "name": "856a9127b89e630039227f00e8a5e4dc", "is_disabled": 0, "rental_uris": {"android": "https://dc.lft.to/lastmile_qr_scan", "ios": "https://dc.lft.to/lastmile_qr_scan"}, "type": "electric_scooter", "lat": 38.910669166666665, "is_reserved": 0, "fusion_lat": 0.0}, {"bike_id": "e3e420de453a217222bba8f9da23c68d", "fusion_lon": 0.0, "lon": -77.04019633333333, "name": "e3e420de453a217222bba8f9da23c68d", "is_disabled": 0, "rental_uris": {"android": "https://dc.lft.to/lastmile_qr_scan", "ios": "https://dc.lft.to/lastmile_qr_scan"}, "type": "electric_scooter", "lat": 38.9217725, "is_reserved": 0, "fusion_lat": 0.0}, {"bike_id": "42e089eca4e5458e613da7574d51c1cb", "fusion_lon": 0.0, "lon": -76.93157616666667, "name": "42e089eca4e5458e613da7574d51c1cb", "is_disabled": 0, "rental_uris": {"android": "https://dc.lft.to/lastmile_qr_scan", "ios": "https://dc.lft.to/lastmile_qr_scan"}, "type": "electric_scooter", "lat": 38.898809166666666, "is_reserved": 0, "fusion_lat": 0.0}, {"bike_id": "fbbe5b789cb6c392b4b622c5966ee949", "fusion_lon": 0.0, "lon": -77.048335, "name": "fbbe5b789cb6c392b4b622c5966ee949", "is_disabled": 0, "rental_uris": {"android": "https://dc.lft.to/lastmile_qr_scan", "ios": "https://dc.lft.to/lastmile_qr_scan"}, "type": "electric_scooter", "lat": 38.90719166666667, "is_reserved": 0, "fusion_lat": 0.0}, {"bike_id": "a69598e96bcbc99902ec931ea70f210b", "fusion_lon": 0.0, "lon": -77.0332195, "name": "a69598e96bcbc99902ec931ea70f210b", "is_disabled": 0, "rental_uris": {"android": "https://dc.lft.to/lastmile_qr_scan", "ios": "https://dc.lft.to/lastmile_qr_scan"}, "type": "electric_scooter", "lat": 38.921658, "is_reserved": 0, "fusion_lat": 0.0}, {"bike_id": "01ad5dd14c48f142d64c4e0e2abec8bd", "fusion_lon": 0.0, "lon": -77.0292895, "name": "01ad5dd14c48f142d64c4e0e2abec8bd", "is_disabled": 0, "rental_uris": {"android": "https://dc.lft.to/lastmile_qr_scan", "ios": "https://dc.lft.to/lastmile_qr_scan"}, "type": "electric_scooter", "lat": 38.933309, "is_reserved": 0, "fusion_lat": 0.0}, {"bike_id": "2817b0a583b887823333dc181f1d23d1", "fusion_lon": 0.0, "lon": -77.041559, "name": "2817b0a583b887823333dc181f1d23d1", "is_disabled": 0, "rental_uris": {"android": "https://dc.lft.to/lastmile_qr_scan", "ios": "https://dc.lft.to/lastmile_qr_scan"}, "type": "electric_bike", "lat": 38.919870333333336, "is_reserved": 0, "fusion_lat": 0.0}, {"bike_id": "d632132a18aba533a8bd032dcdd5928f", "fusion_lon": 0.0, "lon": -77.04285666666667, "name": "d632132a18aba533a8bd032dcdd5928f", "is_disabled": 0, "rental_uris": {"android": "https://dc.lft.to/lastmile_qr_scan", "ios": "https://dc.lft.to/lastmile_qr_scan"}, "type": "electric_scooter", "lat": 38.9141125, "is_reserved": 0, "fusion_lat": 0.0}, {"bike_id": "93f6a38336eaf16e9aabe5842b640a2b", "fusion_lon": 0.0, "lon": -77.03657866666667, "name": "93f6a38336eaf16e9aabe5842b640a2b", "is_disabled": 0, "rental_uris": {"android": "https://dc.lft.to/lastmile_qr_scan", "ios": "https://dc.lft.to/lastmile_qr_scan"}, "type": "electric_scooter", "lat": 38.934880166666666, "is_reserved": 0, "fusion_lat": 0.0}, {"bike_id": "740e1814784a69b8d3df062a0bbe9102", "fusion_lon": 0.0, "lon": -77.0346075, "name": "740e1814784a69b8d3df062a0bbe9102", "is_disabled": 0, "rental_uris": {"android": "https://dc.lft.to/lastmile_qr_scan", "ios": "https://dc.lft.to/lastmile_qr_scan"}, "type": "electric_scooter", "lat": 38.90641166666666, "is_reserved": 0, "fusion_lat": 0.0}, {"bike_id": "b23af3050e735b8a0de65a4d605e913e", "fusion_lon": 0.0, "lon": -77.0329205, "name": "b23af3050e735b8a0de65a4d605e913e", "is_disabled": 0, "rental_uris": {"android": "https://dc.lft.to/lastmile_qr_scan", "ios": "https://dc.lft.to/lastmile_qr_scan"}, "type": "electric_scooter", "lat": 38.956415666666665, "is_reserved": 0, "fusion_lat": 0.0}, {"bike_id": "b677fbff5191a79399465ae1cc80be05", "fusion_lon": 0.0, "lon": -77.03666166666666, "name": "b677fbff5191a79399465ae1cc80be05", "is_disabled": 0, "rental_uris": {"android": "https://dc.lft.to/lastmile_qr_scan", "ios": "https://dc.lft.to/lastmile_qr_scan"}, "type": "electric_scooter", "lat": 38.91313683333333, "is_reserved": 0, "fusion_lat": 0.0}, {"bike_id": "6ee9a7930fffa89e8cc3be83035d04f2", "fusion_lon": 0.0, "lon": -77.03144316666666, "name": "6ee9a7930fffa89e8cc3be83035d04f2", "is_disabled": 0, "rental_uris": {"android": "https://dc.lft.to/lastmile_qr_scan", "ios": "https://dc.lft.to/lastmile_qr_scan"}, "type": "electric_scooter", "lat": 38.91567416666667, "is_reserved": 0, "fusion_lat": 0.0}, {"bike_id": "ebdb6309b22909f4add799a7fb847237", "fusion_lon": 0.0, "lon": -77.01615233333334, "name": "ebdb6309b22909f4add799a7fb847237", "is_disabled": 0, "rental_uris": {"android": "https://dc.lft.to/lastmile_qr_scan", "ios": "https://dc.lft.to/lastmile_qr_scan"}, "type": "electric_scooter", "lat": 38.90260416666667, "is_reserved": 0, "fusion_lat": 0.0}, {"bike_id": "81f3524a6e06fc84cdcc02e1a11fcef4", "fusion_lon": 0.0, "lon": -77.06194083333334, "name": "81f3524a6e06fc84cdcc02e1a11fcef4", "is_disabled": 0, "rental_uris": {"android": "https://dc.lft.to/lastmile_qr_scan", "ios": "https://dc.lft.to/lastmile_qr_scan"}, "type": "electric_scooter", "lat": 38.944285, "is_reserved": 0, "fusion_lat": 0.0}, {"bike_id": "936d887036c5aff7896f775791751b2c", "fusion_lon": 0.0, "lon": -77.05050016666667, "name": "936d887036c5aff7896f775791751b2c", "is_disabled": 0, "rental_uris": {"android": "https://dc.lft.to/lastmile_qr_scan", "ios": "https://dc.lft.to/lastmile_qr_scan"}, "type": "electric_scooter", "lat": 38.923449166666664, "is_reserved": 0, "fusion_lat": 0.0}, {"bike_id": "914b571b270a556761d5399b83295697", "fusion_lon": 0.0, "lon": -77.03376916666667, "name": "914b571b270a556761d5399b83295697", "is_disabled": 0, "rental_uris": {"android": "https://dc.lft.to/lastmile_qr_scan", "ios": "https://dc.lft.to/lastmile_qr_scan"}, "type": "electric_scooter", "lat": 38.92231233333333, "is_reserved": 0, "fusion_lat": 0.0}, {"bike_id": "fe58d31ba35a9d1460f3239c7f35b26b", "fusion_lon": 0.0, "lon": -77.04554, "name": "fe58d31ba35a9d1460f3239c7f35b26b", "is_disabled": 0, "rental_uris": {"android": "https://dc.lft.to/lastmile_qr_scan", "ios": "https://dc.lft.to/lastmile_qr_scan"}, "type": "electric_scooter", "lat": 38.924218833333335, "is_reserved": 0, "fusion_lat": 0.0}, {"bike_id": "2e88dd16b22431ab0b25de648dcacf18", "fusion_lon": 0.0, "lon": -76.999518, "name": "2e88dd16b22431ab0b25de648dcacf18", "is_disabled": 0, "rental_uris": {"android": "https://dc.lft.to/lastmile_qr_scan", "ios": "https://dc.lft.to/lastmile_qr_scan"}, "type": "electric_scooter", "lat": 38.842901166666664, "is_reserved": 0, "fusion_lat": 0.0}, {"bike_id": "3cd9a6b49ed91fc99d8d15bfa312d202", "fusion_lon": 0.0, "lon": -77.03912633333333, "name": "3cd9a6b49ed91fc99d8d15bfa312d202", "is_disabled": 0, "rental_uris": {"android": "https://dc.lft.to/lastmile_qr_scan", "ios": "https://dc.lft.to/lastmile_qr_scan"}, "type": "electric_scooter", "lat": 38.915512166666666, "is_reserved": 0, "fusion_lat": 0.0}, {"bike_id": "4a35e2fa353fbbf1aa1aba66c3af843e", "fusion_lon": 0.0, "lon": -77.022048, "name": "4a35e2fa353fbbf1aa1aba66c3af843e", "is_disabled": 0, "rental_uris": {"android": "https://dc.lft.to/lastmile_qr_scan", "ios": "https://dc.lft.to/lastmile_qr_scan"}, "type": "electric_scooter", "lat": 38.91903516666667, "is_reserved": 0, "fusion_lat": 0.0}, {"bike_id": "220efef8c7b4fc8a270f953c0f977545", "fusion_lon": 0.0, "lon": -76.98401733333333, "name": "220efef8c7b4fc8a270f953c0f977545", "is_disabled": 0, "rental_uris": {"android": "https://dc.lft.to/lastmile_qr_scan", "ios": "https://dc.lft.to/lastmile_qr_scan"}, "type": "electric_scooter", "lat": 38.866955833333336, "is_reserved": 0, "fusion_lat": 0.0}, {"bike_id": "e739029411247a6a935bea3b1413a4c3", "fusion_lon": 0.0, "lon": -77.034816, "name": "e739029411247a6a935bea3b1413a4c3", "is_disabled": 0, "rental_uris": {"android": "https://dc.lft.to/lastmile_qr_scan", "ios": "https://dc.lft.to/lastmile_qr_scan"}, "type": "electric_scooter", "lat": 38.9249065, "is_reserved": 0, "fusion_lat": 0.0}, {"bike_id": "d797da2142f10eb2c8105aa5fd4d62e0", "fusion_lon": 0.0, "lon": -76.93738966666666, "name": "d797da2142f10eb2c8105aa5fd4d62e0", "is_disabled": 0, "rental_uris": {"android": "https://dc.lft.to/lastmile_qr_scan", "ios": "https://dc.lft.to/lastmile_qr_scan"}, "type": "electric_scooter", "lat": 38.890162, "is_reserved": 0, "fusion_lat": 0.0}, {"bike_id": "7a55c325bbc3b6c73ff17a7bb20079a4", "fusion_lon": 0.0, "lon": -77.0383225, "name": "7a55c325bbc3b6c73ff17a7bb20079a4", "is_disabled": 0, "rental_uris": {"android": "https://dc.lft.to/lastmile_qr_scan", "ios": "https://dc.lft.to/lastmile_qr_scan"}, "type": "electric_scooter", "lat": 38.90676166666667, "is_reserved": 0, "fusion_lat": 0.0}, {"bike_id": "c1b1cf18d2e52f46a45c54f57279dea3", "fusion_lon": 0.0, "lon": -77.05742316666667, "name": "c1b1cf18d2e52f46a45c54f57279dea3", "is_disabled": 0, "rental_uris": {"android": "https://dc.lft.to/lastmile_qr_scan", "ios": "https://dc.lft.to/lastmile_qr_scan"}, "type": "electric_scooter", "lat": 38.92435916666667, "is_reserved": 0, "fusion_lat": 0.0}, {"bike_id": "3ad028609d88317ef8fbf19a267c6d8a", "fusion_lon": 0.0, "lon": -77.02406666666667, "name": "3ad028609d88317ef8fbf19a267c6d8a", "is_disabled": 0, "rental_uris": {"android": "https://dc.lft.to/lastmile_qr_scan", "ios": "https://dc.lft.to/lastmile_qr_scan"}, "type": "electric_scooter", "lat": 38.91921033333333, "is_reserved": 0, "fusion_lat": 0.0}, {"bike_id": "2bf44812b466c9549763598093492a37", "fusion_lon": 0.0, "lon": -77.03845483333333, "name": "2bf44812b466c9549763598093492a37", "is_disabled": 0, "rental_uris": {"android": "https://dc.lft.to/lastmile_qr_scan", "ios": "https://dc.lft.to/lastmile_qr_scan"}, "type": "electric_scooter", "lat": 38.9163695, "is_reserved": 0, "fusion_lat": 0.0}, {"bike_id": "978e5f4f8b63882f37cf10f42a087490", "fusion_lon": 0.0, "lon": -77.02156283333333, "name": "978e5f4f8b63882f37cf10f42a087490", "is_disabled": 0, "rental_uris": {"android": "https://dc.lft.to/lastmile_qr_scan", "ios": "https://dc.lft.to/lastmile_qr_scan"}, "type": "electric_scooter", "lat": 38.93076333333333, "is_reserved": 0, "fusion_lat": 0.0}, {"bike_id": "ee72155caf7f145bff7a62e1900d0d2e", "fusion_lon": 0.0, "lon": -77.03830983333333, "name": "ee72155caf7f145bff7a62e1900d0d2e", "is_disabled": 0, "rental_uris": {"android": "https://dc.lft.to/lastmile_qr_scan", "ios": "https://dc.lft.to/lastmile_qr_scan"}, "type": "electric_scooter", "lat": 38.90674466666667, "is_reserved": 0, "fusion_lat": 0.0}, {"bike_id": "74a3a34d72bf9fe10c8713eb2bc75958", "fusion_lon": 0.0, "lon": -76.93159633333333, "name": "74a3a34d72bf9fe10c8713eb2bc75958", "is_disabled": 0, "rental_uris": {"android": "https://dc.lft.to/lastmile_qr_scan", "ios": "https://dc.lft.to/lastmile_qr_scan"}, "type": "electric_scooter", "lat": 38.898811333333335, "is_reserved": 0, "fusion_lat": 0.0}, {"bike_id": "02f4f2da3237c443e5af2e491178d8a0", "fusion_lon": 0.0, "lon": -77.02691883333334, "name": "02f4f2da3237c443e5af2e491178d8a0", "is_disabled": 0, "rental_uris": {"android": "https://dc.lft.to/lastmile_qr_scan", "ios": "https://dc.lft.to/lastmile_qr_scan"}, "type": "electric_scooter", "lat": 38.8961195, "is_reserved": 0, "fusion_lat": 0.0}, {"bike_id": "5c9d75c1cc1b7be171f292da8713fbea", "fusion_lon": 0.0, "lon": -77.00196583333333, "name": "5c9d75c1cc1b7be171f292da8713fbea", "is_disabled": 0, "rental_uris": {"android": "https://dc.lft.to/lastmile_qr_scan", "ios": "https://dc.lft.to/lastmile_qr_scan"}, "type": "electric_scooter", "lat": 38.902431, "is_reserved": 0, "fusion_lat": 0.0}, {"bike_id": "29dfffe149b4e3df7212d401f65d393f", "fusion_lon": 0.0, "lon": -77.0063545, "name": "29dfffe149b4e3df7212d401f65d393f", "is_disabled": 0, "rental_uris": {"android": "https://dc.lft.to/lastmile_qr_scan", "ios": "https://dc.lft.to/lastmile_qr_scan"}, "type": "electric_bike", "lat": 38.9483825, "is_reserved": 0, "fusion_lat": 0.0}, {"bike_id": "3d49af66a0685bd384ba4689c40254a4", "fusion_lon": 0.0, "lon": -76.9365, "name": "3d49af66a0685bd384ba4689c40254a4", "is_disabled": 0, "rental_uris": {"android": "https://dc.lft.to/lastmile_qr_scan", "ios": "https://dc.lft.to/lastmile_qr_scan"}, "type": "electric_bike", "lat": 38.871490333333334, "is_reserved": 0, "fusion_lat": 0.0}, {"bike_id": "934335e836269e25f072835c1a979d95", "fusion_lon": 0.0, "lon": -77.0279845, "name": "934335e836269e25f072835c1a979d95", "is_disabled": 0, "rental_uris": {"android": "https://dc.lft.to/lastmile_qr_scan", "ios": "https://dc.lft.to/lastmile_qr_scan"}, "type": "electric_scooter", "lat": 38.929712333333335, "is_reserved": 0, "fusion_lat": 0.0}, {"bike_id": "a4f63be54446fb08cb481ef6bb72d89a", "fusion_lon": 0.0, "lon": -76.96870183333333, "name": "a4f63be54446fb08cb481ef6bb72d89a", "is_disabled": 0, "rental_uris": {"android": "https://dc.lft.to/lastmile_qr_scan", "ios": "https://dc.lft.to/lastmile_qr_scan"}, "type": "electric_scooter", "lat": 38.870931166666665, "is_reserved": 0, "fusion_lat": 0.0}, {"bike_id": "cf788f0d73a8d0098a6b16062bb656a4", "fusion_lon": 0.0, "lon": -77.04829716666667, "name": "cf788f0d73a8d0098a6b16062bb656a4", "is_disabled": 0, "rental_uris": {"android": "https://dc.lft.to/lastmile_qr_scan", "ios": "https://dc.lft.to/lastmile_qr_scan"}, "type": "electric_scooter", "lat": 38.88888733333334, "is_reserved": 0, "fusion_lat": 0.0}, {"bike_id": "6e2ffbeaf4c35cf32617e79f86d1e09a", "fusion_lon": 0.0, "lon": -77.0271745, "name": "6e2ffbeaf4c35cf32617e79f86d1e09a", "is_disabled": 0, "rental_uris": {"android": "https://dc.lft.to/lastmile_qr_scan", "ios": "https://dc.lft.to/lastmile_qr_scan"}, "type": "electric_scooter", "lat": 38.906711666666666, "is_reserved": 0, "fusion_lat": 0.0}, {"bike_id": "0ee58723274f36f02bc40b15710261d0", "fusion_lon": 0.0, "lon": -76.9660295, "name": "0ee58723274f36f02bc40b15710261d0", "is_disabled": 0, "rental_uris": {"android": "https://dc.lft.to/lastmile_qr_scan", "ios": "https://dc.lft.to/lastmile_qr_scan"}, "type": "electric_scooter", "lat": 38.873864166666664, "is_reserved": 0, "fusion_lat": 0.0}, {"bike_id": "d5dae295722c5e1f7c3a9ce70f78e945", "fusion_lon": 0.0, "lon": -77.0345495, "name": "d5dae295722c5e1f7c3a9ce70f78e945", "is_disabled": 0, "rental_uris": {"android": "https://dc.lft.to/lastmile_qr_scan", "ios": "https://dc.lft.to/lastmile_qr_scan"}, "type": "electric_scooter", "lat": 38.90416716666667, "is_reserved": 0, "fusion_lat": 0.0}, {"bike_id": "7c4edd057ae70c7c1d0ab6cd241ce934", "fusion_lon": 0.0, "lon": -77.00220616666667, "name": "7c4edd057ae70c7c1d0ab6cd241ce934", "is_disabled": 0, "rental_uris": {"android": "https://dc.lft.to/lastmile_qr_scan", "ios": "https://dc.lft.to/lastmile_qr_scan"}, "type": "electric_scooter", "lat": 38.9251135, "is_reserved": 0, "fusion_lat": 0.0}, {"bike_id": "45dd77a0091ccba30f44657572f474fc", "fusion_lon": 0.0, "lon": -77.03209033333333, "name": "45dd77a0091ccba30f44657572f474fc", "is_disabled": 0, "rental_uris": {"android": "https://dc.lft.to/lastmile_qr_scan", "ios": "https://dc.lft.to/lastmile_qr_scan"}, "type": "electric_scooter", "lat": 38.899657166666664, "is_reserved": 0, "fusion_lat": 0.0}, {"bike_id": "b597e741f437554d4d3cb05f858978df", "fusion_lon": 0.0, "lon": -77.040419, "name": "b597e741f437554d4d3cb05f858978df", "is_disabled": 0, "rental_uris": {"android": "https://dc.lft.to/lastmile_qr_scan", "ios": "https://dc.lft.to/lastmile_qr_scan"}, "type": "electric_scooter", "lat": 38.896421333333336, "is_reserved": 0, "fusion_lat": 0.0}, {"bike_id": "b97849c5ef1641e3a28c1a320323578a", "fusion_lon": 0.0, "lon": -77.023364, "name": "b97849c5ef1641e3a28c1a320323578a", "is_disabled": 0, "rental_uris": {"android": "https://dc.lft.to/lastmile_qr_scan", "ios": "https://dc.lft.to/lastmile_qr_scan"}, "type": "electric_scooter", "lat": 38.91668283333333, "is_reserved": 0, "fusion_lat": 0.0}, {"bike_id": "5cadfa5e60fe910f1e4e117c4a25edcb", "fusion_lon": 0.0, "lon": -77.03661516666666, "name": "5cadfa5e60fe910f1e4e117c4a25edcb", "is_disabled": 0, "rental_uris": {"android": "https://dc.lft.to/lastmile_qr_scan", "ios": "https://dc.lft.to/lastmile_qr_scan"}, "type": "electric_scooter", "lat": 38.918657833333334, "is_reserved": 0, "fusion_lat": 0.0}, {"bike_id": "ee7d78f05624036595f60838afc8dea2", "fusion_lon": 0.0, "lon": -77.03091016666667, "name": "ee7d78f05624036595f60838afc8dea2", "is_disabled": 0, "rental_uris": {"android": "https://dc.lft.to/lastmile_qr_scan", "ios": "https://dc.lft.to/lastmile_qr_scan"}, "type": "electric_scooter", "lat": 38.93757133333333, "is_reserved": 0, "fusion_lat": 0.0}, {"bike_id": "531b2f4c608566eb5bb0c1e285031846", "fusion_lon": 0.0, "lon": -77.02777833333333, "name": "531b2f4c608566eb5bb0c1e285031846", "is_disabled": 0, "rental_uris": {"android": "https://dc.lft.to/lastmile_qr_scan", "ios": "https://dc.lft.to/lastmile_qr_scan"}, "type": "electric_scooter", "lat": 38.892236833333335, "is_reserved": 0, "fusion_lat": 0.0}, {"bike_id": "7acd2b0f659f5ea32333b0049d8bff6b", "fusion_lon": 0.0, "lon": -77.04628716666667, "name": "7acd2b0f659f5ea32333b0049d8bff6b", "is_disabled": 0, "rental_uris": {"android": "https://dc.lft.to/lastmile_qr_scan", "ios": "https://dc.lft.to/lastmile_qr_scan"}, "type": "electric_scooter", "lat": 38.91926566666667, "is_reserved": 0, "fusion_lat": 0.0}, {"bike_id": "5c9caef4ca81e90970f7d8345db418b9", "fusion_lon": 0.0, "lon": -76.98379033333333, "name": "5c9caef4ca81e90970f7d8345db418b9", "is_disabled": 0, "rental_uris": {"android": "https://dc.lft.to/lastmile_qr_scan", "ios": "https://dc.lft.to/lastmile_qr_scan"}, "type": "electric_scooter", "lat": 38.885880666666665, "is_reserved": 0, "fusion_lat": 0.0}, {"bike_id": "7a425ac30064ced8f56ef766985e1da7", "fusion_lon": 0.0, "lon": -77.02984866666667, "name": "7a425ac30064ced8f56ef766985e1da7", "is_disabled": 0, "rental_uris": {"android": "https://dc.lft.to/lastmile_qr_scan", "ios": "https://dc.lft.to/lastmile_qr_scan"}, "type": "electric_scooter", "lat": 38.90631466666667, "is_reserved": 0, "fusion_lat": 0.0}, {"bike_id": "57bd3621b7aaf17fb3201cf9b279cd96", "fusion_lon": 0.0, "lon": -77.0471835, "name": "57bd3621b7aaf17fb3201cf9b279cd96", "is_disabled": 0, "rental_uris": {"android": "https://dc.lft.to/lastmile_qr_scan", "ios": "https://dc.lft.to/lastmile_qr_scan"}, "type": "electric_scooter", "lat": 38.922270166666664, "is_reserved": 0, "fusion_lat": 0.0}, {"bike_id": "89a51b26490e1034db449a0e7d5cc3c1", "fusion_lon": 0.0, "lon": -76.99705566666667, "name": "89a51b26490e1034db449a0e7d5cc3c1", "is_disabled": 0, "rental_uris": {"android": "https://dc.lft.to/lastmile_qr_scan", "ios": "https://dc.lft.to/lastmile_qr_scan"}, "type": "electric_scooter", "lat": 38.8443015, "is_reserved": 0, "fusion_lat": 0.0}, {"bike_id": "5d25dc2bfe617a5b0a2220401b1d4c12", "fusion_lon": 0.0, "lon": -77.02386766666666, "name": "5d25dc2bfe617a5b0a2220401b1d4c12", "is_disabled": 0, "rental_uris": {"android": "https://dc.lft.to/lastmile_qr_scan", "ios": "https://dc.lft.to/lastmile_qr_scan"}, "type": "electric_scooter", "lat": 38.90952083333333, "is_reserved": 0, "fusion_lat": 0.0}, {"bike_id": "6c50212cb468512e746e47086141a145", "fusion_lon": 0.0, "lon": -77.0345505, "name": "6c50212cb468512e746e47086141a145", "is_disabled": 0, "rental_uris": {"android": "https://dc.lft.to/lastmile_qr_scan", "ios": "https://dc.lft.to/lastmile_qr_scan"}, "type": "electric_scooter", "lat": 38.9080085, "is_reserved": 0, "fusion_lat": 0.0}, {"bike_id": "2e5b13b71561989d9cb7517c925f28db", "fusion_lon": 0.0, "lon": -77.0417895, "name": "2e5b13b71561989d9cb7517c925f28db", "is_disabled": 0, "rental_uris": {"android": "https://dc.lft.to/lastmile_qr_scan", "ios": "https://dc.lft.to/lastmile_qr_scan"}, "type": "electric_scooter", "lat": 38.91854383333333, "is_reserved": 0, "fusion_lat": 0.0}, {"bike_id": "b552460486009b6861d28b52c26b3910", "fusion_lon": 0.0, "lon": -77.01762183333334, "name": "b552460486009b6861d28b52c26b3910", "is_disabled": 0, "rental_uris": {"android": "https://dc.lft.to/lastmile_qr_scan", "ios": "https://dc.lft.to/lastmile_qr_scan"}, "type": "electric_scooter", "lat": 38.902629833333336, "is_reserved": 0, "fusion_lat": 0.0}, {"bike_id": "325075b4965a19ba2869f411b764fed6", "fusion_lon": 0.0, "lon": -77.0269305, "name": "325075b4965a19ba2869f411b764fed6", "is_disabled": 0, "rental_uris": {"android": "https://dc.lft.to/lastmile_qr_scan", "ios": "https://dc.lft.to/lastmile_qr_scan"}, "type": "electric_scooter", "lat": 38.91124516666667, "is_reserved": 0, "fusion_lat": 0.0}, {"bike_id": "69ab07d3d6ad367cf209299076586fe0", "fusion_lon": 0.0, "lon": -77.0433545, "name": "69ab07d3d6ad367cf209299076586fe0", "is_disabled": 0, "rental_uris": {"android": "https://dc.lft.to/lastmile_qr_scan", "ios": "https://dc.lft.to/lastmile_qr_scan"}, "type": "electric_scooter", "lat": 38.89219583333333, "is_reserved": 0, "fusion_lat": 0.0}, {"bike_id": "54a29f5e8f6d2ea305dd73a86ff3c5d6", "fusion_lon": 0.0, "lon": -76.98084083333333, "name": "54a29f5e8f6d2ea305dd73a86ff3c5d6", "is_disabled": 0, "rental_uris": {"android": "https://dc.lft.to/lastmile_qr_scan", "ios": "https://dc.lft.to/lastmile_qr_scan"}, "type": "electric_bike", "lat": 38.901631, "is_reserved": 0, "fusion_lat": 0.0}, {"bike_id": "4d4679bf0af54cb697cb01e92b189d0f", "fusion_lon": 0.0, "lon": -77.03260066666667, "name": "4d4679bf0af54cb697cb01e92b189d0f", "is_disabled": 0, "rental_uris": {"android": "https://dc.lft.to/lastmile_qr_scan", "ios": "https://dc.lft.to/lastmile_qr_scan"}, "type": "electric_scooter", "lat": 38.9377925, "is_reserved": 0, "fusion_lat": 0.0}, {"bike_id": "ed2e5eb034d69e5522bb8c7098e74d8b", "fusion_lon": 0.0, "lon": -77.04838633333334, "name": "ed2e5eb034d69e5522bb8c7098e74d8b", "is_disabled": 0, "rental_uris": {"android": "https://dc.lft.to/lastmile_qr_scan", "ios": "https://dc.lft.to/lastmile_qr_scan"}, "type": "electric_scooter", "lat": 38.91031133333333, "is_reserved": 0, "fusion_lat": 0.0}, {"bike_id": "7b520833255ffbc3e07896cbcedcf95d", "fusion_lon": 0.0, "lon": -77.04141, "name": "7b520833255ffbc3e07896cbcedcf95d", "is_disabled": 0, "rental_uris": {"android": "https://dc.lft.to/lastmile_qr_scan", "ios": "https://dc.lft.to/lastmile_qr_scan"}, "type": "electric_scooter", "lat": 38.89355833333333, "is_reserved": 0, "fusion_lat": 0.0}, {"bike_id": "137bdeced57db3c103abf3b99955c650", "fusion_lon": 0.0, "lon": -77.0384335, "name": "137bdeced57db3c103abf3b99955c650", "is_disabled": 0, "rental_uris": {"android": "https://dc.lft.to/lastmile_qr_scan", "ios": "https://dc.lft.to/lastmile_qr_scan"}, "type": "electric_scooter", "lat": 38.9095655, "is_reserved": 0, "fusion_lat": 0.0}, {"bike_id": "c59ec090765f000f7e7dd468f5e3696a", "fusion_lon": 0.0, "lon": -77.0373795, "name": "c59ec090765f000f7e7dd468f5e3696a", "is_disabled": 0, "rental_uris": {"android": "https://dc.lft.to/lastmile_qr_scan", "ios": "https://dc.lft.to/lastmile_qr_scan"}, "type": "electric_scooter", "lat": 38.9161925, "is_reserved": 0, "fusion_lat": 0.0}, {"bike_id": "a2e7d7d18771edaa55060c36b9bda57b", "fusion_lon": 0.0, "lon": -76.975366, "name": "a2e7d7d18771edaa55060c36b9bda57b", "is_disabled": 0, "rental_uris": {"android": "https://dc.lft.to/lastmile_qr_scan", "ios": "https://dc.lft.to/lastmile_qr_scan"}, "type": "electric_bike", "lat": 38.84012833333333, "is_reserved": 0, "fusion_lat": 0.0}, {"bike_id": "1b7bc6dcff33f652149320899d6aae41", "fusion_lon": 0.0, "lon": -77.00570166666667, "name": "1b7bc6dcff33f652149320899d6aae41", "is_disabled": 0, "rental_uris": {"android": "https://dc.lft.to/lastmile_qr_scan", "ios": "https://dc.lft.to/lastmile_qr_scan"}, "type": "electric_scooter", "lat": 38.88502833333333, "is_reserved": 0, "fusion_lat": 0.0}, {"bike_id": "28f4b089d5a72523dcbe85e7c4d4e172", "fusion_lon": 0.0, "lon": -76.9759775, "name": "28f4b089d5a72523dcbe85e7c4d4e172", "is_disabled": 0, "rental_uris": {"android": "https://dc.lft.to/lastmile_qr_scan", "ios": "https://dc.lft.to/lastmile_qr_scan"}, "type": "electric_scooter", "lat": 38.884098333333334, "is_reserved": 0, "fusion_lat": 0.0}, {"bike_id": "6c4ec8ae85239d978573b8167d8dd345", "fusion_lon": 0.0, "lon": -77.03255166666666, "name": "6c4ec8ae85239d978573b8167d8dd345", "is_disabled": 0, "rental_uris": {"android": "https://dc.lft.to/lastmile_qr_scan", "ios": "https://dc.lft.to/lastmile_qr_scan"}, "type": "electric_scooter", "lat": 38.915502833333335, "is_reserved": 0, "fusion_lat": 0.0}, {"bike_id": "dc9ef70cad21d88abae9aa8c309999e1", "fusion_lon": 0.0, "lon": -77.04197883333333, "name": "dc9ef70cad21d88abae9aa8c309999e1", "is_disabled": 0, "rental_uris": {"android": "https://dc.lft.to/lastmile_qr_scan", "ios": "https://dc.lft.to/lastmile_qr_scan"}, "type": "electric_scooter", "lat": 38.920468, "is_reserved": 0, "fusion_lat": 0.0}, {"bike_id": "ccc9a7caf5c792c2f754212abe8620fe", "fusion_lon": 0.0, "lon": -77.02712366666667, "name": "ccc9a7caf5c792c2f754212abe8620fe", "is_disabled": 0, "rental_uris": {"android": "https://dc.lft.to/lastmile_qr_scan", "ios": "https://dc.lft.to/lastmile_qr_scan"}, "type": "electric_scooter", "lat": 38.92236116666667, "is_reserved": 0, "fusion_lat": 0.0}, {"bike_id": "539d14527fb31f661c9f495d2780962d", "fusion_lon": 0.0, "lon": -77.0031825, "name": "539d14527fb31f661c9f495d2780962d", "is_disabled": 0, "rental_uris": {"android": "https://dc.lft.to/lastmile_qr_scan", "ios": "https://dc.lft.to/lastmile_qr_scan"}, "type": "electric_scooter", "lat": 38.9012325, "is_reserved": 0, "fusion_lat": 0.0}, {"bike_id": "9338286131ca14389e336407f34d5655", "fusion_lon": 0.0, "lon": -77.023405, "name": "9338286131ca14389e336407f34d5655", "is_disabled": 0, "rental_uris": {"android": "https://dc.lft.to/lastmile_qr_scan", "ios": "https://dc.lft.to/lastmile_qr_scan"}, "type": "electric_scooter", "lat": 38.944683833333336, "is_reserved": 0, "fusion_lat": 0.0}, {"bike_id": "c90dffe7a93b87c7bba19d34c416e741", "fusion_lon": 0.0, "lon": -76.99477466666667, "name": "c90dffe7a93b87c7bba19d34c416e741", "is_disabled": 0, "rental_uris": {"android": "https://dc.lft.to/lastmile_qr_scan", "ios": "https://dc.lft.to/lastmile_qr_scan"}, "type": "electric_bike", "lat": 38.862677, "is_reserved": 0, "fusion_lat": 0.0}, {"bike_id": "d523a2a4c4834a2b0da37b4dc830a7d3", "fusion_lon": 0.0, "lon": -77.02793033333333, "name": "d523a2a4c4834a2b0da37b4dc830a7d3", "is_disabled": 0, "rental_uris": {"android": "https://dc.lft.to/lastmile_qr_scan", "ios": "https://dc.lft.to/lastmile_qr_scan"}, "type": "electric_scooter", "lat": 38.93082583333333, "is_reserved": 0, "fusion_lat": 0.0}, {"bike_id": "72eae7e57570bfde2b98f63354405906", "fusion_lon": 0.0, "lon": -76.97769133333334, "name": "72eae7e57570bfde2b98f63354405906", "is_disabled": 0, "rental_uris": {"android": "https://dc.lft.to/lastmile_qr_scan", "ios": "https://dc.lft.to/lastmile_qr_scan"}, "type": "electric_scooter", "lat": 38.8706745, "is_reserved": 0, "fusion_lat": 0.0}, {"bike_id": "df30faa5525fbe2aadd3952925763fba", "fusion_lon": 0.0, "lon": -77.02684966666666, "name": "df30faa5525fbe2aadd3952925763fba", "is_disabled": 0, "rental_uris": {"android": "https://dc.lft.to/lastmile_qr_scan", "ios": "https://dc.lft.to/lastmile_qr_scan"}, "type": "electric_scooter", "lat": 38.91268383333333, "is_reserved": 0, "fusion_lat": 0.0}, {"bike_id": "b609612251a2bd22a6add9b13b320bba", "fusion_lon": 0.0, "lon": -77.12487216666666, "name": "b609612251a2bd22a6add9b13b320bba", "is_disabled": 0, "rental_uris": {"android": "https://dc.lft.to/lastmile_qr_scan", "ios": "https://dc.lft.to/lastmile_qr_scan"}, "type": "electric_bike", "lat": 38.85394466666666, "is_reserved": 0, "fusion_lat": 0.0}, {"bike_id": "ab9d482d9a1cae6d7dc1074a2971ec09", "fusion_lon": 0.0, "lon": -77.00351616666667, "name": "ab9d482d9a1cae6d7dc1074a2971ec09", "is_disabled": 0, "rental_uris": {"android": "https://dc.lft.to/lastmile_qr_scan", "ios": "https://dc.lft.to/lastmile_qr_scan"}, "type": "electric_scooter", "lat": 38.90144133333333, "is_reserved": 0, "fusion_lat": 0.0}, {"bike_id": "550c4c4e6aa0b3bacd2b0e368caf046b", "fusion_lon": 0.0, "lon": -76.98007633333333, "name": "550c4c4e6aa0b3bacd2b0e368caf046b", "is_disabled": 0, "rental_uris": {"android": "https://dc.lft.to/lastmile_qr_scan", "ios": "https://dc.lft.to/lastmile_qr_scan"}, "type": "electric_scooter", "lat": 38.907782166666664, "is_reserved": 0, "fusion_lat": 0.0}, {"bike_id": "cee6a86e293e7e89c08a76b745cd4141", "fusion_lon": 0.0, "lon": -77.24442233333333, "name": "cee6a86e293e7e89c08a76b745cd4141", "is_disabled": 0, "rental_uris": {"android": "https://dc.lft.to/lastmile_qr_scan", "ios": "https://dc.lft.to/lastmile_qr_scan"}, "type": "electric_bike", "lat": 38.881931, "is_reserved": 0, "fusion_lat": 0.0}, {"bike_id": "47455e34c98bd36454e960f3abeaecb9", "fusion_lon": 0.0, "lon": -77.021668, "name": "47455e34c98bd36454e960f3abeaecb9", "is_disabled": 0, "rental_uris": {"android": "https://dc.lft.to/lastmile_qr_scan", "ios": "https://dc.lft.to/lastmile_qr_scan"}, "type": "electric_scooter", "lat": 38.88334033333334, "is_reserved": 0, "fusion_lat": 0.0}, {"bike_id": "e46ffefb8e19ee798791cbdee5276bac", "fusion_lon": 0.0, "lon": -76.9375155, "name": "e46ffefb8e19ee798791cbdee5276bac", "is_disabled": 0, "rental_uris": {"android": "https://dc.lft.to/lastmile_qr_scan", "ios": "https://dc.lft.to/lastmile_qr_scan"}, "type": "electric_scooter", "lat": 38.890488833333336, "is_reserved": 0, "fusion_lat": 0.0}, {"bike_id": "6d2a3ee98c4dcd8bcc629ff32fa9a7b4", "fusion_lon": 0.0, "lon": -77.04328533333333, "name": "6d2a3ee98c4dcd8bcc629ff32fa9a7b4", "is_disabled": 0, "rental_uris": {"android": "https://dc.lft.to/lastmile_qr_scan", "ios": "https://dc.lft.to/lastmile_qr_scan"}, "type": "electric_scooter", "lat": 38.892277666666665, "is_reserved": 0, "fusion_lat": 0.0}, {"bike_id": "8d1d56b4cbd47921547f187f55b66add", "fusion_lon": 0.0, "lon": -76.97164533333333, "name": "8d1d56b4cbd47921547f187f55b66add", "is_disabled": 0, "rental_uris": {"android": "https://dc.lft.to/lastmile_qr_scan", "ios": "https://dc.lft.to/lastmile_qr_scan"}, "type": "electric_bike", "lat": 38.916436, "is_reserved": 0, "fusion_lat": 0.0}, {"bike_id": "f6450153b414dc10b5ba44929f1d3f1d", "fusion_lon": 0.0, "lon": -77.04327683333334, "name": "f6450153b414dc10b5ba44929f1d3f1d", "is_disabled": 0, "rental_uris": {"android": "https://dc.lft.to/lastmile_qr_scan", "ios": "https://dc.lft.to/lastmile_qr_scan"}, "type": "electric_scooter", "lat": 38.892249166666666, "is_reserved": 0, "fusion_lat": 0.0}, {"bike_id": "ff0ea18f35403641eb22c4263c07274a", "fusion_lon": 0.0, "lon": -77.04698416666666, "name": "ff0ea18f35403641eb22c4263c07274a", "is_disabled": 0, "rental_uris": {"android": "https://dc.lft.to/lastmile_qr_scan", "ios": "https://dc.lft.to/lastmile_qr_scan"}, "type": "electric_scooter", "lat": 38.909704166666664, "is_reserved": 0, "fusion_lat": 0.0}, {"bike_id": "14e79ec24dd6c0c7703f7b6fd5bed921", "fusion_lon": 0.0, "lon": -77.2332105, "name": "14e79ec24dd6c0c7703f7b6fd5bed921", "is_disabled": 0, "rental_uris": {"android": "https://dc.lft.to/lastmile_qr_scan", "ios": "https://dc.lft.to/lastmile_qr_scan"}, "type": "electric_bike", "lat": 38.87285266666667, "is_reserved": 0, "fusion_lat": 0.0}, {"bike_id": "db0147047cdf9fc6d1da38e2a352d26a", "fusion_lon": 0.0, "lon": -77.01885816666666, "name": "db0147047cdf9fc6d1da38e2a352d26a", "is_disabled": 0, "rental_uris": {"android": "https://dc.lft.to/lastmile_qr_scan", "ios": "https://dc.lft.to/lastmile_qr_scan"}, "type": "electric_scooter", "lat": 38.90429183333333, "is_reserved": 0, "fusion_lat": 0.0}, {"bike_id": "eeaf6ba5170491f89edd376db1e42bd9", "fusion_lon": 0.0, "lon": -77.03229183333333, "name": "eeaf6ba5170491f89edd376db1e42bd9", "is_disabled": 0, "rental_uris": {"android": "https://dc.lft.to/lastmile_qr_scan", "ios": "https://dc.lft.to/lastmile_qr_scan"}, "type": "electric_scooter", "lat": 38.96166216666667, "is_reserved": 0, "fusion_lat": 0.0}, {"bike_id": "0570bfd5f8397e1a9bf3a477eacdaf95", "fusion_lon": 0.0, "lon": -77.02686933333334, "name": "0570bfd5f8397e1a9bf3a477eacdaf95", "is_disabled": 0, "rental_uris": {"android": "https://dc.lft.to/lastmile_qr_scan", "ios": "https://dc.lft.to/lastmile_qr_scan"}, "type": "electric_scooter", "lat": 38.912673166666664, "is_reserved": 0, "fusion_lat": 0.0}, {"bike_id": "7e2d34ccb6095b986fbde9e5ba8d96f4", "fusion_lon": 0.0, "lon": -77.02951966666667, "name": "7e2d34ccb6095b986fbde9e5ba8d96f4", "is_disabled": 0, "rental_uris": {"android": "https://dc.lft.to/lastmile_qr_scan", "ios": "https://dc.lft.to/lastmile_qr_scan"}, "type": "electric_scooter", "lat": 38.907057, "is_reserved": 0, "fusion_lat": 0.0}, {"bike_id": "93cfc4cce5eb0a9de136279501187e9e", "fusion_lon": 0.0, "lon": -77.07594416666667, "name": "93cfc4cce5eb0a9de136279501187e9e", "is_disabled": 0, "rental_uris": {"android": "https://dc.lft.to/lastmile_qr_scan", "ios": "https://dc.lft.to/lastmile_qr_scan"}, "type": "electric_scooter", "lat": 38.912131, "is_reserved": 0, "fusion_lat": 0.0}, {"bike_id": "ffa6ac2696d504bf86e1ac464a117a51", "fusion_lon": 0.0, "lon": -77.01764816666666, "name": "ffa6ac2696d504bf86e1ac464a117a51", "is_disabled": 0, "rental_uris": {"android": "https://dc.lft.to/lastmile_qr_scan", "ios": "https://dc.lft.to/lastmile_qr_scan"}, "type": "electric_bike", "lat": 38.878771, "is_reserved": 0, "fusion_lat": 0.0}, {"bike_id": "87a9b81181ae94dcb6cbc48c495aff45", "fusion_lon": 0.0, "lon": -77.01779483333334, "name": "87a9b81181ae94dcb6cbc48c495aff45", "is_disabled": 0, "rental_uris": {"android": "https://dc.lft.to/lastmile_qr_scan", "ios": "https://dc.lft.to/lastmile_qr_scan"}, "type": "electric_scooter", "lat": 38.944199166666664, "is_reserved": 0, "fusion_lat": 0.0},