{"data": {"bikes": [{"is_disabled": 0, "fusion_lon": 0.0, "fusion_lat": 0.0, "lat": 38.9557125, "type": "electric_scooter", "lon": -77.02564683333334, "bike_id": "4a04aa9af9a13bc096b775ec9a2f0c7d", "rental_uris": {"android": "https://dc.lft.to/lastmile_qr_scan", "ios": "https://dc.lft.to/lastmile_qr_scan"}, "name": "4a04aa9af9a13bc096b775ec9a2f0c7d", "is_reserved": 0}, {"is_disabled": 0, "fusion_lon": 0.0, "fusion_lat": 0.0, "lat": 38.85869866666667, "type": "electric_scooter", "lon": -76.99027333333333, "bike_id": "5aa6b9260c570462be76c0523d9fd075", "rental_uris": {"android": "https://dc.lft.to/lastmile_qr_scan", "ios": "https://dc.lft.to/lastmile_qr_scan"}, "name": "5aa6b9260c570462be76c0523d9fd075", "is_reserved": 0}, {"is_disabled": 0, "fusion_lon": 0.0, "fusion_lat": 0.0, "lat": 38.9093575, "type": "electric_scooter", "lon": -76.99894683333333, "bike_id": "b53dff31e80f5971ead73dc22fcdda44", "rental_uris": {"android": "https://dc.lft.to/lastmile_qr_scan", "ios": "https://dc.lft.to/lastmile_qr_scan"}, "name": "b53dff31e80f5971ead73dc22fcdda44", "is_reserved": 0}, {"is_disabled": 0, "fusion_lon": 0.0, "fusion_lat": 0.0, "lat": 38.9396905, "type": "electric_scooter", "lon": -77.03259833333334, "bike_id": "4d60f0efc01f5b9e7521e12c23136c28", "rental_uris": {"android": "https://dc.lft.to/lastmile_qr_scan", "ios": "https://dc.lft.to/lastmile_qr_scan"}, "name": "4d60f0efc01f5b9e7521e12c23136c28", "is_reserved": 0}, {"is_disabled": 0, "fusion_lon": 0.0, "fusion_lat": 0.0, "lat": 38.915983833333335, "type": "electric_scooter", "lon": -77.02349483333333, "bike_id": "c420678efa4d5c246799123f0e3b1aa3", "rental_uris": {"android": "https://dc.lft.to/lastmile_qr_scan", "ios": "https://dc.lft.to/lastmile_qr_scan"}, "name": "c420678efa4d5c246799123f0e3b1aa3", "is_reserved": 0}, {"is_disabled": 0, "fusion_lon": 0.0, "fusion_lat": 0.0, "lat": 38.900627666666665, "type": "electric_scooter", "lon": -77.04805383333333, "bike_id": "361a3079c12e3adbe0b9251635241ac1", "rental_uris": {"android": "https://dc.lft.to/lastmile_qr_scan", "ios": "https://dc.lft.to/lastmile_qr_scan"}, "name": "361a3079c12e3adbe0b9251635241ac1", "is_reserved": 0}, {"is_disabled": 0, "fusion_lon": 0.0, "fusion_lat": 0.0, "lat": 38.891558, "type": "electric_scooter", "lon": -76.91907, "bike_id": "052f9fabb2e18ceafdadb061a7012bf8", "rental_uris": {"android": "https://dc.lft.to/lastmile_qr_scan", "ios": "https://dc.lft.to/lastmile_qr_scan"}, "name": "052f9fabb2e18ceafdadb061a7012bf8", "is_reserved": 0}, {"is_disabled": 0, "fusion_lon": 0.0, "fusion_lat": 0.0, "lat": 38.894719333333335, "type": "electric_scooter", "lon": -76.9331045, "bike_id": "8f9dffebfd9936ec4af3f9e410cc71de", "rental_uris": {"android": "https://dc.lft.to/lastmile_qr_scan", "ios": "https://dc.lft.to/lastmile_qr_scan"}, "name": "8f9dffebfd9936ec4af3f9e410cc71de", "is_reserved": 0}, {"is_disabled": 0, "fusion_lon": 0.0, "fusion_lat": 0.0, "lat": 38.88425933333333, "type": "electric_scooter", "lon": -77.01967316666666, "bike_id": "6dea4a981f920a0d4a88b831c4e67ee9", "rental_uris": {"android": "https://dc.lft.to/lastmile_qr_scan", "ios": "https://dc.lft.to/lastmile_qr_scan"}, "name": "6dea4a981f920a0d4a88b831c4e67ee9", "is_reserved": 0}, {"is_disabled": 0, "fusion_lon": 0.0, "fusion_lat": 0.0, "lat": 38.919505666666666, "type": "electric_scooter", "lon": -77.03402083333333, "bike_id": "3b402c5d6545cc8db58512de7eb61340", "rental_uris": {"android": "https://dc.lft.to/lastmile_qr_scan", "ios": "https://dc.lft.to/lastmile_qr_scan"}, "name": "3b402c5d6545cc8db58512de7eb61340", "is_reserved": 0}, {"is_disabled": 0, "fusion_lon": 0.0, "fusion_lat": 0.0, "lat": 38.89795783333334, "type": "electric_scooter", "lon": -77.01194316666667, "bike_id": "c6d93108b12b109540f752929204bfa5", "rental_uris": {"android": "https://dc.lft.to/lastmile_qr_scan", "ios": "https://dc.lft.to/lastmile_qr_scan"}, "name": "c6d93108b12b109540f752929204bfa5", "is_reserved": 0}, {"is_disabled": 0, "fusion_lon": 0.0, "fusion_lat": 0.0, "lat": 38.90005633333333, "type": "electric_scooter", "lon": -77.00666133333333, "bike_id": "5603467c58e01b5081bbd95328b29a2d", "rental_uris": {"android": "https://dc.lft.to/lastmile_qr_scan", "ios": "https://dc.lft.to/lastmile_qr_scan"}, "name": "5603467c58e01b5081bbd95328b29a2d", "is_reserved": 0}, {"is_disabled": 0, "fusion_lon": 0.0, "fusion_lat": 0.0, "lat": 38.878974666666664, "type": "electric_scooter", "lon": -76.93527883333333, "bike_id": "b8b165ba269a43214be11830d7b47346", "rental_uris": {"android": "https://dc.lft.to/lastmile_qr_scan", "ios": "https://dc.lft.to/lastmile_qr_scan"}, "name": "b8b165ba269a43214be11830d7b47346", "is_reserved": 0}, {"is_disabled": 0, "fusion_lon": 0.0, "fusion_lat": 0.0, "lat": 38.94302716666667, "type": "electric_scooter", "lon": -77.02533233333334, "bike_id": "a76c32fcb033dca81270522a03537f9d", "rental_uris": {"android": "https://dc.lft.to/lastmile_qr_scan", "ios": "https://dc.lft.to/lastmile_qr_scan"}, "name": "a76c32fcb033dca81270522a03537f9d", "is_reserved": 0}, {"is_disabled": 0, "fusion_lon": 0.0, "fusion_lat": 0.0, "lat": 38.903839, "type": "electric_scooter", "lon": -77.053505, "bike_id": "342ba2f08c0848dcf0986b706e20a0b9", "rental_uris": {"android": "https://dc.lft.to/lastmile_qr_scan", "ios": "https://dc.lft.to/lastmile_qr_scan"}, "name": "342ba2f08c0848dcf0986b706e20a0b9", "is_reserved": 0}, {"is_disabled": 0, "fusion_lon": 0.0, "fusion_lat": 0.0, "lat": 38.902318666666666, "type": "electric_scooter", "lon": -77.0285525, "bike_id": "b63c3cdc0465e8d7874c856b4f10c658", "rental_uris": {"android": "https://dc.lft.to/lastmile_qr_scan", "ios": "https://dc.lft.to/lastmile_qr_scan"}, "name": "b63c3cdc0465e8d7874c856b4f10c658", "is_reserved": 0}, {"is_disabled": 0, "fusion_lon": 0.0, "fusion_lat": 0.0, "lat": 38.878179833333334, "type": "electric_scooter", "lon": -77.0055475, "bike_id": "a033c52cbd43ce8c1369b346bdc08f97", "rental_uris": {"android": "https://dc.lft.to/lastmile_qr_scan", "ios": "https://dc.lft.to/lastmile_qr_scan"}, "name": "a033c52cbd43ce8c1369b346bdc08f97", "is_reserved": 0}, {"is_disabled": 0, "fusion_lon": 0.0, "fusion_lat": 0.0, "lat": 38.80887466666667, "type": "electric_bike", "lon": -77.1382615, "bike_id": "2a16facea1dba5f686f8855630563a34", "rental_uris": {"android": "https://dc.lft.to/lastmile_qr_scan", "ios": "https://dc.lft.to/lastmile_qr_scan"}, "name": "2a16facea1dba5f686f8855630563a34", "is_reserved": 0}, {"is_disabled": 0, "fusion_lon": 0.0, "fusion_lat": 0.0, "lat": 38.92973383333333, "type": "electric_scooter", "lon": -77.0365605, "bike_id": "5cd58d2d90afc95eb882d4adf9fce19a", "rental_uris": {"android": "https://dc.lft.to/lastmile_qr_scan", "ios": "https://dc.lft.to/lastmile_qr_scan"}, "name": "5cd58d2d90afc95eb882d4adf9fce19a", "is_reserved": 0}, {"is_disabled": 0, "fusion_lon": 0.0, "fusion_lat": 0.0, "lat": 38.91927316666667, "type": "electric_scooter", "lon": -77.00947716666667, "bike_id": "b639036dedc57d5a61550b980988a5a8", "rental_uris": {"android": "https://dc.lft.to/lastmile_qr_scan", "ios": "https://dc.lft.to/lastmile_qr_scan"}, "name": "b639036dedc57d5a61550b980988a5a8", "is_reserved": 0}, {"is_disabled": 0, "fusion_lon": 0.0, "fusion_lat": 0.0, "lat": 38.91546183333333, "type": "electric_scooter", "lon": -77.03862166666667, "bike_id": "b057207bde49774fb18fdf296588c87b", "rental_uris": {"android": "https://dc.lft.to/lastmile_qr_scan", "ios": "https://dc.lft.to/lastmile_qr_scan"}, "name": "b057207bde49774fb18fdf296588c87b", "is_reserved": 0}, {"is_disabled": 0, "fusion_lon": 0.0, "fusion_lat": 0.0, "lat": 38.9324845, "type": "electric_scooter", "lon": -77.0401395, "bike_id": "b9cdaf139eaa1a6b96c7943f09c0a0b3", "rental_uris": {"android": "https://dc.lft.to/lastmile_qr_scan", "ios": "https://dc.lft.to/lastmile_qr_scan"}, "name": "b9cdaf139eaa1a6b96c7943f09c0a0b3", "is_reserved": 0}, {"is_disabled": 0, "fusion_lon": 0.0, "fusion_lat": 0.0, "lat": 38.928689, "type": "electric_scooter", "lon": -76.99031516666666, "bike_id": "09aec4f29a44b58b360cb1461ed97a04", "rental_uris": {"android": "https://dc.lft.to/lastmile_qr_scan", "ios": "https://dc.lft.to/lastmile_qr_scan"}, "name": "09aec4f29a44b58b360cb1461ed97a04", "is_reserved": 0}, {"is_disabled": 0, "fusion_lon": 0.0, "fusion_lat": 0.0, "lat": 38.93475216666667, "type": "electric_scooter", "lon": -77.072725, "bike_id": "44adb7d66f9929813e4fb97adc164371", "rental_uris": {"android": "https://dc.lft.to/lastmile_qr_scan", "ios": "https://dc.lft.to/lastmile_qr_scan"}, "name": "44adb7d66f9929813e4fb97adc164371", "is_reserved": 0}, {"is_disabled": 0, "fusion_lon": 0.0, "fusion_lat": 0.0, "lat": 38.859872, "type": "electric_bike", "lon": -76.97055116666667, "bike_id": "4074ae70b7f15107bdbba8ddd39b890d", "rental_uris": {"android": "https://dc.lft.to/lastmile_qr_scan", "ios": "https://dc.lft.to/lastmile_qr_scan"}, "name": "4074ae70b7f15107bdbba8ddd39b890d", "is_reserved": 0}, {"is_disabled": 0, "fusion_lon": 0.0, "fusion_lat": 0.0, "lat": 38.994549666666664, "type": "electric_bike", "lon": -76.908233, "bike_id": "79b8dbf6086accd4c228f0cc7a2c0dab", "rental_uris": {"android": "https://dc.lft.to/lastmile_qr_scan", "ios": "https://dc.lft.to/lastmile_qr_scan"}, "name": "79b8dbf6086accd4c228f0cc7a2c0dab", "is_reserved": 0}, {"is_disabled": 0, "fusion_lon": 0.0, "fusion_lat": 0.0, "lat": 38.86662066666667, "type": "electric_scooter", "lon": -76.98893783333334, "bike_id": "17e9918c256ec3b9065adc199a732088", "rental_uris": {"android": "https://dc.lft.to/lastmile_qr_scan", "ios": "https://dc.lft.to/lastmile_qr_scan"}, "name": "17e9918c256ec3b9065adc199a732088", "is_reserved": 0}, {"is_disabled": 0, "fusion_lon": 0.0, "fusion_lat": 0.0, "lat": 38.903322333333335, "type": "electric_scooter", "lon": -77.03667483333334, "bike_id": "c4e19c76a1fee25146960767c4a322df", "rental_uris": {"android": "https://dc.lft.to/lastmile_qr_scan", "ios": "https://dc.lft.to/lastmile_qr_scan"}, "name": "c4e19c76a1fee25146960767c4a322df", "is_reserved": 0}, {"is_disabled": 0, "fusion_lon": 0.0, "fusion_lat": 0.0, "lat": 38.923446, "type": "electric_scooter", "lon": -76.998557, "bike_id": "3e8283a0ed2deb61c3e6a05928f093ab", "rental_uris": {"android": "https://dc.lft.to/lastmile_qr_scan", "ios": "https://dc.lft.to/lastmile_qr_scan"}, "name": "3e8283a0ed2deb61c3e6a05928f093ab", "is_reserved": 0}, {"is_disabled": 0, "fusion_lon": 0.0, "fusion_lat": 0.0, "lat": 38.918190833333334, "type": "electric_scooter", "lon": -77.024771, "bike_id": "d12dbfd693704a97181ffd01859d065a", "rental_uris": {"android": "https://dc.lft.to/lastmile_qr_scan", "ios": "https://dc.lft.to/lastmile_qr_scan"}, "name": "d12dbfd693704a97181ffd01859d065a", "is_reserved": 0}, {"is_disabled": 0, "fusion_lon": 0.0, "fusion_lat": 0.0, "lat": 38.925580833333335, "type": "electric_scooter", "lon": -77.02281716666667, "bike_id": "d9f6afa9b200a4616d3338791000bab2", "rental_uris": {"android": "https://dc.lft.to/lastmile_qr_scan", "ios": "https://dc.lft.to/lastmile_qr_scan"}, "name": "d9f6afa9b200a4616d3338791000bab2", "is_reserved": 0}, {"is_disabled": 0, "fusion_lon": 0.0, "fusion_lat": 0.0, "lat": 38.880107, "type": "electric_bike", "lon": -76.91596433333333, "bike_id": "07ba955a0b28ab17e9b2db092baf5cf7", "rental_uris": {"android": "https://dc.lft.to/lastmile_qr_scan", "ios": "https://dc.lft.to/lastmile_qr_scan"}, "name": "07ba955a0b28ab17e9b2db092baf5cf7", "is_reserved": 0}, {"is_disabled": 0, "fusion_lon": 0.0, "fusion_lat": 0.0, "lat": 38.86952083333333, "type": "electric_scooter", "lon": -76.97590583333333, "bike_id": "903c72e2cdcd4e79630e32e24cbb7863", "rental_uris": {"android": "https://dc.lft.to/lastmile_qr_scan", "ios": "https://dc.lft.to/lastmile_qr_scan"}, "name": "903c72e2cdcd4e79630e32e24cbb7863", "is_reserved": 0}, {"is_disabled": 0, "fusion_lon": 0.0, "fusion_lat": 0.0, "lat": 38.80538466666667, "type": "electric_bike", "lon": -77.04026533333334, "bike_id": "4763c8ac50daec5409cedfda31cc8635", "rental_uris": {"android": "https://dc.lft.to/lastmile_qr_scan", "ios": "https://dc.lft.to/lastmile_qr_scan"}, "name": "4763c8ac50daec5409cedfda31cc8635", "is_reserved": 0}, {"is_disabled": 0, "fusion_lon": 0.0, "fusion_lat": 0.0, "lat": 38.898248333333335, "type": "electric_scooter", "lon": -76.9465645, "bike_id": "cb9bf87a71bcd48db3ae72b7f268b5e2", "rental_uris": {"android": "https://dc.lft.to/lastmile_qr_scan", "ios": "https://dc.lft.to/lastmile_qr_scan"}, "name": "cb9bf87a71bcd48db3ae72b7f268b5e2", "is_reserved": 0}, {"is_disabled": 0, "fusion_lon": 0.0, "fusion_lat": 0.0, "lat": 38.9038705, "type": "electric_scooter", "lon": -76.9900385, "bike_id": "6785735d18a559407178af28c5ad1460", "rental_uris": {"android": "https://dc.lft.to/lastmile_qr_scan", "ios": "https://dc.lft.to/lastmile_qr_scan"}, "name": "6785735d18a559407178af28c5ad1460", "is_reserved": 0}, {"is_disabled": 0, "fusion_lon": 0.0, "fusion_lat": 0.0, "lat": 38.91995633333333, "type": "electric_scooter", "lon": -77.0323295, "bike_id": "677e9a207c5dbffc2406a900b8279489", "rental_uris": {"android": "https://dc.lft.to/lastmile_qr_scan", "ios": "https://dc.lft.to/lastmile_qr_scan"}, "name": "677e9a207c5dbffc2406a900b8279489", "is_reserved": 0}, {"is_disabled": 0, "fusion_lon": 0.0, "fusion_lat": 0.0, "lat": 38.90385883333333, "type": "electric_scooter", "lon": -77.038254, "bike_id": "694044207f5f57452d7b65108c8314b0", "rental_uris": {"android": "https://dc.lft.to/lastmile_qr_scan", "ios": "https://dc.lft.to/lastmile_qr_scan"}, "name": "694044207f5f57452d7b65108c8314b0", "is_reserved": 0}, {"is_disabled": 0, "fusion_lon": 0.0, "fusion_lat": 0.0, "lat": 38.94624266666667, "type": "electric_bike", "lon": -76.9341075, "bike_id": "a72fd86c4784a171a45c50c9b6040a6e", "rental_uris": {"android": "https://dc.lft.to/lastmile_qr_scan", "ios": "https://dc.lft.to/lastmile_qr_scan"}, "name": "a72fd86c4784a171a45c50c9b6040a6e", "is_reserved": 0}, {"is_disabled": 0, "fusion_lon": 0.0, "fusion_lat": 0.0, "lat": 38.92484483333333, "type": "electric_scooter", "lon": -77.030691, "bike_id": "4613e4e899a586178be29747abe308ec", "rental_uris": {"android": "https://dc.lft.to/lastmile_qr_scan", "ios": "https://dc.lft.to/lastmile_qr_scan"}, "name": "4613e4e899a586178be29747abe308ec", "is_reserved": 0}, {"is_disabled": 0, "fusion_lon": 0.0, "fusion_lat": 0.0, "lat": 38.91723566666667, "type": "electric_scooter", "lon": -77.0229625, "bike_id": "284dbf12d445b751fb5a832eb5cb36f8", "rental_uris": {"android": "https://dc.lft.to/lastmile_qr_scan", "ios": "https://dc.lft.to/lastmile_qr_scan"}, "name": "284dbf12d445b751fb5a832eb5cb36f8", "is_reserved": 0}, {"is_disabled": 0, "fusion_lon": 0.0, "fusion_lat": 0.0, "lat": 38.9126415, "type": "electric_scooter", "lon": -77.01134083333334, "bike_id": "4b9ef6d02ec51e77cc00d2d0fe501192", "rental_uris": {"android": "https://dc.lft.to/lastmile_qr_scan", "ios": "https://dc.lft.to/lastmile_qr_scan"}, "name": "4b9ef6d02ec51e77cc00d2d0fe501192", "is_reserved": 0}, {"is_disabled": 0, "fusion_lon": 0.0, "fusion_lat": 0.0, "lat": 38.90021316666667, "type": "electric_scooter", "lon": -77.05601016666667, "bike_id": "7e683e9a9143d940b3f7633b0d948df3", "rental_uris": {"android": "https://dc.lft.to/lastmile_qr_scan", "ios": "https://dc.lft.to/lastmile_qr_scan"}, "name": "7e683e9a9143d940b3f7633b0d948df3", "is_reserved": 0}, {"is_disabled": 0, "fusion_lon": 0.0, "fusion_lat": 0.0, "lat": 38.970521166666664, "type": "electric_bike", "lon": -77.03082683333334, "bike_id": "bd8527ed243defc334b566d4e5e3df71", "rental_uris": {"android": "https://dc.lft.to/lastmile_qr_scan", "ios": "https://dc.lft.to/lastmile_qr_scan"}, "name": "bd8527ed243defc334b566d4e5e3df71", "is_reserved": 0}, {"is_disabled": 0, "fusion_lon": 0.0, "fusion_lat": 0.0, "lat": 38.904957333333336, "type": "electric_scooter", "lon": -77.01998066666667, "bike_id": "af7a1ca2d4add9647e5f5a72ced027b2", "rental_uris": {"android": "https://dc.lft.to/lastmile_qr_scan", "ios": "https://dc.lft.to/lastmile_qr_scan"}, "name": "af7a1ca2d4add9647e5f5a72ced027b2", "is_reserved": 0}, {"is_disabled": 0, "fusion_lon": 0.0, "fusion_lat": 0.0, "lat": 38.914290666666666, "type": "electric_scooter", "lon": -77.02960916666666, "bike_id": "1a500d48eacc4301427379522bb32361", "rental_uris": {"android": "https://dc.lft.to/lastmile_qr_scan", "ios": "https://dc.lft.to/lastmile_qr_scan"}, "name": "1a500d48eacc4301427379522bb32361", "is_reserved": 0}, {"is_disabled": 0, "fusion_lon": 0.0, "fusion_lat": 0.0, "lat": 38.91662433333333, "type": "electric_scooter", "lon": -77.02703566666666, "bike_id": "1427dc9a7376bc744031c0acdb9efb19", "rental_uris": {"android": "https://dc.lft.to/lastmile_qr_scan", "ios": "https://dc.lft.to/lastmile_qr_scan"}, "name": "1427dc9a7376bc744031c0acdb9efb19", "is_reserved": 0}, {"is_disabled": 0, "fusion_lon": 0.0, "fusion_lat": 0.0, "lat": 38.916473333333336, "type": "electric_scooter", "lon": -77.0477955, "bike_id": "1867264da728baf8aa00004c7c5b8255", "rental_uris": {"android": "https://dc.lft.to/lastmile_qr_scan", "ios": "https://dc.lft.to/lastmile_qr_scan"}, "name": "1867264da728baf8aa00004c7c5b8255", "is_reserved": 0}, {"is_disabled": 0, "fusion_lon": 0.0, "fusion_lat": 0.0, "lat": 38.90665166666667, "type": "electric_scooter", "lon": -77.02709933333334, "bike_id": "a88e362fa6a9fef9d879c6e1e008c592", "rental_uris": {"android": "https://dc.lft.to/lastmile_qr_scan", "ios": "https://dc.lft.to/lastmile_qr_scan"}, "name": "a88e362fa6a9fef9d879c6e1e008c592", "is_reserved": 0}, {"is_disabled": 0, "fusion_lon": 0.0, "fusion_lat": 0.0, "lat": 38.87622133333333, "type": "electric_scooter", "lon": -76.96536533333334, "bike_id": "8f6480f048f8dfbbf17449faa2097966", "rental_uris": {"android": "https://dc.lft.to/lastmile_qr_scan", "ios": "https://dc.lft.to/lastmile_qr_scan"}, "name": "8f6480f048f8dfbbf17449faa2097966", "is_reserved": 0}, {"is_disabled": 0, "fusion_lon": 0.0, "fusion_lat": 0.0, "lat": 38.90246416666667, "type": "electric_bike", "lon": -76.97016766666667, "bike_id": "14a0a662d1865a6d04264fd71eb24d4f", "rental_uris": {"android": "https://dc.lft.to/lastmile_qr_scan", "ios": "https://dc.lft.to/lastmile_qr_scan"}, "name": "14a0a662d1865a6d04264fd71eb24d4f", "is_reserved": 0}, {"is_disabled": 0, "fusion_lon": 0.0, "fusion_lat": 0.0, "lat": 38.85042583333333, "type": "electric_bike", "lon": -77.10110933333333, "bike_id": "42d2384e6cda290abbdff83618303b6a", "rental_uris": {"android": "https://dc.lft.to/lastmile_qr_scan", "ios": "https://dc.lft.to/lastmile_qr_scan"}, "name": "42d2384e6cda290abbdff83618303b6a", "is_reserved": 0}, {"is_disabled": 0, "fusion_lon": 0.0, "fusion_lat": 0.0, "lat": 38.861651333333334, "type": "electric_scooter", "lon": -76.96838133333333, "bike_id": "384c2e4fb8271b8f5281a09995cf994d", "rental_uris": {"android": "https://dc.lft.to/lastmile_qr_scan", "ios": "https://dc.lft.to/lastmile_qr_scan"}, "name": "384c2e4fb8271b8f5281a09995cf994d", "is_reserved": 0}, {"is_disabled": 0, "fusion_lon": 0.0, "fusion_lat": 0.0, "lat": 38.92864983333333, "type": "electric_scooter", "lon": -77.0343015, "bike_id": "c76684508dfa6f11a7e24e663d7025a4", "rental_uris": {"android": "https://dc.lft.to/lastmile_qr_scan", "ios": "https://dc.lft.to/lastmile_qr_scan"}, "name": "c76684508dfa6f11a7e24e663d7025a4", "is_reserved": 0}, {"is_disabled": 0, "fusion_lon": 0.0, "fusion_lat": 0.0, "lat": 38.9147105, "type": "electric_scooter", "lon": -77.02174316666667, "bike_id": "534ed8b4a70b4e003daf785532ddceff", "rental_uris": {"android": "https://dc.lft.to/lastmile_qr_scan", "ios": "https://dc.lft.to/lastmile_qr_scan"}, "name": "534ed8b4a70b4e003daf785532ddceff", "is_reserved": 0}, {"is_disabled": 0, "fusion_lon": 0.0, "fusion_lat": 0.0, "lat": 38.8968055, "type": "electric_scooter", "lon": -76.97624966666666, "bike_id": "ca644e91933cbeca78a6c9b498049297", "rental_uris": {"android": "https://dc.lft.to/lastmile_qr_scan", "ios": "https://dc.lft.to/lastmile_qr_scan"}, "name": "ca644e91933cbeca78a6c9b498049297", "is_reserved": 0}, {"is_disabled": 0, "fusion_lon": 0.0, "fusion_lat": 0.0, "lat": 38.9282715, "type": "electric_scooter", "lon": -77.02160533333333, "bike_id": "251d5ad90414bfa266b611bce3579fbe", "rental_uris": {"android": "https://dc.lft.to/lastmile_qr_scan", "ios": "https://dc.lft.to/lastmile_qr_scan"}, "name": "251d5ad90414bfa266b611bce3579fbe", "is_reserved": 0}, {"is_disabled": 0, "fusion_lon": 0.0, "fusion_lat": 0.0, "lat": 38.92293766666667, "type": "electric_scooter", "lon": -77.041512, "bike_id": "9ead18be5d385234810ab215f6b013aa", "rental_uris": {"android": "https://dc.lft.to/lastmile_qr_scan", "ios": "https://dc.lft.to/lastmile_qr_scan"}, "name": "9ead18be5d385234810ab215f6b013aa", "is_reserved": 0}, {"is_disabled": 0, "fusion_lon": 0.0, "fusion_lat": 0.0, "lat": 38.88754383333333, "type": "electric_scooter", "lon": -77.00230183333333, "bike_id": "b8290b994d7b29742c3b3e2de3b7e900", "rental_uris": {"android": "https://dc.lft.to/lastmile_qr_scan", "ios": "https://dc.lft.to/lastmile_qr_scan"}, "name": "b8290b994d7b29742c3b3e2de3b7e900", "is_reserved": 0}, {"is_disabled": 0, "fusion_lon": 0.0, "fusion_lat": 0.0, "lat": 38.8992145, "type": "electric_scooter", "lon": -76.9916365, "bike_id": "77e7feaa1520cb363079a01267dc3bb6", "rental_uris": {"android": "https://dc.lft.to/lastmile_qr_scan", "ios": "https://dc.lft.to/lastmile_qr_scan"}, "name": "77e7feaa1520cb363079a01267dc3bb6", "is_reserved": 0}, {"is_disabled": 0, "fusion_lon": 0.0, "fusion_lat": 0.0, "lat": 38.907303, "type": "electric_scooter", "lon": -77.02322783333334, "bike_id": "7d394bd8747819a61f463575e24982aa", "rental_uris": {"android": "https://dc.lft.to/lastmile_qr_scan", "ios": "https://dc.lft.to/lastmile_qr_scan"}, "name": "7d394bd8747819a61f463575e24982aa", "is_reserved": 0}, {"is_disabled": 0, "fusion_lon": 0.0, "fusion_lat": 0.0, "lat": 38.970514333333334, "type": "electric_bike", "lon": -76.96059383333333, "bike_id": "b7f7e6366d9d93e661c296e4cae5769b", "rental_uris": {"android": "https://dc.lft.to/lastmile_qr_scan", "ios": "https://dc.lft.to/lastmile_qr_scan"}, "name": "b7f7e6366d9d93e661c296e4cae5769b", "is_reserved": 0}, {"is_disabled": 0, "fusion_lon": 0.0, "fusion_lat": 0.0, "lat": 38.87548616666667, "type": "electric_scooter", "lon": -77.0046955, "bike_id": "27041b8d51bd6bcbf290a4857a7f82f3", "rental_uris": {"android": "https://dc.lft.to/lastmile_qr_scan", "ios": "https://dc.lft.to/lastmile_qr_scan"}, "name": "27041b8d51bd6bcbf290a4857a7f82f3", "is_reserved": 0}, {"is_disabled": 0, "fusion_lon": 0.0, "fusion_lat": 0.0, "lat": 38.92614233333333, "type": "electric_scooter", "lon": -76.98206433333333, "bike_id": "15fd818fa25f2496d4499c39a63cd23d", "rental_uris": {"android": "https://dc.lft.to/lastmile_qr_scan", "ios": "https://dc.lft.to/lastmile_qr_scan"}, "name": "15fd818fa25f2496d4499c39a63cd23d", "is_reserved": 0}, {"is_disabled": 0, "fusion_lon": 0.0, "fusion_lat": 0.0, "lat": 38.91729466666666, "type": "electric_scooter", "lon": -76.99177583333334, "bike_id": "98e377dfdbaf17f28823b6c33c2744d2", "rental_uris": {"android": "https://dc.lft.to/lastmile_qr_scan", "ios": "https://dc.lft.to/lastmile_qr_scan"}, "name": "98e377dfdbaf17f28823b6c33c2744d2", "is_reserved": 0}, {"is_disabled": 0, "fusion_lon": 0.0, "fusion_lat": 0.0, "lat": 38.888710833333334, "type": "electric_scooter", "lon": -76.9863445, "bike_id": "b19d18b906ff2bc85a9c1160f966d956", "rental_uris": {"android": "https://dc.lft.to/lastmile_qr_scan", "ios": "https://dc.lft.to/lastmile_qr_scan"}, "name": "b19d18b906ff2bc85a9c1160f966d956", "is_reserved": 0}, {"is_disabled": 0, "fusion_lon": 0.0, "fusion_lat": 0.0, "lat": 38.923500833333335, "type": "electric_scooter", "lon": -77.04029916666667, "bike_id": "31c95c84718a718f54f99efbc05edad1", "rental_uris": {"android": "https://dc.lft.to/lastmile_qr_scan", "ios": "https://dc.lft.to/lastmile_qr_scan"}, "name": "31c95c84718a718f54f99efbc05edad1", "is_reserved": 0}, {"is_disabled": 0, "fusion_lon": 0.0, "fusion_lat": 0.0, "lat": 38.91117466666667, "type": "electric_scooter", "lon": -77.04364833333334, "bike_id": "78157e311c049953a5a2cd8b1c077388", "rental_uris": {"android": "https://dc.lft.to/lastmile_qr_scan", "ios": "https://dc.lft.to/lastmile_qr_scan"}, "name": "78157e311c049953a5a2cd8b1c077388", "is_reserved": 0}, {"is_disabled": 0, "fusion_lon": 0.0, "fusion_lat": 0.0, "lat": 38.905381, "type": "electric_scooter", "lon": -77.05048616666667, "bike_id": "34b49fcbce64a93df27d2ba9722fa4cb", "rental_uris": {"android": "https://dc.lft.to/lastmile_qr_scan", "ios": "https://dc.lft.to/lastmile_qr_scan"}, "name": "34b49fcbce64a93df27d2ba9722fa4cb", "is_reserved": 0}, {"is_disabled": 0, "fusion_lon": 0.0, "fusion_lat": 0.0, "lat": 38.956623666666665, "type": "electric_bike", "lon": -77.00233466666667, "bike_id": "35de13c64ec31f1e32f959a99da89462", "rental_uris": {"android": "https://dc.lft.to/lastmile_qr_scan", "ios": "https://dc.lft.to/lastmile_qr_scan"}, "name": "35de13c64ec31f1e32f959a99da89462", "is_reserved": 0}, {"is_disabled": 0, "fusion_lon": 0.0, "fusion_lat": 0.0, "lat": 38.9909105, "type": "electric_bike", "lon": -76.87497416666666, "bike_id": "8ab5b868ea948daeb9e6be3e9a3b9352", "rental_uris": {"android": "https://dc.lft.to/lastmile_qr_scan", "ios": "https://dc.lft.to/lastmile_qr_scan"}, "name": "8ab5b868ea948daeb9e6be3e9a3b9352", "is_reserved": 0}, {"is_disabled": 0, "fusion_lon": 0.0, "fusion_lat": 0.0, "lat": 38.90766433333334, "type": "electric_scooter", "lon": -77.03274483333334, "bike_id": "2495a5c70c32abf284dc19b04eb1a9a0", "rental_uris": {"android": "https://dc.lft.to/lastmile_qr_scan", "ios": "https://dc.lft.to/lastmile_qr_scan"}, "name": "2495a5c70c32abf284dc19b04eb1a9a0", "is_reserved": 0}, {"is_disabled": 0, "fusion_lon": 0.0, "fusion_lat": 0.0, "lat": 38.89927483333334, "type": "electric_bike", "lon": -77.02171666666666, "bike_id": "945c64116fb4f66416f9f5c0855f26ed", "rental_uris": {"android": "https://dc.lft.to/lastmile_qr_scan", "ios": "https://dc.lft.to/lastmile_qr_scan"}, "name": "945c64116fb4f66416f9f5c0855f26ed", "is_reserved": 0}, {"is_disabled": 0, "fusion_lon": 0.0, "fusion_lat": 0.0, "lat": 38.95724033333333, "type": "electric_scooter", "lon": -77.03103283333333, "bike_id": "3bc8354a5b1b2bae30ab5d32385a0424", "rental_uris": {"android": "https://dc.lft.to/lastmile_qr_scan", "ios": "https://dc.lft.to/lastmile_qr_scan"}, "name": "3bc8354a5b1b2bae30ab5d32385a0424", "is_reserved": 0}, {"is_disabled": 0, "fusion_lon": 0.0, "fusion_lat": 0.0, "lat": 38.924038, "type": "electric_scooter", "lon": -77.02547433333334, "bike_id": "e429ca843dd68538437c2065a8004f71", "rental_uris": {"android": "https://dc.lft.to/lastmile_qr_scan", "ios": "https://dc.lft.to/lastmile_qr_scan"}, "name": "e429ca843dd68538437c2065a8004f71", "is_reserved": 0}, {"is_disabled": 0, "fusion_lon": 0.0, "fusion_lat": 0.0, "lat": 38.88823983333333, "type": "electric_bike", "lon": -77.1274215, "bike_id": "d581881840ce00278af84f952b58ce08", "rental_uris": {"android": "https://dc.lft.to/lastmile_qr_scan", "ios": "https://dc.lft.to/lastmile_qr_scan"}, "name": "d581881840ce00278af84f952b58ce08", "is_reserved": 0}, {"is_disabled": 0, "fusion_lon": 0.0, "fusion_lat": 0.0, "lat": 38.9757305, "type": "electric_bike", "lon": -76.964077, "bike_id": "6a8927e4937ebb4abc37a0616261d11a", "rental_uris": {"android": "https://dc.lft.to/lastmile_qr_scan", "ios": "https://dc.lft.to/lastmile_qr_scan"}, "name": "6a8927e4937ebb4abc37a0616261d11a", "is_reserved": 0}, {"is_disabled": 0, "fusion_lon": 0.0, "fusion_lat": 0.0, "lat": 38.90213266666667, "type": "electric_scooter", "lon": -77.0242115, "bike_id": "4ca22a365e77fcfd4b367208cb524d0b", "rental_uris": {"android": "https://dc.lft.to/lastmile_qr_scan", "ios": "https://dc.lft.to/lastmile_qr_scan"}, "name": "4ca22a365e77fcfd4b367208cb524d0b", "is_reserved": 0}, {"is_disabled": 0, "fusion_lon": 0.0, "fusion_lat": 0.0, "lat": 38.919951166666664, "type": "electric_scooter", "lon": -77.038792, "bike_id": "39c87e0fcbe3b2b0b02a293b58bb05aa", "rental_uris": {"android": "https://dc.lft.to/lastmile_qr_scan", "ios": "https://dc.lft.to/lastmile_qr_scan"}, "name": "39c87e0fcbe3b2b0b02a293b58bb05aa", "is_reserved": 0}, {"is_disabled": 0, "fusion_lon": 0.0, "fusion_lat": 0.0, "lat": 38.928248833333335, "type": "electric_scooter", "lon": -77.05436333333333, "bike_id": "a68381d442cf7220c51cf470335d6695", "rental_uris": {"android": "https://dc.lft.to/lastmile_qr_scan", "ios": "https://dc.lft.to/lastmile_qr_scan"}, "name": "a68381d442cf7220c51cf470335d6695", "is_reserved": 0}, {"is_disabled": 0, "fusion_lon": 0.0, "fusion_lat": 0.0, "lat": 38.911327, "type": "electric_scooter", "lon": -77.06543416666666, "bike_id": "16ee742913b892a24427993047b469d6", "rental_uris": {"android": "https://dc.lft.to/lastmile_qr_scan", "ios": "https://dc.lft.to/lastmile_qr_scan"}, "name": "16ee742913b892a24427993047b469d6", "is_reserved": 0}, {"is_disabled": 0, "fusion_lon": 0.0, "fusion_lat": 0.0, "lat": 38.94302316666667, "type": "electric_scooter", "lon": -77.02766666666666, "bike_id": "edce46d6c43f7e640c3790002c38f89f", "rental_uris": {"android": "https://dc.lft.to/lastmile_qr_scan", "ios": "https://dc.lft.to/lastmile_qr_scan"}, "name": "edce46d6c43f7e640c3790002c38f89f", "is_reserved": 0}, {"is_disabled": 0, "fusion_lon": 0.0, "fusion_lat": 0.0, "lat": 38.928293833333335, "type": "electric_scooter", "lon": -77.05443116666666, "bike_id": "e38fcd440f4815d0060de47e73e90475", "rental_uris": {"android": "https://dc.lft.to/lastmile_qr_scan", "ios": "https://dc.lft.to/lastmile_qr_scan"}, "name": "e38fcd440f4815d0060de47e73e90475", "is_reserved": 0}, {"is_disabled": 0, "fusion_lon": 0.0, "fusion_lat": 0.0, "lat": 38.92059666666667, "type": "electric_scooter", "lon": -77.04359033333333, "bike_id": "efdada74b1ab3a174bb2ec6938d693b1", "rental_uris": {"android": "https://dc.lft.to/lastmile_qr_scan", "ios": "https://dc.lft.to/lastmile_qr_scan"}, "name": "efdada74b1ab3a174bb2ec6938d693b1", "is_reserved": 0}, {"is_disabled": 0, "fusion_lon": 0.0, "fusion_lat": 0.0, "lat": 38.9189435, "type": "electric_scooter", "lon": -77.07121533333333, "bike_id": "8ce8467b05d84973d85033b3c8b35d99", "rental_uris": {"android": "https://dc.lft.to/lastmile_qr_scan", "ios": "https://dc.lft.to/lastmile_qr_scan"}, "name": "8ce8467b05d84973d85033b3c8b35d99", "is_reserved": 0}, {"is_disabled": 0, "fusion_lon": 0.0, "fusion_lat": 0.0, "lat": 38.89751616666667, "type": "electric_scooter", "lon": -77.003816, "bike_id": "94cdf6fd312767baee7c87da675aaa44", "rental_uris": {"android": "https://dc.lft.to/lastmile_qr_scan", "ios": "https://dc.lft.to/lastmile_qr_scan"}, "name": "94cdf6fd312767baee7c87da675aaa44", "is_reserved": 0}, {"is_disabled": 0, "fusion_lon": 0.0, "fusion_lat": 0.0, "lat": 38.90882233333333, "type": "electric_scooter", "lon": -77.043254, "bike_id": "96552b36439df9e0be37602cf38c1f03", "rental_uris": {"android": "https://dc.lft.to/lastmile_qr_scan", "ios": "https://dc.lft.to/lastmile_qr_scan"}, "name": "96552b36439df9e0be37602cf38c1f03", "is_reserved": 0}, {"is_disabled": 0, "fusion_lon": 0.0, "fusion_lat": 0.0, "lat": 38.919352333333336, "type": "electric_bike", "lon": -76.97504733333334, "bike_id": "a24ec15162d169720f7792dc2a934c45", "rental_uris": {"android": "https://dc.lft.to/lastmile_qr_scan", "ios": "https://dc.lft.to/lastmile_qr_scan"}, "name": "a24ec15162d169720f7792dc2a934c45", "is_reserved": 0}, {"is_disabled": 0, "fusion_lon": 0.0, "fusion_lat": 0.0, "lat": 38.90735866666667, "type": "electric_scooter", "lon": -77.03259283333334, "bike_id": "4ba48850733b26cef8f44d75f32a2560", "rental_uris": {"android": "https://dc.lft.to/lastmile_qr_scan", "ios": "https://dc.lft.to/lastmile_qr_scan"}, "name": "4ba48850733b26cef8f44d75f32a2560", "is_reserved": 0}, {"is_disabled": 0, "fusion_lon": 0.0, "fusion_lat": 0.0, "lat": 38.86960933333334, "type": "electric_scooter", "lon": -76.96037066666666, "bike_id": "f82fad5865cdec0e549d78190efbfb8e", "rental_uris": {"android": "https://dc.lft.to/lastmile_qr_scan", "ios": "https://dc.lft.to/lastmile_qr_scan"}, "name": "f82fad5865cdec0e549d78190efbfb8e", "is_reserved": 0}, {"is_disabled": 0, "fusion_lon": 0.0, "fusion_lat": 0.0, "lat": 38.8936685, "type": "electric_scooter", "lon": -77.0227835, "bike_id": "c8e78cc3e71e1a21f0865de49ff1486e", "rental_uris": {"android": "https://dc.lft.to/lastmile_qr_scan", "ios": "https://dc.lft.to/lastmile_qr_scan"}, "name": "c8e78cc3e71e1a21f0865de49ff1486e", "is_reserved": 0}, {"is_disabled": 0, "fusion_lon": 0.0, "fusion_lat": 0.0, "lat": 38.89370983333333, "type": "electric_scooter", "lon": -76.9499965, "bike_id": "20ecfa9384f202a807401fa3ea62f9d7", "rental_uris": {"android": "https://dc.lft.to/lastmile_qr_scan", "ios": "https://dc.lft.to/lastmile_qr_scan"}, "name": "20ecfa9384f202a807401fa3ea62f9d7", "is_reserved": 0}, {"is_disabled": 0, "fusion_lon": 0.0, "fusion_lat": 0.0, "lat": 38.92361533333333, "type": "electric_scooter", "lon": -77.08063883333334, "bike_id": "7f29c01d76a962b5c3fb656e59d86cc3", "rental_uris": {"android": "https://dc.lft.to/lastmile_qr_scan", "ios": "https://dc.lft.to/lastmile_qr_scan"}, "name": "7f29c01d76a962b5c3fb656e59d86cc3", "is_reserved": 0}, {"is_disabled": 0, "fusion_lon": 0.0, "fusion_lat": 0.0, "lat": 38.9007545, "type": "electric_scooter", "lon": -77.00207683333333, "bike_id": "ef8a2b788cc028f18c3af97ff1958557", "rental_uris": {"android": "https://dc.lft.to/lastmile_qr_scan", "ios": "https://dc.lft.to/lastmile_qr_scan"}, "name": "ef8a2b788cc028f18c3af97ff1958557", "is_reserved": 0}, {"is_disabled": 0, "fusion_lon": 0.0, "fusion_lat": 0.0, "lat": 38.92289316666667, "type": "electric_scooter", "lon": -77.03195283333334, "bike_id": "493cdf039114a35762e718a168489199", "rental_uris": {"android": "https://dc.lft.to/lastmile_qr_scan", "ios": "https://dc.lft.to/lastmile_qr_scan"}, "name": "493cdf039114a35762e718a168489199", "is_reserved": 0}, {"is_disabled": 0, "fusion_lon": 0.0, "fusion_lat": 0.0, "lat": 38.900428166666664, "type": "electric_scooter", "lon": -76.98842566666667, "bike_id": "8333f0aa54e3460efe04a7d5f0fd7bd5", "rental_uris": {"android": "https://dc.lft.to/lastmile_qr_scan", "ios": "https://dc.lft.to/lastmile_qr_scan"}, "name": "8333f0aa54e3460efe04a7d5f0fd7bd5", "is_reserved": 0}, {"is_disabled": 0, "fusion_lon": 0.0, "fusion_lat": 0.0, "lat": 38.85865283333333, "type": "electric_scooter", "lon": -76.99025166666667, "bike_id": "da817d25da4b64f3285b4e6e544ad932", "rental_uris": {"android": "https://dc.lft.to/lastmile_qr_scan", "ios": "https://dc.lft.to/lastmile_qr_scan"}, "name": "da817d25da4b64f3285b4e6e544ad932", "is_reserved": 0}, {"is_disabled": 0, "fusion_lon": 0.0, "fusion_lat": 0.0, "lat": 38.90286833333333, "type": "electric_scooter", "lon": -77.02399616666666, "bike_id": "95a64207ff9215b21e70bbc79f1d5385", "rental_uris": {"android": "https://dc.lft.to/lastmile_qr_scan", "ios": "https://dc.lft.to/lastmile_qr_scan"}, "name": "95a64207ff9215b21e70bbc79f1d5385", "is_reserved": 0}, {"is_disabled": 0, "fusion_lon": 0.0, "fusion_lat": 0.0, "lat": 38.94041383333333, "type": "electric_scooter", "lon": -77.0291195, "bike_id": "c72351368118025bdc3085824e17aad7", "rental_uris": {"android": "https://dc.lft.to/lastmile_qr_scan", "ios": "https://dc.lft.to/lastmile_qr_scan"}, "name": "c72351368118025bdc3085824e17aad7", "is_reserved": 0}, {"is_disabled": 0, "fusion_lon": 0.0, "fusion_lat": 0.0, "lat": 38.921796, "type": "electric_scooter", "lon": -77.04235266666667, "bike_id": "1adca21d2572b6e2c66fe3a27707e66d", "rental_uris": {"android": "https://dc.lft.to/lastmile_qr_scan", "ios": "https://dc.lft.to/lastmile_qr_scan"}, "name": "1adca21d2572b6e2c66fe3a27707e66d", "is_reserved": 0}, {"is_disabled": 0, "fusion_lon": 0.0, "fusion_lat": 0.0, "lat": 38.919773666666664, "type": "electric_scooter", "lon": -76.9731305, "bike_id": "6667e617af03b6be4dc6dd844444f51e", "rental_uris": {"android": "https://dc.lft.to/lastmile_qr_scan", "ios": "https://dc.lft.to/lastmile_qr_scan"}, "name": "6667e617af03b6be4dc6dd844444f51e", "is_reserved": 0}, {"is_disabled": 0, "fusion_lon": 0.0, "fusion_lat": 0.0, "lat": 38.92614183333333, "type": "electric_scooter", "lon": -77.02167, "bike_id": "61cb000f6c0d95a9ac7c94811f18a40d", "rental_uris": {"android": "https://dc.lft.to/lastmile_qr_scan", "ios": "https://dc.lft.to/lastmile_qr_scan"}, "name": "61cb000f6c0d95a9ac7c94811f18a40d", "is_reserved": 0}, {"is_disabled": 0, "fusion_lon": 0.0, "fusion_lat": 0.0, "lat": 38.922294, "type": "electric_scooter", "lon": -77.047159, "bike_id": "d01dd0e724898854d5977318babfa125", "rental_uris": {"android": "https://dc.lft.to/lastmile_qr_scan", "ios": "https://dc.lft.to/lastmile_qr_scan"}, "name": "d01dd0e724898854d5977318babfa125", "is_reserved": 0}, {"is_disabled": 0, "fusion_lon": 0.0, "fusion_lat": 0.0, "lat": 38.9603235, "type": "electric_bike", "lon": -76.92722233333333, "bike_id": "cc6eaf3a543866219411572e893bf2cd", "rental_uris": {"android": "https://dc.lft.to/lastmile_qr_scan", "ios": "https://dc.lft.to/lastmile_qr_scan"}, "name": "cc6eaf3a543866219411572e893bf2cd", "is_reserved": 0}, {"is_disabled": 0, "fusion_lon": 0.0, "fusion_lat": 0.0, "lat": 38.8937275, "type": "electric_scooter", "lon": -76.9781975, "bike_id": "acd7d91e99fbdef4ea058e511ad12b64", "rental_uris": {"android": "https://dc.lft.to/lastmile_qr_scan", "ios": "https://dc.lft.to/lastmile_qr_scan"}, "name": "acd7d91e99fbdef4ea058e511ad12b64", "is_reserved": 0}, {"is_disabled": 0, "fusion_lon": 0.0, "fusion_lat": 0.0, "lat": 38.918732, "type": "electric_scooter", "lon": -77.0350445, "bike_id": "3408f8ab785526f4fec5bd7a1a1869ce", "rental_uris": {"android": "https://dc.lft.to/lastmile_qr_scan", "ios": "https://dc.lft.to/lastmile_qr_scan"}, "name": "3408f8ab785526f4fec5bd7a1a1869ce", "is_reserved": 0}, {"is_disabled": 0, "fusion_lon": 0.0, "fusion_lat": 0.0, "lat": 38.916165, "type": "electric_scooter", "lon": -77.036616, "bike_id": "bfd768363749f608bea8f6214d9225d8", "rental_uris": {"android": "https://dc.lft.to/lastmile_qr_scan", "ios": "https://dc.lft.to/lastmile_qr_scan"}, "name": "bfd768363749f608bea8f6214d9225d8", "is_reserved": 0}, {"is_disabled": 0, "fusion_lon": 0.0, "fusion_lat": 0.0, "lat": 38.91609283333333, "type": "electric_scooter", "lon": -77.01739266666667, "bike_id": "639a456d19218e8697621ae62485a0c7", "rental_uris": {"android": "https://dc.lft.to/lastmile_qr_scan", "ios": "https://dc.lft.to/lastmile_qr_scan"}, "name": "639a456d19218e8697621ae62485a0c7", "is_reserved": 0}, {"is_disabled": 0, "fusion_lon": 0.0, "fusion_lat": 0.0, "lat": 38.921600166666664, "type": "electric_scooter", "lon": -77.0338335, "bike_id": "702bbd429a1822b7a8f4b03c7f62f80b", "rental_uris": {"android": "https://dc.lft.to/lastmile_qr_scan", "ios": "https://dc.lft.to/lastmile_qr_scan"}, "name": "702bbd429a1822b7a8f4b03c7f62f80b", "is_reserved": 0}, {"is_disabled": 0, "fusion_lon": 0.0, "fusion_lat": 0.0, "lat": 38.919523833333336, "type": "electric_scooter", "lon": -77.02813616666667, "bike_id": "c1e3b1a96e0f335e8bf33d3041fdebc2", "rental_uris": {"android": "https://dc.lft.to/lastmile_qr_scan", "ios": "https://dc.lft.to/lastmile_qr_scan"}, "name": "c1e3b1a96e0f335e8bf33d3041fdebc2", "is_reserved": 0}, {"is_disabled": 0, "fusion_lon": 0.0, "fusion_lat": 0.0, "lat": 38.91418516666667, "type": "electric_scooter", "lon": -77.022215, "bike_id": "df7a7e42c91d5a8bfc15540a129a7d9b", "rental_uris": {"android": "https://dc.lft.to/lastmile_qr_scan", "ios": "https://dc.lft.to/lastmile_qr_scan"}, "name": "df7a7e42c91d5a8bfc15540a129a7d9b", "is_reserved": 0}, {"is_disabled": 0, "fusion_lon": 0.0, "fusion_lat": 0.0, "lat": 38.91134383333333, "type": "electric_scooter", "lon": -77.02194933333334, "bike_id": "e13c35c7a011bf35310aefbaba07ac71", "rental_uris": {"android": "https://dc.lft.to/lastmile_qr_scan", "ios": "https://dc.lft.to/lastmile_qr_scan"}, "name": "e13c35c7a011bf35310aefbaba07ac71", "is_reserved": 0}, {"is_disabled": 0, "fusion_lon": 0.0, "fusion_lat": 0.0, "lat": 38.833779166666666, "type": "electric_scooter", "lon": -76.99307083333333, "bike_id": "019dd411d3c2b303ff9c09e4b46ba031", "rental_uris": {"android": "https://dc.lft.to/lastmile_qr_scan", "ios": "https://dc.lft.to/lastmile_qr_scan"}, "name": "019dd411d3c2b303ff9c09e4b46ba031", "is_reserved": 0}, {"is_disabled": 0, "fusion_lon": 0.0, "fusion_lat": 0.0, "lat": 38.91441833333333, "type": "electric_scooter", "lon": -77.02292566666667, "bike_id": "7014ddc2b818027d3bc0c84bd512e913", "rental_uris": {"android": "https://dc.lft.to/lastmile_qr_scan", "ios": "https://dc.lft.to/lastmile_qr_scan"}, "name": "7014ddc2b818027d3bc0c84bd512e913", "is_reserved": 0}, {"is_disabled": 0, "fusion_lon": 0.0, "fusion_lat": 0.0, "lat": 38.89609033333333, "type": "electric_scooter", "lon": -77.03377983333333, "bike_id": "897f23ae8ba5ce8cf8362f914cdaa960", "rental_uris": {"android": "https://dc.lft.to/lastmile_qr_scan", "ios": "https://dc.lft.to/lastmile_qr_scan"}, "name": "897f23ae8ba5ce8cf8362f914cdaa960", "is_reserved": 0}, {"is_disabled": 0, "fusion_lon": 0.0, "fusion_lat": 0.0, "lat": 38.900961833333334, "type": "electric_scooter", "lon": -76.98841916666666, "bike_id": "c60e215888373cd80adfd63f0275c352", "rental_uris": {"android": "https://dc.lft.to/lastmile_qr_scan", "ios": "https://dc.lft.to/lastmile_qr_scan"}, "name": "c60e215888373cd80adfd63f0275c352", "is_reserved": 0}, {"is_disabled": 0, "fusion_lon": 0.0, "fusion_lat": 0.0, "lat": 38.9095045, "type": "electric_scooter", "lon": -77.02695116666666, "bike_id": "27519ef7384646ebd088060e99e112dc", "rental_uris": {"android": "https://dc.lft.to/lastmile_qr_scan", "ios": "https://dc.lft.to/lastmile_qr_scan"}, "name": "27519ef7384646ebd088060e99e112dc", "is_reserved": 0}, {"is_disabled": 0, "fusion_lon": 0.0, "fusion_lat": 0.0, "lat": 38.918187833333334, "type": "electric_scooter", "lon": -77.01222333333334, "bike_id": "2a557da0b78d4e08ee13ce84f3df7504", "rental_uris": {"android": "https://dc.lft.to/lastmile_qr_scan", "ios": "https://dc.lft.to/lastmile_qr_scan"}, "name": "2a557da0b78d4e08ee13ce84f3df7504", "is_reserved": 0}, {"is_disabled": 0, "fusion_lon": 0.0, "fusion_lat": 0.0, "lat": 38.91189766666667, "type": "electric_scooter", "lon": -77.04167266666667, "bike_id": "4efe14093dffba5e4688a92f5604256c", "rental_uris": {"android": "https://dc.lft.to/lastmile_qr_scan", "ios": "https://dc.lft.to/lastmile_qr_scan"}, "name": "4efe14093dffba5e4688a92f5604256c", "is_reserved": 0}, {"is_disabled": 0, "fusion_lon": 0.0, "fusion_lat": 0.0, "lat": 38.88763183333333, "type": "electric_scooter", "lon": -77.03350066666667, "bike_id": "f0ce4665b76463ce74079b0f6ef214c4", "rental_uris": {"android": "https://dc.lft.to/lastmile_qr_scan", "ios": "https://dc.lft.to/lastmile_qr_scan"}, "name": "f0ce4665b76463ce74079b0f6ef214c4", "is_reserved": 0}, {"is_disabled": 0, "fusion_lon": 0.0, "fusion_lat": 0.0, "lat": 38.834324, "type": "electric_bike", "lon": -77.10367166666667, "bike_id": "28bd37b4e61446fbcd1d9a3762a43e12", "rental_uris": {"android": "https://dc.lft.to/lastmile_qr_scan", "ios": "https://dc.lft.to/lastmile_qr_scan"}, "name": "28bd37b4e61446fbcd1d9a3762a43e12", "is_reserved": 0}, {"is_disabled": 0, "fusion_lon": 0.0, "fusion_lat": 0.0, "lat": 38.9087155, "type": "electric_scooter", "lon": -76.9984065, "bike_id": "4881303671d252499886ce8521705f52", "rental_uris": {"android": "https://dc.lft.to/lastmile_qr_scan", "ios": "https://dc.lft.to/lastmile_qr_scan"}, "name": "4881303671d252499886ce8521705f52", "is_reserved": 0}, {"is_disabled": 0, "fusion_lon": 0.0, "fusion_lat": 0.0, "lat": 38.900749833333336, "type": "electric_scooter", "lon": -77.00208333333333, "bike_id": "0f58232a499e0c70d0d08262eeadc11a", "rental_uris": {"android": "https://dc.lft.to/lastmile_qr_scan", "ios": "https://dc.lft.to/lastmile_qr_scan"}, "name": "0f58232a499e0c70d0d08262eeadc11a", "is_reserved": 0}, {"is_disabled": 0, "fusion_lon": 0.0, "fusion_lat": 0.0, "lat": 38.91838416666667, "type": "electric_scooter", "lon": -77.02290116666667, "bike_id": "573c991167f92d3f6e55d68316db3b58", "rental_uris": {"android": "https://dc.lft.to/lastmile_qr_scan", "ios": "https://dc.lft.to/lastmile_qr_scan"}, "name": "573c991167f92d3f6e55d68316db3b58", "is_reserved": 0}, {"is_disabled": 0, "fusion_lon": 0.0, "fusion_lat": 0.0, "lat": 38.911083, "type": "electric_scooter", "lon": -77.02309683333333, "bike_id": "ac45b1733e14d2b66b750ad20ed43aed", "rental_uris": {"android": "https://dc.lft.to/lastmile_qr_scan", "ios": "https://dc.lft.to/lastmile_qr_scan"}, "name": "ac45b1733e14d2b66b750ad20ed43aed", "is_reserved": 0}, {"is_disabled": 0, "fusion_lon": 0.0, "fusion_lat": 0.0, "lat": 38.91917566666667, "type": "electric_scooter", "lon": -77.03626616666666, "bike_id": "69fa8cd7c6ff100ff70ae233e8aebe28", "rental_uris": {"android": "https://dc.lft.to/lastmile_qr_scan", "ios": "https://dc.lft.to/lastmile_qr_scan"}, "name": "69fa8cd7c6ff100ff70ae233e8aebe28", "is_reserved": 0}, {"is_disabled": 0, "fusion_lon": 0.0, "fusion_lat": 0.0, "lat": 38.87910466666666, "type": "electric_scooter", "lon": -77.00861716666667, "bike_id": "0fe77641fc88ba994bcfeb6a45f7d941", "rental_uris": {"android": "https://dc.lft.to/lastmile_qr_scan", "ios": "https://dc.lft.to/lastmile_qr_scan"}, "name": "0fe77641fc88ba994bcfeb6a45f7d941", "is_reserved": 0}, {"is_disabled": 0, "fusion_lon": 0.0, "fusion_lat": 0.0, "lat": 39.00785333333334, "type": "electric_bike", "lon": -76.99569466666667, "bike_id": "81b83f675a0b93207c2a3ec8d8b420bf", "rental_uris": {"android": "https://dc.lft.to/lastmile_qr_scan", "ios": "https://dc.lft.to/lastmile_qr_scan"}, "name": "81b83f675a0b93207c2a3ec8d8b420bf", "is_reserved": 0}, {"is_disabled": 0, "fusion_lon": 0.0, "fusion_lat": 0.0, "lat": 38.942856666666664, "type": "electric_bike", "lon": -77.02803866666666, "bike_id": "9118b8cf36f2ffac566c44f38e729bdc", "rental_uris": {"android": "https://dc.lft.to/lastmile_qr_scan", "ios": "https://dc.lft.to/lastmile_qr_scan"}, "name": "9118b8cf36f2ffac566c44f38e729bdc", "is_reserved": 0}, {"is_disabled": 0, "fusion_lon": 0.0, "fusion_lat": 0.0, "lat": 38.905362833333335, "type": "electric_bike", "lon": -77.059109, "bike_id": "3486d31e62a8ce6cd3805c495c669b88", "rental_uris": {"android": "https://dc.lft.to/lastmile_qr_scan", "ios": "https://dc.lft.to/lastmile_qr_scan"}, "name": "3486d31e62a8ce6cd3805c495c669b88", "is_reserved": 0}, {"is_disabled": 0, "fusion_lon": 0.0, "fusion_lat": 0.0, "lat": 38.905146333333334, "type": "electric_scooter", "lon": -76.98256116666667, "bike_id": "446d06a489883ef851a0aefabc480503", "rental_uris": {"android": "https://dc.lft.to/lastmile_qr_scan", "ios": "https://dc.lft.to/lastmile_qr_scan"}, "name": "446d06a489883ef851a0aefabc480503", "is_reserved": 0}, {"is_disabled": 0, "fusion_lon": 0.0, "fusion_lat": 0.0, "lat": 38.92157533333334, "type": "electric_scooter", "lon": -77.0338635, "bike_id": "d369243e860573561f086c88630d0833", "rental_uris": {"android": "https://dc.lft.to/lastmile_qr_scan", "ios": "https://dc.lft.to/lastmile_qr_scan"}, "name": "d369243e860573561f086c88630d0833", "is_reserved": 0}, {"is_disabled": 0, "fusion_lon": 0.0, "fusion_lat": 0.0, "lat": 38.91965416666667, "type": "electric_scooter", "lon": -77.02321516666666, "bike_id": "03f0b007246359ffa7ed07778ca0476a", "rental_uris": {"android": "https://dc.lft.to/lastmile_qr_scan", "ios": "https://dc.lft.to/lastmile_qr_scan"}, "name": "03f0b007246359ffa7ed07778ca0476a", "is_reserved": 0}, {"is_disabled": 0, "fusion_lon": 0.0, "fusion_lat": 0.0, "lat": 38.916908, "type": "electric_bike", "lon": -77.09166433333333, "bike_id": "de7421cb7eece5c40e8695c28347dffa", "rental_uris": {"android": "https://dc.lft.to/lastmile_qr_scan", "ios": "https://dc.lft.to/lastmile_qr_scan"}, "name": "de7421cb7eece5c40e8695c28347dffa", "is_reserved": 0}, {"is_disabled": 0, "fusion_lon": 0.0, "fusion_lat": 0.0, "lat": 38.932708, "type": "electric_scooter", "lon": -77.03481816666667, "bike_id": "9ca762b085434c8d413fc3b0783b57e8", "rental_uris": {"android": "https://dc.lft.to/lastmile_qr_scan", "ios": "https://dc.lft.to/lastmile_qr_scan"}, "name": "9ca762b085434c8d413fc3b0783b57e8", "is_reserved": 0}, {"is_disabled": 0, "fusion_lon": 0.0, "fusion_lat": 0.0, "lat": 38.9184035, "type": "electric_bike", "lon": -76.96087566666667, "bike_id": "b388134669d476014a6ad0f6940f647a", "rental_uris": {"android": "https://dc.lft.to/lastmile_qr_scan", "ios": "https://dc.lft.to/lastmile_qr_scan"}, "name": "b388134669d476014a6ad0f6940f647a", "is_reserved": 0}, {"is_disabled": 0, "fusion_lon": 0.0, "fusion_lat": 0.0, "lat": 38.90036666666666, "type": "electric_scooter", "lon": -77.00195233333334, "bike_id": "2cb65064d228ff4cc6a2e229f27ef8a2", "rental_uris": {"android": "https://dc.lft.to/lastmile_qr_scan", "ios": "https://dc.lft.to/lastmile_qr_scan"}, "name": "2cb65064d228ff4cc6a2e229f27ef8a2", "is_reserved": 0}, {"is_disabled": 0, "fusion_lon": 0.0, "fusion_lat": 0.0, "lat": 38.904209, "type": "electric_scooter", "lon": -76.98549683333333, "bike_id": "96e270d91ff00c30df718031c9be81e8", "rental_uris": {"android": "https://dc.lft.to/lastmile_qr_scan", "ios": "https://dc.lft.to/lastmile_qr_scan"}, "name": "96e270d91ff00c30df718031c9be81e8", "is_reserved": 0}, {"is_disabled": 0, "fusion_lon": 0.0, "fusion_lat": 0.0, "lat": 38.93349516666667, "type": "electric_scooter", "lon": -77.0238395, "bike_id": "35a8f569afc7941205e9f9e1e3e5502a", "rental_uris": {"android": "https://dc.lft.to/lastmile_qr_scan", "ios": "https://dc.lft.to/lastmile_qr_scan"}, "name": "35a8f569afc7941205e9f9e1e3e5502a", "is_reserved": 0}, {"is_disabled": 0, "fusion_lon": 0.0, "fusion_lat": 0.0, "lat": 39.060633833333334, "type": "electric_bike", "lon": -77.0646985, "bike_id": "49be69965a5e6d9022dddeb9b17ed904", "rental_uris": {"android": "https://dc.lft.to/lastmile_qr_scan", "ios": "https://dc.lft.to/lastmile_qr_scan"}, "name": "49be69965a5e6d9022dddeb9b17ed904", "is_reserved": 0}, {"is_disabled": 0, "fusion_lon": 0.0, "fusion_lat": 0.0, "lat": 38.879964333333334, "type": "electric_scooter", "lon": -77.01754066666666, "bike_id": "9417d9b4ad149def225efa5db371690f", "rental_uris": {"android": "https://dc.lft.to/lastmile_qr_scan", "ios": "https://dc.lft.to/lastmile_qr_scan"}, "name": "9417d9b4ad149def225efa5db371690f", "is_reserved": 0}, {"is_disabled": 0, "fusion_lon": 0.0, "fusion_lat": 0.0, "lat": 38.83812266666666, "type": "electric_scooter", "lon": -77.0043565, "bike_id": "fb90f9867469512a67925cc9dcf5d999", "rental_uris": {"android": "https://dc.lft.to/lastmile_qr_scan", "ios": "https://dc.lft.to/lastmile_qr_scan"}, "name": "fb90f9867469512a67925cc9dcf5d999", "is_reserved": 0}, {"is_disabled": 0, "fusion_lon": 0.0, "fusion_lat": 0.0, "lat": 38.94217166666667, "type": "electric_scooter", "lon": -77.02499966666667, "bike_id": "48fa2be88186b581313e091aab18f428", "rental_uris": {"android": "https://dc.lft.to/lastmile_qr_scan", "ios": "https://dc.lft.to/lastmile_qr_scan"}, "name": "48fa2be88186b581313e091aab18f428", "is_reserved": 0}, {"is_disabled": 0, "fusion_lon": 0.0, "fusion_lat": 0.0, "lat": 38.968063, "type": "electric_scooter", "lon": -77.02122816666666, "bike_id": "23820e2480d9eff8ea0a0ed8faa30cef", "rental_uris": {"android": "https://dc.lft.to/lastmile_qr_scan", "ios": "https://dc.lft.to/lastmile_qr_scan"}, "name": "23820e2480d9eff8ea0a0ed8faa30cef", "is_reserved": 0}, {"is_disabled": 0, "fusion_lon": 0.0, "fusion_lat": 0.0, "lat": 38.905685, "type": "electric_scooter", "lon": -77.04207166666667, "bike_id": "6b582c20d84ba3d12ffded0eb2ae6ab9", "rental_uris": {"android": "https://dc.lft.to/lastmile_qr_scan", "ios": "https://dc.lft.to/lastmile_qr_scan"}, "name": "6b582c20d84ba3d12ffded0eb2ae6ab9", "is_reserved": 0}, {"is_disabled": 0, "fusion_lon": 0.0, "fusion_lat": 0.0, "lat": 38.900229833333334, "type": "electric_scooter", "lon": -76.99113916666667, "bike_id": "79826a67e991660cac365f4ce9cc9071", "rental_uris": {"android": "https://dc.lft.to/lastmile_qr_scan", "ios": "https://dc.lft.to/lastmile_qr_scan"}, "name": "79826a67e991660cac365f4ce9cc9071", "is_reserved": 0}, {"is_disabled": 0, "fusion_lon": 0.0, "fusion_lat": 0.0, "lat": 38.9408825, "type": "electric_scooter", "lon": -77.03819116666666, "bike_id": "95b8fc8a404fce9bbbe01419b61c40a3", "rental_uris": {"android": "https://dc.lft.to/lastmile_qr_scan", "ios": "https://dc.lft.to/lastmile_qr_scan"}, "name": "95b8fc8a404fce9bbbe01419b61c40a3", "is_reserved": 0}, {"is_disabled": 0, "fusion_lon": 0.0, "fusion_lat": 0.0, "lat": 38.93861716666667, "type": "electric_scooter", "lon": -77.0278865, "bike_id": "be554d4576f50c8edbc29dc22791fa63", "rental_uris": {"android": "https://dc.lft.to/lastmile_qr_scan", "ios": "https://dc.lft.to/lastmile_qr_scan"}, "name": "be554d4576f50c8edbc29dc22791fa63", "is_reserved": 0}, {"is_disabled": 0, "fusion_lon": 0.0, "fusion_lat": 0.0, "lat": 38.87919983333333, "type": "electric_scooter", "lon": -76.94490466666667, "bike_id": "162bf4ed48ec791e564c8ba3d2a13d64", "rental_uris": {"android": "https://dc.lft.to/lastmile_qr_scan", "ios": "https://dc.lft.to/lastmile_qr_scan"}, "name": "162bf4ed48ec791e564c8ba3d2a13d64", "is_reserved": 0}, {"is_disabled": 0, "fusion_lon": 0.0, "fusion_lat": 0.0, "lat": 38.971683666666664, "type": "electric_bike", "lon": -76.98024633333333, "bike_id": "6c4fcd19ec8c5c1d0df6aac0193ef1b4", "rental_uris": {"android": "https://dc.lft.to/lastmile_qr_scan", "ios": "https://dc.lft.to/lastmile_qr_scan"}, "name": "6c4fcd19ec8c5c1d0df6aac0193ef1b4", "is_reserved": 0}, {"is_disabled": 0, "fusion_lon": 0.0, "fusion_lat": 0.0, "lat": 38.8951005, "type": "electric_scooter", "lon": -77.01093666666667, "bike_id": "cfbdc24c284b7f997a3d5a15857dc9e6", "rental_uris": {"android": "https://dc.lft.to/lastmile_qr_scan", "ios": "https://dc.lft.to/lastmile_qr_scan"}, "name": "cfbdc24c284b7f997a3d5a15857dc9e6", "is_reserved": 0}, {"is_disabled": 0, "fusion_lon": 0.0, "fusion_lat": 0.0, "lat": 38.954174333333334, "type": "electric_scooter", "lon": -77.02173233333333, "bike_id": "11e3942bf9fc83f9326b807ed3215293", "rental_uris": {"android": "https://dc.lft.to/lastmile_qr_scan", "ios": "https://dc.lft.to/lastmile_qr_scan"}, "name": "11e3942bf9fc83f9326b807ed3215293", "is_reserved": 0}, {"is_disabled": 0, "fusion_lon": 0.0, "fusion_lat": 0.0, "lat": 38.874342666666664, "type": "electric_scooter", "lon": -77.00916366666667, "bike_id": "a162ecea50898c63b55f41406d4062f8", "rental_uris": {"android": "https://dc.lft.to/lastmile_qr_scan", "ios": "https://dc.lft.to/lastmile_qr_scan"}, "name": "a162ecea50898c63b55f41406d4062f8", "is_reserved": 0}, {"is_disabled": 0, "fusion_lon": 0.0, "fusion_lat": 0.0, "lat": 38.892983, "type": "electric_scooter", "lon": -76.989262, "bike_id": "fc7297e611cac04b8308c8e22d9329b2", "rental_uris": {"android": "https://dc.lft.to/lastmile_qr_scan", "ios": "https://dc.lft.to/lastmile_qr_scan"}, "name": "fc7297e611cac04b8308c8e22d9329b2", "is_reserved": 0}, {"is_disabled": 0, "fusion_lon": 0.0, "fusion_lat": 0.0, "lat": 38.91111866666667, "type": "electric_scooter", "lon": -77.04261333333334, "bike_id": "bebb86012b4b04f178b10e6bf5b60345", "rental_uris": {"android": "https://dc.lft.to/lastmile_qr_scan", "ios": "https://dc.lft.to/lastmile_qr_scan"}, "name": "bebb86012b4b04f178b10e6bf5b60345", "is_reserved": 0}, {"is_disabled": 0, "fusion_lon": 0.0, "fusion_lat": 0.0, "lat": 38.923264833333334, "type": "electric_scooter", "lon": -77.03963616666667, "bike_id": "ea296f68cdcf9cc847115e8ec58d4ecf", "rental_uris": {"android": "https://dc.lft.to/lastmile_qr_scan", "ios": "https://dc.lft.to/lastmile_qr_scan"}, "name": "ea296f68cdcf9cc847115e8ec58d4ecf", "is_reserved": 0}, {"is_disabled": 0, "fusion_lon": 0.0, "fusion_lat": 0.0, "lat": 38.91634, "type": "electric_scooter", "lon": -77.02699766666667, "bike_id": "f31a99379bee6ac5d55f58070314dd13", "rental_uris": {"android": "https://dc.lft.to/lastmile_qr_scan", "ios": "https://dc.lft.to/lastmile_qr_scan"}, "name": "f31a99379bee6ac5d55f58070314dd13", "is_reserved": 0}, {"is_disabled": 0, "fusion_lon": 0.0, "fusion_lat": 0.0, "lat": 38.926177, "type": "electric_scooter", "lon": -77.04331983333333, "bike_id": "324332ef4750468ca3ecba602ba9c5ae", "rental_uris": {"android": "https://dc.lft.to/lastmile_qr_scan", "ios": "https://dc.lft.to/lastmile_qr_scan"}, "name": "324332ef4750468ca3ecba602ba9c5ae", "is_reserved": 0}, {"is_disabled": 0, "fusion_lon": 0.0, "fusion_lat": 0.0, "lat": 38.91904016666667, "type": "electric_scooter", "lon": -77.027606, "bike_id": "3bf055b0637378a523f316a1ed93e660", "rental_uris": {"android": "https://dc.lft.to/lastmile_qr_scan", "ios": "https://dc.lft.to/lastmile_qr_scan"}, "name": "3bf055b0637378a523f316a1ed93e660", "is_reserved": 0}, {"is_disabled": 0, "fusion_lon": 0.0, "fusion_lat": 0.0, "lat": 38.900632, "type": "electric_scooter", "lon": -77.01281316666666, "bike_id": "3ba1f2d998b103894e97ddfd16a38888", "rental_uris": {"android": "https://dc.lft.to/lastmile_qr_scan", "ios": "https://dc.lft.to/lastmile_qr_scan"}, "name": "3ba1f2d998b103894e97ddfd16a38888", "is_reserved": 0}, {"is_disabled": 0, "fusion_lon": 0.0, "fusion_lat": 0.0, "lat": 38.90760683333333, "type": "electric_scooter", "lon": -77.03580216666667, "bike_id": "7cfc4823ec7232c702af3e5cba8791a7", "rental_uris": {"android": "https://dc.lft.to/lastmile_qr_scan", "ios": "https://dc.lft.to/lastmile_qr_scan"}, "name": "7cfc4823ec7232c702af3e5cba8791a7", "is_reserved": 0}, {"is_disabled": 0, "fusion_lon": 0.0, "fusion_lat": 0.0, "lat": 38.90010266666667, "type": "electric_scooter", "lon": -77.006886, "bike_id": "d5772db43602cf1748670151f62608f7", "rental_uris": {"android": "https://dc.lft.to/lastmile_qr_scan", "ios": "https://dc.lft.to/lastmile_qr_scan"}, "name": "d5772db43602cf1748670151f62608f7", "is_reserved": 0}, {"is_disabled": 0, "fusion_lon": 0.0, "fusion_lat": 0.0, "lat": 38.909527, "type": "electric_scooter", "lon": -77.0592545, "bike_id": "41c79c97097445299a61aa28db25887d", "rental_uris": {"android": "https://dc.lft.to/lastmile_qr_scan", "ios": "https://dc.lft.to/lastmile_qr_scan"}, "name": "41c79c97097445299a61aa28db25887d", "is_reserved": 0}, {"is_disabled": 0, "fusion_lon": 0.0, "fusion_lat": 0.0, "lat": 38.88965533333333, "type": "electric_scooter", "lon": -76.92739916666666, "bike_id": "01c135e0071c3f9f23ce8e60fd826c14", "rental_uris": {"android": "https://dc.lft.to/lastmile_qr_scan", "ios": "https://dc.lft.to/lastmile_qr_scan"}, "name": "01c135e0071c3f9f23ce8e60fd826c14", "is_reserved": 0}, {"is_disabled": 0, "fusion_lon": 0.0, "fusion_lat": 0.0, "lat": 38.95949066666667, "type": "electric_scooter", "lon": -77.0723115, "bike_id": "168e256198649dc22dc382057d2dc8a4", "rental_uris": {"android": "https://dc.lft.to/lastmile_qr_scan", "ios": "https://dc.lft.to/lastmile_qr_scan"}, "name": "168e256198649dc22dc382057d2dc8a4", "is_reserved": 0}, {"is_disabled": 0, "fusion_lon": 0.0, "fusion_lat": 0.0, "lat": 38.895509833333335, "type": "electric_scooter", "lon": -77.02950933333334, "bike_id": "c64801f4bb27eafdae0edf99a69a6e20", "rental_uris": {"android": "https://dc.lft.to/lastmile_qr_scan", "ios": "https://dc.lft.to/lastmile_qr_scan"}, "name": "c64801f4bb27eafdae0edf99a69a6e20", "is_reserved": 0}, {"is_disabled": 0, "fusion_lon": 0.0, "fusion_lat": 0.0, "lat": 38.898442333333335, "type": "electric_scooter", "lon": -76.94638183333333, "bike_id": "5d279ddc80b226924c33390b6255685e", "rental_uris": {"android": "https://dc.lft.to/lastmile_qr_scan", "ios": "https://dc.lft.to/lastmile_qr_scan"}, "name": "5d279ddc80b226924c33390b6255685e", "is_reserved": 0}, {"is_disabled": 0, "fusion_lon": 0.0, "fusion_lat": 0.0, "lat": 38.858049333333334, "type": "electric_scooter", "lon": -76.986578, "bike_id": "3637ae07cb2f69fde449f54c375d86d9", "rental_uris": {"android": "https://dc.lft.to/lastmile_qr_scan", "ios": "https://dc.lft.to/lastmile_qr_scan"}, "name": "3637ae07cb2f69fde449f54c375d86d9", "is_reserved": 0}, {"is_disabled": 0, "fusion_lon": 0.0, "fusion_lat": 0.0, "lat": 38.879365666666665, "type": "electric_scooter", "lon": -77.005153, "bike_id": "a380327182331d4776f4ef6a19f05114", "rental_uris": {"android": "https://dc.lft.to/lastmile_qr_scan", "ios": "https://dc.lft.to/lastmile_qr_scan"}, "name": "a380327182331d4776f4ef6a19f05114", "is_reserved": 0}, {"is_disabled": 0, "fusion_lon": 0.0, "fusion_lat": 0.0, "lat": 38.950826166666666, "type": "electric_bike", "lon": -77.01254433333334, "bike_id": "afa180c7105e7804ac03bfa06c382ba5", "rental_uris": {"android": "https://dc.lft.to/lastmile_qr_scan", "ios": "https://dc.lft.to/lastmile_qr_scan"}, "name": "afa180c7105e7804ac03bfa06c382ba5", "is_reserved": 0}, {"is_disabled": 0, "fusion_lon": 0.0, "fusion_lat": 0.0, "lat": 38.939270666666665, "type": "electric_scooter", "lon": -77.02474766666667, "bike_id": "653e7ea0b25841dc12f55b86fb0c7ed0", "rental_uris": {"android": "https://dc.lft.to/lastmile_qr_scan", "ios": "https://dc.lft.to/lastmile_qr_scan"}, "name": "653e7ea0b25841dc12f55b86fb0c7ed0", "is_reserved": 0}, {"is_disabled": 0, "fusion_lon": 0.0, "fusion_lat": 0.0, "lat": 38.926082666666666, "type": "electric_scooter", "lon": -77.0570735, "bike_id": "1890038f35f3d5d58c45d79fdad0aff8", "rental_uris": {"android": "https://dc.lft.to/lastmile_qr_scan", "ios": "https://dc.lft.to/lastmile_qr_scan"}, "name": "1890038f35f3d5d58c45d79fdad0aff8", "is_reserved": 0}, {"is_disabled": 0, "fusion_lon": 0.0, "fusion_lat": 0.0, "lat": 38.906818333333334, "type": "electric_scooter", "lon": -76.98000516666667, "bike_id": "20c3b5e2dbd52f2984bfbe584055bd6d", "rental_uris": {"android": "https://dc.lft.to/lastmile_qr_scan", "ios": "https://dc.lft.to/lastmile_qr_scan"}, "name": "20c3b5e2dbd52f2984bfbe584055bd6d", "is_reserved": 0}, {"is_disabled": 0, "fusion_lon": 0.0, "fusion_lat": 0.0, "lat": 38.903271833333335, "type": "electric_scooter", "lon": -77.03826183333334, "bike_id": "252446950dd5e420f7698ac523a167d1", "rental_uris": {"android": "https://dc.lft.to/lastmile_qr_scan", "ios": "https://dc.lft.to/lastmile_qr_scan"}, "name": "252446950dd5e420f7698ac523a167d1", "is_reserved": 0}, {"is_disabled": 0, "fusion_lon": 0.0, "fusion_lat": 0.0, "lat": 38.9275885, "type": "electric_scooter", "lon": -77.03360366666666, "bike_id": "56bd97be445329a5c5f29c834f8968cf", "rental_uris": {"android": "https://dc.lft.to/lastmile_qr_scan", "ios": "https://dc.lft.to/lastmile_qr_scan"}, "name": "56bd97be445329a5c5f29c834f8968cf", "is_reserved": 0}, {"is_disabled": 0, "fusion_lon": 0.0, "fusion_lat": 0.0, "lat": 38.908693666666665, "type": "electric_scooter", "lon": -77.035419, "bike_id": "b2aaa5bbbaddd19d1a92379da928e83c", "rental_uris": {"android": "https://dc.lft.to/lastmile_qr_scan", "ios": "https://dc.lft.to/lastmile_qr_scan"}, "name": "b2aaa5bbbaddd19d1a92379da928e83c", "is_reserved": 0}, {"is_disabled": 0, "fusion_lon": 0.0, "fusion_lat": 0.0, "lat": 38.9073255, "type": "electric_scooter", "lon": -76.99911983333334, "bike_id": "8bb17d83cccde314ad6e73af43921c1f", "rental_uris": {"android": "https://dc.lft.to/lastmile_qr_scan", "ios": "https://dc.lft.to/lastmile_qr_scan"}, "name": "8bb17d83cccde314ad6e73af43921c1f", "is_reserved": 0}, {"is_disabled": 0, "fusion_lon": 0.0, "fusion_lat": 0.0, "lat": 38.91185633333333, "type": "electric_scooter", "lon": -77.03501283333334, "bike_id": "869b954bd0c1cccd060e970098ed5d3b", "rental_uris": {"android": "https://dc.lft.to/lastmile_qr_scan", "ios": "https://dc.lft.to/lastmile_qr_scan"}, "name": "869b954bd0c1cccd060e970098ed5d3b", "is_reserved": 0}, {"is_disabled": 0, "fusion_lon": 0.0, "fusion_lat": 0.0, "lat": 38.90363633333333, "type": "electric_scooter", "lon": -77.0035335, "bike_id": "9d6a19f3623a9078757eb04ba72a880d", "rental_uris": {"android": "https://dc.lft.to/lastmile_qr_scan", "ios": "https://dc.lft.to/lastmile_qr_scan"}, "name": "9d6a19f3623a9078757eb04ba72a880d", "is_reserved": 0}, {"is_disabled": 0, "fusion_lon": 0.0, "fusion_lat": 0.0, "lat": 38.947146000000004, "type": "electric_scooter", "lon": -77.0332895, "bike_id": "070a3a08c93afbcf2401e539e5190009", "rental_uris": {"android": "https://dc.lft.to/lastmile_qr_scan", "ios": "https://dc.lft.to/lastmile_qr_scan"}, "name": "070a3a08c93afbcf2401e539e5190009", "is_reserved": 0}, {"is_disabled": 0, "fusion_lon": 0.0, "fusion_lat": 0.0, "lat": 38.90677866666667, "type": "electric_scooter", "lon": -77.02687666666667, "bike_id": "a8e62fcc0fb29962751ce1ff51b17dfb", "rental_uris": {"android": "https://dc.lft.to/lastmile_qr_scan", "ios": "https://dc.lft.to/lastmile_qr_scan"}, "name": "a8e62fcc0fb29962751ce1ff51b17dfb", "is_reserved": 0}, {"is_disabled": 0, "fusion_lon": 0.0, "fusion_lat": 0.0, "lat": 38.87825566666667, "type": "electric_scooter", "lon": -77.019943, "bike_id": "e352adfac24b5200784e5e247e4dddf3", "rental_uris": {"android": "https://dc.lft.to/lastmile_qr_scan", "ios": "https://dc.lft.to/lastmile_qr_scan"}, "name": "e352adfac24b5200784e5e247e4dddf3", "is_reserved": 0}, {"is_disabled": 0, "fusion_lon": 0.0, "fusion_lat": 0.0, "lat": 38.86522766666667, "type": "electric_scooter", "lon": -76.98965633333333, "bike_id": "f2ec751ef9031959b5fed2aa38479e90", "rental_uris": {"android": "https://dc.lft.to/lastmile_qr_scan", "ios": "https://dc.lft.to/lastmile_qr_scan"}, "name": "f2ec751ef9031959b5fed2aa38479e90", "is_reserved": 0}, {"is_disabled": 0, "fusion_lon": 0.0, "fusion_lat": 0.0, "lat": 38.94183666666667, "type": "electric_scooter", "lon": -77.02490333333333, "bike_id": "6497abc74852bbfacad3bb903af70990", "rental_uris": {"android": "https://dc.lft.to/lastmile_qr_scan", "ios": "https://dc.lft.to/lastmile_qr_scan"}, "name": "6497abc74852bbfacad3bb903af70990", "is_reserved": 0}, {"is_disabled": 0, "fusion_lon": 0.0, "fusion_lat": 0.0, "lat": 38.9016245, "type": "electric_scooter", "lon": -77.02293466666667, "bike_id": "1ab3ee83de96b87cd21eecce523ca9bc", "rental_uris": {"android": "https://dc.lft.to/lastmile_qr_scan", "ios": "https://dc.lft.to/lastmile_qr_scan"}, "name": "1ab3ee83de96b87cd21eecce523ca9bc", "is_reserved": 0}, {"is_disabled": 0, "fusion_lon": 0.0, "fusion_lat": 0.0, "lat": 38.87682566666667, "type": "electric_scooter", "lon": -77.00060533333334, "bike_id": "7741a898c8a8838d953ce7a06375b0c4", "rental_uris": {"android": "https://dc.lft.to/lastmile_qr_scan", "ios": "https://dc.lft.to/lastmile_qr_scan"}, "name": "7741a898c8a8838d953ce7a06375b0c4", "is_reserved": 0}, {"is_disabled": 0, "fusion_lon": 0.0, "fusion_lat": 0.0, "lat": 38.916047, "type": "electric_scooter", "lon": -77.0309635, "bike_id": "5c85f875aa63da9d003ba3c372c5d2a4", "rental_uris": {"android": "https://dc.lft.to/lastmile_qr_scan", "ios": "https://dc.lft.to/lastmile_qr_scan"}, "name": "5c85f875aa63da9d003ba3c372c5d2a4", "is_reserved": 0}, {"is_disabled": 0, "fusion_lon": 0.0, "fusion_lat": 0.0, "lat": 38.912963500000004, "type": "electric_bike", "lon": -77.06126433333333, "bike_id": "3789f86e042492cef0e1775e04dac831", "rental_uris": {"android": "https://dc.lft.to/lastmile_qr_scan", "ios": "https://dc.lft.to/lastmile_qr_scan"}, "name": "3789f86e042492cef0e1775e04dac831", "is_reserved": 0}, {"is_disabled": 0, "fusion_lon": 0.0, "fusion_lat": 0.0, "lat": 38.94202266666667, "type": "electric_scooter", "lon": -77.02594533333334, "bike_id": "ed62a97138215f6db647fbe0b953b5cd", "rental_uris": {"android": "https://dc.lft.to/lastmile_qr_scan", "ios": "https://dc.lft.to/lastmile_qr_scan"}, "name": "ed62a97138215f6db647fbe0b953b5cd", "is_reserved": 0}, {"is_disabled": 0, "fusion_lon": 0.0, "fusion_lat": 0.0, "lat": 38.901686166666664, "type": "electric_scooter", "lon": -76.98061316666667, "bike_id": "9d59f2addbf9919d65c583ae5b54bb12", "rental_uris": {"android": "https://dc.lft.to/lastmile_qr_scan", "ios": "https://dc.lft.to/lastmile_qr_scan"}, "name": "9d59f2addbf9919d65c583ae5b54bb12", "is_reserved": 0}, {"is_disabled": 0, "fusion_lon": 0.0, "fusion_lat": 0.0, "lat": 38.8971725, "type": "electric_scooter", "lon": -77.02173883333333, "bike_id": "3dac314efcaee2cfe4fd9184949304a0", "rental_uris": {"android": "https://dc.lft.to/lastmile_qr_scan", "ios": "https://dc.lft.to/lastmile_qr_scan"}, "name": "3dac314efcaee2cfe4fd9184949304a0", "is_reserved": 0}, {"is_disabled": 0, "fusion_lon": 0.0, "fusion_lat": 0.0, "lat": 38.9042815, "type": "electric_scooter", "lon": -77.01819916666666, "bike_id": "b0854a837b34b99c0927512e062d3caa", "rental_uris": {"android": "https://dc.lft.to/lastmile_qr_scan", "ios": "https://dc.lft.to/lastmile_qr_scan"}, "name": "b0854a837b34b99c0927512e062d3caa", "is_reserved": 0}, {"is_disabled": 0, "fusion_lon": 0.0, "fusion_lat": 0.0, "lat": 38.975388333333335, "type": "electric_bike", "lon": -76.99532366666666, "bike_id": "b1144e28b362d45049d1d73f341ff998", "rental_uris": {"android": "https://dc.lft.to/lastmile_qr_scan", "ios": "https://dc.lft.to/lastmile_qr_scan"}, "name": "b1144e28b362d45049d1d73f341ff998", "is_reserved": 0}, {"is_disabled": 0, "fusion_lon": 0.0, "fusion_lat": 0.0, "lat": 38.91586383333333, "type": "electric_bike", "lon": -76.97148216666666, "bike_id": "9ec969f28c665aec54e07616be13afd2", "rental_uris": {"android": "https://dc.lft.to/lastmile_qr_scan", "ios": "https://dc.lft.to/lastmile_qr_scan"}, "name": "9ec969f28c665aec54e07616be13afd2", "is_reserved": 0}, {"is_disabled": 0, "fusion_lon": 0.0, "fusion_lat": 0.0, "lat": 38.904749333333335, "type": "electric_scooter", "lon": -77.03566883333333, "bike_id": "79e32c9ad71070b71e27039bc5f163fb", "rental_uris": {"android": "https://dc.lft.to/lastmile_qr_scan", "ios": "https://dc.lft.to/lastmile_qr_scan"}, "name": "79e32c9ad71070b71e27039bc5f163fb", "is_reserved": 0}, {"is_disabled": 0, "fusion_lon": 0.0, "fusion_lat": 0.0, "lat": 38.905724166666666, "type": "electric_scooter", "lon": -77.041882, "bike_id": "a01de5da46fbd7d0a822b019a2fd240a", "rental_uris": {"android": "https://dc.lft.to/lastmile_qr_scan", "ios": "https://dc.lft.to/lastmile_qr_scan"}, "name": "a01de5da46fbd7d0a822b019a2fd240a", "is_reserved": 0}, {"is_disabled": 0, "fusion_lon": 0.0, "fusion_lat": 0.0, "lat": 38.90267133333333, "type": "electric_scooter", "lon": -77.0337525, "bike_id": "b85c61c272f60fe5eda47865db85de3d", "rental_uris": {"android": "https://dc.lft.to/lastmile_qr_scan", "ios": "https://dc.lft.to/lastmile_qr_scan"}, "name": "b85c61c272f60fe5eda47865db85de3d", "is_reserved": 0}, {"is_disabled": 0, "fusion_lon": 0.0, "fusion_lat": 0.0, "lat": 38.9148615, "type": "electric_scooter", "lon": -77.04162133333334, "bike_id": "f4e162bb2645996d91e6494fc0ae0e8a", "rental_uris": {"android": "https://dc.lft.to/lastmile_qr_scan", "ios": "https://dc.lft.to/lastmile_qr_scan"}, "name": "f4e162bb2645996d91e6494fc0ae0e8a", "is_reserved": 0}, {"is_disabled": 0, "fusion_lon": 0.0, "fusion_lat": 0.0, "lat": 38.874694166666664, "type": "electric_scooter", "lon": -77.00519566666667, "bike_id": "37015c82eaadf7de1bb33a3c1490ebfb", "rental_uris": {"android": "https://dc.lft.to/lastmile_qr_scan", "ios": "https://dc.lft.to/lastmile_qr_scan"}, "name": "37015c82eaadf7de1bb33a3c1490ebfb", "is_reserved": 0}, {"is_disabled": 0, "fusion_lon": 0.0, "fusion_lat": 0.0, "lat": 38.919846166666666, "type": "electric_bike", "lon": -76.9731165, "bike_id": "e022bddca2a184e8af0069a1ec106efc", "rental_uris": {"android": "https://dc.lft.to/lastmile_qr_scan", "ios": "https://dc.lft.to/lastmile_qr_scan"}, "name": "e022bddca2a184e8af0069a1ec106efc", "is_reserved": 0}, {"is_disabled": 0, "fusion_lon": 0.0, "fusion_lat": 0.0, "lat": 38.905720333333335, "type": "electric_scooter", "lon": -76.9762815, "bike_id": "ad60b2ceaa121bec7f6431e1e86d9050", "rental_uris": {"android": "https://dc.lft.to/lastmile_qr_scan", "ios": "https://dc.lft.to/lastmile_qr_scan"}, "name": "ad60b2ceaa121bec7f6431e1e86d9050", "is_reserved": 0}, {"is_disabled": 0, "fusion_lon": 0.0, "fusion_lat": 0.0, "lat": 38.91441366666667, "type": "electric_scooter", "lon": -77.01053933333333, "bike_id": "35efb828e1a303c9ccb1fcb66eb929e4", "rental_uris": {"android": "https://dc.lft.to/lastmile_qr_scan", "ios": "https://dc.lft.to/lastmile_qr_scan"}, "name": "35efb828e1a303c9ccb1fcb66eb929e4", "is_reserved": 0}, {"is_disabled": 0, "fusion_lon": 0.0, "fusion_lat": 0.0, "lat": 38.935865666666665, "type": "electric_bike", "lon": -77.08245016666666, "bike_id": "1e5743746e51f06b1132101908445238", "rental_uris": {"android": "https://dc.lft.to/lastmile_qr_scan", "ios": "https://dc.lft.to/lastmile_qr_scan"}, "name": "1e5743746e51f06b1132101908445238", "is_reserved": 0}, {"is_disabled": 0, "fusion_lon": 0.0, "fusion_lat": 0.0, "lat": 38.96122666666667, "type": "electric_scooter", "lon": -77.01981433333333, "bike_id": "afa56164c11d98c266d81629a10c62eb", "rental_uris": {"android": "https://dc.lft.to/lastmile_qr_scan", "ios": "https://dc.lft.to/lastmile_qr_scan"}, "name": "afa56164c11d98c266d81629a10c62eb", "is_reserved": 0}, {"is_disabled": 0, "fusion_lon": 0.0, "fusion_lat": 0.0, "lat": 38.90730333333333, "type": "electric_scooter", "lon": -77.02283766666666, "bike_id": "67b0c800546dc0cc40e1f09b369229cc", "rental_uris": {"android": "https://dc.lft.to/lastmile_qr_scan", "ios": "https://dc.lft.to/lastmile_qr_scan"}, "name": "67b0c800546dc0cc40e1f09b369229cc", "is_reserved": 0}, {"is_disabled": 0, "fusion_lon": 0.0, "fusion_lat": 0.0, "lat": 38.933293666666664, "type": "electric_scooter", "lon": -77.08192616666666, "bike_id": "2e1e960ac1c7e089b8e541d9a8cd0300", "rental_uris": {"android": "https://dc.lft.to/lastmile_qr_scan", "ios": "https://dc.lft.to/lastmile_qr_scan"}, "name": "2e1e960ac1c7e089b8e541d9a8cd0300", "is_reserved": 0}, {"is_disabled": 0, "fusion_lon": 0.0, "fusion_lat": 0.0, "lat": 38.955640333333335, "type": "electric_scooter", "lon": -77.06989283333333, "bike_id": "dabe59bdb664aaf25a04ad00fff0ae85", "rental_uris": {"android": "https://dc.lft.to/lastmile_qr_scan", "ios": "https://dc.lft.to/lastmile_qr_scan"}, "name": "dabe59bdb664aaf25a04ad00fff0ae85", "is_reserved": 0}, {"is_disabled": 0, "fusion_lon": 0.0, "fusion_lat": 0.0, "lat": 38.909585166666666, "type": "electric_scooter", "lon": -77.038359, "bike_id": "b01de84a8563ebab1bb75b5a4e5aba94", "rental_uris": {"android": "https://dc.lft.to/lastmile_qr_scan", "ios": "https://dc.lft.to/lastmile_qr_scan"}, "name": "b01de84a8563ebab1bb75b5a4e5aba94", "is_reserved": 0}, {"is_disabled": 0, "fusion_lon": 0.0, "fusion_lat": 0.0, "lat": 38.80522916666666, "type": "electric_bike", "lon": -77.04996016666666, "bike_id": "e24fcf7049e491863cd4d82043aea64b", "rental_uris": {"android": "https://dc.lft.to/lastmile_qr_scan", "ios": "https://dc.lft.to/lastmile_qr_scan"}, "name": "e24fcf7049e491863cd4d82043aea64b", "is_reserved": 0}, {"is_disabled": 0, "fusion_lon": 0.0, "fusion_lat": 0.0, "lat": 38.91246983333333, "type": "electric_scooter", "lon": -77.01232933333333, "bike_id": "b9d686124712de38703a8f0d347e3f18", "rental_uris": {"android": "https://dc.lft.to/lastmile_qr_scan", "ios": "https://dc.lft.to/lastmile_qr_scan"}, "name": "b9d686124712de38703a8f0d347e3f18", "is_reserved": 0}, {"is_disabled": 0, "fusion_lon": 0.0, "fusion_lat": 0.0, "lat": 38.884296, "type": "electric_scooter", "lon": -76.99808733333333, "bike_id": "c447c6b7f8747acba0fccdc78edb4502", "rental_uris": {"android": "https://dc.lft.to/lastmile_qr_scan", "ios": "https://dc.lft.to/lastmile_qr_scan"}, "name": "c447c6b7f8747acba0fccdc78edb4502", "is_reserved": 0}, {"is_disabled": 0, "fusion_lon": 0.0, "fusion_lat": 0.0, "lat": 39.0884085, "type": "electric_bike", "lon": -77.17804533333333, "bike_id": "b19487ae1d3e31f23fe6d0566c6a7eb3", "rental_uris": {"android": "https://dc.lft.to/lastmile_qr_scan", "ios": "https://dc.lft.to/lastmile_qr_scan"}, "name": "b19487ae1d3e31f23fe6d0566c6a7eb3", "is_reserved": 0}, {"is_disabled": 0, "fusion_lon": 0.0, "fusion_lat": 0.0, "lat": 38.89224316666667, "type": "electric_scooter", "lon": -77.04809566666667, "bike_id": "e974c79730daf3dcd851f84011807602", "rental_uris": {"android": "https://dc.lft.to/lastmile_qr_scan", "ios": "https://dc.lft.to/lastmile_qr_scan"}, "name": "e974c79730daf3dcd851f84011807602", "is_reserved": 0}, {"is_disabled": 0, "fusion_lon": 0.0, "fusion_lat": 0.0, "lat": 38.90509616666667, "type": "electric_scooter", "lon": -77.029444, "bike_id": "854f23cb2753641a9ac0729437de2396", "rental_uris": {"android": "https://dc.lft.to/lastmile_qr_scan", "ios": "https://dc.lft.to/lastmile_qr_scan"}, "name": "854f23cb2753641a9ac0729437de2396", "is_reserved": 0}, {"is_disabled": 0, "fusion_lon": 0.0, "fusion_lat": 0.0, "lat": 38.87658116666667, "type": "electric_scooter", "lon": -77.00905266666666, "bike_id": "4e9e10d40fc10ebbe86d7650ebb24e4b", "rental_uris": {"android": "https://dc.lft.to/lastmile_qr_scan", "ios": "https://dc.lft.to/lastmile_qr_scan"}, "name": "4e9e10d40fc10ebbe86d7650ebb24e4b", "is_reserved": 0}, {"is_disabled": 0, "fusion_lon": 0.0, "fusion_lat": 0.0, "lat": 38.90655016666667, "type": "electric_scooter", "lon": -77.005905, "bike_id": "ffc238cd000d35d0f66b4d2b92ecd425", "rental_uris": {"android": "https://dc.lft.to/lastmile_qr_scan", "ios": "https://dc.lft.to/lastmile_qr_scan"}, "name": "ffc238cd000d35d0f66b4d2b92ecd425", "is_reserved": 0}, {"is_disabled": 0, "fusion_lon": 0.0, "fusion_lat": 0.0, "lat": 38.884003, "type": "electric_scooter", "lon": -76.95419983333333, "bike_id": "d57022f2de04d892bdcbd189612df253", "rental_uris": {"android": "https://dc.lft.to/lastmile_qr_scan", "ios": "https://dc.lft.to/lastmile_qr_scan"}, "name": "d57022f2de04d892bdcbd189612df253", "is_reserved": 0}, {"is_disabled": 0, "fusion_lon": 0.0, "fusion_lat": 0.0, "lat": 38.87722933333333, "type": "electric_scooter", "lon": -77.00647366666666, "bike_id": "26a74d0180054e924e65d9a4d2056615", "rental_uris": {"android": "https://dc.lft.to/lastmile_qr_scan", "ios": "https://dc.lft.to/lastmile_qr_scan"}, "name": "26a74d0180054e924e65d9a4d2056615", "is_reserved": 0}, {"is_disabled": 0, "fusion_lon": 0.0, "fusion_lat": 0.0, "lat": 38.882051833333335, "type": "electric_scooter", "lon": -76.92711583333333, "bike_id": "ef4806bafe19cc8e708db8332145c205", "rental_uris": {"android": "https://dc.lft.to/lastmile_qr_scan", "ios": "https://dc.lft.to/lastmile_qr_scan"}, "name": "ef4806bafe19cc8e708db8332145c205", "is_reserved": 0}, {"is_disabled": 0, "fusion_lon": 0.0, "fusion_lat": 0.0, "lat": 38.9034045, "type": "electric_scooter", "lon": -76.97577283333334, "bike_id": "5642e24dd0eda2defece47408796172f", "rental_uris": {"android": "https://dc.lft.to/lastmile_qr_scan", "ios": "https://dc.lft.to/lastmile_qr_scan"}, "name": "5642e24dd0eda2defece47408796172f", "is_reserved": 0}, {"is_disabled": 0, "fusion_lon": 0.0, "fusion_lat": 0.0, "lat": 38.912668333333336, "type": "electric_scooter", "lon": -77.03834066666667, "bike_id": "f0b078681e47f01fa6390ef5888de93f", "rental_uris": {"android": "https://dc.lft.to/lastmile_qr_scan", "ios": "https://dc.lft.to/lastmile_qr_scan"}, "name": "f0b078681e47f01fa6390ef5888de93f", "is_reserved": 0}, {"is_disabled": 0, "fusion_lon": 0.0, "fusion_lat": 0.0, "lat": 38.91403483333333, "type": "electric_scooter", "lon": -77.02174716666667, "bike_id": "176b4d0fb23dc90b53edf0642b34a213", "rental_uris": {"android": "https://dc.lft.to/lastmile_qr_scan", "ios": "https://dc.lft.to/lastmile_qr_scan"}, "name": "176b4d0fb23dc90b53edf0642b34a213", "is_reserved": 0}, {"is_disabled": 0, "fusion_lon": 0.0, "fusion_lat": 0.0, "lat": 38.897253166666665, "type": "electric_scooter", "lon": -77.021716, "bike_id": "c19cbc2438ccc97d1e5955692dc7119e", "rental_uris": {"android": "https://dc.lft.to/lastmile_qr_scan", "ios": "https://dc.lft.to/lastmile_qr_scan"}, "name": "c19cbc2438ccc97d1e5955692dc7119e", "is_reserved": 0}, {"is_disabled": 0, "fusion_lon": 0.0, "fusion_lat": 0.0, "lat": 38.873783333333336, "type": "electric_scooter", "lon": -77.00095783333333, "bike_id": "a5247221a9b06124d8a237c4299f2f88", "rental_uris": {"android": "https://dc.lft.to/lastmile_qr_scan", "ios": "https://dc.lft.to/lastmile_qr_scan"}, "name": "a5247221a9b06124d8a237c4299f2f88", "is_reserved": 0}, {"is_disabled": 0, "fusion_lon": 0.0, "fusion_lat": 0.0, "lat": 38.9148845, "type": "electric_scooter", "lon": -77.03943816666667, "bike_id": "467a8ecc9d3404ce0d82e0bbd7fa7ca4", "rental_uris": {"android": "https://dc.lft.to/lastmile_qr_scan", "ios": "https://dc.lft.to/lastmile_qr_scan"}, "name": "467a8ecc9d3404ce0d82e0bbd7fa7ca4", "is_reserved": 0}, {"is_disabled": 0, "fusion_lon": 0.0, "fusion_lat": 0.0, "lat": 38.904499666666666, "type": "electric_scooter", "lon": -77.05322516666666, "bike_id": "c5cf6785cfe575db74631052baaa0b43", "rental_uris": {"android": "https://dc.lft.to/lastmile_qr_scan", "ios": "https://dc.lft.to/lastmile_qr_scan"}, "name": "c5cf6785cfe575db74631052baaa0b43", "is_reserved": 0}, {"is_disabled": 0, "fusion_lon": 0.0, "fusion_lat": 0.0, "lat": 38.906738833333335, "type": "electric_scooter", "lon": -77.0377255, "bike_id": "783e23fd71a78f0dd6aa3067e4bbedb2", "rental_uris": {"android": "https://dc.lft.to/lastmile_qr_scan", "ios": "https://dc.lft.to/lastmile_qr_scan"}, "name": "783e23fd71a78f0dd6aa3067e4bbedb2", "is_reserved": 0}, {"is_disabled": 0, "fusion_lon": 0.0, "fusion_lat": 0.0, "lat": 38.910599, "type": "electric_scooter", "lon": -77.04260533333333, "bike_id": "fd10f166f7042dd334448f671ac2bd9d", "rental_uris": {"android": "https://dc.lft.to/lastmile_qr_scan", "ios": "https://dc.lft.to/lastmile_qr_scan"}, "name": "fd10f166f7042dd334448f671ac2bd9d", "is_reserved": 0}, {"is_disabled": 0, "fusion_lon": 0.0, "fusion_lat": 0.0, "lat": 38.910703833333336, "type": "electric_scooter", "lon": -77.04390933333333, "bike_id": "36f5032f4ec5962b0bcb3242ec5ef694", "rental_uris": {"android": "https://dc.lft.to/lastmile_qr_scan", "ios": "https://dc.lft.to/lastmile_qr_scan"}, "name": "36f5032f4ec5962b0bcb3242ec5ef694", "is_reserved": 0}, {"is_disabled": 0, "fusion_lon": 0.0, "fusion_lat": 0.0, "lat": 38.869528833333334, "type": "electric_scooter", "lon": -76.97598733333334, "bike_id": "20ab6de2a48af5cf311f419aea8690a7", "rental_uris": {"android": "https://dc.lft.to/lastmile_qr_scan", "ios": "https://dc.lft.to/lastmile_qr_scan"}, "name": "20ab6de2a48af5cf311f419aea8690a7", "is_reserved": 0}, {"is_disabled": 0, "fusion_lon": 0.0, "fusion_lat": 0.0, "lat": 38.895326, "type": "electric_scooter", "lon": -76.9491315, "bike_id": "b898f5c0d7f537fc402fbae9089b69ec", "rental_uris": {"android": "https://dc.lft.to/lastmile_qr_scan", "ios": "https://dc.lft.to/lastmile_qr_scan"}, "name": "b898f5c0d7f537fc402fbae9089b69ec", "is_reserved": 0}, {"is_disabled": 0, "fusion_lon": 0.0, "fusion_lat": 0.0, "lat": 38.91108933333334, "type": "electric_scooter", "lon": -77.0383605, "bike_id": "60805ac85b23dca539979c405b3dcda5", "rental_uris": {"android": "https://dc.lft.to/lastmile_qr_scan", "ios": "https://dc.lft.to/lastmile_qr_scan"}, "name": "60805ac85b23dca539979c405b3dcda5", "is_reserved": 0}, {"is_disabled": 0, "fusion_lon": 0.0, "fusion_lat": 0.0, "lat": 38.936338666666664, "type": "electric_scooter", "lon": -77.02695283333334, "bike_id": "915570cb90bfbedb9393efb1ca6717aa", "rental_uris": {"android": "https://dc.lft.to/lastmile_qr_scan", "ios": "https://dc.lft.to/lastmile_qr_scan"}, "name": "915570cb90bfbedb9393efb1ca6717aa", "is_reserved": 0}, {"is_disabled": 0, "fusion_lon": 0.0, "fusion_lat": 0.0, "lat": 38.924558166666664, "type": "electric_bike", "lon": -76.99952716666667, "bike_id": "81b651a7523f27f197275ee443758d7f", "rental_uris": {"android": "https://dc.lft.to/lastmile_qr_scan", "ios": "https://dc.lft.to/lastmile_qr_scan"}, "name": "81b651a7523f27f197275ee443758d7f", "is_reserved": 0}, {"is_disabled": 0, "fusion_lon": 0.0, "fusion_lat": 0.0, "lat": 38.909571666666665, "type": "electric_scooter", "lon": -77.0231705, "bike_id": "87ada3827be12aede8714cb9fe0c3611", "rental_uris": {"android": "https://dc.lft.to/lastmile_qr_scan", "ios": "https://dc.lft.to/lastmile_qr_scan"}, "name": "87ada3827be12aede8714cb9fe0c3611", "is_reserved": 0}, {"is_disabled": 0, "fusion_lon": 0.0, "fusion_lat": 0.0, "lat": 38.90531133333333, "type": "electric_scooter", "lon": -77.02133616666667, "bike_id": "dd8468234703e91f6f571d766dba9cde", "rental_uris": {"android": "https://dc.lft.to/lastmile_qr_scan", "ios": "https://dc.lft.to/lastmile_qr_scan"}, "name": "dd8468234703e91f6f571d766dba9cde", "is_reserved": 0}, {"is_disabled": 0, "fusion_lon": 0.0, "fusion_lat": 0.0, "lat": 38.867106166666666, "type": "electric_scooter", "lon": -76.97900416666667, "bike_id": "9f1f74aa5e54db7845d1f8c64491d1ba", "rental_uris": {"android": "https://dc.lft.to/lastmile_qr_scan", "ios": "https://dc.lft.to/lastmile_qr_scan"}, "name": "9f1f74aa5e54db7845d1f8c64491d1ba", "is_reserved": 0}, {"is_disabled": 0, "fusion_lon": 0.0, "fusion_lat": 0.0, "lat": 38.909713833333335, "type": "electric_scooter", "lon": -77.085657, "bike_id": "6ff8db80fb60314311e931160e73fa01", "rental_uris": {"android": "https://dc.lft.to/lastmile_qr_scan", "ios": "https://dc.lft.to/lastmile_qr_scan"}, "name": "6ff8db80fb60314311e931160e73fa01", "is_reserved": 0}, {"is_disabled": 0, "fusion_lon": 0.0, "fusion_lat": 0.0, "lat": 38.92749833333333, "type": "electric_scooter", "lon": -77.0336385, "bike_id": "0bda7d282d504f7b34b378808ee0e0d5", "rental_uris": {"android": "https://dc.lft.to/lastmile_qr_scan", "ios": "https://dc.lft.to/lastmile_qr_scan"}, "name": "0bda7d282d504f7b34b378808ee0e0d5", "is_reserved": 0}, {"is_disabled": 0, "fusion_lon": 0.0, "fusion_lat": 0.0, "lat": 38.957347666666664, "type": "electric_scooter", "lon": -77.02423616666667, "bike_id": "baeb2f23c7a49efd6453ebcc21a79464", "rental_uris": {"android": "https://dc.lft.to/lastmile_qr_scan", "ios": "https://dc.lft.to/lastmile_qr_scan"}, "name": "baeb2f23c7a49efd6453ebcc21a79464", "is_reserved": 0}, {"is_disabled": 0, "fusion_lon": 0.0, "fusion_lat": 0.0, "lat": 38.98477916666667, "type": "electric_scooter", "lon": -77.02650266666667, "bike_id": "5c823c34cfc6ad527691901221200977", "rental_uris": {"android": "https://dc.lft.to/lastmile_qr_scan", "ios": "https://dc.lft.to/lastmile_qr_scan"}, "name": "5c823c34cfc6ad527691901221200977", "is_reserved": 0}, {"is_disabled": 0, "fusion_lon": 0.0, "fusion_lat": 0.0, "lat": 38.932876666666665, "type": "electric_scooter", "lon": -77.024566, "bike_id": "2d1c57622bf0d49796eb8afd07750a16", "rental_uris": {"android": "https://dc.lft.to/lastmile_qr_scan", "ios": "https://dc.lft.to/lastmile_qr_scan"}, "name": "2d1c57622bf0d49796eb8afd07750a16", "is_reserved": 0}, {"is_disabled": 0, "fusion_lon": 0.0, "fusion_lat": 0.0, "lat": 38.940942666666665, "type": "electric_scooter", "lon": -77.01780683333334, "bike_id": "22f7127dcdef20cad9d7f7d07363d970", "rental_uris": {"android": "https://dc.lft.to/lastmile_qr_scan", "ios": "https://dc.lft.to/lastmile_qr_scan"}, "name": "22f7127dcdef20cad9d7f7d07363d970", "is_reserved": 0}, {"is_disabled": 0, "fusion_lon": 0.0, "fusion_lat": 0.0, "lat": 38.88458383333333, "type": "electric_scooter", "lon": -76.95407483333334, "bike_id": "7689b7bb46bca193874de7069a466f2f", "rental_uris": {"android": "https://dc.lft.to/lastmile_qr_scan", "ios": "https://dc.lft.to/lastmile_qr_scan"}, "name": "7689b7bb46bca193874de7069a466f2f", "is_reserved": 0}, {"is_disabled": 0, "fusion_lon": 0.0, "fusion_lat": 0.0, "lat": 38.8966965, "type": "electric_scooter", "lon": -77.02309383333333, "bike_id": "502b1ba99cfab8b2c0c8a494629ca013", "rental_uris": {"android": "https://dc.lft.to/lastmile_qr_scan", "ios": "https://dc.lft.to/lastmile_qr_scan"}, "name": "502b1ba99cfab8b2c0c8a494629ca013", "is_reserved": 0}, {"is_disabled": 0, "fusion_lon": 0.0, "fusion_lat": 0.0, "lat": 38.91337733333334, "type": "electric_scooter", "lon": -77.0522575, "bike_id": "b22288dfcecb5dc011199e9e478e03ab", "rental_uris": {"android": "https://dc.lft.to/lastmile_qr_scan", "ios": "https://dc.lft.to/lastmile_qr_scan"}, "name": "b22288dfcecb5dc011199e9e478e03ab", "is_reserved": 0}, {"is_disabled": 0, "fusion_lon": 0.0, "fusion_lat": 0.0, "lat": 38.929404166666664, "type": "electric_scooter", "lon": -77.01635866666666, "bike_id": "bcc4d264c0a5889fa6e6549e6a5eb283", "rental_uris": {"android": "https://dc.lft.to/lastmile_qr_scan", "ios": "https://dc.lft.to/lastmile_qr_scan"}, "name": "bcc4d264c0a5889fa6e6549e6a5eb283", "is_reserved": 0}, {"is_disabled": 0, "fusion_lon": 0.0, "fusion_lat": 0.0, "lat": 38.915495, "type": "electric_scooter", "lon": -77.0119855, "bike_id": "5ccc07f3348bfaac24d425c6ebc4320a", "rental_uris": {"android": "https://dc.lft.to/lastmile_qr_scan", "ios": "https://dc.lft.to/lastmile_qr_scan"}, "name": "5ccc07f3348bfaac24d425c6ebc4320a", "is_reserved": 0}, {"is_disabled": 0, "fusion_lon": 0.0, "fusion_lat": 0.0, "lat": 38.900408, "type": "electric_scooter", "lon": -76.999364, "bike_id": "ba055659d4686d9fa55722c854af661d", "rental_uris": {"android": "https://dc.lft.to/lastmile_qr_scan", "ios": "https://dc.lft.to/lastmile_qr_scan"}, "name": "ba055659d4686d9fa55722c854af661d", "is_reserved": 0}, {"is_disabled": 0, "fusion_lon": 0.0, "fusion_lat": 0.0, "lat": 38.923354833333335, "type": "electric_scooter", "lon": -77.04184933333333, "bike_id": "3b871ead959163544db4a49cf7af355d", "rental_uris": {"android": "https://dc.lft.to/lastmile_qr_scan", "ios": "https://dc.lft.to/lastmile_qr_scan"}, "name": "3b871ead959163544db4a49cf7af355d", "is_reserved": 0}, {"is_disabled": 0, "fusion_lon": 0.0, "fusion_lat": 0.0, "lat": 38.91696666666667, "type": "electric_scooter", "lon": -77.05655966666667, "bike_id": "30828965b6d437db4dc495fd53e1b3e9", "rental_uris": {"android": "https://dc.lft.to/lastmile_qr_scan", "ios": "https://dc.lft.to/lastmile_qr_scan"}, "name": "30828965b6d437db4dc495fd53e1b3e9", "is_reserved": 0}, {"is_disabled": 0, "fusion_lon": 0.0, "fusion_lat": 0.0, "lat": 38.89012433333333, "type": "electric_scooter", "lon": -76.93734033333334, "bike_id": "e2b14e743fd0276ee9885c689bba877a", "rental_uris": {"android": "https://dc.lft.to/lastmile_qr_scan", "ios": "https://dc.lft.to/lastmile_qr_scan"}, "name": "e2b14e743fd0276ee9885c689bba877a", "is_reserved": 0}, {"is_disabled": 0, "fusion_lon": 0.0, "fusion_lat": 0.0, "lat": 38.926951, "type": "electric_bike", "lon": -77.0612615, "bike_id": "d6225ec6f0b746ba77827bfbc64e14c8", "rental_uris": {"android": "https://dc.lft.to/lastmile_qr_scan", "ios": "https://dc.lft.to/lastmile_qr_scan"}, "name": "d6225ec6f0b746ba77827bfbc64e14c8", "is_reserved": 0}, {"is_disabled": 0, "fusion_lon": 0.0, "fusion_lat": 0.0, "lat": 38.874712833333334, "type": "electric_scooter", "lon": -77.01595633333334, "bike_id": "a912e567c4a6afb83968a00d73e0bcf2", "rental_uris": {"android": "https://dc.lft.to/lastmile_qr_scan", "ios": "https://dc.lft.to/lastmile_qr_scan"}, "name": "a912e567c4a6afb83968a00d73e0bcf2", "is_reserved": 0}, {"is_disabled": 0, "fusion_lon": 0.0, "fusion_lat": 0.0, "lat": 38.944918666666666, "type": "electric_bike", "lon": -76.98665883333334, "bike_id": "c1da00645b72a2c5e2fd4638a7299c90", "rental_uris": {"android": "https://dc.lft.to/lastmile_qr_scan", "ios": "https://dc.lft.to/lastmile_qr_scan"}, "name": "c1da00645b72a2c5e2fd4638a7299c90", "is_reserved": 0}, {"is_disabled": 0, "fusion_lon": 0.0, "fusion_lat": 0.0, "lat": 38.922850333333336, "type": "electric_scooter", "lon": -77.07301233333334, "bike_id": "cbab2c9e4d213271015ee7176deb81d2", "rental_uris": {"android": "https://dc.lft.to/lastmile_qr_scan", "ios": "https://dc.lft.to/lastmile_qr_scan"}, "name": "cbab2c9e4d213271015ee7176deb81d2", "is_reserved": 0}, {"is_disabled": 0, "fusion_lon": 0.0, "fusion_lat": 0.0, "lat": 38.90542283333333, "type": "electric_scooter", "lon": -77.04652283333333, "bike_id": "bcd5b368c0c4f2e53d1ad8a0c73b508b", "rental_uris": {"android": "https://dc.lft.to/lastmile_qr_scan", "ios": "https://dc.lft.to/lastmile_qr_scan"}, "name": "bcd5b368c0c4f2e53d1ad8a0c73b508b", "is_reserved": 0}, {"is_disabled": 0, "fusion_lon": 0.0, "fusion_lat": 0.0, "lat": 38.87737033333333, "type": "electric_scooter", "lon": -76.99625066666667, "bike_id": "d6b0a75c83b136fa50202df6e6d1b0a4", "rental_uris": {"android": "https://dc.lft.to/lastmile_qr_scan", "ios": "https://dc.lft.to/lastmile_qr_scan"}, "name": "d6b0a75c83b136fa50202df6e6d1b0a4", "is_reserved": 0}, {"is_disabled": 0, "fusion_lon": 0.0, "fusion_lat": 0.0, "lat": 38.944594, "type": "electric_scooter", "lon": -77.0602555, "bike_id": "a2ea69bad405d0d302e075905f92f1ed", "rental_uris": {"android": "https://dc.lft.to/lastmile_qr_scan", "ios": "https://dc.lft.to/lastmile_qr_scan"}, "name": "a2ea69bad405d0d302e075905f92f1ed", "is_reserved": 0}, {"is_disabled": 0, "fusion_lon": 0.0, "fusion_lat": 0.0, "lat": 38.87617016666667, "type": "electric_scooter", "lon": -77.00783466666667, "bike_id": "f1ee51b9ae40a1bacc9668964dbf7f72", "rental_uris": {"android": "https://dc.lft.to/lastmile_qr_scan", "ios": "https://dc.lft.to/lastmile_qr_scan"}, "name": "f1ee51b9ae40a1bacc9668964dbf7f72", "is_reserved": 0}, {"is_disabled": 0, "fusion_lon": 0.0, "fusion_lat": 0.0, "lat": 38.92618433333333, "type": "electric_scooter", "lon": -77.04194116666666, "bike_id": "7e7a43210b2647cfb9eb6a4e90d69418", "rental_uris": {"android": "https://dc.lft.to/lastmile_qr_scan", "ios": "https://dc.lft.to/lastmile_qr_scan"}, "name": "7e7a43210b2647cfb9eb6a4e90d69418", "is_reserved": 0}, {"is_disabled": 0, "fusion_lon": 0.0, "fusion_lat": 0.0, "lat": 38.909712999999996, "type": "electric_scooter", "lon": -77.0387365, "bike_id": "79dd97466d137f3440b1f38d5e725ccb", "rental_uris": {"android": "https://dc.lft.to/lastmile_qr_scan", "ios": "https://dc.lft.to/lastmile_qr_scan"}, "name": "79dd97466d137f3440b1f38d5e725ccb", "is_reserved": 0}, {"is_disabled": 0, "fusion_lon": 0.0, "fusion_lat": 0.0, "lat": 38.8694475, "type": "electric_scooter", "lon": -76.97604883333334, "bike_id": "a281719706b0058e91e709d1064ca926", "rental_uris": {"android": "https://dc.lft.to/lastmile_qr_scan", "ios": "https://dc.lft.to/lastmile_qr_scan"}, "name": "a281719706b0058e91e709d1064ca926", "is_reserved": 0}, {"is_disabled": 0, "fusion_lon": 0.0, "fusion_lat": 0.0, "lat": 38.92156516666667, "type": "electric_scooter", "lon": -77.03506916666667, "bike_id": "733df68287f3382b868ef04d759c5d2f", "rental_uris": {"android": "https://dc.lft.to/lastmile_qr_scan", "ios": "https://dc.lft.to/lastmile_qr_scan"}, "name": "733df68287f3382b868ef04d759c5d2f", "is_reserved": 0}, {"is_disabled": 0, "fusion_lon": 0.0, "fusion_lat": 0.0, "lat": 38.99665133333333, "type": "electric_bike", "lon": -76.99144066666666, "bike_id": "ae6bb320b56d74285d8e1dc710ed0a7c", "rental_uris": {"android": "https://dc.lft.to/lastmile_qr_scan", "ios": "https://dc.lft.to/lastmile_qr_scan"}, "name": "ae6bb320b56d74285d8e1dc710ed0a7c", "is_reserved": 0}, {"is_disabled": 0, "fusion_lon": 0.0, "fusion_lat": 0.0, "lat": 38.91248866666667, "type": "electric_scooter", "lon": -77.022405, "bike_id": "e394ca995cfc497be46d10605764ce91", "rental_uris": {"android": "https://dc.lft.to/lastmile_qr_scan", "ios": "https://dc.lft.to/lastmile_qr_scan"}, "name": "e394ca995cfc497be46d10605764ce91", "is_reserved": 0}, {"is_disabled": 0, "fusion_lon": 0.0, "fusion_lat": 0.0, "lat": 38.91726366666666, "type": "electric_scooter", "lon": -77.02808183333333, "bike_id": "9bd3f7aa691ed7c50ab179aab7650c6c", "rental_uris": {"android": "https://dc.lft.to/lastmile_qr_scan", "ios": "https://dc.lft.to/lastmile_qr_scan"}, "name": "9bd3f7aa691ed7c50ab179aab7650c6c", "is_reserved": 0}, {"is_disabled": 0, "fusion_lon": 0.0, "fusion_lat": 0.0, "lat": 38.89584466666667, "type": "electric_scooter", "lon": -77.02566333333333, "bike_id": "0ffc9a8e4b17e7112c16c0577fb30f48", "rental_uris": {"android": "https://dc.lft.to/lastmile_qr_scan", "ios": "https://dc.lft.to/lastmile_qr_scan"}, "name": "0ffc9a8e4b17e7112c16c0577fb30f48", "is_reserved": 0}, {"is_disabled": 0, "fusion_lon": 0.0, "fusion_lat": 0.0, "lat": 39.000174333333334, "type": "electric_bike", "lon": -76.87285633333333, "bike_id": "04584568afa8769cad457a08f8c29abb", "rental_uris": {"android": "https://dc.lft.to/lastmile_qr_scan", "ios": "https://dc.lft.to/lastmile_qr_scan"}, "name": "04584568afa8769cad457a08f8c29abb", "is_reserved": 0}, {"is_disabled": 0, "fusion_lon": 0.0, "fusion_lat": 0.0, "lat": 38.8286815, "type": "electric_bike", "lon": -77.1122765, "bike_id": "da77dfaf2efcfb9c104a0790a6dbcc3c", "rental_uris": {"android": "https://dc.lft.to/lastmile_qr_scan", "ios": "https://dc.lft.to/lastmile_qr_scan"}, "name": "da77dfaf2efcfb9c104a0790a6dbcc3c", "is_reserved": 0}, {"is_disabled": 0, "fusion_lon": 0.0, "fusion_lat": 0.0, "lat": 38.92579, "type": "electric_scooter", "lon": -77.040206, "bike_id": "603769f02b3b70aed92627c2fafbbfdc", "rental_uris": {"android": "https://dc.lft.to/lastmile_qr_scan", "ios": "https://dc.lft.to/lastmile_qr_scan"}, "name": "603769f02b3b70aed92627c2fafbbfdc", "is_reserved": 0}, {"is_disabled": 0, "fusion_lon": 0.0, "fusion_lat": 0.0, "lat": 38.921698, "type": "electric_scooter", "lon": -77.02667116666667, "bike_id": "9b6a46736eaba3a95c6e1acd1fc85307", "rental_uris": {"android": "https://dc.lft.to/lastmile_qr_scan", "ios": "https://dc.lft.to/lastmile_qr_scan"}, "name": "9b6a46736eaba3a95c6e1acd1fc85307", "is_reserved": 0}, {"is_disabled": 0, "fusion_lon": 0.0, "fusion_lat": 0.0, "lat": 38.89838916666667, "type": "electric_scooter", "lon": -76.92632116666667, "bike_id": "ed46475d3b58e852134f6c3f7a568164", "rental_uris": {"android": "https://dc.lft.to/lastmile_qr_scan", "ios": "https://dc.lft.to/lastmile_qr_scan"}, "name": "ed46475d3b58e852134f6c3f7a568164", "is_reserved": 0}, {"is_disabled": 0, "fusion_lon": 0.0, "fusion_lat": 0.0, "lat": 38.92541116666666, "type": "electric_scooter", "lon": -77.0406395, "bike_id": "b7c22745649b553deaac484d758b4786", "rental_uris": {"android": "https://dc.lft.to/lastmile_qr_scan", "ios": "https://dc.lft.to/lastmile_qr_scan"}, "name": "b7c22745649b553deaac484d758b4786", "is_reserved": 0}, {"is_disabled": 0, "fusion_lon": 0.0, "fusion_lat": 0.0, "lat": 38.906239666666664, "type": "electric_scooter", "lon": -77.021823, "bike_id": "2bd7b7424a6555cd9643d636bb7c4647", "rental_uris": {"android": "https://dc.lft.to/lastmile_qr_scan", "ios": "https://dc.lft.to/lastmile_qr_scan"}, "name": "2bd7b7424a6555cd9643d636bb7c4647", "is_reserved": 0}, {"is_disabled": 0, "fusion_lon": 0.0, "fusion_lat": 0.0, "lat": 38.909675, "type": "electric_scooter", "lon": -77.0110765, "bike_id": "5759a15bf21b0f68f4bacbef274e56f7", "rental_uris": {"android": "https://dc.lft.to/lastmile_qr_scan", "ios": "https://dc.lft.to/lastmile_qr_scan"}, "name": "5759a15bf21b0f68f4bacbef274e56f7", "is_reserved": 0}, {"is_disabled": 0, "fusion_lon": 0.0, "fusion_lat": 0.0, "lat": 38.946169833333336, "type": "electric_bike", "lon": -77.03112416666667, "bike_id": "dbe725eaaff94a157b82ef77569ee06a", "rental_uris": {"android": "https://dc.lft.to/lastmile_qr_scan", "ios": "https://dc.lft.to/lastmile_qr_scan"}, "name": "dbe725eaaff94a157b82ef77569ee06a", "is_reserved": 0}, {"is_disabled": 0, "fusion_lon": 0.0, "fusion_lat": 0.0, "lat": 38.91269033333333, "type": "electric_scooter", "lon": -77.02237366666667, "bike_id": "b5e7e5602edb16c6dc7836715555029f", "rental_uris": {"android": "https://dc.lft.to/lastmile_qr_scan", "ios": "https://dc.lft.to/lastmile_qr_scan"}, "name": "b5e7e5602edb16c6dc7836715555029f", "is_reserved": 0}, {"is_disabled": 0, "fusion_lon": 0.0, "fusion_lat": 0.0, "lat": 38.89536783333333, "type": "electric_scooter", "lon": -77.04324816666667, "bike_id": "eae73e03785cea1cd4e103bfea1f10be", "rental_uris": {"android": "https://dc.lft.to/lastmile_qr_scan", "ios": "https://dc.lft.to/lastmile_qr_scan"}, "name": "eae73e03785cea1cd4e103bfea1f10be", "is_reserved": 0}, {"is_disabled": 0, "fusion_lon": 0.0, "fusion_lat": 0.0, "lat": 38.923721666666665, "type": "electric_scooter", "lon": -77.02822216666667, "bike_id": "71c04b6922fbc70908c6362fbea7c540", "rental_uris": {"android": "https://dc.lft.to/lastmile_qr_scan", "ios": "https://dc.lft.to/lastmile_qr_scan"}, "name": "71c04b6922fbc70908c6362fbea7c540", "is_reserved": 0}, {"is_disabled": 0, "fusion_lon": 0.0, "fusion_lat": 0.0, "lat": 38.963061333333336, "type": "electric_bike", "lon": -77.0111205, "bike_id": "e68f3b3be0ba828e24b8b126d552e4b1", "rental_uris": {"android": "https://dc.lft.to/lastmile_qr_scan", "ios": "https://dc.lft.to/lastmile_qr_scan"}, "name": "e68f3b3be0ba828e24b8b126d552e4b1", "is_reserved": 0}, {"is_disabled": 0, "fusion_lon": 0.0, "fusion_lat": 0.0, "lat": 38.949826, "type": "electric_scooter", "lon": -77.06709833333333, "bike_id": "ba1e04b3838058ddeb05ed4ed70f8d56", "rental_uris": {"android": "https://dc.lft.to/lastmile_qr_scan", "ios": "https://dc.lft.to/lastmile_qr_scan"},