{"data": {"bikes": [{"bike_id": "2f00d78ff5710f7c4d3d413f4e91ec80", "fusion_lon": 0.0, "type": "electric_scooter", "name": "2f00d78ff5710f7c4d3d413f4e91ec80", "rental_uris": {"android": "https://dc.lft.to/lastmile_qr_scan", "ios": "https://dc.lft.to/lastmile_qr_scan"}, "fusion_lat": 0.0, "lat": 38.92299466666667, "is_disabled": 0, "lon": -77.03636433333334, "is_reserved": 0}, {"bike_id": "8c1a9492ea1c79f04498e1731e1eaedc", "fusion_lon": 0.0, "type": "electric_scooter", "name": "8c1a9492ea1c79f04498e1731e1eaedc", "rental_uris": {"android": "https://dc.lft.to/lastmile_qr_scan", "ios": "https://dc.lft.to/lastmile_qr_scan"}, "fusion_lat": 0.0, "lat": 38.9027765, "is_disabled": 0, "lon": -77.03217066666667, "is_reserved": 0}, {"bike_id": "fd916c528553adb2c4158820bbc54c39", "fusion_lon": 0.0, "type": "electric_scooter", "name": "fd916c528553adb2c4158820bbc54c39", "rental_uris": {"android": "https://dc.lft.to/lastmile_qr_scan", "ios": "https://dc.lft.to/lastmile_qr_scan"}, "fusion_lat": 0.0, "lat": 38.90944666666667, "is_disabled": 0, "lon": -77.0320775, "is_reserved": 0}, {"bike_id": "cf755a30baea2d64f056045f6f3cecbc", "fusion_lon": 0.0, "type": "electric_scooter", "name": "cf755a30baea2d64f056045f6f3cecbc", "rental_uris": {"android": "https://dc.lft.to/lastmile_qr_scan", "ios": "https://dc.lft.to/lastmile_qr_scan"}, "fusion_lat": 0.0, "lat": 38.91491466666667, "is_disabled": 0, "lon": -77.01211983333333, "is_reserved": 0}, {"bike_id": "16f91e05f56215a8bc986e856fda0517", "fusion_lon": 0.0, "type": "electric_scooter", "name": "16f91e05f56215a8bc986e856fda0517", "rental_uris": {"android": "https://dc.lft.to/lastmile_qr_scan", "ios": "https://dc.lft.to/lastmile_qr_scan"}, "fusion_lat": 0.0, "lat": 38.89618166666666, "is_disabled": 0, "lon": -76.99935066666667, "is_reserved": 0}, {"bike_id": "f47a39d5a79fe00ac710047058c00d38", "fusion_lon": 0.0, "type": "electric_scooter", "name": "f47a39d5a79fe00ac710047058c00d38", "rental_uris": {"android": "https://dc.lft.to/lastmile_qr_scan", "ios": "https://dc.lft.to/lastmile_qr_scan"}, "fusion_lat": 0.0, "lat": 38.958473, "is_disabled": 0, "lon": -77.02906333333334, "is_reserved": 0}, {"bike_id": "761bd695c220bb94d0649b69123b52fe", "fusion_lon": 0.0, "type": "electric_scooter", "name": "761bd695c220bb94d0649b69123b52fe", "rental_uris": {"android": "https://dc.lft.to/lastmile_qr_scan", "ios": "https://dc.lft.to/lastmile_qr_scan"}, "fusion_lat": 0.0, "lat": 38.884702833333336, "is_disabled": 0, "lon": -77.02338416666667, "is_reserved": 0}, {"bike_id": "174ae905bf29cfb5e8d07426c30ac662", "fusion_lon": 0.0, "type": "electric_bike", "name": "174ae905bf29cfb5e8d07426c30ac662", "rental_uris": {"android": "https://dc.lft.to/lastmile_qr_scan", "ios": "https://dc.lft.to/lastmile_qr_scan"}, "fusion_lat": 0.0, "lat": 38.909749833333336, "is_disabled": 0, "lon": -77.08824833333334, "is_reserved": 0}, {"bike_id": "ed242196cd59722531172e64dcbf0945", "fusion_lon": 0.0, "type": "electric_scooter", "name": "ed242196cd59722531172e64dcbf0945", "rental_uris": {"android": "https://dc.lft.to/lastmile_qr_scan", "ios": "https://dc.lft.to/lastmile_qr_scan"}, "fusion_lat": 0.0, "lat": 38.92448366666667, "is_disabled": 0, "lon": -77.03895333333334, "is_reserved": 0}, {"bike_id": "79eaf70e105d81c430e41bde373e2d21", "fusion_lon": 0.0, "type": "electric_scooter", "name": "79eaf70e105d81c430e41bde373e2d21", "rental_uris": {"android": "https://dc.lft.to/lastmile_qr_scan", "ios": "https://dc.lft.to/lastmile_qr_scan"}, "fusion_lat": 0.0, "lat": 38.92388966666667, "is_disabled": 0, "lon": -77.04090833333333, "is_reserved": 0}, {"bike_id": "50cfbf5159c5ecd21a32c52085e99ae7", "fusion_lon": 0.0, "type": "electric_scooter", "name": "50cfbf5159c5ecd21a32c52085e99ae7", "rental_uris": {"android": "https://dc.lft.to/lastmile_qr_scan", "ios": "https://dc.lft.to/lastmile_qr_scan"}, "fusion_lat": 0.0, "lat": 38.867130833333334, "is_disabled": 0, "lon": -76.98733716666666, "is_reserved": 0}, {"bike_id": "951784e4be04c0d48c9da1c3c5d28c3d", "fusion_lon": 0.0, "type": "electric_scooter", "name": "951784e4be04c0d48c9da1c3c5d28c3d", "rental_uris": {"android": "https://dc.lft.to/lastmile_qr_scan", "ios": "https://dc.lft.to/lastmile_qr_scan"}, "fusion_lat": 0.0, "lat": 38.90009666666667, "is_disabled": 0, "lon": -77.01982266666667, "is_reserved": 0}, {"bike_id": "800d09b70aaa3cc87fbbc086c7c5a50f", "fusion_lon": 0.0, "type": "electric_scooter", "name": "800d09b70aaa3cc87fbbc086c7c5a50f", "rental_uris": {"android": "https://dc.lft.to/lastmile_qr_scan", "ios": "https://dc.lft.to/lastmile_qr_scan"}, "fusion_lat": 0.0, "lat": 38.9044995, "is_disabled": 0, "lon": -77.02001966666667, "is_reserved": 0}, {"bike_id": "5bfb9caae9d8de38cb1e01473613c165", "fusion_lon": 0.0, "type": "electric_scooter", "name": "5bfb9caae9d8de38cb1e01473613c165", "rental_uris": {"android": "https://dc.lft.to/lastmile_qr_scan", "ios": "https://dc.lft.to/lastmile_qr_scan"}, "fusion_lat": 0.0, "lat": 38.899528333333336, "is_disabled": 0, "lon": -77.02501216666667, "is_reserved": 0}, {"bike_id": "c716a4dae7560de8541d0650217bc7a5", "fusion_lon": 0.0, "type": "electric_scooter", "name": "c716a4dae7560de8541d0650217bc7a5", "rental_uris": {"android": "https://dc.lft.to/lastmile_qr_scan", "ios": "https://dc.lft.to/lastmile_qr_scan"}, "fusion_lat": 0.0, "lat": 38.90399383333333, "is_disabled": 0, "lon": -77.04331433333333, "is_reserved": 0}, {"bike_id": "d4020f22100b7491acca169cc189ffb3", "fusion_lon": 0.0, "type": "electric_scooter", "name": "d4020f22100b7491acca169cc189ffb3", "rental_uris": {"android": "https://dc.lft.to/lastmile_qr_scan", "ios": "https://dc.lft.to/lastmile_qr_scan"}, "fusion_lat": 0.0, "lat": 38.903504833333336, "is_disabled": 0, "lon": -77.03552266666667, "is_reserved": 0}, {"bike_id": "4267719c4b00c14d7d451ff5e421461f", "fusion_lon": 0.0, "type": "electric_scooter", "name": "4267719c4b00c14d7d451ff5e421461f", "rental_uris": {"android": "https://dc.lft.to/lastmile_qr_scan", "ios": "https://dc.lft.to/lastmile_qr_scan"}, "fusion_lat": 0.0, "lat": 38.912907, "is_disabled": 0, "lon": -77.00898533333333, "is_reserved": 0}, {"bike_id": "d0d2f6743f59486b1df9017fca620beb", "fusion_lon": 0.0, "type": "electric_scooter", "name": "d0d2f6743f59486b1df9017fca620beb", "rental_uris": {"android": "https://dc.lft.to/lastmile_qr_scan", "ios": "https://dc.lft.to/lastmile_qr_scan"}, "fusion_lat": 0.0, "lat": 38.91955566666667, "is_disabled": 0, "lon": -77.07140916666667, "is_reserved": 0}, {"bike_id": "89835c9563a23a3ba7927765833edd58", "fusion_lon": 0.0, "type": "electric_scooter", "name": "89835c9563a23a3ba7927765833edd58", "rental_uris": {"android": "https://dc.lft.to/lastmile_qr_scan", "ios": "https://dc.lft.to/lastmile_qr_scan"}, "fusion_lat": 0.0, "lat": 38.915627, "is_disabled": 0, "lon": -77.00594416666667, "is_reserved": 0}, {"bike_id": "1d4a0d6cb9e1bfb66db60c6a5e573642", "fusion_lon": 0.0, "type": "electric_scooter", "name": "1d4a0d6cb9e1bfb66db60c6a5e573642", "rental_uris": {"android": "https://dc.lft.to/lastmile_qr_scan", "ios": "https://dc.lft.to/lastmile_qr_scan"}, "fusion_lat": 0.0, "lat": 38.92385733333333, "is_disabled": 0, "lon": -77.0310055, "is_reserved": 0}, {"bike_id": "e5b326175846dfbf4be4e06442cf1a10", "fusion_lon": 0.0, "type": "electric_bike", "name": "e5b326175846dfbf4be4e06442cf1a10", "rental_uris": {"android": "https://dc.lft.to/lastmile_qr_scan", "ios": "https://dc.lft.to/lastmile_qr_scan"}, "fusion_lat": 0.0, "lat": 39.024157, "is_disabled": 0, "lon": -77.12504833333334, "is_reserved": 0}, {"bike_id": "941ace00165d62af6679fb64f5503cf0", "fusion_lon": 0.0, "type": "electric_scooter", "name": "941ace00165d62af6679fb64f5503cf0", "rental_uris": {"android": "https://dc.lft.to/lastmile_qr_scan", "ios": "https://dc.lft.to/lastmile_qr_scan"}, "fusion_lat": 0.0, "lat": 38.92222916666667, "is_disabled": 0, "lon": -77.04336383333333, "is_reserved": 0}, {"bike_id": "c132684d6fa88e0ff54a221ca6a6a5c3", "fusion_lon": 0.0, "type": "electric_scooter", "name": "c132684d6fa88e0ff54a221ca6a6a5c3", "rental_uris": {"android": "https://dc.lft.to/lastmile_qr_scan", "ios": "https://dc.lft.to/lastmile_qr_scan"}, "fusion_lat": 0.0, "lat": 38.9367055, "is_disabled": 0, "lon": -77.036352, "is_reserved": 0}, {"bike_id": "3fcd7dc8d81fddb6fc699a3166d8896e", "fusion_lon": 0.0, "type": "electric_scooter", "name": "3fcd7dc8d81fddb6fc699a3166d8896e", "rental_uris": {"android": "https://dc.lft.to/lastmile_qr_scan", "ios": "https://dc.lft.to/lastmile_qr_scan"}, "fusion_lat": 0.0, "lat": 38.932882166666666, "is_disabled": 0, "lon": -77.0361365, "is_reserved": 0}, {"bike_id": "f6a6cb2983ec8c6d05577ccd1321e53c", "fusion_lon": 0.0, "type": "electric_scooter", "name": "f6a6cb2983ec8c6d05577ccd1321e53c", "rental_uris": {"android": "https://dc.lft.to/lastmile_qr_scan", "ios": "https://dc.lft.to/lastmile_qr_scan"}, "fusion_lat": 0.0, "lat": 38.96211616666667, "is_disabled": 0, "lon": -77.02347116666667, "is_reserved": 0}, {"bike_id": "102acd380abdb155618e0d716e4e53d3", "fusion_lon": 0.0, "type": "electric_scooter", "name": "102acd380abdb155618e0d716e4e53d3", "rental_uris": {"android": "https://dc.lft.to/lastmile_qr_scan", "ios": "https://dc.lft.to/lastmile_qr_scan"}, "fusion_lat": 0.0, "lat": 38.93856366666667, "is_disabled": 0, "lon": -77.02466683333333, "is_reserved": 0}, {"bike_id": "36a547fa078d2bfff4e82300077020cb", "fusion_lon": 0.0, "type": "electric_scooter", "name": "36a547fa078d2bfff4e82300077020cb", "rental_uris": {"android": "https://dc.lft.to/lastmile_qr_scan", "ios": "https://dc.lft.to/lastmile_qr_scan"}, "fusion_lat": 0.0, "lat": 38.877168, "is_disabled": 0, "lon": -77.00683366666667, "is_reserved": 0}, {"bike_id": "6b932558a761420c30e1db81d287a6d8", "fusion_lon": 0.0, "type": "electric_scooter", "name": "6b932558a761420c30e1db81d287a6d8", "rental_uris": {"android": "https://dc.lft.to/lastmile_qr_scan", "ios": "https://dc.lft.to/lastmile_qr_scan"}, "fusion_lat": 0.0, "lat": 38.86885733333333, "is_disabled": 0, "lon": -76.98308833333333, "is_reserved": 0}, {"bike_id": "3af04206a689981ff826d971da703208", "fusion_lon": 0.0, "type": "electric_scooter", "name": "3af04206a689981ff826d971da703208", "rental_uris": {"android": "https://dc.lft.to/lastmile_qr_scan", "ios": "https://dc.lft.to/lastmile_qr_scan"}, "fusion_lat": 0.0, "lat": 38.8971235, "is_disabled": 0, "lon": -77.03154166666667, "is_reserved": 0}, {"bike_id": "9eb19e90839ac28bdbc8c475f796042d", "fusion_lon": 0.0, "type": "electric_scooter", "name": "9eb19e90839ac28bdbc8c475f796042d", "rental_uris": {"android": "https://dc.lft.to/lastmile_qr_scan", "ios": "https://dc.lft.to/lastmile_qr_scan"}, "fusion_lat": 0.0, "lat": 38.92200733333333, "is_disabled": 0, "lon": -77.04256916666667, "is_reserved": 0}, {"bike_id": "49a061b4568e96939d3d0dca5116b94a", "fusion_lon": 0.0, "type": "electric_bike", "name": "49a061b4568e96939d3d0dca5116b94a", "rental_uris": {"android": "https://dc.lft.to/lastmile_qr_scan", "ios": "https://dc.lft.to/lastmile_qr_scan"}, "fusion_lat": 0.0, "lat": 38.8616365, "is_disabled": 0, "lon": -77.13095333333334, "is_reserved": 0}, {"bike_id": "92d48d1eb2f1cf77685d9a56e8acdcb2", "fusion_lon": 0.0, "type": "electric_scooter", "name": "92d48d1eb2f1cf77685d9a56e8acdcb2", "rental_uris": {"android": "https://dc.lft.to/lastmile_qr_scan", "ios": "https://dc.lft.to/lastmile_qr_scan"}, "fusion_lat": 0.0, "lat": 38.88736466666667, "is_disabled": 0, "lon": -77.031758, "is_reserved": 0}, {"bike_id": "5d4ce135bb7deb34a5f8efd62d3738c7", "fusion_lon": 0.0, "type": "electric_scooter", "name": "5d4ce135bb7deb34a5f8efd62d3738c7", "rental_uris": {"android": "https://dc.lft.to/lastmile_qr_scan", "ios": "https://dc.lft.to/lastmile_qr_scan"}, "fusion_lat": 0.0, "lat": 38.932951833333334, "is_disabled": 0, "lon": -77.024402, "is_reserved": 0}, {"bike_id": "a846bcc700336af0b8d030e2eaed4bca", "fusion_lon": 0.0, "type": "electric_scooter", "name": "a846bcc700336af0b8d030e2eaed4bca", "rental_uris": {"android": "https://dc.lft.to/lastmile_qr_scan", "ios": "https://dc.lft.to/lastmile_qr_scan"}, "fusion_lat": 0.0, "lat": 38.92236416666667, "is_disabled": 0, "lon": -77.0352265, "is_reserved": 0}, {"bike_id": "429429908dc6c40949a61a1d3ee7078c", "fusion_lon": 0.0, "type": "electric_scooter", "name": "429429908dc6c40949a61a1d3ee7078c", "rental_uris": {"android": "https://dc.lft.to/lastmile_qr_scan", "ios": "https://dc.lft.to/lastmile_qr_scan"}, "fusion_lat": 0.0, "lat": 38.905905833333335, "is_disabled": 0, "lon": -77.06271416666667, "is_reserved": 0}, {"bike_id": "ab7938017e0641b23657b4e404e44ea2", "fusion_lon": 0.0, "type": "electric_scooter", "name": "ab7938017e0641b23657b4e404e44ea2", "rental_uris": {"android": "https://dc.lft.to/lastmile_qr_scan", "ios": "https://dc.lft.to/lastmile_qr_scan"}, "fusion_lat": 0.0, "lat": 38.9177775, "is_disabled": 0, "lon": -77.04249816666666, "is_reserved": 0}, {"bike_id": "7e0652d939e0ae5f19a0e19974034162", "fusion_lon": 0.0, "type": "electric_scooter", "name": "7e0652d939e0ae5f19a0e19974034162", "rental_uris": {"android": "https://dc.lft.to/lastmile_qr_scan", "ios": "https://dc.lft.to/lastmile_qr_scan"}, "fusion_lat": 0.0, "lat": 38.88865033333333, "is_disabled": 0, "lon": -76.99602133333333, "is_reserved": 0}, {"bike_id": "f3b6d8d822ab83fdc3e0cc54ca0cb506", "fusion_lon": 0.0, "type": "electric_scooter", "name": "f3b6d8d822ab83fdc3e0cc54ca0cb506", "rental_uris": {"android": "https://dc.lft.to/lastmile_qr_scan", "ios": "https://dc.lft.to/lastmile_qr_scan"}, "fusion_lat": 0.0, "lat": 38.928222833333336, "is_disabled": 0, "lon": -77.02161166666667, "is_reserved": 0}, {"bike_id": "9435979df2843a054bc61384422ed8d3", "fusion_lon": 0.0, "type": "electric_scooter", "name": "9435979df2843a054bc61384422ed8d3", "rental_uris": {"android": "https://dc.lft.to/lastmile_qr_scan", "ios": "https://dc.lft.to/lastmile_qr_scan"}, "fusion_lat": 0.0, "lat": 38.859700833333335, "is_disabled": 0, "lon": -76.98404266666667, "is_reserved": 0}, {"bike_id": "7eaed832869dfa5e883596cf74449479", "fusion_lon": 0.0, "type": "electric_scooter", "name": "7eaed832869dfa5e883596cf74449479", "rental_uris": {"android": "https://dc.lft.to/lastmile_qr_scan", "ios": "https://dc.lft.to/lastmile_qr_scan"}, "fusion_lat": 0.0, "lat": 38.90790333333333, "is_disabled": 0, "lon": -77.04506033333334, "is_reserved": 0}, {"bike_id": "2317241e2b552470d41893482083ec5a", "fusion_lon": 0.0, "type": "electric_bike", "name": "2317241e2b552470d41893482083ec5a", "rental_uris": {"android": "https://dc.lft.to/lastmile_qr_scan", "ios": "https://dc.lft.to/lastmile_qr_scan"}, "fusion_lat": 0.0, "lat": 38.928496833333334, "is_disabled": 0, "lon": -77.10509566666667, "is_reserved": 0}, {"bike_id": "8b8f0f5ded1089e38449f4b7ae8a243b", "fusion_lon": 0.0, "type": "electric_scooter", "name": "8b8f0f5ded1089e38449f4b7ae8a243b", "rental_uris": {"android": "https://dc.lft.to/lastmile_qr_scan", "ios": "https://dc.lft.to/lastmile_qr_scan"}, "fusion_lat": 0.0, "lat": 38.94292816666667, "is_disabled": 0, "lon": -77.02763366666667, "is_reserved": 0}, {"bike_id": "911a8f057b07f2c3d6ee152c1005030b", "fusion_lon": 0.0, "type": "electric_scooter", "name": "911a8f057b07f2c3d6ee152c1005030b", "rental_uris": {"android": "https://dc.lft.to/lastmile_qr_scan", "ios": "https://dc.lft.to/lastmile_qr_scan"}, "fusion_lat": 0.0, "lat": 38.898778666666665, "is_disabled": 0, "lon": -77.055483, "is_reserved": 0}, {"bike_id": "807448adeb6d1cbc70c11a7fbac692a9", "fusion_lon": 0.0, "type": "electric_scooter", "name": "807448adeb6d1cbc70c11a7fbac692a9", "rental_uris": {"android": "https://dc.lft.to/lastmile_qr_scan", "ios": "https://dc.lft.to/lastmile_qr_scan"}, "fusion_lat": 0.0, "lat": 38.9212105, "is_disabled": 0, "lon": -77.03192166666666, "is_reserved": 0}, {"bike_id": "fb77129fc0f7b440aa5accb47b4a504d", "fusion_lon": 0.0, "type": "electric_bike", "name": "fb77129fc0f7b440aa5accb47b4a504d", "rental_uris": {"android": "https://dc.lft.to/lastmile_qr_scan", "ios": "https://dc.lft.to/lastmile_qr_scan"}, "fusion_lat": 0.0, "lat": 38.84907483333333, "is_disabled": 0, "lon": -77.10118833333334, "is_reserved": 0}, {"bike_id": "a4aaf2c4e097d79a7c90b54a7f57539e", "fusion_lon": 0.0, "type": "electric_bike", "name": "a4aaf2c4e097d79a7c90b54a7f57539e", "rental_uris": {"android": "https://dc.lft.to/lastmile_qr_scan", "ios": "https://dc.lft.to/lastmile_qr_scan"}, "fusion_lat": 0.0, "lat": 38.919686666666664, "is_disabled": 0, "lon": -76.99946483333333, "is_reserved": 0}, {"bike_id": "ff6defd315b1477fc55f506a594c0557", "fusion_lon": 0.0, "type": "electric_scooter", "name": "ff6defd315b1477fc55f506a594c0557", "rental_uris": {"android": "https://dc.lft.to/lastmile_qr_scan", "ios": "https://dc.lft.to/lastmile_qr_scan"}, "fusion_lat": 0.0, "lat": 38.8901215, "is_disabled": 0, "lon": -76.937378, "is_reserved": 0}, {"bike_id": "53ec40e52aa12161581675d2fb74ff66", "fusion_lon": 0.0, "type": "electric_scooter", "name": "53ec40e52aa12161581675d2fb74ff66", "rental_uris": {"android": "https://dc.lft.to/lastmile_qr_scan", "ios": "https://dc.lft.to/lastmile_qr_scan"}, "fusion_lat": 0.0, "lat": 38.92430016666667, "is_disabled": 0, "lon": -77.03629, "is_reserved": 0}, {"bike_id": "035a3c3c1df8b711ad8430916a8d83dc", "fusion_lon": 0.0, "type": "electric_scooter", "name": "035a3c3c1df8b711ad8430916a8d83dc", "rental_uris": {"android": "https://dc.lft.to/lastmile_qr_scan", "ios": "https://dc.lft.to/lastmile_qr_scan"}, "fusion_lat": 0.0, "lat": 38.957636, "is_disabled": 0, "lon": -77.015938, "is_reserved": 0}, {"bike_id": "2ed0033ac17fe5a1af33d6d49144efbe", "fusion_lon": 0.0, "type": "electric_scooter", "name": "2ed0033ac17fe5a1af33d6d49144efbe", "rental_uris": {"android": "https://dc.lft.to/lastmile_qr_scan", "ios": "https://dc.lft.to/lastmile_qr_scan"}, "fusion_lat": 0.0, "lat": 38.92714266666667, "is_disabled": 0, "lon": -77.02398683333334, "is_reserved": 0}, {"bike_id": "3f4a92656749b3a91349df081a868f17", "fusion_lon": 0.0, "type": "electric_scooter", "name": "3f4a92656749b3a91349df081a868f17", "rental_uris": {"android": "https://dc.lft.to/lastmile_qr_scan", "ios": "https://dc.lft.to/lastmile_qr_scan"}, "fusion_lat": 0.0, "lat": 38.92099733333333, "is_disabled": 0, "lon": -77.04372716666667, "is_reserved": 0}, {"bike_id": "cad04b4cf838ae1a23b292d5ec0a63f5", "fusion_lon": 0.0, "type": "electric_scooter", "name": "cad04b4cf838ae1a23b292d5ec0a63f5", "rental_uris": {"android": "https://dc.lft.to/lastmile_qr_scan", "ios": "https://dc.lft.to/lastmile_qr_scan"}, "fusion_lat": 0.0, "lat": 38.89135183333333, "is_disabled": 0, "lon": -76.95185033333334, "is_reserved": 0}, {"bike_id": "cde2009a7427a646146a6a4110f501f2", "fusion_lon": 0.0, "type": "electric_scooter", "name": "cde2009a7427a646146a6a4110f501f2", "rental_uris": {"android": "https://dc.lft.to/lastmile_qr_scan", "ios": "https://dc.lft.to/lastmile_qr_scan"}, "fusion_lat": 0.0, "lat": 38.9300795, "is_disabled": 0, "lon": -77.03291816666666, "is_reserved": 0}, {"bike_id": "d33f0e025ea36943cc86904b7914813c", "fusion_lon": 0.0, "type": "electric_scooter", "name": "d33f0e025ea36943cc86904b7914813c", "rental_uris": {"android": "https://dc.lft.to/lastmile_qr_scan", "ios": "https://dc.lft.to/lastmile_qr_scan"}, "fusion_lat": 0.0, "lat": 38.915535166666665, "is_disabled": 0, "lon": -77.02204766666667, "is_reserved": 0}, {"bike_id": "4fa24815264e2a08b0161e4ae92167f4", "fusion_lon": 0.0, "type": "electric_scooter", "name": "4fa24815264e2a08b0161e4ae92167f4", "rental_uris": {"android": "https://dc.lft.to/lastmile_qr_scan", "ios": "https://dc.lft.to/lastmile_qr_scan"}, "fusion_lat": 0.0, "lat": 38.91686516666667, "is_disabled": 0, "lon": -77.0295075, "is_reserved": 0}, {"bike_id": "1f4a62e10441f7e9a1c741d996034af1", "fusion_lon": 0.0, "type": "electric_scooter", "name": "1f4a62e10441f7e9a1c741d996034af1", "rental_uris": {"android": "https://dc.lft.to/lastmile_qr_scan", "ios": "https://dc.lft.to/lastmile_qr_scan"}, "fusion_lat": 0.0, "lat": 38.929539166666665, "is_disabled": 0, "lon": -77.03420266666667, "is_reserved": 0}, {"bike_id": "2ed1f60bf11c32a38f82cedf65909c48", "fusion_lon": 0.0, "type": "electric_scooter", "name": "2ed1f60bf11c32a38f82cedf65909c48", "rental_uris": {"android": "https://dc.lft.to/lastmile_qr_scan", "ios": "https://dc.lft.to/lastmile_qr_scan"}, "fusion_lat": 0.0, "lat": 38.8999635, "is_disabled": 0, "lon": -77.0169495, "is_reserved": 0}, {"bike_id": "e443e8044c7ea0296c0d22b3149fede5", "fusion_lon": 0.0, "type": "electric_scooter", "name": "e443e8044c7ea0296c0d22b3149fede5", "rental_uris": {"android": "https://dc.lft.to/lastmile_qr_scan", "ios": "https://dc.lft.to/lastmile_qr_scan"}, "fusion_lat": 0.0, "lat": 38.91239233333334, "is_disabled": 0, "lon": -77.04471816666667, "is_reserved": 0}, {"bike_id": "f716a55517415dd8c25091e77fb21d5f", "fusion_lon": 0.0, "type": "electric_scooter", "name": "f716a55517415dd8c25091e77fb21d5f", "rental_uris": {"android": "https://dc.lft.to/lastmile_qr_scan", "ios": "https://dc.lft.to/lastmile_qr_scan"}, "fusion_lat": 0.0, "lat": 38.909597166666664, "is_disabled": 0, "lon": -77.024163, "is_reserved": 0}, {"bike_id": "ff9ba0c62e2b4817feab794e1dff5d52", "fusion_lon": 0.0, "type": "electric_scooter", "name": "ff9ba0c62e2b4817feab794e1dff5d52", "rental_uris": {"android": "https://dc.lft.to/lastmile_qr_scan", "ios": "https://dc.lft.to/lastmile_qr_scan"}, "fusion_lat": 0.0, "lat": 38.905608666666666, "is_disabled": 0, "lon": -77.02418666666667, "is_reserved": 0}, {"bike_id": "deea71e3fb3f2a28e0888fbeea7b577c", "fusion_lon": 0.0, "type": "electric_scooter", "name": "deea71e3fb3f2a28e0888fbeea7b577c", "rental_uris": {"android": "https://dc.lft.to/lastmile_qr_scan", "ios": "https://dc.lft.to/lastmile_qr_scan"}, "fusion_lat": 0.0, "lat": 38.88432516666667, "is_disabled": 0, "lon": -76.95751533333333, "is_reserved": 0}, {"bike_id": "6751fb2795d0022695937eab3c4fd1b8", "fusion_lon": 0.0, "type": "electric_bike", "name": "6751fb2795d0022695937eab3c4fd1b8", "rental_uris": {"android": "https://dc.lft.to/lastmile_qr_scan", "ios": "https://dc.lft.to/lastmile_qr_scan"}, "fusion_lat": 0.0, "lat": 38.99667566666667, "is_disabled": 0, "lon": -77.03804716666667, "is_reserved": 0}, {"bike_id": "8fa6e52c85d6f04b7270736d6320ffcc", "fusion_lon": 0.0, "type": "electric_bike", "name": "8fa6e52c85d6f04b7270736d6320ffcc", "rental_uris": {"android": "https://dc.lft.to/lastmile_qr_scan", "ios": "https://dc.lft.to/lastmile_qr_scan"}, "fusion_lat": 0.0, "lat": 38.898839333333335, "is_disabled": 0, "lon": -76.98391333333333, "is_reserved": 0}, {"bike_id": "0565b629db6797e93e12e98a0290c6e9", "fusion_lon": 0.0, "type": "electric_bike", "name": "0565b629db6797e93e12e98a0290c6e9", "rental_uris": {"android": "https://dc.lft.to/lastmile_qr_scan", "ios": "https://dc.lft.to/lastmile_qr_scan"}, "fusion_lat": 0.0, "lat": 38.901174833333336, "is_disabled": 0, "lon": -77.0381985, "is_reserved": 0}, {"bike_id": "cff17861524b3781653547b5ff7ab5f7", "fusion_lon": 0.0, "type": "electric_scooter", "name": "cff17861524b3781653547b5ff7ab5f7", "rental_uris": {"android": "https://dc.lft.to/lastmile_qr_scan", "ios": "https://dc.lft.to/lastmile_qr_scan"}, "fusion_lat": 0.0, "lat": 38.880439333333335, "is_disabled": 0, "lon": -77.030688, "is_reserved": 0}, {"bike_id": "d66a188d2020048bf9e5217e7cf8dda4", "fusion_lon": 0.0, "type": "electric_scooter", "name": "d66a188d2020048bf9e5217e7cf8dda4", "rental_uris": {"android": "https://dc.lft.to/lastmile_qr_scan", "ios": "https://dc.lft.to/lastmile_qr_scan"}, "fusion_lat": 0.0, "lat": 38.915699833333335, "is_disabled": 0, "lon": -77.04669833333334, "is_reserved": 0}, {"bike_id": "4e6ed3586d3c00840d4d3046a10f2ad3", "fusion_lon": 0.0, "type": "electric_scooter", "name": "4e6ed3586d3c00840d4d3046a10f2ad3", "rental_uris": {"android": "https://dc.lft.to/lastmile_qr_scan", "ios": "https://dc.lft.to/lastmile_qr_scan"}, "fusion_lat": 0.0, "lat": 38.88356066666667, "is_disabled": 0, "lon": -77.02565733333333, "is_reserved": 0}, {"bike_id": "87203829a36810dd074054a855c74235", "fusion_lon": 0.0, "type": "electric_scooter", "name": "87203829a36810dd074054a855c74235", "rental_uris": {"android": "https://dc.lft.to/lastmile_qr_scan", "ios": "https://dc.lft.to/lastmile_qr_scan"}, "fusion_lat": 0.0, "lat": 38.88187216666667, "is_disabled": 0, "lon": -77.00355066666667, "is_reserved": 0}, {"bike_id": "10f312988ec4260ead9c973dcdf93b7c", "fusion_lon": 0.0, "type": "electric_scooter", "name": "10f312988ec4260ead9c973dcdf93b7c", "rental_uris": {"android": "https://dc.lft.to/lastmile_qr_scan", "ios": "https://dc.lft.to/lastmile_qr_scan"}, "fusion_lat": 0.0, "lat": 38.87905033333333, "is_disabled": 0, "lon": -76.9913415, "is_reserved": 0}, {"bike_id": "aaa64c3ac6e3046840ad77348d5b2050", "fusion_lon": 0.0, "type": "electric_bike", "name": "aaa64c3ac6e3046840ad77348d5b2050", "rental_uris": {"android": "https://dc.lft.to/lastmile_qr_scan", "ios": "https://dc.lft.to/lastmile_qr_scan"}, "fusion_lat": 0.0, "lat": 38.86903183333333, "is_disabled": 0, "lon": -77.13190233333333, "is_reserved": 0}, {"bike_id": "80f7112249a5e7b1fe8b46786ec557f9", "fusion_lon": 0.0, "type": "electric_scooter", "name": "80f7112249a5e7b1fe8b46786ec557f9", "rental_uris": {"android": "https://dc.lft.to/lastmile_qr_scan", "ios": "https://dc.lft.to/lastmile_qr_scan"}, "fusion_lat": 0.0, "lat": 38.922758, "is_disabled": 0, "lon": -76.9939975, "is_reserved": 0}, {"bike_id": "e9549c71214e9d101886dc0eca4b88fe", "fusion_lon": 0.0, "type": "electric_scooter", "name": "e9549c71214e9d101886dc0eca4b88fe", "rental_uris": {"android": "https://dc.lft.to/lastmile_qr_scan", "ios": "https://dc.lft.to/lastmile_qr_scan"}, "fusion_lat": 0.0, "lat": 38.83835333333333, "is_disabled": 0, "lon": -76.99981766666667, "is_reserved": 0}, {"bike_id": "f76b60adfab67ab6837050d6e602b455", "fusion_lon": 0.0, "type": "electric_scooter", "name": "f76b60adfab67ab6837050d6e602b455", "rental_uris": {"android": "https://dc.lft.to/lastmile_qr_scan", "ios": "https://dc.lft.to/lastmile_qr_scan"}, "fusion_lat": 0.0, "lat": 38.918363, "is_disabled": 0, "lon": -77.02319383333334, "is_reserved": 0}, {"bike_id": "a8266e7206ff0ca05e018413631b5fca", "fusion_lon": 0.0, "type": "electric_scooter", "name": "a8266e7206ff0ca05e018413631b5fca", "rental_uris": {"android": "https://dc.lft.to/lastmile_qr_scan", "ios": "https://dc.lft.to/lastmile_qr_scan"}, "fusion_lat": 0.0, "lat": 38.908102, "is_disabled": 0, "lon": -77.04284016666666, "is_reserved": 0}, {"bike_id": "f801f96a543c746abe9d3cc8071929b3", "fusion_lon": 0.0, "type": "electric_scooter", "name": "f801f96a543c746abe9d3cc8071929b3", "rental_uris": {"android": "https://dc.lft.to/lastmile_qr_scan", "ios": "https://dc.lft.to/lastmile_qr_scan"}, "fusion_lat": 0.0, "lat": 38.90123366666667, "is_disabled": 0, "lon": -77.04067266666667, "is_reserved": 0}, {"bike_id": "8ea7da6c430c85145873ce5676038422", "fusion_lon": 0.0, "type": "electric_scooter", "name": "8ea7da6c430c85145873ce5676038422", "rental_uris": {"android": "https://dc.lft.to/lastmile_qr_scan", "ios": "https://dc.lft.to/lastmile_qr_scan"}, "fusion_lat": 0.0, "lat": 38.895467833333335, "is_disabled": 0, "lon": -77.01088416666667, "is_reserved": 0}, {"bike_id": "479a68afaf1798886cdd05f60d11aa62", "fusion_lon": 0.0, "type": "electric_scooter", "name": "479a68afaf1798886cdd05f60d11aa62", "rental_uris": {"android": "https://dc.lft.to/lastmile_qr_scan", "ios": "https://dc.lft.to/lastmile_qr_scan"}, "fusion_lat": 0.0, "lat": 38.9233365, "is_disabled": 0, "lon": -77.038961, "is_reserved": 0}, {"bike_id": "c4a929ae50369a20f9b1c6207f00c6ef", "fusion_lon": 0.0, "type": "electric_scooter", "name": "c4a929ae50369a20f9b1c6207f00c6ef", "rental_uris": {"android": "https://dc.lft.to/lastmile_qr_scan", "ios": "https://dc.lft.to/lastmile_qr_scan"}, "fusion_lat": 0.0, "lat": 38.86506583333333, "is_disabled": 0, "lon": -76.99006966666667, "is_reserved": 0}, {"bike_id": "3d052d3dd21b7a3427f572d2c4c9a760", "fusion_lon": 0.0, "type": "electric_scooter", "name": "3d052d3dd21b7a3427f572d2c4c9a760", "rental_uris": {"android": "https://dc.lft.to/lastmile_qr_scan", "ios": "https://dc.lft.to/lastmile_qr_scan"}, "fusion_lat": 0.0, "lat": 38.921529, "is_disabled": 0, "lon": -77.04212733333334, "is_reserved": 0}, {"bike_id": "f6851ba353f523421b8b51e98f845ee7", "fusion_lon": 0.0, "type": "electric_scooter", "name": "f6851ba353f523421b8b51e98f845ee7", "rental_uris": {"android": "https://dc.lft.to/lastmile_qr_scan", "ios": "https://dc.lft.to/lastmile_qr_scan"}, "fusion_lat": 0.0, "lat": 38.8604635, "is_disabled": 0, "lon": -76.9908325, "is_reserved": 0}, {"bike_id": "8e0a7a2a3b5f3a708f5617afee9c383f", "fusion_lon": 0.0, "type": "electric_scooter", "name": "8e0a7a2a3b5f3a708f5617afee9c383f", "rental_uris": {"android": "https://dc.lft.to/lastmile_qr_scan", "ios": "https://dc.lft.to/lastmile_qr_scan"}, "fusion_lat": 0.0, "lat": 38.92838166666667, "is_disabled": 0, "lon": -76.99366816666667, "is_reserved": 0}, {"bike_id": "3ee7fca77f03ed265d7a518175f6573c", "fusion_lon": 0.0, "type": "electric_scooter", "name": "3ee7fca77f03ed265d7a518175f6573c", "rental_uris": {"android": "https://dc.lft.to/lastmile_qr_scan", "ios": "https://dc.lft.to/lastmile_qr_scan"}, "fusion_lat": 0.0, "lat": 38.916922, "is_disabled": 0, "lon": -77.02945516666666, "is_reserved": 0}, {"bike_id": "6bc1e2a1f074cc8e66e587c705b2e511", "fusion_lon": 0.0, "type": "electric_bike", "name": "6bc1e2a1f074cc8e66e587c705b2e511", "rental_uris": {"android": "https://dc.lft.to/lastmile_qr_scan", "ios": "https://dc.lft.to/lastmile_qr_scan"}, "fusion_lat": 0.0, "lat": 38.82875133333334, "is_disabled": 0, "lon": -77.11217916666666, "is_reserved": 0}, {"bike_id": "0ee3bedf7f78eb15aee8e64228fe6299", "fusion_lon": 0.0, "type": "electric_scooter", "name": "0ee3bedf7f78eb15aee8e64228fe6299", "rental_uris": {"android": "https://dc.lft.to/lastmile_qr_scan", "ios": "https://dc.lft.to/lastmile_qr_scan"}, "fusion_lat": 0.0, "lat": 38.921376333333335, "is_disabled": 0, "lon": -77.00958983333334, "is_reserved": 0}, {"bike_id": "603291f5664d34f5c5365bbb9b2f2c7a", "fusion_lon": 0.0, "type": "electric_scooter", "name": "603291f5664d34f5c5365bbb9b2f2c7a", "rental_uris": {"android": "https://dc.lft.to/lastmile_qr_scan", "ios": "https://dc.lft.to/lastmile_qr_scan"}, "fusion_lat": 0.0, "lat": 38.918484166666666, "is_disabled": 0, "lon": -76.965586, "is_reserved": 0}, {"bike_id": "e9e2fb6292e43f57b5a5fc6306b3d619", "fusion_lon": 0.0, "type": "electric_bike", "name": "e9e2fb6292e43f57b5a5fc6306b3d619", "rental_uris": {"android": "https://dc.lft.to/lastmile_qr_scan", "ios": "https://dc.lft.to/lastmile_qr_scan"}, "fusion_lat": 0.0, "lat": 38.99091416666667, "is_disabled": 0, "lon": -76.874991, "is_reserved": 0}, {"bike_id": "6463d7a65caf808c59be1d8f27d06c1c", "fusion_lon": 0.0, "type": "electric_scooter", "name": "6463d7a65caf808c59be1d8f27d06c1c", "rental_uris": {"android": "https://dc.lft.to/lastmile_qr_scan", "ios": "https://dc.lft.to/lastmile_qr_scan"}, "fusion_lat": 0.0, "lat": 38.88033, "is_disabled": 0, "lon": -76.99625966666666, "is_reserved": 0}, {"bike_id": "80a601b13c5fba175619f28a4ba79a56", "fusion_lon": 0.0, "type": "electric_scooter", "name": "80a601b13c5fba175619f28a4ba79a56", "rental_uris": {"android": "https://dc.lft.to/lastmile_qr_scan", "ios": "https://dc.lft.to/lastmile_qr_scan"}, "fusion_lat": 0.0, "lat": 38.89885066666667, "is_disabled": 0, "lon": -76.93162666666667, "is_reserved": 0}, {"bike_id": "fc958e16d5e49e32edec38801c8e141d", "fusion_lon": 0.0, "type": "electric_bike", "name": "fc958e16d5e49e32edec38801c8e141d", "rental_uris": {"android": "https://dc.lft.to/lastmile_qr_scan", "ios": "https://dc.lft.to/lastmile_qr_scan"}, "fusion_lat": 0.0, "lat": 38.86390733333333, "is_disabled": 0, "lon": -76.97452433333333, "is_reserved": 0}, {"bike_id": "29e1a0d58ef3726def1b092a0a93610e", "fusion_lon": 0.0, "type": "electric_scooter", "name": "29e1a0d58ef3726def1b092a0a93610e", "rental_uris": {"android": "https://dc.lft.to/lastmile_qr_scan", "ios": "https://dc.lft.to/lastmile_qr_scan"}, "fusion_lat": 0.0, "lat": 38.896035, "is_disabled": 0, "lon": -76.97826933333333, "is_reserved": 0}, {"bike_id": "97930676e03131b9ff576bd996679def", "fusion_lon": 0.0, "type": "electric_scooter", "name": "97930676e03131b9ff576bd996679def", "rental_uris": {"android": "https://dc.lft.to/lastmile_qr_scan", "ios": "https://dc.lft.to/lastmile_qr_scan"}, "fusion_lat": 0.0, "lat": 38.89219833333333, "is_disabled": 0, "lon": -77.02780516666667, "is_reserved": 0}, {"bike_id": "6e2b8051e7213957aef2ffc01e0b022a", "fusion_lon": 0.0, "type": "electric_scooter", "name": "6e2b8051e7213957aef2ffc01e0b022a", "rental_uris": {"android": "https://dc.lft.to/lastmile_qr_scan", "ios": "https://dc.lft.to/lastmile_qr_scan"}, "fusion_lat": 0.0, "lat": 38.916397, "is_disabled": 0, "lon": -77.03978283333333, "is_reserved": 0}, {"bike_id": "4cd17959184a33f85b90b3b63bb84388", "fusion_lon": 0.0, "type": "electric_scooter", "name": "4cd17959184a33f85b90b3b63bb84388", "rental_uris": {"android": "https://dc.lft.to/lastmile_qr_scan", "ios": "https://dc.lft.to/lastmile_qr_scan"}, "fusion_lat": 0.0, "lat": 38.910600333333335, "is_disabled": 0, "lon": -77.03859683333333, "is_reserved": 0}, {"bike_id": "7d330262c73bba413637ea964526d6d6", "fusion_lon": 0.0, "type": "electric_scooter", "name": "7d330262c73bba413637ea964526d6d6", "rental_uris": {"android": "https://dc.lft.to/lastmile_qr_scan", "ios": "https://dc.lft.to/lastmile_qr_scan"}, "fusion_lat": 0.0, "lat": 38.91404333333333, "is_disabled": 0, "lon": -77.04185466666667, "is_reserved": 0}, {"bike_id": "d9f1e789bc3a185fd43eb829969607c2", "fusion_lon": 0.0, "type": "electric_scooter", "name": "d9f1e789bc3a185fd43eb829969607c2", "rental_uris": {"android": "https://dc.lft.to/lastmile_qr_scan", "ios": "https://dc.lft.to/lastmile_qr_scan"}, "fusion_lat": 0.0, "lat": 38.903559666666666, "is_disabled": 0, "lon": -77.02710583333334, "is_reserved": 0}, {"bike_id": "015532ec0dae214191c1293b4a4be014", "fusion_lon": 0.0, "type": "electric_scooter", "name": "015532ec0dae214191c1293b4a4be014", "rental_uris": {"android": "https://dc.lft.to/lastmile_qr_scan", "ios": "https://dc.lft.to/lastmile_qr_scan"}, "fusion_lat": 0.0, "lat": 38.91681083333334, "is_disabled": 0, "lon": -77.03182183333334, "is_reserved": 0}, {"bike_id": "3ed7fc14f67ea256a780fbc2a3121041", "fusion_lon": 0.0, "type": "electric_scooter", "name": "3ed7fc14f67ea256a780fbc2a3121041", "rental_uris": {"android": "https://dc.lft.to/lastmile_qr_scan", "ios": "https://dc.lft.to/lastmile_qr_scan"}, "fusion_lat": 0.0, "lat": 38.9154375, "is_disabled": 0, "lon": -77.0385525, "is_reserved": 0}, {"bike_id": "e481b8c96fdd3890f12632a6aa6e3e76", "fusion_lon": 0.0, "type": "electric_scooter", "name": "e481b8c96fdd3890f12632a6aa6e3e76", "rental_uris": {"android": "https://dc.lft.to/lastmile_qr_scan", "ios": "https://dc.lft.to/lastmile_qr_scan"}, "fusion_lat": 0.0, "lat": 38.903462166666664, "is_disabled": 0, "lon": -76.988526, "is_reserved": 0}, {"bike_id": "71d1df2a1ae5b750d28c0fb581fffe68", "fusion_lon": 0.0, "type": "electric_scooter", "name": "71d1df2a1ae5b750d28c0fb581fffe68", "rental_uris": {"android": "https://dc.lft.to/lastmile_qr_scan", "ios": "https://dc.lft.to/lastmile_qr_scan"}, "fusion_lat": 0.0, "lat": 38.903484666666664, "is_disabled": 0, "lon": -77.03440983333333, "is_reserved": 0}, {"bike_id": "52a2d6b6808442e6ab36f9388389385b", "fusion_lon": 0.0, "type": "electric_scooter", "name": "52a2d6b6808442e6ab36f9388389385b", "rental_uris": {"android": "https://dc.lft.to/lastmile_qr_scan", "ios": "https://dc.lft.to/lastmile_qr_scan"}, "fusion_lat": 0.0, "lat": 38.912593666666666, "is_disabled": 0, "lon": -77.03272716666666, "is_reserved": 0}, {"bike_id": "8971373dacf51c5837756f523bc1a9f1", "fusion_lon": 0.0, "type": "electric_scooter", "name": "8971373dacf51c5837756f523bc1a9f1", "rental_uris": {"android": "https://dc.lft.to/lastmile_qr_scan", "ios": "https://dc.lft.to/lastmile_qr_scan"}, "fusion_lat": 0.0, "lat": 38.870968833333336, "is_disabled": 0, "lon": -77.01204033333333, "is_reserved": 0}, {"bike_id": "b173a1bc2b3a7ce22022101ad8a563d9", "fusion_lon": 0.0, "type": "electric_scooter", "name": "b173a1bc2b3a7ce22022101ad8a563d9", "rental_uris": {"android": "https://dc.lft.to/lastmile_qr_scan", "ios": "https://dc.lft.to/lastmile_qr_scan"}, "fusion_lat": 0.0, "lat": 38.9218585, "is_disabled": 0, "lon": -77.04111866666666, "is_reserved": 0}, {"bike_id": "ad12c1ac3b815629af42c6725742acb6", "fusion_lon": 0.0, "type": "electric_scooter", "name": "ad12c1ac3b815629af42c6725742acb6", "rental_uris": {"android": "https://dc.lft.to/lastmile_qr_scan", "ios": "https://dc.lft.to/lastmile_qr_scan"}, "fusion_lat": 0.0, "lat": 38.91060133333333, "is_disabled": 0, "lon": -77.0427405, "is_reserved": 0}, {"bike_id": "c467ac50fa4d19e7840011c371e1419b", "fusion_lon": 0.0, "type": "electric_scooter", "name": "c467ac50fa4d19e7840011c371e1419b", "rental_uris": {"android": "https://dc.lft.to/lastmile_qr_scan", "ios": "https://dc.lft.to/lastmile_qr_scan"}, "fusion_lat": 0.0, "lat": 38.973795833333334, "is_disabled": 0, "lon": -77.0312145, "is_reserved": 0}, {"bike_id": "72e9a84838045df57595e7db2b962d2c", "fusion_lon": 0.0, "type": "electric_scooter", "name": "72e9a84838045df57595e7db2b962d2c", "rental_uris": {"android": "https://dc.lft.to/lastmile_qr_scan", "ios": "https://dc.lft.to/lastmile_qr_scan"}, "fusion_lat": 0.0, "lat": 38.8930625, "is_disabled": 0, "lon": -77.04644533333334, "is_reserved": 0}, {"bike_id": "2d610e6e57284ccfdcb0f59212bfe8fd", "fusion_lon": 0.0, "type": "electric_scooter", "name": "2d610e6e57284ccfdcb0f59212bfe8fd", "rental_uris": {"android": "https://dc.lft.to/lastmile_qr_scan", "ios": "https://dc.lft.to/lastmile_qr_scan"}, "fusion_lat": 0.0, "lat": 38.937597833333335, "is_disabled": 0, "lon": -77.03283566666667, "is_reserved": 0}, {"bike_id": "bef1133c08add59586d28fbc1ae29ad3", "fusion_lon": 0.0, "type": "electric_bike", "name": "bef1133c08add59586d28fbc1ae29ad3", "rental_uris": {"android": "https://dc.lft.to/lastmile_qr_scan", "ios": "https://dc.lft.to/lastmile_qr_scan"}, "fusion_lat": 0.0, "lat": 38.96763116666666, "is_disabled": 0, "lon": -77.09165816666666, "is_reserved": 0}, {"bike_id": "d4be525cda1711d31877d10c2388b42c", "fusion_lon": 0.0, "type": "electric_scooter", "name": "d4be525cda1711d31877d10c2388b42c", "rental_uris": {"android": "https://dc.lft.to/lastmile_qr_scan", "ios": "https://dc.lft.to/lastmile_qr_scan"}, "fusion_lat": 0.0, "lat": 38.910383833333334, "is_disabled": 0, "lon": -77.03371033333333, "is_reserved": 0}, {"bike_id": "f7ff559da0ebffe60cfea0f4ea0d8e99", "fusion_lon": 0.0, "type": "electric_bike", "name": "f7ff559da0ebffe60cfea0f4ea0d8e99", "rental_uris": {"android": "https://dc.lft.to/lastmile_qr_scan", "ios": "https://dc.lft.to/lastmile_qr_scan"}, "fusion_lat": 0.0, "lat": 38.956254, "is_disabled": 0, "lon": -77.03623216666666, "is_reserved": 0}, {"bike_id": "329b14347e04a937861bfc7004fde74d", "fusion_lon": 0.0, "type": "electric_scooter", "name": "329b14347e04a937861bfc7004fde74d", "rental_uris": {"android": "https://dc.lft.to/lastmile_qr_scan", "ios": "https://dc.lft.to/lastmile_qr_scan"}, "fusion_lat": 0.0, "lat": 38.90635833333333, "is_disabled": 0, "lon": -77.0347675, "is_reserved": 0}, {"bike_id": "086688fca233ae493de64f89eee927df", "fusion_lon": 0.0, "type": "electric_scooter", "name": "086688fca233ae493de64f89eee927df", "rental_uris": {"android": "https://dc.lft.to/lastmile_qr_scan", "ios": "https://dc.lft.to/lastmile_qr_scan"}, "fusion_lat": 0.0, "lat": 38.85523383333334, "is_disabled": 0, "lon": -76.969231, "is_reserved": 0}, {"bike_id": "7ca9b0d78de94b5549bbe1d3e455ebfd", "fusion_lon": 0.0, "type": "electric_scooter", "name": "7ca9b0d78de94b5549bbe1d3e455ebfd", "rental_uris": {"android": "https://dc.lft.to/lastmile_qr_scan", "ios": "https://dc.lft.to/lastmile_qr_scan"}, "fusion_lat": 0.0, "lat": 38.89214116666667, "is_disabled": 0, "lon": -77.02845866666667, "is_reserved": 0}, {"bike_id": "76b8583ceba03f0570faae05278f4694", "fusion_lon": 0.0, "type": "electric_scooter", "name": "76b8583ceba03f0570faae05278f4694", "rental_uris": {"android": "https://dc.lft.to/lastmile_qr_scan", "ios": "https://dc.lft.to/lastmile_qr_scan"}, "fusion_lat": 0.0, "lat": 38.91644133333333, "is_disabled": 0, "lon": -76.982263, "is_reserved": 0}, {"bike_id": "5394086492501f9d54fab78608269b5e", "fusion_lon": 0.0, "type": "electric_scooter", "name": "5394086492501f9d54fab78608269b5e", "rental_uris": {"android": "https://dc.lft.to/lastmile_qr_scan", "ios": "https://dc.lft.to/lastmile_qr_scan"}, "fusion_lat": 0.0, "lat": 38.86245866666667, "is_disabled": 0, "lon": -76.99493083333333, "is_reserved": 0}, {"bike_id": "0adc86aaffe169f2742fb07b720337e9", "fusion_lon": 0.0, "type": "electric_scooter", "name": "0adc86aaffe169f2742fb07b720337e9", "rental_uris": {"android": "https://dc.lft.to/lastmile_qr_scan", "ios": "https://dc.lft.to/lastmile_qr_scan"}, "fusion_lat": 0.0, "lat": 38.9361355, "is_disabled": 0, "lon": -77.0379395, "is_reserved": 0}, {"bike_id": "f5d693086e0a09439eb9885816eb31d4", "fusion_lon": 0.0, "type": "electric_scooter", "name": "f5d693086e0a09439eb9885816eb31d4", "rental_uris": {"android": "https://dc.lft.to/lastmile_qr_scan", "ios": "https://dc.lft.to/lastmile_qr_scan"}, "fusion_lat": 0.0, "lat": 38.92236583333333, "is_disabled": 0, "lon": -77.03521416666666, "is_reserved": 0}, {"bike_id": "ce0c8b30818d3b6fe3e565efdaef6f87", "fusion_lon": 0.0, "type": "electric_bike", "name": "ce0c8b30818d3b6fe3e565efdaef6f87", "rental_uris": {"android": "https://dc.lft.to/lastmile_qr_scan", "ios": "https://dc.lft.to/lastmile_qr_scan"}, "fusion_lat": 0.0, "lat": 38.919349, "is_disabled": 0, "lon": -76.97502366666667, "is_reserved": 0}, {"bike_id": "0e66cdc4cd419276ce3df1eef7635a4a", "fusion_lon": 0.0, "type": "electric_scooter", "name": "0e66cdc4cd419276ce3df1eef7635a4a", "rental_uris": {"android": "https://dc.lft.to/lastmile_qr_scan", "ios": "https://dc.lft.to/lastmile_qr_scan"}, "fusion_lat": 0.0, "lat": 38.91916116666667, "is_disabled": 0, "lon": -77.0460345, "is_reserved": 0}, {"bike_id": "ee0d18e0efdb9360c8e139820e5b0f98", "fusion_lon": 0.0, "type": "electric_scooter", "name": "ee0d18e0efdb9360c8e139820e5b0f98", "rental_uris": {"android": "https://dc.lft.to/lastmile_qr_scan", "ios": "https://dc.lft.to/lastmile_qr_scan"}, "fusion_lat": 0.0, "lat": 38.9155325, "is_disabled": 0, "lon": -77.03841983333334, "is_reserved": 0}, {"bike_id": "04b969fb937f845d125995f0e145e797", "fusion_lon": 0.0, "type": "electric_scooter", "name": "04b969fb937f845d125995f0e145e797", "rental_uris": {"android": "https://dc.lft.to/lastmile_qr_scan", "ios": "https://dc.lft.to/lastmile_qr_scan"}, "fusion_lat": 0.0, "lat": 38.90437683333333, "is_disabled": 0, "lon": -76.97563083333333, "is_reserved": 0}, {"bike_id": "34c606d8a1976e740c7de85e02185371", "fusion_lon": 0.0, "type": "electric_scooter", "name": "34c606d8a1976e740c7de85e02185371", "rental_uris": {"android": "https://dc.lft.to/lastmile_qr_scan", "ios": "https://dc.lft.to/lastmile_qr_scan"}, "fusion_lat": 0.0, "lat": 38.900346166666665, "is_disabled": 0, "lon": -76.9878125, "is_reserved": 0}, {"bike_id": "7cb16689173e36c1f5f5d17ba6bc1e95", "fusion_lon": 0.0, "type": "electric_scooter", "name": "7cb16689173e36c1f5f5d17ba6bc1e95", "rental_uris": {"android": "https://dc.lft.to/lastmile_qr_scan", "ios": "https://dc.lft.to/lastmile_qr_scan"}, "fusion_lat": 0.0, "lat": 38.860867166666665, "is_disabled": 0, "lon": -76.98609783333333, "is_reserved": 0}, {"bike_id": "caef35040804bc2dab811666abebf1aa", "fusion_lon": 0.0, "type": "electric_scooter", "name": "caef35040804bc2dab811666abebf1aa", "rental_uris": {"android": "https://dc.lft.to/lastmile_qr_scan", "ios": "https://dc.lft.to/lastmile_qr_scan"}, "fusion_lat": 0.0, "lat": 38.90009233333333, "is_disabled": 0, "lon": -77.00159633333334, "is_reserved": 0}, {"bike_id": "4413c6135b23a56ed0e3c4737d0921e3", "fusion_lon": 0.0, "type": "electric_scooter", "name": "4413c6135b23a56ed0e3c4737d0921e3", "rental_uris": {"android": "https://dc.lft.to/lastmile_qr_scan", "ios": "https://dc.lft.to/lastmile_qr_scan"}, "fusion_lat": 0.0, "lat": 38.8850455, "is_disabled": 0, "lon": -77.00616133333334, "is_reserved": 0}, {"bike_id": "fcc94ee6b3d33000400522259e828796", "fusion_lon": 0.0, "type": "electric_bike", "name": "fcc94ee6b3d33000400522259e828796", "rental_uris": {"android": "https://dc.lft.to/lastmile_qr_scan", "ios": "https://dc.lft.to/lastmile_qr_scan"}, "fusion_lat": 0.0, "lat": 38.81231966666667, "is_disabled": 0, "lon": -77.11243966666666, "is_reserved": 0}, {"bike_id": "780b7d8fdb09429901bf212f5c1aa7de", "fusion_lon": 0.0, "type": "electric_scooter", "name": "780b7d8fdb09429901bf212f5c1aa7de", "rental_uris": {"android": "https://dc.lft.to/lastmile_qr_scan", "ios": "https://dc.lft.to/lastmile_qr_scan"}, "fusion_lat": 0.0, "lat": 38.91819266666667, "is_disabled": 0, "lon": -77.04015716666666, "is_reserved": 0}, {"bike_id": "7c27330ed67d6ef22570c7d0fec87295", "fusion_lon": 0.0, "type": "electric_bike", "name": "7c27330ed67d6ef22570c7d0fec87295", "rental_uris": {"android": "https://dc.lft.to/lastmile_qr_scan", "ios": "https://dc.lft.to/lastmile_qr_scan"}, "fusion_lat": 0.0, "lat": 38.966068166666666, "is_disabled": 0, "lon": -76.98331933333333, "is_reserved": 0}, {"bike_id": "bad818e9d7f4ead5d75317d0486782cb", "fusion_lon": 0.0, "type": "electric_scooter", "name": "bad818e9d7f4ead5d75317d0486782cb", "rental_uris": {"android": "https://dc.lft.to/lastmile_qr_scan", "ios": "https://dc.lft.to/lastmile_qr_scan"}, "fusion_lat": 0.0, "lat": 38.936856666666664, "is_disabled": 0, "lon": -77.0328465, "is_reserved": 0}, {"bike_id": "dcccdcf9a20bde0ffb265ceb97a13cc7", "fusion_lon": 0.0, "type": "electric_scooter", "name": "dcccdcf9a20bde0ffb265ceb97a13cc7", "rental_uris": {"android": "https://dc.lft.to/lastmile_qr_scan", "ios": "https://dc.lft.to/lastmile_qr_scan"}, "fusion_lat": 0.0, "lat": 38.904732333333335, "is_disabled": 0, "lon": -76.99615416666667, "is_reserved": 0}, {"bike_id": "6134553f555364d80a426ff95511df65", "fusion_lon": 0.0, "type": "electric_bike", "name": "6134553f555364d80a426ff95511df65", "rental_uris": {"android": "https://dc.lft.to/lastmile_qr_scan", "ios": "https://dc.lft.to/lastmile_qr_scan"}, "fusion_lat": 0.0, "lat": 38.918033333333334, "is_disabled": 0, "lon": -77.10182716666667, "is_reserved": 0}, {"bike_id": "ee8b80b1cd09addb15eeac29ffd64158", "fusion_lon": 0.0, "type": "electric_scooter", "name": "ee8b80b1cd09addb15eeac29ffd64158", "rental_uris": {"android": "https://dc.lft.to/lastmile_qr_scan", "ios": "https://dc.lft.to/lastmile_qr_scan"}, "fusion_lat": 0.0, "lat": 38.898307, "is_disabled": 0, "lon": -77.033341, "is_reserved": 0}, {"bike_id": "976e4006afab4a6c7a922a50bff42279", "fusion_lon": 0.0, "type": "electric_bike", "name": "976e4006afab4a6c7a922a50bff42279", "rental_uris": {"android": "https://dc.lft.to/lastmile_qr_scan", "ios": "https://dc.lft.to/lastmile_qr_scan"}, "fusion_lat": 0.0, "lat": 38.896679166666665, "is_disabled": 0, "lon": -76.98123766666667, "is_reserved": 0}, {"bike_id": "6c4b80db46b1df2c9383d7034cda52d3", "fusion_lon": 0.0, "type": "electric_scooter", "name": "6c4b80db46b1df2c9383d7034cda52d3", "rental_uris": {"android": "https://dc.lft.to/lastmile_qr_scan", "ios": "https://dc.lft.to/lastmile_qr_scan"}, "fusion_lat": 0.0, "lat": 38.88718266666667, "is_disabled": 0, "lon": -77.0220405, "is_reserved": 0}, {"bike_id": "909596a88a89ee5f8154e510d1faf338", "fusion_lon": 0.0, "type": "electric_bike", "name": "909596a88a89ee5f8154e510d1faf338", "rental_uris": {"android": "https://dc.lft.to/lastmile_qr_scan", "ios": "https://dc.lft.to/lastmile_qr_scan"}, "fusion_lat": 0.0, "lat": 38.89226933333333, "is_disabled": 0, "lon": -77.10766166666667, "is_reserved": 0}, {"bike_id": "1654b8240b057b1c9df427a8a7a914b8", "fusion_lon": 0.0, "type": "electric_bike", "name": "1654b8240b057b1c9df427a8a7a914b8", "rental_uris": {"android": "https://dc.lft.to/lastmile_qr_scan", "ios": "https://dc.lft.to/lastmile_qr_scan"}, "fusion_lat": 0.0, "lat": 38.86858766666667, "is_disabled": 0, "lon": -76.91657183333334, "is_reserved": 0}, {"bike_id": "e791754994f56dd9bb071be95bf87333", "fusion_lon": 0.0, "type": "electric_scooter", "name": "e791754994f56dd9bb071be95bf87333", "rental_uris": {"android": "https://dc.lft.to/lastmile_qr_scan", "ios": "https://dc.lft.to/lastmile_qr_scan"}, "fusion_lat": 0.0, "lat": 38.90433316666667, "is_disabled": 0, "lon": -77.03138616666666, "is_reserved": 0}, {"bike_id": "704d2df3430b00d0b1e9fa7ad997e261", "fusion_lon": 0.0, "type": "electric_scooter", "name": "704d2df3430b00d0b1e9fa7ad997e261", "rental_uris": {"android": "https://dc.lft.to/lastmile_qr_scan", "ios": "https://dc.lft.to/lastmile_qr_scan"}, "fusion_lat": 0.0, "lat": 38.9039355, "is_disabled": 0, "lon": -77.04384783333333, "is_reserved": 0}, {"bike_id": "3cd16af3cdf1fbccc3f2fa77e846abc3", "fusion_lon": 0.0, "type": "electric_bike", "name": "3cd16af3cdf1fbccc3f2fa77e846abc3", "rental_uris": {"android": "https://dc.lft.to/lastmile_qr_scan", "ios": "https://dc.lft.to/lastmile_qr_scan"}, "fusion_lat": 0.0, "lat": 38.92503116666666, "is_disabled": 0, "lon": -77.05752316666667, "is_reserved": 0}, {"bike_id": "b16d7f586d069a4bb07f30c1348d7570", "fusion_lon": 0.0, "type": "electric_scooter", "name": "b16d7f586d069a4bb07f30c1348d7570", "rental_uris": {"android": "https://dc.lft.to/lastmile_qr_scan", "ios": "https://dc.lft.to/lastmile_qr_scan"}, "fusion_lat": 0.0, "lat": 38.917555666666665, "is_disabled": 0, "lon": -77.03910816666667, "is_reserved": 0}, {"bike_id": "e8e113242ee00596b079d5eb4daca642", "fusion_lon": 0.0, "type": "electric_scooter", "name": "e8e113242ee00596b079d5eb4daca642", "rental_uris": {"android": "https://dc.lft.to/lastmile_qr_scan", "ios": "https://dc.lft.to/lastmile_qr_scan"}, "fusion_lat": 0.0, "lat": 38.90285433333333, "is_disabled": 0, "lon": -77.03435116666667, "is_reserved": 0}, {"bike_id": "2ca178733acc39264efa364e3c2a56fe", "fusion_lon": 0.0, "type": "electric_scooter", "name": "2ca178733acc39264efa364e3c2a56fe", "rental_uris": {"android": "https://dc.lft.to/lastmile_qr_scan", "ios": "https://dc.lft.to/lastmile_qr_scan"}, "fusion_lat": 0.0, "lat": 38.909453, "is_disabled": 0, "lon": -77.018898, "is_reserved": 0}, {"bike_id": "9155cea9ad84d6e3d699fcf7b35738cc", "fusion_lon": 0.0, "type": "electric_scooter", "name": "9155cea9ad84d6e3d699fcf7b35738cc", "rental_uris": {"android": "https://dc.lft.to/lastmile_qr_scan", "ios": "https://dc.lft.to/lastmile_qr_scan"}, "fusion_lat": 0.0, "lat": 38.93879833333333, "is_disabled": 0, "lon": -77.02480516666667, "is_reserved": 0}, {"bike_id": "b6e0b3c8e575f3dcc11fc3e6997c6908", "fusion_lon": 0.0, "type": "electric_scooter", "name": "b6e0b3c8e575f3dcc11fc3e6997c6908", "rental_uris": {"android": "https://dc.lft.to/lastmile_qr_scan", "ios": "https://dc.lft.to/lastmile_qr_scan"}, "fusion_lat": 0.0, "lat": 38.94313616666667, "is_disabled": 0, "lon": -77.01540816666666, "is_reserved": 0}, {"bike_id": "a947798f238b4efe31b3617d14f2b88c", "fusion_lon": 0.0, "type": "electric_scooter", "name": "a947798f238b4efe31b3617d14f2b88c", "rental_uris": {"android": "https://dc.lft.to/lastmile_qr_scan", "ios": "https://dc.lft.to/lastmile_qr_scan"}, "fusion_lat": 0.0, "lat": 38.903636, "is_disabled": 0, "lon": -77.00054583333333, "is_reserved": 0}, {"bike_id": "56956a01340411908f18d3b89f4559ea", "fusion_lon": 0.0, "type": "electric_scooter", "name": "56956a01340411908f18d3b89f4559ea", "rental_uris": {"android": "https://dc.lft.to/lastmile_qr_scan", "ios": "https://dc.lft.to/lastmile_qr_scan"}, "fusion_lat": 0.0, "lat": 38.84622983333333, "is_disabled": 0, "lon": -76.996332, "is_reserved": 0}, {"bike_id": "0a8371bad8f8a73d3b8a8a4b7754929c", "fusion_lon": 0.0, "type": "electric_scooter", "name": "0a8371bad8f8a73d3b8a8a4b7754929c", "rental_uris": {"android": "https://dc.lft.to/lastmile_qr_scan", "ios": "https://dc.lft.to/lastmile_qr_scan"}, "fusion_lat": 0.0, "lat": 38.8848235, "is_disabled": 0, "lon": -76.94924116666667, "is_reserved": 0}, {"bike_id": "b073304b62be7c4879bcb9e243a3e3c9", "fusion_lon": 0.0, "type": "electric_scooter", "name": "b073304b62be7c4879bcb9e243a3e3c9", "rental_uris": {"android": "https://dc.lft.to/lastmile_qr_scan", "ios": "https://dc.lft.to/lastmile_qr_scan"}, "fusion_lat": 0.0, "lat": 38.8941005, "is_disabled": 0, "lon": -77.02157516666666, "is_reserved": 0}, {"bike_id": "4752458631ede35f80db8fe691436507", "fusion_lon": 0.0, "type": "electric_scooter", "name": "4752458631ede35f80db8fe691436507", "rental_uris": {"android": "https://dc.lft.to/lastmile_qr_scan", "ios": "https://dc.lft.to/lastmile_qr_scan"}, "fusion_lat": 0.0, "lat": 38.89523783333333, "is_disabled": 0, "lon": -76.94895700000001, "is_reserved": 0}, {"bike_id": "bcccc644ee767036275e5b28e726b267", "fusion_lon": 0.0, "type": "electric_scooter", "name": "bcccc644ee767036275e5b28e726b267", "rental_uris": {"android": "https://dc.lft.to/lastmile_qr_scan", "ios": "https://dc.lft.to/lastmile_qr_scan"}, "fusion_lat": 0.0, "lat": 38.861216166666665, "is_disabled": 0, "lon": -76.9901475, "is_reserved": 0}, {"bike_id": "7b7355ac64b7f1152514b9a022ea6356", "fusion_lon": 0.0, "type": "electric_bike", "name": "7b7355ac64b7f1152514b9a022ea6356", "rental_uris": {"android": "https://dc.lft.to/lastmile_qr_scan", "ios": "https://dc.lft.to/lastmile_qr_scan"}, "fusion_lat": 0.0, "lat": 38.89330966666667, "is_disabled": 0, "lon": -77.124038, "is_reserved": 0}, {"bike_id": "397e193a44d5108e6d4487cbd1ff5a6d", "fusion_lon": 0.0, "type": "electric_scooter", "name": "397e193a44d5108e6d4487cbd1ff5a6d", "rental_uris": {"android": "https://dc.lft.to/lastmile_qr_scan", "ios": "https://dc.lft.to/lastmile_qr_scan"}, "fusion_lat": 0.0, "lat": 38.89217716666667, "is_disabled": 0, "lon": -77.03973366666666, "is_reserved": 0}, {"bike_id": "ab52a7016750f239c60f11369a6a0fd6", "fusion_lon": 0.0, "type": "electric_scooter", "name": "ab52a7016750f239c60f11369a6a0fd6", "rental_uris": {"android": "https://dc.lft.to/lastmile_qr_scan", "ios": "https://dc.lft.to/lastmile_qr_scan"}, "fusion_lat": 0.0, "lat": 38.917219833333334, "is_disabled": 0, "lon": -77.04106933333334, "is_reserved": 0}, {"bike_id": "0af127e8fb7bb6977ac9b438510b7340", "fusion_lon": 0.0, "type": "electric_scooter", "name": "0af127e8fb7bb6977ac9b438510b7340", "rental_uris": {"android": "https://dc.lft.to/lastmile_qr_scan", "ios": "https://dc.lft.to/lastmile_qr_scan"}, "fusion_lat": 0.0, "lat": 38.880204166666665, "is_disabled": 0, "lon": -76.98068733333334, "is_reserved": 0}, {"bike_id": "22442702183e52c56f88bd49a5b67fa7", "fusion_lon": 0.0, "type": "electric_scooter", "name": "22442702183e52c56f88bd49a5b67fa7", "rental_uris": {"android": "https://dc.lft.to/lastmile_qr_scan", "ios": "https://dc.lft.to/lastmile_qr_scan"}, "fusion_lat": 0.0, "lat": 38.902673166666666, "is_disabled": 0, "lon": -77.06109383333333, "is_reserved": 0}, {"bike_id": "b3399060d94cbc5eede73f0a55de4b36", "fusion_lon": 0.0, "type": "electric_scooter", "name": "b3399060d94cbc5eede73f0a55de4b36", "rental_uris": {"android": "https://dc.lft.to/lastmile_qr_scan", "ios": "https://dc.lft.to/lastmile_qr_scan"}, "fusion_lat": 0.0, "lat": 38.88764583333333, "is_disabled": 0, "lon": -76.9271565, "is_reserved": 0}, {"bike_id": "c72eff79d5e9de919969a899a2bad692", "fusion_lon": 0.0, "type": "electric_scooter", "name": "c72eff79d5e9de919969a899a2bad692", "rental_uris": {"android": "https://dc.lft.to/lastmile_qr_scan", "ios": "https://dc.lft.to/lastmile_qr_scan"}, "fusion_lat": 0.0, "lat": 38.928669166666666, "is_disabled": 0, "lon": -77.05442366666666, "is_reserved": 0}, {"bike_id": "80dc4785f976068b03fd1c9021090c56", "fusion_lon": 0.0, "type": "electric_scooter", "name": "80dc4785f976068b03fd1c9021090c56", "rental_uris": {"android": "https://dc.lft.to/lastmile_qr_scan", "ios": "https://dc.lft.to/lastmile_qr_scan"}, "fusion_lat": 0.0, "lat": 38.93707966666667, "is_disabled": 0, "lon": -77.055995, "is_reserved": 0}, {"bike_id": "72d9b1a6a544899f4316325a82a60b10", "fusion_lon": 0.0, "type": "electric_scooter", "name": "72d9b1a6a544899f4316325a82a60b10", "rental_uris": {"android": "https://dc.lft.to/lastmile_qr_scan", "ios": "https://dc.lft.to/lastmile_qr_scan"}, "fusion_lat": 0.0, "lat": 38.920986, "is_disabled": 0, "lon": -77.0259105, "is_reserved": 0}, {"bike_id": "a0452e89f5081395518d2fe8e4e4d84d", "fusion_lon": 0.0, "type": "electric_scooter", "name": "a0452e89f5081395518d2fe8e4e4d84d", "rental_uris": {"android": "https://dc.lft.to/lastmile_qr_scan", "ios": "https://dc.lft.to/lastmile_qr_scan"}, "fusion_lat": 0.0, "lat": 38.911548333333336, "is_disabled": 0, "lon": -77.02382866666666, "is_reserved": 0}, {"bike_id": "236d34be74f0f9a0ed0de953f23dfa5b", "fusion_lon": 0.0, "type": "electric_scooter", "name": "236d34be74f0f9a0ed0de953f23dfa5b", "rental_uris": {"android": "https://dc.lft.to/lastmile_qr_scan", "ios": "https://dc.lft.to/lastmile_qr_scan"}, "fusion_lat": 0.0, "lat": 38.8875825, "is_disabled": 0, "lon": -77.033567, "is_reserved": 0}, {"bike_id": "b70bde3be5ca45d2bf00ff6449520d45", "fusion_lon": 0.0, "type": "electric_scooter", "name": "b70bde3be5ca45d2bf00ff6449520d45", "rental_uris": {"android": "https://dc.lft.to/lastmile_qr_scan", "ios": "https://dc.lft.to/lastmile_qr_scan"}, "fusion_lat": 0.0, "lat": 38.9265305, "is_disabled": 0, "lon": -77.02474566666666, "is_reserved": 0}, {"bike_id": "957c7065e0875ca94a7dad75e66b681e", "fusion_lon": 0.0, "type": "electric_scooter", "name": "957c7065e0875ca94a7dad75e66b681e", "rental_uris": {"android": "https://dc.lft.to/lastmile_qr_scan", "ios": "https://dc.lft.to/lastmile_qr_scan"}, "fusion_lat": 0.0, "lat": 38.89523466666667, "is_disabled": 0, "lon": -76.94899283333334, "is_reserved": 0}, {"bike_id": "94a811ae52f1f0e59a038fe96906f335", "fusion_lon": 0.0, "type": "electric_scooter", "name": "94a811ae52f1f0e59a038fe96906f335", "rental_uris": {"android": "https://dc.lft.to/lastmile_qr_scan", "ios": "https://dc.lft.to/lastmile_qr_scan"}, "fusion_lat": 0.0, "lat": 38.915989, "is_disabled": 0, "lon": -77.02696366666666, "is_reserved": 0}, {"bike_id": "96bae17aa8cbb7eb2954e80bd3e17e5f", "fusion_lon": 0.0, "type": "electric_scooter", "name": "96bae17aa8cbb7eb2954e80bd3e17e5f", "rental_uris": {"android": "https://dc.lft.to/lastmile_qr_scan", "ios": "https://dc.lft.to/lastmile_qr_scan"}, "fusion_lat": 0.0, "lat": 38.903240333333336, "is_disabled": 0, "lon": -77.04323416666666, "is_reserved": 0}, {"bike_id": "add1def661a6e78f4846e16ba6736a6c", "fusion_lon": 0.0, "type": "electric_scooter", "name": "add1def661a6e78f4846e16ba6736a6c", "rental_uris": {"android": "https://dc.lft.to/lastmile_qr_scan", "ios": "https://dc.lft.to/lastmile_qr_scan"}, "fusion_lat": 0.0, "lat": 38.90656716666667, "is_disabled": 0, "lon": -77.02499083333333, "is_reserved": 0}, {"bike_id": "b697b49720af94fb5710bea0d399c198", "fusion_lon": 0.0, "type": "electric_scooter", "name": "b697b49720af94fb5710bea0d399c198", "rental_uris": {"android": "https://dc.lft.to/lastmile_qr_scan", "ios": "https://dc.lft.to/lastmile_qr_scan"}, "fusion_lat": 0.0, "lat": 38.89870366666667, "is_disabled": 0, "lon": -76.94667283333334, "is_reserved": 0}, {"bike_id": "2c708a27f5d97af3b4739f947c38f57a", "fusion_lon": 0.0, "type": "electric_scooter", "name": "2c708a27f5d97af3b4739f947c38f57a", "rental_uris": {"android": "https://dc.lft.to/lastmile_qr_scan", "ios": "https://dc.lft.to/lastmile_qr_scan"}, "fusion_lat": 0.0, "lat": 38.9143235, "is_disabled": 0, "lon": -77.00207133333333, "is_reserved": 0}, {"bike_id": "699564c72a8f52bdf6cc1edc17a5cd2b", "fusion_lon": 0.0, "type": "electric_scooter", "name": "699564c72a8f52bdf6cc1edc17a5cd2b", "rental_uris": {"android": "https://dc.lft.to/lastmile_qr_scan", "ios": "https://dc.lft.to/lastmile_qr_scan"}, "fusion_lat": 0.0, "lat": 38.90825783333333, "is_disabled": 0, "lon": -77.03940633333333, "is_reserved": 0}, {"bike_id": "a256f4cf52b50029afe5cfa4d91f411f", "fusion_lon": 0.0, "type": "electric_scooter", "name": "a256f4cf52b50029afe5cfa4d91f411f", "rental_uris": {"android": "https://dc.lft.to/lastmile_qr_scan", "ios": "https://dc.lft.to/lastmile_qr_scan"}, "fusion_lat": 0.0, "lat": 38.896143, "is_disabled": 0, "lon": -77.01163366666667, "is_reserved": 0}, {"bike_id": "a32480ce5771e91527b122be4fdfdc88", "fusion_lon": 0.0, "type": "electric_scooter", "name": "a32480ce5771e91527b122be4fdfdc88", "rental_uris": {"android": "https://dc.lft.to/lastmile_qr_scan", "ios": "https://dc.lft.to/lastmile_qr_scan"}, "fusion_lat": 0.0, "lat": 38.92131083333334, "is_disabled": 0, "lon": -77.04689516666667, "is_reserved": 0}, {"bike_id": "4f8738a33c7a553a34b31917458be3c8", "fusion_lon": 0.0, "type": "electric_scooter", "name": "4f8738a33c7a553a34b31917458be3c8", "rental_uris": {"android": "https://dc.lft.to/lastmile_qr_scan", "ios": "https://dc.lft.to/lastmile_qr_scan"}, "fusion_lat": 0.0, "lat": 38.91259083333333, "is_disabled": 0, "lon": -77.0474085, "is_reserved": 0}, {"bike_id": "8a4e82e16ff042e8a971f0c42a838fcd", "fusion_lon": 0.0, "type": "electric_scooter", "name": "8a4e82e16ff042e8a971f0c42a838fcd", "rental_uris": {"android": "https://dc.lft.to/lastmile_qr_scan", "ios": "https://dc.lft.to/lastmile_qr_scan"}, "fusion_lat": 0.0, "lat": 38.911686333333336, "is_disabled": 0, "lon": -77.03204433333333, "is_reserved": 0}, {"bike_id": "eae4cf004e9cc8b46493161e08959833", "fusion_lon": 0.0, "type": "electric_scooter", "name": "eae4cf004e9cc8b46493161e08959833", "rental_uris": {"android": "https://dc.lft.to/lastmile_qr_scan", "ios": "https://dc.lft.to/lastmile_qr_scan"}, "fusion_lat": 0.0, "lat": 38.955645833333335, "is_disabled": 0, "lon": -77.00636216666666, "is_reserved": 0}, {"bike_id": "1e43765516f8b74f62e01411d4b56d5e", "fusion_lon": 0.0, "type": "electric_scooter", "name": "1e43765516f8b74f62e01411d4b56d5e", "rental_uris": {"android": "https://dc.lft.to/lastmile_qr_scan", "ios": "https://dc.lft.to/lastmile_qr_scan"}, "fusion_lat": 0.0, "lat": 38.941337, "is_disabled": 0, "lon": -77.0920185, "is_reserved": 0}, {"bike_id": "2c52098fc5f2e394bc0a4a051e98be31", "fusion_lon": 0.0, "type": "electric_bike", "name": "2c52098fc5f2e394bc0a4a051e98be31", "rental_uris": {"android": "https://dc.lft.to/lastmile_qr_scan", "ios": "https://dc.lft.to/lastmile_qr_scan"}, "fusion_lat": 0.0, "lat": 38.865943666666666, "is_disabled": 0, "lon": -76.93236216666666, "is_reserved": 0}, {"bike_id": "d0346865fa4b464fc477933ea3ec52f3", "fusion_lon": 0.0, "type": "electric_scooter", "name": "d0346865fa4b464fc477933ea3ec52f3", "rental_uris": {"android": "https://dc.lft.to/lastmile_qr_scan", "ios": "https://dc.lft.to/lastmile_qr_scan"}, "fusion_lat": 0.0, "lat": 38.92795683333333, "is_disabled": 0, "lon": -77.0272625, "is_reserved": 0}, {"bike_id": "7b82ac2719b859cebcca00451716589e", "fusion_lon": 0.0, "type": "electric_scooter", "name": "7b82ac2719b859cebcca00451716589e", "rental_uris": {"android": "https://dc.lft.to/lastmile_qr_scan", "ios": "https://dc.lft.to/lastmile_qr_scan"}, "fusion_lat": 0.0, "lat": 38.9175285, "is_disabled": 0, "lon": -77.0248545, "is_reserved": 0}, {"bike_id": "ac33fe17648e5054e5763fe7cb81434b", "fusion_lon": 0.0, "type": "electric_scooter", "name": "ac33fe17648e5054e5763fe7cb81434b", "rental_uris": {"android": "https://dc.lft.to/lastmile_qr_scan", "ios": "https://dc.lft.to/lastmile_qr_scan"}, "fusion_lat": 0.0, "lat": 38.9050765, "is_disabled": 0, "lon": -77.0406815, "is_reserved": 0}, {"bike_id": "c3b46cecd14cec6955c5a0db34acb9bb", "fusion_lon": 0.0, "type": "electric_scooter", "name": "c3b46cecd14cec6955c5a0db34acb9bb", "rental_uris": {"android": "https://dc.lft.to/lastmile_qr_scan", "ios": "https://dc.lft.to/lastmile_qr_scan"}, "fusion_lat": 0.0, "lat": 38.90387283333333, "is_disabled": 0, "lon": -77.016467, "is_reserved": 0}, {"bike_id": "cffaf51add8c55ff5a61479088b543fe", "fusion_lon": 0.0, "type": "electric_scooter", "name": "cffaf51add8c55ff5a61479088b543fe", "rental_uris": {"android": "https://dc.lft.to/lastmile_qr_scan", "ios": "https://dc.lft.to/lastmile_qr_scan"}, "fusion_lat": 0.0, "lat": 38.90174833333333, "is_disabled": 0, "lon": -77.02218133333334, "is_reserved": 0}, {"bike_id": "65d78e46303e4bf19f93c1f9514df983", "fusion_lon": 0.0, "type": "electric_scooter", "name": "65d78e46303e4bf19f93c1f9514df983", "rental_uris": {"android": "https://dc.lft.to/lastmile_qr_scan", "ios": "https://dc.lft.to/lastmile_qr_scan"}, "fusion_lat": 0.0, "lat": 38.894799, "is_disabled": 0, "lon": -76.99519, "is_reserved": 0}, {"bike_id": "16ac1386a4aebb86cedd565b1863953c", "fusion_lon": 0.0, "type": "electric_bike", "name": "16ac1386a4aebb86cedd565b1863953c", "rental_uris": {"android": "https://dc.lft.to/lastmile_qr_scan", "ios": "https://dc.lft.to/lastmile_qr_scan"}, "fusion_lat": 0.0, "lat": 38.852189833333334, "is_disabled": 0, "lon": -77.129659, "is_reserved": 0}, {"bike_id": "fecbd0b920ebebf25faa12cf0e6de920", "fusion_lon": 0.0, "type": "electric_scooter", "name": "fecbd0b920ebebf25faa12cf0e6de920", "rental_uris": {"android": "https://dc.lft.to/lastmile_qr_scan", "ios": "https://dc.lft.to/lastmile_qr_scan"}, "fusion_lat": 0.0, "lat": 38.91329966666667, "is_disabled": 0, "lon": -77.04533983333333, "is_reserved": 0}, {"bike_id": "edaea30db1907d2b9dec7157da3f96a2", "fusion_lon": 0.0, "type": "electric_scooter", "name": "edaea30db1907d2b9dec7157da3f96a2", "rental_uris": {"android": "https://dc.lft.to/lastmile_qr_scan", "ios": "https://dc.lft.to/lastmile_qr_scan"}, "fusion_lat": 0.0, "lat": 38.9056035, "is_disabled": 0, "lon": -77.005808, "is_reserved": 0}, {"bike_id": "a673987a8be292d6eb248d9b9731a38d", "fusion_lon": 0.0, "type": "electric_bike", "name": "a673987a8be292d6eb248d9b9731a38d", "rental_uris": {"android": "https://dc.lft.to/lastmile_qr_scan", "ios": "https://dc.lft.to/lastmile_qr_scan"}, "fusion_lat": 0.0, "lat": 38.875311333333336, "is_disabled": 0, "lon": -77.19912483333333, "is_reserved": 0}, {"bike_id": "79cd381eb2a751b6a8829f4864837e80", "fusion_lon": 0.0, "type": "electric_scooter", "name": "79cd381eb2a751b6a8829f4864837e80", "rental_uris": {"android": "https://dc.lft.to/lastmile_qr_scan", "ios": "https://dc.lft.to/lastmile_qr_scan"}, "fusion_lat": 0.0, "lat": 38.94792483333333, "is_disabled": 0, "lon": -77.03634733333334, "is_reserved": 0}, {"bike_id": "c82ea595b20c463678f50bcf6a26a103", "fusion_lon": 0.0, "type": "electric_scooter", "name": "c82ea595b20c463678f50bcf6a26a103", "rental_uris": {"android": "https://dc.lft.to/lastmile_qr_scan", "ios": "https://dc.lft.to/lastmile_qr_scan"}, "fusion_lat": 0.0, "lat": 38.9066785, "is_disabled": 0, "lon": -77.0748235, "is_reserved": 0}, {"bike_id": "76b068b47fa1b83cedcf6ccfebc441d3", "fusion_lon": 0.0, "type": "electric_scooter", "name": "76b068b47fa1b83cedcf6ccfebc441d3", "rental_uris": {"android": "https://dc.lft.to/lastmile_qr_scan", "ios": "https://dc.lft.to/lastmile_qr_scan"}, "fusion_lat": 0.0, "lat": 38.917339, "is_disabled": 0, "lon": -77.04173066666667, "is_reserved": 0}, {"bike_id": "0f73def53cbb2d42fba62108a880ef2a", "fusion_lon": 0.0, "type": "electric_bike", "name": "0f73def53cbb2d42fba62108a880ef2a", "rental_uris": {"android": "https://dc.lft.to/lastmile_qr_scan", "ios": "https://dc.lft.to/lastmile_qr_scan"}, "fusion_lat": 0.0, "lat": 38.841339166666664, "is_disabled": 0, "lon": -77.0902475, "is_reserved": 0}, {"bike_id": "973c40e27e7cd0628b0096feef3a1758", "fusion_lon": 0.0, "type": "electric_scooter", "name": "973c40e27e7cd0628b0096feef3a1758", "rental_uris": {"android": "https://dc.lft.to/lastmile_qr_scan", "ios": "https://dc.lft.to/lastmile_qr_scan"}, "fusion_lat": 0.0, "lat": 38.905228, "is_disabled": 0, "lon": -77.06661466666667, "is_reserved": 0}, {"bike_id": "1c430da331267c72cacdfec1b193cd22", "fusion_lon": 0.0, "type": "electric_scooter", "name": "1c430da331267c72cacdfec1b193cd22", "rental_uris": {"android": "https://dc.lft.to/lastmile_qr_scan", "ios": "https://dc.lft.to/lastmile_qr_scan"}, "fusion_lat": 0.0, "lat": 38.881335166666666, "is_disabled": 0, "lon": -77.02712233333334, "is_reserved": 0}, {"bike_id": "84d4bcb6e81026adb23acba6ae06b86c", "fusion_lon": 0.0, "type": "electric_scooter", "name": "84d4bcb6e81026adb23acba6ae06b86c", "rental_uris": {"android": "https://dc.lft.to/lastmile_qr_scan", "ios": "https://dc.lft.to/lastmile_qr_scan"}, "fusion_lat": 0.0, "lat": 38.891456166666664, "is_disabled": 0, "lon": -77.00350866666666, "is_reserved": 0}, {"bike_id": "dcb050c2cd7474be56b5d4fcfe3877e8", "fusion_lon": 0.0, "type": "electric_bike", "name": "dcb050c2cd7474be56b5d4fcfe3877e8", "rental_uris": {"android": "https://dc.lft.to/lastmile_qr_scan", "ios": "https://dc.lft.to/lastmile_qr_scan"}, "fusion_lat": 0.0, "lat": 39.09460716666667, "is_disabled": 0, "lon": -77.14989683333333, "is_reserved": 0}, {"bike_id": "7b5d59febce899559721e0a2dfbc88cb", "fusion_lon": 0.0, "type": "electric_scooter", "name": "7b5d59febce899559721e0a2dfbc88cb", "rental_uris": {"android": "https://dc.lft.to/lastmile_qr_scan", "ios": "https://dc.lft.to/lastmile_qr_scan"}, "fusion_lat": 0.0, "lat": 38.910449, "is_disabled": 0, "lon": -77.0281615, "is_reserved": 0}, {"bike_id": "da61cfcc8e931ceb4629bd63a363e675", "fusion_lon": 0.0, "type": "electric_scooter", "name": "da61cfcc8e931ceb4629bd63a363e675", "rental_uris": {"android": "https://dc.lft.to/lastmile_qr_scan", "ios": "https://dc.lft.to/lastmile_qr_scan"}, "fusion_lat": 0.0, "lat": 38.9272305, "is_disabled": 0, "lon": -77.0334115, "is_reserved": 0}, {"bike_id": "54cca6a3a776a04adff6925e9b3577e8", "fusion_lon": 0.0, "type": "electric_scooter", "name": "54cca6a3a776a04adff6925e9b3577e8", "rental_uris": {"android": "https://dc.lft.to/lastmile_qr_scan", "ios": "https://dc.lft.to/lastmile_qr_scan"}, "fusion_lat": 0.0, "lat": 38.931857666666666, "is_disabled": 0, "lon": -77.028479, "is_reserved": 0}, {"bike_id": "45fb522e2efcbaed6442d8d8f784d7e6", "fusion_lon": 0.0, "type": "electric_scooter", "name": "45fb522e2efcbaed6442d8d8f784d7e6", "rental_uris": {"android": "https://dc.lft.to/lastmile_qr_scan", "ios": "https://dc.lft.to/lastmile_qr_scan"}, "fusion_lat": 0.0, "lat": 38.92136416666666, "is_disabled": 0, "lon": -77.045923, "is_reserved": 0}, {"bike_id": "bb21f09f8e6c2572416f01bece8ea927", "fusion_lon": 0.0, "type": "electric_scooter", "name": "bb21f09f8e6c2572416f01bece8ea927", "rental_uris": {"android": "https://dc.lft.to/lastmile_qr_scan", "ios": "https://dc.lft.to/lastmile_qr_scan"}, "fusion_lat": 0.0, "lat": 38.935196166666664, "is_disabled": 0, "lon": -77.025461, "is_reserved": 0}, {"bike_id": "dd30cd213b3d3bc5e560653578036179", "fusion_lon": 0.0, "type": "electric_bike", "name": "dd30cd213b3d3bc5e560653578036179", "rental_uris": {"android": "https://dc.lft.to/lastmile_qr_scan", "ios": "https://dc.lft.to/lastmile_qr_scan"}, "fusion_lat": 0.0, "lat": 38.985640333333336, "is_disabled": 0, "lon": -76.98832083333333, "is_reserved": 0}, {"bike_id": "38498a14dd196897376185e641aec4ad", "fusion_lon": 0.0, "type": "electric_scooter", "name": "38498a14dd196897376185e641aec4ad", "rental_uris": {"android": "https://dc.lft.to/lastmile_qr_scan", "ios": "https://dc.lft.to/lastmile_qr_scan"}, "fusion_lat": 0.0, "lat": 38.874744666666665, "is_disabled": 0, "lon": -77.00675883333334, "is_reserved": 0}, {"bike_id": "e8e06de25279d7d62581479e176bce4d", "fusion_lon": 0.0, "type": "electric_scooter", "name": "e8e06de25279d7d62581479e176bce4d", "rental_uris": {"android": "https://dc.lft.to/lastmile_qr_scan", "ios": "https://dc.lft.to/lastmile_qr_scan"}, "fusion_lat": 0.0, "lat": 38.906432833333334, "is_disabled": 0, "lon": -77.017932, "is_reserved": 0}, {"bike_id": "229504cf019afd293c171cfe81a76e5e", "fusion_lon": 0.0, "type": "electric_scooter", "name": "229504cf019afd293c171cfe81a76e5e", "rental_uris": {"android": "https://dc.lft.to/lastmile_qr_scan", "ios": "https://dc.lft.to/lastmile_qr_scan"}, "fusion_lat": 0.0, "lat": 38.90179633333333, "is_disabled": 0, "lon": -77.02198566666667, "is_reserved": 0}, {"bike_id": "efaff1498347a617aebd4b477b94d023", "fusion_lon": 0.0, "type": "electric_scooter", "name": "efaff1498347a617aebd4b477b94d023", "rental_uris": {"android": "https://dc.lft.to/lastmile_qr_scan", "ios": "https://dc.lft.to/lastmile_qr_scan"}, "fusion_lat": 0.0, "lat": 38.90059466666666, "is_disabled": 0, "lon": -77.05037766666666, "is_reserved": 0}, {"bike_id": "826670d63911c4b0c4a63ad1989dcef7", "fusion_lon": 0.0, "type": "electric_scooter", "name": "826670d63911c4b0c4a63ad1989dcef7", "rental_uris": {"android": "https://dc.lft.to/lastmile_qr_scan", "ios": "https://dc.lft.to/lastmile_qr_scan"}, "fusion_lat": 0.0, "lat": 38.92514, "is_disabled": 0, "lon": -77.05236916666667, "is_reserved": 0}, {"bike_id": "7fe3df6709109b7858644e880a0bdbf4", "fusion_lon": 0.0, "type": "electric_scooter", "name": "7fe3df6709109b7858644e880a0bdbf4", "rental_uris": {"android": "https://dc.lft.to/lastmile_qr_scan", "ios": "https://dc.lft.to/lastmile_qr_scan"}, "fusion_lat": 0.0, "lat": 38.900020166666664, "is_disabled": 0, "lon": -77.019245, "is_reserved": 0}, {"bike_id": "2421c99da29ed9c4ae252160080fa6b1", "fusion_lon": 0.0, "type": "electric_scooter", "name": "2421c99da29ed9c4ae252160080fa6b1", "rental_uris": {"android": "https://dc.lft.to/lastmile_qr_scan", "ios": "https://dc.lft.to/lastmile_qr_scan"}, "fusion_lat": 0.0, "lat": 38.933149, "is_disabled": 0, "lon": -77.02352583333334, "is_reserved": 0}, {"bike_id": "71f0a5cee77d770a6abbadb0dc10604f", "fusion_lon": 0.0, "type": "electric_scooter", "name": "71f0a5cee77d770a6abbadb0dc10604f", "rental_uris": {"android": "https://dc.lft.to/lastmile_qr_scan", "ios": "https://dc.lft.to/lastmile_qr_scan"}, "fusion_lat": 0.0, "lat": 38.9007735, "is_disabled": 0, "lon": -77.04821416666667, "is_reserved": 0}, {"bike_id": "134180d9a0afd19edccf0e106348cd27", "fusion_lon": 0.0, "type": "electric_scooter", "name": "134180d9a0afd19edccf0e106348cd27", "rental_uris": {"android": "https://dc.lft.to/lastmile_qr_scan", "ios": "https://dc.lft.to/lastmile_qr_scan"}, "fusion_lat": 0.0, "lat": 38.8745825, "is_disabled": 0, "lon": -77.00599733333334, "is_reserved": 0}, {"bike_id": "8ffef2e47ab8c89b41257ed5900b272f", "fusion_lon": 0.0, "type": "electric_scooter", "name": "8ffef2e47ab8c89b41257ed5900b272f", "rental_uris": {"android": "https://dc.lft.to/lastmile_qr_scan", "ios": "https://dc.lft.to/lastmile_qr_scan"}, "fusion_lat": 0.0, "lat": 38.92740783333333, "is_disabled": 0, "lon": -77.02543866666667, "is_reserved": 0}, {"bike_id": "89f409cea27726824c066f55e48d9c93", "fusion_lon": 0.0, "type": "electric_scooter", "name": "89f409cea27726824c066f55e48d9c93", "rental_uris": {"android": "https://dc.lft.to/lastmile_qr_scan", "ios": "https://dc.lft.to/lastmile_qr_scan"}, "fusion_lat": 0.0, "lat": 38.917662666666665, "is_disabled": 0, "lon": -77.0188805, "is_reserved": 0}, {"bike_id": "1ae9e649fb408f2dc5e6835710a967c3", "fusion_lon": 0.0, "type": "electric_scooter", "name": "1ae9e649fb408f2dc5e6835710a967c3", "rental_uris": {"android": "https://dc.lft.to/lastmile_qr_scan", "ios": "https://dc.lft.to/lastmile_qr_scan"}, "fusion_lat": 0.0, "lat": 38.96625483333333, "is_disabled": 0, "lon": -77.02748033333333, "is_reserved": 0}, {"bike_id": "d141e348c3f450467cf59f658ba68d5b", "fusion_lon": 0.0, "type": "electric_scooter", "name": "d141e348c3f450467cf59f658ba68d5b", "rental_uris": {"android": "https://dc.lft.to/lastmile_qr_scan", "ios": "https://dc.lft.to/lastmile_qr_scan"}, "fusion_lat": 0.0, "lat": 38.887447333333334, "is_disabled": 0, "lon": -77.02575033333333, "is_reserved": 0}, {"bike_id": "8ec637fcb2f95a5cd01dbd631e3bfc36", "fusion_lon": 0.0, "type": "electric_bike", "name": "8ec637fcb2f95a5cd01dbd631e3bfc36", "rental_uris": {"android": "https://dc.lft.to/lastmile_qr_scan", "ios": "https://dc.lft.to/lastmile_qr_scan"}, "fusion_lat": 0.0, "lat": 38.86684233333333, "is_disabled": 0, "lon": -76.98230066666666, "is_reserved": 0}, {"bike_id": "c0c090dcad67c13b39ab79cdf0e7946c", "fusion_lon": 0.0, "type": "electric_bike", "name": "c0c090dcad67c13b39ab79cdf0e7946c", "rental_uris": {"android": "https://dc.lft.to/lastmile_qr_scan", "ios": "https://dc.lft.to/lastmile_qr_scan"}, "fusion_lat": 0.0, "lat": 38.80297316666667, "is_disabled": 0, "lon": -77.03991433333333, "is_reserved": 0}, {"bike_id": "586c30e27c34712c082081277e10cd00", "fusion_lon": 0.0, "type": "electric_scooter", "name": "586c30e27c34712c082081277e10cd00", "rental_uris": {"android": "https://dc.lft.to/lastmile_qr_scan", "ios": "https://dc.lft.to/lastmile_qr_scan"}, "fusion_lat": 0.0, "lat": 38.903632, "is_disabled": 0, "lon": -77.0406645, "is_reserved": 0}, {"bike_id": "3c2a7ca7d5bf23476d5a63cc57c9eb52", "fusion_lon": 0.0, "type": "electric_scooter", "name": "3c2a7ca7d5bf23476d5a63cc57c9eb52", "rental_uris": {"android": "https://dc.lft.to/lastmile_qr_scan", "ios": "https://dc.lft.to/lastmile_qr_scan"}, "fusion_lat": 0.0, "lat": 38.92694733333333, "is_disabled": 0, "lon": -77.02279, "is_reserved": 0}, {"bike_id": "a890f78d77d6a75fe0230b4c586b4578", "fusion_lon": 0.0, "type": "electric_scooter", "name": "a890f78d77d6a75fe0230b4c586b4578", "rental_uris": {"android": "https://dc.lft.to/lastmile_qr_scan", "ios": "https://dc.lft.to/lastmile_qr_scan"}, "fusion_lat": 0.0, "lat": 38.90740066666667, "is_disabled": 0, "lon": -77.03448483333334, "is_reserved": 0}, {"bike_id": "1b4c0bc751f85406b13bb11b753b2563", "fusion_lon": 0.0, "type": "electric_scooter", "name": "1b4c0bc751f85406b13bb11b753b2563", "rental_uris": {"android": "https://dc.lft.to/lastmile_qr_scan", "ios": "https://dc.lft.to/lastmile_qr_scan"}, "fusion_lat": 0.0, "lat": 38.92332666666667, "is_disabled": 0, "lon": -77.0357905, "is_reserved": 0}, {"bike_id": "d6590005915814dcacdb56c5223d2404", "fusion_lon": 0.0, "type": "electric_scooter", "name": "d6590005915814dcacdb56c5223d2404", "rental_uris": {"android": "https://dc.lft.to/lastmile_qr_scan", "ios": "https://dc.lft.to/lastmile_qr_scan"}, "fusion_lat": 0.0, "lat": 38.8446665, "is_disabled": 0, "lon": -76.9951405, "is_reserved": 0}, {"bike_id": "527d2513a37d85ecc955ce86f7768cbb", "fusion_lon": 0.0, "type": "electric_scooter", "name": "527d2513a37d85ecc955ce86f7768cbb", "rental_uris": {"android": "https://dc.lft.to/lastmile_qr_scan", "ios": "https://dc.lft.to/lastmile_qr_scan"}, "fusion_lat": 0.0, "lat": 38.928399, "is_disabled": 0, "lon": -77.02158633333333, "is_reserved": 0}, {"bike_id": "8dad369c4981159f7dbe1a4140cdff0d", "fusion_lon": 0.0, "type": "electric_scooter", "name": "8dad369c4981159f7dbe1a4140cdff0d", "rental_uris": {"android": "https://dc.lft.to/lastmile_qr_scan", "ios": "https://dc.lft.to/lastmile_qr_scan"}, "fusion_lat": 0.0, "lat": 38.86246166666667, "is_disabled": 0, "lon": -76.99503716666666, "is_reserved": 0}, {"bike_id": "3e1c3ed8f51c80a82ce468b87629b5b5", "fusion_lon": 0.0, "type": "electric_scooter", "name": "3e1c3ed8f51c80a82ce468b87629b5b5", "rental_uris": {"android": "https://dc.lft.to/lastmile_qr_scan", "ios": "https://dc.lft.to/lastmile_qr_scan"}, "fusion_lat": 0.0, "lat": 38.88760466666667, "is_disabled": 0, "lon": -77.021559, "is_reserved": 0}, {"bike_id": "267f6e3eac8b5b564a0e0ea01ef927e0", "fusion_lon": 0.0, "type": "electric_scooter", "name": "267f6e3eac8b5b564a0e0ea01ef927e0", "rental_uris": {"android": "https://dc.lft.to/lastmile_qr_scan", "ios": "https://dc.lft.to/lastmile_qr_scan"}, "fusion_lat": 0.0, "lat": 38.9055925, "is_disabled": 0, "lon": -77.01681033333334, "is_reserved": 0}, {"bike_id": "45beed24975bea0856cf5f5bfdbbc8e9", "fusion_lon": 0.0, "type": "electric_bike", "name": "45beed24975bea0856cf5f5bfdbbc8e9", "rental_uris": {"android": "https://dc.lft.to/lastmile_qr_scan", "ios": "https://dc.lft.to/lastmile_qr_scan"}, "fusion_lat": 0.0, "lat": 38.83916516666667, "is_disabled": 0, "lon": -76.998378, "is_reserved": 0}, {"bike_id": "c5e6f2202eb0b08a42f55342d28f9192", "fusion_lon": 0.0, "type": "electric_scooter", "name": "c5e6f2202eb0b08a42f55342d28f9192", "rental_uris": {"android": "https://dc.lft.to/lastmile_qr_scan", "ios": "https://dc.lft.to/lastmile_qr_scan"}, "fusion_lat": 0.0, "lat": 38.8883905, "is_disabled": 0, "lon": -77.04906916666667, "is_reserved": 0}, {"bike_id": "bddb1d5b6b29d38112394ee3cf28cc75", "fusion_lon": 0.0, "type": "electric_scooter", "name": "bddb1d5b6b29d38112394ee3cf28cc75", "rental_uris": {"android": "https://dc.lft.to/lastmile_qr_scan", "ios": "https://dc.lft.to/lastmile_qr_scan"}, "fusion_lat": 0.0, "lat": 38.88745216666667, "is_disabled": 0, "lon": -77.0283135, "is_reserved": 0}, {"bike_id": "056b7d9ab4c576e61bb0d64573005d3b", "fusion_lon": 0.0, "type": "electric_scooter", "name": "056b7d9ab4c576e61bb0d64573005d3b", "rental_uris": {"android": "https://dc.lft.to/lastmile_qr_scan", "ios": "https://dc.lft.to/lastmile_qr_scan"}, "fusion_lat": 0.0, "lat": 38.927881166666666, "is_disabled": 0, "lon": -77.03081366666666, "is_reserved": 0}, {"bike_id": "b4e94c969c00d71ca36a757087bfc73c", "fusion_lon": 0.0, "type": "electric_bike", "name": "b4e94c969c00d71ca36a757087bfc73c", "rental_uris": {"android": "https://dc.lft.to/lastmile_qr_scan", "ios": "https://dc.lft.to/lastmile_qr_scan"}, "fusion_lat": 0.0, "lat": 38.885307, "is_disabled": 0, "lon": -76.93575416666667, "is_reserved": 0}, {"bike_id": "7961ccbec34bae11638e6b2938603780", "fusion_lon": 0.0, "type": "electric_scooter", "name": "7961ccbec34bae11638e6b2938603780", "rental_uris": {"android": "https://dc.lft.to/lastmile_qr_scan", "ios": "https://dc.lft.to/lastmile_qr_scan"}, "fusion_lat": 0.0, "lat": 38.9335885, "is_disabled": 0, "lon": -77.03728233333334, "is_reserved": 0}, {"bike_id": "11aabe5713f272f00f43454fde43d393", "fusion_lon": 0.0, "type": "electric_bike", "name": "11aabe5713f272f00f43454fde43d393", "rental_uris": {"android": "https://dc.lft.to/lastmile_qr_scan", "ios": "https://dc.lft.to/lastmile_qr_scan"}, "fusion_lat": 0.0, "lat": 38.96258366666667, "is_disabled": 0, "lon": -77.01077866666667, "is_reserved": 0}, {"bike_id": "c10b04b9c21220957b88d3e34c34dc05", "fusion_lon": 0.0, "type": "electric_scooter", "name": "c10b04b9c21220957b88d3e34c34dc05", "rental_uris": {"android": "https://dc.lft.to/lastmile_qr_scan", "ios": "https://dc.lft.to/lastmile_qr_scan"}, "fusion_lat": 0.0, "lat": 38.902528833333335, "is_disabled": 0, "lon": -77.0292675, "is_reserved": 0}, {"bike_id": "b250dc26d63ff194be2bf3c4e1b22b51", "fusion_lon": 0.0, "type": "electric_scooter", "name": "b250dc26d63ff194be2bf3c4e1b22b51", "rental_uris": {"android": "https://dc.lft.to/lastmile_qr_scan", "ios": "https://dc.lft.to/lastmile_qr_scan"}, "fusion_lat": 0.0, "lat": 38.90378883333333, "is_disabled": 0, "lon": -76.98025683333333, "is_reserved": 0}, {"bike_id": "5c0fac38e1edc3c43a7a8bd3d283ba42", "fusion_lon": 0.0, "type": "electric_scooter", "name": "5c0fac38e1edc3c43a7a8bd3d283ba42", "rental_uris": {"android": "https://dc.lft.to/lastmile_qr_scan", "ios": "https://dc.lft.to/lastmile_qr_scan"}, "fusion_lat": 0.0, "lat": 38.9105085, "is_disabled": 0, "lon": -77.009188, "is_reserved": 0}, {"bike_id": "249ad2b6ac9c7d9944a6b4907949c51c", "fusion_lon": 0.0, "type": "electric_scooter", "name": "249ad2b6ac9c7d9944a6b4907949c51c", "rental_uris": {"android": "https://dc.lft.to/lastmile_qr_scan", "ios": "https://dc.lft.to/lastmile_qr_scan"}, "fusion_lat": 0.0, "lat": 38.86530166666667, "is_disabled": 0, "lon": -76.98712033333334, "is_reserved": 0}, {"bike_id": "3c87358115b4e415e2ba0079df811240", "fusion_lon": 0.0, "type": "electric_bike", "name": "3c87358115b4e415e2ba0079df811240", "rental_uris": {"android": "https://dc.lft.to/lastmile_qr_scan", "ios": "https://dc.lft.to/lastmile_qr_scan"}, "fusion_lat": 0.0, "lat": 38.79991033333334, "is_disabled": 0, "lon": -77.12981416666666, "is_reserved": 0}, {"bike_id": "afcfb60abeb8ccef78071978ce84e30d", "fusion_lon": 0.0, "type": "electric_scooter", "name": "afcfb60abeb8ccef78071978ce84e30d", "rental_uris": {"android": "https://dc.lft.to/lastmile_qr_scan", "ios": "https://dc.lft.to/lastmile_qr_scan"}, "fusion_lat": 0.0, "lat": 38.934666166666666, "is_disabled": 0, "lon": -77.05778216666667, "is_reserved": 0}, {"bike_id": "3e6ce785e2b8a2cc16f073e34de30427", "fusion_lon": 0.0, "type": "electric_scooter", "name": "3e6ce785e2b8a2cc16f073e34de30427", "rental_uris": {"android": "https://dc.lft.to/lastmile_qr_scan", "ios": "https://dc.lft.to/lastmile_qr_scan"}, "fusion_lat": 0.0, "lat": 38.896745833333334, "is_disabled": 0, "lon": -76.94711333333333, "is_reserved": 0}, {"bike_id": "0b2bd8cd28abd1cf7fb9addde6d43143", "fusion_lon": 0.0, "type": "electric_scooter", "name": "0b2bd8cd28abd1cf7fb9addde6d43143", "rental_uris": {"android": "https://dc.lft.to/lastmile_qr_scan", "ios": "https://dc.lft.to/lastmile_qr_scan"}, "fusion_lat": 0.0, "lat": 38.923528166666664, "is_disabled": 0, "lon": -77.05266516666667, "is_reserved": 0}, {"bike_id": "095af12ccfce710b6fb032ef2d17b9c7", "fusion_lon": 0.0, "type": "electric_bike", "name": "095af12ccfce710b6fb032ef2d17b9c7", "rental_uris": {"android": "https://dc.lft.to/lastmile_qr_scan", "ios": "https://dc.lft.to/lastmile_qr_scan"}, "fusion_lat": 0.0, "lat": 38.82444233333333, "is_disabled": 0, "lon": -77.07048416666666, "is_reserved": 0}, {"bike_id": "dcdd48b40c55bcf252951dbe98381f12", "fusion_lon": 0.0, "type": "electric_scooter", "name": "dcdd48b40c55bcf252951dbe98381f12", "rental_uris": {"android": "https://dc.lft.to/lastmile_qr_scan", "ios": "https://dc.lft.to/lastmile_qr_scan"}, "fusion_lat": 0.0, "lat": 38.90542, "is_disabled": 0, "lon": -77.03997383333333, "is_reserved": 0}, {"bike_id": "434bf4373099214e21f0e6e128248d55", "fusion_lon": 0.0, "type": "electric_bike", "name": "434bf4373099214e21f0e6e128248d55", "rental_uris": {"android": "https://dc.lft.to/lastmile_qr_scan", "ios": "https://dc.lft.to/lastmile_qr_scan"}, "fusion_lat": 0.0, "lat": 38.927640333333336, "is_disabled": 0, "lon": -77.0202975, "is_reserved": 0}, {"bike_id": "ae2043b00eba0e8d05336fdba7f7a44f", "fusion_lon": 0.0, "type": "electric_scooter", "name": "ae2043b00eba0e8d05336fdba7f7a44f", "rental_uris": {"android": "https://dc.lft.to/lastmile_qr_scan", "ios": "https://dc.lft.to/lastmile_qr_scan"}, "fusion_lat": 0.0, "lat": 38.92909783333333, "is_disabled": 0, "lon": -77.06395783333333, "is_reserved": 0}, {"bike_id": "09c510c4fbf3e483bd8cb3e6cd405c2c", "fusion_lon": 0.0, "type": "electric_scooter", "name": "09c510c4fbf3e483bd8cb3e6cd405c2c", "rental_uris": {"android": "https://dc.lft.to/lastmile_qr_scan", "ios": "https://dc.lft.to/lastmile_qr_scan"}, "fusion_lat": 0.0, "lat": 38.905448666666665, "is_disabled": 0, "lon": -77.022015, "is_reserved": 0}, {"bike_id": "cbc06c67c4c2cf5f6d8f936b4ecb8681", "fusion_lon": 0.0, "type": "electric_scooter", "name": "cbc06c67c4c2cf5f6d8f936b4ecb8681", "rental_uris": {"android": "https://dc.lft.to/lastmile_qr_scan", "ios": "https://dc.lft.to/lastmile_qr_scan"}, "fusion_lat": 0.0, "lat": 38.92828033333333, "is_disabled": 0, "lon": -77.0226145, "is_reserved": 0}, {"bike_id": "52360ee23f8ba01be18a4b7738c2807a", "fusion_lon": 0.0, "type": "electric_bike", "name": "52360ee23f8ba01be18a4b7738c2807a", "rental_uris": {"android": "https://dc.lft.to/lastmile_qr_scan", "ios": "https://dc.lft.to/lastmile_qr_scan"}, "fusion_lat": 0.0, "lat": 38.865210833333336, "is_disabled": 0, "lon": -77.12818316666667, "is_reserved": 0}, {"bike_id": "a345dfc756c80a4d9b5b52807ea95592", "fusion_lon": 0.0, "type": "electric_scooter", "name": "a345dfc756c80a4d9b5b52807ea95592", "rental_uris": {"android": "https://dc.lft.to/lastmile_qr_scan", "ios": "https://dc.lft.to/lastmile_qr_scan"}, "fusion_lat": 0.0, "lat": 38.91716816666667, "is_disabled": 0, "lon": -77.038601, "is_reserved": 0}, {"bike_id": "945407c009450026f17ac886a237b815", "fusion_lon": 0.0, "type": "electric_scooter", "name": "945407c009450026f17ac886a237b815", "rental_uris": {"android": "https://dc.lft.to/lastmile_qr_scan", "ios": "https://dc.lft.to/lastmile_qr_scan"}, "fusion_lat": 0.0, "lat": 38.92643416666667, "is_disabled": 0, "lon": -77.03704216666667, "is_reserved": 0}, {"bike_id": "33fc11a7a8453c6de355c06bf89a46e6", "fusion_lon": 0.0, "type": "electric_scooter", "name": "33fc11a7a8453c6de355c06bf89a46e6", "rental_uris": {"android": "https://dc.lft.to/lastmile_qr_scan", "ios": "https://dc.lft.to/lastmile_qr_scan"}, "fusion_lat": 0.0, "lat": 38.928438, "is_disabled": 0, "lon": -77.01590116666667, "is_reserved": 0}, {"bike_id": "4c657f05b597d5484b66ddcd73a239b2", "fusion_lon": 0.0, "type": "electric_scooter", "name": "4c657f05b597d5484b66ddcd73a239b2", "rental_uris": {"android": "https://dc.lft.to/lastmile_qr_scan", "ios": "https://dc.lft.to/lastmile_qr_scan"}, "fusion_lat": 0.0, "lat": 38.9169545, "is_disabled": 0, "lon": -77.0080355, "is_reserved": 0}, {"bike_id": "6ec2f36b4b8b5c5b150841214439de77", "fusion_lon": 0.0, "type": "electric_bike", "name": "6ec2f36b4b8b5c5b150841214439de77", "rental_uris": {"android": "https://dc.lft.to/lastmile_qr_scan", "ios": "https://dc.lft.to/lastmile_qr_scan"}, "fusion_lat": 0.0, "lat": 38.895739166666665, "is_disabled": 0, "lon": -76.9761775, "is_reserved": 0}, {"bike_id": "1841238349406b2ac6ae6c8da8b24eeb", "fusion_lon": 0.0, "type": "electric_scooter", "name": "1841238349406b2ac6ae6c8da8b24eeb", "rental_uris": {"android": "https://dc.lft.to/lastmile_qr_scan", "ios": "https://dc.lft.to/lastmile_qr_scan"}, "fusion_lat": 0.0, "lat": 38.8724135, "is_disabled": 0, "lon": -77.01061783333333, "is_reserved": 0}, {"bike_id": "f9a1f00549dacfdc2b4e00282e57d365", "fusion_lon": 0.0, "type": "electric_scooter", "name": "f9a1f00549dacfdc2b4e00282e57d365", "rental_uris": {"android": "https://dc.lft.to/lastmile_qr_scan", "ios": "https://dc.lft.to/lastmile_qr_scan"}, "fusion_lat": 0.0, "lat": 38.9387755, "is_disabled": 0, "lon": -77.02487533333333, "is_reserved": 0}, {"bike_id": "b0208ec75a4ccbea5c60e8f539d344f5", "fusion_lon": 0.0, "type": "electric_scooter", "name": "b0208ec75a4ccbea5c60e8f539d344f5", "rental_uris": {"android": "https://dc.lft.to/lastmile_qr_scan", "ios": "https://dc.lft.to/lastmile_qr_scan"}, "fusion_lat": 0.0, "lat": 38.90034933333333, "is_disabled": 0, "lon": -76.99622766666667, "is_reserved": 0}, {"bike_id": "3577c7840ba817660dc25a2392dee841", "fusion_lon": 0.0, "type": "electric_bike", "name": "3577c7840ba817660dc25a2392dee841", "rental_uris": {"android": "https://dc.lft.to/lastmile_qr_scan", "ios": "https://dc.lft.to/lastmile_qr_scan"}, "fusion_lat": 0.0, "lat": 38.925050166666665, "is_disabled": 0, "lon": -76.98234316666667, "is_reserved": 0}, {"bike_id": "15861d3953e834f3240e72174d51e25f", "fusion_lon": 0.0, "type": "electric_bike", "name": "15861d3953e834f3240e72174d51e25f", "rental_uris": {"android": "https://dc.lft.to/lastmile_qr_scan", "ios": "https://dc.lft.to/lastmile_qr_scan"}, "fusion_lat": 0.0, "lat": 38.97582583333333, "is_disabled": 0, "lon": -76.9638575, "is_reserved": 0}, {"bike_id": "bd46bd68347cce51b57ba24a16d6a6a8", "fusion_lon": 0.0, "type": "electric_scooter", "name": "bd46bd68347cce51b57ba24a16d6a6a8", "rental_uris": {"android": "https://dc.lft.to/lastmile_qr_scan", "ios": "https://dc.lft.to/lastmile_qr_scan"}, "fusion_lat": 0.0, "lat": 38.92632066666667, "is_disabled": 0, "lon": -77.03793333333333, "is_reserved": 0}, {"bike_id": "f3b489f928e443671663e80acbfecd29", "fusion_lon": 0.0, "type": "electric_scooter", "name": "f3b489f928e443671663e80acbfecd29", "rental_uris": {"android": "https://dc.lft.to/lastmile_qr_scan", "ios": "https://dc.lft.to/lastmile_qr_scan"}, "fusion_lat": 0.0, "lat": 38.9072275, "is_disabled": 0, "lon": -77.04492883333333, "is_reserved": 0}, {"bike_id": "9abe852e1f18597d8624a89111568b68", "fusion_lon": 0.0, "type": "electric_bike", "name": "9abe852e1f18597d8624a89111568b68", "rental_uris": {"android": "https://dc.lft.to/lastmile_qr_scan", "ios": "https://dc.lft.to/lastmile_qr_scan"}, "fusion_lat": 0.0, "lat": 38.992246, "is_disabled": 0, "lon": -76.87774516666667, "is_reserved": 0}, {"bike_id": "e0b477e12312393f4122cc40e45dc964", "fusion_lon": 0.0, "type": "electric_bike", "name": "e0b477e12312393f4122cc40e45dc964", "rental_uris": {"android": "https://dc.lft.to/lastmile_qr_scan", "ios": "https://dc.lft.to/lastmile_qr_scan"}, "fusion_lat": 0.0, "lat": 38.85564633333333, "is_disabled": 0, "lon": -77.1071025, "is_reserved": 0}, {"bike_id": "18b9d6acc4155cb2a5978811728a2eda", "fusion_lon": 0.0, "type": "electric_scooter", "name": "18b9d6acc4155cb2a5978811728a2eda", "rental_uris": {"android": "https://dc.lft.to/lastmile_qr_scan", "ios": "https://dc.lft.to/lastmile_qr_scan"}, "fusion_lat": 0.0, "lat": 38.8985015, "is_disabled": 0, "lon": -77.05510083333333, "is_reserved": 0}, {"bike_id": "6c4758c2e58d1617435bd544aea689fb", "fusion_lon": 0.0, "type": "electric_scooter", "name": "6c4758c2e58d1617435bd544aea689fb", "rental_uris": {"android": "https://dc.lft.to/lastmile_qr_scan", "ios": "https://dc.lft.to/lastmile_qr_scan"}, "fusion_lat": 0.0, "lat": 38.900297333333334, "is_disabled": 0, "lon": -76.98778016666667, "is_reserved": 0}, {"bike_id": "296a6c85701f96becc0deaa07b1af347", "fusion_lon": 0.0, "type": "electric_scooter", "name": "296a6c85701f96becc0deaa07b1af347", "rental_uris": {"android": "https://dc.lft.to/lastmile_qr_scan", "ios": "https://dc.lft.to/lastmile_qr_scan"}, "fusion_lat": 0.0, "lat": 38.90012766666667, "is_disabled": 0, "lon": -76.97746833333333, "is_reserved": 0}, {"bike_id": "361672a8a97e7eae7c9a20faf0f8144d", "fusion_lon": 0.0, "type": "electric_bike", "name": "361672a8a97e7eae7c9a20faf0f8144d", "rental_uris": {"android": "https://dc.lft.to/lastmile_qr_scan", "ios": "https://dc.lft.to/lastmile_qr_scan"}, "fusion_lat": 0.0, "lat": 38.8896155, "is_disabled": 0, "lon": -76.94871216666667, "is_reserved": 0}, {"bike_id": "380ba3904b63c31d19dcf47b4c0ef77a", "fusion_lon": 0.0, "type": "electric_scooter", "name": "380ba3904b63c31d19dcf47b4c0ef77a", "rental_uris": {"android": "https://dc.lft.to/lastmile_qr_scan", "ios": "https://dc.lft.to/lastmile_qr_scan"}, "fusion_lat": 0.0, "lat": 38.90162016666667, "is_disabled": 0, "lon": -76.98040833333333, "is_reserved": 0}, {"bike_id": "091f14ce99454969af79efa9d222ee8c", "fusion_lon": 0.0, "type": "electric_scooter", "name": "091f14ce99454969af79efa9d222ee8c", "rental_uris": {"android": "https://dc.lft.to/lastmile_qr_scan", "ios": "https://dc.lft.to/lastmile_qr_scan"}, "fusion_lat": 0.0, "lat": 38.892215666666665, "is_disabled": 0, "lon": -77.02721066666666, "is_reserved": 0}, {"bike_id": "6f2fd5fef7df1d8942a77376b66eeeec", "fusion_lon": 0.0, "type": "electric_scooter", "name": "6f2fd5fef7df1d8942a77376b66eeeec", "rental_uris": {"android": "https://dc.lft.to/lastmile_qr_scan", "ios": "https://dc.lft.to/lastmile_qr_scan"}, "fusion_lat": 0.0, "lat": 38.92474583333333, "is_disabled": 0, "lon": -77.0283425, "is_reserved": 0}, {"bike_id": "ebc278e3cb528f8b75ea86ee14460dec", "fusion_lon": 0.0, "type": "electric_scooter", "name": "ebc278e3cb528f8b75ea86ee14460dec", "rental_uris": {"android": "https://dc.lft.to/lastmile_qr_scan", "ios": "https://dc.lft.to/lastmile_qr_scan"}, "fusion_lat": 0.0, "lat": 38.920887666666665, "is_disabled": 0, "lon": -76.97595533333333, "is_reserved": 0}, {"bike_id": "9ec37be024af47020b437e0d35a70b35", "fusion_lon": 0.0, "type": "electric_scooter", "name": "9ec37be024af47020b437e0d35a70b35", "rental_uris": {"android": "https://dc.lft.to/lastmile_qr_scan", "ios": "https://dc.lft.to/lastmile_qr_scan"}, "fusion_lat": 0.0, "lat": 38.90262833333333, "is_disabled": 0, "lon": -77.02602866666666, "is_reserved": 0}, {"bike_id": "52bf203206efc38363d547bb46d3a2c8", "fusion_lon": 0.0, "type": "electric_scooter", "name": "52bf203206efc38363d547bb46d3a2c8", "rental_uris": {"android": "https://dc.lft.to/lastmile_qr_scan", "ios": "https://dc.lft.to/lastmile_qr_scan"}, "fusion_lat": 0.0, "lat": 38.94464516666667, "is_disabled": 0, "lon": -77.0280935, "is_reserved": 0}, {"bike_id": "afbdbe251577e8b1390f99225df280ae", "fusion_lon": 0.0, "type": "electric_scooter", "name": "afbdbe251577e8b1390f99225df280ae", "rental_uris": {"android": "https://dc.lft.to/lastmile_qr_scan", "ios": "https://dc.lft.to/lastmile_qr_scan"}, "fusion_lat": 0.0, "lat": 38.9183795, "is_disabled": 0, "lon": -77.03922933333334, "is_reserved": 0}, {"bike_id": "617158ec9c001c99394ae12391a007c7", "fusion_lon": 0.0, "type": "electric_scooter", "name": "617158ec9c001c99394ae12391a007c7", "rental_uris": {"android": "https://dc.lft.to/lastmile_qr_scan", "ios": "https://dc.lft.to/lastmile_qr_scan"}, "fusion_lat": 0.0, "lat": 38.89768616666667, "is_disabled": 0, "lon": -76.938255, "is_reserved": 0}, {"bike_id": "9fad2897d6ba50dbb204a4fd772733ac", "fusion_lon": 0.0, "type": "electric_scooter", "name": "9fad2897d6ba50dbb204a4fd772733ac", "rental_uris": {"android": "https://dc.lft.to/lastmile_qr_scan", "ios": "https://dc.lft.to/lastmile_qr_scan"}, "fusion_lat": 0.0, "lat": 38.921564833333335, "is_disabled": 0, "lon": -77.0338035, "is_reserved": 0}, {"bike_id": "cb17030d93c2868c877ed426960f975e", "fusion_lon": 0.0, "type": "electric_scooter", "name": "cb17030d93c2868c877ed426960f975e", "rental_uris": {"android": "https://dc.lft.to/lastmile_qr_scan", "ios": "https://dc.lft.to/lastmile_qr_scan"}, "fusion_lat": 0.0, "lat": 38.921234166666665, "is_disabled": 0, "lon": -77.04586683333333, "is_reserved": 0}, {"bike_id": "a6ec9f9ded46588ce64af86ed1ae516b", "fusion_lon": 0.0, "type": "electric_scooter", "name": "a6ec9f9ded46588ce64af86ed1ae516b", "rental_uris": {"android": "https://dc.lft.to/lastmile_qr_scan", "ios": "https://dc.lft.to/lastmile_qr_scan"}, "fusion_lat": 0.0, "lat": 38.88303666666667, "is_disabled": 0, "lon": -76.9485815, "is_reserved": 0}, {"bike_id": "eea93e70ac78d9a1b510c3dfda3a6de2", "fusion_lon": 0.0, "type": "electric_scooter", "name": "eea93e70ac78d9a1b510c3dfda3a6de2", "rental_uris": {"android": "https://dc.lft.to/lastmile_qr_scan", "ios": "https://dc.lft.to/lastmile_qr_scan"}, "fusion_lat": 0.0, "lat": 38.89478066666667, "is_disabled": 0, "lon": -76.99519616666667, "is_reserved": 0}, {"bike_id": "a51cd94fe9f8da4e58d288e128f984f6", "fusion_lon": 0.0, "type": "electric_scooter", "name": "a51cd94fe9f8da4e58d288e128f984f6", "rental_uris": {"android": "https://dc.lft.to/lastmile_qr_scan", "ios": "https://dc.lft.to/lastmile_qr_scan"}, "fusion_lat": 0.0, "lat": 38.857574, "is_disabled": 0, "lon": -76.99319683333333, "is_reserved": 0}, {"bike_id": "9e391d9659213404abe982d62d5acd66", "fusion_lon": 0.0, "type": "electric_scooter", "name": "9e391d9659213404abe982d62d5acd66", "rental_uris": {"android": "https://dc.lft.to/lastmile_qr_scan", "ios": "https://dc.lft.to/lastmile_qr_scan"}, "fusion_lat": 0.0, "lat": 38.896897833333334, "is_disabled": 0, "lon": -76.99273983333333, "is_reserved": 0}, {"bike_id": "370e20651d33983c9b7f4e6393dfa960", "fusion_lon": 0.0, "type": "electric_scooter", "name": "370e20651d33983c9b7f4e6393dfa960", "rental_uris": {"android": "https://dc.lft.to/lastmile_qr_scan", "ios": "https://dc.lft.to/lastmile_qr_scan"}, "fusion_lat": 0.0, "lat": 38.8988705, "is_disabled": 0, "lon": -76.9317315, "is_reserved": 0}, {"bike_id": "21516a7daffef2f9c924c0a4d8549926", "fusion_lon": 0.0, "type": "electric_scooter", "name": "21516a7daffef2f9c924c0a4d8549926", "rental_uris": {"android": "https://dc.lft.to/lastmile_qr_scan", "ios": "https://dc.lft.to/lastmile_qr_scan"}, "fusion_lat": 0.0, "lat": 38.926858333333335, "is_disabled": 0, "lon": -77.03600433333334, "is_reserved": 0}, {"bike_id": "985175929fbeeeeaddf4a19cbd68a0bf", "fusion_lon": 0.0, "type": "electric_scooter", "name": "985175929fbeeeeaddf4a19cbd68a0bf", "rental_uris": {"android": "https://dc.lft.to/lastmile_qr_scan", "ios": "https://dc.lft.to/lastmile_qr_scan"}, "fusion_lat": 0.0, "lat": 38.944153166666666, "is_disabled": 0, "lon": -77.05511283333334, "is_reserved": 0}, {"bike_id": "e10fffd69c4550cb6e05e33407ad4c4b", "fusion_lon": 0.0, "type": "electric_scooter", "name": "e10fffd69c4550cb6e05e33407ad4c4b", "rental_uris": {"android": "https://dc.lft.to/lastmile_qr_scan", "ios": "https://dc.lft.to/lastmile_qr_scan"}, "fusion_lat": 0.0, "lat": 38.9261635, "is_disabled": 0, "lon": -77.05291233333334, "is_reserved": 0}, {"bike_id": "16e278aa86bcc5d0062ab89fa3d12ead", "fusion_lon": 0.0, "type": "electric_scooter", "name": "16e278aa86bcc5d0062ab89fa3d12ead", "rental_uris": {"android": "https://dc.lft.to/lastmile_qr_scan", "ios": "https://dc.lft.to/lastmile_qr_scan"}, "fusion_lat": 0.0, "lat": 38.9027425, "is_disabled": 0, "lon": -77.0344165, "is_reserved": 0},