{"data": {"bikes": [{"lat": 38.87081416666667, "is_disabled": 0, "type": "electric_scooter", "lon": -77.01187, "bike_id": "41b0632297dd1479c203afb616281628", "fusion_lat": 0.0, "name": "41b0632297dd1479c203afb616281628", "is_reserved": 0, "rental_uris": {"android": "https://dc.lft.to/lastmile_qr_scan", "ios": "https://dc.lft.to/lastmile_qr_scan"}, "fusion_lon": 0.0}, {"lat": 38.920543333333335, "is_disabled": 0, "type": "electric_scooter", "lon": -77.04373216666667, "bike_id": "d703565cef4b5db9841170dd654f0a84", "fusion_lat": 0.0, "name": "d703565cef4b5db9841170dd654f0a84", "is_reserved": 0, "rental_uris": {"android": "https://dc.lft.to/lastmile_qr_scan", "ios": "https://dc.lft.to/lastmile_qr_scan"}, "fusion_lon": 0.0}, {"lat": 38.862605, "is_disabled": 0, "type": "electric_scooter", "lon": -76.98690516666667, "bike_id": "b0db1daab4b8c5a140920f31f278391c", "fusion_lat": 0.0, "name": "b0db1daab4b8c5a140920f31f278391c", "is_reserved": 0, "rental_uris": {"android": "https://dc.lft.to/lastmile_qr_scan", "ios": "https://dc.lft.to/lastmile_qr_scan"}, "fusion_lon": 0.0}, {"lat": 38.916861, "is_disabled": 0, "type": "electric_scooter", "lon": -77.03191016666666, "bike_id": "1d917598dc82720b03f4b3c37831ba62", "fusion_lat": 0.0, "name": "1d917598dc82720b03f4b3c37831ba62", "is_reserved": 0, "rental_uris": {"android": "https://dc.lft.to/lastmile_qr_scan", "ios": "https://dc.lft.to/lastmile_qr_scan"}, "fusion_lon": 0.0}, {"lat": 38.877322, "is_disabled": 0, "type": "electric_bike", "lon": -77.11849783333334, "bike_id": "6d75095c6e22956cb64c35567360e683", "fusion_lat": 0.0, "name": "6d75095c6e22956cb64c35567360e683", "is_reserved": 0, "rental_uris": {"android": "https://dc.lft.to/lastmile_qr_scan", "ios": "https://dc.lft.to/lastmile_qr_scan"}, "fusion_lon": 0.0}, {"lat": 38.9135265, "is_disabled": 0, "type": "electric_scooter", "lon": -77.03185016666667, "bike_id": "72aaf055b9ca66c53995b81202e568fc", "fusion_lat": 0.0, "name": "72aaf055b9ca66c53995b81202e568fc", "is_reserved": 0, "rental_uris": {"android": "https://dc.lft.to/lastmile_qr_scan", "ios": "https://dc.lft.to/lastmile_qr_scan"}, "fusion_lon": 0.0}, {"lat": 38.9110715, "is_disabled": 0, "type": "electric_scooter", "lon": -77.03623433333334, "bike_id": "377e58fc9f3075a4f9758d4947126be8", "fusion_lat": 0.0, "name": "377e58fc9f3075a4f9758d4947126be8", "is_reserved": 0, "rental_uris": {"android": "https://dc.lft.to/lastmile_qr_scan", "ios": "https://dc.lft.to/lastmile_qr_scan"}, "fusion_lon": 0.0}, {"lat": 38.9518, "is_disabled": 0, "type": "electric_bike", "lon": -76.93545166666667, "bike_id": "ee03db6cc6d6728234d65da6ce1feb18", "fusion_lat": 0.0, "name": "ee03db6cc6d6728234d65da6ce1feb18", "is_reserved": 0, "rental_uris": {"android": "https://dc.lft.to/lastmile_qr_scan", "ios": "https://dc.lft.to/lastmile_qr_scan"}, "fusion_lon": 0.0}, {"lat": 38.92047433333333, "is_disabled": 0, "type": "electric_scooter", "lon": -77.04198566666666, "bike_id": "1ba951ed868b500ff94d9a8764b54b9a", "fusion_lat": 0.0, "name": "1ba951ed868b500ff94d9a8764b54b9a", "is_reserved": 0, "rental_uris": {"android": "https://dc.lft.to/lastmile_qr_scan", "ios": "https://dc.lft.to/lastmile_qr_scan"}, "fusion_lon": 0.0}, {"lat": 38.86160983333333, "is_disabled": 0, "type": "electric_bike", "lon": -77.13093533333333, "bike_id": "b15a11a5dfedb0c1a6c9aae96fb4407e", "fusion_lat": 0.0, "name": "b15a11a5dfedb0c1a6c9aae96fb4407e", "is_reserved": 0, "rental_uris": {"android": "https://dc.lft.to/lastmile_qr_scan", "ios": "https://dc.lft.to/lastmile_qr_scan"}, "fusion_lon": 0.0}, {"lat": 38.8955425, "is_disabled": 0, "type": "electric_scooter", "lon": -77.003634, "bike_id": "e95e79ea6cb0c02e93cd933284abbf43", "fusion_lat": 0.0, "name": "e95e79ea6cb0c02e93cd933284abbf43", "is_reserved": 0, "rental_uris": {"android": "https://dc.lft.to/lastmile_qr_scan", "ios": "https://dc.lft.to/lastmile_qr_scan"}, "fusion_lon": 0.0}, {"lat": 38.91623283333333, "is_disabled": 0, "type": "electric_scooter", "lon": -77.0143375, "bike_id": "d259e9a1b8e8edd0d51f18d1b20fb5b0", "fusion_lat": 0.0, "name": "d259e9a1b8e8edd0d51f18d1b20fb5b0", "is_reserved": 0, "rental_uris": {"android": "https://dc.lft.to/lastmile_qr_scan", "ios": "https://dc.lft.to/lastmile_qr_scan"}, "fusion_lon": 0.0}, {"lat": 38.927946, "is_disabled": 0, "type": "electric_scooter", "lon": -77.05354766666666, "bike_id": "5a3f62676587ceff8fb785a8a484bd18", "fusion_lat": 0.0, "name": "5a3f62676587ceff8fb785a8a484bd18", "is_reserved": 0, "rental_uris": {"android": "https://dc.lft.to/lastmile_qr_scan", "ios": "https://dc.lft.to/lastmile_qr_scan"}, "fusion_lon": 0.0}, {"lat": 38.935070833333334, "is_disabled": 0, "type": "electric_scooter", "lon": -77.03678533333333, "bike_id": "8780445543add808568a8e9b208deb81", "fusion_lat": 0.0, "name": "8780445543add808568a8e9b208deb81", "is_reserved": 0, "rental_uris": {"android": "https://dc.lft.to/lastmile_qr_scan", "ios": "https://dc.lft.to/lastmile_qr_scan"}, "fusion_lon": 0.0}, {"lat": 38.91782216666667, "is_disabled": 0, "type": "electric_scooter", "lon": -77.02261033333333, "bike_id": "d4830cb85c106c717f32c5d9549bc04e", "fusion_lat": 0.0, "name": "d4830cb85c106c717f32c5d9549bc04e", "is_reserved": 0, "rental_uris": {"android": "https://dc.lft.to/lastmile_qr_scan", "ios": "https://dc.lft.to/lastmile_qr_scan"}, "fusion_lon": 0.0}, {"lat": 38.9204455, "is_disabled": 0, "type": "electric_scooter", "lon": -77.03291866666666, "bike_id": "c183cef4bdadc7f4602abddcedd536a0", "fusion_lat": 0.0, "name": "c183cef4bdadc7f4602abddcedd536a0", "is_reserved": 0, "rental_uris": {"android": "https://dc.lft.to/lastmile_qr_scan", "ios": "https://dc.lft.to/lastmile_qr_scan"}, "fusion_lon": 0.0}, {"lat": 38.90401283333333, "is_disabled": 0, "type": "electric_scooter", "lon": -77.06512416666666, "bike_id": "4e2c97b6914d4b1b42744823d9b66ad3", "fusion_lat": 0.0, "name": "4e2c97b6914d4b1b42744823d9b66ad3", "is_reserved": 0, "rental_uris": {"android": "https://dc.lft.to/lastmile_qr_scan", "ios": "https://dc.lft.to/lastmile_qr_scan"}, "fusion_lon": 0.0}, {"lat": 38.91099166666667, "is_disabled": 0, "type": "electric_scooter", "lon": -77.04816633333333, "bike_id": "c24660281bfc3bbce82e1a9a68a69f5f", "fusion_lat": 0.0, "name": "c24660281bfc3bbce82e1a9a68a69f5f", "is_reserved": 0, "rental_uris": {"android": "https://dc.lft.to/lastmile_qr_scan", "ios": "https://dc.lft.to/lastmile_qr_scan"}, "fusion_lon": 0.0}, {"lat": 38.889255666666664, "is_disabled": 0, "type": "electric_scooter", "lon": -76.97374633333334, "bike_id": "ad23b63fda8b47c0eac2cf4287b24bbc", "fusion_lat": 0.0, "name": "ad23b63fda8b47c0eac2cf4287b24bbc", "is_reserved": 0, "rental_uris": {"android": "https://dc.lft.to/lastmile_qr_scan", "ios": "https://dc.lft.to/lastmile_qr_scan"}, "fusion_lon": 0.0}, {"lat": 38.9221745, "is_disabled": 0, "type": "electric_scooter", "lon": -77.04335366666666, "bike_id": "55ca94c8ed49e3f1690c07ccb31e3f16", "fusion_lat": 0.0, "name": "55ca94c8ed49e3f1690c07ccb31e3f16", "is_reserved": 0, "rental_uris": {"android": "https://dc.lft.to/lastmile_qr_scan", "ios": "https://dc.lft.to/lastmile_qr_scan"}, "fusion_lon": 0.0}, {"lat": 38.906399666666665, "is_disabled": 0, "type": "electric_scooter", "lon": -77.06283666666667, "bike_id": "6fcb3be0f1bcd12cb77f7a07af5d6ad7", "fusion_lat": 0.0, "name": "6fcb3be0f1bcd12cb77f7a07af5d6ad7", "is_reserved": 0, "rental_uris": {"android": "https://dc.lft.to/lastmile_qr_scan", "ios": "https://dc.lft.to/lastmile_qr_scan"}, "fusion_lon": 0.0}, {"lat": 38.8661665, "is_disabled": 0, "type": "electric_bike", "lon": -76.94571733333333, "bike_id": "f96150ff57069eb2bb4b1d4d9bc9bbf8", "fusion_lat": 0.0, "name": "f96150ff57069eb2bb4b1d4d9bc9bbf8", "is_reserved": 0, "rental_uris": {"android": "https://dc.lft.to/lastmile_qr_scan", "ios": "https://dc.lft.to/lastmile_qr_scan"}, "fusion_lon": 0.0}, {"lat": 38.945101666666666, "is_disabled": 0, "type": "electric_scooter", "lon": -77.0217645, "bike_id": "16b829279f5ea21b61a7e934f82e2c73", "fusion_lat": 0.0, "name": "16b829279f5ea21b61a7e934f82e2c73", "is_reserved": 0, "rental_uris": {"android": "https://dc.lft.to/lastmile_qr_scan", "ios": "https://dc.lft.to/lastmile_qr_scan"}, "fusion_lon": 0.0}, {"lat": 38.904266166666666, "is_disabled": 0, "type": "electric_scooter", "lon": -77.02508166666667, "bike_id": "d64ee7a07553ac534e0f859794be704a", "fusion_lat": 0.0, "name": "d64ee7a07553ac534e0f859794be704a", "is_reserved": 0, "rental_uris": {"android": "https://dc.lft.to/lastmile_qr_scan", "ios": "https://dc.lft.to/lastmile_qr_scan"}, "fusion_lon": 0.0}, {"lat": 38.89760783333333, "is_disabled": 0, "type": "electric_scooter", "lon": -77.02945916666667, "bike_id": "7d4139e262251628d3090eba0bc26c75", "fusion_lat": 0.0, "name": "7d4139e262251628d3090eba0bc26c75", "is_reserved": 0, "rental_uris": {"android": "https://dc.lft.to/lastmile_qr_scan", "ios": "https://dc.lft.to/lastmile_qr_scan"}, "fusion_lon": 0.0}, {"lat": 38.89971883333333, "is_disabled": 0, "type": "electric_scooter", "lon": -77.01842083333334, "bike_id": "d19c6fbaa1833e26016e06175d99419e", "fusion_lat": 0.0, "name": "d19c6fbaa1833e26016e06175d99419e", "is_reserved": 0, "rental_uris": {"android": "https://dc.lft.to/lastmile_qr_scan", "ios": "https://dc.lft.to/lastmile_qr_scan"}, "fusion_lon": 0.0}, {"lat": 38.865586, "is_disabled": 0, "type": "electric_scooter", "lon": -76.98950433333333, "bike_id": "6b1a61a9ced8b53e89f2576266cd6c6f", "fusion_lat": 0.0, "name": "6b1a61a9ced8b53e89f2576266cd6c6f", "is_reserved": 0, "rental_uris": {"android": "https://dc.lft.to/lastmile_qr_scan", "ios": "https://dc.lft.to/lastmile_qr_scan"}, "fusion_lon": 0.0}, {"lat": 38.898520833333336, "is_disabled": 0, "type": "electric_scooter", "lon": -77.02640416666667, "bike_id": "219dc33b3dd59d5808e7529f50d56107", "fusion_lat": 0.0, "name": "219dc33b3dd59d5808e7529f50d56107", "is_reserved": 0, "rental_uris": {"android": "https://dc.lft.to/lastmile_qr_scan", "ios": "https://dc.lft.to/lastmile_qr_scan"}, "fusion_lon": 0.0}, {"lat": 38.93220183333333, "is_disabled": 0, "type": "electric_scooter", "lon": -77.02731566666667, "bike_id": "f997b3c4c13910b2c3a7e7026d6e77ef", "fusion_lat": 0.0, "name": "f997b3c4c13910b2c3a7e7026d6e77ef", "is_reserved": 0, "rental_uris": {"android": "https://dc.lft.to/lastmile_qr_scan", "ios": "https://dc.lft.to/lastmile_qr_scan"}, "fusion_lon": 0.0}, {"lat": 38.884307166666666, "is_disabled": 0, "type": "electric_scooter", "lon": -76.95756366666667, "bike_id": "0109df3abfbbc57d03b4d47492ec98df", "fusion_lat": 0.0, "name": "0109df3abfbbc57d03b4d47492ec98df", "is_reserved": 0, "rental_uris": {"android": "https://dc.lft.to/lastmile_qr_scan", "ios": "https://dc.lft.to/lastmile_qr_scan"}, "fusion_lon": 0.0}, {"lat": 38.88970116666667, "is_disabled": 0, "type": "electric_scooter", "lon": -76.937368, "bike_id": "90cbe129c7d86301c7b226e17596862b", "fusion_lat": 0.0, "name": "90cbe129c7d86301c7b226e17596862b", "is_reserved": 0, "rental_uris": {"android": "https://dc.lft.to/lastmile_qr_scan", "ios": "https://dc.lft.to/lastmile_qr_scan"}, "fusion_lon": 0.0}, {"lat": 38.892225833333335, "is_disabled": 0, "type": "electric_scooter", "lon": -76.93297283333334, "bike_id": "345ac26c5a3b2187e07559a37b20c70e", "fusion_lat": 0.0, "name": "345ac26c5a3b2187e07559a37b20c70e", "is_reserved": 0, "rental_uris": {"android": "https://dc.lft.to/lastmile_qr_scan", "ios": "https://dc.lft.to/lastmile_qr_scan"}, "fusion_lon": 0.0}, {"lat": 38.922400333333336, "is_disabled": 0, "type": "electric_scooter", "lon": -77.04226583333333, "bike_id": "37c2d9b7d8076614ef1054a4c9abbd91", "fusion_lat": 0.0, "name": "37c2d9b7d8076614ef1054a4c9abbd91", "is_reserved": 0, "rental_uris": {"android": "https://dc.lft.to/lastmile_qr_scan", "ios": "https://dc.lft.to/lastmile_qr_scan"}, "fusion_lon": 0.0}, {"lat": 38.9233715, "is_disabled": 0, "type": "electric_scooter", "lon": -77.03614416666667, "bike_id": "812658c03077b6cb6d5a9884eff38766", "fusion_lat": 0.0, "name": "812658c03077b6cb6d5a9884eff38766", "is_reserved": 0, "rental_uris": {"android": "https://dc.lft.to/lastmile_qr_scan", "ios": "https://dc.lft.to/lastmile_qr_scan"}, "fusion_lon": 0.0}, {"lat": 38.89329866666667, "is_disabled": 0, "type": "electric_scooter", "lon": -76.92991933333333, "bike_id": "a3e5da2cdc0c1a12117c8bc101447f69", "fusion_lat": 0.0, "name": "a3e5da2cdc0c1a12117c8bc101447f69", "is_reserved": 0, "rental_uris": {"android": "https://dc.lft.to/lastmile_qr_scan", "ios": "https://dc.lft.to/lastmile_qr_scan"}, "fusion_lon": 0.0}, {"lat": 38.938644, "is_disabled": 0, "type": "electric_scooter", "lon": -77.02647333333333, "bike_id": "f51b8feff08c9ccc9570fd1fced3b56f", "fusion_lat": 0.0, "name": "f51b8feff08c9ccc9570fd1fced3b56f", "is_reserved": 0, "rental_uris": {"android": "https://dc.lft.to/lastmile_qr_scan", "ios": "https://dc.lft.to/lastmile_qr_scan"}, "fusion_lon": 0.0}, {"lat": 38.90760066666667, "is_disabled": 0, "type": "electric_scooter", "lon": -77.00391966666666, "bike_id": "8e44c52041ded8f1be7bb3c21ed86e20", "fusion_lat": 0.0, "name": "8e44c52041ded8f1be7bb3c21ed86e20", "is_reserved": 0, "rental_uris": {"android": "https://dc.lft.to/lastmile_qr_scan", "ios": "https://dc.lft.to/lastmile_qr_scan"}, "fusion_lon": 0.0}, {"lat": 38.91815483333333, "is_disabled": 0, "type": "electric_scooter", "lon": -77.03166033333333, "bike_id": "3c0c410092ebfbd1e444cd5f597e51c7", "fusion_lat": 0.0, "name": "3c0c410092ebfbd1e444cd5f597e51c7", "is_reserved": 0, "rental_uris": {"android": "https://dc.lft.to/lastmile_qr_scan", "ios": "https://dc.lft.to/lastmile_qr_scan"}, "fusion_lon": 0.0}, {"lat": 38.898214, "is_disabled": 0, "type": "electric_scooter", "lon": -77.04351816666667, "bike_id": "e31ee76d1420f1485aceb400ff04bad3", "fusion_lat": 0.0, "name": "e31ee76d1420f1485aceb400ff04bad3", "is_reserved": 0, "rental_uris": {"android": "https://dc.lft.to/lastmile_qr_scan", "ios": "https://dc.lft.to/lastmile_qr_scan"}, "fusion_lon": 0.0}, {"lat": 38.876295, "is_disabled": 0, "type": "electric_scooter", "lon": -76.96524066666667, "bike_id": "bd1bc3c83151a8bd045cc9e12870a8f0", "fusion_lat": 0.0, "name": "bd1bc3c83151a8bd045cc9e12870a8f0", "is_reserved": 0, "rental_uris": {"android": "https://dc.lft.to/lastmile_qr_scan", "ios": "https://dc.lft.to/lastmile_qr_scan"}, "fusion_lon": 0.0}, {"lat": 38.905673666666665, "is_disabled": 0, "type": "electric_scooter", "lon": -77.02800383333333, "bike_id": "9335c61619ecc2cc5ebf16fa68b5f090", "fusion_lat": 0.0, "name": "9335c61619ecc2cc5ebf16fa68b5f090", "is_reserved": 0, "rental_uris": {"android": "https://dc.lft.to/lastmile_qr_scan", "ios": "https://dc.lft.to/lastmile_qr_scan"}, "fusion_lon": 0.0}, {"lat": 38.9171195, "is_disabled": 0, "type": "electric_scooter", "lon": -77.0349895, "bike_id": "d4f700728bfb56829e92b984e06e5420", "fusion_lat": 0.0, "name": "d4f700728bfb56829e92b984e06e5420", "is_reserved": 0, "rental_uris": {"android": "https://dc.lft.to/lastmile_qr_scan", "ios": "https://dc.lft.to/lastmile_qr_scan"}, "fusion_lon": 0.0}, {"lat": 38.896922333333336, "is_disabled": 0, "type": "electric_scooter", "lon": -77.02666783333333, "bike_id": "39615098570c83f2d86585456c28ea56", "fusion_lat": 0.0, "name": "39615098570c83f2d86585456c28ea56", "is_reserved": 0, "rental_uris": {"android": "https://dc.lft.to/lastmile_qr_scan", "ios": "https://dc.lft.to/lastmile_qr_scan"}, "fusion_lon": 0.0}, {"lat": 38.8962455, "is_disabled": 0, "type": "electric_scooter", "lon": -76.99849266666666, "bike_id": "715e6f04a3fcd779a55e276c7113dc7c", "fusion_lat": 0.0, "name": "715e6f04a3fcd779a55e276c7113dc7c", "is_reserved": 0, "rental_uris": {"android": "https://dc.lft.to/lastmile_qr_scan", "ios": "https://dc.lft.to/lastmile_qr_scan"}, "fusion_lon": 0.0}, {"lat": 38.927375833333336, "is_disabled": 0, "type": "electric_scooter", "lon": -77.024151, "bike_id": "b5613ee5ac06e0c8211f6b11a0bbca13", "fusion_lat": 0.0, "name": "b5613ee5ac06e0c8211f6b11a0bbca13", "is_reserved": 0, "rental_uris": {"android": "https://dc.lft.to/lastmile_qr_scan", "ios": "https://dc.lft.to/lastmile_qr_scan"}, "fusion_lon": 0.0}, {"lat": 38.90229816666667, "is_disabled": 0, "type": "electric_scooter", "lon": -77.060269, "bike_id": "b2d963c1860d09720b3cf39531608216", "fusion_lat": 0.0, "name": "b2d963c1860d09720b3cf39531608216", "is_reserved": 0, "rental_uris": {"android": "https://dc.lft.to/lastmile_qr_scan", "ios": "https://dc.lft.to/lastmile_qr_scan"}, "fusion_lon": 0.0}, {"lat": 38.92358316666667, "is_disabled": 0, "type": "electric_scooter", "lon": -77.0414825, "bike_id": "fa60fb7a476ef8837aef6881dfa0d85a", "fusion_lat": 0.0, "name": "fa60fb7a476ef8837aef6881dfa0d85a", "is_reserved": 0, "rental_uris": {"android": "https://dc.lft.to/lastmile_qr_scan", "ios": "https://dc.lft.to/lastmile_qr_scan"}, "fusion_lon": 0.0}, {"lat": 38.900084166666666, "is_disabled": 0, "type": "electric_scooter", "lon": -77.00025216666667, "bike_id": "e12b179cc46b852923f6fa190a6873f1", "fusion_lat": 0.0, "name": "e12b179cc46b852923f6fa190a6873f1", "is_reserved": 0, "rental_uris": {"android": "https://dc.lft.to/lastmile_qr_scan", "ios": "https://dc.lft.to/lastmile_qr_scan"}, "fusion_lon": 0.0}, {"lat": 38.915623, "is_disabled": 0, "type": "electric_scooter", "lon": -77.02416816666667, "bike_id": "fe0947ac0227046e21e999fe75757f4c", "fusion_lat": 0.0, "name": "fe0947ac0227046e21e999fe75757f4c", "is_reserved": 0, "rental_uris": {"android": "https://dc.lft.to/lastmile_qr_scan", "ios": "https://dc.lft.to/lastmile_qr_scan"}, "fusion_lon": 0.0}, {"lat": 38.8709065, "is_disabled": 0, "type": "electric_scooter", "lon": -77.01208783333334, "bike_id": "dd3c028debadcad85b5a637636e6f0c3", "fusion_lat": 0.0, "name": "dd3c028debadcad85b5a637636e6f0c3", "is_reserved": 0, "rental_uris": {"android": "https://dc.lft.to/lastmile_qr_scan", "ios": "https://dc.lft.to/lastmile_qr_scan"}, "fusion_lon": 0.0}, {"lat": 38.92470866666667, "is_disabled": 0, "type": "electric_scooter", "lon": -77.03972416666667, "bike_id": "45b66af2de7b3935a6be0905ef159e2a", "fusion_lat": 0.0, "name": "45b66af2de7b3935a6be0905ef159e2a", "is_reserved": 0, "rental_uris": {"android": "https://dc.lft.to/lastmile_qr_scan", "ios": "https://dc.lft.to/lastmile_qr_scan"}, "fusion_lon": 0.0}, {"lat": 38.898430833333336, "is_disabled": 0, "type": "electric_scooter", "lon": -77.02337333333334, "bike_id": "acc4a4f62a4b0a5d064cf87d0ddf3e64", "fusion_lat": 0.0, "name": "acc4a4f62a4b0a5d064cf87d0ddf3e64", "is_reserved": 0, "rental_uris": {"android": "https://dc.lft.to/lastmile_qr_scan", "ios": "https://dc.lft.to/lastmile_qr_scan"}, "fusion_lon": 0.0}, {"lat": 38.95729016666667, "is_disabled": 0, "type": "electric_scooter", "lon": -77.02402466666666, "bike_id": "58cf9f3c3a2c337e3a0008e4400c9210", "fusion_lat": 0.0, "name": "58cf9f3c3a2c337e3a0008e4400c9210", "is_reserved": 0, "rental_uris": {"android": "https://dc.lft.to/lastmile_qr_scan", "ios": "https://dc.lft.to/lastmile_qr_scan"}, "fusion_lon": 0.0}, {"lat": 38.89745716666667, "is_disabled": 0, "type": "electric_scooter", "lon": -77.04670316666666, "bike_id": "b67ad6b719670631673a809695d95fba", "fusion_lat": 0.0, "name": "b67ad6b719670631673a809695d95fba", "is_reserved": 0, "rental_uris": {"android": "https://dc.lft.to/lastmile_qr_scan", "ios": "https://dc.lft.to/lastmile_qr_scan"}, "fusion_lon": 0.0}, {"lat": 38.946321, "is_disabled": 0, "type": "electric_scooter", "lon": -77.02523, "bike_id": "b97ca59a27993c78f3fd1a51ad30a2d1", "fusion_lat": 0.0, "name": "b97ca59a27993c78f3fd1a51ad30a2d1", "is_reserved": 0, "rental_uris": {"android": "https://dc.lft.to/lastmile_qr_scan", "ios": "https://dc.lft.to/lastmile_qr_scan"}, "fusion_lon": 0.0}, {"lat": 38.88182616666667, "is_disabled": 0, "type": "electric_scooter", "lon": -77.03575083333334, "bike_id": "59091b42852bbbd7609f5770fcd19c23", "fusion_lat": 0.0, "name": "59091b42852bbbd7609f5770fcd19c23", "is_reserved": 0, "rental_uris": {"android": "https://dc.lft.to/lastmile_qr_scan", "ios": "https://dc.lft.to/lastmile_qr_scan"}, "fusion_lon": 0.0}, {"lat": 38.805015, "is_disabled": 0, "type": "electric_bike", "lon": -77.04139033333334, "bike_id": "9111c0804b3a822c6ff5914466e59a56", "fusion_lat": 0.0, "name": "9111c0804b3a822c6ff5914466e59a56", "is_reserved": 0, "rental_uris": {"android": "https://dc.lft.to/lastmile_qr_scan", "ios": "https://dc.lft.to/lastmile_qr_scan"}, "fusion_lon": 0.0}, {"lat": 38.91814016666667, "is_disabled": 0, "type": "electric_scooter", "lon": -77.0307085, "bike_id": "7409d21f22ad58a149dc3a9d1ecc1ad5", "fusion_lat": 0.0, "name": "7409d21f22ad58a149dc3a9d1ecc1ad5", "is_reserved": 0, "rental_uris": {"android": "https://dc.lft.to/lastmile_qr_scan", "ios": "https://dc.lft.to/lastmile_qr_scan"}, "fusion_lon": 0.0}, {"lat": 38.917010833333336, "is_disabled": 0, "type": "electric_scooter", "lon": -77.01106066666667, "bike_id": "d0408d075fb1fd06cf896677efdeb497", "fusion_lat": 0.0, "name": "d0408d075fb1fd06cf896677efdeb497", "is_reserved": 0, "rental_uris": {"android": "https://dc.lft.to/lastmile_qr_scan", "ios": "https://dc.lft.to/lastmile_qr_scan"}, "fusion_lon": 0.0}, {"lat": 38.86622783333333, "is_disabled": 0, "type": "electric_scooter", "lon": -76.98642166666667, "bike_id": "8d6015a8c330808680fb155f923e32a2", "fusion_lat": 0.0, "name": "8d6015a8c330808680fb155f923e32a2", "is_reserved": 0, "rental_uris": {"android": "https://dc.lft.to/lastmile_qr_scan", "ios": "https://dc.lft.to/lastmile_qr_scan"}, "fusion_lon": 0.0}, {"lat": 38.906442166666665, "is_disabled": 0, "type": "electric_scooter", "lon": -76.99022816666667, "bike_id": "43dd4e06aedae2e868a22d2567f66ae6", "fusion_lat": 0.0, "name": "43dd4e06aedae2e868a22d2567f66ae6", "is_reserved": 0, "rental_uris": {"android": "https://dc.lft.to/lastmile_qr_scan", "ios": "https://dc.lft.to/lastmile_qr_scan"}, "fusion_lon": 0.0}, {"lat": 38.933403, "is_disabled": 0, "type": "electric_scooter", "lon": -76.993025, "bike_id": "cc52e5e9f94329ee64ade373b17f9a25", "fusion_lat": 0.0, "name": "cc52e5e9f94329ee64ade373b17f9a25", "is_reserved": 0, "rental_uris": {"android": "https://dc.lft.to/lastmile_qr_scan", "ios": "https://dc.lft.to/lastmile_qr_scan"}, "fusion_lon": 0.0}, {"lat": 38.915500333333334, "is_disabled": 0, "type": "electric_scooter", "lon": -77.01232616666667, "bike_id": "814c46c2f7b6d2634a85817f5cad99ee", "fusion_lat": 0.0, "name": "814c46c2f7b6d2634a85817f5cad99ee", "is_reserved": 0, "rental_uris": {"android": "https://dc.lft.to/lastmile_qr_scan", "ios": "https://dc.lft.to/lastmile_qr_scan"}, "fusion_lon": 0.0}, {"lat": 38.87687183333333, "is_disabled": 0, "type": "electric_scooter", "lon": -77.00417233333333, "bike_id": "3ed5308399c745efd08e7f08d1979d32", "fusion_lat": 0.0, "name": "3ed5308399c745efd08e7f08d1979d32", "is_reserved": 0, "rental_uris": {"android": "https://dc.lft.to/lastmile_qr_scan", "ios": "https://dc.lft.to/lastmile_qr_scan"}, "fusion_lon": 0.0}, {"lat": 38.8520755, "is_disabled": 0, "type": "electric_bike", "lon": -76.995788, "bike_id": "147d1011fd7a750dc8a2a04ed46b8b10", "fusion_lat": 0.0, "name": "147d1011fd7a750dc8a2a04ed46b8b10", "is_reserved": 0, "rental_uris": {"android": "https://dc.lft.to/lastmile_qr_scan", "ios": "https://dc.lft.to/lastmile_qr_scan"}, "fusion_lon": 0.0}, {"lat": 38.8442235, "is_disabled": 0, "type": "electric_scooter", "lon": -76.99776616666666, "bike_id": "1e72ee063a1c30045a5f5e53a0641998", "fusion_lat": 0.0, "name": "1e72ee063a1c30045a5f5e53a0641998", "is_reserved": 0, "rental_uris": {"android": "https://dc.lft.to/lastmile_qr_scan", "ios": "https://dc.lft.to/lastmile_qr_scan"}, "fusion_lon": 0.0}, {"lat": 38.953312833333335, "is_disabled": 0, "type": "electric_bike", "lon": -76.98819166666667, "bike_id": "53b9fe1fce982dbb2a5c7ca3547bbd5d", "fusion_lat": 0.0, "name": "53b9fe1fce982dbb2a5c7ca3547bbd5d", "is_reserved": 0, "rental_uris": {"android": "https://dc.lft.to/lastmile_qr_scan", "ios": "https://dc.lft.to/lastmile_qr_scan"}, "fusion_lon": 0.0}, {"lat": 38.92044766666667, "is_disabled": 0, "type": "electric_scooter", "lon": -77.04198983333333, "bike_id": "ae0f67160f91579d6d96320c89a47016", "fusion_lat": 0.0, "name": "ae0f67160f91579d6d96320c89a47016", "is_reserved": 0, "rental_uris": {"android": "https://dc.lft.to/lastmile_qr_scan", "ios": "https://dc.lft.to/lastmile_qr_scan"}, "fusion_lon": 0.0}, {"lat": 38.93226083333333, "is_disabled": 0, "type": "electric_scooter", "lon": -77.023796, "bike_id": "0ca859c9d2e69a2e30e5c852958e7f5b", "fusion_lat": 0.0, "name": "0ca859c9d2e69a2e30e5c852958e7f5b", "is_reserved": 0, "rental_uris": {"android": "https://dc.lft.to/lastmile_qr_scan", "ios": "https://dc.lft.to/lastmile_qr_scan"}, "fusion_lon": 0.0}, {"lat": 38.9311315, "is_disabled": 0, "type": "electric_scooter", "lon": -77.02088283333333, "bike_id": "841d035f7c45d586dae7569f1db83997", "fusion_lat": 0.0, "name": "841d035f7c45d586dae7569f1db83997", "is_reserved": 0, "rental_uris": {"android": "https://dc.lft.to/lastmile_qr_scan", "ios": "https://dc.lft.to/lastmile_qr_scan"}, "fusion_lon": 0.0}, {"lat": 38.9141685, "is_disabled": 0, "type": "electric_scooter", "lon": -77.03165083333333, "bike_id": "d9d9b8faceb10f78f1301683d9f70400", "fusion_lat": 0.0, "name": "d9d9b8faceb10f78f1301683d9f70400", "is_reserved": 0, "rental_uris": {"android": "https://dc.lft.to/lastmile_qr_scan", "ios": "https://dc.lft.to/lastmile_qr_scan"}, "fusion_lon": 0.0}, {"lat": 38.885250666666664, "is_disabled": 0, "type": "electric_scooter", "lon": -77.01133833333333, "bike_id": "a94fa3a3275748b176f0c2ac4d7155e1", "fusion_lat": 0.0, "name": "a94fa3a3275748b176f0c2ac4d7155e1", "is_reserved": 0, "rental_uris": {"android": "https://dc.lft.to/lastmile_qr_scan", "ios": "https://dc.lft.to/lastmile_qr_scan"}, "fusion_lon": 0.0}, {"lat": 38.941236833333335, "is_disabled": 0, "type": "electric_scooter", "lon": -77.00075466666667, "bike_id": "d9bcde788c1be57aa9ed6a47c677df4e", "fusion_lat": 0.0, "name": "d9bcde788c1be57aa9ed6a47c677df4e", "is_reserved": 0, "rental_uris": {"android": "https://dc.lft.to/lastmile_qr_scan", "ios": "https://dc.lft.to/lastmile_qr_scan"}, "fusion_lon": 0.0}, {"lat": 38.90367766666667, "is_disabled": 0, "type": "electric_scooter", "lon": -77.00345816666666, "bike_id": "747516071126115ee62e57d3f8cf1cd0", "fusion_lat": 0.0, "name": "747516071126115ee62e57d3f8cf1cd0", "is_reserved": 0, "rental_uris": {"android": "https://dc.lft.to/lastmile_qr_scan", "ios": "https://dc.lft.to/lastmile_qr_scan"}, "fusion_lon": 0.0}, {"lat": 38.93414933333333, "is_disabled": 0, "type": "electric_scooter", "lon": -77.03286633333333, "bike_id": "f3842723b71e4aeecc577216c474c062", "fusion_lat": 0.0, "name": "f3842723b71e4aeecc577216c474c062", "is_reserved": 0, "rental_uris": {"android": "https://dc.lft.to/lastmile_qr_scan", "ios": "https://dc.lft.to/lastmile_qr_scan"}, "fusion_lon": 0.0}, {"lat": 38.92620516666667, "is_disabled": 0, "type": "electric_scooter", "lon": -77.03785116666667, "bike_id": "87f0a8b6b147e045f22b82d9a7270096", "fusion_lat": 0.0, "name": "87f0a8b6b147e045f22b82d9a7270096", "is_reserved": 0, "rental_uris": {"android": "https://dc.lft.to/lastmile_qr_scan", "ios": "https://dc.lft.to/lastmile_qr_scan"}, "fusion_lon": 0.0}, {"lat": 38.9589195, "is_disabled": 0, "type": "electric_bike", "lon": -76.924855, "bike_id": "a51fb32bc4007a513d67cc117ed43d21", "fusion_lat": 0.0, "name": "a51fb32bc4007a513d67cc117ed43d21", "is_reserved": 0, "rental_uris": {"android": "https://dc.lft.to/lastmile_qr_scan", "ios": "https://dc.lft.to/lastmile_qr_scan"}, "fusion_lon": 0.0}, {"lat": 38.90259733333333, "is_disabled": 0, "type": "electric_scooter", "lon": -77.034742, "bike_id": "d9273dfa9b4a2f7e58f689c30582fddf", "fusion_lat": 0.0, "name": "d9273dfa9b4a2f7e58f689c30582fddf", "is_reserved": 0, "rental_uris": {"android": "https://dc.lft.to/lastmile_qr_scan", "ios": "https://dc.lft.to/lastmile_qr_scan"}, "fusion_lon": 0.0}, {"lat": 38.91682766666667, "is_disabled": 0, "type": "electric_scooter", "lon": -77.00196216666667, "bike_id": "c74ee17bd13d0446aad1b0791c8f4146", "fusion_lat": 0.0, "name": "c74ee17bd13d0446aad1b0791c8f4146", "is_reserved": 0, "rental_uris": {"android": "https://dc.lft.to/lastmile_qr_scan", "ios": "https://dc.lft.to/lastmile_qr_scan"}, "fusion_lon": 0.0}, {"lat": 38.90616966666666, "is_disabled": 0, "type": "electric_scooter", "lon": -77.062891, "bike_id": "f862fb025b72b21a196167bb67b3c115", "fusion_lat": 0.0, "name": "f862fb025b72b21a196167bb67b3c115", "is_reserved": 0, "rental_uris": {"android": "https://dc.lft.to/lastmile_qr_scan", "ios": "https://dc.lft.to/lastmile_qr_scan"}, "fusion_lon": 0.0}, {"lat": 38.924854833333335, "is_disabled": 0, "type": "electric_scooter", "lon": -77.0306215, "bike_id": "4ebb5b5aab997d36075a00b03989fbf9", "fusion_lat": 0.0, "name": "4ebb5b5aab997d36075a00b03989fbf9", "is_reserved": 0, "rental_uris": {"android": "https://dc.lft.to/lastmile_qr_scan", "ios": "https://dc.lft.to/lastmile_qr_scan"}, "fusion_lon": 0.0}, {"lat": 38.988239666666665, "is_disabled": 0, "type": "electric_bike", "lon": -76.99647266666666, "bike_id": "738d3bb625dc3455f2769ad5d0e2f2a0", "fusion_lat": 0.0, "name": "738d3bb625dc3455f2769ad5d0e2f2a0", "is_reserved": 0, "rental_uris": {"android": "https://dc.lft.to/lastmile_qr_scan", "ios": "https://dc.lft.to/lastmile_qr_scan"}, "fusion_lon": 0.0}, {"lat": 38.88361966666667, "is_disabled": 0, "type": "electric_scooter", "lon": -76.9415245, "bike_id": "3b4728120b83630f28341580871309dc", "fusion_lat": 0.0, "name": "3b4728120b83630f28341580871309dc", "is_reserved": 0, "rental_uris": {"android": "https://dc.lft.to/lastmile_qr_scan", "ios": "https://dc.lft.to/lastmile_qr_scan"}, "fusion_lon": 0.0}, {"lat": 38.91767733333333, "is_disabled": 0, "type": "electric_scooter", "lon": -76.9762545, "bike_id": "0883e5f332686f7a2aa7666387a4875b", "fusion_lat": 0.0, "name": "0883e5f332686f7a2aa7666387a4875b", "is_reserved": 0, "rental_uris": {"android": "https://dc.lft.to/lastmile_qr_scan", "ios": "https://dc.lft.to/lastmile_qr_scan"}, "fusion_lon": 0.0}, {"lat": 38.9195, "is_disabled": 0, "type": "electric_scooter", "lon": -77.02492866666667, "bike_id": "217b16b3309a5ced12104a65ee218a35", "fusion_lat": 0.0, "name": "217b16b3309a5ced12104a65ee218a35", "is_reserved": 0, "rental_uris": {"android": "https://dc.lft.to/lastmile_qr_scan", "ios": "https://dc.lft.to/lastmile_qr_scan"}, "fusion_lon": 0.0}, {"lat": 38.897757, "is_disabled": 0, "type": "electric_scooter", "lon": -77.0515085, "bike_id": "bd921b227b5233e3286eb0a14d8781fd", "fusion_lat": 0.0, "name": "bd921b227b5233e3286eb0a14d8781fd", "is_reserved": 0, "rental_uris": {"android": "https://dc.lft.to/lastmile_qr_scan", "ios": "https://dc.lft.to/lastmile_qr_scan"}, "fusion_lon": 0.0}, {"lat": 38.8665085, "is_disabled": 0, "type": "electric_scooter", "lon": -76.988866, "bike_id": "6fcf72adfee712c44fe065cd7465de78", "fusion_lat": 0.0, "name": "6fcf72adfee712c44fe065cd7465de78", "is_reserved": 0, "rental_uris": {"android": "https://dc.lft.to/lastmile_qr_scan", "ios": "https://dc.lft.to/lastmile_qr_scan"}, "fusion_lon": 0.0}, {"lat": 38.90519116666667, "is_disabled": 0, "type": "electric_scooter", "lon": -77.03890683333333, "bike_id": "1c6a216cc85029eec7a97438aad55ea8", "fusion_lat": 0.0, "name": "1c6a216cc85029eec7a97438aad55ea8", "is_reserved": 0, "rental_uris": {"android": "https://dc.lft.to/lastmile_qr_scan", "ios": "https://dc.lft.to/lastmile_qr_scan"}, "fusion_lon": 0.0}, {"lat": 38.923032166666665, "is_disabled": 0, "type": "electric_scooter", "lon": -77.03965033333333, "bike_id": "29c9401ea217439bb999c710f8fd9028", "fusion_lat": 0.0, "name": "29c9401ea217439bb999c710f8fd9028", "is_reserved": 0, "rental_uris": {"android": "https://dc.lft.to/lastmile_qr_scan", "ios": "https://dc.lft.to/lastmile_qr_scan"}, "fusion_lon": 0.0}, {"lat": 38.9135865, "is_disabled": 0, "type": "electric_scooter", "lon": -77.069234, "bike_id": "45d25a8601513ece671ece5f7bea25b6", "fusion_lat": 0.0, "name": "45d25a8601513ece671ece5f7bea25b6", "is_reserved": 0, "rental_uris": {"android": "https://dc.lft.to/lastmile_qr_scan", "ios": "https://dc.lft.to/lastmile_qr_scan"}, "fusion_lon": 0.0}, {"lat": 38.88996383333333, "is_disabled": 0, "type": "electric_scooter", "lon": -76.95565316666666, "bike_id": "93afd8d8b03ba7bd604cad8dbd13f39a", "fusion_lat": 0.0, "name": "93afd8d8b03ba7bd604cad8dbd13f39a", "is_reserved": 0, "rental_uris": {"android": "https://dc.lft.to/lastmile_qr_scan", "ios": "https://dc.lft.to/lastmile_qr_scan"}, "fusion_lon": 0.0}, {"lat": 38.892238666666664, "is_disabled": 0, "type": "electric_scooter", "lon": -77.04801283333333, "bike_id": "efe75ec37ce8f575409ac5d9fdcbc96f", "fusion_lat": 0.0, "name": "efe75ec37ce8f575409ac5d9fdcbc96f", "is_reserved": 0, "rental_uris": {"android": "https://dc.lft.to/lastmile_qr_scan", "ios": "https://dc.lft.to/lastmile_qr_scan"}, "fusion_lon": 0.0}, {"lat": 38.982284666666665, "is_disabled": 0, "type": "electric_bike", "lon": -77.0260035, "bike_id": "483e419563440595309028ec078e5cce", "fusion_lat": 0.0, "name": "483e419563440595309028ec078e5cce", "is_reserved": 0, "rental_uris": {"android": "https://dc.lft.to/lastmile_qr_scan", "ios": "https://dc.lft.to/lastmile_qr_scan"}, "fusion_lon": 0.0}, {"lat": 38.886906833333335, "is_disabled": 0, "type": "electric_scooter", "lon": -77.01764966666667, "bike_id": "4588c80b829273d6af4f13b24e14819b", "fusion_lat": 0.0, "name": "4588c80b829273d6af4f13b24e14819b", "is_reserved": 0, "rental_uris": {"android": "https://dc.lft.to/lastmile_qr_scan", "ios": "https://dc.lft.to/lastmile_qr_scan"}, "fusion_lon": 0.0}, {"lat": 38.934112666666664, "is_disabled": 0, "type": "electric_scooter", "lon": -77.02462883333334, "bike_id": "f9a8e5a6c2278e86574a473704dc26fa", "fusion_lat": 0.0, "name": "f9a8e5a6c2278e86574a473704dc26fa", "is_reserved": 0, "rental_uris": {"android": "https://dc.lft.to/lastmile_qr_scan", "ios": "https://dc.lft.to/lastmile_qr_scan"}, "fusion_lon": 0.0}, {"lat": 38.84271366666667, "is_disabled": 0, "type": "electric_bike", "lon": -76.98841816666666, "bike_id": "5f36860e3d21af64741963c6e3e91b85", "fusion_lat": 0.0, "name": "5f36860e3d21af64741963c6e3e91b85", "is_reserved": 0, "rental_uris": {"android": "https://dc.lft.to/lastmile_qr_scan", "ios": "https://dc.lft.to/lastmile_qr_scan"}, "fusion_lon": 0.0}, {"lat": 38.89969216666667, "is_disabled": 0, "type": "electric_scooter", "lon": -77.0249405, "bike_id": "bfadbccd37b5ce8228558ef0febe4195", "fusion_lat": 0.0, "name": "bfadbccd37b5ce8228558ef0febe4195", "is_reserved": 0, "rental_uris": {"android": "https://dc.lft.to/lastmile_qr_scan", "ios": "https://dc.lft.to/lastmile_qr_scan"}, "fusion_lon": 0.0}, {"lat": 38.902327, "is_disabled": 0, "type": "electric_scooter", "lon": -77.00203433333333, "bike_id": "2570ec99c9ad8bb571a258cc5b57dfed", "fusion_lat": 0.0, "name": "2570ec99c9ad8bb571a258cc5b57dfed", "is_reserved": 0, "rental_uris": {"android": "https://dc.lft.to/lastmile_qr_scan", "ios": "https://dc.lft.to/lastmile_qr_scan"}, "fusion_lon": 0.0}, {"lat": 38.8372175, "is_disabled": 0, "type": "electric_bike", "lon": -76.99766633333333, "bike_id": "cc20cdb878afc2ce43f3c4cec2fa4e69", "fusion_lat": 0.0, "name": "cc20cdb878afc2ce43f3c4cec2fa4e69", "is_reserved": 0, "rental_uris": {"android": "https://dc.lft.to/lastmile_qr_scan", "ios": "https://dc.lft.to/lastmile_qr_scan"}, "fusion_lon": 0.0}, {"lat": 38.85683366666667, "is_disabled": 0, "type": "electric_scooter", "lon": -76.98161883333333, "bike_id": "3027ba8efa820d5666c6d8adeb1f0021", "fusion_lat": 0.0, "name": "3027ba8efa820d5666c6d8adeb1f0021", "is_reserved": 0, "rental_uris": {"android": "https://dc.lft.to/lastmile_qr_scan", "ios": "https://dc.lft.to/lastmile_qr_scan"}, "fusion_lon": 0.0}, {"lat": 38.9111335, "is_disabled": 0, "type": "electric_scooter", "lon": -77.04499366666667, "bike_id": "def1d9d328cab4b283d91ca82f479bb4", "fusion_lat": 0.0, "name": "def1d9d328cab4b283d91ca82f479bb4", "is_reserved": 0, "rental_uris": {"android": "https://dc.lft.to/lastmile_qr_scan", "ios": "https://dc.lft.to/lastmile_qr_scan"}, "fusion_lon": 0.0}, {"lat": 38.91720433333333, "is_disabled": 0, "type": "electric_scooter", "lon": -77.03057533333333, "bike_id": "ca5d397ec365af4d27c056e210796a51", "fusion_lat": 0.0, "name": "ca5d397ec365af4d27c056e210796a51", "is_reserved": 0, "rental_uris": {"android": "https://dc.lft.to/lastmile_qr_scan", "ios": "https://dc.lft.to/lastmile_qr_scan"}, "fusion_lon": 0.0}, {"lat": 38.91998133333333, "is_disabled": 0, "type": "electric_scooter", "lon": -76.99291683333334, "bike_id": "e4bcd3c9f26d22b74fb543b1ea354a23", "fusion_lat": 0.0, "name": "e4bcd3c9f26d22b74fb543b1ea354a23", "is_reserved": 0, "rental_uris": {"android": "https://dc.lft.to/lastmile_qr_scan", "ios": "https://dc.lft.to/lastmile_qr_scan"}, "fusion_lon": 0.0}, {"lat": 38.918679, "is_disabled": 0, "type": "electric_scooter", "lon": -77.044741, "bike_id": "f74c0d34d43e33cc6a3c0f01c3885527", "fusion_lat": 0.0, "name": "f74c0d34d43e33cc6a3c0f01c3885527", "is_reserved": 0, "rental_uris": {"android": "https://dc.lft.to/lastmile_qr_scan", "ios": "https://dc.lft.to/lastmile_qr_scan"}, "fusion_lon": 0.0}, {"lat": 38.90379983333333, "is_disabled": 0, "type": "electric_scooter", "lon": -77.0087845, "bike_id": "eacf5682d8feacfd478b0f57fc8ae4d5", "fusion_lat": 0.0, "name": "eacf5682d8feacfd478b0f57fc8ae4d5", "is_reserved": 0, "rental_uris": {"android": "https://dc.lft.to/lastmile_qr_scan", "ios": "https://dc.lft.to/lastmile_qr_scan"}, "fusion_lon": 0.0}, {"lat": 38.90840033333333, "is_disabled": 0, "type": "electric_scooter", "lon": -77.00109966666666, "bike_id": "e20d8f69e603612bf8bc0b2b0f317b8a", "fusion_lat": 0.0, "name": "e20d8f69e603612bf8bc0b2b0f317b8a", "is_reserved": 0, "rental_uris": {"android": "https://dc.lft.to/lastmile_qr_scan", "ios": "https://dc.lft.to/lastmile_qr_scan"}, "fusion_lon": 0.0}, {"lat": 38.9449685, "is_disabled": 0, "type": "electric_bike", "lon": -77.00679816666667, "bike_id": "0dd03a3dffb4081e0a73a17485586f83", "fusion_lat": 0.0, "name": "0dd03a3dffb4081e0a73a17485586f83", "is_reserved": 0, "rental_uris": {"android": "https://dc.lft.to/lastmile_qr_scan", "ios": "https://dc.lft.to/lastmile_qr_scan"}, "fusion_lon": 0.0}, {"lat": 38.886935, "is_disabled": 0, "type": "electric_scooter", "lon": -76.993809, "bike_id": "d5de2b61a1164bf470ae5f8b6b8663d9", "fusion_lat": 0.0, "name": "d5de2b61a1164bf470ae5f8b6b8663d9", "is_reserved": 0, "rental_uris": {"android": "https://dc.lft.to/lastmile_qr_scan", "ios": "https://dc.lft.to/lastmile_qr_scan"}, "fusion_lon": 0.0}, {"lat": 38.9038, "is_disabled": 0, "type": "electric_scooter", "lon": -77.00879483333334, "bike_id": "533b71e0c1a6d573049e737eff562438", "fusion_lat": 0.0, "name": "533b71e0c1a6d573049e737eff562438", "is_reserved": 0, "rental_uris": {"android": "https://dc.lft.to/lastmile_qr_scan", "ios": "https://dc.lft.to/lastmile_qr_scan"}, "fusion_lon": 0.0}, {"lat": 38.871483833333336, "is_disabled": 0, "type": "electric_bike", "lon": -76.93666933333333, "bike_id": "3b91a14e6edcd2c8c3465c4a72500599", "fusion_lat": 0.0, "name": "3b91a14e6edcd2c8c3465c4a72500599", "is_reserved": 0, "rental_uris": {"android": "https://dc.lft.to/lastmile_qr_scan", "ios": "https://dc.lft.to/lastmile_qr_scan"}, "fusion_lon": 0.0}, {"lat": 38.910516, "is_disabled": 0, "type": "electric_scooter", "lon": -77.00818466666666, "bike_id": "e0af386eae263c23b4a2a41f3ac1f815", "fusion_lat": 0.0, "name": "e0af386eae263c23b4a2a41f3ac1f815", "is_reserved": 0, "rental_uris": {"android": "https://dc.lft.to/lastmile_qr_scan", "ios": "https://dc.lft.to/lastmile_qr_scan"}, "fusion_lon": 0.0}, {"lat": 38.94137083333333, "is_disabled": 0, "type": "electric_scooter", "lon": -77.0761765, "bike_id": "0093e00bfebd4a1a073f3ef69aef817b", "fusion_lat": 0.0, "name": "0093e00bfebd4a1a073f3ef69aef817b", "is_reserved": 0, "rental_uris": {"android": "https://dc.lft.to/lastmile_qr_scan", "ios": "https://dc.lft.to/lastmile_qr_scan"}, "fusion_lon": 0.0}, {"lat": 38.9662345, "is_disabled": 0, "type": "electric_bike", "lon": -76.976643, "bike_id": "4fa371439992ea7a78b27e1516b8703f", "fusion_lat": 0.0, "name": "4fa371439992ea7a78b27e1516b8703f", "is_reserved": 0, "rental_uris": {"android": "https://dc.lft.to/lastmile_qr_scan", "ios": "https://dc.lft.to/lastmile_qr_scan"}, "fusion_lon": 0.0}, {"lat": 38.934095166666665, "is_disabled": 0, "type": "electric_scooter", "lon": -77.02038033333334, "bike_id": "a882ffd5c556d02e2fd91cc139c2811c", "fusion_lat": 0.0, "name": "a882ffd5c556d02e2fd91cc139c2811c", "is_reserved": 0, "rental_uris": {"android": "https://dc.lft.to/lastmile_qr_scan", "ios": "https://dc.lft.to/lastmile_qr_scan"}, "fusion_lon": 0.0}, {"lat": 38.89478416666667, "is_disabled": 0, "type": "electric_scooter", "lon": -77.0562285, "bike_id": "2fccf2b7c5a4288b5f4ad71620586ee2", "fusion_lat": 0.0, "name": "2fccf2b7c5a4288b5f4ad71620586ee2", "is_reserved": 0, "rental_uris": {"android": "https://dc.lft.to/lastmile_qr_scan", "ios": "https://dc.lft.to/lastmile_qr_scan"}, "fusion_lon": 0.0}, {"lat": 38.93587483333334, "is_disabled": 0, "type": "electric_bike", "lon": -77.10679533333334, "bike_id": "2fb3449e0c3cbf7de0c6b656a34d9dc6", "fusion_lat": 0.0, "name": "2fb3449e0c3cbf7de0c6b656a34d9dc6", "is_reserved": 0, "rental_uris": {"android": "https://dc.lft.to/lastmile_qr_scan", "ios": "https://dc.lft.to/lastmile_qr_scan"}, "fusion_lon": 0.0}, {"lat": 38.92996183333333, "is_disabled": 0, "type": "electric_scooter", "lon": -77.03237633333333, "bike_id": "90d2e8cd046fb14ae9b8bc225c6e4b61", "fusion_lat": 0.0, "name": "90d2e8cd046fb14ae9b8bc225c6e4b61", "is_reserved": 0, "rental_uris": {"android": "https://dc.lft.to/lastmile_qr_scan", "ios": "https://dc.lft.to/lastmile_qr_scan"}, "fusion_lon": 0.0}, {"lat": 38.91983, "is_disabled": 0, "type": "electric_scooter", "lon": -77.04178716666667, "bike_id": "54dbf9b6a82bfaab14d9953621ac28ab", "fusion_lat": 0.0, "name": "54dbf9b6a82bfaab14d9953621ac28ab", "is_reserved": 0, "rental_uris": {"android": "https://dc.lft.to/lastmile_qr_scan", "ios": "https://dc.lft.to/lastmile_qr_scan"}, "fusion_lon": 0.0}, {"lat": 38.91635316666667, "is_disabled": 0, "type": "electric_scooter", "lon": -77.02697883333333, "bike_id": "89dd00007c0b5ff5b9812caae0a388ff", "fusion_lat": 0.0, "name": "89dd00007c0b5ff5b9812caae0a388ff", "is_reserved": 0, "rental_uris": {"android": "https://dc.lft.to/lastmile_qr_scan", "ios": "https://dc.lft.to/lastmile_qr_scan"}, "fusion_lon": 0.0}, {"lat": 38.9186485, "is_disabled": 0, "type": "electric_scooter", "lon": -77.04051516666667, "bike_id": "c204c15053ae53dd8ad4c9d569fb92a1", "fusion_lat": 0.0, "name": "c204c15053ae53dd8ad4c9d569fb92a1", "is_reserved": 0, "rental_uris": {"android": "https://dc.lft.to/lastmile_qr_scan", "ios": "https://dc.lft.to/lastmile_qr_scan"}, "fusion_lon": 0.0}, {"lat": 38.944270333333336, "is_disabled": 0, "type": "electric_scooter", "lon": -77.063133, "bike_id": "7d5efdd17cb7cbe202cd54f743022588", "fusion_lat": 0.0, "name": "7d5efdd17cb7cbe202cd54f743022588", "is_reserved": 0, "rental_uris": {"android": "https://dc.lft.to/lastmile_qr_scan", "ios": "https://dc.lft.to/lastmile_qr_scan"}, "fusion_lon": 0.0}, {"lat": 38.905673, "is_disabled": 0, "type": "electric_scooter", "lon": -77.0433225, "bike_id": "7caa5b16d49166c501962ab2ed38ad10", "fusion_lat": 0.0, "name": "7caa5b16d49166c501962ab2ed38ad10", "is_reserved": 0, "rental_uris": {"android": "https://dc.lft.to/lastmile_qr_scan", "ios": "https://dc.lft.to/lastmile_qr_scan"}, "fusion_lon": 0.0}, {"lat": 38.936817, "is_disabled": 0, "type": "electric_scooter", "lon": -77.02459316666666, "bike_id": "3a72bae054388bafc102045dc9a7c596", "fusion_lat": 0.0, "name": "3a72bae054388bafc102045dc9a7c596", "is_reserved": 0, "rental_uris": {"android": "https://dc.lft.to/lastmile_qr_scan", "ios": "https://dc.lft.to/lastmile_qr_scan"}, "fusion_lon": 0.0}, {"lat": 38.90997183333333, "is_disabled": 0, "type": "electric_scooter", "lon": -77.0400605, "bike_id": "769def491bcaa76d5e9477d4265300de", "fusion_lat": 0.0, "name": "769def491bcaa76d5e9477d4265300de", "is_reserved": 0, "rental_uris": {"android": "https://dc.lft.to/lastmile_qr_scan", "ios": "https://dc.lft.to/lastmile_qr_scan"}, "fusion_lon": 0.0}, {"lat": 38.9095265, "is_disabled": 0, "type": "electric_scooter", "lon": -77.0465565, "bike_id": "47991b3dcc6b0a9eccde4abe6c5f3315", "fusion_lat": 0.0, "name": "47991b3dcc6b0a9eccde4abe6c5f3315", "is_reserved": 0, "rental_uris": {"android": "https://dc.lft.to/lastmile_qr_scan", "ios": "https://dc.lft.to/lastmile_qr_scan"}, "fusion_lon": 0.0}, {"lat": 38.9001125, "is_disabled": 0, "type": "electric_scooter", "lon": -77.03295966666667, "bike_id": "a288101ab2cfbbd290432bee2ed58336", "fusion_lat": 0.0, "name": "a288101ab2cfbbd290432bee2ed58336", "is_reserved": 0, "rental_uris": {"android": "https://dc.lft.to/lastmile_qr_scan", "ios": "https://dc.lft.to/lastmile_qr_scan"}, "fusion_lon": 0.0}, {"lat": 38.9211235, "is_disabled": 0, "type": "electric_bike", "lon": -76.98571883333334, "bike_id": "d26a51dd0fdfa2f6ac1d3f09703dad1f", "fusion_lat": 0.0, "name": "d26a51dd0fdfa2f6ac1d3f09703dad1f", "is_reserved": 0, "rental_uris": {"android": "https://dc.lft.to/lastmile_qr_scan", "ios": "https://dc.lft.to/lastmile_qr_scan"}, "fusion_lon": 0.0}, {"lat": 38.858512166666664, "is_disabled": 0, "type": "electric_bike", "lon": -77.09753333333333, "bike_id": "f29152c355752a6664e0c00d3f5335d7", "fusion_lat": 0.0, "name": "f29152c355752a6664e0c00d3f5335d7", "is_reserved": 0, "rental_uris": {"android": "https://dc.lft.to/lastmile_qr_scan", "ios": "https://dc.lft.to/lastmile_qr_scan"}, "fusion_lon": 0.0}, {"lat": 38.91791516666667, "is_disabled": 0, "type": "electric_scooter", "lon": -77.03196083333333, "bike_id": "a61bbed01c80124c8548e8cc3ca89527", "fusion_lat": 0.0, "name": "a61bbed01c80124c8548e8cc3ca89527", "is_reserved": 0, "rental_uris": {"android": "https://dc.lft.to/lastmile_qr_scan", "ios": "https://dc.lft.to/lastmile_qr_scan"}, "fusion_lon": 0.0}, {"lat": 38.929158666666666, "is_disabled": 0, "type": "electric_scooter", "lon": -77.03192083333333, "bike_id": "4287d6a4334c91c6caeb022ea706071c", "fusion_lat": 0.0, "name": "4287d6a4334c91c6caeb022ea706071c", "is_reserved": 0, "rental_uris": {"android": "https://dc.lft.to/lastmile_qr_scan", "ios": "https://dc.lft.to/lastmile_qr_scan"}, "fusion_lon": 0.0}, {"lat": 38.958806, "is_disabled": 0, "type": "electric_bike", "lon": -76.924807, "bike_id": "576812456e6d7290c42863f1ba89af79", "fusion_lat": 0.0, "name": "576812456e6d7290c42863f1ba89af79", "is_reserved": 0, "rental_uris": {"android": "https://dc.lft.to/lastmile_qr_scan", "ios": "https://dc.lft.to/lastmile_qr_scan"}, "fusion_lon": 0.0}, {"lat": 38.940435, "is_disabled": 0, "type": "electric_bike", "lon": -77.0515825, "bike_id": "23b00bc71538232d66193016dd2c1854", "fusion_lat": 0.0, "name": "23b00bc71538232d66193016dd2c1854", "is_reserved": 0, "rental_uris": {"android": "https://dc.lft.to/lastmile_qr_scan", "ios": "https://dc.lft.to/lastmile_qr_scan"}, "fusion_lon": 0.0}, {"lat": 38.89046116666667, "is_disabled": 0, "type": "electric_scooter", "lon": -76.9407545, "bike_id": "864b27a904ab14edf82e9f00a8a4a4b5", "fusion_lat": 0.0, "name": "864b27a904ab14edf82e9f00a8a4a4b5", "is_reserved": 0, "rental_uris": {"android": "https://dc.lft.to/lastmile_qr_scan", "ios": "https://dc.lft.to/lastmile_qr_scan"}, "fusion_lon": 0.0}, {"lat": 38.917927666666664, "is_disabled": 0, "type": "electric_scooter", "lon": -77.044372, "bike_id": "e4e4691973b98e5dbef8df6f16f3e143", "fusion_lat": 0.0, "name": "e4e4691973b98e5dbef8df6f16f3e143", "is_reserved": 0, "rental_uris": {"android": "https://dc.lft.to/lastmile_qr_scan", "ios": "https://dc.lft.to/lastmile_qr_scan"}, "fusion_lon": 0.0}, {"lat": 38.902700833333334, "is_disabled": 0, "type": "electric_scooter", "lon": -77.03645466666667, "bike_id": "fc147a6428e4a6fa02ff7561bf71b618", "fusion_lat": 0.0, "name": "fc147a6428e4a6fa02ff7561bf71b618", "is_reserved": 0, "rental_uris": {"android": "https://dc.lft.to/lastmile_qr_scan", "ios": "https://dc.lft.to/lastmile_qr_scan"}, "fusion_lon": 0.0}, {"lat": 38.9086255, "is_disabled": 0, "type": "electric_scooter", "lon": -77.045849, "bike_id": "33ccc360b0ce6f0c5f80f07e176fc2c7", "fusion_lat": 0.0, "name": "33ccc360b0ce6f0c5f80f07e176fc2c7", "is_reserved": 0, "rental_uris": {"android": "https://dc.lft.to/lastmile_qr_scan", "ios": "https://dc.lft.to/lastmile_qr_scan"}, "fusion_lon": 0.0}, {"lat": 38.93344366666667, "is_disabled": 0, "type": "electric_scooter", "lon": -77.057087, "bike_id": "78d9c29c5bfe991391614ace847d222a", "fusion_lat": 0.0, "name": "78d9c29c5bfe991391614ace847d222a", "is_reserved": 0, "rental_uris": {"android": "https://dc.lft.to/lastmile_qr_scan", "ios": "https://dc.lft.to/lastmile_qr_scan"}, "fusion_lon": 0.0}, {"lat": 38.90599983333333, "is_disabled": 0, "type": "electric_scooter", "lon": -77.06294366666667, "bike_id": "66e01b9d2e65d7405b9452d9b5c273e0", "fusion_lat": 0.0, "name": "66e01b9d2e65d7405b9452d9b5c273e0", "is_reserved": 0, "rental_uris": {"android": "https://dc.lft.to/lastmile_qr_scan", "ios": "https://dc.lft.to/lastmile_qr_scan"}, "fusion_lon": 0.0}, {"lat": 38.836745666666665, "is_disabled": 0, "type": "electric_scooter", "lon": -77.00568366666667, "bike_id": "18f999a0b79ff8d8b79aed1e50b92441", "fusion_lat": 0.0, "name": "18f999a0b79ff8d8b79aed1e50b92441", "is_reserved": 0, "rental_uris": {"android": "https://dc.lft.to/lastmile_qr_scan", "ios": "https://dc.lft.to/lastmile_qr_scan"}, "fusion_lon": 0.0}, {"lat": 38.91915866666667, "is_disabled": 0, "type": "electric_scooter", "lon": -77.01341883333333, "bike_id": "e5b0dfc2e78f537b020717d2fa40afc3", "fusion_lat": 0.0, "name": "e5b0dfc2e78f537b020717d2fa40afc3", "is_reserved": 0, "rental_uris": {"android": "https://dc.lft.to/lastmile_qr_scan", "ios": "https://dc.lft.to/lastmile_qr_scan"}, "fusion_lon": 0.0}, {"lat": 38.870098166666665, "is_disabled": 0, "type": "electric_bike", "lon": -76.9602, "bike_id": "b45cec68e4a5184ee43f8ca9e984159a", "fusion_lat": 0.0, "name": "b45cec68e4a5184ee43f8ca9e984159a", "is_reserved": 0, "rental_uris": {"android": "https://dc.lft.to/lastmile_qr_scan", "ios": "https://dc.lft.to/lastmile_qr_scan"}, "fusion_lon": 0.0}, {"lat": 38.93965216666667, "is_disabled": 0, "type": "electric_scooter", "lon": -77.02749483333334, "bike_id": "5d3a848cd3fa08f99411da3486360db4", "fusion_lat": 0.0, "name": "5d3a848cd3fa08f99411da3486360db4", "is_reserved": 0, "rental_uris": {"android": "https://dc.lft.to/lastmile_qr_scan", "ios": "https://dc.lft.to/lastmile_qr_scan"}, "fusion_lon": 0.0}, {"lat": 38.93036083333333, "is_disabled": 0, "type": "electric_scooter", "lon": -77.03630466666667, "bike_id": "012b6ac1bb24d0ab2646032d1f46ae17", "fusion_lat": 0.0, "name": "012b6ac1bb24d0ab2646032d1f46ae17", "is_reserved": 0, "rental_uris": {"android": "https://dc.lft.to/lastmile_qr_scan", "ios": "https://dc.lft.to/lastmile_qr_scan"}, "fusion_lon": 0.0}, {"lat": 38.919728166666665, "is_disabled": 0, "type": "electric_scooter", "lon": -77.00016733333334, "bike_id": "e4bdf1e4f5fd1da7b0f8f1f166b6e734", "fusion_lat": 0.0, "name": "e4bdf1e4f5fd1da7b0f8f1f166b6e734", "is_reserved": 0, "rental_uris": {"android": "https://dc.lft.to/lastmile_qr_scan", "ios": "https://dc.lft.to/lastmile_qr_scan"}, "fusion_lon": 0.0}, {"lat": 38.954907166666665, "is_disabled": 0, "type": "electric_scooter", "lon": -77.06564266666666, "bike_id": "b127eb8cf4875ef4a7e5511f068e8344", "fusion_lat": 0.0, "name": "b127eb8cf4875ef4a7e5511f068e8344", "is_reserved": 0, "rental_uris": {"android": "https://dc.lft.to/lastmile_qr_scan", "ios": "https://dc.lft.to/lastmile_qr_scan"}, "fusion_lon": 0.0}, {"lat": 38.899461, "is_disabled": 0, "type": "electric_scooter", "lon": -77.01648416666667, "bike_id": "719b09009384a77c3fe17dff23cd9009", "fusion_lat": 0.0, "name": "719b09009384a77c3fe17dff23cd9009", "is_reserved": 0, "rental_uris": {"android": "https://dc.lft.to/lastmile_qr_scan", "ios": "https://dc.lft.to/lastmile_qr_scan"}, "fusion_lon": 0.0}, {"lat": 38.90522833333333, "is_disabled": 0, "type": "electric_scooter", "lon": -77.06146383333333, "bike_id": "54730ae261f80cf81f0e58af3b146367", "fusion_lat": 0.0, "name": "54730ae261f80cf81f0e58af3b146367", "is_reserved": 0, "rental_uris": {"android": "https://dc.lft.to/lastmile_qr_scan", "ios": "https://dc.lft.to/lastmile_qr_scan"}, "fusion_lon": 0.0}, {"lat": 38.90238883333333, "is_disabled": 0, "type": "electric_scooter", "lon": -77.01747033333334, "bike_id": "417d529c0b37e3ea1e19539799601ce9", "fusion_lat": 0.0, "name": "417d529c0b37e3ea1e19539799601ce9", "is_reserved": 0, "rental_uris": {"android": "https://dc.lft.to/lastmile_qr_scan", "ios": "https://dc.lft.to/lastmile_qr_scan"}, "fusion_lon": 0.0}, {"lat": 38.9268405, "is_disabled": 0, "type": "electric_scooter", "lon": -77.03735266666666, "bike_id": "980a07564a294826b881665c13a62fb1", "fusion_lat": 0.0, "name": "980a07564a294826b881665c13a62fb1", "is_reserved": 0, "rental_uris": {"android": "https://dc.lft.to/lastmile_qr_scan", "ios": "https://dc.lft.to/lastmile_qr_scan"}, "fusion_lon": 0.0}, {"lat": 38.9156775, "is_disabled": 0, "type": "electric_scooter", "lon": -77.01167566666666, "bike_id": "7620fad1deeee1da613a7fe2399e3cab", "fusion_lat": 0.0, "name": "7620fad1deeee1da613a7fe2399e3cab", "is_reserved": 0, "rental_uris": {"android": "https://dc.lft.to/lastmile_qr_scan", "ios": "https://dc.lft.to/lastmile_qr_scan"}, "fusion_lon": 0.0}, {"lat": 38.933985, "is_disabled": 0, "type": "electric_scooter", "lon": -77.0574075, "bike_id": "7dec46edd5b50b63cc6a127d118deea3", "fusion_lat": 0.0, "name": "7dec46edd5b50b63cc6a127d118deea3", "is_reserved": 0, "rental_uris": {"android": "https://dc.lft.to/lastmile_qr_scan", "ios": "https://dc.lft.to/lastmile_qr_scan"}, "fusion_lon": 0.0}, {"lat": 38.896096666666665, "is_disabled": 0, "type": "electric_scooter", "lon": -77.04416866666666, "bike_id": "c016fee45bdd6df605684cbb5e89378a", "fusion_lat": 0.0, "name": "c016fee45bdd6df605684cbb5e89378a", "is_reserved": 0, "rental_uris": {"android": "https://dc.lft.to/lastmile_qr_scan", "ios": "https://dc.lft.to/lastmile_qr_scan"}, "fusion_lon": 0.0}, {"lat": 38.92168016666667, "is_disabled": 0, "type": "electric_scooter", "lon": -77.0513705, "bike_id": "8f22f953b6baf8f7d3a6e1c2be1adf78", "fusion_lat": 0.0, "name": "8f22f953b6baf8f7d3a6e1c2be1adf78", "is_reserved": 0, "rental_uris": {"android": "https://dc.lft.to/lastmile_qr_scan", "ios": "https://dc.lft.to/lastmile_qr_scan"}, "fusion_lon": 0.0}, {"lat": 38.91763816666667, "is_disabled": 0, "type": "electric_scooter", "lon": -77.00452316666667, "bike_id": "07179d72a334527d6d3c63de9f08208e", "fusion_lat": 0.0, "name": "07179d72a334527d6d3c63de9f08208e", "is_reserved": 0, "rental_uris": {"android": "https://dc.lft.to/lastmile_qr_scan", "ios": "https://dc.lft.to/lastmile_qr_scan"}, "fusion_lon": 0.0}, {"lat": 38.96213316666667, "is_disabled": 0, "type": "electric_bike", "lon": -77.02784666666666, "bike_id": "ef2b6029fbca7228863d61c1ecaba6aa", "fusion_lat": 0.0, "name": "ef2b6029fbca7228863d61c1ecaba6aa", "is_reserved": 0, "rental_uris": {"android": "https://dc.lft.to/lastmile_qr_scan", "ios": "https://dc.lft.to/lastmile_qr_scan"}, "fusion_lon": 0.0}, {"lat": 38.91120516666667, "is_disabled": 0, "type": "electric_scooter", "lon": -77.03734933333334, "bike_id": "620c946580e40da3a04d91d0406e22a4", "fusion_lat": 0.0, "name": "620c946580e40da3a04d91d0406e22a4", "is_reserved": 0, "rental_uris": {"android": "https://dc.lft.to/lastmile_qr_scan", "ios": "https://dc.lft.to/lastmile_qr_scan"}, "fusion_lon": 0.0}, {"lat": 38.92791716666667, "is_disabled": 0, "type": "electric_scooter", "lon": -77.03149033333334, "bike_id": "dc66fe3f963102f83af87e7b85098ab3", "fusion_lat": 0.0, "name": "dc66fe3f963102f83af87e7b85098ab3", "is_reserved": 0, "rental_uris": {"android": "https://dc.lft.to/lastmile_qr_scan", "ios": "https://dc.lft.to/lastmile_qr_scan"}, "fusion_lon": 0.0}, {"lat": 38.80058566666666, "is_disabled": 0, "type": "electric_bike", "lon": -77.0712, "bike_id": "ed0ad2582607533ce36a8c38b21e8887", "fusion_lat": 0.0, "name": "ed0ad2582607533ce36a8c38b21e8887", "is_reserved": 0, "rental_uris": {"android": "https://dc.lft.to/lastmile_qr_scan", "ios": "https://dc.lft.to/lastmile_qr_scan"}, "fusion_lon": 0.0}, {"lat": 38.9081295, "is_disabled": 0, "type": "electric_scooter", "lon": -77.043418, "bike_id": "5be90b0daf802f1167499521c5228064", "fusion_lat": 0.0, "name": "5be90b0daf802f1167499521c5228064", "is_reserved": 0, "rental_uris": {"android": "https://dc.lft.to/lastmile_qr_scan", "ios": "https://dc.lft.to/lastmile_qr_scan"}, "fusion_lon": 0.0}, {"lat": 38.8521895, "is_disabled": 0, "type": "electric_bike", "lon": -77.12952816666666, "bike_id": "aa5bc0098b7ae7d4ace59f4ddef50871", "fusion_lat": 0.0, "name": "aa5bc0098b7ae7d4ace59f4ddef50871", "is_reserved": 0, "rental_uris": {"android": "https://dc.lft.to/lastmile_qr_scan", "ios": "https://dc.lft.to/lastmile_qr_scan"}, "fusion_lon": 0.0}, {"lat": 38.86596316666667, "is_disabled": 0, "type": "electric_bike", "lon": -76.93227816666666, "bike_id": "93971fb8454781d8eae89f0a080f3aab", "fusion_lat": 0.0, "name": "93971fb8454781d8eae89f0a080f3aab", "is_reserved": 0, "rental_uris": {"android": "https://dc.lft.to/lastmile_qr_scan", "ios": "https://dc.lft.to/lastmile_qr_scan"}, "fusion_lon": 0.0}, {"lat": 38.922732333333336, "is_disabled": 0, "type": "electric_scooter", "lon": -77.042324, "bike_id": "09f3465500249341851780bed3087477", "fusion_lat": 0.0, "name": "09f3465500249341851780bed3087477", "is_reserved": 0, "rental_uris": {"android": "https://dc.lft.to/lastmile_qr_scan", "ios": "https://dc.lft.to/lastmile_qr_scan"}, "fusion_lon": 0.0}, {"lat": 38.918167833333335, "is_disabled": 0, "type": "electric_scooter", "lon": -76.99971166666667, "bike_id": "0d1d841a69b6bc4396c72db404cf88ea", "fusion_lat": 0.0, "name": "0d1d841a69b6bc4396c72db404cf88ea", "is_reserved": 0, "rental_uris": {"android": "https://dc.lft.to/lastmile_qr_scan", "ios": "https://dc.lft.to/lastmile_qr_scan"}, "fusion_lon": 0.0}, {"lat": 38.934894166666666, "is_disabled": 0, "type": "electric_scooter", "lon": -77.03242533333334, "bike_id": "f90113fedd386bbad6f0b60075d250e0", "fusion_lat": 0.0, "name": "f90113fedd386bbad6f0b60075d250e0", "is_reserved": 0, "rental_uris": {"android": "https://dc.lft.to/lastmile_qr_scan", "ios": "https://dc.lft.to/lastmile_qr_scan"}, "fusion_lon": 0.0}, {"lat": 38.892225, "is_disabled": 0, "type": "electric_scooter", "lon": -77.04799716666666, "bike_id": "1c6f2de35d5661b2bc8b33a1fb7e3bf5", "fusion_lat": 0.0, "name": "1c6f2de35d5661b2bc8b33a1fb7e3bf5", "is_reserved": 0, "rental_uris": {"android": "https://dc.lft.to/lastmile_qr_scan", "ios": "https://dc.lft.to/lastmile_qr_scan"}, "fusion_lon": 0.0}, {"lat": 38.9322495, "is_disabled": 0, "type": "electric_scooter", "lon": -77.04407233333333, "bike_id": "4c1c7b59d73fb9291ee2076d3b501592", "fusion_lat": 0.0, "name": "4c1c7b59d73fb9291ee2076d3b501592", "is_reserved": 0, "rental_uris": {"android": "https://dc.lft.to/lastmile_qr_scan", "ios": "https://dc.lft.to/lastmile_qr_scan"}, "fusion_lon": 0.0}, {"lat": 38.9098955, "is_disabled": 0, "type": "electric_scooter", "lon": -77.038389, "bike_id": "0b622147522218550be33d203baa41b0", "fusion_lat": 0.0, "name": "0b622147522218550be33d203baa41b0", "is_reserved": 0, "rental_uris": {"android": "https://dc.lft.to/lastmile_qr_scan", "ios": "https://dc.lft.to/lastmile_qr_scan"}, "fusion_lon": 0.0}, {"lat": 38.910678, "is_disabled": 0, "type": "electric_scooter", "lon": -77.01639066666667, "bike_id": "2f52da0bf05f80ff6a04e59060720baa", "fusion_lat": 0.0, "name": "2f52da0bf05f80ff6a04e59060720baa", "is_reserved": 0, "rental_uris": {"android": "https://dc.lft.to/lastmile_qr_scan", "ios": "https://dc.lft.to/lastmile_qr_scan"}, "fusion_lon": 0.0}, {"lat": 38.89910016666666, "is_disabled": 0, "type": "electric_scooter", "lon": -77.00362616666666, "bike_id": "1f7efafaf7529ba7760041700c2654c8", "fusion_lat": 0.0, "name": "1f7efafaf7529ba7760041700c2654c8", "is_reserved": 0, "rental_uris": {"android": "https://dc.lft.to/lastmile_qr_scan", "ios": "https://dc.lft.to/lastmile_qr_scan"}, "fusion_lon": 0.0}, {"lat": 38.90052583333333, "is_disabled": 0, "type": "electric_scooter", "lon": -77.00760466666667, "bike_id": "1b139c764be084982881b97b064be882", "fusion_lat": 0.0, "name": "1b139c764be084982881b97b064be882", "is_reserved": 0, "rental_uris": {"android": "https://dc.lft.to/lastmile_qr_scan", "ios": "https://dc.lft.to/lastmile_qr_scan"}, "fusion_lon": 0.0}, {"lat": 38.885123166666666, "is_disabled": 0, "type": "electric_scooter", "lon": -77.00678233333333, "bike_id": "40b433737ca290d3538cc83efd772fac", "fusion_lat": 0.0, "name": "40b433737ca290d3538cc83efd772fac", "is_reserved": 0, "rental_uris": {"android": "https://dc.lft.to/lastmile_qr_scan", "ios": "https://dc.lft.to/lastmile_qr_scan"}, "fusion_lon": 0.0}, {"lat": 38.91128833333333, "is_disabled": 0, "type": "electric_scooter", "lon": -77.02879066666667, "bike_id": "3dc95956a31769a2d65f676f4bf03c29", "fusion_lat": 0.0, "name": "3dc95956a31769a2d65f676f4bf03c29", "is_reserved": 0, "rental_uris": {"android": "https://dc.lft.to/lastmile_qr_scan", "ios": "https://dc.lft.to/lastmile_qr_scan"}, "fusion_lon": 0.0}, {"lat": 38.90730333333333, "is_disabled": 0, "type": "electric_scooter", "lon": -77.04826283333334, "bike_id": "77ee5affd830ccff9b794f777d782643", "fusion_lat": 0.0, "name": "77ee5affd830ccff9b794f777d782643", "is_reserved": 0, "rental_uris": {"android": "https://dc.lft.to/lastmile_qr_scan", "ios": "https://dc.lft.to/lastmile_qr_scan"}, "fusion_lon": 0.0}, {"lat": 39.030491833333336, "is_disabled": 0, "type": "electric_bike", "lon": -77.09479033333334, "bike_id": "e2ff8cd83c61580a5eb0ef04f54a1dbc", "fusion_lat": 0.0, "name": "e2ff8cd83c61580a5eb0ef04f54a1dbc", "is_reserved": 0, "rental_uris": {"android": "https://dc.lft.to/lastmile_qr_scan", "ios": "https://dc.lft.to/lastmile_qr_scan"}, "fusion_lon": 0.0}, {"lat": 38.914283833333336, "is_disabled": 0, "type": "electric_scooter", "lon": -77.03208866666667, "bike_id": "9cb6d45105bafb0026ace7a13b438f30", "fusion_lat": 0.0, "name": "9cb6d45105bafb0026ace7a13b438f30", "is_reserved": 0, "rental_uris": {"android": "https://dc.lft.to/lastmile_qr_scan", "ios": "https://dc.lft.to/lastmile_qr_scan"}, "fusion_lon": 0.0}, {"lat": 38.9096755, "is_disabled": 0, "type": "electric_scooter", "lon": -77.04510383333333, "bike_id": "1635cb2b43a9dce0999da1734cef4403", "fusion_lat": 0.0, "name": "1635cb2b43a9dce0999da1734cef4403", "is_reserved": 0, "rental_uris": {"android": "https://dc.lft.to/lastmile_qr_scan", "ios": "https://dc.lft.to/lastmile_qr_scan"}, "fusion_lon": 0.0}, {"lat": 38.9291475, "is_disabled": 0, "type": "electric_scooter", "lon": -77.03246733333333, "bike_id": "62bf6b1eb052416ab46d891f1d614ab1", "fusion_lat": 0.0, "name": "62bf6b1eb052416ab46d891f1d614ab1", "is_reserved": 0, "rental_uris": {"android": "https://dc.lft.to/lastmile_qr_scan", "ios": "https://dc.lft.to/lastmile_qr_scan"}, "fusion_lon": 0.0}, {"lat": 38.91819366666667, "is_disabled": 0, "type": "electric_scooter", "lon": -77.02863766666667, "bike_id": "0898776a6355b3a3b1c17819e89a985c", "fusion_lat": 0.0, "name": "0898776a6355b3a3b1c17819e89a985c", "is_reserved": 0, "rental_uris": {"android": "https://dc.lft.to/lastmile_qr_scan", "ios": "https://dc.lft.to/lastmile_qr_scan"}, "fusion_lon": 0.0}, {"lat": 38.9383865, "is_disabled": 0, "type": "electric_bike", "lon": -76.98859433333334, "bike_id": "646f33845f04d29c164e95af08add21f", "fusion_lat": 0.0, "name": "646f33845f04d29c164e95af08add21f", "is_reserved": 0, "rental_uris": {"android": "https://dc.lft.to/lastmile_qr_scan", "ios": "https://dc.lft.to/lastmile_qr_scan"}, "fusion_lon": 0.0}, {"lat": 38.92329516666667, "is_disabled": 0, "type": "electric_scooter", "lon": -77.03895516666667, "bike_id": "5f6e7f74cccc24c157c40a2665a0a2fb", "fusion_lat": 0.0, "name": "5f6e7f74cccc24c157c40a2665a0a2fb", "is_reserved": 0, "rental_uris": {"android": "https://dc.lft.to/lastmile_qr_scan", "ios": "https://dc.lft.to/lastmile_qr_scan"}, "fusion_lon": 0.0}, {"lat": 38.915493, "is_disabled": 0, "type": "electric_scooter", "lon": -77.02040533333333, "bike_id": "f5f8eb0cce8356036fa536e367e5550e", "fusion_lat": 0.0, "name": "f5f8eb0cce8356036fa536e367e5550e", "is_reserved": 0, "rental_uris": {"android": "https://dc.lft.to/lastmile_qr_scan", "ios": "https://dc.lft.to/lastmile_qr_scan"}, "fusion_lon": 0.0}, {"lat": 38.90141583333333, "is_disabled": 0, "type": "electric_scooter", "lon": -77.04134116666667, "bike_id": "03a4cb1cd9f94982f063df3842fb9d00", "fusion_lat": 0.0, "name": "03a4cb1cd9f94982f063df3842fb9d00", "is_reserved": 0, "rental_uris": {"android": "https://dc.lft.to/lastmile_qr_scan", "ios": "https://dc.lft.to/lastmile_qr_scan"}, "fusion_lon": 0.0}, {"lat": 38.907317166666665, "is_disabled": 0, "type": "electric_scooter", "lon": -77.02369116666667, "bike_id": "f88250aac9d8c5a8794aae4612c69d6a", "fusion_lat": 0.0, "name": "f88250aac9d8c5a8794aae4612c69d6a", "is_reserved": 0, "rental_uris": {"android": "https://dc.lft.to/lastmile_qr_scan", "ios": "https://dc.lft.to/lastmile_qr_scan"}, "fusion_lon": 0.0}, {"lat": 38.85732, "is_disabled": 0, "type": "electric_scooter", "lon": -76.9943435, "bike_id": "fd7e8fdbee1fdd327e8eec6375318265", "fusion_lat": 0.0, "name": "fd7e8fdbee1fdd327e8eec6375318265", "is_reserved": 0, "rental_uris": {"android": "https://dc.lft.to/lastmile_qr_scan", "ios": "https://dc.lft.to/lastmile_qr_scan"}, "fusion_lon": 0.0}, {"lat": 38.9250725, "is_disabled": 0, "type": "electric_bike", "lon": -77.037899, "bike_id": "a509cfc9c8d32edac2a2764e497ceaee", "fusion_lat": 0.0, "name": "a509cfc9c8d32edac2a2764e497ceaee", "is_reserved": 0, "rental_uris": {"android": "https://dc.lft.to/lastmile_qr_scan", "ios": "https://dc.lft.to/lastmile_qr_scan"}, "fusion_lon": 0.0}, {"lat": 38.92431216666667, "is_disabled": 0, "type": "electric_scooter", "lon": -77.02963566666666, "bike_id": "b42431337db03c8021d41167de873ef3", "fusion_lat": 0.0, "name": "b42431337db03c8021d41167de873ef3", "is_reserved": 0, "rental_uris": {"android": "https://dc.lft.to/lastmile_qr_scan", "ios": "https://dc.lft.to/lastmile_qr_scan"}, "fusion_lon": 0.0}, {"lat": 38.944378666666665, "is_disabled": 0, "type": "electric_scooter", "lon": -77.02337933333334, "bike_id": "8e45c100151ee8387631fff65454e3bd", "fusion_lat": 0.0, "name": "8e45c100151ee8387631fff65454e3bd", "is_reserved": 0, "rental_uris": {"android": "https://dc.lft.to/lastmile_qr_scan", "ios": "https://dc.lft.to/lastmile_qr_scan"}, "fusion_lon": 0.0}, {"lat": 38.9098335, "is_disabled": 0, "type": "electric_scooter", "lon": -77.02402966666666, "bike_id": "24154b3036afebaeb99fb5831f69ba01", "fusion_lat": 0.0, "name": "24154b3036afebaeb99fb5831f69ba01", "is_reserved": 0, "rental_uris": {"android": "https://dc.lft.to/lastmile_qr_scan", "ios": "https://dc.lft.to/lastmile_qr_scan"}, "fusion_lon": 0.0}, {"lat": 38.887398166666664, "is_disabled": 0, "type": "electric_scooter", "lon": -77.0152865, "bike_id": "623c175f297958a17d72cddad603d489", "fusion_lat": 0.0, "name": "623c175f297958a17d72cddad603d489", "is_reserved": 0, "rental_uris": {"android": "https://dc.lft.to/lastmile_qr_scan", "ios": "https://dc.lft.to/lastmile_qr_scan"}, "fusion_lon": 0.0}, {"lat": 38.89603983333333, "is_disabled": 0, "type": "electric_scooter", "lon": -77.02189233333333, "bike_id": "eedf5558066d2b523c1c8266d942f396", "fusion_lat": 0.0, "name": "eedf5558066d2b523c1c8266d942f396", "is_reserved": 0, "rental_uris": {"android": "https://dc.lft.to/lastmile_qr_scan", "ios": "https://dc.lft.to/lastmile_qr_scan"}, "fusion_lon": 0.0}, {"lat": 38.906604, "is_disabled": 0, "type": "electric_scooter", "lon": -77.03529766666666, "bike_id": "aa6adf62bc7499c34dae5c8f77dc296f", "fusion_lat": 0.0, "name": "aa6adf62bc7499c34dae5c8f77dc296f", "is_reserved": 0, "rental_uris": {"android": "https://dc.lft.to/lastmile_qr_scan", "ios": "https://dc.lft.to/lastmile_qr_scan"}, "fusion_lon": 0.0}, {"lat": 38.896859, "is_disabled": 0, "type": "electric_scooter", "lon": -76.9360835, "bike_id": "a7a881c4bd488888f5dafda4dbc38d8f", "fusion_lat": 0.0, "name": "a7a881c4bd488888f5dafda4dbc38d8f", "is_reserved": 0, "rental_uris": {"android": "https://dc.lft.to/lastmile_qr_scan", "ios": "https://dc.lft.to/lastmile_qr_scan"}, "fusion_lon": 0.0}, {"lat": 38.930733833333335, "is_disabled": 0, "type": "electric_scooter", "lon": -77.03383683333334, "bike_id": "1f39e0378793a94d7dbb5a425a096a6c", "fusion_lat": 0.0, "name": "1f39e0378793a94d7dbb5a425a096a6c", "is_reserved": 0, "rental_uris": {"android": "https://dc.lft.to/lastmile_qr_scan", "ios": "https://dc.lft.to/lastmile_qr_scan"}, "fusion_lon": 0.0}, {"lat": 38.952408166666665, "is_disabled": 0, "type": "electric_bike", "lon": -76.97954266666666, "bike_id": "abe327a77a980a2a640aa1e7fed7990e", "fusion_lat": 0.0, "name": "abe327a77a980a2a640aa1e7fed7990e", "is_reserved": 0, "rental_uris": {"android": "https://dc.lft.to/lastmile_qr_scan", "ios": "https://dc.lft.to/lastmile_qr_scan"}, "fusion_lon": 0.0}, {"lat": 38.8871765, "is_disabled": 0, "type": "electric_scooter", "lon": -76.9547765, "bike_id": "9340aab3ad1c99f969dbb600e56c829b", "fusion_lat": 0.0, "name": "9340aab3ad1c99f969dbb600e56c829b", "is_reserved": 0, "rental_uris": {"android": "https://dc.lft.to/lastmile_qr_scan", "ios": "https://dc.lft.to/lastmile_qr_scan"}, "fusion_lon": 0.0}, {"lat": 38.91818683333333, "is_disabled": 0, "type": "electric_scooter", "lon": -77.04181183333333, "bike_id": "b34444a5dc0b257a7f6c9bed8b02388d", "fusion_lat": 0.0, "name": "b34444a5dc0b257a7f6c9bed8b02388d", "is_reserved": 0, "rental_uris": {"android": "https://dc.lft.to/lastmile_qr_scan", "ios": "https://dc.lft.to/lastmile_qr_scan"}, "fusion_lon": 0.0}, {"lat": 38.907711666666664, "is_disabled": 0, "type": "electric_scooter", "lon": -77.03213366666667, "bike_id": "fc55ec50c123096c219fb07d9da0c86c", "fusion_lat": 0.0, "name": "fc55ec50c123096c219fb07d9da0c86c", "is_reserved": 0, "rental_uris": {"android": "https://dc.lft.to/lastmile_qr_scan", "ios": "https://dc.lft.to/lastmile_qr_scan"}, "fusion_lon": 0.0}, {"lat": 38.8959795, "is_disabled": 0, "type": "electric_scooter", "lon": -76.9551915, "bike_id": "aea0c290181aab49132e8c39fd3f4d39", "fusion_lat": 0.0, "name": "aea0c290181aab49132e8c39fd3f4d39", "is_reserved": 0, "rental_uris": {"android": "https://dc.lft.to/lastmile_qr_scan", "ios": "https://dc.lft.to/lastmile_qr_scan"}, "fusion_lon": 0.0}, {"lat": 38.92569783333333, "is_disabled": 0, "type": "electric_scooter", "lon": -77.02835483333334, "bike_id": "102da6a15c63484ef2345aa4f3baa86c", "fusion_lat": 0.0, "name": "102da6a15c63484ef2345aa4f3baa86c", "is_reserved": 0, "rental_uris": {"android": "https://dc.lft.to/lastmile_qr_scan", "ios": "https://dc.lft.to/lastmile_qr_scan"}, "fusion_lon": 0.0}, {"lat": 38.933355, "is_disabled": 0, "type": "electric_scooter", "lon": -76.99302283333333, "bike_id": "d7f2b136843bd7e96bbfe257bfb45aac", "fusion_lat": 0.0, "name": "d7f2b136843bd7e96bbfe257bfb45aac", "is_reserved": 0, "rental_uris": {"android": "https://dc.lft.to/lastmile_qr_scan", "ios": "https://dc.lft.to/lastmile_qr_scan"}, "fusion_lon": 0.0}, {"lat": 38.884803166666664, "is_disabled": 0, "type": "electric_scooter", "lon": -76.94530483333334, "bike_id": "1af231f883d9df4f68c02dc0f36cbb64", "fusion_lat": 0.0, "name": "1af231f883d9df4f68c02dc0f36cbb64", "is_reserved": 0, "rental_uris": {"android": "https://dc.lft.to/lastmile_qr_scan", "ios": "https://dc.lft.to/lastmile_qr_scan"}, "fusion_lon": 0.0}, {"lat": 38.91756733333333, "is_disabled": 0, "type": "electric_scooter", "lon": -77.03876616666666, "bike_id": "feae7f8c95998951448bfbebad8fb34e", "fusion_lat": 0.0, "name": "feae7f8c95998951448bfbebad8fb34e", "is_reserved": 0, "rental_uris": {"android": "https://dc.lft.to/lastmile_qr_scan", "ios": "https://dc.lft.to/lastmile_qr_scan"}, "fusion_lon": 0.0}, {"lat": 38.9169675, "is_disabled": 0, "type": "electric_scooter", "lon": -77.03125216666666, "bike_id": "3f155ccb962f355447c488ccb7b6bc81", "fusion_lat": 0.0, "name": "3f155ccb962f355447c488ccb7b6bc81", "is_reserved": 0, "rental_uris": {"android": "https://dc.lft.to/lastmile_qr_scan", "ios": "https://dc.lft.to/lastmile_qr_scan"}, "fusion_lon": 0.0}, {"lat": 38.9228385, "is_disabled": 0, "type": "electric_scooter", "lon": -77.03198616666667, "bike_id": "73758e007918b722f997673749f3e9bd", "fusion_lat": 0.0, "name": "73758e007918b722f997673749f3e9bd", "is_reserved": 0, "rental_uris": {"android": "https://dc.lft.to/lastmile_qr_scan", "ios": "https://dc.lft.to/lastmile_qr_scan"}, "fusion_lon": 0.0}, {"lat": 38.9156845, "is_disabled": 0, "type": "electric_scooter", "lon": -77.01162866666667, "bike_id": "6fa76b91395125b744c7f49267fa1e1d", "fusion_lat": 0.0, "name": "6fa76b91395125b744c7f49267fa1e1d", "is_reserved": 0, "rental_uris": {"android": "https://dc.lft.to/lastmile_qr_scan", "ios": "https://dc.lft.to/lastmile_qr_scan"}, "fusion_lon": 0.0}, {"lat": 38.911939333333336, "is_disabled": 0, "type": "electric_scooter", "lon": -77.06088116666666, "bike_id": "e0f8b94ac34ff949ac88f7b42acbe65a", "fusion_lat": 0.0, "name": "e0f8b94ac34ff949ac88f7b42acbe65a", "is_reserved": 0, "rental_uris": {"android": "https://dc.lft.to/lastmile_qr_scan", "ios": "https://dc.lft.to/lastmile_qr_scan"}, "fusion_lon": 0.0}, {"lat": 38.88745383333333, "is_disabled": 0, "type": "electric_scooter", "lon": -77.02172433333334, "bike_id": "465d258ab78792f7d71e8311143d0f0a", "fusion_lat": 0.0, "name": "465d258ab78792f7d71e8311143d0f0a", "is_reserved": 0, "rental_uris": {"android": "https://dc.lft.to/lastmile_qr_scan", "ios": "https://dc.lft.to/lastmile_qr_scan"}, "fusion_lon": 0.0}, {"lat": 38.913106, "is_disabled": 0, "type": "electric_scooter", "lon": -77.032117, "bike_id": "130b92455c5cf95274fb5bacac081e75", "fusion_lat": 0.0, "name": "130b92455c5cf95274fb5bacac081e75", "is_reserved": 0, "rental_uris": {"android": "https://dc.lft.to/lastmile_qr_scan", "ios": "https://dc.lft.to/lastmile_qr_scan"}, "fusion_lon": 0.0}, {"lat": 38.900143666666665, "is_disabled": 0, "type": "electric_scooter", "lon": -77.01195616666666, "bike_id": "a669ec3cc9bac60b4a166b2f1f358c64", "fusion_lat": 0.0, "name": "a669ec3cc9bac60b4a166b2f1f358c64", "is_reserved": 0, "rental_uris": {"android": "https://dc.lft.to/lastmile_qr_scan", "ios": "https://dc.lft.to/lastmile_qr_scan"}, "fusion_lon": 0.0}, {"lat": 38.884725333333336, "is_disabled": 0, "type": "electric_scooter", "lon": -77.02407116666667, "bike_id": "bc4e63dcdc87f6df9816675cab97c04a", "fusion_lat": 0.0, "name": "bc4e63dcdc87f6df9816675cab97c04a", "is_reserved": 0, "rental_uris": {"android": "https://dc.lft.to/lastmile_qr_scan", "ios": "https://dc.lft.to/lastmile_qr_scan"}, "fusion_lon": 0.0}, {"lat": 38.86710983333333, "is_disabled": 0, "type": "electric_scooter", "lon": -76.98724883333334, "bike_id": "d134d4a1ae77603ad3985d3cef8ffe94", "fusion_lat": 0.0, "name": "d134d4a1ae77603ad3985d3cef8ffe94", "is_reserved": 0, "rental_uris": {"android": "https://dc.lft.to/lastmile_qr_scan", "ios": "https://dc.lft.to/lastmile_qr_scan"}, "fusion_lon": 0.0}, {"lat": 38.9051315, "is_disabled": 0, "type": "electric_scooter", "lon": -77.04870666666666, "bike_id": "21b410e976041245e7957149fc680481", "fusion_lat": 0.0, "name": "21b410e976041245e7957149fc680481", "is_reserved": 0, "rental_uris": {"android": "https://dc.lft.to/lastmile_qr_scan", "ios": "https://dc.lft.to/lastmile_qr_scan"}, "fusion_lon": 0.0}, {"lat": 38.9251415, "is_disabled": 0, "type": "electric_scooter", "lon": -76.98577483333334, "bike_id": "09c5357bbc8fd61ec43d97c8a2010045", "fusion_lat": 0.0, "name": "09c5357bbc8fd61ec43d97c8a2010045", "is_reserved": 0, "rental_uris": {"android": "https://dc.lft.to/lastmile_qr_scan", "ios": "https://dc.lft.to/lastmile_qr_scan"}, "fusion_lon": 0.0}, {"lat": 38.938683, "is_disabled": 0, "type": "electric_scooter", "lon": -77.0244215, "bike_id": "dcb6e81668591d25cd34ec3241f7da6c", "fusion_lat": 0.0, "name": "dcb6e81668591d25cd34ec3241f7da6c", "is_reserved": 0, "rental_uris": {"android": "https://dc.lft.to/lastmile_qr_scan", "ios": "https://dc.lft.to/lastmile_qr_scan"}, "fusion_lon": 0.0}, {"lat": 38.88774683333333, "is_disabled": 0, "type": "electric_scooter", "lon": -77.00326833333334, "bike_id": "8767f2fb64eae8180829fb4744d75852", "fusion_lat": 0.0, "name": "8767f2fb64eae8180829fb4744d75852", "is_reserved": 0, "rental_uris": {"android": "https://dc.lft.to/lastmile_qr_scan", "ios": "https://dc.lft.to/lastmile_qr_scan"}, "fusion_lon": 0.0}, {"lat": 38.955671, "is_disabled": 0, "type": "electric_scooter", "lon": -77.02231866666666, "bike_id": "9e12a31d5056b9e19f360a8874453912", "fusion_lat": 0.0, "name": "9e12a31d5056b9e19f360a8874453912", "is_reserved": 0, "rental_uris": {"android": "https://dc.lft.to/lastmile_qr_scan", "ios": "https://dc.lft.to/lastmile_qr_scan"}, "fusion_lon": 0.0}, {"lat": 38.8655895, "is_disabled": 0, "type": "electric_scooter", "lon": -76.98947033333333, "bike_id": "830ffb721f7ce0fc969685441e086884", "fusion_lat": 0.0, "name": "830ffb721f7ce0fc969685441e086884", "is_reserved": 0, "rental_uris": {"android": "https://dc.lft.to/lastmile_qr_scan", "ios": "https://dc.lft.to/lastmile_qr_scan"}, "fusion_lon": 0.0}, {"lat": 38.909108, "is_disabled": 0, "type": "electric_scooter", "lon": -77.0364645, "bike_id": "e2f9c9e32291c7c0be736d3ae65d1954", "fusion_lat": 0.0, "name": "e2f9c9e32291c7c0be736d3ae65d1954", "is_reserved": 0, "rental_uris": {"android": "https://dc.lft.to/lastmile_qr_scan", "ios": "https://dc.lft.to/lastmile_qr_scan"}, "fusion_lon": 0.0}, {"lat": 38.834185, "is_disabled": 0, "type": "electric_bike", "lon": -77.10374366666667, "bike_id": "43a689944ff7449eea63b93241f57928", "fusion_lat": 0.0, "name": "43a689944ff7449eea63b93241f57928", "is_reserved": 0, "rental_uris": {"android": "https://dc.lft.to/lastmile_qr_scan", "ios": "https://dc.lft.to/lastmile_qr_scan"}, "fusion_lon": 0.0}, {"lat": 38.9323695, "is_disabled": 0, "type": "electric_scooter", "lon": -77.03083516666666, "bike_id": "e00e94ec80d1c3c711ffc2450132af5f", "fusion_lat": 0.0, "name": "e00e94ec80d1c3c711ffc2450132af5f", "is_reserved": 0, "rental_uris": {"android": "https://dc.lft.to/lastmile_qr_scan", "ios": "https://dc.lft.to/lastmile_qr_scan"}, "fusion_lon": 0.0}, {"lat": 38.865233, "is_disabled": 0, "type": "electric_scooter", "lon": -76.99028716666666, "bike_id": "fc53e643f8b318f1df0e4b4f792da7bf", "fusion_lat": 0.0, "name": "fc53e643f8b318f1df0e4b4f792da7bf", "is_reserved": 0, "rental_uris": {"android": "https://dc.lft.to/lastmile_qr_scan", "ios": "https://dc.lft.to/lastmile_qr_scan"}, "fusion_lon": 0.0}, {"lat": 38.9057535, "is_disabled": 0, "type": "electric_scooter", "lon": -77.00893533333333, "bike_id": "e65ae31041883499eda1730bb480de1b", "fusion_lat": 0.0, "name": "e65ae31041883499eda1730bb480de1b", "is_reserved": 0, "rental_uris": {"android": "https://dc.lft.to/lastmile_qr_scan", "ios": "https://dc.lft.to/lastmile_qr_scan"}, "fusion_lon": 0.0}, {"lat": 38.916218, "is_disabled": 0, "type": "electric_scooter", "lon": -77.031704, "bike_id": "de9a872b0e26eccbca4c9d97e6db2ad4", "fusion_lat": 0.0, "name": "de9a872b0e26eccbca4c9d97e6db2ad4", "is_reserved": 0, "rental_uris": {"android": "https://dc.lft.to/lastmile_qr_scan", "ios": "https://dc.lft.to/lastmile_qr_scan"}, "fusion_lon": 0.0}, {"lat": 38.9240755, "is_disabled": 0, "type": "electric_scooter", "lon": -77.0274705, "bike_id": "7706c46ba899a7e7e731b4dd8baca840", "fusion_lat": 0.0, "name": "7706c46ba899a7e7e731b4dd8baca840", "is_reserved": 0, "rental_uris": {"android": "https://dc.lft.to/lastmile_qr_scan", "ios": "https://dc.lft.to/lastmile_qr_scan"}, "fusion_lon": 0.0}, {"lat": 38.902725, "is_disabled": 0, "type": "electric_scooter", "lon": -77.03443183333333, "bike_id": "e6fc9e99a45c25c2e861bb53187952ab", "fusion_lat": 0.0, "name": "e6fc9e99a45c25c2e861bb53187952ab", "is_reserved": 0, "rental_uris": {"android": "https://dc.lft.to/lastmile_qr_scan", "ios": "https://dc.lft.to/lastmile_qr_scan"}, "fusion_lon": 0.0}, {"lat": 38.91704716666667, "is_disabled": 0, "type": "electric_scooter", "lon": -77.03101716666667, "bike_id": "6999f400d7af11079da17dbc0d5c219f", "fusion_lat": 0.0, "name": "6999f400d7af11079da17dbc0d5c219f", "is_reserved": 0, "rental_uris": {"android": "https://dc.lft.to/lastmile_qr_scan", "ios": "https://dc.lft.to/lastmile_qr_scan"}, "fusion_lon": 0.0}, {"lat": 38.90290066666667, "is_disabled": 0, "type": "electric_scooter", "lon": -77.040345, "bike_id": "c2b43c3fdb796067492ade39e769ef01", "fusion_lat": 0.0, "name": "c2b43c3fdb796067492ade39e769ef01", "is_reserved": 0, "rental_uris": {"android": "https://dc.lft.to/lastmile_qr_scan", "ios": "https://dc.lft.to/lastmile_qr_scan"}, "fusion_lon": 0.0}, {"lat": 38.903542, "is_disabled": 0, "type": "electric_scooter", "lon": -77.04242733333334, "bike_id": "584eaba1032f36a4075c9fe139fc054c", "fusion_lat": 0.0, "name": "584eaba1032f36a4075c9fe139fc054c", "is_reserved": 0, "rental_uris": {"android": "https://dc.lft.to/lastmile_qr_scan", "ios": "https://dc.lft.to/lastmile_qr_scan"}, "fusion_lon": 0.0}, {"lat": 38.84464583333333, "is_disabled": 0, "type": "electric_bike", "lon": -76.98753783333333, "bike_id": "eea87442d8e12417161f3f4d85a15d97", "fusion_lat": 0.0, "name": "eea87442d8e12417161f3f4d85a15d97", "is_reserved": 0, "rental_uris": {"android": "https://dc.lft.to/lastmile_qr_scan", "ios": "https://dc.lft.to/lastmile_qr_scan"}, "fusion_lon": 0.0}, {"lat": 38.8762825, "is_disabled": 0, "type": "electric_scooter", "lon": -76.96526516666667, "bike_id": "634fa01da62a565367acfe260bab58c0", "fusion_lat": 0.0, "name": "634fa01da62a565367acfe260bab58c0", "is_reserved": 0, "rental_uris": {"android": "https://dc.lft.to/lastmile_qr_scan", "ios": "https://dc.lft.to/lastmile_qr_scan"}, "fusion_lon": 0.0}, {"lat": 38.85931166666667, "is_disabled": 0, "type": "electric_scooter", "lon": -76.99716816666667, "bike_id": "ba348320bfa2c827a5f804e7489cd467", "fusion_lat": 0.0, "name": "ba348320bfa2c827a5f804e7489cd467", "is_reserved": 0, "rental_uris": {"android": "https://dc.lft.to/lastmile_qr_scan", "ios": "https://dc.lft.to/lastmile_qr_scan"}, "fusion_lon": 0.0}, {"lat": 38.899693666666664, "is_disabled": 0, "type": "electric_scooter", "lon": -76.92659866666666, "bike_id": "dee30578086684b0efaa6e003ac58933", "fusion_lat": 0.0, "name": "dee30578086684b0efaa6e003ac58933", "is_reserved": 0, "rental_uris": {"android": "https://dc.lft.to/lastmile_qr_scan", "ios": "https://dc.lft.to/lastmile_qr_scan"}, "fusion_lon": 0.0}, {"lat": 38.9177535, "is_disabled": 0, "type": "electric_scooter", "lon": -77.02305266666667, "bike_id": "8c1ba21b4a0cc0734419b69d7bdb5114", "fusion_lat": 0.0, "name": "8c1ba21b4a0cc0734419b69d7bdb5114", "is_reserved": 0, "rental_uris": {"android": "https://dc.lft.to/lastmile_qr_scan", "ios": "https://dc.lft.to/lastmile_qr_scan"}, "fusion_lon": 0.0}, {"lat": 38.90732766666667, "is_disabled": 0, "type": "electric_scooter", "lon": -77.02369616666667, "bike_id": "6ab1be80ae6979df84ebacee0e639467", "fusion_lat": 0.0, "name": "6ab1be80ae6979df84ebacee0e639467", "is_reserved": 0, "rental_uris": {"android": "https://dc.lft.to/lastmile_qr_scan", "ios": "https://dc.lft.to/lastmile_qr_scan"}, "fusion_lon": 0.0}, {"lat": 38.902846, "is_disabled": 0, "type": "electric_scooter", "lon": -77.038577, "bike_id": "3242e0d1295e6a52dd8992f2ac3648e0", "fusion_lat": 0.0, "name": "3242e0d1295e6a52dd8992f2ac3648e0", "is_reserved": 0, "rental_uris": {"android": "https://dc.lft.to/lastmile_qr_scan", "ios": "https://dc.lft.to/lastmile_qr_scan"}, "fusion_lon": 0.0}, {"lat": 38.90470166666667, "is_disabled": 0, "type": "electric_scooter", "lon": -77.04880566666667, "bike_id": "31c5c249cf292de4bbfcbabff47478e1", "fusion_lat": 0.0, "name": "31c5c249cf292de4bbfcbabff47478e1", "is_reserved": 0, "rental_uris": {"android": "https://dc.lft.to/lastmile_qr_scan", "ios": "https://dc.lft.to/lastmile_qr_scan"}, "fusion_lon": 0.0}, {"lat": 38.912602166666666, "is_disabled": 0, "type": "electric_scooter", "lon": -77.037457, "bike_id": "9bb01cb45d5b2429db860c74404b88bf", "fusion_lat": 0.0, "name": "9bb01cb45d5b2429db860c74404b88bf", "is_reserved": 0, "rental_uris": {"android": "https://dc.lft.to/lastmile_qr_scan", "ios": "https://dc.lft.to/lastmile_qr_scan"}, "fusion_lon": 0.0}, {"lat": 38.912489, "is_disabled": 0, "type": "electric_scooter", "lon": -77.03206483333334, "bike_id": "363e9ae49fb69c7667c68f87e1567477", "fusion_lat": 0.0, "name": "363e9ae49fb69c7667c68f87e1567477", "is_reserved": 0, "rental_uris": {"android": "https://dc.lft.to/lastmile_qr_scan", "ios": "https://dc.lft.to/lastmile_qr_scan"}, "fusion_lon": 0.0}, {"lat": 39.052017166666666, "is_disabled": 0, "type": "electric_bike", "lon": -77.10919283333334, "bike_id": "570215fccd87b76649149a85e8f5a448", "fusion_lat": 0.0, "name": "570215fccd87b76649149a85e8f5a448", "is_reserved": 0, "rental_uris": {"android": "https://dc.lft.to/lastmile_qr_scan", "ios": "https://dc.lft.to/lastmile_qr_scan"}, "fusion_lon": 0.0}, {"lat": 38.900146666666664, "is_disabled": 0, "type": "electric_scooter", "lon": -77.04500366666667, "bike_id": "26bf12f6527e5be2f73010909fba4e1f", "fusion_lat": 0.0, "name": "26bf12f6527e5be2f73010909fba4e1f", "is_reserved": 0, "rental_uris": {"android": "https://dc.lft.to/lastmile_qr_scan", "ios": "https://dc.lft.to/lastmile_qr_scan"}, "fusion_lon": 0.0}, {"lat": 38.90066, "is_disabled": 0, "type": "electric_scooter", "lon": -77.02603233333333, "bike_id": "a99cbeb2b1f73857562a2a2bfedd1fe3", "fusion_lat": 0.0, "name": "a99cbeb2b1f73857562a2a2bfedd1fe3", "is_reserved": 0, "rental_uris": {"android": "https://dc.lft.to/lastmile_qr_scan", "ios": "https://dc.lft.to/lastmile_qr_scan"}, "fusion_lon": 0.0}, {"lat": 38.92149583333333, "is_disabled": 0, "type": "electric_scooter", "lon": -77.03503766666667, "bike_id": "173565b5d68ededcc852bc5914304ca3", "fusion_lat": 0.0, "name": "173565b5d68ededcc852bc5914304ca3", "is_reserved": 0, "rental_uris": {"android": "https://dc.lft.to/lastmile_qr_scan", "ios": "https://dc.lft.to/lastmile_qr_scan"}, "fusion_lon": 0.0}, {"lat": 38.887386, "is_disabled": 0, "type": "electric_scooter", "lon": -77.0153125, "bike_id": "e6d01b4a000a964206cfb84c1f5ccb4e", "fusion_lat": 0.0, "name": "e6d01b4a000a964206cfb84c1f5ccb4e", "is_reserved": 0, "rental_uris": {"android": "https://dc.lft.to/lastmile_qr_scan", "ios": "https://dc.lft.to/lastmile_qr_scan"}, "fusion_lon": 0.0}, {"lat": 38.93224, "is_disabled": 0, "type": "electric_scooter", "lon": -76.99603983333333, "bike_id": "63e45ff599103380ba82b0ceae4f2f40", "fusion_lat": 0.0, "name": "63e45ff599103380ba82b0ceae4f2f40", "is_reserved": 0, "rental_uris": {"android": "https://dc.lft.to/lastmile_qr_scan", "ios": "https://dc.lft.to/lastmile_qr_scan"}, "fusion_lon": 0.0}, {"lat": 38.91694366666667, "is_disabled": 0, "type": "electric_scooter", "lon": -77.03211083333333, "bike_id": "49dfe385680cc19b51fcbb87f55e910f", "fusion_lat": 0.0, "name": "49dfe385680cc19b51fcbb87f55e910f", "is_reserved": 0, "rental_uris": {"android": "https://dc.lft.to/lastmile_qr_scan", "ios": "https://dc.lft.to/lastmile_qr_scan"}, "fusion_lon": 0.0}, {"lat": 38.92674483333333, "is_disabled": 0, "type": "electric_scooter", "lon": -77.0380385, "bike_id": "dca42262de8348483cc8235e0e13eefa", "fusion_lat": 0.0, "name": "dca42262de8348483cc8235e0e13eefa", "is_reserved": 0, "rental_uris": {"android": "https://dc.lft.to/lastmile_qr_scan", "ios": "https://dc.lft.to/lastmile_qr_scan"}, "fusion_lon": 0.0}, {"lat": 38.91752066666667, "is_disabled": 0, "type": "electric_scooter", "lon": -77.02819583333333, "bike_id": "cf4ba56db12de133a66c0f190ff036dd", "fusion_lat": 0.0, "name": "cf4ba56db12de133a66c0f190ff036dd", "is_reserved": 0, "rental_uris": {"android": "https://dc.lft.to/lastmile_qr_scan", "ios": "https://dc.lft.to/lastmile_qr_scan"}, "fusion_lon": 0.0}, {"lat": 38.91902266666666, "is_disabled": 0, "type": "electric_scooter", "lon": -77.00236216666667, "bike_id": "b554e1783468e907a9f37d28712d4f5e", "fusion_lat": 0.0, "name": "b554e1783468e907a9f37d28712d4f5e", "is_reserved": 0, "rental_uris": {"android": "https://dc.lft.to/lastmile_qr_scan", "ios": "https://dc.lft.to/lastmile_qr_scan"}, "fusion_lon": 0.0}, {"lat": 38.92154383333333, "is_disabled": 0, "type": "electric_scooter", "lon": -77.03871466666666, "bike_id": "00140ce42417809aee9a046f08ee666d", "fusion_lat": 0.0, "name": "00140ce42417809aee9a046f08ee666d", "is_reserved": 0, "rental_uris": {"android": "https://dc.lft.to/lastmile_qr_scan", "ios": "https://dc.lft.to/lastmile_qr_scan"}, "fusion_lon": 0.0}, {"lat": 38.91818716666667, "is_disabled": 0, "type": "electric_scooter", "lon": -77.03090533333334, "bike_id": "2f212bd7064176b1815b8e2b6b91d03c", "fusion_lat": 0.0, "name": "2f212bd7064176b1815b8e2b6b91d03c", "is_reserved": 0, "rental_uris": {"android": "https://dc.lft.to/lastmile_qr_scan", "ios": "https://dc.lft.to/lastmile_qr_scan"}, "fusion_lon": 0.0}, {"lat": 38.917044833333335, "is_disabled": 0, "type": "electric_scooter", "lon": -77.033732, "bike_id": "9c7f5f05a60bc09e213fa36bb88377de", "fusion_lat": 0.0, "name": "9c7f5f05a60bc09e213fa36bb88377de", "is_reserved": 0, "rental_uris": {"android": "https://dc.lft.to/lastmile_qr_scan", "ios": "https://dc.lft.to/lastmile_qr_scan"}, "fusion_lon": 0.0}, {"lat": 38.930643333333336, "is_disabled": 0, "type": "electric_scooter", "lon": -77.02814566666666, "bike_id": "109e0e2955b18d6d788fbca0b687d40d", "fusion_lat": 0.0, "name": "109e0e2955b18d6d788fbca0b687d40d", "is_reserved": 0, "rental_uris": {"android": "https://dc.lft.to/lastmile_qr_scan", "ios": "https://dc.lft.to/lastmile_qr_scan"}, "fusion_lon": 0.0}, {"lat": 38.88600916666667, "is_disabled": 0, "type": "electric_scooter", "lon": -77.021959, "bike_id": "24ca52e2728070940c6ebc0fba3144ea", "fusion_lat": 0.0, "name": "24ca52e2728070940c6ebc0fba3144ea", "is_reserved": 0, "rental_uris": {"android": "https://dc.lft.to/lastmile_qr_scan", "ios": "https://dc.lft.to/lastmile_qr_scan"}, "fusion_lon": 0.0}, {"lat": 38.88111416666667, "is_disabled": 0, "type": "electric_scooter", "lon": -76.98339433333334, "bike_id": "6425db4258e843e9b576aba04cf2b321", "fusion_lat": 0.0, "name": "6425db4258e843e9b576aba04cf2b321", "is_reserved": 0, "rental_uris": {"android": "https://dc.lft.to/lastmile_qr_scan", "ios": "https://dc.lft.to/lastmile_qr_scan"}, "fusion_lon": 0.0}, {"lat": 38.90290133333333, "is_disabled": 0, "type": "electric_scooter", "lon": -77.04682616666666, "bike_id": "19b23cc2320e650cf34a7f461a99625b", "fusion_lat": 0.0, "name": "19b23cc2320e650cf34a7f461a99625b", "is_reserved": 0, "rental_uris": {"android": "https://dc.lft.to/lastmile_qr_scan", "ios": "https://dc.lft.to/lastmile_qr_scan"}, "fusion_lon": 0.0}, {"lat": 38.845657333333335, "is_disabled": 0, "type": "electric_bike", "lon": -77.096226, "bike_id": "caef8a2faf92bb8e8cf4a830ab880b56", "fusion_lat": 0.0, "name": "caef8a2faf92bb8e8cf4a830ab880b56", "is_reserved": 0, "rental_uris": {"android": "https://dc.lft.to/lastmile_qr_scan", "ios": "https://dc.lft.to/lastmile_qr_scan"}, "fusion_lon": 0.0}, {"lat": 38.92712, "is_disabled": 0, "type": "electric_scooter", "lon": -77.02097383333333, "bike_id": "d977cedacc355f8cd2ccbc6806a3e92e", "fusion_lat": 0.0, "name": "d977cedacc355f8cd2ccbc6806a3e92e", "is_reserved": 0, "rental_uris": {"android": "https://dc.lft.to/lastmile_qr_scan", "ios": "https://dc.lft.to/lastmile_qr_scan"}, "fusion_lon": 0.0}, {"lat": 38.91611183333333, "is_disabled": 0, "type": "electric_scooter", "lon": -77.03295983333334, "bike_id": "f097f4afc80c0910a02687feee22f176", "fusion_lat": 0.0, "name": "f097f4afc80c0910a02687feee22f176", "is_reserved": 0, "rental_uris": {"android": "https://dc.lft.to/lastmile_qr_scan", "ios": "https://dc.lft.to/lastmile_qr_scan"}, "fusion_lon": 0.0}, {"lat": 38.9056375, "is_disabled": 0, "type": "electric_scooter", "lon": -77.0435905, "bike_id": "99fa502fc0c5443e143ad911e6b17f27", "fusion_lat": 0.0, "name": "99fa502fc0c5443e143ad911e6b17f27", "is_reserved": 0, "rental_uris": {"android": "https://dc.lft.to/lastmile_qr_scan", "ios": "https://dc.lft.to/lastmile_qr_scan"}, "fusion_lon": 0.0}, {"lat": 38.87145966666667, "is_disabled": 0, "type": "electric_bike", "lon": -76.93703283333333, "bike_id": "4d44a0c6f975bc3f85d8feeaa42cb93d", "fusion_lat": 0.0, "name": "4d44a0c6f975bc3f85d8feeaa42cb93d", "is_reserved": 0, "rental_uris": {"android": "https://dc.lft.to/lastmile_qr_scan", "ios": "https://dc.lft.to/lastmile_qr_scan"}, "fusion_lon": 0.0}, {"lat": 38.86712466666667, "is_disabled": 0, "type": "electric_scooter", "lon": -76.98724683333333, "bike_id": "8f37bf76d4bd6ee75333342f9d1d3224", "fusion_lat": 0.0, "name": "8f37bf76d4bd6ee75333342f9d1d3224", "is_reserved": 0, "rental_uris": {"android": "https://dc.lft.to/lastmile_qr_scan", "ios": "https://dc.lft.to/lastmile_qr_scan"}, "fusion_lon": 0.0}, {"lat": 38.9309675, "is_disabled": 0, "type": "electric_scooter", "lon": -77.02510383333333, "bike_id": "932a641eb59239c2e7b21e3631a1eebf", "fusion_lat": 0.0, "name": "932a641eb59239c2e7b21e3631a1eebf", "is_reserved": 0, "rental_uris": {"android": "https://dc.lft.to/lastmile_qr_scan", "ios": "https://dc.lft.to/lastmile_qr_scan"}, "fusion_lon": 0.0}, {"lat": 38.872370333333336, "is_disabled": 0, "type": "electric_scooter", "lon": -77.01207466666666, "bike_id": "272c63db22af8109d080d04e8d03d4a3", "fusion_lat": 0.0, "name": "272c63db22af8109d080d04e8d03d4a3", "is_reserved": 0, "rental_uris": {"android": "https://dc.lft.to/lastmile_qr_scan", "ios": "https://dc.lft.to/lastmile_qr_scan"}, "fusion_lon": 0.0}, {"lat": 38.89934133333333, "is_disabled": 0, "type": "electric_scooter", "lon": -77.0401575, "bike_id": "c490b054400e4b1e2c888f742d3f8ede", "fusion_lat": 0.0, "name": "c490b054400e4b1e2c888f742d3f8ede", "is_reserved": 0, "rental_uris": {"android": "https://dc.lft.to/lastmile_qr_scan", "ios": "https://dc.lft.to/lastmile_qr_scan"}, "fusion_lon": 0.0}, {"lat": 38.88692916666667, "is_disabled": 0, "type": "electric_scooter", "lon": -77.00219266666667, "bike_id": "5134c3b53ec4d081257e93ae865a8c07", "fusion_lat": 0.0, "name": "5134c3b53ec4d081257e93ae865a8c07", "is_reserved": 0, "rental_uris": {"android": "https://dc.lft.to/lastmile_qr_scan", "ios": "https://dc.lft.to/lastmile_qr_scan"}, "fusion_lon": 0.0}, {"lat": 38.8624795, "is_disabled": 0, "type": "electric_scooter", "lon": -76.9926545, "bike_id": "1d5cb5a06c82b8c90da4660a11f6dda0", "fusion_lat": 0.0, "name": "1d5cb5a06c82b8c90da4660a11f6dda0", "is_reserved": 0, "rental_uris": {"android": "https://dc.lft.to/lastmile_qr_scan", "ios": "https://dc.lft.to/lastmile_qr_scan"}, "fusion_lon": 0.0}, {"lat": 38.90091733333333, "is_disabled": 0, "type": "electric_scooter", "lon": -77.04920716666666, "bike_id": "fcc25949f3b682ebda0e8b32cbb32d0c", "fusion_lat": 0.0, "name": "fcc25949f3b682ebda0e8b32cbb32d0c", "is_reserved": 0, "rental_uris": {"android": "https://dc.lft.to/lastmile_qr_scan", "ios": "https://dc.lft.to/lastmile_qr_scan"}, "fusion_lon": 0.0}, {"lat": 38.92586, "is_disabled": 0, "type": "electric_scooter", "lon": -77.0228835, "bike_id": "e66135f2d605b4ea6f1d03d87a65fbb8", "fusion_lat": 0.0, "name": "e66135f2d605b4ea6f1d03d87a65fbb8", "is_reserved": 0, "rental_uris": {"android": "https://dc.lft.to/lastmile_qr_scan", "ios": "https://dc.lft.to/lastmile_qr_scan"}, "fusion_lon": 0.0}, {"lat": 38.957866833333334, "is_disabled": 0, "type": "electric_scooter", "lon": -77.02754183333333, "bike_id": "13a95c04b6b81236704ca6b911f0c989", "fusion_lat": 0.0, "name": "13a95c04b6b81236704ca6b911f0c989", "is_reserved": 0, "rental_uris": {"android": "https://dc.lft.to/lastmile_qr_scan", "ios": "https://dc.lft.to/lastmile_qr_scan"}, "fusion_lon": 0.0}, {"lat": 38.939737, "is_disabled": 0, "type": "electric_scooter", "lon": -77.0358785, "bike_id": "e0c6687bd6cfc9f510d0fe48931ffeb3", "fusion_lat": 0.0, "name": "e0c6687bd6cfc9f510d0fe48931ffeb3", "is_reserved": 0, "rental_uris": {"android": "https://dc.lft.to/lastmile_qr_scan", "ios": "https://dc.lft.to/lastmile_qr_scan"}, "fusion_lon": 0.0}, {"lat": 38.90992933333333, "is_disabled": 0, "type": "electric_scooter", "lon": -77.00892933333333, "bike_id": "3cb1c6fb56bd9b8da60233f8731aad8f", "fusion_lat": 0.0, "name": "3cb1c6fb56bd9b8da60233f8731aad8f", "is_reserved": 0, "rental_uris": {"android": "https://dc.lft.to/lastmile_qr_scan", "ios": "https://dc.lft.to/lastmile_qr_scan"}, "fusion_lon": 0.0}, {"lat": 38.908791666666666, "is_disabled": 0, "type": "electric_scooter", "lon": -77.036613, "bike_id": "170b54d3ce27ca7fbb2562ec2213c6dc", "fusion_lat": 0.0, "name": "170b54d3ce27ca7fbb2562ec2213c6dc", "is_reserved": 0, "rental_uris": {"android": "https://dc.lft.to/lastmile_qr_scan", "ios": "https://dc.lft.to/lastmile_qr_scan"}, "fusion_lon": 0.0}, {"lat": 38.91862866666666, "is_disabled": 0, "type": "electric_scooter", "lon": -77.040232, "bike_id": "10672ce0845d8edb75ca866759937559", "fusion_lat": 0.0, "name": "10672ce0845d8edb75ca866759937559", "is_reserved": 0, "rental_uris": {"android": "https://dc.lft.to/lastmile_qr_scan", "ios": "https://dc.lft.to/lastmile_qr_scan"}, "fusion_lon": 0.0}, {"lat": 38.92000783333334, "is_disabled": 0, "type": "electric_scooter", "lon": -77.039668, "bike_id": "91fb950a7654536d499799225fe886d1", "fusion_lat": 0.0, "name": "91fb950a7654536d499799225fe886d1", "is_reserved": 0, "rental_uris": {"android": "https://dc.lft.to/lastmile_qr_scan", "ios": "https://dc.lft.to/lastmile_qr_scan"}, "fusion_lon": 0.0}, {"lat": 38.89606333333333, "is_disabled": 0, "type": "electric_scooter", "lon": -77.013317, "bike_id": "c07f03bd4f4586d7c1574815f7e8d26d", "fusion_lat": 0.0, "name": "c07f03bd4f4586d7c1574815f7e8d26d", "is_reserved": 0, "rental_uris": {"android": "https://dc.lft.to/lastmile_qr_scan", "ios": "https://dc.lft.to/lastmile_qr_scan"}, "fusion_lon": 0.0}, {"lat": 38.931089666666665, "is_disabled": 0, "type": "electric_scooter", "lon": -77.03822233333334, "bike_id": "71a75b62a3c7d80692f5b8820eef9464", "fusion_lat": 0.0, "name": "71a75b62a3c7d80692f5b8820eef9464", "is_reserved": 0, "rental_uris": {"android": "https://dc.lft.to/lastmile_qr_scan", "ios": "https://dc.lft.to/lastmile_qr_scan"}, "fusion_lon": 0.0}, {"lat": 38.916204, "is_disabled": 0, "type": "electric_scooter", "lon": -77.023937, "bike_id": "3773bb58f23de0674f3d77abad19172e", "fusion_lat": 0.0, "name": "3773bb58f23de0674f3d77abad19172e", "is_reserved": 0, "rental_uris": {"android": "https://dc.lft.to/lastmile_qr_scan", "ios": "https://dc.lft.to/lastmile_qr_scan"}, "fusion_lon": 0.0}, {"lat": 38.90416783333333, "is_disabled": 0, "type": "electric_scooter", "lon": -76.99070616666667, "bike_id": "8385654c855314eb818bf1c20d345d15", "fusion_lat": 0.0, "name": "8385654c855314eb818bf1c20d345d15", "is_reserved": 0, "rental_uris": {"android": "https://dc.lft.to/lastmile_qr_scan", "ios": "https://dc.lft.to/lastmile_qr_scan"}, "fusion_lon": 0.0}, {"lat": 38.931053166666665, "is_disabled": 0, "type": "electric_scooter", "lon": -77.03029933333333, "bike_id": "d0575f250421af6a3872fa983b80ffe6", "fusion_lat": 0.0, "name": "d0575f250421af6a3872fa983b80ffe6", "is_reserved": 0, "rental_uris": {"android": "https://dc.lft.to/lastmile_qr_scan", "ios": "https://dc.lft.to/lastmile_qr_scan"}, "fusion_lon": 0.0}, {"lat": 38.903988, "is_disabled": 0, "type": "electric_scooter", "lon": -77.04343583333333, "bike_id": "4cbe7044793f93b3cd8d908433166c1d", "fusion_lat": 0.0, "name": "4cbe7044793f93b3cd8d908433166c1d", "is_reserved": 0, "rental_uris": {"android": "https://dc.lft.to/lastmile_qr_scan", "ios": "https://dc.lft.to/lastmile_qr_scan"}, "fusion_lon": 0.0}, {"lat": 38.9196445, "is_disabled": 0, "type": "electric_scooter", "lon": -76.99229166666667, "bike_id": "76b46873974e949d907ad0c4ceca4dc6", "fusion_lat": 0.0, "name": "76b46873974e949d907ad0c4ceca4dc6", "is_reserved": 0, "rental_uris": {"android": "https://dc.lft.to/lastmile_qr_scan", "ios": "https://dc.lft.to/lastmile_qr_scan"}, "fusion_lon": 0.0}, {"lat": 38.908528833333335, "is_disabled": 0, "type": "electric_scooter", "lon": -77.0061885, "bike_id": "eaf107d3fe8cf9fd9c614cc5b6dfe8f4", "fusion_lat": 0.0, "name": "eaf107d3fe8cf9fd9c614cc5b6dfe8f4", "is_reserved": 0, "rental_uris": {"android": "https://dc.lft.to/lastmile_qr_scan", "ios": "https://dc.lft.to/lastmile_qr_scan"}, "fusion_lon": 0.0},