{"data": {"bikes": [{"is_reserved": 0, "type": "electric_scooter", "fusion_lat": 0.0, "is_disabled": 0, "rental_uris": {"ios": "https://dc.lft.to/lastmile_qr_scan", "android": "https://dc.lft.to/lastmile_qr_scan"}, "bike_id": "5259150f20546d5bc973f88999fafc05", "lat": 38.912861, "name": "5259150f20546d5bc973f88999fafc05", "lon": -76.98694966666666, "fusion_lon": 0.0}, {"is_reserved": 0, "type": "electric_scooter", "fusion_lat": 0.0, "is_disabled": 0, "rental_uris": {"ios": "https://dc.lft.to/lastmile_qr_scan", "android": "https://dc.lft.to/lastmile_qr_scan"}, "bike_id": "ffde64acb22ce0ac43dff08f6eaf35aa", "lat": 38.895388833333335, "name": "ffde64acb22ce0ac43dff08f6eaf35aa", "lon": -77.02679383333333, "fusion_lon": 0.0}, {"is_reserved": 0, "type": "electric_bike", "fusion_lat": 0.0, "is_disabled": 0, "rental_uris": {"ios": "https://dc.lft.to/lastmile_qr_scan", "android": "https://dc.lft.to/lastmile_qr_scan"}, "bike_id": "82e056d1d7683a15378179347a1f620d", "lat": 38.84686333333333, "name": "82e056d1d7683a15378179347a1f620d", "lon": -76.98063033333334, "fusion_lon": 0.0}, {"is_reserved": 0, "type": "electric_scooter", "fusion_lat": 0.0, "is_disabled": 0, "rental_uris": {"ios": "https://dc.lft.to/lastmile_qr_scan", "android": "https://dc.lft.to/lastmile_qr_scan"}, "bike_id": "2e60a11247c3b8387272270379b5a50b", "lat": 38.905846833333335, "name": "2e60a11247c3b8387272270379b5a50b", "lon": -77.0161515, "fusion_lon": 0.0}, {"is_reserved": 0, "type": "electric_scooter", "fusion_lat": 0.0, "is_disabled": 0, "rental_uris": {"ios": "https://dc.lft.to/lastmile_qr_scan", "android": "https://dc.lft.to/lastmile_qr_scan"}, "bike_id": "44612b79ee289f41ff4b473a3d9b2cb5", "lat": 38.932234, "name": "44612b79ee289f41ff4b473a3d9b2cb5", "lon": -76.99706083333334, "fusion_lon": 0.0}, {"is_reserved": 0, "type": "electric_bike", "fusion_lat": 0.0, "is_disabled": 0, "rental_uris": {"ios": "https://dc.lft.to/lastmile_qr_scan", "android": "https://dc.lft.to/lastmile_qr_scan"}, "bike_id": "a0cc801cc2d5c13d514a6b8116ad7e23", "lat": 38.887602666666666, "name": "a0cc801cc2d5c13d514a6b8116ad7e23", "lon": -77.15650133333334, "fusion_lon": 0.0}, {"is_reserved": 0, "type": "electric_bike", "fusion_lat": 0.0, "is_disabled": 0, "rental_uris": {"ios": "https://dc.lft.to/lastmile_qr_scan", "android": "https://dc.lft.to/lastmile_qr_scan"}, "bike_id": "1ffaa5545d788a71014c158d270413ac", "lat": 38.90225366666667, "name": "1ffaa5545d788a71014c158d270413ac", "lon": -77.05906116666667, "fusion_lon": 0.0}, {"is_reserved": 0, "type": "electric_scooter", "fusion_lat": 0.0, "is_disabled": 0, "rental_uris": {"ios": "https://dc.lft.to/lastmile_qr_scan", "android": "https://dc.lft.to/lastmile_qr_scan"}, "bike_id": "c9fa76a40c45dfb8a73c3d2cc14273dc", "lat": 38.93010866666667, "name": "c9fa76a40c45dfb8a73c3d2cc14273dc", "lon": -77.02107133333334, "fusion_lon": 0.0}, {"is_reserved": 0, "type": "electric_scooter", "fusion_lat": 0.0, "is_disabled": 0, "rental_uris": {"ios": "https://dc.lft.to/lastmile_qr_scan", "android": "https://dc.lft.to/lastmile_qr_scan"}, "bike_id": "f8c6b8cbd386fda25af2e802f5cefafb", "lat": 38.9180085, "name": "f8c6b8cbd386fda25af2e802f5cefafb", "lon": -77.04422733333334, "fusion_lon": 0.0}, {"is_reserved": 0, "type": "electric_scooter", "fusion_lat": 0.0, "is_disabled": 0, "rental_uris": {"ios": "https://dc.lft.to/lastmile_qr_scan", "android": "https://dc.lft.to/lastmile_qr_scan"}, "bike_id": "e92a258f3f6b6c48e5a4ae8babfa2c5c", "lat": 38.89739866666667, "name": "e92a258f3f6b6c48e5a4ae8babfa2c5c", "lon": -77.047927, "fusion_lon": 0.0}, {"is_reserved": 0, "type": "electric_scooter", "fusion_lat": 0.0, "is_disabled": 0, "rental_uris": {"ios": "https://dc.lft.to/lastmile_qr_scan", "android": "https://dc.lft.to/lastmile_qr_scan"}, "bike_id": "82b2c69476d664c441f297c5e3006364", "lat": 38.897519333333335, "name": "82b2c69476d664c441f297c5e3006364", "lon": -77.02807883333334, "fusion_lon": 0.0}, {"is_reserved": 0, "type": "electric_scooter", "fusion_lat": 0.0, "is_disabled": 0, "rental_uris": {"ios": "https://dc.lft.to/lastmile_qr_scan", "android": "https://dc.lft.to/lastmile_qr_scan"}, "bike_id": "42e2258ac7bc7d2547fe03c252c71f31", "lat": 38.901079, "name": "42e2258ac7bc7d2547fe03c252c71f31", "lon": -77.0343955, "fusion_lon": 0.0}, {"is_reserved": 0, "type": "electric_scooter", "fusion_lat": 0.0, "is_disabled": 0, "rental_uris": {"ios": "https://dc.lft.to/lastmile_qr_scan", "android": "https://dc.lft.to/lastmile_qr_scan"}, "bike_id": "c2de0e5fcb66167ddb4ebe130a342e65", "lat": 38.91624, "name": "c2de0e5fcb66167ddb4ebe130a342e65", "lon": -77.03183933333334, "fusion_lon": 0.0}, {"is_reserved": 0, "type": "electric_scooter", "fusion_lat": 0.0, "is_disabled": 0, "rental_uris": {"ios": "https://dc.lft.to/lastmile_qr_scan", "android": "https://dc.lft.to/lastmile_qr_scan"}, "bike_id": "53dd0556ae40c0ab008b1525481ba15e", "lat": 38.90244033333333, "name": "53dd0556ae40c0ab008b1525481ba15e", "lon": -77.02007216666667, "fusion_lon": 0.0}, {"is_reserved": 0, "type": "electric_scooter", "fusion_lat": 0.0, "is_disabled": 0, "rental_uris": {"ios": "https://dc.lft.to/lastmile_qr_scan", "android": "https://dc.lft.to/lastmile_qr_scan"}, "bike_id": "32ce1a0ce486da561a1026b0703337d9", "lat": 38.92351883333333, "name": "32ce1a0ce486da561a1026b0703337d9", "lon": -77.0731375, "fusion_lon": 0.0}, {"is_reserved": 0, "type": "electric_scooter", "fusion_lat": 0.0, "is_disabled": 0, "rental_uris": {"ios": "https://dc.lft.to/lastmile_qr_scan", "android": "https://dc.lft.to/lastmile_qr_scan"}, "bike_id": "13074092425e57a5218c738ed64047a0", "lat": 38.93462016666667, "name": "13074092425e57a5218c738ed64047a0", "lon": -77.0278855, "fusion_lon": 0.0}, {"is_reserved": 0, "type": "electric_bike", "fusion_lat": 0.0, "is_disabled": 0, "rental_uris": {"ios": "https://dc.lft.to/lastmile_qr_scan", "android": "https://dc.lft.to/lastmile_qr_scan"}, "bike_id": "0e09c05fa21630503790e83c7bb0ffbd", "lat": 38.98281983333333, "name": "0e09c05fa21630503790e83c7bb0ffbd", "lon": -76.97639, "fusion_lon": 0.0}, {"is_reserved": 0, "type": "electric_scooter", "fusion_lat": 0.0, "is_disabled": 0, "rental_uris": {"ios": "https://dc.lft.to/lastmile_qr_scan", "android": "https://dc.lft.to/lastmile_qr_scan"}, "bike_id": "73195a57e7fb7d88c5767d03f271f428", "lat": 38.930905333333335, "name": "73195a57e7fb7d88c5767d03f271f428", "lon": -77.03441283333333, "fusion_lon": 0.0}, {"is_reserved": 0, "type": "electric_bike", "fusion_lat": 0.0, "is_disabled": 0, "rental_uris": {"ios": "https://dc.lft.to/lastmile_qr_scan", "android": "https://dc.lft.to/lastmile_qr_scan"}, "bike_id": "9689636ea38d08938077f7198d687a78", "lat": 38.8772975, "name": "9689636ea38d08938077f7198d687a78", "lon": -77.11849416666666, "fusion_lon": 0.0}, {"is_reserved": 0, "type": "electric_scooter", "fusion_lat": 0.0, "is_disabled": 0, "rental_uris": {"ios": "https://dc.lft.to/lastmile_qr_scan", "android": "https://dc.lft.to/lastmile_qr_scan"}, "bike_id": "b1d1bc165a0b06b9b5dff1d08f943996", "lat": 38.9159215, "name": "b1d1bc165a0b06b9b5dff1d08f943996", "lon": -77.0320915, "fusion_lon": 0.0}, {"is_reserved": 0, "type": "electric_scooter", "fusion_lat": 0.0, "is_disabled": 0, "rental_uris": {"ios": "https://dc.lft.to/lastmile_qr_scan", "android": "https://dc.lft.to/lastmile_qr_scan"}, "bike_id": "aac64c444d786ce6e8dd2d940a0f1004", "lat": 38.90483183333333, "name": "aac64c444d786ce6e8dd2d940a0f1004", "lon": -77.03561133333334, "fusion_lon": 0.0}, {"is_reserved": 0, "type": "electric_scooter", "fusion_lat": 0.0, "is_disabled": 0, "rental_uris": {"ios": "https://dc.lft.to/lastmile_qr_scan", "android": "https://dc.lft.to/lastmile_qr_scan"}, "bike_id": "c8c6c72bcd2dea0b9216ea472794fae2", "lat": 38.93603683333333, "name": "c8c6c72bcd2dea0b9216ea472794fae2", "lon": -77.05591233333334, "fusion_lon": 0.0}, {"is_reserved": 0, "type": "electric_scooter", "fusion_lat": 0.0, "is_disabled": 0, "rental_uris": {"ios": "https://dc.lft.to/lastmile_qr_scan", "android": "https://dc.lft.to/lastmile_qr_scan"}, "bike_id": "70aaac5c0702c04ac0d39c4fd93ddcd6", "lat": 38.92149533333333, "name": "70aaac5c0702c04ac0d39c4fd93ddcd6", "lon": -77.03507333333333, "fusion_lon": 0.0}, {"is_reserved": 0, "type": "electric_scooter", "fusion_lat": 0.0, "is_disabled": 0, "rental_uris": {"ios": "https://dc.lft.to/lastmile_qr_scan", "android": "https://dc.lft.to/lastmile_qr_scan"}, "bike_id": "ac16fe1ee3eb0cee9ce3fd5990213f7d", "lat": 38.91811766666667, "name": "ac16fe1ee3eb0cee9ce3fd5990213f7d", "lon": -77.026968, "fusion_lon": 0.0}, {"is_reserved": 0, "type": "electric_scooter", "fusion_lat": 0.0, "is_disabled": 0, "rental_uris": {"ios": "https://dc.lft.to/lastmile_qr_scan", "android": "https://dc.lft.to/lastmile_qr_scan"}, "bike_id": "6dd527a39abcf2d5081c32cead15fd2c", "lat": 38.9275505, "name": "6dd527a39abcf2d5081c32cead15fd2c", "lon": -77.03273783333333, "fusion_lon": 0.0}, {"is_reserved": 0, "type": "electric_scooter", "fusion_lat": 0.0, "is_disabled": 0, "rental_uris": {"ios": "https://dc.lft.to/lastmile_qr_scan", "android": "https://dc.lft.to/lastmile_qr_scan"}, "bike_id": "e03d5d767ab1d545d8859c8f43bf7ccf", "lat": 38.90304116666667, "name": "e03d5d767ab1d545d8859c8f43bf7ccf", "lon": -77.028165, "fusion_lon": 0.0}, {"is_reserved": 0, "type": "electric_scooter", "fusion_lat": 0.0, "is_disabled": 0, "rental_uris": {"ios": "https://dc.lft.to/lastmile_qr_scan", "android": "https://dc.lft.to/lastmile_qr_scan"}, "bike_id": "a56134fd54f172e0acacb80913d0be28", "lat": 38.917375166666666, "name": "a56134fd54f172e0acacb80913d0be28", "lon": -77.02116016666666, "fusion_lon": 0.0}, {"is_reserved": 0, "type": "electric_scooter", "fusion_lat": 0.0, "is_disabled": 0, "rental_uris": {"ios": "https://dc.lft.to/lastmile_qr_scan", "android": "https://dc.lft.to/lastmile_qr_scan"}, "bike_id": "5d24de18aed0ed29e3160cbc35c6d793", "lat": 38.90713616666667, "name": "5d24de18aed0ed29e3160cbc35c6d793", "lon": -77.00364083333334, "fusion_lon": 0.0}, {"is_reserved": 0, "type": "electric_scooter", "fusion_lat": 0.0, "is_disabled": 0, "rental_uris": {"ios": "https://dc.lft.to/lastmile_qr_scan", "android": "https://dc.lft.to/lastmile_qr_scan"}, "bike_id": "ae991531829c27fdfe55417d6d62b3af", "lat": 38.9679685, "name": "ae991531829c27fdfe55417d6d62b3af", "lon": -77.0255545, "fusion_lon": 0.0}, {"is_reserved": 0, "type": "electric_scooter", "fusion_lat": 0.0, "is_disabled": 0, "rental_uris": {"ios": "https://dc.lft.to/lastmile_qr_scan", "android": "https://dc.lft.to/lastmile_qr_scan"}, "bike_id": "2e34d6c2f4d4b7150cc512d240788140", "lat": 38.919799833333336, "name": "2e34d6c2f4d4b7150cc512d240788140", "lon": -77.04171716666667, "fusion_lon": 0.0}, {"is_reserved": 0, "type": "electric_scooter", "fusion_lat": 0.0, "is_disabled": 0, "rental_uris": {"ios": "https://dc.lft.to/lastmile_qr_scan", "android": "https://dc.lft.to/lastmile_qr_scan"}, "bike_id": "68659e8712639749878f70121ac034e2", "lat": 38.904870833333334, "name": "68659e8712639749878f70121ac034e2", "lon": -76.94962433333333, "fusion_lon": 0.0}, {"is_reserved": 0, "type": "electric_bike", "fusion_lat": 0.0, "is_disabled": 0, "rental_uris": {"ios": "https://dc.lft.to/lastmile_qr_scan", "android": "https://dc.lft.to/lastmile_qr_scan"}, "bike_id": "9222dd0e09f48e4ec2f5d09a81a26705", "lat": 38.95019416666667, "name": "9222dd0e09f48e4ec2f5d09a81a26705", "lon": -77.01427083333333, "fusion_lon": 0.0}, {"is_reserved": 0, "type": "electric_bike", "fusion_lat": 0.0, "is_disabled": 0, "rental_uris": {"ios": "https://dc.lft.to/lastmile_qr_scan", "android": "https://dc.lft.to/lastmile_qr_scan"}, "bike_id": "a7bfb09b1135f7944b82ff9f48540f19", "lat": 38.9338585, "name": "a7bfb09b1135f7944b82ff9f48540f19", "lon": -77.0238965, "fusion_lon": 0.0}, {"is_reserved": 0, "type": "electric_scooter", "fusion_lat": 0.0, "is_disabled": 0, "rental_uris": {"ios": "https://dc.lft.to/lastmile_qr_scan", "android": "https://dc.lft.to/lastmile_qr_scan"}, "bike_id": "ed79a7fb685648a37bd6a6b62269b573", "lat": 38.924572166666664, "name": "ed79a7fb685648a37bd6a6b62269b573", "lon": -77.05220366666667, "fusion_lon": 0.0}, {"is_reserved": 0, "type": "electric_scooter", "fusion_lat": 0.0, "is_disabled": 0, "rental_uris": {"ios": "https://dc.lft.to/lastmile_qr_scan", "android": "https://dc.lft.to/lastmile_qr_scan"}, "bike_id": "afd5831fe03adda431e47acd88388888", "lat": 38.9027795, "name": "afd5831fe03adda431e47acd88388888", "lon": -77.04892733333334, "fusion_lon": 0.0}, {"is_reserved": 0, "type": "electric_scooter", "fusion_lat": 0.0, "is_disabled": 0, "rental_uris": {"ios": "https://dc.lft.to/lastmile_qr_scan", "android": "https://dc.lft.to/lastmile_qr_scan"}, "bike_id": "2c4f83f7171f64e1e24b348de681d842", "lat": 38.9057095, "name": "2c4f83f7171f64e1e24b348de681d842", "lon": -77.02988383333333, "fusion_lon": 0.0}, {"is_reserved": 0, "type": "electric_scooter", "fusion_lat": 0.0, "is_disabled": 0, "rental_uris": {"ios": "https://dc.lft.to/lastmile_qr_scan", "android": "https://dc.lft.to/lastmile_qr_scan"}, "bike_id": "fdcb5884ea37c8b34d3de5c757247b71", "lat": 38.90274466666666, "name": "fdcb5884ea37c8b34d3de5c757247b71", "lon": -77.041735, "fusion_lon": 0.0}, {"is_reserved": 0, "type": "electric_scooter", "fusion_lat": 0.0, "is_disabled": 0, "rental_uris": {"ios": "https://dc.lft.to/lastmile_qr_scan", "android": "https://dc.lft.to/lastmile_qr_scan"}, "bike_id": "4a26714df98b40171f0aaf5553ee9e38", "lat": 38.913706833333336, "name": "4a26714df98b40171f0aaf5553ee9e38", "lon": -77.0447985, "fusion_lon": 0.0}, {"is_reserved": 0, "type": "electric_scooter", "fusion_lat": 0.0, "is_disabled": 0, "rental_uris": {"ios": "https://dc.lft.to/lastmile_qr_scan", "android": "https://dc.lft.to/lastmile_qr_scan"}, "bike_id": "fe026407eb4c3a45684a2d2c88edb9c4", "lat": 38.953739, "name": "fe026407eb4c3a45684a2d2c88edb9c4", "lon": -77.00186533333333, "fusion_lon": 0.0}, {"is_reserved": 0, "type": "electric_scooter", "fusion_lat": 0.0, "is_disabled": 0, "rental_uris": {"ios": "https://dc.lft.to/lastmile_qr_scan", "android": "https://dc.lft.to/lastmile_qr_scan"}, "bike_id": "1ceb654367d5b871c02023d152aeee24", "lat": 38.9126985, "name": "1ceb654367d5b871c02023d152aeee24", "lon": -77.0143735, "fusion_lon": 0.0}, {"is_reserved": 0, "type": "electric_scooter", "fusion_lat": 0.0, "is_disabled": 0, "rental_uris": {"ios": "https://dc.lft.to/lastmile_qr_scan", "android": "https://dc.lft.to/lastmile_qr_scan"}, "bike_id": "4d24b0b27ef3777ceff0cc0f3725b722", "lat": 38.94443866666667, "name": "4d24b0b27ef3777ceff0cc0f3725b722", "lon": -77.03278916666666, "fusion_lon": 0.0}, {"is_reserved": 0, "type": "electric_scooter", "fusion_lat": 0.0, "is_disabled": 0, "rental_uris": {"ios": "https://dc.lft.to/lastmile_qr_scan", "android": "https://dc.lft.to/lastmile_qr_scan"}, "bike_id": "ee3ab6906949a3ce7bb96ee9ac7fe90f", "lat": 38.9047515, "name": "ee3ab6906949a3ce7bb96ee9ac7fe90f", "lon": -77.02725566666666, "fusion_lon": 0.0}, {"is_reserved": 0, "type": "electric_scooter", "fusion_lat": 0.0, "is_disabled": 0, "rental_uris": {"ios": "https://dc.lft.to/lastmile_qr_scan", "android": "https://dc.lft.to/lastmile_qr_scan"}, "bike_id": "5f24a3d29451b21037eea99848da0272", "lat": 38.92873566666667, "name": "5f24a3d29451b21037eea99848da0272", "lon": -77.0399455, "fusion_lon": 0.0}, {"is_reserved": 0, "type": "electric_scooter", "fusion_lat": 0.0, "is_disabled": 0, "rental_uris": {"ios": "https://dc.lft.to/lastmile_qr_scan", "android": "https://dc.lft.to/lastmile_qr_scan"}, "bike_id": "0822c09aba8423e347af569ccf06afea", "lat": 38.892225333333336, "name": "0822c09aba8423e347af569ccf06afea", "lon": -77.04487383333333, "fusion_lon": 0.0}, {"is_reserved": 0, "type": "electric_scooter", "fusion_lat": 0.0, "is_disabled": 0, "rental_uris": {"ios": "https://dc.lft.to/lastmile_qr_scan", "android": "https://dc.lft.to/lastmile_qr_scan"}, "bike_id": "be1ed00481e8fe813df34a6b6b4653d7", "lat": 38.951520333333335, "name": "be1ed00481e8fe813df34a6b6b4653d7", "lon": -77.0186545, "fusion_lon": 0.0}, {"is_reserved": 0, "type": "electric_bike", "fusion_lat": 0.0, "is_disabled": 0, "rental_uris": {"ios": "https://dc.lft.to/lastmile_qr_scan", "android": "https://dc.lft.to/lastmile_qr_scan"}, "bike_id": "3ff7cb266237829edae612448ff35482", "lat": 38.86817033333333, "name": "3ff7cb266237829edae612448ff35482", "lon": -76.98017983333334, "fusion_lon": 0.0}, {"is_reserved": 0, "type": "electric_scooter", "fusion_lat": 0.0, "is_disabled": 0, "rental_uris": {"ios": "https://dc.lft.to/lastmile_qr_scan", "android": "https://dc.lft.to/lastmile_qr_scan"}, "bike_id": "1706b7c61a0c3db23cc426138e93f407", "lat": 38.90364266666667, "name": "1706b7c61a0c3db23cc426138e93f407", "lon": -77.0098255, "fusion_lon": 0.0}, {"is_reserved": 0, "type": "electric_scooter", "fusion_lat": 0.0, "is_disabled": 0, "rental_uris": {"ios": "https://dc.lft.to/lastmile_qr_scan", "android": "https://dc.lft.to/lastmile_qr_scan"}, "bike_id": "c6a6569c67b3050ef92e8425cb3da1cf", "lat": 38.9195215, "name": "c6a6569c67b3050ef92e8425cb3da1cf", "lon": -77.0230535, "fusion_lon": 0.0}, {"is_reserved": 0, "type": "electric_scooter", "fusion_lat": 0.0, "is_disabled": 0, "rental_uris": {"ios": "https://dc.lft.to/lastmile_qr_scan", "android": "https://dc.lft.to/lastmile_qr_scan"}, "bike_id": "5d1b015c13962ac2d74da64e557a3b68", "lat": 38.902508166666664, "name": "5d1b015c13962ac2d74da64e557a3b68", "lon": -77.019881, "fusion_lon": 0.0}, {"is_reserved": 0, "type": "electric_scooter", "fusion_lat": 0.0, "is_disabled": 0, "rental_uris": {"ios": "https://dc.lft.to/lastmile_qr_scan", "android": "https://dc.lft.to/lastmile_qr_scan"}, "bike_id": "a83e6e72ce9cbd9a581608f11a59539c", "lat": 38.917712, "name": "a83e6e72ce9cbd9a581608f11a59539c", "lon": -77.04758583333333, "fusion_lon": 0.0}, {"is_reserved": 0, "type": "electric_scooter", "fusion_lat": 0.0, "is_disabled": 0, "rental_uris": {"ios": "https://dc.lft.to/lastmile_qr_scan", "android": "https://dc.lft.to/lastmile_qr_scan"}, "bike_id": "67338081f790231f1d33756e165e3eb9", "lat": 38.90762483333334, "name": "67338081f790231f1d33756e165e3eb9", "lon": -77.019003, "fusion_lon": 0.0}, {"is_reserved": 0, "type": "electric_scooter", "fusion_lat": 0.0, "is_disabled": 0, "rental_uris": {"ios": "https://dc.lft.to/lastmile_qr_scan", "android": "https://dc.lft.to/lastmile_qr_scan"}, "bike_id": "87bb7e257e78c0dffd27edb826f40722", "lat": 38.917191833333334, "name": "87bb7e257e78c0dffd27edb826f40722", "lon": -77.03456216666666, "fusion_lon": 0.0}, {"is_reserved": 0, "type": "electric_scooter", "fusion_lat": 0.0, "is_disabled": 0, "rental_uris": {"ios": "https://dc.lft.to/lastmile_qr_scan", "android": "https://dc.lft.to/lastmile_qr_scan"}, "bike_id": "5003914c3a1283fc11f07ce6c7ea75ba", "lat": 38.92354316666667, "name": "5003914c3a1283fc11f07ce6c7ea75ba", "lon": -77.03312866666667, "fusion_lon": 0.0}, {"is_reserved": 0, "type": "electric_scooter", "fusion_lat": 0.0, "is_disabled": 0, "rental_uris": {"ios": "https://dc.lft.to/lastmile_qr_scan", "android": "https://dc.lft.to/lastmile_qr_scan"}, "bike_id": "4d9f34bef19671de8dec1e6124d489a2", "lat": 38.884462666666664, "name": "4d9f34bef19671de8dec1e6124d489a2", "lon": -77.024878, "fusion_lon": 0.0}, {"is_reserved": 0, "type": "electric_bike", "fusion_lat": 0.0, "is_disabled": 0, "rental_uris": {"ios": "https://dc.lft.to/lastmile_qr_scan", "android": "https://dc.lft.to/lastmile_qr_scan"}, "bike_id": "8511f18f8800af5d495d8c349454fa96", "lat": 38.880259333333335, "name": "8511f18f8800af5d495d8c349454fa96", "lon": -77.01004216666666, "fusion_lon": 0.0}, {"is_reserved": 0, "type": "electric_scooter", "fusion_lat": 0.0, "is_disabled": 0, "rental_uris": {"ios": "https://dc.lft.to/lastmile_qr_scan", "android": "https://dc.lft.to/lastmile_qr_scan"}, "bike_id": "b263c2c8dc6e9137939d3821c719d47e", "lat": 38.93335533333333, "name": "b263c2c8dc6e9137939d3821c719d47e", "lon": -77.03885383333333, "fusion_lon": 0.0}, {"is_reserved": 0, "type": "electric_scooter", "fusion_lat": 0.0, "is_disabled": 0, "rental_uris": {"ios": "https://dc.lft.to/lastmile_qr_scan", "android": "https://dc.lft.to/lastmile_qr_scan"}, "bike_id": "c2eb9eb1b1f7d577a2af4aeb2f5f4082", "lat": 38.923357, "name": "c2eb9eb1b1f7d577a2af4aeb2f5f4082", "lon": -77.04031233333333, "fusion_lon": 0.0}, {"is_reserved": 0, "type": "electric_scooter", "fusion_lat": 0.0, "is_disabled": 0, "rental_uris": {"ios": "https://dc.lft.to/lastmile_qr_scan", "android": "https://dc.lft.to/lastmile_qr_scan"}, "bike_id": "28cd7629aa4dda3a00049a2638838979", "lat": 38.9256255, "name": "28cd7629aa4dda3a00049a2638838979", "lon": -77.05261666666667, "fusion_lon": 0.0}, {"is_reserved": 0, "type": "electric_scooter", "fusion_lat": 0.0, "is_disabled": 0, "rental_uris": {"ios": "https://dc.lft.to/lastmile_qr_scan", "android": "https://dc.lft.to/lastmile_qr_scan"}, "bike_id": "c826773aad2da66c0b19b112cee0f65f", "lat": 38.92717016666667, "name": "c826773aad2da66c0b19b112cee0f65f", "lon": -77.0209425, "fusion_lon": 0.0}, {"is_reserved": 0, "type": "electric_scooter", "fusion_lat": 0.0, "is_disabled": 0, "rental_uris": {"ios": "https://dc.lft.to/lastmile_qr_scan", "android": "https://dc.lft.to/lastmile_qr_scan"}, "bike_id": "a62b1c0dc40334033e9d00c766faf3cc", "lat": 38.92473966666667, "name": "a62b1c0dc40334033e9d00c766faf3cc", "lon": -77.0284315, "fusion_lon": 0.0}, {"is_reserved": 0, "type": "electric_bike", "fusion_lat": 0.0, "is_disabled": 0, "rental_uris": {"ios": "https://dc.lft.to/lastmile_qr_scan", "android": "https://dc.lft.to/lastmile_qr_scan"}, "bike_id": "50c6b3b0c35c57b3c347b848b0695a2b", "lat": 38.963768333333334, "name": "50c6b3b0c35c57b3c347b848b0695a2b", "lon": -77.01979533333333, "fusion_lon": 0.0}, {"is_reserved": 0, "type": "electric_scooter", "fusion_lat": 0.0, "is_disabled": 0, "rental_uris": {"ios": "https://dc.lft.to/lastmile_qr_scan", "android": "https://dc.lft.to/lastmile_qr_scan"}, "bike_id": "38bbe939cb373692f158a134dd99f2cf", "lat": 38.92800733333333, "name": "38bbe939cb373692f158a134dd99f2cf", "lon": -77.01403566666667, "fusion_lon": 0.0}, {"is_reserved": 0, "type": "electric_scooter", "fusion_lat": 0.0, "is_disabled": 0, "rental_uris": {"ios": "https://dc.lft.to/lastmile_qr_scan", "android": "https://dc.lft.to/lastmile_qr_scan"}, "bike_id": "f4bf21c61b3c385ca49683e4b45bed85", "lat": 38.89543666666667, "name": "f4bf21c61b3c385ca49683e4b45bed85", "lon": -76.98338733333334, "fusion_lon": 0.0}, {"is_reserved": 0, "type": "electric_scooter", "fusion_lat": 0.0, "is_disabled": 0, "rental_uris": {"ios": "https://dc.lft.to/lastmile_qr_scan", "android": "https://dc.lft.to/lastmile_qr_scan"}, "bike_id": "539bc40ce8d7e0d93a7ae5043a38c1f0", "lat": 38.87720683333333, "name": "539bc40ce8d7e0d93a7ae5043a38c1f0", "lon": -77.00607966666666, "fusion_lon": 0.0}, {"is_reserved": 0, "type": "electric_scooter", "fusion_lat": 0.0, "is_disabled": 0, "rental_uris": {"ios": "https://dc.lft.to/lastmile_qr_scan", "android": "https://dc.lft.to/lastmile_qr_scan"}, "bike_id": "aee8340925beffbe25d37b0e2c145dce", "lat": 38.884483833333334, "name": "aee8340925beffbe25d37b0e2c145dce", "lon": -76.9509505, "fusion_lon": 0.0}, {"is_reserved": 0, "type": "electric_scooter", "fusion_lat": 0.0, "is_disabled": 0, "rental_uris": {"ios": "https://dc.lft.to/lastmile_qr_scan", "android": "https://dc.lft.to/lastmile_qr_scan"}, "bike_id": "21c89e51cf7fec4ea06eec62076954d3", "lat": 38.93193633333333, "name": "21c89e51cf7fec4ea06eec62076954d3", "lon": -77.032706, "fusion_lon": 0.0}, {"is_reserved": 0, "type": "electric_scooter", "fusion_lat": 0.0, "is_disabled": 0, "rental_uris": {"ios": "https://dc.lft.to/lastmile_qr_scan", "android": "https://dc.lft.to/lastmile_qr_scan"}, "bike_id": "b3b5c6f1f43773c4db6f7aa8571163c2", "lat": 38.94678116666667, "name": "b3b5c6f1f43773c4db6f7aa8571163c2", "lon": -77.03283183333333, "fusion_lon": 0.0}, {"is_reserved": 0, "type": "electric_scooter", "fusion_lat": 0.0, "is_disabled": 0, "rental_uris": {"ios": "https://dc.lft.to/lastmile_qr_scan", "android": "https://dc.lft.to/lastmile_qr_scan"}, "bike_id": "378939871013985d802b5d9f5477ce81", "lat": 38.938568333333336, "name": "378939871013985d802b5d9f5477ce81", "lon": -77.0245415, "fusion_lon": 0.0}, {"is_reserved": 0, "type": "electric_bike", "fusion_lat": 0.0, "is_disabled": 0, "rental_uris": {"ios": "https://dc.lft.to/lastmile_qr_scan", "android": "https://dc.lft.to/lastmile_qr_scan"}, "bike_id": "c9bfaa6232b4baf238d9abda32cd16f4", "lat": 38.96123683333333, "name": "c9bfaa6232b4baf238d9abda32cd16f4", "lon": -77.0327365, "fusion_lon": 0.0}, {"is_reserved": 0, "type": "electric_scooter", "fusion_lat": 0.0, "is_disabled": 0, "rental_uris": {"ios": "https://dc.lft.to/lastmile_qr_scan", "android": "https://dc.lft.to/lastmile_qr_scan"}, "bike_id": "5f14a68d0b7fce25953bf4924ff137f5", "lat": 38.90517, "name": "5f14a68d0b7fce25953bf4924ff137f5", "lon": -77.03093283333334, "fusion_lon": 0.0}, {"is_reserved": 0, "type": "electric_scooter", "fusion_lat": 0.0, "is_disabled": 0, "rental_uris": {"ios": "https://dc.lft.to/lastmile_qr_scan", "android": "https://dc.lft.to/lastmile_qr_scan"}, "bike_id": "a3b7985a19ef197b1789723d9c0ae8dd", "lat": 38.922893333333334, "name": "a3b7985a19ef197b1789723d9c0ae8dd", "lon": -77.02069166666666, "fusion_lon": 0.0}, {"is_reserved": 0, "type": "electric_scooter", "fusion_lat": 0.0, "is_disabled": 0, "rental_uris": {"ios": "https://dc.lft.to/lastmile_qr_scan", "android": "https://dc.lft.to/lastmile_qr_scan"}, "bike_id": "56631c5c24570052755f37e0ac54af21", "lat": 38.916957333333336, "name": "56631c5c24570052755f37e0ac54af21", "lon": -77.00495066666667, "fusion_lon": 0.0}, {"is_reserved": 0, "type": "electric_bike", "fusion_lat": 0.0, "is_disabled": 0, "rental_uris": {"ios": "https://dc.lft.to/lastmile_qr_scan", "android": "https://dc.lft.to/lastmile_qr_scan"}, "bike_id": "aa81d0e15c30154f2a8e74e41a93c537", "lat": 38.86432933333333, "name": "aa81d0e15c30154f2a8e74e41a93c537", "lon": -76.969871, "fusion_lon": 0.0}, {"is_reserved": 0, "type": "electric_scooter", "fusion_lat": 0.0, "is_disabled": 0, "rental_uris": {"ios": "https://dc.lft.to/lastmile_qr_scan", "android": "https://dc.lft.to/lastmile_qr_scan"}, "bike_id": "9e625e58345b503f12dec34d7b37e38d", "lat": 38.905972, "name": "9e625e58345b503f12dec34d7b37e38d", "lon": -77.00639783333334, "fusion_lon": 0.0}, {"is_reserved": 0, "type": "electric_scooter", "fusion_lat": 0.0, "is_disabled": 0, "rental_uris": {"ios": "https://dc.lft.to/lastmile_qr_scan", "android": "https://dc.lft.to/lastmile_qr_scan"}, "bike_id": "770d0e87b3721c7ddb820eca39f3628c", "lat": 38.8785545, "name": "770d0e87b3721c7ddb820eca39f3628c", "lon": -77.00693216666667, "fusion_lon": 0.0}, {"is_reserved": 0, "type": "electric_scooter", "fusion_lat": 0.0, "is_disabled": 0, "rental_uris": {"ios": "https://dc.lft.to/lastmile_qr_scan", "android": "https://dc.lft.to/lastmile_qr_scan"}, "bike_id": "f2d0a5b17b4b03c26584f815dbc58a24", "lat": 38.92103183333333, "name": "f2d0a5b17b4b03c26584f815dbc58a24", "lon": -77.0470635, "fusion_lon": 0.0}, {"is_reserved": 0, "type": "electric_scooter", "fusion_lat": 0.0, "is_disabled": 0, "rental_uris": {"ios": "https://dc.lft.to/lastmile_qr_scan", "android": "https://dc.lft.to/lastmile_qr_scan"}, "bike_id": "e0ff603e436d1518852e6169db1787fc", "lat": 38.930793666666666, "name": "e0ff603e436d1518852e6169db1787fc", "lon": -77.02681733333333, "fusion_lon": 0.0}, {"is_reserved": 0, "type": "electric_scooter", "fusion_lat": 0.0, "is_disabled": 0, "rental_uris": {"ios": "https://dc.lft.to/lastmile_qr_scan", "android": "https://dc.lft.to/lastmile_qr_scan"}, "bike_id": "de81eed8161650deeb77165a1e483e19", "lat": 38.91543716666666, "name": "de81eed8161650deeb77165a1e483e19", "lon": -77.03849483333333, "fusion_lon": 0.0}, {"is_reserved": 0, "type": "electric_bike", "fusion_lat": 0.0, "is_disabled": 0, "rental_uris": {"ios": "https://dc.lft.to/lastmile_qr_scan", "android": "https://dc.lft.to/lastmile_qr_scan"}, "bike_id": "e668edbc5e45450fc527ee9b4a18ad40", "lat": 38.90646616666667, "name": "e668edbc5e45450fc527ee9b4a18ad40", "lon": -77.0118075, "fusion_lon": 0.0}, {"is_reserved": 0, "type": "electric_scooter", "fusion_lat": 0.0, "is_disabled": 0, "rental_uris": {"ios": "https://dc.lft.to/lastmile_qr_scan", "android": "https://dc.lft.to/lastmile_qr_scan"}, "bike_id": "48d657ed6a96a4a039447934e0a41ece", "lat": 38.87374716666667, "name": "48d657ed6a96a4a039447934e0a41ece", "lon": -77.00124216666667, "fusion_lon": 0.0}, {"is_reserved": 0, "type": "electric_scooter", "fusion_lat": 0.0, "is_disabled": 0, "rental_uris": {"ios": "https://dc.lft.to/lastmile_qr_scan", "android": "https://dc.lft.to/lastmile_qr_scan"}, "bike_id": "f7da60c60c7de49f0cc4e91be703c1a2", "lat": 38.9324415, "name": "f7da60c60c7de49f0cc4e91be703c1a2", "lon": -77.032601, "fusion_lon": 0.0}, {"is_reserved": 0, "type": "electric_scooter", "fusion_lat": 0.0, "is_disabled": 0, "rental_uris": {"ios": "https://dc.lft.to/lastmile_qr_scan", "android": "https://dc.lft.to/lastmile_qr_scan"}, "bike_id": "3573b2f8c0463835ac4b51dce0c3a9f6", "lat": 38.879225166666664, "name": "3573b2f8c0463835ac4b51dce0c3a9f6", "lon": -77.01702316666666, "fusion_lon": 0.0}, {"is_reserved": 0, "type": "electric_scooter", "fusion_lat": 0.0, "is_disabled": 0, "rental_uris": {"ios": "https://dc.lft.to/lastmile_qr_scan", "android": "https://dc.lft.to/lastmile_qr_scan"}, "bike_id": "a7896f6ffbda69f2e61942e31358e25b", "lat": 38.928338333333336, "name": "a7896f6ffbda69f2e61942e31358e25b", "lon": -77.01415566666667, "fusion_lon": 0.0}, {"is_reserved": 0, "type": "electric_scooter", "fusion_lat": 0.0, "is_disabled": 0, "rental_uris": {"ios": "https://dc.lft.to/lastmile_qr_scan", "android": "https://dc.lft.to/lastmile_qr_scan"}, "bike_id": "7aea3c77bb4543f8a783b8e38601c9a8", "lat": 38.8997595, "name": "7aea3c77bb4543f8a783b8e38601c9a8", "lon": -77.04192883333333, "fusion_lon": 0.0}, {"is_reserved": 0, "type": "electric_scooter", "fusion_lat": 0.0, "is_disabled": 0, "rental_uris": {"ios": "https://dc.lft.to/lastmile_qr_scan", "android": "https://dc.lft.to/lastmile_qr_scan"}, "bike_id": "fdd9e3d5c33071a5b6a0727b679fb7de", "lat": 38.920066166666665, "name": "fdd9e3d5c33071a5b6a0727b679fb7de", "lon": -77.04177166666666, "fusion_lon": 0.0}, {"is_reserved": 0, "type": "electric_scooter", "fusion_lat": 0.0, "is_disabled": 0, "rental_uris": {"ios": "https://dc.lft.to/lastmile_qr_scan", "android": "https://dc.lft.to/lastmile_qr_scan"}, "bike_id": "64f07eb8b65f70d218de4e2e7615a282", "lat": 38.8854475, "name": "64f07eb8b65f70d218de4e2e7615a282", "lon": -76.954506, "fusion_lon": 0.0}, {"is_reserved": 0, "type": "electric_scooter", "fusion_lat": 0.0, "is_disabled": 0, "rental_uris": {"ios": "https://dc.lft.to/lastmile_qr_scan", "android": "https://dc.lft.to/lastmile_qr_scan"}, "bike_id": "6c538ba0d611162779c0d5cab457c1fe", "lat": 38.943138166666664, "name": "6c538ba0d611162779c0d5cab457c1fe", "lon": -77.07633383333334, "fusion_lon": 0.0}, {"is_reserved": 0, "type": "electric_scooter", "fusion_lat": 0.0, "is_disabled": 0, "rental_uris": {"ios": "https://dc.lft.to/lastmile_qr_scan", "android": "https://dc.lft.to/lastmile_qr_scan"}, "bike_id": "dc77b41461613cdce7a729ed832e64f5", "lat": 38.91968416666667, "name": "dc77b41461613cdce7a729ed832e64f5", "lon": -77.03954333333333, "fusion_lon": 0.0}, {"is_reserved": 0, "type": "electric_scooter", "fusion_lat": 0.0, "is_disabled": 0, "rental_uris": {"ios": "https://dc.lft.to/lastmile_qr_scan", "android": "https://dc.lft.to/lastmile_qr_scan"}, "bike_id": "03ebe05fa49cc5c65d2e1d64c8f4e9a6", "lat": 38.892316666666666, "name": "03ebe05fa49cc5c65d2e1d64c8f4e9a6", "lon": -77.02382466666667, "fusion_lon": 0.0}, {"is_reserved": 0, "type": "electric_scooter", "fusion_lat": 0.0, "is_disabled": 0, "rental_uris": {"ios": "https://dc.lft.to/lastmile_qr_scan", "android": "https://dc.lft.to/lastmile_qr_scan"}, "bike_id": "296945e86d7a4f01f253bb7d99b2af2d", "lat": 38.915329, "name": "296945e86d7a4f01f253bb7d99b2af2d", "lon": -77.04437283333333, "fusion_lon": 0.0}, {"is_reserved": 0, "type": "electric_scooter", "fusion_lat": 0.0, "is_disabled": 0, "rental_uris": {"ios": "https://dc.lft.to/lastmile_qr_scan", "android": "https://dc.lft.to/lastmile_qr_scan"}, "bike_id": "160cfb5ac0bbfc5dc6cb40cde26a6fac", "lat": 38.90263566666667, "name": "160cfb5ac0bbfc5dc6cb40cde26a6fac", "lon": -77.039518, "fusion_lon": 0.0}, {"is_reserved": 0, "type": "electric_scooter", "fusion_lat": 0.0, "is_disabled": 0, "rental_uris": {"ios": "https://dc.lft.to/lastmile_qr_scan", "android": "https://dc.lft.to/lastmile_qr_scan"}, "bike_id": "abd24bf123369aef111a5d3a70ea3942", "lat": 38.909487, "name": "abd24bf123369aef111a5d3a70ea3942", "lon": -77.0466625, "fusion_lon": 0.0}, {"is_reserved": 0, "type": "electric_scooter", "fusion_lat": 0.0, "is_disabled": 0, "rental_uris": {"ios": "https://dc.lft.to/lastmile_qr_scan", "android": "https://dc.lft.to/lastmile_qr_scan"}, "bike_id": "553aef64026f3f0235a6f87850c99122", "lat": 38.92175816666666, "name": "553aef64026f3f0235a6f87850c99122", "lon": -77.0412655, "fusion_lon": 0.0}, {"is_reserved": 0, "type": "electric_scooter", "fusion_lat": 0.0, "is_disabled": 0, "rental_uris": {"ios": "https://dc.lft.to/lastmile_qr_scan", "android": "https://dc.lft.to/lastmile_qr_scan"}, "bike_id": "0781e130293a92da7a8c285bf8d469f1", "lat": 38.883684333333335, "name": "0781e130293a92da7a8c285bf8d469f1", "lon": -76.99519233333334, "fusion_lon": 0.0}, {"is_reserved": 0, "type": "electric_scooter", "fusion_lat": 0.0, "is_disabled": 0, "rental_uris": {"ios": "https://dc.lft.to/lastmile_qr_scan", "android": "https://dc.lft.to/lastmile_qr_scan"}, "bike_id": "83e03ae15ae16ac968af00780e51fc17", "lat": 38.930965666666665, "name": "83e03ae15ae16ac968af00780e51fc17", "lon": -77.0247835, "fusion_lon": 0.0}, {"is_reserved": 0, "type": "electric_scooter", "fusion_lat": 0.0, "is_disabled": 0, "rental_uris": {"ios": "https://dc.lft.to/lastmile_qr_scan", "android": "https://dc.lft.to/lastmile_qr_scan"}, "bike_id": "4879b14eaa964819f9b19892b94be85e", "lat": 38.924634833333336, "name": "4879b14eaa964819f9b19892b94be85e", "lon": -77.02216883333334, "fusion_lon": 0.0}, {"is_reserved": 0, "type": "electric_scooter", "fusion_lat": 0.0, "is_disabled": 0, "rental_uris": {"ios": "https://dc.lft.to/lastmile_qr_scan", "android": "https://dc.lft.to/lastmile_qr_scan"}, "bike_id": "3d95685618d98d5c6a1d2540ad7942b4", "lat": 38.932264, "name": "3d95685618d98d5c6a1d2540ad7942b4", "lon": -77.0296865, "fusion_lon": 0.0}, {"is_reserved": 0, "type": "electric_scooter", "fusion_lat": 0.0, "is_disabled": 0, "rental_uris": {"ios": "https://dc.lft.to/lastmile_qr_scan", "android": "https://dc.lft.to/lastmile_qr_scan"}, "bike_id": "364dac63ef7570bcb73a4ced71c6219a", "lat": 38.938794666666666, "name": "364dac63ef7570bcb73a4ced71c6219a", "lon": -77.02466366666667, "fusion_lon": 0.0}, {"is_reserved": 0, "type": "electric_scooter", "fusion_lat": 0.0, "is_disabled": 0, "rental_uris": {"ios": "https://dc.lft.to/lastmile_qr_scan", "android": "https://dc.lft.to/lastmile_qr_scan"}, "bike_id": "3a58f2c7993e98a1159f74f9d944697e", "lat": 38.88711416666666, "name": "3a58f2c7993e98a1159f74f9d944697e", "lon": -76.9834345, "fusion_lon": 0.0}, {"is_reserved": 0, "type": "electric_scooter", "fusion_lat": 0.0, "is_disabled": 0, "rental_uris": {"ios": "https://dc.lft.to/lastmile_qr_scan", "android": "https://dc.lft.to/lastmile_qr_scan"}, "bike_id": "d9446b214b27c13ffdd117a7a41ebc5c", "lat": 38.90118533333333, "name": "d9446b214b27c13ffdd117a7a41ebc5c", "lon": -76.9950755, "fusion_lon": 0.0}, {"is_reserved": 0, "type": "electric_scooter", "fusion_lat": 0.0, "is_disabled": 0, "rental_uris": {"ios": "https://dc.lft.to/lastmile_qr_scan", "android": "https://dc.lft.to/lastmile_qr_scan"}, "bike_id": "f235eefd267bb991958cf07457f51352", "lat": 38.92590466666667, "name": "f235eefd267bb991958cf07457f51352", "lon": -77.024994, "fusion_lon": 0.0}, {"is_reserved": 0, "type": "electric_scooter", "fusion_lat": 0.0, "is_disabled": 0, "rental_uris": {"ios": "https://dc.lft.to/lastmile_qr_scan", "android": "https://dc.lft.to/lastmile_qr_scan"}, "bike_id": "d04098dd3176577c327a3a937311cc9d", "lat": 38.88573216666666, "name": "d04098dd3176577c327a3a937311cc9d", "lon": -77.012104, "fusion_lon": 0.0}, {"is_reserved": 0, "type": "electric_scooter", "fusion_lat": 0.0, "is_disabled": 0, "rental_uris": {"ios": "https://dc.lft.to/lastmile_qr_scan", "android": "https://dc.lft.to/lastmile_qr_scan"}, "bike_id": "e6aba8fd4d5d4da958b126e5ea1a2bb2", "lat": 38.913782166666664, "name": "e6aba8fd4d5d4da958b126e5ea1a2bb2", "lon": -77.06433033333333, "fusion_lon": 0.0}, {"is_reserved": 0, "type": "electric_bike", "fusion_lat": 0.0, "is_disabled": 0, "rental_uris": {"ios": "https://dc.lft.to/lastmile_qr_scan", "android": "https://dc.lft.to/lastmile_qr_scan"}, "bike_id": "7e07220598818eb17ebfccd4fd1abc84", "lat": 38.846172, "name": "7e07220598818eb17ebfccd4fd1abc84", "lon": -76.97838616666667, "fusion_lon": 0.0}, {"is_reserved": 0, "type": "electric_scooter", "fusion_lat": 0.0, "is_disabled": 0, "rental_uris": {"ios": "https://dc.lft.to/lastmile_qr_scan", "android": "https://dc.lft.to/lastmile_qr_scan"}, "bike_id": "570e3acb518daaf05930ea076d1a81c7", "lat": 38.915526, "name": "570e3acb518daaf05930ea076d1a81c7", "lon": -76.98509083333333, "fusion_lon": 0.0}, {"is_reserved": 0, "type": "electric_scooter", "fusion_lat": 0.0, "is_disabled": 0, "rental_uris": {"ios": "https://dc.lft.to/lastmile_qr_scan", "android": "https://dc.lft.to/lastmile_qr_scan"}, "bike_id": "cc957ba15a7b7cbe4ecb73b44b2f015f", "lat": 38.90370433333333, "name": "cc957ba15a7b7cbe4ecb73b44b2f015f", "lon": -77.04027816666667, "fusion_lon": 0.0}, {"is_reserved": 0, "type": "electric_scooter", "fusion_lat": 0.0, "is_disabled": 0, "rental_uris": {"ios": "https://dc.lft.to/lastmile_qr_scan", "android": "https://dc.lft.to/lastmile_qr_scan"}, "bike_id": "33cb5af254304264ff971957d4e17639", "lat": 38.908166666666666, "name": "33cb5af254304264ff971957d4e17639", "lon": -77.08425633333333, "fusion_lon": 0.0}, {"is_reserved": 0, "type": "electric_scooter", "fusion_lat": 0.0, "is_disabled": 0, "rental_uris": {"ios": "https://dc.lft.to/lastmile_qr_scan", "android": "https://dc.lft.to/lastmile_qr_scan"}, "bike_id": "1cba6e575cd4fcfc0283d62578211203", "lat": 38.900930333333335, "name": "1cba6e575cd4fcfc0283d62578211203", "lon": -77.02324416666667, "fusion_lon": 0.0}, {"is_reserved": 0, "type": "electric_scooter", "fusion_lat": 0.0, "is_disabled": 0, "rental_uris": {"ios": "https://dc.lft.to/lastmile_qr_scan", "android": "https://dc.lft.to/lastmile_qr_scan"}, "bike_id": "0679f620851d0e77ded4206aa4646bf5", "lat": 38.935123, "name": "0679f620851d0e77ded4206aa4646bf5", "lon": -77.03679133333333, "fusion_lon": 0.0}, {"is_reserved": 0, "type": "electric_scooter", "fusion_lat": 0.0, "is_disabled": 0, "rental_uris": {"ios": "https://dc.lft.to/lastmile_qr_scan", "android": "https://dc.lft.to/lastmile_qr_scan"}, "bike_id": "8b596d6accfe89603c1ffc7f6b8e02e6", "lat": 38.908612166666664, "name": "8b596d6accfe89603c1ffc7f6b8e02e6", "lon": -77.02664283333333, "fusion_lon": 0.0}, {"is_reserved": 0, "type": "electric_scooter", "fusion_lat": 0.0, "is_disabled": 0, "rental_uris": {"ios": "https://dc.lft.to/lastmile_qr_scan", "android": "https://dc.lft.to/lastmile_qr_scan"}, "bike_id": "5b039959e2e8572401e81cbb3046db98", "lat": 38.9217025, "name": "5b039959e2e8572401e81cbb3046db98", "lon": -77.04010916666667, "fusion_lon": 0.0}, {"is_reserved": 0, "type": "electric_scooter", "fusion_lat": 0.0, "is_disabled": 0, "rental_uris": {"ios": "https://dc.lft.to/lastmile_qr_scan", "android": "https://dc.lft.to/lastmile_qr_scan"}, "bike_id": "d134514f6cd71f5ce5bcd708d3f888c2", "lat": 38.89221466666667, "name": "d134514f6cd71f5ce5bcd708d3f888c2", "lon": -77.04637383333333, "fusion_lon": 0.0}, {"is_reserved": 0, "type": "electric_scooter", "fusion_lat": 0.0, "is_disabled": 0, "rental_uris": {"ios": "https://dc.lft.to/lastmile_qr_scan", "android": "https://dc.lft.to/lastmile_qr_scan"}, "bike_id": "5d25158b36fd417a390ccd20a6591f19", "lat": 38.904672166666664, "name": "5d25158b36fd417a390ccd20a6591f19", "lon": -77.05340933333333, "fusion_lon": 0.0}, {"is_reserved": 0, "type": "electric_scooter", "fusion_lat": 0.0, "is_disabled": 0, "rental_uris": {"ios": "https://dc.lft.to/lastmile_qr_scan", "android": "https://dc.lft.to/lastmile_qr_scan"}, "bike_id": "4e4eac43cf8fc48c1872f2e06a31d5c1", "lat": 38.95659, "name": "4e4eac43cf8fc48c1872f2e06a31d5c1", "lon": -77.024003, "fusion_lon": 0.0}, {"is_reserved": 0, "type": "electric_scooter", "fusion_lat": 0.0, "is_disabled": 0, "rental_uris": {"ios": "https://dc.lft.to/lastmile_qr_scan", "android": "https://dc.lft.to/lastmile_qr_scan"}, "bike_id": "7e60424c723368acfafafd4e73569dd7", "lat": 38.9241495, "name": "7e60424c723368acfafafd4e73569dd7", "lon": -77.02004633333334, "fusion_lon": 0.0}, {"is_reserved": 0, "type": "electric_scooter", "fusion_lat": 0.0, "is_disabled": 0, "rental_uris": {"ios": "https://dc.lft.to/lastmile_qr_scan", "android": "https://dc.lft.to/lastmile_qr_scan"}, "bike_id": "fc01a147a50c631dfc4a1741a13747e9", "lat": 38.885145, "name": "fc01a147a50c631dfc4a1741a13747e9", "lon": -76.92448816666666, "fusion_lon": 0.0}, {"is_reserved": 0, "type": "electric_scooter", "fusion_lat": 0.0, "is_disabled": 0, "rental_uris": {"ios": "https://dc.lft.to/lastmile_qr_scan", "android": "https://dc.lft.to/lastmile_qr_scan"}, "bike_id": "fca8c9d5ce1fb6951b6a253edd62a2e2", "lat": 38.902471, "name": "fca8c9d5ce1fb6951b6a253edd62a2e2", "lon": -77.03463733333334, "fusion_lon": 0.0}, {"is_reserved": 0, "type": "electric_scooter", "fusion_lat": 0.0, "is_disabled": 0, "rental_uris": {"ios": "https://dc.lft.to/lastmile_qr_scan", "android": "https://dc.lft.to/lastmile_qr_scan"}, "bike_id": "b594181675a8f294c93f4ccdb8ba1a24", "lat": 38.89851783333334, "name": "b594181675a8f294c93f4ccdb8ba1a24", "lon": -77.03945833333333, "fusion_lon": 0.0}, {"is_reserved": 0, "type": "electric_scooter", "fusion_lat": 0.0, "is_disabled": 0, "rental_uris": {"ios": "https://dc.lft.to/lastmile_qr_scan", "android": "https://dc.lft.to/lastmile_qr_scan"}, "bike_id": "c237cb508fad2397a5a2ff8e0fcf48c6", "lat": 38.957546666666666, "name": "c237cb508fad2397a5a2ff8e0fcf48c6", "lon": -77.02211583333333, "fusion_lon": 0.0}, {"is_reserved": 0, "type": "electric_bike", "fusion_lat": 0.0, "is_disabled": 0, "rental_uris": {"ios": "https://dc.lft.to/lastmile_qr_scan", "android": "https://dc.lft.to/lastmile_qr_scan"}, "bike_id": "2d0dd6830e951f29676bc8f264ffc5f6", "lat": 38.89618266666667, "name": "2d0dd6830e951f29676bc8f264ffc5f6", "lon": -76.90745616666666, "fusion_lon": 0.0}, {"is_reserved": 0, "type": "electric_scooter", "fusion_lat": 0.0, "is_disabled": 0, "rental_uris": {"ios": "https://dc.lft.to/lastmile_qr_scan", "android": "https://dc.lft.to/lastmile_qr_scan"}, "bike_id": "089687ca46e8850f501ae86d87de0121", "lat": 38.9010195, "name": "089687ca46e8850f501ae86d87de0121", "lon": -77.02294133333334, "fusion_lon": 0.0}, {"is_reserved": 0, "type": "electric_scooter", "fusion_lat": 0.0, "is_disabled": 0, "rental_uris": {"ios": "https://dc.lft.to/lastmile_qr_scan", "android": "https://dc.lft.to/lastmile_qr_scan"}, "bike_id": "09b96aaa7ec055cb8ffde2cbfe6e197c", "lat": 38.8853095, "name": "09b96aaa7ec055cb8ffde2cbfe6e197c", "lon": -76.98058783333333, "fusion_lon": 0.0}, {"is_reserved": 0, "type": "electric_scooter", "fusion_lat": 0.0, "is_disabled": 0, "rental_uris": {"ios": "https://dc.lft.to/lastmile_qr_scan", "android": "https://dc.lft.to/lastmile_qr_scan"}, "bike_id": "8d6f9763d45d3f82ce38c5f9d43e2aa0", "lat": 38.932295833333335, "name": "8d6f9763d45d3f82ce38c5f9d43e2aa0", "lon": -77.02975433333333, "fusion_lon": 0.0}, {"is_reserved": 0, "type": "electric_scooter", "fusion_lat": 0.0, "is_disabled": 0, "rental_uris": {"ios": "https://dc.lft.to/lastmile_qr_scan", "android": "https://dc.lft.to/lastmile_qr_scan"}, "bike_id": "71fc004d825c253406a37d09fcdff2c0", "lat": 38.8981875, "name": "71fc004d825c253406a37d09fcdff2c0", "lon": -76.99833516666666, "fusion_lon": 0.0}, {"is_reserved": 0, "type": "electric_scooter", "fusion_lat": 0.0, "is_disabled": 0, "rental_uris": {"ios": "https://dc.lft.to/lastmile_qr_scan", "android": "https://dc.lft.to/lastmile_qr_scan"}, "bike_id": "8a734e412eeb727b53a8f4bbb3d0870b", "lat": 38.8960265, "name": "8a734e412eeb727b53a8f4bbb3d0870b", "lon": -77.010849, "fusion_lon": 0.0}, {"is_reserved": 0, "type": "electric_scooter", "fusion_lat": 0.0, "is_disabled": 0, "rental_uris": {"ios": "https://dc.lft.to/lastmile_qr_scan", "android": "https://dc.lft.to/lastmile_qr_scan"}, "bike_id": "249817ecc6bffd86b713c98bd0495e6b", "lat": 38.898543, "name": "249817ecc6bffd86b713c98bd0495e6b", "lon": -76.98755583333333, "fusion_lon": 0.0}, {"is_reserved": 0, "type": "electric_bike", "fusion_lat": 0.0, "is_disabled": 0, "rental_uris": {"ios": "https://dc.lft.to/lastmile_qr_scan", "android": "https://dc.lft.to/lastmile_qr_scan"}, "bike_id": "efa0f34693009e3b696bc16aedef168c", "lat": 38.81937416666667, "name": "efa0f34693009e3b696bc16aedef168c", "lon": -77.00203566666667, "fusion_lon": 0.0}, {"is_reserved": 0, "type": "electric_scooter", "fusion_lat": 0.0, "is_disabled": 0, "rental_uris": {"ios": "https://dc.lft.to/lastmile_qr_scan", "android": "https://dc.lft.to/lastmile_qr_scan"}, "bike_id": "0ab175a829f26b3a28736f1fb9224e76", "lat": 38.878412, "name": "0ab175a829f26b3a28736f1fb9224e76", "lon": -77.00876166666667, "fusion_lon": 0.0}, {"is_reserved": 0, "type": "electric_scooter", "fusion_lat": 0.0, "is_disabled": 0, "rental_uris": {"ios": "https://dc.lft.to/lastmile_qr_scan", "android": "https://dc.lft.to/lastmile_qr_scan"}, "bike_id": "bce945d298191574a55e0be0d9a9103d", "lat": 38.9205845, "name": "bce945d298191574a55e0be0d9a9103d", "lon": -77.00051383333333, "fusion_lon": 0.0}, {"is_reserved": 0, "type": "electric_scooter", "fusion_lat": 0.0, "is_disabled": 0, "rental_uris": {"ios": "https://dc.lft.to/lastmile_qr_scan", "android": "https://dc.lft.to/lastmile_qr_scan"}, "bike_id": "a024b1f455c731fab06a39429513df4b", "lat": 38.935321333333334, "name": "a024b1f455c731fab06a39429513df4b", "lon": -77.02352233333333, "fusion_lon": 0.0}, {"is_reserved": 0, "type": "electric_scooter", "fusion_lat": 0.0, "is_disabled": 0, "rental_uris": {"ios": "https://dc.lft.to/lastmile_qr_scan", "android": "https://dc.lft.to/lastmile_qr_scan"}, "bike_id": "35d4e6af5cdddc5ceab6a0330db9ed54", "lat": 38.924503, "name": "35d4e6af5cdddc5ceab6a0330db9ed54", "lon": -77.02032683333333, "fusion_lon": 0.0}, {"is_reserved": 0, "type": "electric_scooter", "fusion_lat": 0.0, "is_disabled": 0, "rental_uris": {"ios": "https://dc.lft.to/lastmile_qr_scan", "android": "https://dc.lft.to/lastmile_qr_scan"}, "bike_id": "a32164af7e8f7506ae90e086b5e28fe9", "lat": 38.891967333333334, "name": "a32164af7e8f7506ae90e086b5e28fe9", "lon": -76.99857783333333, "fusion_lon": 0.0}, {"is_reserved": 0, "type": "electric_scooter", "fusion_lat": 0.0, "is_disabled": 0, "rental_uris": {"ios": "https://dc.lft.to/lastmile_qr_scan", "android": "https://dc.lft.to/lastmile_qr_scan"}, "bike_id": "9f343b2e1ff1cb8c822bc0b226aa65f9", "lat": 38.9445945, "name": "9f343b2e1ff1cb8c822bc0b226aa65f9", "lon": -77.00659233333333, "fusion_lon": 0.0}, {"is_reserved": 0, "type": "electric_scooter", "fusion_lat": 0.0, "is_disabled": 0, "rental_uris": {"ios": "https://dc.lft.to/lastmile_qr_scan", "android": "https://dc.lft.to/lastmile_qr_scan"}, "bike_id": "d419ccb79e04086031501eb0e37ca2da", "lat": 38.901424666666664, "name": "d419ccb79e04086031501eb0e37ca2da", "lon": -76.92980716666666, "fusion_lon": 0.0}, {"is_reserved": 0, "type": "electric_scooter", "fusion_lat": 0.0, "is_disabled": 0, "rental_uris": {"ios": "https://dc.lft.to/lastmile_qr_scan", "android": "https://dc.lft.to/lastmile_qr_scan"}, "bike_id": "9337f0f2fac204e5adddfaabedc1d378", "lat": 38.88304516666667, "name": "9337f0f2fac204e5adddfaabedc1d378", "lon": -76.93487083333333, "fusion_lon": 0.0}, {"is_reserved": 0, "type": "electric_scooter", "fusion_lat": 0.0, "is_disabled": 0, "rental_uris": {"ios": "https://dc.lft.to/lastmile_qr_scan", "android": "https://dc.lft.to/lastmile_qr_scan"}, "bike_id": "bdc7c7a1cc4c1654f2b463dfc41cd933", "lat": 38.92422766666667, "name": "bdc7c7a1cc4c1654f2b463dfc41cd933", "lon": -77.02011083333333, "fusion_lon": 0.0}, {"is_reserved": 0, "type": "electric_scooter", "fusion_lat": 0.0, "is_disabled": 0, "rental_uris": {"ios": "https://dc.lft.to/lastmile_qr_scan", "android": "https://dc.lft.to/lastmile_qr_scan"}, "bike_id": "e18a71fd67222fa37ea24469c7ab7e72", "lat": 38.92756133333334, "name": "e18a71fd67222fa37ea24469c7ab7e72", "lon": -77.0231235, "fusion_lon": 0.0}, {"is_reserved": 0, "type": "electric_scooter", "fusion_lat": 0.0, "is_disabled": 0, "rental_uris": {"ios": "https://dc.lft.to/lastmile_qr_scan", "android": "https://dc.lft.to/lastmile_qr_scan"}, "bike_id": "31690e54802c12bc5b7fdb1e4cccee26", "lat": 38.9050935, "name": "31690e54802c12bc5b7fdb1e4cccee26", "lon": -77.01716233333333, "fusion_lon": 0.0}, {"is_reserved": 0, "type": "electric_bike", "fusion_lat": 0.0, "is_disabled": 0, "rental_uris": {"ios": "https://dc.lft.to/lastmile_qr_scan", "android": "https://dc.lft.to/lastmile_qr_scan"}, "bike_id": "7ae5e59193e3a458bc65e8e27ae815c0", "lat": 38.852437333333334, "name": "7ae5e59193e3a458bc65e8e27ae815c0", "lon": -77.11411883333334, "fusion_lon": 0.0}, {"is_reserved": 0, "type": "electric_scooter", "fusion_lat": 0.0, "is_disabled": 0, "rental_uris": {"ios": "https://dc.lft.to/lastmile_qr_scan", "android": "https://dc.lft.to/lastmile_qr_scan"}, "bike_id": "16fd2209fcd88f44da23d331c0407e6a", "lat": 38.9104205, "name": "16fd2209fcd88f44da23d331c0407e6a", "lon": -76.9980625, "fusion_lon": 0.0}, {"is_reserved": 0, "type": "electric_scooter", "fusion_lat": 0.0, "is_disabled": 0, "rental_uris": {"ios": "https://dc.lft.to/lastmile_qr_scan", "android": "https://dc.lft.to/lastmile_qr_scan"}, "bike_id": "be6ac88492e58b0bc4c7e7fa8b2b55e4", "lat": 38.9312815, "name": "be6ac88492e58b0bc4c7e7fa8b2b55e4", "lon": -77.038519, "fusion_lon": 0.0}, {"is_reserved": 0, "type": "electric_scooter", "fusion_lat": 0.0, "is_disabled": 0, "rental_uris": {"ios": "https://dc.lft.to/lastmile_qr_scan", "android": "https://dc.lft.to/lastmile_qr_scan"}, "bike_id": "0b0f0290e4a1283eefec799c5cc73737", "lat": 38.842779666666665, "name": "0b0f0290e4a1283eefec799c5cc73737", "lon": -76.9884175, "fusion_lon": 0.0}, {"is_reserved": 0, "type": "electric_bike", "fusion_lat": 0.0, "is_disabled": 0, "rental_uris": {"ios": "https://dc.lft.to/lastmile_qr_scan", "android": "https://dc.lft.to/lastmile_qr_scan"}, "bike_id": "6cc6312ffaef03128fa889daf47e4dfd", "lat": 39.006438833333334, "name": "6cc6312ffaef03128fa889daf47e4dfd", "lon": -76.90022083333334, "fusion_lon": 0.0}, {"is_reserved": 0, "type": "electric_scooter", "fusion_lat": 0.0, "is_disabled": 0, "rental_uris": {"ios": "https://dc.lft.to/lastmile_qr_scan", "android": "https://dc.lft.to/lastmile_qr_scan"}, "bike_id": "8a4ff73723d3488dc557f485ec5242dd", "lat": 38.923057166666666, "name": "8a4ff73723d3488dc557f485ec5242dd", "lon": -77.028985, "fusion_lon": 0.0}, {"is_reserved": 0, "type": "electric_scooter", "fusion_lat": 0.0, "is_disabled": 0, "rental_uris": {"ios": "https://dc.lft.to/lastmile_qr_scan", "android": "https://dc.lft.to/lastmile_qr_scan"}, "bike_id": "e46db821e584f91dbe13638072574d1a", "lat": 38.924207, "name": "e46db821e584f91dbe13638072574d1a", "lon": -77.04478883333333, "fusion_lon": 0.0}, {"is_reserved": 0, "type": "electric_scooter", "fusion_lat": 0.0, "is_disabled": 0, "rental_uris": {"ios": "https://dc.lft.to/lastmile_qr_scan", "android": "https://dc.lft.to/lastmile_qr_scan"}, "bike_id": "4fd0d7ba82500f78d4e38e7b185ecbc9", "lat": 38.916952333333334, "name": "4fd0d7ba82500f78d4e38e7b185ecbc9", "lon": -77.02597983333334, "fusion_lon": 0.0}, {"is_reserved": 0, "type": "electric_scooter", "fusion_lat": 0.0, "is_disabled": 0, "rental_uris": {"ios": "https://dc.lft.to/lastmile_qr_scan", "android": "https://dc.lft.to/lastmile_qr_scan"}, "bike_id": "abc6a8bc74caac66eba6fdb9fabb1602", "lat": 38.95218033333333, "name": "abc6a8bc74caac66eba6fdb9fabb1602", "lon": -77.088669, "fusion_lon": 0.0}, {"is_reserved": 0, "type": "electric_scooter", "fusion_lat": 0.0, "is_disabled": 0, "rental_uris": {"ios": "https://dc.lft.to/lastmile_qr_scan", "android": "https://dc.lft.to/lastmile_qr_scan"}, "bike_id": "4e7c602f5304b06f519e1e342eda8a60", "lat": 38.923265666666666, "name": "4e7c602f5304b06f519e1e342eda8a60", "lon": -77.03775766666666, "fusion_lon": 0.0}, {"is_reserved": 0, "type": "electric_bike", "fusion_lat": 0.0, "is_disabled": 0, "rental_uris": {"ios": "https://dc.lft.to/lastmile_qr_scan", "android": "https://dc.lft.to/lastmile_qr_scan"}, "bike_id": "6df8b1b198fd716ce888048e47ac1002", "lat": 38.842934166666666, "name": "6df8b1b198fd716ce888048e47ac1002", "lon": -77.06384, "fusion_lon": 0.0}, {"is_reserved": 0, "type": "electric_scooter", "fusion_lat": 0.0, "is_disabled": 0, "rental_uris": {"ios": "https://dc.lft.to/lastmile_qr_scan", "android": "https://dc.lft.to/lastmile_qr_scan"}, "bike_id": "2c8d3f7fd6d067856428a87f994064df", "lat": 38.91045533333333, "name": "2c8d3f7fd6d067856428a87f994064df", "lon": -77.02210716666667, "fusion_lon": 0.0}, {"is_reserved": 0, "type": "electric_bike", "fusion_lat": 0.0, "is_disabled": 0, "rental_uris": {"ios": "https://dc.lft.to/lastmile_qr_scan", "android": "https://dc.lft.to/lastmile_qr_scan"}, "bike_id": "058eb0b61119607be16ceb925e03a36f", "lat": 38.95247783333333, "name": "058eb0b61119607be16ceb925e03a36f", "lon": -77.0962595, "fusion_lon": 0.0}, {"is_reserved": 0, "type": "electric_scooter", "fusion_lat": 0.0, "is_disabled": 0, "rental_uris": {"ios": "https://dc.lft.to/lastmile_qr_scan", "android": "https://dc.lft.to/lastmile_qr_scan"}, "bike_id": "1789ba32d81d0f0d4dd31490a0610d82", "lat": 38.9068765, "name": "1789ba32d81d0f0d4dd31490a0610d82", "lon": -77.02714233333333, "fusion_lon": 0.0}, {"is_reserved": 0, "type": "electric_scooter", "fusion_lat": 0.0, "is_disabled": 0, "rental_uris": {"ios": "https://dc.lft.to/lastmile_qr_scan", "android": "https://dc.lft.to/lastmile_qr_scan"}, "bike_id": "1ae6787e496738751bb9bab0b6cb1708", "lat": 38.920955, "name": "1ae6787e496738751bb9bab0b6cb1708", "lon": -76.99488633333333, "fusion_lon": 0.0}, {"is_reserved": 0, "type": "electric_bike", "fusion_lat": 0.0, "is_disabled": 0, "rental_uris": {"ios": "https://dc.lft.to/lastmile_qr_scan", "android": "https://dc.lft.to/lastmile_qr_scan"}, "bike_id": "3bfa2bb6125a1ea07dc4844ec74f2a8e", "lat": 38.972818333333336, "name": "3bfa2bb6125a1ea07dc4844ec74f2a8e", "lon": -77.03622216666666, "fusion_lon": 0.0}, {"is_reserved": 0, "type": "electric_scooter", "fusion_lat": 0.0, "is_disabled": 0, "rental_uris": {"ios": "https://dc.lft.to/lastmile_qr_scan", "android": "https://dc.lft.to/lastmile_qr_scan"}, "bike_id": "502882e40835ab7d0e443711ff258b9e", "lat": 38.925037333333336, "name": "502882e40835ab7d0e443711ff258b9e", "lon": -77.05106766666667, "fusion_lon": 0.0}, {"is_reserved": 0, "type": "electric_scooter", "fusion_lat": 0.0, "is_disabled": 0, "rental_uris": {"ios": "https://dc.lft.to/lastmile_qr_scan", "android": "https://dc.lft.to/lastmile_qr_scan"}, "bike_id": "61a93dc9428b70c26d7bbfb6402055e7", "lat": 38.9026045, "name": "61a93dc9428b70c26d7bbfb6402055e7", "lon": -77.0453545, "fusion_lon": 0.0}, {"is_reserved": 0, "type": "electric_bike", "fusion_lat": 0.0, "is_disabled": 0, "rental_uris": {"ios": "https://dc.lft.to/lastmile_qr_scan", "android": "https://dc.lft.to/lastmile_qr_scan"}, "bike_id": "ccbb0b2af66bb354c04cf37f01445815", "lat": 38.899015166666665, "name": "ccbb0b2af66bb354c04cf37f01445815", "lon": -77.02168283333333, "fusion_lon": 0.0}, {"is_reserved": 0, "type": "electric_scooter", "fusion_lat": 0.0, "is_disabled": 0, "rental_uris": {"ios": "https://dc.lft.to/lastmile_qr_scan", "android": "https://dc.lft.to/lastmile_qr_scan"}, "bike_id": "179d94206ff57efe1513123da711f62e", "lat": 38.89464666666667, "name": "179d94206ff57efe1513123da711f62e", "lon": -77.02736366666667, "fusion_lon": 0.0}, {"is_reserved": 0, "type": "electric_scooter", "fusion_lat": 0.0, "is_disabled": 0, "rental_uris": {"ios": "https://dc.lft.to/lastmile_qr_scan", "android": "https://dc.lft.to/lastmile_qr_scan"}, "bike_id": "ca7446bae94c73c3f02c4a0657d31061", "lat": 38.878248166666665, "name": "ca7446bae94c73c3f02c4a0657d31061", "lon": -77.00863416666667, "fusion_lon": 0.0}, {"is_reserved": 0, "type": "electric_scooter", "fusion_lat": 0.0, "is_disabled": 0, "rental_uris": {"ios": "https://dc.lft.to/lastmile_qr_scan", "android": "https://dc.lft.to/lastmile_qr_scan"}, "bike_id": "ed103968d2eb9d61cfcb61878591b570", "lat": 38.91817, "name": "ed103968d2eb9d61cfcb61878591b570", "lon": -77.02707816666667, "fusion_lon": 0.0}, {"is_reserved": 0, "type": "electric_scooter", "fusion_lat": 0.0, "is_disabled": 0, "rental_uris": {"ios": "https://dc.lft.to/lastmile_qr_scan", "android": "https://dc.lft.to/lastmile_qr_scan"}, "bike_id": "6a4276783a544d44e108133466f47423", "lat": 38.91677116666666, "name": "6a4276783a544d44e108133466f47423", "lon": -77.015776, "fusion_lon": 0.0}, {"is_reserved": 0, "type": "electric_scooter", "fusion_lat": 0.0, "is_disabled": 0, "rental_uris": {"ios": "https://dc.lft.to/lastmile_qr_scan", "android": "https://dc.lft.to/lastmile_qr_scan"}, "bike_id": "47003eec9cb3179d2c95409f721c9892", "lat": 38.87691233333334, "name": "47003eec9cb3179d2c95409f721c9892", "lon": -76.996263, "fusion_lon": 0.0}, {"is_reserved": 0, "type": "electric_scooter", "fusion_lat": 0.0, "is_disabled": 0, "rental_uris": {"ios": "https://dc.lft.to/lastmile_qr_scan", "android": "https://dc.lft.to/lastmile_qr_scan"}, "bike_id": "a22e878f599463670010c5c54070ea0a", "lat": 38.890605666666666, "name": "a22e878f599463670010c5c54070ea0a", "lon": -76.991953, "fusion_lon": 0.0}, {"is_reserved": 0, "type": "electric_scooter", "fusion_lat": 0.0, "is_disabled": 0, "rental_uris": {"ios": "https://dc.lft.to/lastmile_qr_scan", "android": "https://dc.lft.to/lastmile_qr_scan"}, "bike_id": "3b89b45f974b9d045bc8ab1ef81cc040", "lat": 38.901787166666665, "name": "3b89b45f974b9d045bc8ab1ef81cc040", "lon": -76.97673733333333, "fusion_lon": 0.0}, {"is_reserved": 0, "type": "electric_scooter", "fusion_lat": 0.0, "is_disabled": 0, "rental_uris": {"ios": "https://dc.lft.to/lastmile_qr_scan", "android": "https://dc.lft.to/lastmile_qr_scan"}, "bike_id": "3355ada41ceb0d4df71b8347d3d96a1d", "lat": 38.9260525, "name": "3355ada41ceb0d4df71b8347d3d96a1d", "lon": -77.024124, "fusion_lon": 0.0}, {"is_reserved": 0, "type": "electric_scooter", "fusion_lat": 0.0, "is_disabled": 0, "rental_uris": {"ios": "https://dc.lft.to/lastmile_qr_scan", "android": "https://dc.lft.to/lastmile_qr_scan"}, "bike_id": "5dddc473289d9b6beff88911972f30af", "lat": 38.8870815, "name": "5dddc473289d9b6beff88911972f30af", "lon": -76.98382933333333, "fusion_lon": 0.0}, {"is_reserved": 0, "type": "electric_scooter", "fusion_lat": 0.0, "is_disabled": 0, "rental_uris": {"ios": "https://dc.lft.to/lastmile_qr_scan", "android": "https://dc.lft.to/lastmile_qr_scan"}, "bike_id": "921c0fde22ee11f469c462b4bd37afda", "lat": 38.83378866666666, "name": "921c0fde22ee11f469c462b4bd37afda", "lon": -77.0030255, "fusion_lon": 0.0}, {"is_reserved": 0, "type": "electric_scooter", "fusion_lat": 0.0, "is_disabled": 0, "rental_uris": {"ios": "https://dc.lft.to/lastmile_qr_scan", "android": "https://dc.lft.to/lastmile_qr_scan"}, "bike_id": "f251e28fbe463395bebb1d7d48b0ce99", "lat": 38.8823005, "name": "f251e28fbe463395bebb1d7d48b0ce99", "lon": -76.99092966666667, "fusion_lon": 0.0}, {"is_reserved": 0, "type": "electric_scooter", "fusion_lat": 0.0, "is_disabled": 0, "rental_uris": {"ios": "https://dc.lft.to/lastmile_qr_scan", "android": "https://dc.lft.to/lastmile_qr_scan"}, "bike_id": "cf7929e2a73836ef49d47d42c39648aa", "lat": 38.89604, "name": "cf7929e2a73836ef49d47d42c39648aa", "lon": -77.02725216666667, "fusion_lon": 0.0}, {"is_reserved": 0, "type": "electric_scooter", "fusion_lat": 0.0, "is_disabled": 0, "rental_uris": {"ios": "https://dc.lft.to/lastmile_qr_scan", "android": "https://dc.lft.to/lastmile_qr_scan"}, "bike_id": "893d47767df3affe5692b18d9937e49e", "lat": 38.9312615, "name": "893d47767df3affe5692b18d9937e49e", "lon": -77.02178666666667, "fusion_lon": 0.0}, {"is_reserved": 0, "type": "electric_scooter", "fusion_lat": 0.0, "is_disabled": 0, "rental_uris": {"ios": "https://dc.lft.to/lastmile_qr_scan", "android": "https://dc.lft.to/lastmile_qr_scan"}, "bike_id": "cae23e44d3469a9ecc43c2031eb9bfa8", "lat": 38.933201333333336, "name": "cae23e44d3469a9ecc43c2031eb9bfa8", "lon": -77.03250166666666, "fusion_lon": 0.0}, {"is_reserved": 0, "type": "electric_bike", "fusion_lat": 0.0, "is_disabled": 0, "rental_uris": {"ios": "https://dc.lft.to/lastmile_qr_scan", "android": "https://dc.lft.to/lastmile_qr_scan"}, "bike_id": "10461112531de885e6fd4fb926e63237", "lat": 38.93623483333333, "name": "10461112531de885e6fd4fb926e63237", "lon": -77.063528, "fusion_lon": 0.0}, {"is_reserved": 0, "type": "electric_scooter", "fusion_lat": 0.0, "is_disabled": 0, "rental_uris": {"ios": "https://dc.lft.to/lastmile_qr_scan", "android": "https://dc.lft.to/lastmile_qr_scan"}, "bike_id": "33c147c78f49dcf7c1023542edf4f19c", "lat": 38.9213395, "name": "33c147c78f49dcf7c1023542edf4f19c", "lon": -77.00400016666667, "fusion_lon": 0.0}, {"is_reserved": 0, "type": "electric_scooter", "fusion_lat": 0.0, "is_disabled": 0, "rental_uris": {"ios": "https://dc.lft.to/lastmile_qr_scan", "android": "https://dc.lft.to/lastmile_qr_scan"}, "bike_id": "6cb24ebd7e0d7e3c1476fd26f56e9454", "lat": 38.90413016666667, "name": "6cb24ebd7e0d7e3c1476fd26f56e9454", "lon": -77.05126, "fusion_lon": 0.0}, {"is_reserved": 0, "type": "electric_bike", "fusion_lat": 0.0, "is_disabled": 0, "rental_uris": {"ios": "https://dc.lft.to/lastmile_qr_scan", "android": "https://dc.lft.to/lastmile_qr_scan"}, "bike_id": "499eadf8c7827fd620bd6bcb7187f0ed", "lat": 38.83604733333333, "name": "499eadf8c7827fd620bd6bcb7187f0ed", "lon": -77.00378, "fusion_lon": 0.0}, {"is_reserved": 0, "type": "electric_bike", "fusion_lat": 0.0, "is_disabled": 0, "rental_uris": {"ios": "https://dc.lft.to/lastmile_qr_scan", "android": "https://dc.lft.to/lastmile_qr_scan"}, "bike_id": "ddde498ae74fb36f2c4aedec3872327f", "lat": 38.926417, "name": "ddde498ae74fb36f2c4aedec3872327f", "lon": -77.0284425, "fusion_lon": 0.0}, {"is_reserved": 0, "type": "electric_bike", "fusion_lat": 0.0, "is_disabled": 0, "rental_uris": {"ios": "https://dc.lft.to/lastmile_qr_scan", "android": "https://dc.lft.to/lastmile_qr_scan"}, "bike_id": "bdb0d83cf0899d876cf58e4467973d83", "lat": 38.857823833333335, "name": "bdb0d83cf0899d876cf58e4467973d83", "lon": -76.987493, "fusion_lon": 0.0}, {"is_reserved": 0, "type": "electric_scooter", "fusion_lat": 0.0, "is_disabled": 0, "rental_uris": {"ios": "https://dc.lft.to/lastmile_qr_scan", "android": "https://dc.lft.to/lastmile_qr_scan"}, "bike_id": "77e8240b70b2f0c1c5b3435b8ed1f0d8", "lat": 38.895297666666664, "name": "77e8240b70b2f0c1c5b3435b8ed1f0d8", "lon": -77.0267835, "fusion_lon": 0.0}, {"is_reserved": 0, "type": "electric_scooter", "fusion_lat": 0.0, "is_disabled": 0, "rental_uris": {"ios": "https://dc.lft.to/lastmile_qr_scan", "android": "https://dc.lft.to/lastmile_qr_scan"}, "bike_id": "7b8a9bbe7dcd37bed78d58e860ac0094", "lat": 38.948369666666665, "name": "7b8a9bbe7dcd37bed78d58e860ac0094", "lon": -77.02706116666667, "fusion_lon": 0.0}, {"is_reserved": 0, "type": "electric_scooter", "fusion_lat": 0.0, "is_disabled": 0, "rental_uris": {"ios": "https://dc.lft.to/lastmile_qr_scan", "android": "https://dc.lft.to/lastmile_qr_scan"}, "bike_id": "41b499eb45ac63d5e9a448ae5407dca6", "lat": 38.90114283333333, "name": "41b499eb45ac63d5e9a448ae5407dca6", "lon": -77.01626516666667, "fusion_lon": 0.0}, {"is_reserved": 0, "type": "electric_scooter", "fusion_lat": 0.0, "is_disabled": 0, "rental_uris": {"ios": "https://dc.lft.to/lastmile_qr_scan", "android": "https://dc.lft.to/lastmile_qr_scan"}, "bike_id": "2165eecafb4a8146984841ecf880d0b5", "lat": 38.9162555, "name": "2165eecafb4a8146984841ecf880d0b5", "lon": -77.04810416666666, "fusion_lon": 0.0}, {"is_reserved": 0, "type": "electric_scooter", "fusion_lat": 0.0, "is_disabled": 0, "rental_uris": {"ios": "https://dc.lft.to/lastmile_qr_scan", "android": "https://dc.lft.to/lastmile_qr_scan"}, "bike_id": "08246355ba3d57995bda71895d2d7e56", "lat": 38.8824045, "name": "08246355ba3d57995bda71895d2d7e56", "lon": -77.00632366666666, "fusion_lon": 0.0}, {"is_reserved": 0, "type": "electric_scooter", "fusion_lat": 0.0, "is_disabled": 0, "rental_uris": {"ios": "https://dc.lft.to/lastmile_qr_scan", "android": "https://dc.lft.to/lastmile_qr_scan"}, "bike_id": "9efa166e32c771cbcaddcf868b941a1d", "lat": 38.89194966666667, "name": "9efa166e32c771cbcaddcf868b941a1d", "lon": -77.0222085, "fusion_lon": 0.0}, {"is_reserved": 0, "type": "electric_scooter", "fusion_lat": 0.0, "is_disabled": 0, "rental_uris": {"ios": "https://dc.lft.to/lastmile_qr_scan", "android": "https://dc.lft.to/lastmile_qr_scan"}, "bike_id": "2dadb431f9a09ddd4e9adf5956ed0dde", "lat": 38.93534733333333, "name": "2dadb431f9a09ddd4e9adf5956ed0dde", "lon": -77.02355433333334, "fusion_lon": 0.0}, {"is_reserved": 0, "type": "electric_scooter", "fusion_lat": 0.0, "is_disabled": 0, "rental_uris": {"ios": "https://dc.lft.to/lastmile_qr_scan", "android": "https://dc.lft.to/lastmile_qr_scan"}, "bike_id": "05520ab8315fc5dd0f10c0c61a029e6a", "lat": 38.92958683333333, "name": "05520ab8315fc5dd0f10c0c61a029e6a", "lon": -77.03177166666667, "fusion_lon": 0.0}, {"is_reserved": 0, "type": "electric_scooter", "fusion_lat": 0.0, "is_disabled": 0, "rental_uris": {"ios": "https://dc.lft.to/lastmile_qr_scan", "android": "https://dc.lft.to/lastmile_qr_scan"}, "bike_id": "eb2c661cf6f0d81d0f4ff2c84e820808", "lat": 38.88040483333333, "name": "eb2c661cf6f0d81d0f4ff2c84e820808", "lon": -76.927204, "fusion_lon": 0.0}, {"is_reserved": 0, "type": "electric_scooter", "fusion_lat": 0.0, "is_disabled": 0, "rental_uris": {"ios": "https://dc.lft.to/lastmile_qr_scan", "android": "https://dc.lft.to/lastmile_qr_scan"}, "bike_id": "a097ddc9de3bf50b6c5b83e807e5bde2", "lat": 38.9416935, "name": "a097ddc9de3bf50b6c5b83e807e5bde2", "lon": -77.02536833333333, "fusion_lon": 0.0}, {"is_reserved": 0, "type": "electric_bike", "fusion_lat": 0.0, "is_disabled": 0, "rental_uris": {"ios": "https://dc.lft.to/lastmile_qr_scan", "android": "https://dc.lft.to/lastmile_qr_scan"}, "bike_id": "1f2375373152ded41e047a5ed29eff1f", "lat": 38.924366166666665, "name": "1f2375373152ded41e047a5ed29eff1f", "lon": -77.02502266666667, "fusion_lon": 0.0}, {"is_reserved": 0, "type": "electric_scooter", "fusion_lat": 0.0, "is_disabled": 0, "rental_uris": {"ios": "https://dc.lft.to/lastmile_qr_scan", "android": "https://dc.lft.to/lastmile_qr_scan"}, "bike_id": "daaf87a62de5c34685e0bc93946c4414", "lat": 38.90685283333333, "name": "daaf87a62de5c34685e0bc93946c4414", "lon": -77.0271445, "fusion_lon": 0.0}, {"is_reserved": 0, "type": "electric_scooter", "fusion_lat": 0.0, "is_disabled": 0, "rental_uris": {"ios": "https://dc.lft.to/lastmile_qr_scan", "android": "https://dc.lft.to/lastmile_qr_scan"}, "bike_id": "9e793f2d6650908ded42a1c9e526b1a0", "lat": 38.909609, "name": "9e793f2d6650908ded42a1c9e526b1a0", "lon": -77.04838533333333, "fusion_lon": 0.0}, {"is_reserved": 0, "type": "electric_scooter", "fusion_lat": 0.0, "is_disabled": 0, "rental_uris": {"ios": "https://dc.lft.to/lastmile_qr_scan", "android": "https://dc.lft.to/lastmile_qr_scan"}, "bike_id": "a15400497ea857dac084ca598476fa41", "lat": 38.9163705, "name": "a15400497ea857dac084ca598476fa41", "lon": -77.045485, "fusion_lon": 0.0}, {"is_reserved": 0, "type": "electric_scooter", "fusion_lat": 0.0, "is_disabled": 0, "rental_uris": {"ios": "https://dc.lft.to/lastmile_qr_scan", "android": "https://dc.lft.to/lastmile_qr_scan"}, "bike_id": "3088d826f38df453648c785f634d10d8", "lat": 38.91475283333333, "name": "3088d826f38df453648c785f634d10d8", "lon": -77.01457783333333, "fusion_lon": 0.0}, {"is_reserved": 0, "type": "electric_scooter", "fusion_lat": 0.0, "is_disabled": 0, "rental_uris": {"ios": "https://dc.lft.to/lastmile_qr_scan", "android": "https://dc.lft.to/lastmile_qr_scan"}, "bike_id": "cd32c677fbac6befca82c7f1d1b80370", "lat": 38.89903966666667, "name": "cd32c677fbac6befca82c7f1d1b80370", "lon": -76.93391316666667, "fusion_lon": 0.0}, {"is_reserved": 0, "type": "electric_scooter", "fusion_lat": 0.0, "is_disabled": 0, "rental_uris": {"ios": "https://dc.lft.to/lastmile_qr_scan", "android": "https://dc.lft.to/lastmile_qr_scan"}, "bike_id": "0d897f99a72ce35571d304178049f532", "lat": 38.92383816666667, "name": "0d897f99a72ce35571d304178049f532", "lon": -77.02606966666667, "fusion_lon": 0.0}, {"is_reserved": 0, "type": "electric_bike", "fusion_lat": 0.0, "is_disabled": 0, "rental_uris": {"ios": "https://dc.lft.to/lastmile_qr_scan", "android": "https://dc.lft.to/lastmile_qr_scan"}, "bike_id": "4c00d6edff233fd04dd1cd8222b15e21", "lat": 38.82927083333333, "name": "4c00d6edff233fd04dd1cd8222b15e21", "lon": -77.068795, "fusion_lon": 0.0}, {"is_reserved": 0, "type": "electric_scooter", "fusion_lat": 0.0, "is_disabled": 0, "rental_uris": {"ios": "https://dc.lft.to/lastmile_qr_scan", "android": "https://dc.lft.to/lastmile_qr_scan"}, "bike_id": "888a87cec4e0aa289e65e56487d9aab2", "lat": 38.92323833333333, "name": "888a87cec4e0aa289e65e56487d9aab2", "lon": -76.99908733333334, "fusion_lon": 0.0}, {"is_reserved": 0, "type": "electric_bike", "fusion_lat": 0.0, "is_disabled": 0, "rental_uris": {"ios": "https://dc.lft.to/lastmile_qr_scan", "android": "https://dc.lft.to/lastmile_qr_scan"}, "bike_id": "21d4ce8afc9fd58f132b0c8e3567d224", "lat": 38.96433616666667, "name": "21d4ce8afc9fd58f132b0c8e3567d224", "lon": -77.03188, "fusion_lon": 0.0}, {"is_reserved": 0, "type": "electric_scooter", "fusion_lat": 0.0, "is_disabled": 0, "rental_uris": {"ios": "https://dc.lft.to/lastmile_qr_scan", "android": "https://dc.lft.to/lastmile_qr_scan"}, "bike_id": "cc4883610640454899ae17a57b265b94", "lat": 38.926530166666666, "name": "cc4883610640454899ae17a57b265b94", "lon": -77.02433133333334, "fusion_lon": 0.0}, {"is_reserved": 0, "type": "electric_scooter", "fusion_lat": 0.0, "is_disabled": 0, "rental_uris": {"ios": "https://dc.lft.to/lastmile_qr_scan", "android": "https://dc.lft.to/lastmile_qr_scan"}, "bike_id": "7d4ef93e0312b6cbe351240545ad8f67", "lat": 38.9024675, "name": "7d4ef93e0312b6cbe351240545ad8f67", "lon": -77.02711133333334, "fusion_lon": 0.0}, {"is_reserved": 0, "type": "electric_scooter", "fusion_lat": 0.0, "is_disabled": 0, "rental_uris": {"ios": "https://dc.lft.to/lastmile_qr_scan", "android": "https://dc.lft.to/lastmile_qr_scan"}, "bike_id": "7d793edc1071447c7b38fd07e3fb18d1", "lat": 38.915622, "name": "7d793edc1071447c7b38fd07e3fb18d1", "lon": -77.036753, "fusion_lon": 0.0}, {"is_reserved": 0, "type": "electric_scooter", "fusion_lat": 0.0, "is_disabled": 0, "rental_uris": {"ios": "https://dc.lft.to/lastmile_qr_scan", "android": "https://dc.lft.to/lastmile_qr_scan"}, "bike_id": "158040b224f5cb2e3eb1da761ac29595", "lat": 38.936607333333335, "name": "158040b224f5cb2e3eb1da761ac29595", "lon": -77.06606183333334, "fusion_lon": 0.0}, {"is_reserved": 0, "type": "electric_bike", "fusion_lat": 0.0, "is_disabled": 0, "rental_uris": {"ios": "https://dc.lft.to/lastmile_qr_scan", "android": "https://dc.lft.to/lastmile_qr_scan"}, "bike_id": "63419b5f095eea28528256b565c7ad7f", "lat": 38.92527966666667, "name": "63419b5f095eea28528256b565c7ad7f", "lon": -77.0732415, "fusion_lon": 0.0}, {"is_reserved": 0, "type": "electric_scooter", "fusion_lat": 0.0, "is_disabled": 0, "rental_uris": {"ios": "https://dc.lft.to/lastmile_qr_scan", "android": "https://dc.lft.to/lastmile_qr_scan"}, "bike_id": "b25d4e50a70bd7f9faf54536f7981dad", "lat": 38.900261666666665, "name": "b25d4e50a70bd7f9faf54536f7981dad", "lon": -76.99838466666667, "fusion_lon": 0.0}, {"is_reserved": 0, "type": "electric_scooter", "fusion_lat": 0.0, "is_disabled": 0, "rental_uris": {"ios": "https://dc.lft.to/lastmile_qr_scan", "android": "https://dc.lft.to/lastmile_qr_scan"}, "bike_id": "af4d83532fe967348ce7a0867d4f5c25", "lat": 38.911527, "name": "af4d83532fe967348ce7a0867d4f5c25", "lon": -77.044804, "fusion_lon": 0.0}, {"is_reserved": 0, "type": "electric_bike", "fusion_lat": 0.0, "is_disabled": 0, "rental_uris": {"ios": "https://dc.lft.to/lastmile_qr_scan", "android": "https://dc.lft.to/lastmile_qr_scan"}, "bike_id": "0b0b26cd015d895e85a5aa9d2195bf16", "lat": 38.86563016666667, "name": "0b0b26cd015d895e85a5aa9d2195bf16", "lon": -76.9747775, "fusion_lon": 0.0}, {"is_reserved": 0, "type": "electric_scooter", "fusion_lat": 0.0, "is_disabled": 0, "rental_uris": {"ios": "https://dc.lft.to/lastmile_qr_scan", "android": "https://dc.lft.to/lastmile_qr_scan"}, "bike_id": "e2f6752be3b1f11aa3c98051b68f082c", "lat": 38.88578416666667, "name": "e2f6752be3b1f11aa3c98051b68f082c", "lon": -77.012249, "fusion_lon": 0.0}, {"is_reserved": 0, "type": "electric_scooter", "fusion_lat": 0.0, "is_disabled": 0, "rental_uris": {"ios": "https://dc.lft.to/lastmile_qr_scan", "android": "https://dc.lft.to/lastmile_qr_scan"}, "bike_id": "3e2e9b423ba1e3ae3f09972dea09fd99", "lat": 38.90064366666667, "name": "3e2e9b423ba1e3ae3f09972dea09fd99", "lon": -77.0130855, "fusion_lon": 0.0}, {"is_reserved": 0, "type": "electric_bike", "fusion_lat": 0.0, "is_disabled": 0, "rental_uris": {"ios": "https://dc.lft.to/lastmile_qr_scan", "android": "https://dc.lft.to/lastmile_qr_scan"}, "bike_id": "1eb56bb2a5f5e787c75624da4e484e33", "lat": 38.82425933333333, "name": "1eb56bb2a5f5e787c75624da4e484e33", "lon": -77.120399, "fusion_lon": 0.0}, {"is_reserved": 0, "type": "electric_scooter", "fusion_lat": 0.0, "is_disabled": 0, "rental_uris": {"ios": "https://dc.lft.to/lastmile_qr_scan", "android": "https://dc.lft.to/lastmile_qr_scan"}, "bike_id": "7728fcc617e7319eccdc4520926dfe5b", "lat": 38.89992, "name": "7728fcc617e7319eccdc4520926dfe5b", "lon": -77.00386, "fusion_lon": 0.0}, {"is_reserved": 0, "type": "electric_scooter", "fusion_lat": 0.0, "is_disabled": 0, "rental_uris": {"ios": "https://dc.lft.to/lastmile_qr_scan", "android": "https://dc.lft.to/lastmile_qr_scan"}, "bike_id": "5f94b66af2130c92c1484021a15b220a", "lat": 38.910414, "name": "5f94b66af2130c92c1484021a15b220a", "lon": -77.0102105, "fusion_lon": 0.0}, {"is_reserved": 0, "type": "electric_scooter", "fusion_lat": 0.0, "is_disabled": 0, "rental_uris": {"ios": "https://dc.lft.to/lastmile_qr_scan", "android": "https://dc.lft.to/lastmile_qr_scan"}, "bike_id": "b03c4ceb58c286d96e8e579665bc23c2", "lat": 38.9305795, "name": "b03c4ceb58c286d96e8e579665bc23c2", "lon": -77.0366985, "fusion_lon": 0.0}, {"is_reserved": 0, "type": "electric_scooter", "fusion_lat": 0.0, "is_disabled": 0, "rental_uris": {"ios": "https://dc.lft.to/lastmile_qr_scan", "android": "https://dc.lft.to/lastmile_qr_scan"}, "bike_id": "da97d11a776fbfccbca9d881c4a4771c", "lat": 38.92199733333333, "name": "da97d11a776fbfccbca9d881c4a4771c", "lon": -77.01845133333333, "fusion_lon": 0.0}, {"is_reserved": 0, "type": "electric_scooter", "fusion_lat": 0.0, "is_disabled": 0, "rental_uris": {"ios": "https://dc.lft.to/lastmile_qr_scan", "android": "https://dc.lft.to/lastmile_qr_scan"}, "bike_id": "c625fac3a15d50f7ad2c628cbed89bdd", "lat": 38.90237916666667, "name": "c625fac3a15d50f7ad2c628cbed89bdd", "lon": -77.03920533333333, "fusion_lon": 0.0}, {"is_reserved": 0, "type": "electric_scooter", "fusion_lat": 0.0, "is_disabled": 0, "rental_uris": {"ios": "https://dc.lft.to/lastmile_qr_scan", "android": "https://dc.lft.to/lastmile_qr_scan"}, "bike_id": "a16d9c9c1cd54ed482351c39dc3e638d", "lat": 38.9011305, "name": "a16d9c9c1cd54ed482351c39dc3e638d", "lon": -77.03446133333334, "fusion_lon": 0.0}, {"is_reserved": 0, "type": "electric_scooter", "fusion_lat": 0.0, "is_disabled": 0, "rental_uris": {"ios": "https://dc.lft.to/lastmile_qr_scan", "android": "https://dc.lft.to/lastmile_qr_scan"}, "bike_id": "6768eee5f61cd5f01671fa26194f4698", "lat": 38.9332, "name": "6768eee5f61cd5f01671fa26194f4698", "lon": -77.02396183333333, "fusion_lon": 0.0}, {"is_reserved": 0, "type": "electric_scooter", "fusion_lat": 0.0, "is_disabled": 0, "rental_uris": {"ios": "https://dc.lft.to/lastmile_qr_scan", "android": "https://dc.lft.to/lastmile_qr_scan"}, "bike_id": "771abc98959212e2a379ae29f531d85e", "lat": 38.944868666666665, "name": "771abc98959212e2a379ae29f531d85e", "lon": -77.0074045, "fusion_lon": 0.0}, {"is_reserved": 0, "type": "electric_scooter", "fusion_lat": 0.0, "is_disabled": 0, "rental_uris": {"ios": "https://dc.lft.to/lastmile_qr_scan", "android": "https://dc.lft.to/lastmile_qr_scan"}, "bike_id": "c96bd8c10f7011bd7a52b8cdb129744d", "lat": 38.9017165, "name": "c96bd8c10f7011bd7a52b8cdb129744d", "lon": -76.92945816666666, "fusion_lon": 0.0}, {"is_reserved": 0, "type": "electric_scooter", "fusion_lat": 0.0, "is_disabled": 0, "rental_uris": {"ios": "https://dc.lft.to/lastmile_qr_scan", "android": "https://dc.lft.to/lastmile_qr_scan"}, "bike_id": "a578a4593c875aed40ad8761953ac7a2", "lat": 38.906660333333335, "name": "a578a4593c875aed40ad8761953ac7a2", "lon": -76.999594, "fusion_lon": 0.0}, {"is_reserved": 0, "type": "electric_scooter", "fusion_lat": 0.0, "is_disabled": 0, "rental_uris": {"ios": "https://dc.lft.to/lastmile_qr_scan", "android": "https://dc.lft.to/lastmile_qr_scan"}, "bike_id": "8de9781959dde14461b140272ab8e7b0", "lat": 38.920589666666665, "name": "8de9781959dde14461b140272ab8e7b0", "lon": -77.02818616666667, "fusion_lon": 0.0}, {"is_reserved": 0, "type": "electric_scooter", "fusion_lat": 0.0, "is_disabled": 0, "rental_uris": {"ios": "https://dc.lft.to/lastmile_qr_scan", "android": "https://dc.lft.to/lastmile_qr_scan"}, "bike_id": "8e68d53025fa1130fd83ae6e213cfac5", "lat": 38.9046465, "name": "8e68d53025fa1130fd83ae6e213cfac5", "lon": -77.01700666666666, "fusion_lon": 0.0}, {"is_reserved": 0, "type": "electric_scooter", "fusion_lat": 0.0, "is_disabled": 0, "rental_uris": {"ios": "https://dc.lft.to/lastmile_qr_scan", "android": "https://dc.lft.to/lastmile_qr_scan"}, "bike_id": "0f1d3d1c4b6804c2dbabe1a65ae4fb71", "lat": 38.937795, "name": "0f1d3d1c4b6804c2dbabe1a65ae4fb71", "lon": -76.99370233333333, "fusion_lon": 0.0}, {"is_reserved": 0, "type": "electric_scooter", "fusion_lat": 0.0, "is_disabled": 0, "rental_uris": {"ios": "https://dc.lft.to/lastmile_qr_scan", "android": "https://dc.lft.to/lastmile_qr_scan"}, "bike_id": "adb61da6ffdcf09a95a8b8873bafaa14", "lat": 38.902465166666666, "name": "adb61da6ffdcf09a95a8b8873bafaa14", "lon": -77.0169245, "fusion_lon": 0.0}, {"is_reserved": 0, "type": "electric_scooter", "fusion_lat": 0.0, "is_disabled": 0, "rental_uris": {"ios": "https://dc.lft.to/lastmile_qr_scan", "android": "https://dc.lft.to/lastmile_qr_scan"}, "bike_id": "f9178c7347efb187e36a5e4269200b9f", "lat": 38.88269966666667, "name": "f9178c7347efb187e36a5e4269200b9f", "lon": -76.99523883333333, "fusion_lon": 0.0}, {"is_reserved": 0, "type": "electric_scooter", "fusion_lat": 0.0, "is_disabled": 0, "rental_uris": {"ios": "https://dc.lft.to/lastmile_qr_scan", "android": "https://dc.lft.to/lastmile_qr_scan"}, "bike_id": "29ef38e14f8160cd0fe5a2b9c0ac593f", "lat": 38.90959, "name": "29ef38e14f8160cd0fe5a2b9c0ac593f", "lon": -77.02374866666666, "fusion_lon": 0.0}, {"is_reserved": 0, "type": "electric_scooter", "fusion_lat": 0.0, "is_disabled": 0, "rental_uris": {"ios": "https://dc.lft.to/lastmile_qr_scan", "android": "https://dc.lft.to/lastmile_qr_scan"}, "bike_id": "316fc6e2965e71b5e04ad9adbea1a05e", "lat": 38.903309666666665, "name": "316fc6e2965e71b5e04ad9adbea1a05e", "lon": -76.97593966666666, "fusion_lon": 0.0}, {"is_reserved": 0, "type": "electric_scooter", "fusion_lat": 0.0, "is_disabled": 0, "rental_uris": {"ios": "https://dc.lft.to/lastmile_qr_scan", "android": "https://dc.lft.to/lastmile_qr_scan"}, "bike_id": "1ea619636935fc47af30f302df11beb0", "lat": 38.9118825, "name": "1ea619636935fc47af30f302df11beb0", "lon": -77.00192833333334, "fusion_lon": 0.0}, {"is_reserved": 0, "type": "electric_scooter", "fusion_lat": 0.0, "is_disabled": 0, "rental_uris": {"ios": "https://dc.lft.to/lastmile_qr_scan", "android": "https://dc.lft.to/lastmile_qr_scan"}, "bike_id": "a0c1a529775efec7064e0015fe577b31", "lat": 38.918643833333334, "name": "a0c1a529775efec7064e0015fe577b31", "lon": -77.04486933333334, "fusion_lon": 0.0}, {"is_reserved": 0, "type": "electric_scooter", "fusion_lat": 0.0, "is_disabled": 0, "rental_uris": {"ios": "https://dc.lft.to/lastmile_qr_scan", "android": "https://dc.lft.to/lastmile_qr_scan"}, "bike_id": "53ee9deffa61db09da087921fc33d17a", "lat": 38.921719, "name": "53ee9deffa61db09da087921fc33d17a", "lon": -77.0434245, "fusion_lon": 0.0}, {"is_reserved": 0, "type": "electric_scooter", "fusion_lat": 0.0, "is_disabled": 0, "rental_uris": {"ios": "https://dc.lft.to/lastmile_qr_scan", "android": "https://dc.lft.to/lastmile_qr_scan"}, "bike_id": "3ce7c3c44e4507e8ffe6f94714458ebb", "lat": 38.898418, "name": "3ce7c3c44e4507e8ffe6f94714458ebb", "lon": -77.03315866666667, "fusion_lon": 0.0}, {"is_reserved": 0, "type": "electric_bike", "fusion_lat": 0.0, "is_disabled": 0, "rental_uris": {"ios": "https://dc.lft.to/lastmile_qr_scan", "android": "https://dc.lft.to/lastmile_qr_scan"}, "bike_id": "ee6c06a70c6bce44551f842185f01c79", "lat": 38.871649, "name": "ee6c06a70c6bce44551f842185f01c79", "lon": -77.2338945, "fusion_lon": 0.0}, {"is_reserved": 0, "type": "electric_bike", "fusion_lat": 0.0, "is_disabled": 0, "rental_uris": {"ios": "https://dc.lft.to/lastmile_qr_scan", "android": "https://dc.lft.to/lastmile_qr_scan"}, "bike_id": "65135c8ea4fbd5a2f23f11eeda525e8d", "lat": 38.80737966666667, "name": "65135c8ea4fbd5a2f23f11eeda525e8d", "lon": -77.09687216666667, "fusion_lon": 0.0}, {"is_reserved": 0, "type": "electric_scooter", "fusion_lat": 0.0, "is_disabled": 0, "rental_uris": {"ios": "https://dc.lft.to/lastmile_qr_scan", "android": "https://dc.lft.to/lastmile_qr_scan"}, "bike_id": "11fad78982a49161b418a78cc142183f", "lat": 38.914382, "name": "11fad78982a49161b418a78cc142183f", "lon": -77.0034955, "fusion_lon": 0.0}, {"is_reserved": 0, "type": "electric_scooter", "fusion_lat": 0.0, "is_disabled": 0, "rental_uris": {"ios": "https://dc.lft.to/lastmile_qr_scan", "android": "https://dc.lft.to/lastmile_qr_scan"}, "bike_id": "523921f350fd378b1df1574dd79bd29d", "lat": 38.90602416666667, "name": "523921f350fd378b1df1574dd79bd29d", "lon": -77.058352, "fusion_lon": 0.0}, {"is_reserved": 0, "type": "electric_bike", "fusion_lat": 0.0, "is_disabled": 0, "rental_uris": {"ios": "https://dc.lft.to/lastmile_qr_scan", "android": "https://dc.lft.to/lastmile_qr_scan"}, "bike_id": "49d6ddbe037ff6a2f3040c650c0cc439", "lat": 39.000019333333334, "name": "49d6ddbe037ff6a2f3040c650c0cc439", "lon": -76.91807666666666, "fusion_lon": 0.0}, {"is_reserved": 0, "type": "electric_bike", "fusion_lat": 0.0, "is_disabled": 0, "rental_uris": {"ios": "https://dc.lft.to/lastmile_qr_scan", "android": "https://dc.lft.to/lastmile_qr_scan"}, "bike_id": "6d7e5baeac7412c18838cf6f3fea28e4", "lat": 38.95086533333333, "name": "6d7e5baeac7412c18838cf6f3fea28e4", "lon": -77.01229683333334, "fusion_lon": 0.0}, {"is_reserved": 0, "type": "electric_scooter", "fusion_lat": 0.0, "is_disabled": 0, "rental_uris": {"ios": "https://dc.lft.to/lastmile_qr_scan", "android": "https://dc.lft.to/lastmile_qr_scan"}, "bike_id": "9beed4432836ad0dcc55a24713818742", "lat": 38.895433833333335, "name": "9beed4432836ad0dcc55a24713818742", "lon": -76.98339533333333, "fusion_lon": 0.0}, {"is_reserved": 0, "type": "electric_scooter", "fusion_lat": 0.0, "is_disabled": 0, "rental_uris": {"ios": "https://dc.lft.to/lastmile_qr_scan", "android": "https://dc.lft.to/lastmile_qr_scan"}, "bike_id": "256293c65f25b456b533f9d389795c4e", "lat": 38.90596466666667, "name": "256293c65f25b456b533f9d389795c4e", "lon": -77.0470755, "fusion_lon": 0.0}, {"is_reserved": 0, "type": "electric_scooter", "fusion_lat": 0.0, "is_disabled": 0, "rental_uris": {"ios": "https://dc.lft.to/lastmile_qr_scan", "android": "https://dc.lft.to/lastmile_qr_scan"}, "bike_id": "58108fa55d5f36dc1a538582da2ba935", "lat": 38.918071833333336, "name": "58108fa55d5f36dc1a538582da2ba935", "lon": -77.03435316666666, "fusion_lon": 0.0}, {"is_reserved": 0, "type": "electric_scooter", "fusion_lat": 0.0, "is_disabled": 0, "rental_uris": {"ios": "https://dc.lft.to/lastmile_qr_scan", "android": "https://dc.lft.to/lastmile_qr_scan"}, "bike_id": "de366ee94ce55066687b0101e5562cbc", "lat": 38.90870283333334, "name": "de366ee94ce55066687b0101e5562cbc", "lon": -77.0715055, "fusion_lon": 0.0}, {"is_reserved": 0, "type": "electric_scooter", "fusion_lat": 0.0, "is_disabled": 0, "rental_uris": {"ios": "https://dc.lft.to/lastmile_qr_scan", "android": "https://dc.lft.to/lastmile_qr_scan"}, "bike_id": "e09b7496016bf3399489fb59364e469f", "lat": 38.892279333333335, "name": "e09b7496016bf3399489fb59364e469f", "lon": -77.04999033333333, "fusion_lon": 0.0}, {"is_reserved": 0, "type": "electric_scooter", "fusion_lat": 0.0, "is_disabled": 0, "rental_uris": {"ios": "https://dc.lft.to/lastmile_qr_scan", "android": "https://dc.lft.to/lastmile_qr_scan"}, "bike_id": "868fbdc0b13548ca6cbe318e82407af2", "lat": 38.893624833333334, "name": "868fbdc0b13548ca6cbe318e82407af2", "lon": -76.94107266666667, "fusion_lon": 0.0}, {"is_reserved": 0, "type": "electric_scooter", "fusion_lat": 0.0, "is_disabled": 0, "rental_uris": {"ios": "https://dc.lft.to/lastmile_qr_scan", "android": "https://dc.lft.to/lastmile_qr_scan"}, "bike_id": "eda85fefcfcdf85b19625bbde152526c", "lat": 38.9262465, "name": "eda85fefcfcdf85b19625bbde152526c", "lon": -77.04149483333333, "fusion_lon": 0.0}, {"is_reserved": 0, "type": "electric_scooter", "fusion_lat": 0.0, "is_disabled": 0, "rental_uris": {"ios": "https://dc.lft.to/lastmile_qr_scan", "android": "https://dc.lft.to/lastmile_qr_scan"}, "bike_id": "147e5d18f8d5061357e6ed1d9af95d63", "lat": 38.90782433333333, "name": "147e5d18f8d5061357e6ed1d9af95d63", "lon": -77.07253966666667, "fusion_lon": 0.0}, {"is_reserved": 0, "type": "electric_scooter", "fusion_lat": 0.0, "is_disabled": 0, "rental_uris": {"ios": "https://dc.lft.to/lastmile_qr_scan", "android": "https://dc.lft.to/lastmile_qr_scan"}, "bike_id": "33c52db1528a4302f771debdf24cb3a2", "lat": 38.885449333333334, "name": "33c52db1528a4302f771debdf24cb3a2", "lon": -77.00069416666666, "fusion_lon": 0.0}, {"is_reserved": 0, "type": "electric_scooter", "fusion_lat": 0.0, "is_disabled": 0, "rental_uris": {"ios": "https://dc.lft.to/lastmile_qr_scan", "android": "https://dc.lft.to/lastmile_qr_scan"}, "bike_id": "d246dc9b5f7347e5f481372a27178013", "lat": 38.88707266666667, "name": "d246dc9b5f7347e5f481372a27178013", "lon": -76.98345266666666, "fusion_lon": 0.0}, {"is_reserved": 0, "type": "electric_scooter", "fusion_lat": 0.0, "is_disabled": 0, "rental_uris": {"ios": "https://dc.lft.to/lastmile_qr_scan", "android": "https://dc.lft.to/lastmile_qr_scan"}, "bike_id": "188165d9e32ed72e0f8deb7185df4bbc", "lat": 38.92497783333334, "name": "188165d9e32ed72e0f8deb7185df4bbc", "lon": -77.04333983333333, "fusion_lon": 0.0}, {"is_reserved": 0, "type": "electric_scooter", "fusion_lat": 0.0, "is_disabled": 0, "rental_uris": {"ios": "https://dc.lft.to/lastmile_qr_scan", "android": "https://dc.lft.to/lastmile_qr_scan"}, "bike_id": "0f67d30ed4a6f5fe181c4a315e7e8d05", "lat": 38.9086605, "name": "0f67d30ed4a6f5fe181c4a315e7e8d05", "lon": -77.00336133333333, "fusion_lon": 0.0}, {"is_reserved": 0, "type": "electric_scooter", "fusion_lat": 0.0, "is_disabled": 0, "rental_uris": {"ios": "https://dc.lft.to/lastmile_qr_scan", "android": "https://dc.lft.to/lastmile_qr_scan"}, "bike_id": "0e043ae5b713d0cbdacced5b24d41833", "lat": 38.928849, "name": "0e043ae5b713d0cbdacced5b24d41833", "lon": -77.037295, "fusion_lon": 0.0}, {"is_reserved": 0, "type": "electric_scooter", "fusion_lat": 0.0, "is_disabled": 0, "rental_uris": {"ios": "https://dc.lft.to/lastmile_qr_scan", "android": "https://dc.lft.to/lastmile_qr_scan"}, "bike_id": "575d1cf789b0e46dd9b4bd0b19a9efc5", "lat": 38.897740666666664, "name": "575d1cf789b0e46dd9b4bd0b19a9efc5", "lon": -77.05010166666666, "fusion_lon": 0.0}, {"is_reserved": 0, "type": "electric_scooter", "fusion_lat": 0.0, "is_disabled": 0, "rental_uris": {"ios": "https://dc.lft.to/lastmile_qr_scan", "android": "https://dc.lft.to/lastmile_qr_scan"}, "bike_id": "c331211554f78317c881cda6bf5947ea", "lat": 38.892230833333336, "name": "c331211554f78317c881cda6bf5947ea", "lon": -77.02537883333333, "fusion_lon": 0.0}, {"is_reserved": 0, "type": "electric_scooter", "fusion_lat": 0.0, "is_disabled": 0, "rental_uris": {"ios": "https://dc.lft.to/lastmile_qr_scan", "android": "https://dc.lft.to/lastmile_qr_scan"}, "bike_id": "d05d48abc60872762ba4ccc2a95d2235", "lat": 38.931082, "name": "d05d48abc60872762ba4ccc2a95d2235", "lon": -77.02804283333333, "fusion_lon": 0.0}, {"is_reserved": 0, "type": "electric_scooter", "fusion_lat": 0.0, "is_disabled": 0, "rental_uris": {"ios": "https://dc.lft.to/lastmile_qr_scan", "android": "https://dc.lft.to/lastmile_qr_scan"}, "bike_id": "b64a2189833290407140c5b3c4d5e5c0", "lat": 38.92178166666667, "name": "b64a2189833290407140c5b3c4d5e5c0", "lon": -76.95638383333333, "fusion_lon": 0.0}, {"is_reserved": 0, "type": "electric_scooter", "fusion_lat": 0.0, "is_disabled": 0, "rental_uris": {"ios": "https://dc.lft.to/lastmile_qr_scan", "android": "https://dc.lft.to/lastmile_qr_scan"}, "bike_id": "b83b8e8e64d80c73f03b59c044a48a22", "lat": 38.90946483333333, "name": "b83b8e8e64d80c73f03b59c044a48a22", "lon": -77.0152355, "fusion_lon": 0.0}, {"is_reserved": 0, "type": "electric_scooter", "fusion_lat": 0.0, "is_disabled": 0, "rental_uris": {"ios": "https://dc.lft.to/lastmile_qr_scan", "android": "https://dc.lft.to/lastmile_qr_scan"}, "bike_id": "5723e05b49e769588bd5f5b10e1a7b35", "lat": 38.906865833333335, "name": "5723e05b49e769588bd5f5b10e1a7b35", "lon": -77.0271445, "fusion_lon": 0.0}, {"is_reserved": 0, "type": "electric_scooter", "fusion_lat": 0.0, "is_disabled": 0, "rental_uris": {"ios": "https://dc.lft.to/lastmile_qr_scan", "android": "https://dc.lft.to/lastmile_qr_scan"}, "bike_id": "dbbc85e9e52c9120de603b0c9768ed8d", "lat": 38.90082533333333, "name": "dbbc85e9e52c9120de603b0c9768ed8d", "lon": -77.05052, "fusion_lon": 0.0}, {"is_reserved": 0, "type": "electric_bike", "fusion_lat": 0.0, "is_disabled": 0, "rental_uris": {"ios": "https://dc.lft.to/lastmile_qr_scan", "android": "https://dc.lft.to/lastmile_qr_scan"}, "bike_id": "5bbdd2895ec6b3785218ad1e80cc56a4", "lat": 38.86734116666667, "name": "5bbdd2895ec6b3785218ad1e80cc56a4", "lon": -76.98950766666667, "fusion_lon": 0.0}, {"is_reserved": 0, "type": "electric_scooter", "fusion_lat": 0.0, "is_disabled": 0, "rental_uris": {"ios": "https://dc.lft.to/lastmile_qr_scan", "android": "https://dc.lft.to/lastmile_qr_scan"}, "bike_id": "7ef12f97ddf6b1423c1747ad8f8bcae3", "lat": 38.90718416666667, "name": "7ef12f97ddf6b1423c1747ad8f8bcae3", "lon": -77.02581866666667, "fusion_lon": 0.0}, {"is_reserved": 0, "type": "electric_scooter", "fusion_lat": 0.0, "is_disabled": 0, "rental_uris": {"ios": "https://dc.lft.to/lastmile_qr_scan", "android": "https://dc.lft.to/lastmile_qr_scan"}, "bike_id": "e1e34ec9dcebe7cc02475ffd038a1ba2", "lat": 38.90409366666667, "name": "e1e34ec9dcebe7cc02475ffd038a1ba2", "lon": -76.97331683333333, "fusion_lon": 0.0}, {"is_reserved": 0, "type": "electric_scooter", "fusion_lat": 0.0, "is_disabled": 0, "rental_uris": {"ios": "https://dc.lft.to/lastmile_qr_scan", "android": "https://dc.lft.to/lastmile_qr_scan"}, "bike_id": "10b33b6185235f1c99948ddd72769ea3", "lat": 38.967605166666665, "name": "10b33b6185235f1c99948ddd72769ea3", "lon": -77.03425233333333, "fusion_lon": 0.0}, {"is_reserved": 0, "type": "electric_scooter", "fusion_lat": 0.0, "is_disabled": 0, "rental_uris": {"ios": "https://dc.lft.to/lastmile_qr_scan", "android": "https://dc.lft.to/lastmile_qr_scan"}, "bike_id": "1290472de90a04a3f94143abd07be477", "lat": 38.927487666666664, "name": "1290472de90a04a3f94143abd07be477", "lon": -77.0237365, "fusion_lon": 0.0}, {"is_reserved": 0, "type": "electric_bike", "fusion_lat": 0.0, "is_disabled": 0, "rental_uris": {"ios": "https://dc.lft.to/lastmile_qr_scan", "android": "https://dc.lft.to/lastmile_qr_scan"}, "bike_id": "80c6046c8d41dc50d2d81f00c16b69f0", "lat": 38.81538783333333, "name": "80c6046c8d41dc50d2d81f00c16b69f0", "lon": -77.04644233333333, "fusion_lon": 0.0}, {"is_reserved": 0, "type": "electric_scooter", "fusion_lat": 0.0, "is_disabled": 0, "rental_uris": {"ios": "https://dc.lft.to/lastmile_qr_scan", "android": "https://dc.lft.to/lastmile_qr_scan"}, "bike_id": "075d9d24fd009fa6c70cc11fe5d39e6a", "lat": 38.91707816666667, "name": "075d9d24fd009fa6c70cc11fe5d39e6a", "lon": -77.04135283333333, "fusion_lon": 0.0}, {"is_reserved": 0, "type": "electric_scooter", "fusion_lat": 0.0, "is_disabled": 0, "rental_uris": {"ios": "https://dc.lft.to/lastmile_qr_scan", "android": "https://dc.lft.to/lastmile_qr_scan"}, "bike_id": "f14ef5f7f2a4397099212440d3812078", "lat": 38.90344866666667, "name": "f14ef5f7f2a4397099212440d3812078", "lon": -76.97490983333333, "fusion_lon": 0.0}, {"is_reserved": 0, "type": "electric_scooter", "fusion_lat": 0.0, "is_disabled": 0, "rental_uris": {"ios": "https://dc.lft.to/lastmile_qr_scan", "android": "https://dc.lft.to/lastmile_qr_scan"}, "bike_id": "8b6df03f5938c0595c9e7052928c02ad", "lat": 38.91630416666667, "name": "8b6df03f5938c0595c9e7052928c02ad", "lon": -77.04798016666666, "fusion_lon": 0.0}, {"is_reserved": 0, "type": "electric_scooter", "fusion_lat": 0.0, "is_disabled": 0, "rental_uris": {"ios": "https://dc.lft.to/lastmile_qr_scan", "android": "https://dc.lft.to/lastmile_qr_scan"}, "bike_id": "5330abfba781e5b2e5f37297514b67b7", "lat": 38.92770633333333, "name": "5330abfba781e5b2e5f37297514b67b7", "lon": -77.02783683333334, "fusion_lon": 0.0}, {"is_reserved": 0, "type": "electric_scooter", "fusion_lat": 0.0, "is_disabled": 0, "rental_uris": {"ios": "https://dc.lft.to/lastmile_qr_scan", "android": "https://dc.lft.to/lastmile_qr_scan"}, "bike_id": "e246bb3e2dda2dd7c85644e6083b7869", "lat": 38.93472033333333, "name": "e246bb3e2dda2dd7c85644e6083b7869", "lon": -77.03580883333333, "fusion_lon": 0.0}, {"is_reserved": 0, "type": "electric_scooter", "fusion_lat": 0.0, "is_disabled": 0, "rental_uris": {"ios": "https://dc.lft.to/lastmile_qr_scan", "android": "https://dc.lft.to/lastmile_qr_scan"}, "bike_id": "987dbfd822e06adeb8407d4626b23eda", "lat": 38.916199666666664, "name": "987dbfd822e06adeb8407d4626b23eda", "lon": -77.00500416666667, "fusion_lon": 0.0}, {"is_reserved": 0, "type": "electric_bike", "fusion_lat": 0.0, "is_disabled": 0, "rental_uris": {"ios": "https://dc.lft.to/lastmile_qr_scan", "android": "https://dc.lft.to/lastmile_qr_scan"}, "bike_id": "0847923fc7cdb58246a9331df7b0858e", "lat": 38.9715245, "name": "0847923fc7cdb58246a9331df7b0858e", "lon": -76.98362066666667, "fusion_lon": 0.0}, {"is_reserved": 0, "type": "electric_scooter", "fusion_lat": 0.0, "is_disabled": 0, "rental_uris": {"ios": "https://dc.lft.to/lastmile_qr_scan", "android": "https://dc.lft.to/lastmile_qr_scan"}, "bike_id": "41d4764eea4b9f64ff7cb33518830a55", "lat": 38.899104333333334, "name": "41d4764eea4b9f64ff7cb33518830a55", "lon": -77.00352633333334, "fusion_lon": 0.0}, {"is_reserved": 0, "type": "electric_scooter", "fusion_lat": 0.0, "is_disabled": 0, "rental_uris": {"ios": "https://dc.lft.to/lastmile_qr_scan", "android": "https://dc.lft.to/lastmile_qr_scan"}, "bike_id": "85243af3266bb3cd91cdf5ae16f00589", "lat": 38.916660666666665, "name": "85243af3266bb3cd91cdf5ae16f00589", "lon": -77.02299033333334, "fusion_lon": 0.0}, {"is_reserved": 0, "type": "electric_scooter", "fusion_lat": 0.0, "is_disabled": 0, "rental_uris": {"ios": "https://dc.lft.to/lastmile_qr_scan", "android": "https://dc.lft.to/lastmile_qr_scan"}, "bike_id": "14897eab10c537b0f022334f12fb0c08", "lat": 38.92331316666667, "name": "14897eab10c537b0f022334f12fb0c08", "lon": -77.02813333333333, "fusion_lon": 0.0}, {"is_reserved": 0, "type": "electric_bike", "fusion_lat": 0.0, "is_disabled": 0, "rental_uris": {"ios": "https://dc.lft.to/lastmile_qr_scan", "android": "https://dc.lft.to/lastmile_qr_scan"}, "bike_id": "f491ed0df6dd3cc3a8f8b01b3be98fe8", "lat": 38.92652483333333, "name": "f491ed0df6dd3cc3a8f8b01b3be98fe8", "lon": -77.0901935, "fusion_lon": 0.0}, {"is_reserved": 0, "type": "electric_scooter", "fusion_lat": 0.0, "is_disabled": 0, "rental_uris": {"ios": "https://dc.lft.to/lastmile_qr_scan", "android": "https://dc.lft.to/lastmile_qr_scan"}, "bike_id": "d5cc93d582058c46d79c98eba74596c9", "lat": 38.9392995, "name": "d5cc93d582058c46d79c98eba74596c9", "lon": -77.025903, "fusion_lon": 0.0}, {"is_reserved": 0, "type": "electric_scooter", "fusion_lat": 0.0, "is_disabled": 0, "rental_uris": {"ios": "https://dc.lft.to/lastmile_qr_scan", "android": "https://dc.lft.to/lastmile_qr_scan"}, "bike_id": "8039a7184eb88cc08b262dc61ce37335", "lat": 38.92788733333333, "name": "8039a7184eb88cc08b262dc61ce37335", "lon": -77.02131416666667, "fusion_lon": 0.0}, {"is_reserved": 0, "type": "electric_scooter", "fusion_lat": 0.0, "is_disabled": 0, "rental_uris": {"ios": "https://dc.lft.to/lastmile_qr_scan", "android": "https://dc.lft.to/lastmile_qr_scan"}, "bike_id": "a9b4dd15076d131b47ddd4413aadd55a", "lat": 38.921322333333336, "name": "a9b4dd15076d131b47ddd4413aadd55a", "lon": -77.004017, "fusion_lon": 0.0}, {"is_reserved": 0, "type": "electric_scooter", "fusion_lat": 0.0, "is_disabled": 0, "rental_uris": {"ios": "https://dc.lft.to/lastmile_qr_scan", "android": "https://dc.lft.to/lastmile_qr_scan"}, "bike_id": "a486d94a55e1ea57795e0dcbccc3121b", "lat": 38.90601733333333, "name": "a486d94a55e1ea57795e0dcbccc3121b", "lon": -77.06300183333333, "fusion_lon": 0.0}, {"is_reserved": 0, "type": "electric_scooter", "fusion_lat": 0.0, "is_disabled": 0, "rental_uris": {"ios": "https://dc.lft.to/lastmile_qr_scan", "android": "https://dc.lft.to/lastmile_qr_scan"}, "bike_id": "c2731595ad0e73290fcdb42fcbbf5b1a", "lat": 38.892302666666666, "name": "c2731595ad0e73290fcdb42fcbbf5b1a", "lon": -77.02572983333333, "fusion_lon": 0.0}, {"is_reserved": 0, "type": "electric_scooter", "fusion_lat": 0.0, "is_disabled": 0, "rental_uris": {"ios": "https://dc.lft.to/lastmile_qr_scan", "android": "https://dc.lft.to/lastmile_qr_scan"}, "bike_id": "98a9d8f774e781a54b38c17953932e8a", "lat": 38.89980766666667, "name": "98a9d8f774e781a54b38c17953932e8a", "lon": -77.00917316666667, "fusion_lon": 0.0}, {"is_reserved": 0, "type": "electric_scooter", "fusion_lat": 0.0, "is_disabled": 0, "rental_uris": {"ios": "https://dc.lft.to/lastmile_qr_scan", "android": "https://dc.lft.to/lastmile_qr_scan"}, "bike_id": "340699eefa1e82114333965738f062a1", "lat": 38.901426, "name": "340699eefa1e82114333965738f062a1", "lon": -77.01514966666667, "fusion_lon": 0.0}, {"is_reserved": 0, "type": "electric_bike", "fusion_lat": 0.0, "is_disabled": 0, "rental_uris": {"ios": "https://dc.lft.to/lastmile_qr_scan", "android": "https://dc.lft.to/lastmile_qr_scan"}, "bike_id": "da4bf65caf0d181b004ab26ddc4f42e6", "lat": 38.9523955, "name": "da4bf65caf0d181b004ab26ddc4f42e6", "lon": -76.98247483333333, "fusion_lon": 0.0}, {"is_reserved": 0, "type": "electric_scooter", "fusion_lat": 0.0, "is_disabled": 0, "rental_uris": {"ios": "https://dc.lft.to/lastmile_qr_scan", "android": "https://dc.lft.to/lastmile_qr_scan"}, "bike_id": "0c289aadb92dcdba7aa37b4b045e34db", "lat": 38.90652766666667, "name": "0c289aadb92dcdba7aa37b4b045e34db", "lon": -77.02483316666667, "fusion_lon": 0.0}, {"is_reserved": 0, "type": "electric_scooter", "fusion_lat": 0.0, "is_disabled": 0, "rental_uris": {"ios": "https://dc.lft.to/lastmile_qr_scan", "android": "https://dc.lft.to/lastmile_qr_scan"}, "bike_id": "2e58df5cb48aab91f73e33a8d57892cd", "lat": 38.90389916666667, "name": "2e58df5cb48aab91f73e33a8d57892cd", "lon": -76.99002783333333, "fusion_lon": 0.0},