{"data": {"bikes": [{"bike_id": "7999815b1a836f4ba724f0d7d4f0ccb4", "type": "electric_scooter", "is_disabled": 0, "lat": 38.8623805, "rental_uris": {"ios": "https://dc.lft.to/lastmile_qr_scan", "android": "https://dc.lft.to/lastmile_qr_scan"}, "is_reserved": 0, "fusion_lon": 0.0, "fusion_lat": 0.0, "lon": -76.99517216666666, "name": "7999815b1a836f4ba724f0d7d4f0ccb4"}, {"bike_id": "6a3f21a836e2b26eea6c6d5829d8cf3e", "type": "electric_scooter", "is_disabled": 0, "lat": 38.927559333333335, "rental_uris": {"ios": "https://dc.lft.to/lastmile_qr_scan", "android": "https://dc.lft.to/lastmile_qr_scan"}, "is_reserved": 0, "fusion_lon": 0.0, "fusion_lat": 0.0, "lon": -77.03273133333333, "name": "6a3f21a836e2b26eea6c6d5829d8cf3e"}, {"bike_id": "a288f1e03c7a5ad8731c022d122ad3f6", "type": "electric_scooter", "is_disabled": 0, "lat": 38.91817066666667, "rental_uris": {"ios": "https://dc.lft.to/lastmile_qr_scan", "android": "https://dc.lft.to/lastmile_qr_scan"}, "is_reserved": 0, "fusion_lon": 0.0, "fusion_lat": 0.0, "lon": -77.0102025, "name": "a288f1e03c7a5ad8731c022d122ad3f6"}, {"bike_id": "db9cf8e2d6bd67318ffcba854d3621f6", "type": "electric_scooter", "is_disabled": 0, "lat": 38.90756416666667, "rental_uris": {"ios": "https://dc.lft.to/lastmile_qr_scan", "android": "https://dc.lft.to/lastmile_qr_scan"}, "is_reserved": 0, "fusion_lon": 0.0, "fusion_lat": 0.0, "lon": -77.0321205, "name": "db9cf8e2d6bd67318ffcba854d3621f6"}, {"bike_id": "a35ab14ca8e9b05b870d449edc692118", "type": "electric_scooter", "is_disabled": 0, "lat": 38.88029683333333, "rental_uris": {"ios": "https://dc.lft.to/lastmile_qr_scan", "android": "https://dc.lft.to/lastmile_qr_scan"}, "is_reserved": 0, "fusion_lon": 0.0, "fusion_lat": 0.0, "lon": -77.02510933333333, "name": "a35ab14ca8e9b05b870d449edc692118"}, {"bike_id": "b13d53ba12a629a54225b45a9a682c4b", "type": "electric_scooter", "is_disabled": 0, "lat": 38.8932455, "rental_uris": {"ios": "https://dc.lft.to/lastmile_qr_scan", "android": "https://dc.lft.to/lastmile_qr_scan"}, "is_reserved": 0, "fusion_lon": 0.0, "fusion_lat": 0.0, "lon": -77.04878833333333, "name": "b13d53ba12a629a54225b45a9a682c4b"}, {"bike_id": "231b9dff81d0f5c2559cc2dd75d4469e", "type": "electric_scooter", "is_disabled": 0, "lat": 38.9047265, "rental_uris": {"ios": "https://dc.lft.to/lastmile_qr_scan", "android": "https://dc.lft.to/lastmile_qr_scan"}, "is_reserved": 0, "fusion_lon": 0.0, "fusion_lat": 0.0, "lon": -77.035589, "name": "231b9dff81d0f5c2559cc2dd75d4469e"}, {"bike_id": "a2876da662e130f3197a7f9a3ce68b3d", "type": "electric_bike", "is_disabled": 0, "lat": 38.799824666666666, "rental_uris": {"ios": "https://dc.lft.to/lastmile_qr_scan", "android": "https://dc.lft.to/lastmile_qr_scan"}, "is_reserved": 0, "fusion_lon": 0.0, "fusion_lat": 0.0, "lon": -77.12982133333334, "name": "a2876da662e130f3197a7f9a3ce68b3d"}, {"bike_id": "29a68f8e781fa71fd5fefdaa0ec388a6", "type": "electric_scooter", "is_disabled": 0, "lat": 38.92238033333334, "rental_uris": {"ios": "https://dc.lft.to/lastmile_qr_scan", "android": "https://dc.lft.to/lastmile_qr_scan"}, "is_reserved": 0, "fusion_lon": 0.0, "fusion_lat": 0.0, "lon": -77.02950566666667, "name": "29a68f8e781fa71fd5fefdaa0ec388a6"}, {"bike_id": "986c00e52fbd9e8d2dca4f528e3ef788", "type": "electric_scooter", "is_disabled": 0, "lat": 38.915746166666665, "rental_uris": {"ios": "https://dc.lft.to/lastmile_qr_scan", "android": "https://dc.lft.to/lastmile_qr_scan"}, "is_reserved": 0, "fusion_lon": 0.0, "fusion_lat": 0.0, "lon": -77.034761, "name": "986c00e52fbd9e8d2dca4f528e3ef788"}, {"bike_id": "16c9e26352af6c03559a32875d2fa62a", "type": "electric_scooter", "is_disabled": 0, "lat": 38.901245, "rental_uris": {"ios": "https://dc.lft.to/lastmile_qr_scan", "android": "https://dc.lft.to/lastmile_qr_scan"}, "is_reserved": 0, "fusion_lon": 0.0, "fusion_lat": 0.0, "lon": -77.04993816666666, "name": "16c9e26352af6c03559a32875d2fa62a"}, {"bike_id": "38d412b97a344f1f2da6fe9415a6e5a2", "type": "electric_scooter", "is_disabled": 0, "lat": 38.9116235, "rental_uris": {"ios": "https://dc.lft.to/lastmile_qr_scan", "android": "https://dc.lft.to/lastmile_qr_scan"}, "is_reserved": 0, "fusion_lon": 0.0, "fusion_lat": 0.0, "lon": -77.01624783333334, "name": "38d412b97a344f1f2da6fe9415a6e5a2"}, {"bike_id": "ecd9071c6ebb2c37feec2b7372aa8e86", "type": "electric_scooter", "is_disabled": 0, "lat": 38.90733316666667, "rental_uris": {"ios": "https://dc.lft.to/lastmile_qr_scan", "android": "https://dc.lft.to/lastmile_qr_scan"}, "is_reserved": 0, "fusion_lon": 0.0, "fusion_lat": 0.0, "lon": -77.034451, "name": "ecd9071c6ebb2c37feec2b7372aa8e86"}, {"bike_id": "c08d435602e894dd77ef50263e54ad7c", "type": "electric_scooter", "is_disabled": 0, "lat": 38.8624445, "rental_uris": {"ios": "https://dc.lft.to/lastmile_qr_scan", "android": "https://dc.lft.to/lastmile_qr_scan"}, "is_reserved": 0, "fusion_lon": 0.0, "fusion_lat": 0.0, "lon": -76.99502666666666, "name": "c08d435602e894dd77ef50263e54ad7c"}, {"bike_id": "bcca55ef72a2a047057be44a11bdfbbd", "type": "electric_bike", "is_disabled": 0, "lat": 38.85425683333333, "rental_uris": {"ios": "https://dc.lft.to/lastmile_qr_scan", "android": "https://dc.lft.to/lastmile_qr_scan"}, "is_reserved": 0, "fusion_lon": 0.0, "fusion_lat": 0.0, "lon": -77.1208385, "name": "bcca55ef72a2a047057be44a11bdfbbd"}, {"bike_id": "bd378dcf00b4d805ed21fcb7b925986f", "type": "electric_scooter", "is_disabled": 0, "lat": 38.880726833333334, "rental_uris": {"ios": "https://dc.lft.to/lastmile_qr_scan", "android": "https://dc.lft.to/lastmile_qr_scan"}, "is_reserved": 0, "fusion_lon": 0.0, "fusion_lat": 0.0, "lon": -76.99506683333334, "name": "bd378dcf00b4d805ed21fcb7b925986f"}, {"bike_id": "409c5b2cfde76691a17b25090e99e607", "type": "electric_scooter", "is_disabled": 0, "lat": 38.92446266666666, "rental_uris": {"ios": "https://dc.lft.to/lastmile_qr_scan", "android": "https://dc.lft.to/lastmile_qr_scan"}, "is_reserved": 0, "fusion_lon": 0.0, "fusion_lat": 0.0, "lon": -77.02408633333333, "name": "409c5b2cfde76691a17b25090e99e607"}, {"bike_id": "e97f67cba215fb8fdb2cebc48c14ad9f", "type": "electric_scooter", "is_disabled": 0, "lat": 38.9332955, "rental_uris": {"ios": "https://dc.lft.to/lastmile_qr_scan", "android": "https://dc.lft.to/lastmile_qr_scan"}, "is_reserved": 0, "fusion_lon": 0.0, "fusion_lat": 0.0, "lon": -77.02921016666667, "name": "e97f67cba215fb8fdb2cebc48c14ad9f"}, {"bike_id": "16403e8dd14749d8b3c2240650c518aa", "type": "electric_scooter", "is_disabled": 0, "lat": 38.874545833333336, "rental_uris": {"ios": "https://dc.lft.to/lastmile_qr_scan", "android": "https://dc.lft.to/lastmile_qr_scan"}, "is_reserved": 0, "fusion_lon": 0.0, "fusion_lat": 0.0, "lon": -77.00307433333333, "name": "16403e8dd14749d8b3c2240650c518aa"}, {"bike_id": "46cbf73bb202669ed8f8eaf715cbc2f6", "type": "electric_scooter", "is_disabled": 0, "lat": 38.93460733333333, "rental_uris": {"ios": "https://dc.lft.to/lastmile_qr_scan", "android": "https://dc.lft.to/lastmile_qr_scan"}, "is_reserved": 0, "fusion_lon": 0.0, "fusion_lat": 0.0, "lon": -77.027968, "name": "46cbf73bb202669ed8f8eaf715cbc2f6"}, {"bike_id": "43e2801dc08288c58e71b9c8e4b70224", "type": "electric_scooter", "is_disabled": 0, "lat": 38.94840266666667, "rental_uris": {"ios": "https://dc.lft.to/lastmile_qr_scan", "android": "https://dc.lft.to/lastmile_qr_scan"}, "is_reserved": 0, "fusion_lon": 0.0, "fusion_lat": 0.0, "lon": -77.02545266666667, "name": "43e2801dc08288c58e71b9c8e4b70224"}, {"bike_id": "36c96d1241f1707f036ad1633aee906d", "type": "electric_scooter", "is_disabled": 0, "lat": 38.903129666666665, "rental_uris": {"ios": "https://dc.lft.to/lastmile_qr_scan", "android": "https://dc.lft.to/lastmile_qr_scan"}, "is_reserved": 0, "fusion_lon": 0.0, "fusion_lat": 0.0, "lon": -76.98363116666667, "name": "36c96d1241f1707f036ad1633aee906d"}, {"bike_id": "6ce0dc8202bbd2906eadd515eb834274", "type": "electric_scooter", "is_disabled": 0, "lat": 38.93411316666667, "rental_uris": {"ios": "https://dc.lft.to/lastmile_qr_scan", "android": "https://dc.lft.to/lastmile_qr_scan"}, "is_reserved": 0, "fusion_lon": 0.0, "fusion_lat": 0.0, "lon": -77.03916916666667, "name": "6ce0dc8202bbd2906eadd515eb834274"}, {"bike_id": "876bc24027fd7adb6d756283ba5b4b86", "type": "electric_scooter", "is_disabled": 0, "lat": 38.854413666666666, "rental_uris": {"ios": "https://dc.lft.to/lastmile_qr_scan", "android": "https://dc.lft.to/lastmile_qr_scan"}, "is_reserved": 0, "fusion_lon": 0.0, "fusion_lat": 0.0, "lon": -76.98606883333333, "name": "876bc24027fd7adb6d756283ba5b4b86"}, {"bike_id": "ce1481ec3fa7e77fe9d6a03e26c45f49", "type": "electric_scooter", "is_disabled": 0, "lat": 38.90724266666667, "rental_uris": {"ios": "https://dc.lft.to/lastmile_qr_scan", "android": "https://dc.lft.to/lastmile_qr_scan"}, "is_reserved": 0, "fusion_lon": 0.0, "fusion_lat": 0.0, "lon": -77.044744, "name": "ce1481ec3fa7e77fe9d6a03e26c45f49"}, {"bike_id": "0c1c942bcac488c027d54b480c354f07", "type": "electric_scooter", "is_disabled": 0, "lat": 38.942939333333335, "rental_uris": {"ios": "https://dc.lft.to/lastmile_qr_scan", "android": "https://dc.lft.to/lastmile_qr_scan"}, "is_reserved": 0, "fusion_lon": 0.0, "fusion_lat": 0.0, "lon": -77.02174316666667, "name": "0c1c942bcac488c027d54b480c354f07"}, {"bike_id": "987a75e94811080ab3b6cae0996a9ac1", "type": "electric_scooter", "is_disabled": 0, "lat": 38.91814733333333, "rental_uris": {"ios": "https://dc.lft.to/lastmile_qr_scan", "android": "https://dc.lft.to/lastmile_qr_scan"}, "is_reserved": 0, "fusion_lon": 0.0, "fusion_lat": 0.0, "lon": -77.03663933333333, "name": "987a75e94811080ab3b6cae0996a9ac1"}, {"bike_id": "9f540f22a7f99f2b46803eb0bd8cda7f", "type": "electric_scooter", "is_disabled": 0, "lat": 38.93531816666667, "rental_uris": {"ios": "https://dc.lft.to/lastmile_qr_scan", "android": "https://dc.lft.to/lastmile_qr_scan"}, "is_reserved": 0, "fusion_lon": 0.0, "fusion_lat": 0.0, "lon": -77.02349966666667, "name": "9f540f22a7f99f2b46803eb0bd8cda7f"}, {"bike_id": "1d6fa9b80e2590e9a47a0e7f1fe14aae", "type": "electric_scooter", "is_disabled": 0, "lat": 38.908040666666665, "rental_uris": {"ios": "https://dc.lft.to/lastmile_qr_scan", "android": "https://dc.lft.to/lastmile_qr_scan"}, "is_reserved": 0, "fusion_lon": 0.0, "fusion_lat": 0.0, "lon": -77.04332566666666, "name": "1d6fa9b80e2590e9a47a0e7f1fe14aae"}, {"bike_id": "b38ddf1eaefb59cb22804d279a87a6fb", "type": "electric_scooter", "is_disabled": 0, "lat": 38.9073605, "rental_uris": {"ios": "https://dc.lft.to/lastmile_qr_scan", "android": "https://dc.lft.to/lastmile_qr_scan"}, "is_reserved": 0, "fusion_lon": 0.0, "fusion_lat": 0.0, "lon": -77.0345215, "name": "b38ddf1eaefb59cb22804d279a87a6fb"}, {"bike_id": "11636af3f1dad88b876b3dc6d2af19f9", "type": "electric_scooter", "is_disabled": 0, "lat": 38.9126485, "rental_uris": {"ios": "https://dc.lft.to/lastmile_qr_scan", "android": "https://dc.lft.to/lastmile_qr_scan"}, "is_reserved": 0, "fusion_lon": 0.0, "fusion_lat": 0.0, "lon": -77.00494616666667, "name": "11636af3f1dad88b876b3dc6d2af19f9"}, {"bike_id": "5fea5f479db12884543663239a29685f", "type": "electric_scooter", "is_disabled": 0, "lat": 38.934980333333336, "rental_uris": {"ios": "https://dc.lft.to/lastmile_qr_scan", "android": "https://dc.lft.to/lastmile_qr_scan"}, "is_reserved": 0, "fusion_lon": 0.0, "fusion_lat": 0.0, "lon": -77.0739795, "name": "5fea5f479db12884543663239a29685f"}, {"bike_id": "ef25d257b1fa24f338a6369c3f8d49c6", "type": "electric_scooter", "is_disabled": 0, "lat": 38.930869, "rental_uris": {"ios": "https://dc.lft.to/lastmile_qr_scan", "android": "https://dc.lft.to/lastmile_qr_scan"}, "is_reserved": 0, "fusion_lon": 0.0, "fusion_lat": 0.0, "lon": -77.02566616666667, "name": "ef25d257b1fa24f338a6369c3f8d49c6"}, {"bike_id": "f4dff2e7a4d07ac17cec40d2cd05e09f", "type": "electric_scooter", "is_disabled": 0, "lat": 38.866824, "rental_uris": {"ios": "https://dc.lft.to/lastmile_qr_scan", "android": "https://dc.lft.to/lastmile_qr_scan"}, "is_reserved": 0, "fusion_lon": 0.0, "fusion_lat": 0.0, "lon": -76.98574216666667, "name": "f4dff2e7a4d07ac17cec40d2cd05e09f"}, {"bike_id": "ee9d9822c879d449f6240ba1b8f0324a", "type": "electric_scooter", "is_disabled": 0, "lat": 38.876533333333334, "rental_uris": {"ios": "https://dc.lft.to/lastmile_qr_scan", "android": "https://dc.lft.to/lastmile_qr_scan"}, "is_reserved": 0, "fusion_lon": 0.0, "fusion_lat": 0.0, "lon": -77.0030895, "name": "ee9d9822c879d449f6240ba1b8f0324a"}, {"bike_id": "84316ed54a82268d941ec2f59ba906fd", "type": "electric_scooter", "is_disabled": 0, "lat": 38.907431833333334, "rental_uris": {"ios": "https://dc.lft.to/lastmile_qr_scan", "android": "https://dc.lft.to/lastmile_qr_scan"}, "is_reserved": 0, "fusion_lon": 0.0, "fusion_lat": 0.0, "lon": -77.013148, "name": "84316ed54a82268d941ec2f59ba906fd"}, {"bike_id": "9ae4d4fd3e4d4e3e8489f7aa0031d31f", "type": "electric_scooter", "is_disabled": 0, "lat": 38.9184525, "rental_uris": {"ios": "https://dc.lft.to/lastmile_qr_scan", "android": "https://dc.lft.to/lastmile_qr_scan"}, "is_reserved": 0, "fusion_lon": 0.0, "fusion_lat": 0.0, "lon": -77.04835983333334, "name": "9ae4d4fd3e4d4e3e8489f7aa0031d31f"}, {"bike_id": "b9ce8687b5b68365e77316d271d16ba5", "type": "electric_scooter", "is_disabled": 0, "lat": 38.866836, "rental_uris": {"ios": "https://dc.lft.to/lastmile_qr_scan", "android": "https://dc.lft.to/lastmile_qr_scan"}, "is_reserved": 0, "fusion_lon": 0.0, "fusion_lat": 0.0, "lon": -76.9857475, "name": "b9ce8687b5b68365e77316d271d16ba5"}, {"bike_id": "e8c61057b1117fc43af2569133b164a0", "type": "electric_scooter", "is_disabled": 0, "lat": 38.9342645, "rental_uris": {"ios": "https://dc.lft.to/lastmile_qr_scan", "android": "https://dc.lft.to/lastmile_qr_scan"}, "is_reserved": 0, "fusion_lon": 0.0, "fusion_lat": 0.0, "lon": -77.040048, "name": "e8c61057b1117fc43af2569133b164a0"}, {"bike_id": "e13347614a8b5e536963963cb42f47f4", "type": "electric_scooter", "is_disabled": 0, "lat": 38.92973166666667, "rental_uris": {"ios": "https://dc.lft.to/lastmile_qr_scan", "android": "https://dc.lft.to/lastmile_qr_scan"}, "is_reserved": 0, "fusion_lon": 0.0, "fusion_lat": 0.0, "lon": -77.02825833333333, "name": "e13347614a8b5e536963963cb42f47f4"}, {"bike_id": "75fcc09f56c3e3c4aecf000d457d7edd", "type": "electric_bike", "is_disabled": 0, "lat": 38.803925666666665, "rental_uris": {"ios": "https://dc.lft.to/lastmile_qr_scan", "android": "https://dc.lft.to/lastmile_qr_scan"}, "is_reserved": 0, "fusion_lon": 0.0, "fusion_lat": 0.0, "lon": -77.05559816666667, "name": "75fcc09f56c3e3c4aecf000d457d7edd"}, {"bike_id": "886a4e9d19af043eee9bd3626b8b9bf9", "type": "electric_scooter", "is_disabled": 0, "lat": 38.922217333333336, "rental_uris": {"ios": "https://dc.lft.to/lastmile_qr_scan", "android": "https://dc.lft.to/lastmile_qr_scan"}, "is_reserved": 0, "fusion_lon": 0.0, "fusion_lat": 0.0, "lon": -77.03465366666667, "name": "886a4e9d19af043eee9bd3626b8b9bf9"}, {"bike_id": "0393171e476e3838da0b7dc8e25ad3cf", "type": "electric_scooter", "is_disabled": 0, "lat": 38.89518183333333, "rental_uris": {"ios": "https://dc.lft.to/lastmile_qr_scan", "android": "https://dc.lft.to/lastmile_qr_scan"}, "is_reserved": 0, "fusion_lon": 0.0, "fusion_lat": 0.0, "lon": -77.01098716666667, "name": "0393171e476e3838da0b7dc8e25ad3cf"}, {"bike_id": "b9f46976bea922651ed943d9cc3a4891", "type": "electric_scooter", "is_disabled": 0, "lat": 38.88009616666667, "rental_uris": {"ios": "https://dc.lft.to/lastmile_qr_scan", "android": "https://dc.lft.to/lastmile_qr_scan"}, "is_reserved": 0, "fusion_lon": 0.0, "fusion_lat": 0.0, "lon": -77.02486116666667, "name": "b9f46976bea922651ed943d9cc3a4891"}, {"bike_id": "665310f80c032b8d060a08fdd0182b44", "type": "electric_scooter", "is_disabled": 0, "lat": 38.887483, "rental_uris": {"ios": "https://dc.lft.to/lastmile_qr_scan", "android": "https://dc.lft.to/lastmile_qr_scan"}, "is_reserved": 0, "fusion_lon": 0.0, "fusion_lat": 0.0, "lon": -77.027269, "name": "665310f80c032b8d060a08fdd0182b44"}, {"bike_id": "5a44c62d96342922fe0f52b3d94c6f30", "type": "electric_scooter", "is_disabled": 0, "lat": 38.932499666666665, "rental_uris": {"ios": "https://dc.lft.to/lastmile_qr_scan", "android": "https://dc.lft.to/lastmile_qr_scan"}, "is_reserved": 0, "fusion_lon": 0.0, "fusion_lat": 0.0, "lon": -77.03275683333334, "name": "5a44c62d96342922fe0f52b3d94c6f30"}, {"bike_id": "d707b0aed624991e8afbaf900459dd61", "type": "electric_scooter", "is_disabled": 0, "lat": 38.899970833333334, "rental_uris": {"ios": "https://dc.lft.to/lastmile_qr_scan", "android": "https://dc.lft.to/lastmile_qr_scan"}, "is_reserved": 0, "fusion_lon": 0.0, "fusion_lat": 0.0, "lon": -76.99403216666667, "name": "d707b0aed624991e8afbaf900459dd61"}, {"bike_id": "fa3a3e2901d9fbeaf6d920e8a8576c68", "type": "electric_scooter", "is_disabled": 0, "lat": 38.9032275, "rental_uris": {"ios": "https://dc.lft.to/lastmile_qr_scan", "android": "https://dc.lft.to/lastmile_qr_scan"}, "is_reserved": 0, "fusion_lon": 0.0, "fusion_lat": 0.0, "lon": -76.97545616666666, "name": "fa3a3e2901d9fbeaf6d920e8a8576c68"}, {"bike_id": "bf782d4df8a39f2a69b9b20ee1248820", "type": "electric_scooter", "is_disabled": 0, "lat": 38.914809, "rental_uris": {"ios": "https://dc.lft.to/lastmile_qr_scan", "android": "https://dc.lft.to/lastmile_qr_scan"}, "is_reserved": 0, "fusion_lon": 0.0, "fusion_lat": 0.0, "lon": -77.02505816666667, "name": "bf782d4df8a39f2a69b9b20ee1248820"}, {"bike_id": "877b3855a42d163ed35c67aa21ee3834", "type": "electric_scooter", "is_disabled": 0, "lat": 38.94180816666667, "rental_uris": {"ios": "https://dc.lft.to/lastmile_qr_scan", "android": "https://dc.lft.to/lastmile_qr_scan"}, "is_reserved": 0, "fusion_lon": 0.0, "fusion_lat": 0.0, "lon": -77.024845, "name": "877b3855a42d163ed35c67aa21ee3834"}, {"bike_id": "47fdcb3c03227af30cf6f7fd8a451ead", "type": "electric_scooter", "is_disabled": 0, "lat": 38.8996295, "rental_uris": {"ios": "https://dc.lft.to/lastmile_qr_scan", "android": "https://dc.lft.to/lastmile_qr_scan"}, "is_reserved": 0, "fusion_lon": 0.0, "fusion_lat": 0.0, "lon": -77.04763166666666, "name": "47fdcb3c03227af30cf6f7fd8a451ead"}, {"bike_id": "2d7157a91d04c4212e2b6071247459fe", "type": "electric_scooter", "is_disabled": 0, "lat": 38.93895933333334, "rental_uris": {"ios": "https://dc.lft.to/lastmile_qr_scan", "android": "https://dc.lft.to/lastmile_qr_scan"}, "is_reserved": 0, "fusion_lon": 0.0, "fusion_lat": 0.0, "lon": -77.03327266666666, "name": "2d7157a91d04c4212e2b6071247459fe"}, {"bike_id": "c26af1b49521c6047e4764df0d2ebb41", "type": "electric_bike", "is_disabled": 0, "lat": 38.808954166666666, "rental_uris": {"ios": "https://dc.lft.to/lastmile_qr_scan", "android": "https://dc.lft.to/lastmile_qr_scan"}, "is_reserved": 0, "fusion_lon": 0.0, "fusion_lat": 0.0, "lon": -77.086427, "name": "c26af1b49521c6047e4764df0d2ebb41"}, {"bike_id": "1691d320ee4fef883c1ace9700b0cd35", "type": "electric_scooter", "is_disabled": 0, "lat": 38.87070716666667, "rental_uris": {"ios": "https://dc.lft.to/lastmile_qr_scan", "android": "https://dc.lft.to/lastmile_qr_scan"}, "is_reserved": 0, "fusion_lon": 0.0, "fusion_lat": 0.0, "lon": -76.9812995, "name": "1691d320ee4fef883c1ace9700b0cd35"}, {"bike_id": "8179cf143f3cba44290c791414e2ba6a", "type": "electric_scooter", "is_disabled": 0, "lat": 38.921259666666664, "rental_uris": {"ios": "https://dc.lft.to/lastmile_qr_scan", "android": "https://dc.lft.to/lastmile_qr_scan"}, "is_reserved": 0, "fusion_lon": 0.0, "fusion_lat": 0.0, "lon": -77.0092185, "name": "8179cf143f3cba44290c791414e2ba6a"}, {"bike_id": "de5bdbbb93386b2f206327193cb211e3", "type": "electric_scooter", "is_disabled": 0, "lat": 38.9002755, "rental_uris": {"ios": "https://dc.lft.to/lastmile_qr_scan", "android": "https://dc.lft.to/lastmile_qr_scan"}, "is_reserved": 0, "fusion_lon": 0.0, "fusion_lat": 0.0, "lon": -76.99863716666667, "name": "de5bdbbb93386b2f206327193cb211e3"}, {"bike_id": "22311d7306a1044ba2027490f0c1bf9e", "type": "electric_bike", "is_disabled": 0, "lat": 38.86487616666667, "rental_uris": {"ios": "https://dc.lft.to/lastmile_qr_scan", "android": "https://dc.lft.to/lastmile_qr_scan"}, "is_reserved": 0, "fusion_lon": 0.0, "fusion_lat": 0.0, "lon": -76.97753066666667, "name": "22311d7306a1044ba2027490f0c1bf9e"}, {"bike_id": "b24fb8777b60e64331d3e52f4b6e184e", "type": "electric_scooter", "is_disabled": 0, "lat": 38.85814033333333, "rental_uris": {"ios": "https://dc.lft.to/lastmile_qr_scan", "android": "https://dc.lft.to/lastmile_qr_scan"}, "is_reserved": 0, "fusion_lon": 0.0, "fusion_lat": 0.0, "lon": -76.989275, "name": "b24fb8777b60e64331d3e52f4b6e184e"}, {"bike_id": "beb524c5bc49090fa290106347b55990", "type": "electric_scooter", "is_disabled": 0, "lat": 38.92620616666667, "rental_uris": {"ios": "https://dc.lft.to/lastmile_qr_scan", "android": "https://dc.lft.to/lastmile_qr_scan"}, "is_reserved": 0, "fusion_lon": 0.0, "fusion_lat": 0.0, "lon": -77.041969, "name": "beb524c5bc49090fa290106347b55990"}, {"bike_id": "5903cc80086e6cecaa76610a219b4c0e", "type": "electric_scooter", "is_disabled": 0, "lat": 38.911512333333334, "rental_uris": {"ios": "https://dc.lft.to/lastmile_qr_scan", "android": "https://dc.lft.to/lastmile_qr_scan"}, "is_reserved": 0, "fusion_lon": 0.0, "fusion_lat": 0.0, "lon": -77.04428216666666, "name": "5903cc80086e6cecaa76610a219b4c0e"}, {"bike_id": "41cbdc17bff18d49dd545873206da768", "type": "electric_scooter", "is_disabled": 0, "lat": 38.932154833333335, "rental_uris": {"ios": "https://dc.lft.to/lastmile_qr_scan", "android": "https://dc.lft.to/lastmile_qr_scan"}, "is_reserved": 0, "fusion_lon": 0.0, "fusion_lat": 0.0, "lon": -77.035156, "name": "41cbdc17bff18d49dd545873206da768"}, {"bike_id": "895b7bf076843ab260e208e6d6ccdbb4", "type": "electric_scooter", "is_disabled": 0, "lat": 38.923202, "rental_uris": {"ios": "https://dc.lft.to/lastmile_qr_scan", "android": "https://dc.lft.to/lastmile_qr_scan"}, "is_reserved": 0, "fusion_lon": 0.0, "fusion_lat": 0.0, "lon": -77.02145016666667, "name": "895b7bf076843ab260e208e6d6ccdbb4"}, {"bike_id": "0ad40c9e7b675ff3942dc7e04c231642", "type": "electric_scooter", "is_disabled": 0, "lat": 38.90580683333334, "rental_uris": {"ios": "https://dc.lft.to/lastmile_qr_scan", "android": "https://dc.lft.to/lastmile_qr_scan"}, "is_reserved": 0, "fusion_lon": 0.0, "fusion_lat": 0.0, "lon": -77.00477083333334, "name": "0ad40c9e7b675ff3942dc7e04c231642"}, {"bike_id": "b3e65dd43fdb9acf8771b442427a804f", "type": "electric_scooter", "is_disabled": 0, "lat": 38.900792, "rental_uris": {"ios": "https://dc.lft.to/lastmile_qr_scan", "android": "https://dc.lft.to/lastmile_qr_scan"}, "is_reserved": 0, "fusion_lon": 0.0, "fusion_lat": 0.0, "lon": -77.04692366666667, "name": "b3e65dd43fdb9acf8771b442427a804f"}, {"bike_id": "2c02a88101956b5cb1be7da7336ba1ba", "type": "electric_scooter", "is_disabled": 0, "lat": 38.9500025, "rental_uris": {"ios": "https://dc.lft.to/lastmile_qr_scan", "android": "https://dc.lft.to/lastmile_qr_scan"}, "is_reserved": 0, "fusion_lon": 0.0, "fusion_lat": 0.0, "lon": -77.00875133333334, "name": "2c02a88101956b5cb1be7da7336ba1ba"}, {"bike_id": "6f2b5cd0d7f90b8e23d3163f05f67be0", "type": "electric_bike", "is_disabled": 0, "lat": 38.84526316666667, "rental_uris": {"ios": "https://dc.lft.to/lastmile_qr_scan", "android": "https://dc.lft.to/lastmile_qr_scan"}, "is_reserved": 0, "fusion_lon": 0.0, "fusion_lat": 0.0, "lon": -76.973972, "name": "6f2b5cd0d7f90b8e23d3163f05f67be0"}, {"bike_id": "03feab8a1338261cb4815a9084217aad", "type": "electric_scooter", "is_disabled": 0, "lat": 38.92362633333333, "rental_uris": {"ios": "https://dc.lft.to/lastmile_qr_scan", "android": "https://dc.lft.to/lastmile_qr_scan"}, "is_reserved": 0, "fusion_lon": 0.0, "fusion_lat": 0.0, "lon": -77.05128066666667, "name": "03feab8a1338261cb4815a9084217aad"}, {"bike_id": "cb9fdedef0e5a22d1dd5b24ba2fd5b3d", "type": "electric_scooter", "is_disabled": 0, "lat": 38.9324585, "rental_uris": {"ios": "https://dc.lft.to/lastmile_qr_scan", "android": "https://dc.lft.to/lastmile_qr_scan"}, "is_reserved": 0, "fusion_lon": 0.0, "fusion_lat": 0.0, "lon": -77.03636233333333, "name": "cb9fdedef0e5a22d1dd5b24ba2fd5b3d"}, {"bike_id": "f11f7e1b368717b50cdbf90a78caac14", "type": "electric_scooter", "is_disabled": 0, "lat": 38.88764466666667, "rental_uris": {"ios": "https://dc.lft.to/lastmile_qr_scan", "android": "https://dc.lft.to/lastmile_qr_scan"}, "is_reserved": 0, "fusion_lon": 0.0, "fusion_lat": 0.0, "lon": -76.95598583333333, "name": "f11f7e1b368717b50cdbf90a78caac14"}, {"bike_id": "b98933d0dc1e41abb39c0b0e05f8b054", "type": "electric_scooter", "is_disabled": 0, "lat": 38.912768166666666, "rental_uris": {"ios": "https://dc.lft.to/lastmile_qr_scan", "android": "https://dc.lft.to/lastmile_qr_scan"}, "is_reserved": 0, "fusion_lon": 0.0, "fusion_lat": 0.0, "lon": -77.02712783333334, "name": "b98933d0dc1e41abb39c0b0e05f8b054"}, {"bike_id": "d84723b2ef47186664a1fc9d89859d6f", "type": "electric_scooter", "is_disabled": 0, "lat": 38.935434666666666, "rental_uris": {"ios": "https://dc.lft.to/lastmile_qr_scan", "android": "https://dc.lft.to/lastmile_qr_scan"}, "is_reserved": 0, "fusion_lon": 0.0, "fusion_lat": 0.0, "lon": -77.05857633333333, "name": "d84723b2ef47186664a1fc9d89859d6f"}, {"bike_id": "dc3d2a45d7a6e14fe0a761615d6d971f", "type": "electric_scooter", "is_disabled": 0, "lat": 38.923164166666666, "rental_uris": {"ios": "https://dc.lft.to/lastmile_qr_scan", "android": "https://dc.lft.to/lastmile_qr_scan"}, "is_reserved": 0, "fusion_lon": 0.0, "fusion_lat": 0.0, "lon": -77.027982, "name": "dc3d2a45d7a6e14fe0a761615d6d971f"}, {"bike_id": "fe5e8af1c8d707b33e2f4a54fba91423", "type": "electric_scooter", "is_disabled": 0, "lat": 38.924750333333336, "rental_uris": {"ios": "https://dc.lft.to/lastmile_qr_scan", "android": "https://dc.lft.to/lastmile_qr_scan"}, "is_reserved": 0, "fusion_lon": 0.0, "fusion_lat": 0.0, "lon": -77.02838816666667, "name": "fe5e8af1c8d707b33e2f4a54fba91423"}, {"bike_id": "bb56af92b84f4f1ba4fdc29dc30ba329", "type": "electric_scooter", "is_disabled": 0, "lat": 38.9259425, "rental_uris": {"ios": "https://dc.lft.to/lastmile_qr_scan", "android": "https://dc.lft.to/lastmile_qr_scan"}, "is_reserved": 0, "fusion_lon": 0.0, "fusion_lat": 0.0, "lon": -77.04406983333334, "name": "bb56af92b84f4f1ba4fdc29dc30ba329"}, {"bike_id": "b52e4f4a0adcf51243f950373e6f2d49", "type": "electric_scooter", "is_disabled": 0, "lat": 38.9005965, "rental_uris": {"ios": "https://dc.lft.to/lastmile_qr_scan", "android": "https://dc.lft.to/lastmile_qr_scan"}, "is_reserved": 0, "fusion_lon": 0.0, "fusion_lat": 0.0, "lon": -77.04669816666667, "name": "b52e4f4a0adcf51243f950373e6f2d49"}, {"bike_id": "4d3134b6e3ac6ff85dcac6a9affd042f", "type": "electric_scooter", "is_disabled": 0, "lat": 38.882997333333336, "rental_uris": {"ios": "https://dc.lft.to/lastmile_qr_scan", "android": "https://dc.lft.to/lastmile_qr_scan"}, "is_reserved": 0, "fusion_lon": 0.0, "fusion_lat": 0.0, "lon": -76.94854016666666, "name": "4d3134b6e3ac6ff85dcac6a9affd042f"}, {"bike_id": "16288cae10b5b21a3dbd4c82f2f1cf96", "type": "electric_bike", "is_disabled": 0, "lat": 38.96958083333333, "rental_uris": {"ios": "https://dc.lft.to/lastmile_qr_scan", "android": "https://dc.lft.to/lastmile_qr_scan"}, "is_reserved": 0, "fusion_lon": 0.0, "fusion_lat": 0.0, "lon": -76.95749566666667, "name": "16288cae10b5b21a3dbd4c82f2f1cf96"}, {"bike_id": "314366e68b3ee40a1e5b9a0fb5585183", "type": "electric_scooter", "is_disabled": 0, "lat": 38.8646885, "rental_uris": {"ios": "https://dc.lft.to/lastmile_qr_scan", "android": "https://dc.lft.to/lastmile_qr_scan"}, "is_reserved": 0, "fusion_lon": 0.0, "fusion_lat": 0.0, "lon": -76.97742233333334, "name": "314366e68b3ee40a1e5b9a0fb5585183"}, {"bike_id": "7d7f9d90d1333644a1aa74279f38e65d", "type": "electric_scooter", "is_disabled": 0, "lat": 38.91577133333333, "rental_uris": {"ios": "https://dc.lft.to/lastmile_qr_scan", "android": "https://dc.lft.to/lastmile_qr_scan"}, "is_reserved": 0, "fusion_lon": 0.0, "fusion_lat": 0.0, "lon": -77.04477883333334, "name": "7d7f9d90d1333644a1aa74279f38e65d"}, {"bike_id": "473d2326df5a40e485752987c7ea344d", "type": "electric_scooter", "is_disabled": 0, "lat": 38.91279983333333, "rental_uris": {"ios": "https://dc.lft.to/lastmile_qr_scan", "android": "https://dc.lft.to/lastmile_qr_scan"}, "is_reserved": 0, "fusion_lon": 0.0, "fusion_lat": 0.0, "lon": -77.02715616666667, "name": "473d2326df5a40e485752987c7ea344d"}, {"bike_id": "ee9be1a63d9b8705249884ccbf6d2d4b", "type": "electric_scooter", "is_disabled": 0, "lat": 38.9026485, "rental_uris": {"ios": "https://dc.lft.to/lastmile_qr_scan", "android": "https://dc.lft.to/lastmile_qr_scan"}, "is_reserved": 0, "fusion_lon": 0.0, "fusion_lat": 0.0, "lon": -77.019058, "name": "ee9be1a63d9b8705249884ccbf6d2d4b"}, {"bike_id": "aa95baf5ad0ac76bb28da8965be842a1", "type": "electric_scooter", "is_disabled": 0, "lat": 38.9000195, "rental_uris": {"ios": "https://dc.lft.to/lastmile_qr_scan", "android": "https://dc.lft.to/lastmile_qr_scan"}, "is_reserved": 0, "fusion_lon": 0.0, "fusion_lat": 0.0, "lon": -77.0466765, "name": "aa95baf5ad0ac76bb28da8965be842a1"}, {"bike_id": "fc9c4b74c6b59ceb30738c5081e7031d", "type": "electric_scooter", "is_disabled": 0, "lat": 38.90237966666667, "rental_uris": {"ios": "https://dc.lft.to/lastmile_qr_scan", "android": "https://dc.lft.to/lastmile_qr_scan"}, "is_reserved": 0, "fusion_lon": 0.0, "fusion_lat": 0.0, "lon": -77.0019925, "name": "fc9c4b74c6b59ceb30738c5081e7031d"}, {"bike_id": "341e4ee3cef7f80b39bcf5a6dab73166", "type": "electric_scooter", "is_disabled": 0, "lat": 38.93887633333333, "rental_uris": {"ios": "https://dc.lft.to/lastmile_qr_scan", "android": "https://dc.lft.to/lastmile_qr_scan"}, "is_reserved": 0, "fusion_lon": 0.0, "fusion_lat": 0.0, "lon": -77.024957, "name": "341e4ee3cef7f80b39bcf5a6dab73166"}, {"bike_id": "0073c8fda811bd138fcf60b5820455d2", "type": "electric_scooter", "is_disabled": 0, "lat": 38.89215083333333, "rental_uris": {"ios": "https://dc.lft.to/lastmile_qr_scan", "android": "https://dc.lft.to/lastmile_qr_scan"}, "is_reserved": 0, "fusion_lon": 0.0, "fusion_lat": 0.0, "lon": -77.02581933333333, "name": "0073c8fda811bd138fcf60b5820455d2"}, {"bike_id": "7ff826d05424ada0ef8ab2bc47dbac41", "type": "electric_scooter", "is_disabled": 0, "lat": 38.913517, "rental_uris": {"ios": "https://dc.lft.to/lastmile_qr_scan", "android": "https://dc.lft.to/lastmile_qr_scan"}, "is_reserved": 0, "fusion_lon": 0.0, "fusion_lat": 0.0, "lon": -77.04494783333334, "name": "7ff826d05424ada0ef8ab2bc47dbac41"}, {"bike_id": "cb2e658af7109aed1227479f79819a64", "type": "electric_scooter", "is_disabled": 0, "lat": 38.902749666666665, "rental_uris": {"ios": "https://dc.lft.to/lastmile_qr_scan", "android": "https://dc.lft.to/lastmile_qr_scan"}, "is_reserved": 0, "fusion_lon": 0.0, "fusion_lat": 0.0, "lon": -77.038564, "name": "cb2e658af7109aed1227479f79819a64"}, {"bike_id": "7596ba5fb7d5881be78a7753b4a6ead6", "type": "electric_bike", "is_disabled": 0, "lat": 39.062933666666666, "rental_uris": {"ios": "https://dc.lft.to/lastmile_qr_scan", "android": "https://dc.lft.to/lastmile_qr_scan"}, "is_reserved": 0, "fusion_lon": 0.0, "fusion_lat": 0.0, "lon": -77.04978816666667, "name": "7596ba5fb7d5881be78a7753b4a6ead6"}, {"bike_id": "11de249ef552dc6536ceb40121e17a24", "type": "electric_scooter", "is_disabled": 0, "lat": 38.901536, "rental_uris": {"ios": "https://dc.lft.to/lastmile_qr_scan", "android": "https://dc.lft.to/lastmile_qr_scan"}, "is_reserved": 0, "fusion_lon": 0.0, "fusion_lat": 0.0, "lon": -76.93060466666667, "name": "11de249ef552dc6536ceb40121e17a24"}, {"bike_id": "9360e520f2dd54839186d70091ebaa86", "type": "electric_scooter", "is_disabled": 0, "lat": 38.87669283333334, "rental_uris": {"ios": "https://dc.lft.to/lastmile_qr_scan", "android": "https://dc.lft.to/lastmile_qr_scan"}, "is_reserved": 0, "fusion_lon": 0.0, "fusion_lat": 0.0, "lon": -77.0058435, "name": "9360e520f2dd54839186d70091ebaa86"}, {"bike_id": "1552cd626addd5dba744003b18108b56", "type": "electric_scooter", "is_disabled": 0, "lat": 38.9058615, "rental_uris": {"ios": "https://dc.lft.to/lastmile_qr_scan", "android": "https://dc.lft.to/lastmile_qr_scan"}, "is_reserved": 0, "fusion_lon": 0.0, "fusion_lat": 0.0, "lon": -77.030293, "name": "1552cd626addd5dba744003b18108b56"}, {"bike_id": "531531999cb3b44cdb28fe2d92400e29", "type": "electric_scooter", "is_disabled": 0, "lat": 38.902754333333334, "rental_uris": {"ios": "https://dc.lft.to/lastmile_qr_scan", "android": "https://dc.lft.to/lastmile_qr_scan"}, "is_reserved": 0, "fusion_lon": 0.0, "fusion_lat": 0.0, "lon": -77.03849583333333, "name": "531531999cb3b44cdb28fe2d92400e29"}, {"bike_id": "f27e84bbdeb8e6bf988db3297c48f05a", "type": "electric_bike", "is_disabled": 0, "lat": 38.94805516666667, "rental_uris": {"ios": "https://dc.lft.to/lastmile_qr_scan", "android": "https://dc.lft.to/lastmile_qr_scan"}, "is_reserved": 0, "fusion_lon": 0.0, "fusion_lat": 0.0, "lon": -76.96108916666667, "name": "f27e84bbdeb8e6bf988db3297c48f05a"}, {"bike_id": "a595edf81c19a38f104af58a54683d2d", "type": "electric_scooter", "is_disabled": 0, "lat": 38.89251616666667, "rental_uris": {"ios": "https://dc.lft.to/lastmile_qr_scan", "android": "https://dc.lft.to/lastmile_qr_scan"}, "is_reserved": 0, "fusion_lon": 0.0, "fusion_lat": 0.0, "lon": -77.04674916666667, "name": "a595edf81c19a38f104af58a54683d2d"}, {"bike_id": "3ad5c00c9eeea6e391b8090606a142b4", "type": "electric_scooter", "is_disabled": 0, "lat": 38.9060165, "rental_uris": {"ios": "https://dc.lft.to/lastmile_qr_scan", "android": "https://dc.lft.to/lastmile_qr_scan"}, "is_reserved": 0, "fusion_lon": 0.0, "fusion_lat": 0.0, "lon": -77.04109833333334, "name": "3ad5c00c9eeea6e391b8090606a142b4"}, {"bike_id": "4ae2448100fbc7dac016d872a2a17c64", "type": "electric_scooter", "is_disabled": 0, "lat": 38.9004355, "rental_uris": {"ios": "https://dc.lft.to/lastmile_qr_scan", "android": "https://dc.lft.to/lastmile_qr_scan"}, "is_reserved": 0, "fusion_lon": 0.0, "fusion_lat": 0.0, "lon": -77.03526666666667, "name": "4ae2448100fbc7dac016d872a2a17c64"}, {"bike_id": "8955dbc59482ce5ee0170daab9767d9a", "type": "electric_scooter", "is_disabled": 0, "lat": 38.9220015, "rental_uris": {"ios": "https://dc.lft.to/lastmile_qr_scan", "android": "https://dc.lft.to/lastmile_qr_scan"}, "is_reserved": 0, "fusion_lon": 0.0, "fusion_lat": 0.0, "lon": -77.0389965, "name": "8955dbc59482ce5ee0170daab9767d9a"}, {"bike_id": "bee958a71aed43cf4adcae8603fb09ed", "type": "electric_scooter", "is_disabled": 0, "lat": 38.901697, "rental_uris": {"ios": "https://dc.lft.to/lastmile_qr_scan", "android": "https://dc.lft.to/lastmile_qr_scan"}, "is_reserved": 0, "fusion_lon": 0.0, "fusion_lat": 0.0, "lon": -77.02472033333333, "name": "bee958a71aed43cf4adcae8603fb09ed"}, {"bike_id": "dd70701858ba4c438b7fa0e3c6c8d742", "type": "electric_scooter", "is_disabled": 0, "lat": 38.929708, "rental_uris": {"ios": "https://dc.lft.to/lastmile_qr_scan", "android": "https://dc.lft.to/lastmile_qr_scan"}, "is_reserved": 0, "fusion_lon": 0.0, "fusion_lat": 0.0, "lon": -77.01688033333333, "name": "dd70701858ba4c438b7fa0e3c6c8d742"}, {"bike_id": "62f32893f9c6cf131678dac3373c3426", "type": "electric_scooter", "is_disabled": 0, "lat": 38.905702, "rental_uris": {"ios": "https://dc.lft.to/lastmile_qr_scan", "android": "https://dc.lft.to/lastmile_qr_scan"}, "is_reserved": 0, "fusion_lon": 0.0, "fusion_lat": 0.0, "lon": -76.97626166666667, "name": "62f32893f9c6cf131678dac3373c3426"}, {"bike_id": "7b6133620ce19896973ec3510dc6f57e", "type": "electric_scooter", "is_disabled": 0, "lat": 38.92858916666667, "rental_uris": {"ios": "https://dc.lft.to/lastmile_qr_scan", "android": "https://dc.lft.to/lastmile_qr_scan"}, "is_reserved": 0, "fusion_lon": 0.0, "fusion_lat": 0.0, "lon": -77.05439066666666, "name": "7b6133620ce19896973ec3510dc6f57e"}, {"bike_id": "2668cd2c9de4564418e1d187f194369b", "type": "electric_scooter", "is_disabled": 0, "lat": 38.920644, "rental_uris": {"ios": "https://dc.lft.to/lastmile_qr_scan", "android": "https://dc.lft.to/lastmile_qr_scan"}, "is_reserved": 0, "fusion_lon": 0.0, "fusion_lat": 0.0, "lon": -77.032002, "name": "2668cd2c9de4564418e1d187f194369b"}, {"bike_id": "9657f93c7f5d0b66c10bb2dbc5326a2a", "type": "electric_scooter", "is_disabled": 0, "lat": 38.909180666666664, "rental_uris": {"ios": "https://dc.lft.to/lastmile_qr_scan", "android": "https://dc.lft.to/lastmile_qr_scan"}, "is_reserved": 0, "fusion_lon": 0.0, "fusion_lat": 0.0, "lon": -77.04494883333334, "name": "9657f93c7f5d0b66c10bb2dbc5326a2a"}, {"bike_id": "5d361c0d462f1d0a9313a83268b071c1", "type": "electric_bike", "is_disabled": 0, "lat": 38.90834316666667, "rental_uris": {"ios": "https://dc.lft.to/lastmile_qr_scan", "android": "https://dc.lft.to/lastmile_qr_scan"}, "is_reserved": 0, "fusion_lon": 0.0, "fusion_lat": 0.0, "lon": -76.93314983333333, "name": "5d361c0d462f1d0a9313a83268b071c1"}, {"bike_id": "43ebbd7b5dd85a51b5540815c527b3e0", "type": "electric_scooter", "is_disabled": 0, "lat": 38.902716833333336, "rental_uris": {"ios": "https://dc.lft.to/lastmile_qr_scan", "android": "https://dc.lft.to/lastmile_qr_scan"}, "is_reserved": 0, "fusion_lon": 0.0, "fusion_lat": 0.0, "lon": -77.0184915, "name": "43ebbd7b5dd85a51b5540815c527b3e0"}, {"bike_id": "ef36b8f66c4f63199f0f8e8c0f11e772", "type": "electric_scooter", "is_disabled": 0, "lat": 38.916925666666664, "rental_uris": {"ios": "https://dc.lft.to/lastmile_qr_scan", "android": "https://dc.lft.to/lastmile_qr_scan"}, "is_reserved": 0, "fusion_lon": 0.0, "fusion_lat": 0.0, "lon": -77.031682, "name": "ef36b8f66c4f63199f0f8e8c0f11e772"}, {"bike_id": "4945046c851cc16d8cda8f96ef785106", "type": "electric_scooter", "is_disabled": 0, "lat": 38.911226666666664, "rental_uris": {"ios": "https://dc.lft.to/lastmile_qr_scan", "android": "https://dc.lft.to/lastmile_qr_scan"}, "is_reserved": 0, "fusion_lon": 0.0, "fusion_lat": 0.0, "lon": -77.03829716666667, "name": "4945046c851cc16d8cda8f96ef785106"}, {"bike_id": "e70f1a63f11a103ea0d6e67d90e28761", "type": "electric_scooter", "is_disabled": 0, "lat": 38.907369833333334, "rental_uris": {"ios": "https://dc.lft.to/lastmile_qr_scan", "android": "https://dc.lft.to/lastmile_qr_scan"}, "is_reserved": 0, "fusion_lon": 0.0, "fusion_lat": 0.0, "lon": -77.02951633333333, "name": "e70f1a63f11a103ea0d6e67d90e28761"}, {"bike_id": "b89fbf186c9d61b6e85ed2150ec91d4f", "type": "electric_scooter", "is_disabled": 0, "lat": 38.87093433333333, "rental_uris": {"ios": "https://dc.lft.to/lastmile_qr_scan", "android": "https://dc.lft.to/lastmile_qr_scan"}, "is_reserved": 0, "fusion_lon": 0.0, "fusion_lat": 0.0, "lon": -77.0120295, "name": "b89fbf186c9d61b6e85ed2150ec91d4f"}, {"bike_id": "b724a6d03c4d5e97f3d710b00966f606", "type": "electric_scooter", "is_disabled": 0, "lat": 38.9032085, "rental_uris": {"ios": "https://dc.lft.to/lastmile_qr_scan", "android": "https://dc.lft.to/lastmile_qr_scan"}, "is_reserved": 0, "fusion_lon": 0.0, "fusion_lat": 0.0, "lon": -76.9942615, "name": "b724a6d03c4d5e97f3d710b00966f606"}, {"bike_id": "0ee585236d26c739184d8740395edd14", "type": "electric_scooter", "is_disabled": 0, "lat": 38.884048166666666, "rental_uris": {"ios": "https://dc.lft.to/lastmile_qr_scan", "android": "https://dc.lft.to/lastmile_qr_scan"}, "is_reserved": 0, "fusion_lon": 0.0, "fusion_lat": 0.0, "lon": -76.95397116666666, "name": "0ee585236d26c739184d8740395edd14"}, {"bike_id": "28e6897dab3e043d034f68d8f72d7fe3", "type": "electric_scooter", "is_disabled": 0, "lat": 38.922799166666664, "rental_uris": {"ios": "https://dc.lft.to/lastmile_qr_scan", "android": "https://dc.lft.to/lastmile_qr_scan"}, "is_reserved": 0, "fusion_lon": 0.0, "fusion_lat": 0.0, "lon": -77.0327925, "name": "28e6897dab3e043d034f68d8f72d7fe3"}, {"bike_id": "48dafa0b2824a53a55926524d7911bb5", "type": "electric_scooter", "is_disabled": 0, "lat": 38.90237033333333, "rental_uris": {"ios": "https://dc.lft.to/lastmile_qr_scan", "android": "https://dc.lft.to/lastmile_qr_scan"}, "is_reserved": 0, "fusion_lon": 0.0, "fusion_lat": 0.0, "lon": -76.97408133333333, "name": "48dafa0b2824a53a55926524d7911bb5"}, {"bike_id": "1f05b1981b97477240fd6fb806f72e01", "type": "electric_scooter", "is_disabled": 0, "lat": 38.907359, "rental_uris": {"ios": "https://dc.lft.to/lastmile_qr_scan", "android": "https://dc.lft.to/lastmile_qr_scan"}, "is_reserved": 0, "fusion_lon": 0.0, "fusion_lat": 0.0, "lon": -77.06339116666666, "name": "1f05b1981b97477240fd6fb806f72e01"}, {"bike_id": "616dad5ef41c04c5118e6e1f9b10c4e9", "type": "electric_scooter", "is_disabled": 0, "lat": 38.914833, "rental_uris": {"ios": "https://dc.lft.to/lastmile_qr_scan", "android": "https://dc.lft.to/lastmile_qr_scan"}, "is_reserved": 0, "fusion_lon": 0.0, "fusion_lat": 0.0, "lon": -76.985738, "name": "616dad5ef41c04c5118e6e1f9b10c4e9"}, {"bike_id": "f40466e19123104c4366851bb84c46bc", "type": "electric_scooter", "is_disabled": 0, "lat": 38.9003105, "rental_uris": {"ios": "https://dc.lft.to/lastmile_qr_scan", "android": "https://dc.lft.to/lastmile_qr_scan"}, "is_reserved": 0, "fusion_lon": 0.0, "fusion_lat": 0.0, "lon": -76.98059533333333, "name": "f40466e19123104c4366851bb84c46bc"}, {"bike_id": "d190218f83a811f4f33fd0c203c204d4", "type": "electric_scooter", "is_disabled": 0, "lat": 38.925948, "rental_uris": {"ios": "https://dc.lft.to/lastmile_qr_scan", "android": "https://dc.lft.to/lastmile_qr_scan"}, "is_reserved": 0, "fusion_lon": 0.0, "fusion_lat": 0.0, "lon": -77.00836783333334, "name": "d190218f83a811f4f33fd0c203c204d4"}, {"bike_id": "6481ae881d31e40a1e7f1c403934fe91", "type": "electric_scooter", "is_disabled": 0, "lat": 38.9190745, "rental_uris": {"ios": "https://dc.lft.to/lastmile_qr_scan", "android": "https://dc.lft.to/lastmile_qr_scan"}, "is_reserved": 0, "fusion_lon": 0.0, "fusion_lat": 0.0, "lon": -77.02495383333333, "name": "6481ae881d31e40a1e7f1c403934fe91"}, {"bike_id": "f0cc4a554bb96aff0b930909d523b186", "type": "electric_scooter", "is_disabled": 0, "lat": 38.909588666666664, "rental_uris": {"ios": "https://dc.lft.to/lastmile_qr_scan", "android": "https://dc.lft.to/lastmile_qr_scan"}, "is_reserved": 0, "fusion_lon": 0.0, "fusion_lat": 0.0, "lon": -77.04049916666666, "name": "f0cc4a554bb96aff0b930909d523b186"}, {"bike_id": "8cff7eb54e1c9af102280f9734b67d2e", "type": "electric_scooter", "is_disabled": 0, "lat": 38.92053, "rental_uris": {"ios": "https://dc.lft.to/lastmile_qr_scan", "android": "https://dc.lft.to/lastmile_qr_scan"}, "is_reserved": 0, "fusion_lon": 0.0, "fusion_lat": 0.0, "lon": -77.03436133333334, "name": "8cff7eb54e1c9af102280f9734b67d2e"}, {"bike_id": "a251074529c8e374a4d04ad2174282a9", "type": "electric_scooter", "is_disabled": 0, "lat": 38.931842, "rental_uris": {"ios": "https://dc.lft.to/lastmile_qr_scan", "android": "https://dc.lft.to/lastmile_qr_scan"}, "is_reserved": 0, "fusion_lon": 0.0, "fusion_lat": 0.0, "lon": -77.04308383333333, "name": "a251074529c8e374a4d04ad2174282a9"}, {"bike_id": "4a8d9eb9603e24faa76767e881c7b082", "type": "electric_scooter", "is_disabled": 0, "lat": 38.8443655, "rental_uris": {"ios": "https://dc.lft.to/lastmile_qr_scan", "android": "https://dc.lft.to/lastmile_qr_scan"}, "is_reserved": 0, "fusion_lon": 0.0, "fusion_lat": 0.0, "lon": -76.99779, "name": "4a8d9eb9603e24faa76767e881c7b082"}, {"bike_id": "0c33c28eaa9754bf767810276cf148cd", "type": "electric_scooter", "is_disabled": 0, "lat": 38.902712, "rental_uris": {"ios": "https://dc.lft.to/lastmile_qr_scan", "android": "https://dc.lft.to/lastmile_qr_scan"}, "is_reserved": 0, "fusion_lon": 0.0, "fusion_lat": 0.0, "lon": -77.019021, "name": "0c33c28eaa9754bf767810276cf148cd"}, {"bike_id": "cfc5434d5ae0c90bf944fbd12b45ab35", "type": "electric_scooter", "is_disabled": 0, "lat": 38.88568583333333, "rental_uris": {"ios": "https://dc.lft.to/lastmile_qr_scan", "android": "https://dc.lft.to/lastmile_qr_scan"}, "is_reserved": 0, "fusion_lon": 0.0, "fusion_lat": 0.0, "lon": -77.02839933333334, "name": "cfc5434d5ae0c90bf944fbd12b45ab35"}, {"bike_id": "7e67c8871b7e71aa76b8bfbf18980142", "type": "electric_scooter", "is_disabled": 0, "lat": 38.910059333333336, "rental_uris": {"ios": "https://dc.lft.to/lastmile_qr_scan", "android": "https://dc.lft.to/lastmile_qr_scan"}, "is_reserved": 0, "fusion_lon": 0.0, "fusion_lat": 0.0, "lon": -77.040072, "name": "7e67c8871b7e71aa76b8bfbf18980142"}, {"bike_id": "f10e422896cb3b7d4990ea46c9162ef6", "type": "electric_scooter", "is_disabled": 0, "lat": 38.92117783333333, "rental_uris": {"ios": "https://dc.lft.to/lastmile_qr_scan", "android": "https://dc.lft.to/lastmile_qr_scan"}, "is_reserved": 0, "fusion_lon": 0.0, "fusion_lat": 0.0, "lon": -77.03660466666666, "name": "f10e422896cb3b7d4990ea46c9162ef6"}, {"bike_id": "b23adbd89fe10583bf634d2e36a6ddc9", "type": "electric_scooter", "is_disabled": 0, "lat": 38.92808733333333, "rental_uris": {"ios": "https://dc.lft.to/lastmile_qr_scan", "android": "https://dc.lft.to/lastmile_qr_scan"}, "is_reserved": 0, "fusion_lon": 0.0, "fusion_lat": 0.0, "lon": -77.02811166666666, "name": "b23adbd89fe10583bf634d2e36a6ddc9"}, {"bike_id": "a9a57418eb69f6b3adea6dd7b6d3d11b", "type": "electric_bike", "is_disabled": 0, "lat": 38.88403483333333, "rental_uris": {"ios": "https://dc.lft.to/lastmile_qr_scan", "android": "https://dc.lft.to/lastmile_qr_scan"}, "is_reserved": 0, "fusion_lon": 0.0, "fusion_lat": 0.0, "lon": -76.960604, "name": "a9a57418eb69f6b3adea6dd7b6d3d11b"}, {"bike_id": "adeedc6634957b31679108a2f3d1bfe9", "type": "electric_scooter", "is_disabled": 0, "lat": 38.9343325, "rental_uris": {"ios": "https://dc.lft.to/lastmile_qr_scan", "android": "https://dc.lft.to/lastmile_qr_scan"}, "is_reserved": 0, "fusion_lon": 0.0, "fusion_lat": 0.0, "lon": -77.04537016666667, "name": "adeedc6634957b31679108a2f3d1bfe9"}, {"bike_id": "8b8a2f9c371fd6d5d5f6a9003cc27209", "type": "electric_scooter", "is_disabled": 0, "lat": 38.95635716666666, "rental_uris": {"ios": "https://dc.lft.to/lastmile_qr_scan", "android": "https://dc.lft.to/lastmile_qr_scan"}, "is_reserved": 0, "fusion_lon": 0.0, "fusion_lat": 0.0, "lon": -77.02783233333334, "name": "8b8a2f9c371fd6d5d5f6a9003cc27209"}, {"bike_id": "3fb814c22a81cca2572f644e7b385f67", "type": "electric_scooter", "is_disabled": 0, "lat": 38.91565883333333, "rental_uris": {"ios": "https://dc.lft.to/lastmile_qr_scan", "android": "https://dc.lft.to/lastmile_qr_scan"}, "is_reserved": 0, "fusion_lon": 0.0, "fusion_lat": 0.0, "lon": -77.0386785, "name": "3fb814c22a81cca2572f644e7b385f67"}, {"bike_id": "4d6b5f8b4fff20053bd350db23fc1276", "type": "electric_scooter", "is_disabled": 0, "lat": 38.9097625, "rental_uris": {"ios": "https://dc.lft.to/lastmile_qr_scan", "android": "https://dc.lft.to/lastmile_qr_scan"}, "is_reserved": 0, "fusion_lon": 0.0, "fusion_lat": 0.0, "lon": -77.03181033333334, "name": "4d6b5f8b4fff20053bd350db23fc1276"}, {"bike_id": "be8da981900c597bcd3c5692dbb1c341", "type": "electric_scooter", "is_disabled": 0, "lat": 38.958584, "rental_uris": {"ios": "https://dc.lft.to/lastmile_qr_scan", "android": "https://dc.lft.to/lastmile_qr_scan"}, "is_reserved": 0, "fusion_lon": 0.0, "fusion_lat": 0.0, "lon": -77.02791083333334, "name": "be8da981900c597bcd3c5692dbb1c341"}, {"bike_id": "528e2c4a8c80b0e8381b8d5470e8ca60", "type": "electric_scooter", "is_disabled": 0, "lat": 38.89928583333333, "rental_uris": {"ios": "https://dc.lft.to/lastmile_qr_scan", "android": "https://dc.lft.to/lastmile_qr_scan"}, "is_reserved": 0, "fusion_lon": 0.0, "fusion_lat": 0.0, "lon": -77.0035435, "name": "528e2c4a8c80b0e8381b8d5470e8ca60"}, {"bike_id": "42b2f4a8b306e2a19802c5814c34e1a8", "type": "electric_scooter", "is_disabled": 0, "lat": 38.922643, "rental_uris": {"ios": "https://dc.lft.to/lastmile_qr_scan", "android": "https://dc.lft.to/lastmile_qr_scan"}, "is_reserved": 0, "fusion_lon": 0.0, "fusion_lat": 0.0, "lon": -77.042963, "name": "42b2f4a8b306e2a19802c5814c34e1a8"}, {"bike_id": "f50f81c03874b228aef3100b42f5e540", "type": "electric_scooter", "is_disabled": 0, "lat": 38.91608016666667, "rental_uris": {"ios": "https://dc.lft.to/lastmile_qr_scan", "android": "https://dc.lft.to/lastmile_qr_scan"}, "is_reserved": 0, "fusion_lon": 0.0, "fusion_lat": 0.0, "lon": -77.029566, "name": "f50f81c03874b228aef3100b42f5e540"}, {"bike_id": "67cf4b8abfde9108ea53a76daca7c9b0", "type": "electric_scooter", "is_disabled": 0, "lat": 38.92409683333333, "rental_uris": {"ios": "https://dc.lft.to/lastmile_qr_scan", "android": "https://dc.lft.to/lastmile_qr_scan"}, "is_reserved": 0, "fusion_lon": 0.0, "fusion_lat": 0.0, "lon": -77.02749033333333, "name": "67cf4b8abfde9108ea53a76daca7c9b0"}, {"bike_id": "b06e1aa1c9cc60a6c29a4c5c044d4e28", "type": "electric_scooter", "is_disabled": 0, "lat": 38.973637833333335, "rental_uris": {"ios": "https://dc.lft.to/lastmile_qr_scan", "android": "https://dc.lft.to/lastmile_qr_scan"}, "is_reserved": 0, "fusion_lon": 0.0, "fusion_lat": 0.0, "lon": -77.018478, "name": "b06e1aa1c9cc60a6c29a4c5c044d4e28"}, {"bike_id": "282639b3cfa6c0ab39bd777a7a230abd", "type": "electric_scooter", "is_disabled": 0, "lat": 38.9351125, "rental_uris": {"ios": "https://dc.lft.to/lastmile_qr_scan", "android": "https://dc.lft.to/lastmile_qr_scan"}, "is_reserved": 0, "fusion_lon": 0.0, "fusion_lat": 0.0, "lon": -77.03291116666666, "name": "282639b3cfa6c0ab39bd777a7a230abd"}, {"bike_id": "6005622b8ade0de3e2d5e438eecf24e1", "type": "electric_scooter", "is_disabled": 0, "lat": 38.9329285, "rental_uris": {"ios": "https://dc.lft.to/lastmile_qr_scan", "android": "https://dc.lft.to/lastmile_qr_scan"}, "is_reserved": 0, "fusion_lon": 0.0, "fusion_lat": 0.0, "lon": -77.04126816666667, "name": "6005622b8ade0de3e2d5e438eecf24e1"}, {"bike_id": "57516662c4c03bf6ab113647332002e8", "type": "electric_bike", "is_disabled": 0, "lat": 38.85786916666667, "rental_uris": {"ios": "https://dc.lft.to/lastmile_qr_scan", "android": "https://dc.lft.to/lastmile_qr_scan"}, "is_reserved": 0, "fusion_lon": 0.0, "fusion_lat": 0.0, "lon": -77.12017916666667, "name": "57516662c4c03bf6ab113647332002e8"}, {"bike_id": "7d9d87b6f9f515eff2612b433693aec4", "type": "electric_scooter", "is_disabled": 0, "lat": 38.901967666666664, "rental_uris": {"ios": "https://dc.lft.to/lastmile_qr_scan", "android": "https://dc.lft.to/lastmile_qr_scan"}, "is_reserved": 0, "fusion_lon": 0.0, "fusion_lat": 0.0, "lon": -77.0236935, "name": "7d9d87b6f9f515eff2612b433693aec4"}, {"bike_id": "003f80deee1b1b9d23a4cbceac2d1af3", "type": "electric_scooter", "is_disabled": 0, "lat": 38.8954375, "rental_uris": {"ios": "https://dc.lft.to/lastmile_qr_scan", "android": "https://dc.lft.to/lastmile_qr_scan"}, "is_reserved": 0, "fusion_lon": 0.0, "fusion_lat": 0.0, "lon": -76.92949883333333, "name": "003f80deee1b1b9d23a4cbceac2d1af3"}, {"bike_id": "b8ca12f517c57736006bb88422fc63e6", "type": "electric_scooter", "is_disabled": 0, "lat": 38.9056485, "rental_uris": {"ios": "https://dc.lft.to/lastmile_qr_scan", "android": "https://dc.lft.to/lastmile_qr_scan"}, "is_reserved": 0, "fusion_lon": 0.0, "fusion_lat": 0.0, "lon": -76.98148533333334, "name": "b8ca12f517c57736006bb88422fc63e6"}, {"bike_id": "96b7f27661da7fade6ae60d4b959a1c6", "type": "electric_scooter", "is_disabled": 0, "lat": 38.92672683333333, "rental_uris": {"ios": "https://dc.lft.to/lastmile_qr_scan", "android": "https://dc.lft.to/lastmile_qr_scan"}, "is_reserved": 0, "fusion_lon": 0.0, "fusion_lat": 0.0, "lon": -77.04357733333333, "name": "96b7f27661da7fade6ae60d4b959a1c6"}, {"bike_id": "13ff4693db9b322bc9f65439ea4358c8", "type": "electric_scooter", "is_disabled": 0, "lat": 38.884115, "rental_uris": {"ios": "https://dc.lft.to/lastmile_qr_scan", "android": "https://dc.lft.to/lastmile_qr_scan"}, "is_reserved": 0, "fusion_lon": 0.0, "fusion_lat": 0.0, "lon": -77.03156133333333, "name": "13ff4693db9b322bc9f65439ea4358c8"}, {"bike_id": "bd1ded6e337d1c07bace08e6b089b313", "type": "electric_scooter", "is_disabled": 0, "lat": 38.91131216666667, "rental_uris": {"ios": "https://dc.lft.to/lastmile_qr_scan", "android": "https://dc.lft.to/lastmile_qr_scan"}, "is_reserved": 0, "fusion_lon": 0.0, "fusion_lat": 0.0, "lon": -77.065425, "name": "bd1ded6e337d1c07bace08e6b089b313"}, {"bike_id": "1fd1052a7de495205a6bf2dded75a168", "type": "electric_scooter", "is_disabled": 0, "lat": 38.885816166666665, "rental_uris": {"ios": "https://dc.lft.to/lastmile_qr_scan", "android": "https://dc.lft.to/lastmile_qr_scan"}, "is_reserved": 0, "fusion_lon": 0.0, "fusion_lat": 0.0, "lon": -77.02840133333333, "name": "1fd1052a7de495205a6bf2dded75a168"}, {"bike_id": "4727aaa930288161f886210b65ca9c1d", "type": "electric_scooter", "is_disabled": 0, "lat": 38.90407716666667, "rental_uris": {"ios": "https://dc.lft.to/lastmile_qr_scan", "android": "https://dc.lft.to/lastmile_qr_scan"}, "is_reserved": 0, "fusion_lon": 0.0, "fusion_lat": 0.0, "lon": -76.97327833333334, "name": "4727aaa930288161f886210b65ca9c1d"}, {"bike_id": "3c3d169f9565d40fe79d99c45752b5e0", "type": "electric_scooter", "is_disabled": 0, "lat": 38.923143833333334, "rental_uris": {"ios": "https://dc.lft.to/lastmile_qr_scan", "android": "https://dc.lft.to/lastmile_qr_scan"}, "is_reserved": 0, "fusion_lon": 0.0, "fusion_lat": 0.0, "lon": -77.03809816666667, "name": "3c3d169f9565d40fe79d99c45752b5e0"}, {"bike_id": "3dc38a5ef1924812f5b7f9bf4b2e5a22", "type": "electric_bike", "is_disabled": 0, "lat": 38.872965, "rental_uris": {"ios": "https://dc.lft.to/lastmile_qr_scan", "android": "https://dc.lft.to/lastmile_qr_scan"}, "is_reserved": 0, "fusion_lon": 0.0, "fusion_lat": 0.0, "lon": -76.969805, "name": "3dc38a5ef1924812f5b7f9bf4b2e5a22"}, {"bike_id": "bdec2e8a499f163f2cd990455dac1b0b", "type": "electric_scooter", "is_disabled": 0, "lat": 38.92458166666667, "rental_uris": {"ios": "https://dc.lft.to/lastmile_qr_scan", "android": "https://dc.lft.to/lastmile_qr_scan"}, "is_reserved": 0, "fusion_lon": 0.0, "fusion_lat": 0.0, "lon": -76.99914866666667, "name": "bdec2e8a499f163f2cd990455dac1b0b"}, {"bike_id": "70be348c8523a5cf3e3af295f5e649b6", "type": "electric_scooter", "is_disabled": 0, "lat": 38.878160666666666, "rental_uris": {"ios": "https://dc.lft.to/lastmile_qr_scan", "android": "https://dc.lft.to/lastmile_qr_scan"}, "is_reserved": 0, "fusion_lon": 0.0, "fusion_lat": 0.0, "lon": -76.93095983333333, "name": "70be348c8523a5cf3e3af295f5e649b6"}, {"bike_id": "c8aee55ce503d1557d6a06d735215d99", "type": "electric_scooter", "is_disabled": 0, "lat": 38.93243616666667, "rental_uris": {"ios": "https://dc.lft.to/lastmile_qr_scan", "android": "https://dc.lft.to/lastmile_qr_scan"}, "is_reserved": 0, "fusion_lon": 0.0, "fusion_lat": 0.0, "lon": -77.03847716666667, "name": "c8aee55ce503d1557d6a06d735215d99"}, {"bike_id": "75d6760b3eddc3e2a87784ef2275c8e2", "type": "electric_bike", "is_disabled": 0, "lat": 38.9364365, "rental_uris": {"ios": "https://dc.lft.to/lastmile_qr_scan", "android": "https://dc.lft.to/lastmile_qr_scan"}, "is_reserved": 0, "fusion_lon": 0.0, "fusion_lat": 0.0, "lon": -77.0208915, "name": "75d6760b3eddc3e2a87784ef2275c8e2"}, {"bike_id": "8c775342106f4609a3fba65ba67fb20e", "type": "electric_scooter", "is_disabled": 0, "lat": 38.90006283333334, "rental_uris": {"ios": "https://dc.lft.to/lastmile_qr_scan", "android": "https://dc.lft.to/lastmile_qr_scan"}, "is_reserved": 0, "fusion_lon": 0.0, "fusion_lat": 0.0, "lon": -77.04485, "name": "8c775342106f4609a3fba65ba67fb20e"}, {"bike_id": "32b107301015590ad3dbd213c1c07078", "type": "electric_scooter", "is_disabled": 0, "lat": 38.94987066666667, "rental_uris": {"ios": "https://dc.lft.to/lastmile_qr_scan", "android": "https://dc.lft.to/lastmile_qr_scan"}, "is_reserved": 0, "fusion_lon": 0.0, "fusion_lat": 0.0, "lon": -77.0270375, "name": "32b107301015590ad3dbd213c1c07078"}, {"bike_id": "793e9cbf798d1245d87f321c30e386ed", "type": "electric_scooter", "is_disabled": 0, "lat": 38.908432, "rental_uris": {"ios": "https://dc.lft.to/lastmile_qr_scan", "android": "https://dc.lft.to/lastmile_qr_scan"}, "is_reserved": 0, "fusion_lon": 0.0, "fusion_lat": 0.0, "lon": -77.04352033333333, "name": "793e9cbf798d1245d87f321c30e386ed"}, {"bike_id": "8ed869833a78128fd4fc407078ca1a71", "type": "electric_scooter", "is_disabled": 0, "lat": 38.90570666666667, "rental_uris": {"ios": "https://dc.lft.to/lastmile_qr_scan", "android": "https://dc.lft.to/lastmile_qr_scan"}, "is_reserved": 0, "fusion_lon": 0.0, "fusion_lat": 0.0, "lon": -77.04873466666666, "name": "8ed869833a78128fd4fc407078ca1a71"}, {"bike_id": "f5af92d8a0f0f7feddb90350c02e3236", "type": "electric_scooter", "is_disabled": 0, "lat": 38.901138, "rental_uris": {"ios": "https://dc.lft.to/lastmile_qr_scan", "android": "https://dc.lft.to/lastmile_qr_scan"}, "is_reserved": 0, "fusion_lon": 0.0, "fusion_lat": 0.0, "lon": -77.049907, "name": "f5af92d8a0f0f7feddb90350c02e3236"}, {"bike_id": "daa3b635f641c88e89f6ed89ac9d9d06", "type": "electric_scooter", "is_disabled": 0, "lat": 38.95932083333334, "rental_uris": {"ios": "https://dc.lft.to/lastmile_qr_scan", "android": "https://dc.lft.to/lastmile_qr_scan"}, "is_reserved": 0, "fusion_lon": 0.0, "fusion_lat": 0.0, "lon": -77.0312135, "name": "daa3b635f641c88e89f6ed89ac9d9d06"}, {"bike_id": "df070dcdf725f0268125a93dabc1ea84", "type": "electric_scooter", "is_disabled": 0, "lat": 38.941993833333335, "rental_uris": {"ios": "https://dc.lft.to/lastmile_qr_scan", "android": "https://dc.lft.to/lastmile_qr_scan"}, "is_reserved": 0, "fusion_lon": 0.0, "fusion_lat": 0.0, "lon": -77.02350916666667, "name": "df070dcdf725f0268125a93dabc1ea84"}, {"bike_id": "2d789bc0617f1cc877971f54c96ca86a", "type": "electric_scooter", "is_disabled": 0, "lat": 38.9144135, "rental_uris": {"ios": "https://dc.lft.to/lastmile_qr_scan", "android": "https://dc.lft.to/lastmile_qr_scan"}, "is_reserved": 0, "fusion_lon": 0.0, "fusion_lat": 0.0, "lon": -77.0217205, "name": "2d789bc0617f1cc877971f54c96ca86a"}, {"bike_id": "ac78b94759c56b21534770a4af695e39", "type": "electric_scooter", "is_disabled": 0, "lat": 38.88342866666667, "rental_uris": {"ios": "https://dc.lft.to/lastmile_qr_scan", "android": "https://dc.lft.to/lastmile_qr_scan"}, "is_reserved": 0, "fusion_lon": 0.0, "fusion_lat": 0.0, "lon": -76.99508666666667, "name": "ac78b94759c56b21534770a4af695e39"}, {"bike_id": "de858a32eabfe95d45b3a2c36958432e", "type": "electric_scooter", "is_disabled": 0, "lat": 38.958345666666666, "rental_uris": {"ios": "https://dc.lft.to/lastmile_qr_scan", "android": "https://dc.lft.to/lastmile_qr_scan"}, "is_reserved": 0, "fusion_lon": 0.0, "fusion_lat": 0.0, "lon": -77.01513216666666, "name": "de858a32eabfe95d45b3a2c36958432e"}, {"bike_id": "2142d663054727211e6172873338231f", "type": "electric_scooter", "is_disabled": 0, "lat": 38.876518, "rental_uris": {"ios": "https://dc.lft.to/lastmile_qr_scan", "android": "https://dc.lft.to/lastmile_qr_scan"}, "is_reserved": 0, "fusion_lon": 0.0, "fusion_lat": 0.0, "lon": -76.96506866666667, "name": "2142d663054727211e6172873338231f"}, {"bike_id": "4b5fa94528fb2bd6b34ecd8b122d0bd1", "type": "electric_scooter", "is_disabled": 0, "lat": 38.917177333333335, "rental_uris": {"ios": "https://dc.lft.to/lastmile_qr_scan", "android": "https://dc.lft.to/lastmile_qr_scan"}, "is_reserved": 0, "fusion_lon": 0.0, "fusion_lat": 0.0, "lon": -77.036624, "name": "4b5fa94528fb2bd6b34ecd8b122d0bd1"}, {"bike_id": "d9009a654fc106f35f07c6b9af9a0ce5", "type": "electric_scooter", "is_disabled": 0, "lat": 38.901233166666664, "rental_uris": {"ios": "https://dc.lft.to/lastmile_qr_scan", "android": "https://dc.lft.to/lastmile_qr_scan"}, "is_reserved": 0, "fusion_lon": 0.0, "fusion_lat": 0.0, "lon": -77.016228, "name": "d9009a654fc106f35f07c6b9af9a0ce5"}, {"bike_id": "da493f86fb2773123754405fc0f9d246", "type": "electric_scooter", "is_disabled": 0, "lat": 38.91997516666667, "rental_uris": {"ios": "https://dc.lft.to/lastmile_qr_scan", "android": "https://dc.lft.to/lastmile_qr_scan"}, "is_reserved": 0, "fusion_lon": 0.0, "fusion_lat": 0.0, "lon": -77.02401216666667, "name": "da493f86fb2773123754405fc0f9d246"}, {"bike_id": "f443b1b241bc541b1e9762e8c5a8aa6b", "type": "electric_bike", "is_disabled": 0, "lat": 39.03700083333333, "rental_uris": {"ios": "https://dc.lft.to/lastmile_qr_scan", "android": "https://dc.lft.to/lastmile_qr_scan"}, "is_reserved": 0, "fusion_lon": 0.0, "fusion_lat": 0.0, "lon": -77.02856366666667, "name": "f443b1b241bc541b1e9762e8c5a8aa6b"}, {"bike_id": "8a3489578d00f4609708ad3317c1da66", "type": "electric_scooter", "is_disabled": 0, "lat": 38.93700116666667, "rental_uris": {"ios": "https://dc.lft.to/lastmile_qr_scan", "android": "https://dc.lft.to/lastmile_qr_scan"}, "is_reserved": 0, "fusion_lon": 0.0, "fusion_lat": 0.0, "lon": -77.0328115, "name": "8a3489578d00f4609708ad3317c1da66"}, {"bike_id": "a1a0e99268d9681d192e0a6fd1fc0945", "type": "electric_bike", "is_disabled": 0, "lat": 38.9550195, "rental_uris": {"ios": "https://dc.lft.to/lastmile_qr_scan", "android": "https://dc.lft.to/lastmile_qr_scan"}, "is_reserved": 0, "fusion_lon": 0.0, "fusion_lat": 0.0, "lon": -76.993539, "name": "a1a0e99268d9681d192e0a6fd1fc0945"}, {"bike_id": "7c7e6924537a59a18d39de9c63df4ca7", "type": "electric_scooter", "is_disabled": 0, "lat": 38.903448833333336, "rental_uris": {"ios": "https://dc.lft.to/lastmile_qr_scan", "android": "https://dc.lft.to/lastmile_qr_scan"}, "is_reserved": 0, "fusion_lon": 0.0, "fusion_lat": 0.0, "lon": -76.98507833333333, "name": "7c7e6924537a59a18d39de9c63df4ca7"}, {"bike_id": "26db4a9346b869209a9e099caebb965e", "type": "electric_scooter", "is_disabled": 0, "lat": 38.91013733333333, "rental_uris": {"ios": "https://dc.lft.to/lastmile_qr_scan", "android": "https://dc.lft.to/lastmile_qr_scan"}, "is_reserved": 0, "fusion_lon": 0.0, "fusion_lat": 0.0, "lon": -77.0162355, "name": "26db4a9346b869209a9e099caebb965e"}, {"bike_id": "763ec0ee3678f9e3f36e828ca336d1ac", "type": "electric_scooter", "is_disabled": 0, "lat": 38.91420033333333, "rental_uris": {"ios": "https://dc.lft.to/lastmile_qr_scan", "android": "https://dc.lft.to/lastmile_qr_scan"}, "is_reserved": 0, "fusion_lon": 0.0, "fusion_lat": 0.0, "lon": -77.022928, "name": "763ec0ee3678f9e3f36e828ca336d1ac"}, {"bike_id": "015de005e16d22fb17cb92d5ecced3fd", "type": "electric_scooter", "is_disabled": 0, "lat": 38.90510783333333, "rental_uris": {"ios": "https://dc.lft.to/lastmile_qr_scan", "android": "https://dc.lft.to/lastmile_qr_scan"}, "is_reserved": 0, "fusion_lon": 0.0, "fusion_lat": 0.0, "lon": -77.02972383333334, "name": "015de005e16d22fb17cb92d5ecced3fd"}, {"bike_id": "ad72a20bbee419e22c80d7854d07d4e7", "type": "electric_scooter", "is_disabled": 0, "lat": 38.9114625, "rental_uris": {"ios": "https://dc.lft.to/lastmile_qr_scan", "android": "https://dc.lft.to/lastmile_qr_scan"}, "is_reserved": 0, "fusion_lon": 0.0, "fusion_lat": 0.0, "lon": -77.028017, "name": "ad72a20bbee419e22c80d7854d07d4e7"}, {"bike_id": "e239bad2e10679d95ba0549006c956c4", "type": "electric_scooter", "is_disabled": 0, "lat": 38.9180555, "rental_uris": {"ios": "https://dc.lft.to/lastmile_qr_scan", "android": "https://dc.lft.to/lastmile_qr_scan"}, "is_reserved": 0, "fusion_lon": 0.0, "fusion_lat": 0.0, "lon": -77.03260266666666, "name": "e239bad2e10679d95ba0549006c956c4"}, {"bike_id": "89c7d0c5e37e0fd8b89da534e983e393", "type": "electric_scooter", "is_disabled": 0, "lat": 38.90652683333333, "rental_uris": {"ios": "https://dc.lft.to/lastmile_qr_scan", "android": "https://dc.lft.to/lastmile_qr_scan"}, "is_reserved": 0, "fusion_lon": 0.0, "fusion_lat": 0.0, "lon": -77.01414533333333, "name": "89c7d0c5e37e0fd8b89da534e983e393"}, {"bike_id": "ff3d245634b755883025b535b48ac46d", "type": "electric_scooter", "is_disabled": 0, "lat": 38.926156, "rental_uris": {"ios": "https://dc.lft.to/lastmile_qr_scan", "android": "https://dc.lft.to/lastmile_qr_scan"}, "is_reserved": 0, "fusion_lon": 0.0, "fusion_lat": 0.0, "lon": -77.043323, "name": "ff3d245634b755883025b535b48ac46d"}, {"bike_id": "7874300dd92544da9a89207cf451a618", "type": "electric_bike", "is_disabled": 0, "lat": 38.94651966666667, "rental_uris": {"ios": "https://dc.lft.to/lastmile_qr_scan", "android": "https://dc.lft.to/lastmile_qr_scan"}, "is_reserved": 0, "fusion_lon": 0.0, "fusion_lat": 0.0, "lon": -76.99493, "name": "7874300dd92544da9a89207cf451a618"}, {"bike_id": "c8167949a16c4fd525c576362ad0a7e9", "type": "electric_scooter", "is_disabled": 0, "lat": 38.935377333333335, "rental_uris": {"ios": "https://dc.lft.to/lastmile_qr_scan", "android": "https://dc.lft.to/lastmile_qr_scan"}, "is_reserved": 0, "fusion_lon": 0.0, "fusion_lat": 0.0, "lon": -77.03890566666666, "name": "c8167949a16c4fd525c576362ad0a7e9"}, {"bike_id": "154718fdd02c2b0d8ff410c55493c882", "type": "electric_scooter", "is_disabled": 0, "lat": 38.900058666666666, "rental_uris": {"ios": "https://dc.lft.to/lastmile_qr_scan", "android": "https://dc.lft.to/lastmile_qr_scan"}, "is_reserved": 0, "fusion_lon": 0.0, "fusion_lat": 0.0, "lon": -77.00195983333333, "name": "154718fdd02c2b0d8ff410c55493c882"}, {"bike_id": "e32f103b0841284e3699071295b7a642", "type": "electric_scooter", "is_disabled": 0, "lat": 38.90797033333333, "rental_uris": {"ios": "https://dc.lft.to/lastmile_qr_scan", "android": "https://dc.lft.to/lastmile_qr_scan"}, "is_reserved": 0, "fusion_lon": 0.0, "fusion_lat": 0.0, "lon": -77.0313345, "name": "e32f103b0841284e3699071295b7a642"}, {"bike_id": "c8ed6420cae50461eefb319072211782", "type": "electric_scooter", "is_disabled": 0, "lat": 38.903991166666664, "rental_uris": {"ios": "https://dc.lft.to/lastmile_qr_scan", "android": "https://dc.lft.to/lastmile_qr_scan"}, "is_reserved": 0, "fusion_lon": 0.0, "fusion_lat": 0.0, "lon": -77.00586616666666, "name": "c8ed6420cae50461eefb319072211782"}, {"bike_id": "ee4894ba4ad90ce932eb756530724493", "type": "electric_scooter", "is_disabled": 0, "lat": 38.920287, "rental_uris": {"ios": "https://dc.lft.to/lastmile_qr_scan", "android": "https://dc.lft.to/lastmile_qr_scan"}, "is_reserved": 0, "fusion_lon": 0.0, "fusion_lat": 0.0, "lon": -77.03189233333333, "name": "ee4894ba4ad90ce932eb756530724493"}, {"bike_id": "9c1d9e41eb06c5612a4ac01a77e915b0", "type": "electric_bike", "is_disabled": 0, "lat": 38.861956166666666, "rental_uris": {"ios": "https://dc.lft.to/lastmile_qr_scan", "android": "https://dc.lft.to/lastmile_qr_scan"}, "is_reserved": 0, "fusion_lon": 0.0, "fusion_lat": 0.0, "lon": -76.94800483333333, "name": "9c1d9e41eb06c5612a4ac01a77e915b0"}, {"bike_id": "631c28ad71cae26d093e36d609f16c7c", "type": "electric_scooter", "is_disabled": 0, "lat": 38.930995833333334, "rental_uris": {"ios": "https://dc.lft.to/lastmile_qr_scan", "android": "https://dc.lft.to/lastmile_qr_scan"}, "is_reserved": 0, "fusion_lon": 0.0, "fusion_lat": 0.0, "lon": -77.02659016666667, "name": "631c28ad71cae26d093e36d609f16c7c"}, {"bike_id": "ea4299819bd1649151cca21a09ba206f", "type": "electric_scooter", "is_disabled": 0, "lat": 38.9180155, "rental_uris": {"ios": "https://dc.lft.to/lastmile_qr_scan", "android": "https://dc.lft.to/lastmile_qr_scan"}, "is_reserved": 0, "fusion_lon": 0.0, "fusion_lat": 0.0, "lon": -77.034414, "name": "ea4299819bd1649151cca21a09ba206f"}, {"bike_id": "0cccf8404b68eaa0919c12fa0f9cd4ad", "type": "electric_scooter", "is_disabled": 0, "lat": 38.8961885, "rental_uris": {"ios": "https://dc.lft.to/lastmile_qr_scan", "android": "https://dc.lft.to/lastmile_qr_scan"}, "is_reserved": 0, "fusion_lon": 0.0, "fusion_lat": 0.0, "lon": -76.98570216666667, "name": "0cccf8404b68eaa0919c12fa0f9cd4ad"}, {"bike_id": "900586b5e86baed86a0589d358f6ecff", "type": "electric_scooter", "is_disabled": 0, "lat": 38.95094383333333, "rental_uris": {"ios": "https://dc.lft.to/lastmile_qr_scan", "android": "https://dc.lft.to/lastmile_qr_scan"}, "is_reserved": 0, "fusion_lon": 0.0, "fusion_lat": 0.0, "lon": -77.02961866666666, "name": "900586b5e86baed86a0589d358f6ecff"}, {"bike_id": "4c2a7e93aec57ab50fd83689b8f78e00", "type": "electric_scooter", "is_disabled": 0, "lat": 38.901554833333336, "rental_uris": {"ios": "https://dc.lft.to/lastmile_qr_scan", "android": "https://dc.lft.to/lastmile_qr_scan"}, "is_reserved": 0, "fusion_lon": 0.0, "fusion_lat": 0.0, "lon": -77.00849066666666, "name": "4c2a7e93aec57ab50fd83689b8f78e00"}, {"bike_id": "ad4d9e6a7daf4f4cae3513860426749d", "type": "electric_scooter", "is_disabled": 0, "lat": 38.905147166666666, "rental_uris": {"ios": "https://dc.lft.to/lastmile_qr_scan", "android": "https://dc.lft.to/lastmile_qr_scan"}, "is_reserved": 0, "fusion_lon": 0.0, "fusion_lat": 0.0, "lon": -77.0296815, "name": "ad4d9e6a7daf4f4cae3513860426749d"}, {"bike_id": "9c1cd3975f152e874c6e1ab713fd9ad9", "type": "electric_scooter", "is_disabled": 0, "lat": 38.94620916666667, "rental_uris": {"ios": "https://dc.lft.to/lastmile_qr_scan", "android": "https://dc.lft.to/lastmile_qr_scan"}, "is_reserved": 0, "fusion_lon": 0.0, "fusion_lat": 0.0, "lon": -77.02651816666666, "name": "9c1cd3975f152e874c6e1ab713fd9ad9"}, {"bike_id": "a39f79fa38292fe9ff0b6512d0ecc265", "type": "electric_scooter", "is_disabled": 0, "lat": 38.9119575, "rental_uris": {"ios": "https://dc.lft.to/lastmile_qr_scan", "android": "https://dc.lft.to/lastmile_qr_scan"}, "is_reserved": 0, "fusion_lon": 0.0, "fusion_lat": 0.0, "lon": -77.04568666666667, "name": "a39f79fa38292fe9ff0b6512d0ecc265"}, {"bike_id": "ae803471cd23369797f066d7b1ee5baa", "type": "electric_scooter", "is_disabled": 0, "lat": 38.9235045, "rental_uris": {"ios": "https://dc.lft.to/lastmile_qr_scan", "android": "https://dc.lft.to/lastmile_qr_scan"}, "is_reserved": 0, "fusion_lon": 0.0, "fusion_lat": 0.0, "lon": -77.04150166666666, "name": "ae803471cd23369797f066d7b1ee5baa"}, {"bike_id": "598f29d2ce5077617fcb6b5bf2ea1117", "type": "electric_scooter", "is_disabled": 0, "lat": 38.90519916666667, "rental_uris": {"ios": "https://dc.lft.to/lastmile_qr_scan", "android": "https://dc.lft.to/lastmile_qr_scan"}, "is_reserved": 0, "fusion_lon": 0.0, "fusion_lat": 0.0, "lon": -77.0415805, "name": "598f29d2ce5077617fcb6b5bf2ea1117"}, {"bike_id": "4d9c144af4a28b8a84502146fad7dc4d", "type": "electric_scooter", "is_disabled": 0, "lat": 38.905061833333335, "rental_uris": {"ios": "https://dc.lft.to/lastmile_qr_scan", "android": "https://dc.lft.to/lastmile_qr_scan"}, "is_reserved": 0, "fusion_lon": 0.0, "fusion_lat": 0.0, "lon": -77.061981, "name": "4d9c144af4a28b8a84502146fad7dc4d"}, {"bike_id": "3aaed7989453599c43dc26f3c33f2de4", "type": "electric_scooter", "is_disabled": 0, "lat": 38.909473166666665, "rental_uris": {"ios": "https://dc.lft.to/lastmile_qr_scan", "android": "https://dc.lft.to/lastmile_qr_scan"}, "is_reserved": 0, "fusion_lon": 0.0, "fusion_lat": 0.0, "lon": -77.03445766666667, "name": "3aaed7989453599c43dc26f3c33f2de4"}, {"bike_id": "325f1944de9cd74ce9053f9ef133e6ac", "type": "electric_scooter", "is_disabled": 0, "lat": 38.91764966666667, "rental_uris": {"ios": "https://dc.lft.to/lastmile_qr_scan", "android": "https://dc.lft.to/lastmile_qr_scan"}, "is_reserved": 0, "fusion_lon": 0.0, "fusion_lat": 0.0, "lon": -77.04759033333333, "name": "325f1944de9cd74ce9053f9ef133e6ac"}, {"bike_id": "3521da2e7aa2b7fd41300c841201a05b", "type": "electric_scooter", "is_disabled": 0, "lat": 38.90668333333333, "rental_uris": {"ios": "https://dc.lft.to/lastmile_qr_scan", "android": "https://dc.lft.to/lastmile_qr_scan"}, "is_reserved": 0, "fusion_lon": 0.0, "fusion_lat": 0.0, "lon": -77.02698066666666, "name": "3521da2e7aa2b7fd41300c841201a05b"}, {"bike_id": "700539d6bdd9c5cc295626bf1b26b662", "type": "electric_bike", "is_disabled": 0, "lat": 38.94020283333333, "rental_uris": {"ios": "https://dc.lft.to/lastmile_qr_scan", "android": "https://dc.lft.to/lastmile_qr_scan"}, "is_reserved": 0, "fusion_lon": 0.0, "fusion_lat": 0.0, "lon": -76.97612083333334, "name": "700539d6bdd9c5cc295626bf1b26b662"}, {"bike_id": "da68c73d48216ae03cdf052540c79802", "type": "electric_bike", "is_disabled": 0, "lat": 38.956247, "rental_uris": {"ios": "https://dc.lft.to/lastmile_qr_scan", "android": "https://dc.lft.to/lastmile_qr_scan"}, "is_reserved": 0, "fusion_lon": 0.0, "fusion_lat": 0.0, "lon": -76.9387025, "name": "da68c73d48216ae03cdf052540c79802"}, {"bike_id": "09463507a3324a071c05e32ad2c3d8a1", "type": "electric_scooter", "is_disabled": 0, "lat": 38.884153, "rental_uris": {"ios": "https://dc.lft.to/lastmile_qr_scan", "android": "https://dc.lft.to/lastmile_qr_scan"}, "is_reserved": 0, "fusion_lon": 0.0, "fusion_lat": 0.0, "lon": -77.00740866666666, "name": "09463507a3324a071c05e32ad2c3d8a1"}, {"bike_id": "d3271984f536663e72bcce974ad6ba55", "type": "electric_scooter", "is_disabled": 0, "lat": 38.86372716666666, "rental_uris": {"ios": "https://dc.lft.to/lastmile_qr_scan", "android": "https://dc.lft.to/lastmile_qr_scan"}, "is_reserved": 0, "fusion_lon": 0.0, "fusion_lat": 0.0, "lon": -76.99052816666666, "name": "d3271984f536663e72bcce974ad6ba55"}, {"bike_id": "5c0e7323835fb4c86f8cc59732788caf", "type": "electric_scooter", "is_disabled": 0, "lat": 38.9223875, "rental_uris": {"ios": "https://dc.lft.to/lastmile_qr_scan", "android": "https://dc.lft.to/lastmile_qr_scan"}, "is_reserved": 0, "fusion_lon": 0.0, "fusion_lat": 0.0, "lon": -77.02949466666666, "name": "5c0e7323835fb4c86f8cc59732788caf"}, {"bike_id": "8efbea5870dfa50ae88563eaff7b09c4", "type": "electric_scooter", "is_disabled": 0, "lat": 38.924189166666665, "rental_uris": {"ios": "https://dc.lft.to/lastmile_qr_scan", "android": "https://dc.lft.to/lastmile_qr_scan"}, "is_reserved": 0, "fusion_lon": 0.0, "fusion_lat": 0.0, "lon": -77.02265083333333, "name": "8efbea5870dfa50ae88563eaff7b09c4"}, {"bike_id": "d486d35d786794479fa3f5c24379178e", "type": "electric_scooter", "is_disabled": 0, "lat": 38.98433416666666, "rental_uris": {"ios": "https://dc.lft.to/lastmile_qr_scan", "android": "https://dc.lft.to/lastmile_qr_scan"}, "is_reserved": 0, "fusion_lon": 0.0, "fusion_lat": 0.0, "lon": -77.02670233333333, "name": "d486d35d786794479fa3f5c24379178e"}, {"bike_id": "cf7a7e1139471d4dd23b1db25b973c50", "type": "electric_scooter", "is_disabled": 0, "lat": 38.93548083333334, "rental_uris": {"ios": "https://dc.lft.to/lastmile_qr_scan", "android": "https://dc.lft.to/lastmile_qr_scan"}, "is_reserved": 0, "fusion_lon": 0.0, "fusion_lat": 0.0, "lon": -77.02508766666666, "name": "cf7a7e1139471d4dd23b1db25b973c50"}, {"bike_id": "6ad670af4f0c51b326363bb04f102a4a", "type": "electric_scooter", "is_disabled": 0, "lat": 38.92827033333333, "rental_uris": {"ios": "https://dc.lft.to/lastmile_qr_scan", "android": "https://dc.lft.to/lastmile_qr_scan"}, "is_reserved": 0, "fusion_lon": 0.0, "fusion_lat": 0.0, "lon": -77.02259416666666, "name": "6ad670af4f0c51b326363bb04f102a4a"}, {"bike_id": "3ffa672c587699430210ad5a54e892ea", "type": "electric_scooter", "is_disabled": 0, "lat": 38.902636333333334, "rental_uris": {"ios": "https://dc.lft.to/lastmile_qr_scan", "android": "https://dc.lft.to/lastmile_qr_scan"}, "is_reserved": 0, "fusion_lon": 0.0, "fusion_lat": 0.0, "lon": -77.03380033333333, "name": "3ffa672c587699430210ad5a54e892ea"}, {"bike_id": "94e82d910be44fa2db8453b4c5498442", "type": "electric_scooter", "is_disabled": 0, "lat": 38.920762833333335, "rental_uris": {"ios": "https://dc.lft.to/lastmile_qr_scan", "android": "https://dc.lft.to/lastmile_qr_scan"}, "is_reserved": 0, "fusion_lon": 0.0, "fusion_lat": 0.0, "lon": -77.02512083333333, "name": "94e82d910be44fa2db8453b4c5498442"}, {"bike_id": "beb753d3ae4533507f383c97dbfeadff", "type": "electric_scooter", "is_disabled": 0, "lat": 38.925776666666664, "rental_uris": {"ios": "https://dc.lft.to/lastmile_qr_scan", "android": "https://dc.lft.to/lastmile_qr_scan"}, "is_reserved": 0, "fusion_lon": 0.0, "fusion_lat": 0.0, "lon": -77.02759783333333, "name": "beb753d3ae4533507f383c97dbfeadff"}, {"bike_id": "a567ff4fc3af67a5504bd866f8503c72", "type": "electric_scooter", "is_disabled": 0, "lat": 38.916977333333335, "rental_uris": {"ios": "https://dc.lft.to/lastmile_qr_scan", "android": "https://dc.lft.to/lastmile_qr_scan"}, "is_reserved": 0, "fusion_lon": 0.0, "fusion_lat": 0.0, "lon": -77.0079395, "name": "a567ff4fc3af67a5504bd866f8503c72"}, {"bike_id": "d1833a6595b4b8f7440277b7289391fb", "type": "electric_scooter", "is_disabled": 0, "lat": 38.92265066666667, "rental_uris": {"ios": "https://dc.lft.to/lastmile_qr_scan", "android": "https://dc.lft.to/lastmile_qr_scan"}, "is_reserved": 0, "fusion_lon": 0.0, "fusion_lat": 0.0, "lon": -77.03265466666667, "name": "d1833a6595b4b8f7440277b7289391fb"}, {"bike_id": "cbe9344a24ec97282ce73da1bc9def81", "type": "electric_scooter", "is_disabled": 0, "lat": 38.926584, "rental_uris": {"ios": "https://dc.lft.to/lastmile_qr_scan", "android": "https://dc.lft.to/lastmile_qr_scan"}, "is_reserved": 0, "fusion_lon": 0.0, "fusion_lat": 0.0, "lon": -77.0372865, "name": "cbe9344a24ec97282ce73da1bc9def81"}, {"bike_id": "981d298487c16b89e19c91dfd173dd3d", "type": "electric_scooter", "is_disabled": 0, "lat": 38.91286683333333, "rental_uris": {"ios": "https://dc.lft.to/lastmile_qr_scan", "android": "https://dc.lft.to/lastmile_qr_scan"}, "is_reserved": 0, "fusion_lon": 0.0, "fusion_lat": 0.0, "lon": -77.03852766666667, "name": "981d298487c16b89e19c91dfd173dd3d"}, {"bike_id": "257ab8e5f3c2822b3e1ae3fd8e7fb1b6", "type": "electric_scooter", "is_disabled": 0, "lat": 38.92857816666667, "rental_uris": {"ios": "https://dc.lft.to/lastmile_qr_scan", "android": "https://dc.lft.to/lastmile_qr_scan"}, "is_reserved": 0, "fusion_lon": 0.0, "fusion_lat": 0.0, "lon": -77.03218466666667, "name": "257ab8e5f3c2822b3e1ae3fd8e7fb1b6"}, {"bike_id": "1999a7f26b4b804a36c78f358a24d1fb", "type": "electric_scooter", "is_disabled": 0, "lat": 38.914170666666664, "rental_uris": {"ios": "https://dc.lft.to/lastmile_qr_scan", "android": "https://dc.lft.to/lastmile_qr_scan"}, "is_reserved": 0, "fusion_lon": 0.0, "fusion_lat": 0.0, "lon": -77.02252566666667, "name": "1999a7f26b4b804a36c78f358a24d1fb"}, {"bike_id": "7c59b8fd02d8f2520dcebfc9b99dbbd0", "type": "electric_scooter", "is_disabled": 0, "lat": 38.900158, "rental_uris": {"ios": "https://dc.lft.to/lastmile_qr_scan", "android": "https://dc.lft.to/lastmile_qr_scan"}, "is_reserved": 0, "fusion_lon": 0.0, "fusion_lat": 0.0, "lon": -77.02204516666667, "name": "7c59b8fd02d8f2520dcebfc9b99dbbd0"}, {"bike_id": "2fbf70a10c02628eb00afb3dd5102015", "type": "electric_scooter", "is_disabled": 0, "lat": 38.92657366666667, "rental_uris": {"ios": "https://dc.lft.to/lastmile_qr_scan", "android": "https://dc.lft.to/lastmile_qr_scan"}, "is_reserved": 0, "fusion_lon": 0.0, "fusion_lat": 0.0, "lon": -77.03723466666666, "name": "2fbf70a10c02628eb00afb3dd5102015"}, {"bike_id": "64b94df460753a1e5c5892c62c38827a", "type": "electric_scooter", "is_disabled": 0, "lat": 38.89012483333333, "rental_uris": {"ios": "https://dc.lft.to/lastmile_qr_scan", "android": "https://dc.lft.to/lastmile_qr_scan"}, "is_reserved": 0, "fusion_lon": 0.0, "fusion_lat": 0.0, "lon": -77.033255, "name": "64b94df460753a1e5c5892c62c38827a"}, {"bike_id": "c184ece70308f54a72652ece7296856a", "type": "electric_scooter", "is_disabled": 0, "lat": 38.91576416666667, "rental_uris": {"ios": "https://dc.lft.to/lastmile_qr_scan", "android": "https://dc.lft.to/lastmile_qr_scan"}, "is_reserved": 0, "fusion_lon": 0.0, "fusion_lat": 0.0, "lon": -77.045063, "name": "c184ece70308f54a72652ece7296856a"}, {"bike_id": "a9616799577ad264c9995326b1c8830b", "type": "electric_bike", "is_disabled": 0, "lat": 38.928604166666666, "rental_uris": {"ios": "https://dc.lft.to/lastmile_qr_scan", "android": "https://dc.lft.to/lastmile_qr_scan"}, "is_reserved": 0, "fusion_lon": 0.0, "fusion_lat": 0.0, "lon": -76.9893855, "name": "a9616799577ad264c9995326b1c8830b"}, {"bike_id": "318cfb4a8d302b51a57e3186b33af65e", "type": "electric_scooter", "is_disabled": 0, "lat": 38.933630666666666, "rental_uris": {"ios": "https://dc.lft.to/lastmile_qr_scan", "android": "https://dc.lft.to/lastmile_qr_scan"}, "is_reserved": 0, "fusion_lon": 0.0, "fusion_lat": 0.0, "lon": -77.0885985, "name": "318cfb4a8d302b51a57e3186b33af65e"}, {"bike_id": "8ce0992a3429996304992b8ff42cfead", "type": "electric_scooter", "is_disabled": 0, "lat": 38.9058485, "rental_uris": {"ios": "https://dc.lft.to/lastmile_qr_scan", "android": "https://dc.lft.to/lastmile_qr_scan"}, "is_reserved": 0, "fusion_lon": 0.0, "fusion_lat": 0.0, "lon": -77.051276, "name": "8ce0992a3429996304992b8ff42cfead"}, {"bike_id": "ff6d7900886eb0728a1c6c181fa24ed4", "type": "electric_scooter", "is_disabled": 0, "lat": 38.923649166666664, "rental_uris": {"ios": "https://dc.lft.to/lastmile_qr_scan", "android": "https://dc.lft.to/lastmile_qr_scan"}, "is_reserved": 0, "fusion_lon": 0.0, "fusion_lat": 0.0, "lon": -77.01944616666667, "name": "ff6d7900886eb0728a1c6c181fa24ed4"}, {"bike_id": "ffac1f68f6e1a2bf9a99dfd0f79a06ab", "type": "electric_bike", "is_disabled": 0, "lat": 38.8767135, "rental_uris": {"ios": "https://dc.lft.to/lastmile_qr_scan", "android": "https://dc.lft.to/lastmile_qr_scan"}, "is_reserved": 0, "fusion_lon": 0.0, "fusion_lat": 0.0, "lon": -77.0144455, "name": "ffac1f68f6e1a2bf9a99dfd0f79a06ab"}, {"bike_id": "1d348b4097af6db79ff9d5f9b6ac62aa", "type": "electric_scooter", "is_disabled": 0, "lat": 38.916746833333335, "rental_uris": {"ios": "https://dc.lft.to/lastmile_qr_scan", "android": "https://dc.lft.to/lastmile_qr_scan"}, "is_reserved": 0, "fusion_lon": 0.0, "fusion_lat": 0.0, "lon": -77.03207333333333, "name": "1d348b4097af6db79ff9d5f9b6ac62aa"}, {"bike_id": "28301d43ba5c2c97acf67b68f1231580", "type": "electric_scooter", "is_disabled": 0, "lat": 38.903714, "rental_uris": {"ios": "https://dc.lft.to/lastmile_qr_scan", "android": "https://dc.lft.to/lastmile_qr_scan"}, "is_reserved": 0, "fusion_lon": 0.0, "fusion_lat": 0.0, "lon": -77.02403983333333, "name": "28301d43ba5c2c97acf67b68f1231580"}, {"bike_id": "aa0b26af02c532233710e1246fabd79b", "type": "electric_scooter", "is_disabled": 0, "lat": 38.92756833333333, "rental_uris": {"ios": "https://dc.lft.to/lastmile_qr_scan", "android": "https://dc.lft.to/lastmile_qr_scan"}, "is_reserved": 0, "fusion_lon": 0.0, "fusion_lat": 0.0, "lon": -77.03268, "name": "aa0b26af02c532233710e1246fabd79b"}, {"bike_id": "62d20167792491509d01bf5dfa9a16a0", "type": "electric_scooter", "is_disabled": 0, "lat": 38.92103916666667, "rental_uris": {"ios": "https://dc.lft.to/lastmile_qr_scan", "android": "https://dc.lft.to/lastmile_qr_scan"}, "is_reserved": 0, "fusion_lon": 0.0, "fusion_lat": 0.0, "lon": -77.026986, "name": "62d20167792491509d01bf5dfa9a16a0"}, {"bike_id": "2915564eee1c3d19507640e30142a710", "type": "electric_scooter", "is_disabled": 0, "lat": 38.88519983333333, "rental_uris": {"ios": "https://dc.lft.to/lastmile_qr_scan", "android": "https://dc.lft.to/lastmile_qr_scan"}, "is_reserved": 0, "fusion_lon": 0.0, "fusion_lat": 0.0, "lon": -77.017143, "name": "2915564eee1c3d19507640e30142a710"}, {"bike_id": "b08c173db6d63dcec47444eaeec029d4", "type": "electric_scooter", "is_disabled": 0, "lat": 38.88883033333333, "rental_uris": {"ios": "https://dc.lft.to/lastmile_qr_scan", "android": "https://dc.lft.to/lastmile_qr_scan"}, "is_reserved": 0, "fusion_lon": 0.0, "fusion_lat": 0.0, "lon": -76.947762, "name": "b08c173db6d63dcec47444eaeec029d4"}, {"bike_id": "742d306ca1c9c858faa14048b8e47883", "type": "electric_scooter", "is_disabled": 0, "lat": 38.90496066666667, "rental_uris": {"ios": "https://dc.lft.to/lastmile_qr_scan", "android": "https://dc.lft.to/lastmile_qr_scan"}, "is_reserved": 0, "fusion_lon": 0.0, "fusion_lat": 0.0, "lon": -77.02594866666666, "name": "742d306ca1c9c858faa14048b8e47883"}, {"bike_id": "0e02920ad01dc98770ecedd82064136f", "type": "electric_scooter", "is_disabled": 0, "lat": 38.90574066666667, "rental_uris": {"ios": "https://dc.lft.to/lastmile_qr_scan", "android": "https://dc.lft.to/lastmile_qr_scan"}, "is_reserved": 0, "fusion_lon": 0.0, "fusion_lat": 0.0, "lon": -77.016433, "name": "0e02920ad01dc98770ecedd82064136f"}, {"bike_id": "e8ab637ef97f0fad48f911c7e5a59352", "type": "electric_scooter", "is_disabled": 0, "lat": 38.88389466666667, "rental_uris": {"ios": "https://dc.lft.to/lastmile_qr_scan", "android": "https://dc.lft.to/lastmile_qr_scan"}, "is_reserved": 0, "fusion_lon": 0.0, "fusion_lat": 0.0, "lon": -76.954485, "name": "e8ab637ef97f0fad48f911c7e5a59352"}, {"bike_id": "dc4208ea3668fa70291dfb5c4032f842", "type": "electric_scooter", "is_disabled": 0, "lat": 38.9000565, "rental_uris": {"ios": "https://dc.lft.to/lastmile_qr_scan", "android": "https://dc.lft.to/lastmile_qr_scan"}, "is_reserved": 0, "fusion_lon": 0.0, "fusion_lat": 0.0, "lon": -77.01199083333333, "name": "dc4208ea3668fa70291dfb5c4032f842"}, {"bike_id": "7bf805baba3e4330c0865e23948e2b3b", "type": "electric_scooter", "is_disabled": 0, "lat": 38.9035755, "rental_uris": {"ios": "https://dc.lft.to/lastmile_qr_scan", "android": "https://dc.lft.to/lastmile_qr_scan"}, "is_reserved": 0, "fusion_lon": 0.0, "fusion_lat": 0.0, "lon": -77.02720416666666, "name": "7bf805baba3e4330c0865e23948e2b3b"}, {"bike_id": "644e682efb23dabd915b14e53f329816", "type": "electric_bike", "is_disabled": 0, "lat": 38.796063333333336, "rental_uris": {"ios": "https://dc.lft.to/lastmile_qr_scan", "android": "https://dc.lft.to/lastmile_qr_scan"}, "is_reserved": 0, "fusion_lon": 0.0, "fusion_lat": 0.0, "lon": -76.99740833333334, "name": "644e682efb23dabd915b14e53f329816"}, {"bike_id": "7fcd1f33d08ea6f59a174fcd31e4d90c", "type": "electric_scooter", "is_disabled": 0, "lat": 38.92452083333333, "rental_uris": {"ios": "https://dc.lft.to/lastmile_qr_scan", "android": "https://dc.lft.to/lastmile_qr_scan"}, "is_reserved": 0, "fusion_lon": 0.0, "fusion_lat": 0.0, "lon": -77.033407, "name": "7fcd1f33d08ea6f59a174fcd31e4d90c"}, {"bike_id": "3fa054971b04474b0ef949b6e82f319e", "type": "electric_scooter", "is_disabled": 0, "lat": 38.886768333333336, "rental_uris": {"ios": "https://dc.lft.to/lastmile_qr_scan", "android": "https://dc.lft.to/lastmile_qr_scan"}, "is_reserved": 0, "fusion_lon": 0.0, "fusion_lat": 0.0, "lon": -76.99148633333333, "name": "3fa054971b04474b0ef949b6e82f319e"}, {"bike_id": "c6e6b9512aa07e5a0d7757680fcc186d", "type": "electric_scooter", "is_disabled": 0, "lat": 38.90957516666667, "rental_uris": {"ios": "https://dc.lft.to/lastmile_qr_scan", "android": "https://dc.lft.to/lastmile_qr_scan"}, "is_reserved": 0, "fusion_lon": 0.0, "fusion_lat": 0.0, "lon": -77.04866083333333, "name": "c6e6b9512aa07e5a0d7757680fcc186d"}, {"bike_id": "2f2defff48abc6a4f4fde40e3c97a445", "type": "electric_scooter", "is_disabled": 0, "lat": 38.90945966666666, "rental_uris": {"ios": "https://dc.lft.to/lastmile_qr_scan", "android": "https://dc.lft.to/lastmile_qr_scan"}, "is_reserved": 0, "fusion_lon": 0.0, "fusion_lat": 0.0, "lon": -77.03447866666667, "name": "2f2defff48abc6a4f4fde40e3c97a445"}, {"bike_id": "d4fa226f075b7c7319133983a423f301", "type": "electric_scooter", "is_disabled": 0, "lat": 38.89535983333333, "rental_uris": {"ios": "https://dc.lft.to/lastmile_qr_scan", "android": "https://dc.lft.to/lastmile_qr_scan"}, "is_reserved": 0, "fusion_lon": 0.0, "fusion_lat": 0.0, "lon": -77.0107885, "name": "d4fa226f075b7c7319133983a423f301"}, {"bike_id": "7fffb967623c52e4ba2380637a6f3370", "type": "electric_bike", "is_disabled": 0, "lat": 38.8070795, "rental_uris": {"ios": "https://dc.lft.to/lastmile_qr_scan", "android": "https://dc.lft.to/lastmile_qr_scan"}, "is_reserved": 0, "fusion_lon": 0.0, "fusion_lat": 0.0, "lon": -77.06176733333334, "name": "7fffb967623c52e4ba2380637a6f3370"}, {"bike_id": "8f4b2c3c069e4b067ee3cb82de518385", "type": "electric_scooter", "is_disabled": 0, "lat": 38.9283535, "rental_uris": {"ios": "https://dc.lft.to/lastmile_qr_scan", "android": "https://dc.lft.to/lastmile_qr_scan"}, "is_reserved": 0, "fusion_lon": 0.0, "fusion_lat": 0.0, "lon": -77.02748216666667, "name": "8f4b2c3c069e4b067ee3cb82de518385"}, {"bike_id": "520cdfd596913d1e50ab5b2d93fb9b1d", "type": "electric_scooter", "is_disabled": 0, "lat": 38.92338016666667, "rental_uris": {"ios": "https://dc.lft.to/lastmile_qr_scan", "android": "https://dc.lft.to/lastmile_qr_scan"}, "is_reserved": 0, "fusion_lon": 0.0, "fusion_lat": 0.0, "lon": -77.00190566666667, "name": "520cdfd596913d1e50ab5b2d93fb9b1d"}, {"bike_id": "7383f834ee4dc0768b4093b3cd2af455", "type": "electric_scooter", "is_disabled": 0, "lat": 38.93636033333333, "rental_uris": {"ios": "https://dc.lft.to/lastmile_qr_scan", "android": "https://dc.lft.to/lastmile_qr_scan"}, "is_reserved": 0, "fusion_lon": 0.0, "fusion_lat": 0.0, "lon": -77.05882116666666, "name": "7383f834ee4dc0768b4093b3cd2af455"}, {"bike_id": "39624b276774bb6ee03b09e20551052f", "type": "electric_scooter", "is_disabled": 0, "lat": 38.8893425, "rental_uris": {"ios": "https://dc.lft.to/lastmile_qr_scan", "android": "https://dc.lft.to/lastmile_qr_scan"}, "is_reserved": 0, "fusion_lon": 0.0, "fusion_lat": 0.0, "lon": -77.01506466666666, "name": "39624b276774bb6ee03b09e20551052f"}, {"bike_id": "f29844c64b390ec48d204639773444fa", "type": "electric_bike", "is_disabled": 0, "lat": 38.80414583333334, "rental_uris": {"ios": "https://dc.lft.to/lastmile_qr_scan", "android": "https://dc.lft.to/lastmile_qr_scan"}, "is_reserved": 0, "fusion_lon": 0.0, "fusion_lat": 0.0, "lon": -77.0555605, "name": "f29844c64b390ec48d204639773444fa"}, {"bike_id": "7ccc38c6d9c2345c81cd11f25e945297", "type": "electric_bike", "is_disabled": 0, "lat": 38.95231366666667, "rental_uris": {"ios": "https://dc.lft.to/lastmile_qr_scan", "android": "https://dc.lft.to/lastmile_qr_scan"}, "is_reserved": 0, "fusion_lon": 0.0, "fusion_lat": 0.0, "lon": -77.00761716666666, "name": "7ccc38c6d9c2345c81cd11f25e945297"}, {"bike_id": "e0e9fc69ceb28aca3bf2ecc2c6d99032", "type": "electric_scooter", "is_disabled": 0, "lat": 38.92284033333333, "rental_uris": {"ios": "https://dc.lft.to/lastmile_qr_scan", "android": "https://dc.lft.to/lastmile_qr_scan"}, "is_reserved": 0, "fusion_lon": 0.0, "fusion_lat": 0.0, "lon": -77.0296085, "name": "e0e9fc69ceb28aca3bf2ecc2c6d99032"}, {"bike_id": "09663658f570ff2a717c8e3985e1f053", "type": "electric_scooter", "is_disabled": 0, "lat": 38.922788, "rental_uris": {"ios": "https://dc.lft.to/lastmile_qr_scan", "android": "https://dc.lft.to/lastmile_qr_scan"}, "is_reserved": 0, "fusion_lon": 0.0, "fusion_lat": 0.0, "lon": -76.9946135, "name": "09663658f570ff2a717c8e3985e1f053"}, {"bike_id": "e468f9ea19f525140460c90399f0ab53", "type": "electric_scooter", "is_disabled": 0, "lat": 38.904974333333335, "rental_uris": {"ios": "https://dc.lft.to/lastmile_qr_scan", "android": "https://dc.lft.to/lastmile_qr_scan"}, "is_reserved": 0, "fusion_lon": 0.0, "fusion_lat": 0.0, "lon": -77.02004133333334, "name": "e468f9ea19f525140460c90399f0ab53"}, {"bike_id": "aff41409bfc309013d6919899c478c37", "type": "electric_scooter", "is_disabled": 0, "lat": 38.905528333333336, "rental_uris": {"ios": "https://dc.lft.to/lastmile_qr_scan", "android": "https://dc.lft.to/lastmile_qr_scan"}, "is_reserved": 0, "fusion_lon": 0.0, "fusion_lat": 0.0, "lon": -76.996224, "name": "aff41409bfc309013d6919899c478c37"}, {"bike_id": "e65a8e8bdaea093651d7641c04735595", "type": "electric_bike", "is_disabled": 0, "lat": 38.90955616666667, "rental_uris": {"ios": "https://dc.lft.to/lastmile_qr_scan", "android": "https://dc.lft.to/lastmile_qr_scan"}, "is_reserved": 0, "fusion_lon": 0.0, "fusion_lat": 0.0, "lon": -77.01834333333333, "name": "e65a8e8bdaea093651d7641c04735595"}, {"bike_id": "f1049f74990a093fe994ada003662c4d", "type": "electric_scooter", "is_disabled": 0, "lat": 38.92247716666667, "rental_uris": {"ios": "https://dc.lft.to/lastmile_qr_scan", "android": "https://dc.lft.to/lastmile_qr_scan"}, "is_reserved": 0, "fusion_lon": 0.0, "fusion_lat": 0.0, "lon": -77.03908033333333, "name": "f1049f74990a093fe994ada003662c4d"}, {"bike_id": "92449a8ea211e91a30d3249dc23ede4c", "type": "electric_bike", "is_disabled": 0, "lat": 38.870827166666665, "rental_uris": {"ios": "https://dc.lft.to/lastmile_qr_scan", "android": "https://dc.lft.to/lastmile_qr_scan"}, "is_reserved": 0, "fusion_lon": 0.0, "fusion_lat": 0.0, "lon": -77.01214466666667, "name": "92449a8ea211e91a30d3249dc23ede4c"}, {"bike_id": "0aba145c4588e64bb8837d723fed3b24", "type": "electric_scooter", "is_disabled": 0, "lat": 38.9163325, "rental_uris": {"ios": "https://dc.lft.to/lastmile_qr_scan", "android": "https://dc.lft.to/lastmile_qr_scan"}, "is_reserved": 0, "fusion_lon": 0.0, "fusion_lat": 0.0, "lon": -77.029505, "name": "0aba145c4588e64bb8837d723fed3b24"}, {"bike_id": "2f8d84f5d64b7cdeeb09da59f4ad88c5", "type": "electric_scooter", "is_disabled": 0, "lat": 38.88974016666667, "rental_uris": {"ios": "https://dc.lft.to/lastmile_qr_scan", "android": "https://dc.lft.to/lastmile_qr_scan"}, "is_reserved": 0, "fusion_lon": 0.0, "fusion_lat": 0.0, "lon": -76.98240683333333, "name": "2f8d84f5d64b7cdeeb09da59f4ad88c5"}, {"bike_id": "9111b0c3d737f2683f9d804936c9cba7", "type": "electric_scooter", "is_disabled": 0, "lat": 38.85889533333334, "rental_uris": {"ios": "https://dc.lft.to/lastmile_qr_scan", "android": "https://dc.lft.to/lastmile_qr_scan"}, "is_reserved": 0, "fusion_lon": 0.0, "fusion_lat": 0.0, "lon": -76.99725783333334, "name": "9111b0c3d737f2683f9d804936c9cba7"}, {"bike_id": "da0d04523c630f601597df51ec6ad9ca", "type": "electric_scooter", "is_disabled": 0, "lat": 38.902792833333336, "rental_uris": {"ios": "https://dc.lft.to/lastmile_qr_scan", "android": "https://dc.lft.to/lastmile_qr_scan"}, "is_reserved": 0, "fusion_lon": 0.0, "fusion_lat": 0.0, "lon": -77.003391, "name": "da0d04523c630f601597df51ec6ad9ca"}, {"bike_id": "28fa5a05f670974047a78529aac41be4", "type": "electric_scooter", "is_disabled": 0, "lat": 38.91186783333333, "rental_uris": {"ios": "https://dc.lft.to/lastmile_qr_scan", "android": "https://dc.lft.to/lastmile_qr_scan"}, "is_reserved": 0, "fusion_lon": 0.0, "fusion_lat": 0.0, "lon": -77.00399016666667, "name": "28fa5a05f670974047a78529aac41be4"}, {"bike_id": "cc415c201d6e472e8bccd6fb2607a9e1", "type": "electric_scooter", "is_disabled": 0, "lat": 38.9184865, "rental_uris": {"ios": "https://dc.lft.to/lastmile_qr_scan", "android": "https://dc.lft.to/lastmile_qr_scan"}, "is_reserved": 0, "fusion_lon": 0.0, "fusion_lat": 0.0, "lon": -77.03882283333333, "name": "cc415c201d6e472e8bccd6fb2607a9e1"}, {"bike_id": "a6ae27e8640a5e3d2f2fd7a627cd7abd", "type": "electric_scooter", "is_disabled": 0, "lat": 38.916272666666664, "rental_uris": {"ios": "https://dc.lft.to/lastmile_qr_scan", "android": "https://dc.lft.to/lastmile_qr_scan"}, "is_reserved": 0, "fusion_lon": 0.0, "fusion_lat": 0.0, "lon": -77.039778, "name": "a6ae27e8640a5e3d2f2fd7a627cd7abd"}, {"bike_id": "08fcb7e4dc8b635b2b2e86ef7c6824d2", "type": "electric_bike", "is_disabled": 0, "lat": 38.8633495, "rental_uris": {"ios": "https://dc.lft.to/lastmile_qr_scan", "android": "https://dc.lft.to/lastmile_qr_scan"}, "is_reserved": 0, "fusion_lon": 0.0, "fusion_lat": 0.0, "lon": -76.9871555, "name": "08fcb7e4dc8b635b2b2e86ef7c6824d2"}, {"bike_id": "c5a46b8470e264e4f5bd7c1c1a456e36", "type": "electric_scooter", "is_disabled": 0, "lat": 38.92239566666667, "rental_uris": {"ios": "https://dc.lft.to/lastmile_qr_scan", "android": "https://dc.lft.to/lastmile_qr_scan"}, "is_reserved": 0, "fusion_lon": 0.0, "fusion_lat": 0.0, "lon": -77.02954516666667, "name": "c5a46b8470e264e4f5bd7c1c1a456e36"}, {"bike_id": "05ee688308791788f74bf565ef45bdf2", "type": "electric_scooter", "is_disabled": 0, "lat": 38.89985466666667, "rental_uris": {"ios": "https://dc.lft.to/lastmile_qr_scan", "android": "https://dc.lft.to/lastmile_qr_scan"}, "is_reserved": 0, "fusion_lon": 0.0, "fusion_lat": 0.0, "lon": -76.95000833333333, "name": "05ee688308791788f74bf565ef45bdf2"}, {"bike_id": "c24887ce692b738d35833f866ba2934a", "type": "electric_scooter", "is_disabled": 0, "lat": 38.93175383333333, "rental_uris": {"ios": "https://dc.lft.to/lastmile_qr_scan", "android": "https://dc.lft.to/lastmile_qr_scan"}, "is_reserved": 0, "fusion_lon": 0.0, "fusion_lat": 0.0, "lon": -77.02821966666667, "name": "c24887ce692b738d35833f866ba2934a"}, {"bike_id": "5528d391a4288faf525024e3e5fb3658", "type": "electric_scooter", "is_disabled": 0, "lat": 38.93769116666667, "rental_uris": {"ios": "https://dc.lft.to/lastmile_qr_scan", "android": "https://dc.lft.to/lastmile_qr_scan"}, "is_reserved": 0, "fusion_lon": 0.0, "fusion_lat": 0.0, "lon": -77.01965366666667, "name": "5528d391a4288faf525024e3e5fb3658"}, {"bike_id": "4091d3935c1638dd3c27641ea130c5c3", "type": "electric_scooter", "is_disabled": 0, "lat": 38.893424, "rental_uris": {"ios": "https://dc.lft.to/lastmile_qr_scan", "android": "https://dc.lft.to/lastmile_qr_scan"}, "is_reserved": 0, "fusion_lon": 0.0, "fusion_lat": 0.0, "lon": -76.9938715, "name": "4091d3935c1638dd3c27641ea130c5c3"}, {"bike_id": "0d78e7c40ab7eb57423cbe68087b6f38", "type": "electric_scooter", "is_disabled": 0, "lat": 38.921612833333334, "rental_uris": {"ios": "https://dc.lft.to/lastmile_qr_scan", "android": "https://dc.lft.to/lastmile_qr_scan"}, "is_reserved": 0, "fusion_lon": 0.0, "fusion_lat": 0.0, "lon": -77.03383733333334, "name": "0d78e7c40ab7eb57423cbe68087b6f38"}, {"bike_id": "cc3a4adb2b0d654de8f66cb6ce8cecb0", "type": "electric_scooter", "is_disabled": 0, "lat": 38.899655833333334, "rental_uris": {"ios": "https://dc.lft.to/lastmile_qr_scan", "android": "https://dc.lft.to/lastmile_qr_scan"}, "is_reserved": 0, "fusion_lon": 0.0, "fusion_lat": 0.0, "lon": -77.02380666666667, "name": "cc3a4adb2b0d654de8f66cb6ce8cecb0"}, {"bike_id": "cc80274ed0dae570dabbc70d7a94e6a0", "type": "electric_scooter", "is_disabled": 0, "lat": 38.910246, "rental_uris": {"ios": "https://dc.lft.to/lastmile_qr_scan", "android": "https://dc.lft.to/lastmile_qr_scan"}, "is_reserved": 0, "fusion_lon": 0.0, "fusion_lat": 0.0, "lon": -77.007596, "name": "cc80274ed0dae570dabbc70d7a94e6a0"}, {"bike_id": "aca7b2d5e243fd08beb907dbedb291ce", "type": "electric_scooter", "is_disabled": 0, "lat": 38.93317366666667, "rental_uris": {"ios": "https://dc.lft.to/lastmile_qr_scan", "android": "https://dc.lft.to/lastmile_qr_scan"}, "is_reserved": 0, "fusion_lon": 0.0, "fusion_lat": 0.0, "lon": -77.02751683333334, "name": "aca7b2d5e243fd08beb907dbedb291ce"}, {"bike_id": "964e96452e1d89b536ef58b5c9e93006", "type": "electric_bike", "is_disabled": 0, "lat": 38.931058166666666, "rental_uris": {"ios": "https://dc.lft.to/lastmile_qr_scan", "android": "https://dc.lft.to/lastmile_qr_scan"}, "is_reserved": 0, "fusion_lon": 0.0, "fusion_lat": 0.0, "lon": -77.01847483333333, "name": "964e96452e1d89b536ef58b5c9e93006"}, {"bike_id": "db9479db330a82e6a3d1b2504d818d02", "type": "electric_scooter", "is_disabled": 0, "lat": 38.922316333333335, "rental_uris": {"ios": "https://dc.lft.to/lastmile_qr_scan", "android": "https://dc.lft.to/lastmile_qr_scan"}, "is_reserved": 0, "fusion_lon": 0.0, "fusion_lat": 0.0, "lon": -76.9753025, "name": "db9479db330a82e6a3d1b2504d818d02"}, {"bike_id": "4ac8f86058d8a5e5792641b228e7a79e", "type": "electric_scooter", "is_disabled": 0, "lat": 38.90954466666667, "rental_uris": {"ios": "https://dc.lft.to/lastmile_qr_scan", "android": "https://dc.lft.to/lastmile_qr_scan"}, "is_reserved": 0, "fusion_lon": 0.0, "fusion_lat": 0.0, "lon": -77.03951083333334, "name": "4ac8f86058d8a5e5792641b228e7a79e"}, {"bike_id": "57fe48ca8f84b3ab6dfce8aca2a7da95", "type": "electric_scooter", "is_disabled": 0, "lat": 38.8997305, "rental_uris": {"ios": "https://dc.lft.to/lastmile_qr_scan", "android": "https://dc.lft.to/lastmile_qr_scan"}, "is_reserved": 0, "fusion_lon": 0.0, "fusion_lat": 0.0, "lon": -77.02069833333333, "name": "57fe48ca8f84b3ab6dfce8aca2a7da95"}, {"bike_id": "b456e3c81369d54530147b310edbad8f", "type": "electric_scooter", "is_disabled": 0, "lat": 38.919543166666664, "rental_uris": {"ios": "https://dc.lft.to/lastmile_qr_scan", "android": "https://dc.lft.to/lastmile_qr_scan"}, "is_reserved": 0, "fusion_lon": 0.0, "fusion_lat": 0.0, "lon": -77.04232916666666, "name": "b456e3c81369d54530147b310edbad8f"}, {"bike_id": "d4df53dfdaa7c61b1563e7559531a851", "type": "electric_scooter", "is_disabled": 0, "lat": 38.876575333333335, "rental_uris": {"ios": "https://dc.lft.to/lastmile_qr_scan", "android": "https://dc.lft.to/lastmile_qr_scan"}, "is_reserved": 0, "fusion_lon": 0.0, "fusion_lat": 0.0, "lon": -76.9964025, "name": "d4df53dfdaa7c61b1563e7559531a851"},