{"data": {"bikes": [{"bike_id": "21c105f937baecdce39ae48113775ded", "fusion_lon": 0.0, "lon": -77.045078, "name": "21c105f937baecdce39ae48113775ded", "is_disabled": 0, "rental_uris": {"android": "https://dc.lft.to/lastmile_qr_scan", "ios": "https://dc.lft.to/lastmile_qr_scan"}, "type": "electric_scooter", "lat": 38.90323683333333, "is_reserved": 0, "fusion_lat": 0.0}, {"bike_id": "ed8dcd0034812c819f459ef9186de1f4", "fusion_lon": 0.0, "lon": -77.0167455, "name": "ed8dcd0034812c819f459ef9186de1f4", "is_disabled": 0, "rental_uris": {"android": "https://dc.lft.to/lastmile_qr_scan", "ios": "https://dc.lft.to/lastmile_qr_scan"}, "type": "electric_scooter", "lat": 38.8813825, "is_reserved": 0, "fusion_lat": 0.0}, {"bike_id": "4dbdd097b677fd9e4b013d819a39f44b", "fusion_lon": 0.0, "lon": -77.01203033333333, "name": "4dbdd097b677fd9e4b013d819a39f44b", "is_disabled": 0, "rental_uris": {"android": "https://dc.lft.to/lastmile_qr_scan", "ios": "https://dc.lft.to/lastmile_qr_scan"}, "type": "electric_scooter", "lat": 38.870995, "is_reserved": 0, "fusion_lat": 0.0}, {"bike_id": "4a26739dcea531bfe4c4a7fb2d90cff6", "fusion_lon": 0.0, "lon": -77.03215466666667, "name": "4a26739dcea531bfe4c4a7fb2d90cff6", "is_disabled": 0, "rental_uris": {"android": "https://dc.lft.to/lastmile_qr_scan", "ios": "https://dc.lft.to/lastmile_qr_scan"}, "type": "electric_bike", "lat": 38.933117833333334, "is_reserved": 0, "fusion_lat": 0.0}, {"bike_id": "7911ae5810a1d4b003bcf15289f8067d", "fusion_lon": 0.0, "lon": -77.00888383333333, "name": "7911ae5810a1d4b003bcf15289f8067d", "is_disabled": 0, "rental_uris": {"android": "https://dc.lft.to/lastmile_qr_scan", "ios": "https://dc.lft.to/lastmile_qr_scan"}, "type": "electric_scooter", "lat": 38.924861666666665, "is_reserved": 0, "fusion_lat": 0.0}, {"bike_id": "991b4d652bbbdea4bea18a326c28bc8d", "fusion_lon": 0.0, "lon": -76.9939965, "name": "991b4d652bbbdea4bea18a326c28bc8d", "is_disabled": 0, "rental_uris": {"android": "https://dc.lft.to/lastmile_qr_scan", "ios": "https://dc.lft.to/lastmile_qr_scan"}, "type": "electric_scooter", "lat": 38.92161766666667, "is_reserved": 0, "fusion_lat": 0.0}, {"bike_id": "db6fae19808a21f4fce015012b081878", "fusion_lon": 0.0, "lon": -77.04537783333333, "name": "db6fae19808a21f4fce015012b081878", "is_disabled": 0, "rental_uris": {"android": "https://dc.lft.to/lastmile_qr_scan", "ios": "https://dc.lft.to/lastmile_qr_scan"}, "type": "electric_scooter", "lat": 38.91321683333334, "is_reserved": 0, "fusion_lat": 0.0}, {"bike_id": "39b14cf1c368c6a6ca93423176d81419", "fusion_lon": 0.0, "lon": -76.99866583333333, "name": "39b14cf1c368c6a6ca93423176d81419", "is_disabled": 0, "rental_uris": {"android": "https://dc.lft.to/lastmile_qr_scan", "ios": "https://dc.lft.to/lastmile_qr_scan"}, "type": "electric_scooter", "lat": 38.9001735, "is_reserved": 0, "fusion_lat": 0.0}, {"bike_id": "0e1f3de9bfeba265c41334d13d1b3b0e", "fusion_lon": 0.0, "lon": -77.0237045, "name": "0e1f3de9bfeba265c41334d13d1b3b0e", "is_disabled": 0, "rental_uris": {"android": "https://dc.lft.to/lastmile_qr_scan", "ios": "https://dc.lft.to/lastmile_qr_scan"}, "type": "electric_scooter", "lat": 38.901883166666664, "is_reserved": 0, "fusion_lat": 0.0}, {"bike_id": "726d53d81682dc6334de45fa688ebfe6", "fusion_lon": 0.0, "lon": -77.027671, "name": "726d53d81682dc6334de45fa688ebfe6", "is_disabled": 0, "rental_uris": {"android": "https://dc.lft.to/lastmile_qr_scan", "ios": "https://dc.lft.to/lastmile_qr_scan"}, "type": "electric_scooter", "lat": 38.9542225, "is_reserved": 0, "fusion_lat": 0.0}, {"bike_id": "ea7388b031658c3b19dd80967b8d6020", "fusion_lon": 0.0, "lon": -77.029455, "name": "ea7388b031658c3b19dd80967b8d6020", "is_disabled": 0, "rental_uris": {"android": "https://dc.lft.to/lastmile_qr_scan", "ios": "https://dc.lft.to/lastmile_qr_scan"}, "type": "electric_scooter", "lat": 38.90488833333333, "is_reserved": 0, "fusion_lat": 0.0}, {"bike_id": "2e4ab9fa97d8b50266532d0e24d545a9", "fusion_lon": 0.0, "lon": -77.044565, "name": "2e4ab9fa97d8b50266532d0e24d545a9", "is_disabled": 0, "rental_uris": {"android": "https://dc.lft.to/lastmile_qr_scan", "ios": "https://dc.lft.to/lastmile_qr_scan"}, "type": "electric_scooter", "lat": 38.930168333333334, "is_reserved": 0, "fusion_lat": 0.0}, {"bike_id": "395c9bc77e77489620bb4db74ca58839", "fusion_lon": 0.0, "lon": -77.01643666666666, "name": "395c9bc77e77489620bb4db74ca58839", "is_disabled": 0, "rental_uris": {"android": "https://dc.lft.to/lastmile_qr_scan", "ios": "https://dc.lft.to/lastmile_qr_scan"}, "type": "electric_scooter", "lat": 38.89514233333333, "is_reserved": 0, "fusion_lat": 0.0}, {"bike_id": "f66d77dc85cd15972641e6c0d17d86d9", "fusion_lon": 0.0, "lon": -76.99166416666667, "name": "f66d77dc85cd15972641e6c0d17d86d9", "is_disabled": 0, "rental_uris": {"android": "https://dc.lft.to/lastmile_qr_scan", "ios": "https://dc.lft.to/lastmile_qr_scan"}, "type": "electric_scooter", "lat": 38.863157, "is_reserved": 0, "fusion_lat": 0.0}, {"bike_id": "4aa3e9700bade5c41242dab791baeffb", "fusion_lon": 0.0, "lon": -76.977294, "name": "4aa3e9700bade5c41242dab791baeffb", "is_disabled": 0, "rental_uris": {"android": "https://dc.lft.to/lastmile_qr_scan", "ios": "https://dc.lft.to/lastmile_qr_scan"}, "type": "electric_scooter", "lat": 38.89515083333333, "is_reserved": 0, "fusion_lat": 0.0}, {"bike_id": "486742680cb7b3d1934db95f4b4975cb", "fusion_lon": 0.0, "lon": -77.06833933333333, "name": "486742680cb7b3d1934db95f4b4975cb", "is_disabled": 0, "rental_uris": {"android": "https://dc.lft.to/lastmile_qr_scan", "ios": "https://dc.lft.to/lastmile_qr_scan"}, "type": "electric_scooter", "lat": 38.952954, "is_reserved": 0, "fusion_lat": 0.0}, {"bike_id": "895d896008b56c71b15dfbf6f3ee4dc8", "fusion_lon": 0.0, "lon": -76.93987333333334, "name": "895d896008b56c71b15dfbf6f3ee4dc8", "is_disabled": 0, "rental_uris": {"android": "https://dc.lft.to/lastmile_qr_scan", "ios": "https://dc.lft.to/lastmile_qr_scan"}, "type": "electric_scooter", "lat": 38.899782, "is_reserved": 0, "fusion_lat": 0.0}, {"bike_id": "0bfb8f4953e7053d15b11b513203b596", "fusion_lon": 0.0, "lon": -77.03831466666666, "name": "0bfb8f4953e7053d15b11b513203b596", "is_disabled": 0, "rental_uris": {"android": "https://dc.lft.to/lastmile_qr_scan", "ios": "https://dc.lft.to/lastmile_qr_scan"}, "type": "electric_scooter", "lat": 38.906747, "is_reserved": 0, "fusion_lat": 0.0}, {"bike_id": "5953934f8485c8b797ab66bb56b4fc62", "fusion_lon": 0.0, "lon": -76.93226833333334, "name": "5953934f8485c8b797ab66bb56b4fc62", "is_disabled": 0, "rental_uris": {"android": "https://dc.lft.to/lastmile_qr_scan", "ios": "https://dc.lft.to/lastmile_qr_scan"}, "type": "electric_scooter", "lat": 38.89883066666667, "is_reserved": 0, "fusion_lat": 0.0}, {"bike_id": "6ccfbf3a80f3dcf280a7a0aec98c47f8", "fusion_lon": 0.0, "lon": -77.03826916666667, "name": "6ccfbf3a80f3dcf280a7a0aec98c47f8", "is_disabled": 0, "rental_uris": {"android": "https://dc.lft.to/lastmile_qr_scan", "ios": "https://dc.lft.to/lastmile_qr_scan"}, "type": "electric_scooter", "lat": 38.9067355, "is_reserved": 0, "fusion_lat": 0.0}, {"bike_id": "fa4242ecac77583f4e41cb43956fa0ef", "fusion_lon": 0.0, "lon": -77.05755783333333, "name": "fa4242ecac77583f4e41cb43956fa0ef", "is_disabled": 0, "rental_uris": {"android": "https://dc.lft.to/lastmile_qr_scan", "ios": "https://dc.lft.to/lastmile_qr_scan"}, "type": "electric_scooter", "lat": 38.9243445, "is_reserved": 0, "fusion_lat": 0.0}, {"bike_id": "1159e6ddd87cb23bc27e262261665719", "fusion_lon": 0.0, "lon": -77.02426933333334, "name": "1159e6ddd87cb23bc27e262261665719", "is_disabled": 0, "rental_uris": {"android": "https://dc.lft.to/lastmile_qr_scan", "ios": "https://dc.lft.to/lastmile_qr_scan"}, "type": "electric_scooter", "lat": 38.919397333333336, "is_reserved": 0, "fusion_lat": 0.0}, {"bike_id": "cfe5f94b067e32274e5c177e3923a0e7", "fusion_lon": 0.0, "lon": -77.038481, "name": "cfe5f94b067e32274e5c177e3923a0e7", "is_disabled": 0, "rental_uris": {"android": "https://dc.lft.to/lastmile_qr_scan", "ios": "https://dc.lft.to/lastmile_qr_scan"}, "type": "electric_scooter", "lat": 38.91632583333333, "is_reserved": 0, "fusion_lat": 0.0}, {"bike_id": "aa5ce61d18a3676c8bbf9ba5b4529848", "fusion_lon": 0.0, "lon": -77.02696883333333, "name": "aa5ce61d18a3676c8bbf9ba5b4529848", "is_disabled": 0, "rental_uris": {"android": "https://dc.lft.to/lastmile_qr_scan", "ios": "https://dc.lft.to/lastmile_qr_scan"}, "type": "electric_scooter", "lat": 38.924008, "is_reserved": 0, "fusion_lat": 0.0}, {"bike_id": "afba675fd372538a0291daa743fd8550", "fusion_lon": 0.0, "lon": -76.98617866666666, "name": "afba675fd372538a0291daa743fd8550", "is_disabled": 0, "rental_uris": {"android": "https://dc.lft.to/lastmile_qr_scan", "ios": "https://dc.lft.to/lastmile_qr_scan"}, "type": "electric_scooter", "lat": 38.93829483333333, "is_reserved": 0, "fusion_lat": 0.0}, {"bike_id": "cfb5256b708b10dbca0655767716f001", "fusion_lon": 0.0, "lon": -77.018538, "name": "cfb5256b708b10dbca0655767716f001", "is_disabled": 0, "rental_uris": {"android": "https://dc.lft.to/lastmile_qr_scan", "ios": "https://dc.lft.to/lastmile_qr_scan"}, "type": "electric_scooter", "lat": 38.91528366666667, "is_reserved": 0, "fusion_lat": 0.0}, {"bike_id": "49690848b1f788965b70d7cb98b30b60", "fusion_lon": 0.0, "lon": -77.0272475, "name": "49690848b1f788965b70d7cb98b30b60", "is_disabled": 0, "rental_uris": {"android": "https://dc.lft.to/lastmile_qr_scan", "ios": "https://dc.lft.to/lastmile_qr_scan"}, "type": "electric_scooter", "lat": 38.94955933333333, "is_reserved": 0, "fusion_lat": 0.0}, {"bike_id": "04036dea2fe2867b19c0654dd8d7dc7a", "fusion_lon": 0.0, "lon": -76.93613416666666, "name": "04036dea2fe2867b19c0654dd8d7dc7a", "is_disabled": 0, "rental_uris": {"android": "https://dc.lft.to/lastmile_qr_scan", "ios": "https://dc.lft.to/lastmile_qr_scan"}, "type": "electric_scooter", "lat": 38.88671516666667, "is_reserved": 0, "fusion_lat": 0.0}, {"bike_id": "89b21720307102bf7424b4b69e24df7a", "fusion_lon": 0.0, "lon": -77.01221483333333, "name": "89b21720307102bf7424b4b69e24df7a", "is_disabled": 0, "rental_uris": {"android": "https://dc.lft.to/lastmile_qr_scan", "ios": "https://dc.lft.to/lastmile_qr_scan"}, "type": "electric_scooter", "lat": 38.91548816666667, "is_reserved": 0, "fusion_lat": 0.0}, {"bike_id": "8e92253ed77b76d2449f63771d54ca1d", "fusion_lon": 0.0, "lon": -76.99779383333333, "name": "8e92253ed77b76d2449f63771d54ca1d", "is_disabled": 0, "rental_uris": {"android": "https://dc.lft.to/lastmile_qr_scan", "ios": "https://dc.lft.to/lastmile_qr_scan"}, "type": "electric_scooter", "lat": 38.909104, "is_reserved": 0, "fusion_lat": 0.0}, {"bike_id": "5888194702e07d8ca2abe0bf3f04a75d", "fusion_lon": 0.0, "lon": -77.025065, "name": "5888194702e07d8ca2abe0bf3f04a75d", "is_disabled": 0, "rental_uris": {"android": "https://dc.lft.to/lastmile_qr_scan", "ios": "https://dc.lft.to/lastmile_qr_scan"}, "type": "electric_scooter", "lat": 38.91562583333334, "is_reserved": 0, "fusion_lat": 0.0}, {"bike_id": "2f62c8d937a2aa04841590ef0de6ba48", "fusion_lon": 0.0, "lon": -77.0123125, "name": "2f62c8d937a2aa04841590ef0de6ba48", "is_disabled": 0, "rental_uris": {"android": "https://dc.lft.to/lastmile_qr_scan", "ios": "https://dc.lft.to/lastmile_qr_scan"}, "type": "electric_scooter", "lat": 38.91529233333333, "is_reserved": 0, "fusion_lat": 0.0}, {"bike_id": "855863b7872739247143683d56192782", "fusion_lon": 0.0, "lon": -77.03644383333334, "name": "855863b7872739247143683d56192782", "is_disabled": 0, "rental_uris": {"android": "https://dc.lft.to/lastmile_qr_scan", "ios": "https://dc.lft.to/lastmile_qr_scan"}, "type": "electric_scooter", "lat": 38.931766833333334, "is_reserved": 0, "fusion_lat": 0.0}, {"bike_id": "25a7485d13382830c483967fb0759ef9", "fusion_lon": 0.0, "lon": -77.027166, "name": "25a7485d13382830c483967fb0759ef9", "is_disabled": 0, "rental_uris": {"android": "https://dc.lft.to/lastmile_qr_scan", "ios": "https://dc.lft.to/lastmile_qr_scan"}, "type": "electric_scooter", "lat": 38.90672683333333, "is_reserved": 0, "fusion_lat": 0.0}, {"bike_id": "56c309eb3c1dfa786044db183f56f0be", "fusion_lon": 0.0, "lon": -76.996127, "name": "56c309eb3c1dfa786044db183f56f0be", "is_disabled": 0, "rental_uris": {"android": "https://dc.lft.to/lastmile_qr_scan", "ios": "https://dc.lft.to/lastmile_qr_scan"}, "type": "electric_scooter", "lat": 38.903680666666666, "is_reserved": 0, "fusion_lat": 0.0}, {"bike_id": "f66174d675b750786f9db039d7491e53", "fusion_lon": 0.0, "lon": -77.04803483333333, "name": "f66174d675b750786f9db039d7491e53", "is_disabled": 0, "rental_uris": {"android": "https://dc.lft.to/lastmile_qr_scan", "ios": "https://dc.lft.to/lastmile_qr_scan"}, "type": "electric_scooter", "lat": 38.892247, "is_reserved": 0, "fusion_lat": 0.0}, {"bike_id": "f60051e1abeb4b6ada9796ac4604d090", "fusion_lon": 0.0, "lon": -77.03250016666667, "name": "f60051e1abeb4b6ada9796ac4604d090", "is_disabled": 0, "rental_uris": {"android": "https://dc.lft.to/lastmile_qr_scan", "ios": "https://dc.lft.to/lastmile_qr_scan"}, "type": "electric_scooter", "lat": 38.92856783333333, "is_reserved": 0, "fusion_lat": 0.0}, {"bike_id": "37e8622ea6201fca8a8ec1ffc7ecc06b", "fusion_lon": 0.0, "lon": -77.0259685, "name": "37e8622ea6201fca8a8ec1ffc7ecc06b", "is_disabled": 0, "rental_uris": {"android": "https://dc.lft.to/lastmile_qr_scan", "ios": "https://dc.lft.to/lastmile_qr_scan"}, "type": "electric_scooter", "lat": 38.905152333333334, "is_reserved": 0, "fusion_lat": 0.0}, {"bike_id": "e291d5330027d2ecdfed61da5d8b4311", "fusion_lon": 0.0, "lon": -77.02561566666667, "name": "e291d5330027d2ecdfed61da5d8b4311", "is_disabled": 0, "rental_uris": {"android": "https://dc.lft.to/lastmile_qr_scan", "ios": "https://dc.lft.to/lastmile_qr_scan"}, "type": "electric_scooter", "lat": 38.9253105, "is_reserved": 0, "fusion_lat": 0.0}, {"bike_id": "c404010a3eb222b9b5e71cf46124d410", "fusion_lon": 0.0, "lon": -76.98838966666666, "name": "c404010a3eb222b9b5e71cf46124d410", "is_disabled": 0, "rental_uris": {"android": "https://dc.lft.to/lastmile_qr_scan", "ios": "https://dc.lft.to/lastmile_qr_scan"}, "type": "electric_scooter", "lat": 38.900370833333334, "is_reserved": 0, "fusion_lat": 0.0}, {"bike_id": "894cc8e5a9f9303551506c235c70bd48", "fusion_lon": 0.0, "lon": -77.03288916666666, "name": "894cc8e5a9f9303551506c235c70bd48", "is_disabled": 0, "rental_uris": {"android": "https://dc.lft.to/lastmile_qr_scan", "ios": "https://dc.lft.to/lastmile_qr_scan"}, "type": "electric_scooter", "lat": 38.93445116666667, "is_reserved": 0, "fusion_lat": 0.0}, {"bike_id": "bc205f8e88cc8f0cf63afc0c0f575bec", "fusion_lon": 0.0, "lon": -77.02085833333334, "name": "bc205f8e88cc8f0cf63afc0c0f575bec", "is_disabled": 0, "rental_uris": {"android": "https://dc.lft.to/lastmile_qr_scan", "ios": "https://dc.lft.to/lastmile_qr_scan"}, "type": "electric_scooter", "lat": 38.92704766666667, "is_reserved": 0, "fusion_lat": 0.0}, {"bike_id": "27d51dab9da05b035dc7916baeffb1ab", "fusion_lon": 0.0, "lon": -77.125286, "name": "27d51dab9da05b035dc7916baeffb1ab", "is_disabled": 0, "rental_uris": {"android": "https://dc.lft.to/lastmile_qr_scan", "ios": "https://dc.lft.to/lastmile_qr_scan"}, "type": "electric_bike", "lat": 39.05635933333333, "is_reserved": 0, "fusion_lat": 0.0}, {"bike_id": "d32d6f836c5ec0b00eb1885e948e4cf8", "fusion_lon": 0.0, "lon": -76.984968, "name": "d32d6f836c5ec0b00eb1885e948e4cf8", "is_disabled": 0, "rental_uris": {"android": "https://dc.lft.to/lastmile_qr_scan", "ios": "https://dc.lft.to/lastmile_qr_scan"}, "type": "electric_scooter", "lat": 38.86676816666667, "is_reserved": 0, "fusion_lat": 0.0}, {"bike_id": "b45b45dfa907f17809a3f9c5e272da59", "fusion_lon": 0.0, "lon": -77.03467616666667, "name": "b45b45dfa907f17809a3f9c5e272da59", "is_disabled": 0, "rental_uris": {"android": "https://dc.lft.to/lastmile_qr_scan", "ios": "https://dc.lft.to/lastmile_qr_scan"}, "type": "electric_scooter", "lat": 38.90268283333333, "is_reserved": 0, "fusion_lat": 0.0}, {"bike_id": "1785d5b143b2f9cab034a082d49a6691", "fusion_lon": 0.0, "lon": -77.017798, "name": "1785d5b143b2f9cab034a082d49a6691", "is_disabled": 0, "rental_uris": {"android": "https://dc.lft.to/lastmile_qr_scan", "ios": "https://dc.lft.to/lastmile_qr_scan"}, "type": "electric_scooter", "lat": 38.944204166666665, "is_reserved": 0, "fusion_lat": 0.0}, {"bike_id": "dc56d0fd575285752839b9d5b2b2d224", "fusion_lon": 0.0, "lon": -77.02375983333333, "name": "dc56d0fd575285752839b9d5b2b2d224", "is_disabled": 0, "rental_uris": {"android": "https://dc.lft.to/lastmile_qr_scan", "ios": "https://dc.lft.to/lastmile_qr_scan"}, "type": "electric_scooter", "lat": 38.902042, "is_reserved": 0, "fusion_lat": 0.0}, {"bike_id": "87840c741e52c600feb3ed7719439b6d", "fusion_lon": 0.0, "lon": -76.99504466666667, "name": "87840c741e52c600feb3ed7719439b6d", "is_disabled": 0, "rental_uris": {"android": "https://dc.lft.to/lastmile_qr_scan", "ios": "https://dc.lft.to/lastmile_qr_scan"}, "type": "electric_scooter", "lat": 38.89908616666666, "is_reserved": 0, "fusion_lat": 0.0}, {"bike_id": "ecdaedc141aa044bbb34fcfa402f4507", "fusion_lon": 0.0, "lon": -77.03869016666667, "name": "ecdaedc141aa044bbb34fcfa402f4507", "is_disabled": 0, "rental_uris": {"android": "https://dc.lft.to/lastmile_qr_scan", "ios": "https://dc.lft.to/lastmile_qr_scan"}, "type": "electric_scooter", "lat": 38.92151666666667, "is_reserved": 0, "fusion_lat": 0.0}, {"bike_id": "4f3391ce629c6f93bccc30d625dfce80", "fusion_lon": 0.0, "lon": -76.997283, "name": "4f3391ce629c6f93bccc30d625dfce80", "is_disabled": 0, "rental_uris": {"android": "https://dc.lft.to/lastmile_qr_scan", "ios": "https://dc.lft.to/lastmile_qr_scan"}, "type": "electric_scooter", "lat": 38.907924666666666, "is_reserved": 0, "fusion_lat": 0.0}, {"bike_id": "1cd1ef24dbcfad60a40a79f52c660368", "fusion_lon": 0.0, "lon": -76.9463785, "name": "1cd1ef24dbcfad60a40a79f52c660368", "is_disabled": 0, "rental_uris": {"android": "https://dc.lft.to/lastmile_qr_scan", "ios": "https://dc.lft.to/lastmile_qr_scan"}, "type": "electric_scooter", "lat": 38.898437666666666, "is_reserved": 0, "fusion_lat": 0.0}, {"bike_id": "30b52fdd3d7d690bb035680aeafe0c74", "fusion_lon": 0.0, "lon": -77.03468116666667, "name": "30b52fdd3d7d690bb035680aeafe0c74", "is_disabled": 0, "rental_uris": {"android": "https://dc.lft.to/lastmile_qr_scan", "ios": "https://dc.lft.to/lastmile_qr_scan"}, "type": "electric_scooter", "lat": 38.907245833333334, "is_reserved": 0, "fusion_lat": 0.0}, {"bike_id": "ae4b6f133c0b185ec28e3fc5e8255696", "fusion_lon": 0.0, "lon": -77.03694916666667, "name": "ae4b6f133c0b185ec28e3fc5e8255696", "is_disabled": 0, "rental_uris": {"android": "https://dc.lft.to/lastmile_qr_scan", "ios": "https://dc.lft.to/lastmile_qr_scan"}, "type": "electric_scooter", "lat": 38.916495, "is_reserved": 0, "fusion_lat": 0.0}, {"bike_id": "928adcd432d5338670a602e34846b4e0", "fusion_lon": 0.0, "lon": -77.02953466666666, "name": "928adcd432d5338670a602e34846b4e0", "is_disabled": 0, "rental_uris": {"android": "https://dc.lft.to/lastmile_qr_scan", "ios": "https://dc.lft.to/lastmile_qr_scan"}, "type": "electric_scooter", "lat": 38.905043666666664, "is_reserved": 0, "fusion_lat": 0.0}, {"bike_id": "4bcb7c0a355979afbb3ef5e4a4296f93", "fusion_lon": 0.0, "lon": -77.03031333333334, "name": "4bcb7c0a355979afbb3ef5e4a4296f93", "is_disabled": 0, "rental_uris": {"android": "https://dc.lft.to/lastmile_qr_scan", "ios": "https://dc.lft.to/lastmile_qr_scan"}, "type": "electric_scooter", "lat": 38.89631766666667, "is_reserved": 0, "fusion_lat": 0.0}, {"bike_id": "e1cbe854ade7a3d12becc5c128948cb1", "fusion_lon": 0.0, "lon": -77.053224, "name": "e1cbe854ade7a3d12becc5c128948cb1", "is_disabled": 0, "rental_uris": {"android": "https://dc.lft.to/lastmile_qr_scan", "ios": "https://dc.lft.to/lastmile_qr_scan"}, "type": "electric_scooter", "lat": 38.92793783333333, "is_reserved": 0, "fusion_lat": 0.0}, {"bike_id": "5937a3688c974ace3921f4373a2e03c7", "fusion_lon": 0.0, "lon": -76.99778816666667, "name": "5937a3688c974ace3921f4373a2e03c7", "is_disabled": 0, "rental_uris": {"android": "https://dc.lft.to/lastmile_qr_scan", "ios": "https://dc.lft.to/lastmile_qr_scan"}, "type": "electric_bike", "lat": 38.86210666666667, "is_reserved": 0, "fusion_lat": 0.0}, {"bike_id": "e742d11d056014bb99570ec744f6c4d2", "fusion_lon": 0.0, "lon": -77.018609, "name": "e742d11d056014bb99570ec744f6c4d2", "is_disabled": 0, "rental_uris": {"android": "https://dc.lft.to/lastmile_qr_scan", "ios": "https://dc.lft.to/lastmile_qr_scan"}, "type": "electric_scooter", "lat": 38.89996383333333, "is_reserved": 0, "fusion_lat": 0.0}, {"bike_id": "5349675171bb5e186898e587de0d75ff", "fusion_lon": 0.0, "lon": -77.050067, "name": "5349675171bb5e186898e587de0d75ff", "is_disabled": 0, "rental_uris": {"android": "https://dc.lft.to/lastmile_qr_scan", "ios": "https://dc.lft.to/lastmile_qr_scan"}, "type": "electric_scooter", "lat": 38.892275833333336, "is_reserved": 0, "fusion_lat": 0.0}, {"bike_id": "556bc933ccd7df854213c82e801f08b8", "fusion_lon": 0.0, "lon": -77.02394833333334, "name": "556bc933ccd7df854213c82e801f08b8", "is_disabled": 0, "rental_uris": {"android": "https://dc.lft.to/lastmile_qr_scan", "ios": "https://dc.lft.to/lastmile_qr_scan"}, "type": "electric_scooter", "lat": 38.90197233333333, "is_reserved": 0, "fusion_lat": 0.0}, {"bike_id": "a04c57952bb3ab2e9d9b73d18342da55", "fusion_lon": 0.0, "lon": -76.9852045, "name": "a04c57952bb3ab2e9d9b73d18342da55", "is_disabled": 0, "rental_uris": {"android": "https://dc.lft.to/lastmile_qr_scan", "ios": "https://dc.lft.to/lastmile_qr_scan"}, "type": "electric_scooter", "lat": 38.866548333333334, "is_reserved": 0, "fusion_lat": 0.0}, {"bike_id": "1b25aba874a0c4fd91b0747dda988d2a", "fusion_lon": 0.0, "lon": -77.053151, "name": "1b25aba874a0c4fd91b0747dda988d2a", "is_disabled": 0, "rental_uris": {"android": "https://dc.lft.to/lastmile_qr_scan", "ios": "https://dc.lft.to/lastmile_qr_scan"}, "type": "electric_scooter", "lat": 38.90266966666667, "is_reserved": 0, "fusion_lat": 0.0}, {"bike_id": "8f149072b2b959055f1bac5003a4dbf4", "fusion_lon": 0.0, "lon": -77.002103, "name": "8f149072b2b959055f1bac5003a4dbf4", "is_disabled": 0, "rental_uris": {"android": "https://dc.lft.to/lastmile_qr_scan", "ios": "https://dc.lft.to/lastmile_qr_scan"}, "type": "electric_scooter", "lat": 38.90025716666667, "is_reserved": 0, "fusion_lat": 0.0}, {"bike_id": "627d5150ae7198c533bcfbd1e3199a2b", "fusion_lon": 0.0, "lon": -76.93546866666667, "name": "627d5150ae7198c533bcfbd1e3199a2b", "is_disabled": 0, "rental_uris": {"android": "https://dc.lft.to/lastmile_qr_scan", "ios": "https://dc.lft.to/lastmile_qr_scan"}, "type": "electric_bike", "lat": 38.95556783333333, "is_reserved": 0, "fusion_lat": 0.0}, {"bike_id": "09ae4ed8b773fe88d9e6b29d9e7fdca9", "fusion_lon": 0.0, "lon": -77.03968633333334, "name": "09ae4ed8b773fe88d9e6b29d9e7fdca9", "is_disabled": 0, "rental_uris": {"android": "https://dc.lft.to/lastmile_qr_scan", "ios": "https://dc.lft.to/lastmile_qr_scan"}, "type": "electric_scooter", "lat": 38.90736016666666, "is_reserved": 0, "fusion_lat": 0.0}, {"bike_id": "edeb23eaf3549d8d9eb9510da46ac7b3", "fusion_lon": 0.0, "lon": -76.93197683333334, "name": "edeb23eaf3549d8d9eb9510da46ac7b3", "is_disabled": 0, "rental_uris": {"android": "https://dc.lft.to/lastmile_qr_scan", "ios": "https://dc.lft.to/lastmile_qr_scan"}, "type": "electric_scooter", "lat": 38.898791, "is_reserved": 0, "fusion_lat": 0.0}, {"bike_id": "f3a1979f64dada8396b34b171ac9985e", "fusion_lon": 0.0, "lon": -77.05174566666666, "name": "f3a1979f64dada8396b34b171ac9985e", "is_disabled": 0, "rental_uris": {"android": "https://dc.lft.to/lastmile_qr_scan", "ios": "https://dc.lft.to/lastmile_qr_scan"}, "type": "electric_scooter", "lat": 38.90537716666667, "is_reserved": 0, "fusion_lat": 0.0}, {"bike_id": "43621afcace642cb6bd7ef9f9fb82d35", "fusion_lon": 0.0, "lon": -77.03547733333333, "name": "43621afcace642cb6bd7ef9f9fb82d35", "is_disabled": 0, "rental_uris": {"android": "https://dc.lft.to/lastmile_qr_scan", "ios": "https://dc.lft.to/lastmile_qr_scan"}, "type": "electric_scooter", "lat": 38.924162833333334, "is_reserved": 0, "fusion_lat": 0.0}, {"bike_id": "35cba6d43157519a840042fa6911d053", "fusion_lon": 0.0, "lon": -76.98503633333333, "name": "35cba6d43157519a840042fa6911d053", "is_disabled": 0, "rental_uris": {"android": "https://dc.lft.to/lastmile_qr_scan", "ios": "https://dc.lft.to/lastmile_qr_scan"}, "type": "electric_scooter", "lat": 38.866598, "is_reserved": 0, "fusion_lat": 0.0}, {"bike_id": "bfae2e24b68f328721a4623d08b67762", "fusion_lon": 0.0, "lon": -77.02924283333333, "name": "bfae2e24b68f328721a4623d08b67762", "is_disabled": 0, "rental_uris": {"android": "https://dc.lft.to/lastmile_qr_scan", "ios": "https://dc.lft.to/lastmile_qr_scan"}, "type": "electric_scooter", "lat": 38.904926833333334, "is_reserved": 0, "fusion_lat": 0.0}, {"bike_id": "a0abf482d0714da019ff2ab93d375d9c", "fusion_lon": 0.0, "lon": -77.04486016666667, "name": "a0abf482d0714da019ff2ab93d375d9c", "is_disabled": 0, "rental_uris": {"android": "https://dc.lft.to/lastmile_qr_scan", "ios": "https://dc.lft.to/lastmile_qr_scan"}, "type": "electric_scooter", "lat": 38.9223495, "is_reserved": 0, "fusion_lat": 0.0}, {"bike_id": "a7f625e1ebf62cb25bf5eeea31e29452", "fusion_lon": 0.0, "lon": -77.00196366666667, "name": "a7f625e1ebf62cb25bf5eeea31e29452", "is_disabled": 0, "rental_uris": {"android": "https://dc.lft.to/lastmile_qr_scan", "ios": "https://dc.lft.to/lastmile_qr_scan"}, "type": "electric_scooter", "lat": 38.90038283333333, "is_reserved": 0, "fusion_lat": 0.0}, {"bike_id": "1f9658968543c007c03988353ffc2aa8", "fusion_lon": 0.0, "lon": -77.01581683333333, "name": "1f9658968543c007c03988353ffc2aa8", "is_disabled": 0, "rental_uris": {"android": "https://dc.lft.to/lastmile_qr_scan", "ios": "https://dc.lft.to/lastmile_qr_scan"}, "type": "electric_scooter", "lat": 38.89181133333334, "is_reserved": 0, "fusion_lat": 0.0}, {"bike_id": "4188e5b346392c0c036aeaa337aef762", "fusion_lon": 0.0, "lon": -76.99093166666667, "name": "4188e5b346392c0c036aeaa337aef762", "is_disabled": 0, "rental_uris": {"android": "https://dc.lft.to/lastmile_qr_scan", "ios": "https://dc.lft.to/lastmile_qr_scan"}, "type": "electric_scooter", "lat": 38.88230866666667, "is_reserved": 0, "fusion_lat": 0.0}, {"bike_id": "21afe4d398b0f22b1a031835b35550c0", "fusion_lon": 0.0, "lon": -77.05118783333333, "name": "21afe4d398b0f22b1a031835b35550c0", "is_disabled": 0, "rental_uris": {"android": "https://dc.lft.to/lastmile_qr_scan", "ios": "https://dc.lft.to/lastmile_qr_scan"}, "type": "electric_scooter", "lat": 38.905454166666665, "is_reserved": 0, "fusion_lat": 0.0}, {"bike_id": "cf7ff0c3ed9c9c05a9d79e85b5d0bdda", "fusion_lon": 0.0, "lon": -77.02827833333333, "name": "cf7ff0c3ed9c9c05a9d79e85b5d0bdda", "is_disabled": 0, "rental_uris": {"android": "https://dc.lft.to/lastmile_qr_scan", "ios": "https://dc.lft.to/lastmile_qr_scan"}, "type": "electric_scooter", "lat": 38.93229483333333, "is_reserved": 0, "fusion_lat": 0.0}, {"bike_id": "4810d82ab5d120994f84ca31b558444d", "fusion_lon": 0.0, "lon": -77.055848, "name": "4810d82ab5d120994f84ca31b558444d", "is_disabled": 0, "rental_uris": {"android": "https://dc.lft.to/lastmile_qr_scan", "ios": "https://dc.lft.to/lastmile_qr_scan"}, "type": "electric_scooter", "lat": 38.89324366666666, "is_reserved": 0, "fusion_lat": 0.0}, {"bike_id": "249584027cdc0e8ccd14606dfbcfa16e", "fusion_lon": 0.0, "lon": -76.9802765, "name": "249584027cdc0e8ccd14606dfbcfa16e", "is_disabled": 0, "rental_uris": {"android": "https://dc.lft.to/lastmile_qr_scan", "ios": "https://dc.lft.to/lastmile_qr_scan"}, "type": "electric_scooter", "lat": 38.90381033333333, "is_reserved": 0, "fusion_lat": 0.0}, {"bike_id": "5aa740d41854cd639bd575799f702717", "fusion_lon": 0.0, "lon": -77.04660216666667, "name": "5aa740d41854cd639bd575799f702717", "is_disabled": 0, "rental_uris": {"android": "https://dc.lft.to/lastmile_qr_scan", "ios": "https://dc.lft.to/lastmile_qr_scan"}, "type": "electric_scooter", "lat": 38.90555033333333, "is_reserved": 0, "fusion_lat": 0.0}, {"bike_id": "4859e5a04af24148335f94ba90ff8c2a", "fusion_lon": 0.0, "lon": -77.04153483333333, "name": "4859e5a04af24148335f94ba90ff8c2a", "is_disabled": 0, "rental_uris": {"android": "https://dc.lft.to/lastmile_qr_scan", "ios": "https://dc.lft.to/lastmile_qr_scan"}, "type": "electric_scooter", "lat": 38.91591866666667, "is_reserved": 0, "fusion_lat": 0.0}, {"bike_id": "892d378be04b17240c5ecb77e1ca31b8", "fusion_lon": 0.0, "lon": -76.99612733333333, "name": "892d378be04b17240c5ecb77e1ca31b8", "is_disabled": 0, "rental_uris": {"android": "https://dc.lft.to/lastmile_qr_scan", "ios": "https://dc.lft.to/lastmile_qr_scan"}, "type": "electric_scooter", "lat": 38.90060733333333, "is_reserved": 0, "fusion_lat": 0.0}, {"bike_id": "0b3f54a8af0533ea11ac27c34c25c3af", "fusion_lon": 0.0, "lon": -76.99872233333333, "name": "0b3f54a8af0533ea11ac27c34c25c3af", "is_disabled": 0, "rental_uris": {"android": "https://dc.lft.to/lastmile_qr_scan", "ios": "https://dc.lft.to/lastmile_qr_scan"}, "type": "electric_scooter", "lat": 38.9002495, "is_reserved": 0, "fusion_lat": 0.0}, {"bike_id": "d3b83f964e1ed27a24f1bc1e716b3664", "fusion_lon": 0.0, "lon": -77.02811616666666, "name": "d3b83f964e1ed27a24f1bc1e716b3664", "is_disabled": 0, "rental_uris": {"android": "https://dc.lft.to/lastmile_qr_scan", "ios": "https://dc.lft.to/lastmile_qr_scan"}, "type": "electric_scooter", "lat": 38.93084183333333, "is_reserved": 0, "fusion_lat": 0.0}, {"bike_id": "dfbddaa0949d47677896c78b3ef67079", "fusion_lon": 0.0, "lon": -77.05194283333333, "name": "dfbddaa0949d47677896c78b3ef67079", "is_disabled": 0, "rental_uris": {"android": "https://dc.lft.to/lastmile_qr_scan", "ios": "https://dc.lft.to/lastmile_qr_scan"}, "type": "electric_scooter", "lat": 38.924339, "is_reserved": 0, "fusion_lat": 0.0}, {"bike_id": "79b7258d625f5a5eb2dd1b82852c1311", "fusion_lon": 0.0, "lon": -77.04619, "name": "79b7258d625f5a5eb2dd1b82852c1311", "is_disabled": 0, "rental_uris": {"android": "https://dc.lft.to/lastmile_qr_scan", "ios": "https://dc.lft.to/lastmile_qr_scan"}, "type": "electric_scooter", "lat": 38.90960966666667, "is_reserved": 0, "fusion_lat": 0.0}, {"bike_id": "6d3f3287e7713c5844b0ee09e93f9cbd", "fusion_lon": 0.0, "lon": -77.0038045, "name": "6d3f3287e7713c5844b0ee09e93f9cbd", "is_disabled": 0, "rental_uris": {"android": "https://dc.lft.to/lastmile_qr_scan", "ios": "https://dc.lft.to/lastmile_qr_scan"}, "type": "electric_scooter", "lat": 38.8755715, "is_reserved": 0, "fusion_lat": 0.0}, {"bike_id": "2173fec06d32580cbbebe2c398f9d56f", "fusion_lon": 0.0, "lon": -77.02157733333334, "name": "2173fec06d32580cbbebe2c398f9d56f", "is_disabled": 0, "rental_uris": {"android": "https://dc.lft.to/lastmile_qr_scan", "ios": "https://dc.lft.to/lastmile_qr_scan"}, "type": "electric_scooter", "lat": 38.92495616666667, "is_reserved": 0, "fusion_lat": 0.0}, {"bike_id": "60e1a757bc7bb3647b8421bb5a34e3b8", "fusion_lon": 0.0, "lon": -77.012898, "name": "60e1a757bc7bb3647b8421bb5a34e3b8", "is_disabled": 0, "rental_uris": {"android": "https://dc.lft.to/lastmile_qr_scan", "ios": "https://dc.lft.to/lastmile_qr_scan"}, "type": "electric_bike", "lat": 39.003815833333334, "is_reserved": 0, "fusion_lat": 0.0}, {"bike_id": "d8ee3ec899147a3611791c100eb341ea", "fusion_lon": 0.0, "lon": -77.05880516666667, "name": "d8ee3ec899147a3611791c100eb341ea", "is_disabled": 0, "rental_uris": {"android": "https://dc.lft.to/lastmile_qr_scan", "ios": "https://dc.lft.to/lastmile_qr_scan"}, "type": "electric_bike", "lat": 38.95894666666667, "is_reserved": 0, "fusion_lat": 0.0}, {"bike_id": "9e2c59024f2914ac60135d6a4f52aae5", "fusion_lon": 0.0, "lon": -77.03364066666667, "name": "9e2c59024f2914ac60135d6a4f52aae5", "is_disabled": 0, "rental_uris": {"android": "https://dc.lft.to/lastmile_qr_scan", "ios": "https://dc.lft.to/lastmile_qr_scan"}, "type": "electric_scooter", "lat": 38.9215045, "is_reserved": 0, "fusion_lat": 0.0}, {"bike_id": "0dc5b24be51fc4f897dd28a0887f56a3", "fusion_lon": 0.0, "lon": -77.21649516666666, "name": "0dc5b24be51fc4f897dd28a0887f56a3", "is_disabled": 0, "rental_uris": {"android": "https://dc.lft.to/lastmile_qr_scan", "ios": "https://dc.lft.to/lastmile_qr_scan"}, "type": "electric_bike", "lat": 38.930111, "is_reserved": 0, "fusion_lat": 0.0}, {"bike_id": "958d3ed09a405ddd4fefb300b0873ba1", "fusion_lon": 0.0, "lon": -77.01701033333333, "name": "958d3ed09a405ddd4fefb300b0873ba1", "is_disabled": 0, "rental_uris": {"android": "https://dc.lft.to/lastmile_qr_scan", "ios": "https://dc.lft.to/lastmile_qr_scan"}, "type": "electric_scooter", "lat": 38.911819666666666, "is_reserved": 0, "fusion_lat": 0.0}, {"bike_id": "c28aeaeeb0270dc89d29180b20af6ab5", "fusion_lon": 0.0, "lon": -77.02372966666667, "name": "c28aeaeeb0270dc89d29180b20af6ab5", "is_disabled": 0, "rental_uris": {"android": "https://dc.lft.to/lastmile_qr_scan", "ios": "https://dc.lft.to/lastmile_qr_scan"}, "type": "electric_scooter", "lat": 38.901902666666665, "is_reserved": 0, "fusion_lat": 0.0}, {"bike_id": "ef341846425ec5034b46c5515e4a23a1", "fusion_lon": 0.0, "lon": -77.0287195, "name": "ef341846425ec5034b46c5515e4a23a1", "is_disabled": 0, "rental_uris": {"android": "https://dc.lft.to/lastmile_qr_scan", "ios": "https://dc.lft.to/lastmile_qr_scan"}, "type": "electric_bike", "lat": 38.99898266666667, "is_reserved": 0, "fusion_lat": 0.0}, {"bike_id": "9dd93eee583b77f6e9496c7180570d71", "fusion_lon": 0.0, "lon": -77.03418033333334, "name": "9dd93eee583b77f6e9496c7180570d71", "is_disabled": 0, "rental_uris": {"android": "https://dc.lft.to/lastmile_qr_scan", "ios": "https://dc.lft.to/lastmile_qr_scan"}, "type": "electric_scooter", "lat": 38.9071215, "is_reserved": 0, "fusion_lat": 0.0}, {"bike_id": "3d41d49af03e8833472e10bf88f09b83", "fusion_lon": 0.0, "lon": -77.0414345, "name": "3d41d49af03e8833472e10bf88f09b83", "is_disabled": 0, "rental_uris": {"android": "https://dc.lft.to/lastmile_qr_scan", "ios": "https://dc.lft.to/lastmile_qr_scan"}, "type": "electric_scooter", "lat": 38.922965833333336, "is_reserved": 0, "fusion_lat": 0.0}, {"bike_id": "9a595904f65d0b0a66ffb57f500e795e", "fusion_lon": 0.0, "lon": -77.04769666666667, "name": "9a595904f65d0b0a66ffb57f500e795e", "is_disabled": 0, "rental_uris": {"android": "https://dc.lft.to/lastmile_qr_scan", "ios": "https://dc.lft.to/lastmile_qr_scan"}, "type": "electric_scooter", "lat": 38.907180833333335, "is_reserved": 0, "fusion_lat": 0.0}, {"bike_id": "5c113e7da7f83178b81b487e3fb15896", "fusion_lon": 0.0, "lon": -76.93732733333333, "name": "5c113e7da7f83178b81b487e3fb15896", "is_disabled": 0, "rental_uris": {"android": "https://dc.lft.to/lastmile_qr_scan", "ios": "https://dc.lft.to/lastmile_qr_scan"}, "type": "electric_scooter", "lat": 38.89015233333333, "is_reserved": 0, "fusion_lat": 0.0}, {"bike_id": "3f39b6953505d320a144c2a2776bb8c6", "fusion_lon": 0.0, "lon": -76.97267983333333, "name": "3f39b6953505d320a144c2a2776bb8c6", "is_disabled": 0, "rental_uris": {"android": "https://dc.lft.to/lastmile_qr_scan", "ios": "https://dc.lft.to/lastmile_qr_scan"}, "type": "electric_bike", "lat": 38.91961716666667, "is_reserved": 0, "fusion_lat": 0.0}, {"bike_id": "97883f6d029fddd4eee158bc8bd9c6b2", "fusion_lon": 0.0, "lon": -77.04649566666667, "name": "97883f6d029fddd4eee158bc8bd9c6b2", "is_disabled": 0, "rental_uris": {"android": "https://dc.lft.to/lastmile_qr_scan", "ios": "https://dc.lft.to/lastmile_qr_scan"}, "type": "electric_bike", "lat": 39.055026166666664, "is_reserved": 0, "fusion_lat": 0.0}, {"bike_id": "78d3241f0ad9400e80aee059528ecdbf", "fusion_lon": 0.0, "lon": -77.03692083333334, "name": "78d3241f0ad9400e80aee059528ecdbf", "is_disabled": 0, "rental_uris": {"android": "https://dc.lft.to/lastmile_qr_scan", "ios": "https://dc.lft.to/lastmile_qr_scan"}, "type": "electric_bike", "lat": 38.939739833333334, "is_reserved": 0, "fusion_lat": 0.0}, {"bike_id": "b0d239312a15a3277bbf244870b27d42", "fusion_lon": 0.0, "lon": -77.02825433333334, "name": "b0d239312a15a3277bbf244870b27d42", "is_disabled": 0, "rental_uris": {"android": "https://dc.lft.to/lastmile_qr_scan", "ios": "https://dc.lft.to/lastmile_qr_scan"}, "type": "electric_scooter", "lat": 38.887344666666664, "is_reserved": 0, "fusion_lat": 0.0}, {"bike_id": "99cd5320dfad8613587ba21d3ae66b20", "fusion_lon": 0.0, "lon": -77.058585, "name": "99cd5320dfad8613587ba21d3ae66b20", "is_disabled": 0, "rental_uris": {"android": "https://dc.lft.to/lastmile_qr_scan", "ios": "https://dc.lft.to/lastmile_qr_scan"}, "type": "electric_scooter", "lat": 38.93604533333333, "is_reserved": 0, "fusion_lat": 0.0}, {"bike_id": "77267b86b3923be460a2c8621d2545bb", "fusion_lon": 0.0, "lon": -77.027639, "name": "77267b86b3923be460a2c8621d2545bb", "is_disabled": 0, "rental_uris": {"android": "https://dc.lft.to/lastmile_qr_scan", "ios": "https://dc.lft.to/lastmile_qr_scan"}, "type": "electric_scooter", "lat": 38.954236333333334, "is_reserved": 0, "fusion_lat": 0.0}, {"bike_id": "9f400e3d4d0749ebe4c720ff779c7310", "fusion_lon": 0.0, "lon": -77.0228795, "name": "9f400e3d4d0749ebe4c720ff779c7310", "is_disabled": 0, "rental_uris": {"android": "https://dc.lft.to/lastmile_qr_scan", "ios": "https://dc.lft.to/lastmile_qr_scan"}, "type": "electric_scooter", "lat": 38.895453833333335, "is_reserved": 0, "fusion_lat": 0.0}, {"bike_id": "fd65befc1f1261ae7096c07e7c351e2d", "fusion_lon": 0.0, "lon": -77.0325175, "name": "fd65befc1f1261ae7096c07e7c351e2d", "is_disabled": 0, "rental_uris": {"android": "https://dc.lft.to/lastmile_qr_scan", "ios": "https://dc.lft.to/lastmile_qr_scan"}, "type": "electric_scooter", "lat": 38.92854633333334, "is_reserved": 0, "fusion_lat": 0.0}, {"bike_id": "0fc24eb149efb567976e464787eec91f", "fusion_lon": 0.0, "lon": -77.03314366666666, "name": "0fc24eb149efb567976e464787eec91f", "is_disabled": 0, "rental_uris": {"android": "https://dc.lft.to/lastmile_qr_scan", "ios": "https://dc.lft.to/lastmile_qr_scan"}, "type": "electric_scooter", "lat": 38.93192666666667, "is_reserved": 0, "fusion_lat": 0.0}, {"bike_id": "b6e354369e5439794bc82b8af905beb8", "fusion_lon": 0.0, "lon": -77.03267133333334, "name": "b6e354369e5439794bc82b8af905beb8", "is_disabled": 0, "rental_uris": {"android": "https://dc.lft.to/lastmile_qr_scan", "ios": "https://dc.lft.to/lastmile_qr_scan"}, "type": "electric_scooter", "lat": 38.9365575, "is_reserved": 0, "fusion_lat": 0.0}, {"bike_id": "3fcd0d8bfb0c0e66499ccd42362cb21b", "fusion_lon": 0.0, "lon": -76.98292983333333, "name": "3fcd0d8bfb0c0e66499ccd42362cb21b", "is_disabled": 0, "rental_uris": {"android": "https://dc.lft.to/lastmile_qr_scan", "ios": "https://dc.lft.to/lastmile_qr_scan"}, "type": "electric_bike", "lat": 38.962781166666666, "is_reserved": 0, "fusion_lat": 0.0}, {"bike_id": "7c3c4121d9a442f42e23de38a427b806", "fusion_lon": 0.0, "lon": -77.05311883333333, "name": "7c3c4121d9a442f42e23de38a427b806", "is_disabled": 0, "rental_uris": {"android": "https://dc.lft.to/lastmile_qr_scan", "ios": "https://dc.lft.to/lastmile_qr_scan"}, "type": "electric_scooter", "lat": 38.903974833333336, "is_reserved": 0, "fusion_lat": 0.0}, {"bike_id": "8e818172fcb14b1393ed1902f245616c", "fusion_lon": 0.0, "lon": -77.02693083333334, "name": "8e818172fcb14b1393ed1902f245616c", "is_disabled": 0, "rental_uris": {"android": "https://dc.lft.to/lastmile_qr_scan", "ios": "https://dc.lft.to/lastmile_qr_scan"}, "type": "electric_scooter", "lat": 38.90683516666667, "is_reserved": 0, "fusion_lat": 0.0}, {"bike_id": "b873aa7ad42cd8f169cea4f4f29c18af", "fusion_lon": 0.0, "lon": -77.07796283333333, "name": "b873aa7ad42cd8f169cea4f4f29c18af", "is_disabled": 0, "rental_uris": {"android": "https://dc.lft.to/lastmile_qr_scan", "ios": "https://dc.lft.to/lastmile_qr_scan"}, "type": "electric_bike", "lat": 38.919298166666664, "is_reserved": 0, "fusion_lat": 0.0}, {"bike_id": "4429baafe18e7b3a902f6f77b7cc7d87", "fusion_lon": 0.0, "lon": -77.05531233333333, "name": "4429baafe18e7b3a902f6f77b7cc7d87", "is_disabled": 0, "rental_uris": {"android": "https://dc.lft.to/lastmile_qr_scan", "ios": "https://dc.lft.to/lastmile_qr_scan"}, "type": "electric_scooter", "lat": 38.930170833333335, "is_reserved": 0, "fusion_lat": 0.0}, {"bike_id": "dcdec9d8364677ade2236fa2d2ee6453", "fusion_lon": 0.0, "lon": -76.98769416666667, "name": "dcdec9d8364677ade2236fa2d2ee6453", "is_disabled": 0, "rental_uris": {"android": "https://dc.lft.to/lastmile_qr_scan", "ios": "https://dc.lft.to/lastmile_qr_scan"}, "type": "electric_bike", "lat": 38.8577085, "is_reserved": 0, "fusion_lat": 0.0}, {"bike_id": "d0f2528f85349972a0a63267e31e9cc1", "fusion_lon": 0.0, "lon": -77.01988116666666, "name": "d0f2528f85349972a0a63267e31e9cc1", "is_disabled": 0, "rental_uris": {"android": "https://dc.lft.to/lastmile_qr_scan", "ios": "https://dc.lft.to/lastmile_qr_scan"}, "type": "electric_scooter", "lat": 38.957222, "is_reserved": 0, "fusion_lat": 0.0}, {"bike_id": "29da37d292292baea4ee35cd75606c3b", "fusion_lon": 0.0, "lon": -77.02549333333333, "name": "29da37d292292baea4ee35cd75606c3b", "is_disabled": 0, "rental_uris": {"android": "https://dc.lft.to/lastmile_qr_scan", "ios": "https://dc.lft.to/lastmile_qr_scan"}, "type": "electric_scooter", "lat": 38.916291333333334, "is_reserved": 0, "fusion_lat": 0.0}, {"bike_id": "02baa865a71f842621a4b54f4dec80b4", "fusion_lon": 0.0, "lon": -77.0575655, "name": "02baa865a71f842621a4b54f4dec80b4", "is_disabled": 0, "rental_uris": {"android": "https://dc.lft.to/lastmile_qr_scan", "ios": "https://dc.lft.to/lastmile_qr_scan"}, "type": "electric_scooter", "lat": 38.92493233333333, "is_reserved": 0, "fusion_lat": 0.0}, {"bike_id": "c0e89ecedffe54751784301bb7ac694b", "fusion_lon": 0.0, "lon": -77.04981433333333, "name": "c0e89ecedffe54751784301bb7ac694b", "is_disabled": 0, "rental_uris": {"android": "https://dc.lft.to/lastmile_qr_scan", "ios": "https://dc.lft.to/lastmile_qr_scan"}, "type": "electric_bike", "lat": 39.06297433333334, "is_reserved": 0, "fusion_lat": 0.0}, {"bike_id": "77359b7b5760e73e59db35f328260373", "fusion_lon": 0.0, "lon": -77.03468016666666, "name": "77359b7b5760e73e59db35f328260373", "is_disabled": 0, "rental_uris": {"android": "https://dc.lft.to/lastmile_qr_scan", "ios": "https://dc.lft.to/lastmile_qr_scan"}, "type": "electric_scooter", "lat": 38.90558083333333, "is_reserved": 0, "fusion_lat": 0.0}, {"bike_id": "6ceec185f37635cce64644b145475b47", "fusion_lon": 0.0, "lon": -77.04896683333334, "name": "6ceec185f37635cce64644b145475b47", "is_disabled": 0, "rental_uris": {"android": "https://dc.lft.to/lastmile_qr_scan", "ios": "https://dc.lft.to/lastmile_qr_scan"}, "type": "electric_scooter", "lat": 38.88998016666667, "is_reserved": 0, "fusion_lat": 0.0}, {"bike_id": "8825bc81d7de102e55283934f62f16a5", "fusion_lon": 0.0, "lon": -77.0089185, "name": "8825bc81d7de102e55283934f62f16a5", "is_disabled": 0, "rental_uris": {"android": "https://dc.lft.to/lastmile_qr_scan", "ios": "https://dc.lft.to/lastmile_qr_scan"}, "type": "electric_scooter", "lat": 38.92479983333333, "is_reserved": 0, "fusion_lat": 0.0}, {"bike_id": "5f09ff68f2193e2b41ccde10c91192f9", "fusion_lon": 0.0, "lon": -77.0238385, "name": "5f09ff68f2193e2b41ccde10c91192f9", "is_disabled": 0, "rental_uris": {"android": "https://dc.lft.to/lastmile_qr_scan", "ios": "https://dc.lft.to/lastmile_qr_scan"}, "type": "electric_scooter", "lat": 38.9019655, "is_reserved": 0, "fusion_lat": 0.0}, {"bike_id": "a345d5142c5521b503d2366d9791ebe7", "fusion_lon": 0.0, "lon": -77.00248316666666, "name": "a345d5142c5521b503d2366d9791ebe7", "is_disabled": 0, "rental_uris": {"android": "https://dc.lft.to/lastmile_qr_scan", "ios": "https://dc.lft.to/lastmile_qr_scan"}, "type": "electric_scooter", "lat": 38.885177166666665, "is_reserved": 0, "fusion_lat": 0.0}, {"bike_id": "f20795af4402333fd8b64f64556dfc8a", "fusion_lon": 0.0, "lon": -77.03978933333333, "name": "f20795af4402333fd8b64f64556dfc8a", "is_disabled": 0, "rental_uris": {"android": "https://dc.lft.to/lastmile_qr_scan", "ios": "https://dc.lft.to/lastmile_qr_scan"}, "type": "electric_scooter", "lat": 38.90278283333333, "is_reserved": 0, "fusion_lat": 0.0}, {"bike_id": "95f208610e0ad31109f8aaa529410055", "fusion_lon": 0.0, "lon": -76.98036716666667, "name": "95f208610e0ad31109f8aaa529410055", "is_disabled": 0, "rental_uris": {"android": "https://dc.lft.to/lastmile_qr_scan", "ios": "https://dc.lft.to/lastmile_qr_scan"}, "type": "electric_scooter", "lat": 38.853331, "is_reserved": 0, "fusion_lat": 0.0}, {"bike_id": "a54d1fee6d35fee03ba14a2964655eb3", "fusion_lon": 0.0, "lon": -76.99270466666667, "name": "a54d1fee6d35fee03ba14a2964655eb3", "is_disabled": 0, "rental_uris": {"android": "https://dc.lft.to/lastmile_qr_scan", "ios": "https://dc.lft.to/lastmile_qr_scan"}, "type": "electric_scooter", "lat": 38.90385933333334, "is_reserved": 0, "fusion_lat": 0.0}, {"bike_id": "5b1716fc45ba62904f5a7bb6a0a01c55", "fusion_lon": 0.0, "lon": -77.11310433333334, "name": "5b1716fc45ba62904f5a7bb6a0a01c55", "is_disabled": 0, "rental_uris": {"android": "https://dc.lft.to/lastmile_qr_scan", "ios": "https://dc.lft.to/lastmile_qr_scan"}, "type": "electric_bike", "lat": 38.855658, "is_reserved": 0, "fusion_lat": 0.0}, {"bike_id": "6dfef2a344910f1c1f993338da756718", "fusion_lon": 0.0, "lon": -77.04870316666667, "name": "6dfef2a344910f1c1f993338da756718", "is_disabled": 0, "rental_uris": {"android": "https://dc.lft.to/lastmile_qr_scan", "ios": "https://dc.lft.to/lastmile_qr_scan"}, "type": "electric_scooter", "lat": 38.89221966666667, "is_reserved": 0, "fusion_lat": 0.0}, {"bike_id": "1782716de0100c830b3dd1f6cccb4f66", "fusion_lon": 0.0, "lon": -77.0194775, "name": "1782716de0100c830b3dd1f6cccb4f66", "is_disabled": 0, "rental_uris": {"android": "https://dc.lft.to/lastmile_qr_scan", "ios": "https://dc.lft.to/lastmile_qr_scan"}, "type": "electric_scooter", "lat": 38.92416633333333, "is_reserved": 0, "fusion_lat": 0.0}, {"bike_id": "04ab8621fe756b24348d0c5c8a840435", "fusion_lon": 0.0, "lon": -77.04705183333333, "name": "04ab8621fe756b24348d0c5c8a840435", "is_disabled": 0, "rental_uris": {"android": "https://dc.lft.to/lastmile_qr_scan", "ios": "https://dc.lft.to/lastmile_qr_scan"}, "type": "electric_scooter", "lat": 38.920955166666666, "is_reserved": 0, "fusion_lat": 0.0}, {"bike_id": "35015062778e20c5a45097c233330e94", "fusion_lon": 0.0, "lon": -77.03086883333333, "name": "35015062778e20c5a45097c233330e94", "is_disabled": 0, "rental_uris": {"android": "https://dc.lft.to/lastmile_qr_scan", "ios": "https://dc.lft.to/lastmile_qr_scan"}, "type": "electric_scooter", "lat": 38.92245316666666, "is_reserved": 0, "fusion_lat": 0.0}, {"bike_id": "d270d757cab350aa81bf2c77ba5d830e", "fusion_lon": 0.0, "lon": -77.00593583333334, "name": "d270d757cab350aa81bf2c77ba5d830e", "is_disabled": 0, "rental_uris": {"android": "https://dc.lft.to/lastmile_qr_scan", "ios": "https://dc.lft.to/lastmile_qr_scan"}, "type": "electric_scooter", "lat": 38.905764166666664, "is_reserved": 0, "fusion_lat": 0.0}, {"bike_id": "4b8bea2a2f9de44c99e325a4e914ea03", "fusion_lon": 0.0, "lon": -77.028387, "name": "4b8bea2a2f9de44c99e325a4e914ea03", "is_disabled": 0, "rental_uris": {"android": "https://dc.lft.to/lastmile_qr_scan", "ios": "https://dc.lft.to/lastmile_qr_scan"}, "type": "electric_scooter", "lat": 38.924839, "is_reserved": 0, "fusion_lat": 0.0}, {"bike_id": "c4f2896af89a8adf365ebc96bc1d928b", "fusion_lon": 0.0, "lon": -77.03663916666666, "name": "c4f2896af89a8adf365ebc96bc1d928b", "is_disabled": 0, "rental_uris": {"android": "https://dc.lft.to/lastmile_qr_scan", "ios": "https://dc.lft.to/lastmile_qr_scan"}, "type": "electric_scooter", "lat": 38.936236666666666, "is_reserved": 0, "fusion_lat": 0.0}, {"bike_id": "f5d059457260e151b93d587cb2255d82", "fusion_lon": 0.0, "lon": -77.01144883333333, "name": "f5d059457260e151b93d587cb2255d82", "is_disabled": 0, "rental_uris": {"android": "https://dc.lft.to/lastmile_qr_scan", "ios": "https://dc.lft.to/lastmile_qr_scan"}, "type": "electric_scooter", "lat": 38.9064335, "is_reserved": 0, "fusion_lat": 0.0}, {"bike_id": "61e006c784f9e69efee67de14505e97e", "fusion_lon": 0.0, "lon": -77.0319825, "name": "61e006c784f9e69efee67de14505e97e", "is_disabled": 0, "rental_uris": {"android": "https://dc.lft.to/lastmile_qr_scan", "ios": "https://dc.lft.to/lastmile_qr_scan"}, "type": "electric_scooter", "lat": 38.91590083333333, "is_reserved": 0, "fusion_lat": 0.0}, {"bike_id": "689e751616957db937abaae8a0778f1c", "fusion_lon": 0.0, "lon": -77.01455166666666, "name": "689e751616957db937abaae8a0778f1c", "is_disabled": 0, "rental_uris": {"android": "https://dc.lft.to/lastmile_qr_scan", "ios": "https://dc.lft.to/lastmile_qr_scan"}, "type": "electric_scooter", "lat": 38.917709333333335, "is_reserved": 0, "fusion_lat": 0.0}, {"bike_id": "9b3f22a148a8f2ac7f537b329bc5662e", "fusion_lon": 0.0, "lon": -77.11318583333333, "name": "9b3f22a148a8f2ac7f537b329bc5662e", "is_disabled": 0, "rental_uris": {"android": "https://dc.lft.to/lastmile_qr_scan", "ios": "https://dc.lft.to/lastmile_qr_scan"}, "type": "electric_bike", "lat": 38.831614333333334, "is_reserved": 0, "fusion_lat": 0.0}, {"bike_id": "3e8c8965b270918fca7c692dbf7d2b5d", "fusion_lon": 0.0, "lon": -77.20837633333333, "name": "3e8c8965b270918fca7c692dbf7d2b5d", "is_disabled": 0, "rental_uris": {"android": "https://dc.lft.to/lastmile_qr_scan", "ios": "https://dc.lft.to/lastmile_qr_scan"}, "type": "electric_bike", "lat": 38.9245655, "is_reserved": 0, "fusion_lat": 0.0}, {"bike_id": "eb642914cb5bf0c4ff93ac97c99d622c", "fusion_lon": 0.0, "lon": -77.0203875, "name": "eb642914cb5bf0c4ff93ac97c99d622c", "is_disabled": 0, "rental_uris": {"android": "https://dc.lft.to/lastmile_qr_scan", "ios": "https://dc.lft.to/lastmile_qr_scan"}, "type": "electric_scooter", "lat": 38.90838333333333, "is_reserved": 0, "fusion_lat": 0.0}, {"bike_id": "4afe1291e3cf8526aa74153918e3de4e", "fusion_lon": 0.0, "lon": -76.99717866666667, "name": "4afe1291e3cf8526aa74153918e3de4e", "is_disabled": 0, "rental_uris": {"android": "https://dc.lft.to/lastmile_qr_scan", "ios": "https://dc.lft.to/lastmile_qr_scan"}, "type": "electric_scooter", "lat": 38.9220295, "is_reserved": 0, "fusion_lat": 0.0}, {"bike_id": "33086caa857e5368e9d4de145a096d6d", "fusion_lon": 0.0, "lon": -77.01742483333334, "name": "33086caa857e5368e9d4de145a096d6d", "is_disabled": 0, "rental_uris": {"android": "https://dc.lft.to/lastmile_qr_scan", "ios": "https://dc.lft.to/lastmile_qr_scan"}, "type": "electric_scooter", "lat": 38.87263733333333, "is_reserved": 0, "fusion_lat": 0.0}, {"bike_id": "1b7d84b5379375487ab0af6ae2f66b43", "fusion_lon": 0.0, "lon": -77.049282, "name": "1b7d84b5379375487ab0af6ae2f66b43", "is_disabled": 0, "rental_uris": {"android": "https://dc.lft.to/lastmile_qr_scan", "ios": "https://dc.lft.to/lastmile_qr_scan"}, "type": "electric_bike", "lat": 38.813413, "is_reserved": 0, "fusion_lat": 0.0}, {"bike_id": "f4a63643b58fe9af8dc826c9d1c62e3d", "fusion_lon": 0.0, "lon": -77.02695783333333, "name": "f4a63643b58fe9af8dc826c9d1c62e3d", "is_disabled": 0, "rental_uris": {"android": "https://dc.lft.to/lastmile_qr_scan", "ios": "https://dc.lft.to/lastmile_qr_scan"}, "type": "electric_scooter", "lat": 38.91121483333333, "is_reserved": 0, "fusion_lat": 0.0}, {"bike_id": "0ae00d41133c0bc6bd8875acb6ed2ffa", "fusion_lon": 0.0, "lon": -77.03501166666666, "name": "0ae00d41133c0bc6bd8875acb6ed2ffa", "is_disabled": 0, "rental_uris": {"android": "https://dc.lft.to/lastmile_qr_scan", "ios": "https://dc.lft.to/lastmile_qr_scan"}, "type": "electric_scooter", "lat": 38.916935, "is_reserved": 0, "fusion_lat": 0.0}, {"bike_id": "4ab0a0d279f7019e4ecd8a5d645d57bd", "fusion_lon": 0.0, "lon": -77.057125, "name": "4ab0a0d279f7019e4ecd8a5d645d57bd", "is_disabled": 0, "rental_uris": {"android": "https://dc.lft.to/lastmile_qr_scan", "ios": "https://dc.lft.to/lastmile_qr_scan"}, "type": "electric_scooter", "lat": 38.93360916666666, "is_reserved": 0, "fusion_lat": 0.0}, {"bike_id": "010325063ec29a4d4231356204c4da97", "fusion_lon": 0.0, "lon": -77.025457, "name": "010325063ec29a4d4231356204c4da97", "is_disabled": 0, "rental_uris": {"android": "https://dc.lft.to/lastmile_qr_scan", "ios": "https://dc.lft.to/lastmile_qr_scan"}, "type": "electric_scooter", "lat": 38.880664833333334, "is_reserved": 0, "fusion_lat": 0.0}, {"bike_id": "e814a22bd4b639dc023e9c4fd533fda8", "fusion_lon": 0.0, "lon": -77.01749, "name": "e814a22bd4b639dc023e9c4fd533fda8", "is_disabled": 0, "rental_uris": {"android": "https://dc.lft.to/lastmile_qr_scan", "ios": "https://dc.lft.to/lastmile_qr_scan"}, "type": "electric_scooter", "lat": 38.87493766666667, "is_reserved": 0, "fusion_lat": 0.0}, {"bike_id": "a66482cbd33bce0ce54e19a7e1a57f10", "fusion_lon": 0.0, "lon": -77.044087, "name": "a66482cbd33bce0ce54e19a7e1a57f10", "is_disabled": 0, "rental_uris": {"android": "https://dc.lft.to/lastmile_qr_scan", "ios": "https://dc.lft.to/lastmile_qr_scan"}, "type": "electric_scooter", "lat": 38.912648833333336, "is_reserved": 0, "fusion_lat": 0.0}, {"bike_id": "a0e6184f28c4c32516ee072979c7f162", "fusion_lon": 0.0, "lon": -77.045682, "name": "a0e6184f28c4c32516ee072979c7f162", "is_disabled": 0, "rental_uris": {"android": "https://dc.lft.to/lastmile_qr_scan", "ios": "https://dc.lft.to/lastmile_qr_scan"}, "type": "electric_bike", "lat": 38.9241725, "is_reserved": 0, "fusion_lat": 0.0}, {"bike_id": "77d852b9bfdd9908551cc4e2cb6011c8", "fusion_lon": 0.0, "lon": -77.0397435, "name": "77d852b9bfdd9908551cc4e2cb6011c8", "is_disabled": 0, "rental_uris": {"android": "https://dc.lft.to/lastmile_qr_scan", "ios": "https://dc.lft.to/lastmile_qr_scan"}, "type": "electric_scooter", "lat": 38.90273416666667, "is_reserved": 0, "fusion_lat": 0.0}, {"bike_id": "e47352437fcf9669d2f2aeda6e1981d8", "fusion_lon": 0.0, "lon": -77.02410416666666, "name": "e47352437fcf9669d2f2aeda6e1981d8", "is_disabled": 0, "rental_uris": {"android": "https://dc.lft.to/lastmile_qr_scan", "ios": "https://dc.lft.to/lastmile_qr_scan"}, "type": "electric_scooter", "lat": 38.901990166666664, "is_reserved": 0, "fusion_lat": 0.0}, {"bike_id": "496c6603a2d8bef6e9135d7d8f54a344", "fusion_lon": 0.0, "lon": -77.0200005, "name": "496c6603a2d8bef6e9135d7d8f54a344", "is_disabled": 0, "rental_uris": {"android": "https://dc.lft.to/lastmile_qr_scan", "ios": "https://dc.lft.to/lastmile_qr_scan"}, "type": "electric_scooter", "lat": 38.91365583333334, "is_reserved": 0, "fusion_lat": 0.0}, {"bike_id": "bd59a4fa2372b45d7d66c2ab9239c987", "fusion_lon": 0.0, "lon": -76.9335105, "name": "bd59a4fa2372b45d7d66c2ab9239c987", "is_disabled": 0, "rental_uris": {"android": "https://dc.lft.to/lastmile_qr_scan", "ios": "https://dc.lft.to/lastmile_qr_scan"}, "type": "electric_scooter", "lat": 38.89910883333334, "is_reserved": 0, "fusion_lat": 0.0}, {"bike_id": "a53041ef369c80fb2260e477a0cad853", "fusion_lon": 0.0, "lon": -77.0220065, "name": "a53041ef369c80fb2260e477a0cad853", "is_disabled": 0, "rental_uris": {"android": "https://dc.lft.to/lastmile_qr_scan", "ios": "https://dc.lft.to/lastmile_qr_scan"}, "type": "electric_scooter", "lat": 38.91146066666667, "is_reserved": 0, "fusion_lat": 0.0}, {"bike_id": "0a0e456db1bbf01e988f833eeb90f1aa", "fusion_lon": 0.0, "lon": -77.040932, "name": "0a0e456db1bbf01e988f833eeb90f1aa", "is_disabled": 0, "rental_uris": {"android": "https://dc.lft.to/lastmile_qr_scan", "ios": "https://dc.lft.to/lastmile_qr_scan"}, "type": "electric_scooter", "lat": 38.9170915, "is_reserved": 0, "fusion_lat": 0.0}, {"bike_id": "c579957d93060901ddb060806233ce82", "fusion_lon": 0.0, "lon": -77.05420066666667, "name": "c579957d93060901ddb060806233ce82", "is_disabled": 0, "rental_uris": {"android": "https://dc.lft.to/lastmile_qr_scan", "ios": "https://dc.lft.to/lastmile_qr_scan"}, "type": "electric_scooter", "lat": 38.902437166666665, "is_reserved": 0, "fusion_lat": 0.0}, {"bike_id": "6ab478d39233e7b6a9d2e6dfdbe208e8", "fusion_lon": 0.0, "lon": -77.0240575, "name": "6ab478d39233e7b6a9d2e6dfdbe208e8", "is_disabled": 0, "rental_uris": {"android": "https://dc.lft.to/lastmile_qr_scan", "ios": "https://dc.lft.to/lastmile_qr_scan"}, "type": "electric_scooter", "lat": 38.8971825, "is_reserved": 0, "fusion_lat": 0.0}, {"bike_id": "72e1a5ebe21d04d197d93a7800a2802d", "fusion_lon": 0.0, "lon": -77.0513395, "name": "72e1a5ebe21d04d197d93a7800a2802d", "is_disabled": 0, "rental_uris": {"android": "https://dc.lft.to/lastmile_qr_scan", "ios": "https://dc.lft.to/lastmile_qr_scan"}, "type": "electric_scooter", "lat": 38.905511833333335, "is_reserved": 0, "fusion_lat": 0.0}, {"bike_id": "539d63e5e0f35499f6bcb14aa868047b", "fusion_lon": 0.0, "lon": -77.03229566666667, "name": "539d63e5e0f35499f6bcb14aa868047b", "is_disabled": 0, "rental_uris": {"android": "https://dc.lft.to/lastmile_qr_scan", "ios": "https://dc.lft.to/lastmile_qr_scan"}, "type": "electric_scooter", "lat": 38.914056333333335, "is_reserved": 0, "fusion_lat": 0.0}, {"bike_id": "339d528a55516dedf29be377c43d8c91", "fusion_lon": 0.0, "lon": -77.03341033333334, "name": "339d528a55516dedf29be377c43d8c91", "is_disabled": 0, "rental_uris": {"android": "https://dc.lft.to/lastmile_qr_scan", "ios": "https://dc.lft.to/lastmile_qr_scan"}, "type": "electric_scooter", "lat": 38.898253833333335, "is_reserved": 0, "fusion_lat": 0.0}, {"bike_id": "e9f9bb83474784a46b36ff798eb34184", "fusion_lon": 0.0, "lon": -77.00200783333334, "name": "e9f9bb83474784a46b36ff798eb34184", "is_disabled": 0, "rental_uris": {"android": "https://dc.lft.to/lastmile_qr_scan", "ios": "https://dc.lft.to/lastmile_qr_scan"}, "type": "electric_scooter", "lat": 38.902364666666664, "is_reserved": 0, "fusion_lat": 0.0}, {"bike_id": "e31a5f9cdb7e4cae59e3bd5e3eac3f07", "fusion_lon": 0.0, "lon": -77.032365, "name": "e31a5f9cdb7e4cae59e3bd5e3eac3f07", "is_disabled": 0, "rental_uris": {"android": "https://dc.lft.to/lastmile_qr_scan", "ios": "https://dc.lft.to/lastmile_qr_scan"}, "type": "electric_scooter", "lat": 38.927607, "is_reserved": 0, "fusion_lat": 0.0}, {"bike_id": "8221fda208fbfe1792465ed2e0c1840a", "fusion_lon": 0.0, "lon": -77.0310815, "name": "8221fda208fbfe1792465ed2e0c1840a", "is_disabled": 0, "rental_uris": {"android": "https://dc.lft.to/lastmile_qr_scan", "ios": "https://dc.lft.to/lastmile_qr_scan"}, "type": "electric_scooter", "lat": 38.916925166666665, "is_reserved": 0, "fusion_lat": 0.0}, {"bike_id": "66b4e1a7ca47a3ba70c93e9c382ef04e", "fusion_lon": 0.0, "lon": -76.99947466666667, "name": "66b4e1a7ca47a3ba70c93e9c382ef04e", "is_disabled": 0, "rental_uris": {"android": "https://dc.lft.to/lastmile_qr_scan", "ios": "https://dc.lft.to/lastmile_qr_scan"}, "type": "electric_scooter", "lat": 38.842968, "is_reserved": 0, "fusion_lat": 0.0}, {"bike_id": "46baf3e30fcb480425880221a124a336", "fusion_lon": 0.0, "lon": -77.0341275, "name": "46baf3e30fcb480425880221a124a336", "is_disabled": 0, "rental_uris": {"android": "https://dc.lft.to/lastmile_qr_scan", "ios": "https://dc.lft.to/lastmile_qr_scan"}, "type": "electric_scooter", "lat": 38.90418966666667, "is_reserved": 0, "fusion_lat": 0.0}, {"bike_id": "400542963136c599af393270f699cc0d", "fusion_lon": 0.0, "lon": -77.03266316666667, "name": "400542963136c599af393270f699cc0d", "is_disabled": 0, "rental_uris": {"android": "https://dc.lft.to/lastmile_qr_scan", "ios": "https://dc.lft.to/lastmile_qr_scan"}, "type": "electric_scooter", "lat": 38.91405133333333, "is_reserved": 0, "fusion_lat": 0.0}, {"bike_id": "640b3207d3dcdd4c96c00685a35c2cdd", "fusion_lon": 0.0, "lon": -77.04185916666667, "name": "640b3207d3dcdd4c96c00685a35c2cdd", "is_disabled": 0, "rental_uris": {"android": "https://dc.lft.to/lastmile_qr_scan", "ios": "https://dc.lft.to/lastmile_qr_scan"}, "type": "electric_scooter", "lat": 38.926179166666664, "is_reserved": 0, "fusion_lat": 0.0}, {"bike_id": "4a8fbf25641352ac5cc61e5f51e824e9", "fusion_lon": 0.0, "lon": -76.981079, "name": "4a8fbf25641352ac5cc61e5f51e824e9", "is_disabled": 0, "rental_uris": {"android": "https://dc.lft.to/lastmile_qr_scan", "ios": "https://dc.lft.to/lastmile_qr_scan"}, "type": "electric_bike", "lat": 38.91470733333333, "is_reserved": 0, "fusion_lat": 0.0}, {"bike_id": "55f297381e513217fb051c9b9d87d0bc", "fusion_lon": 0.0, "lon": -77.0032845, "name": "55f297381e513217fb051c9b9d87d0bc", "is_disabled": 0, "rental_uris": {"android": "https://dc.lft.to/lastmile_qr_scan", "ios": "https://dc.lft.to/lastmile_qr_scan"}, "type": "electric_scooter", "lat": 38.90258866666667, "is_reserved": 0, "fusion_lat": 0.0}, {"bike_id": "7062b35daad08b2ce8e59f3ed474503d", "fusion_lon": 0.0, "lon": -76.9117225, "name": "7062b35daad08b2ce8e59f3ed474503d", "is_disabled": 0, "rental_uris": {"android": "https://dc.lft.to/lastmile_qr_scan", "ios": "https://dc.lft.to/lastmile_qr_scan"}, "type": "electric_scooter", "lat": 38.89412466666667, "is_reserved": 0, "fusion_lat": 0.0}, {"bike_id": "e4152304502a9e4158fe6161fc229fd9", "fusion_lon": 0.0, "lon": -77.02004333333333, "name": "e4152304502a9e4158fe6161fc229fd9", "is_disabled": 0, "rental_uris": {"android": "https://dc.lft.to/lastmile_qr_scan", "ios": "https://dc.lft.to/lastmile_qr_scan"}, "type": "electric_scooter", "lat": 38.9131115, "is_reserved": 0, "fusion_lat": 0.0}, {"bike_id": "328fd2f5ce47c02152311851dc2ecff1", "fusion_lon": 0.0, "lon": -76.977232, "name": "328fd2f5ce47c02152311851dc2ecff1", "is_disabled": 0, "rental_uris": {"android": "https://dc.lft.to/lastmile_qr_scan", "ios": "https://dc.lft.to/lastmile_qr_scan"}, "type": "electric_scooter", "lat": 38.872441, "is_reserved": 0, "fusion_lat": 0.0}, {"bike_id": "5cc1078dcde3e206c31d239db97af5ce", "fusion_lon": 0.0, "lon": -77.04187433333334, "name": "5cc1078dcde3e206c31d239db97af5ce", "is_disabled": 0, "rental_uris": {"android": "https://dc.lft.to/lastmile_qr_scan", "ios": "https://dc.lft.to/lastmile_qr_scan"}, "type": "electric_scooter", "lat": 38.920295333333335, "is_reserved": 0, "fusion_lat": 0.0}, {"bike_id": "f8e6dffa75c3ff35d81571d7e4ca2a63", "fusion_lon": 0.0, "lon": -77.04135266666667, "name": "f8e6dffa75c3ff35d81571d7e4ca2a63", "is_disabled": 0, "rental_uris": {"android": "https://dc.lft.to/lastmile_qr_scan", "ios": "https://dc.lft.to/lastmile_qr_scan"}, "type": "electric_scooter", "lat": 38.922598666666666, "is_reserved": 0, "fusion_lat": 0.0}, {"bike_id": "ac955606abf0017bd32a0d91338aa9d4", "fusion_lon": 0.0, "lon": -77.04339833333333, "name": "ac955606abf0017bd32a0d91338aa9d4", "is_disabled": 0, "rental_uris": {"android": "https://dc.lft.to/lastmile_qr_scan", "ios": "https://dc.lft.to/lastmile_qr_scan"}, "type": "electric_scooter", "lat": 38.902598166666664, "is_reserved": 0, "fusion_lat": 0.0}, {"bike_id": "aa56de04ceb92c766c8af90daea1f516", "fusion_lon": 0.0, "lon": -77.00206916666667, "name": "aa56de04ceb92c766c8af90daea1f516", "is_disabled": 0, "rental_uris": {"android": "https://dc.lft.to/lastmile_qr_scan", "ios": "https://dc.lft.to/lastmile_qr_scan"}, "type": "electric_scooter", "lat": 38.900746833333336, "is_reserved": 0, "fusion_lat": 0.0}, {"bike_id": "9436494110caff03b8373246acdcd99d", "fusion_lon": 0.0, "lon": -77.0389965, "name": "9436494110caff03b8373246acdcd99d", "is_disabled": 0, "rental_uris": {"android": "https://dc.lft.to/lastmile_qr_scan", "ios": "https://dc.lft.to/lastmile_qr_scan"}, "type": "electric_scooter", "lat": 38.9220235, "is_reserved": 0, "fusion_lat": 0.0}, {"bike_id": "e882bb0451768ab688119dce0c12af5e", "fusion_lon": 0.0, "lon": -76.97977083333333, "name": "e882bb0451768ab688119dce0c12af5e", "is_disabled": 0, "rental_uris": {"android": "https://dc.lft.to/lastmile_qr_scan", "ios": "https://dc.lft.to/lastmile_qr_scan"}, "type": "electric_bike", "lat": 38.95377633333333, "is_reserved": 0, "fusion_lat": 0.0}, {"bike_id": "9106d886a8f6f587c3196f27a541a180", "fusion_lon": 0.0, "lon": -77.04171416666667, "name": "9106d886a8f6f587c3196f27a541a180", "is_disabled": 0, "rental_uris": {"android": "https://dc.lft.to/lastmile_qr_scan", "ios": "https://dc.lft.to/lastmile_qr_scan"}, "type": "electric_scooter", "lat": 38.912332666666664, "is_reserved": 0, "fusion_lat": 0.0}, {"bike_id": "da60d5bd7cd2f8f10fdeb643d5333bc4", "fusion_lon": 0.0, "lon": -77.03870733333333, "name": "da60d5bd7cd2f8f10fdeb643d5333bc4", "is_disabled": 0, "rental_uris": {"android": "https://dc.lft.to/lastmile_qr_scan", "ios": "https://dc.lft.to/lastmile_qr_scan"}, "type": "electric_scooter", "lat": 38.932376166666664, "is_reserved": 0, "fusion_lat": 0.0}, {"bike_id": "046b7800df5d2b4d37c3745d0eb840ad", "fusion_lon": 0.0, "lon": -77.04042433333333, "name": "046b7800df5d2b4d37c3745d0eb840ad", "is_disabled": 0, "rental_uris": {"android": "https://dc.lft.to/lastmile_qr_scan", "ios": "https://dc.lft.to/lastmile_qr_scan"}, "type": "electric_scooter", "lat": 38.8907885, "is_reserved": 0, "fusion_lat": 0.0}, {"bike_id": "1f3b0a20b6175f6801ed391a79ee39ed", "fusion_lon": 0.0, "lon": -77.01767266666667, "name": "1f3b0a20b6175f6801ed391a79ee39ed", "is_disabled": 0, "rental_uris": {"android": "https://dc.lft.to/lastmile_qr_scan", "ios": "https://dc.lft.to/lastmile_qr_scan"}, "type": "electric_scooter", "lat": 38.9024705, "is_reserved": 0, "fusion_lat": 0.0}, {"bike_id": "ebf500ece0b72dce03b6815d4f213d67", "fusion_lon": 0.0, "lon": -76.99485733333333, "name": "ebf500ece0b72dce03b6815d4f213d67", "is_disabled": 0, "rental_uris": {"android": "https://dc.lft.to/lastmile_qr_scan", "ios": "https://dc.lft.to/lastmile_qr_scan"}, "type": "electric_scooter", "lat": 38.90984016666667, "is_reserved": 0, "fusion_lat": 0.0}, {"bike_id": "eb7690f78b045921ab699c5d3140e666", "fusion_lon": 0.0, "lon": -77.00834683333333, "name": "eb7690f78b045921ab699c5d3140e666", "is_disabled": 0, "rental_uris": {"android": "https://dc.lft.to/lastmile_qr_scan", "ios": "https://dc.lft.to/lastmile_qr_scan"}, "type": "electric_bike", "lat": 38.829118333333334, "is_reserved": 0, "fusion_lat": 0.0}, {"bike_id": "b5468b320e94a616c694ae39db8be0ec", "fusion_lon": 0.0, "lon": -77.04136433333333, "name": "b5468b320e94a616c694ae39db8be0ec", "is_disabled": 0, "rental_uris": {"android": "https://dc.lft.to/lastmile_qr_scan", "ios": "https://dc.lft.to/lastmile_qr_scan"}, "type": "electric_scooter", "lat": 38.93129166666667, "is_reserved": 0, "fusion_lat": 0.0}, {"bike_id": "1eb99eb0c168e947f5705669b91bf113", "fusion_lon": 0.0, "lon": -77.17838933333333, "name": "1eb99eb0c168e947f5705669b91bf113", "is_disabled": 0, "rental_uris": {"android": "https://dc.lft.to/lastmile_qr_scan", "ios": "https://dc.lft.to/lastmile_qr_scan"}, "type": "electric_bike", "lat": 39.08853966666667, "is_reserved": 0, "fusion_lat": 0.0}, {"bike_id": "1e31b7f197608e8499c855a6915ecd3d", "fusion_lon": 0.0, "lon": -76.9398975, "name": "1e31b7f197608e8499c855a6915ecd3d", "is_disabled": 0, "rental_uris": {"android": "https://dc.lft.to/lastmile_qr_scan", "ios": "https://dc.lft.to/lastmile_qr_scan"}, "type": "electric_scooter", "lat": 38.899805, "is_reserved": 0, "fusion_lat": 0.0}, {"bike_id": "32bb946ef76fdfbe7eac925d5ab4af40", "fusion_lon": 0.0, "lon": -77.03150433333333, "name": "32bb946ef76fdfbe7eac925d5ab4af40", "is_disabled": 0, "rental_uris": {"android": "https://dc.lft.to/lastmile_qr_scan", "ios": "https://dc.lft.to/lastmile_qr_scan"}, "type": "electric_scooter", "lat": 38.92790566666667, "is_reserved": 0, "fusion_lat": 0.0}, {"bike_id": "fb7d39909fedc9acbc8da29f47a9bee8", "fusion_lon": 0.0, "lon": -77.03202033333334, "name": "fb7d39909fedc9acbc8da29f47a9bee8", "is_disabled": 0, "rental_uris": {"android": "https://dc.lft.to/lastmile_qr_scan", "ios": "https://dc.lft.to/lastmile_qr_scan"}, "type": "electric_scooter", "lat": 38.918179333333335, "is_reserved": 0, "fusion_lat": 0.0}, {"bike_id": "e8e9e323f1f44c954aa932586c8dae07", "fusion_lon": 0.0, "lon": -77.02847166666666, "name": "e8e9e323f1f44c954aa932586c8dae07", "is_disabled": 0, "rental_uris": {"android": "https://dc.lft.to/lastmile_qr_scan", "ios": "https://dc.lft.to/lastmile_qr_scan"}, "type": "electric_bike", "lat": 38.9341365, "is_reserved": 0, "fusion_lat": 0.0}, {"bike_id": "1fca9f8bf85d08dac74e4f867594cdfd", "fusion_lon": 0.0, "lon": -77.0110705, "name": "1fca9f8bf85d08dac74e4f867594cdfd", "is_disabled": 0, "rental_uris": {"android": "https://dc.lft.to/lastmile_qr_scan", "ios": "https://dc.lft.to/lastmile_qr_scan"}, "type": "electric_scooter", "lat": 38.895252666666664, "is_reserved": 0, "fusion_lat": 0.0}, {"bike_id": "2f4f7c69ed27d6200cacbb7afc738b0a", "fusion_lon": 0.0, "lon": -76.9652515, "name": "2f4f7c69ed27d6200cacbb7afc738b0a", "is_disabled": 0, "rental_uris": {"android": "https://dc.lft.to/lastmile_qr_scan", "ios": "https://dc.lft.to/lastmile_qr_scan"}, "type": "electric_bike", "lat": 38.87478383333333, "is_reserved": 0, "fusion_lat": 0.0}, {"bike_id": "60e0e4ed6d1eae217654203cd15d273c", "fusion_lon": 0.0, "lon": -77.02525983333334, "name": "60e0e4ed6d1eae217654203cd15d273c", "is_disabled": 0, "rental_uris": {"android": "https://dc.lft.to/lastmile_qr_scan", "ios": "https://dc.lft.to/lastmile_qr_scan"}, "type": "electric_scooter", "lat": 38.914902166666664, "is_reserved": 0, "fusion_lat": 0.0}, {"bike_id": "d945f7c6ca41a14872f7378fbd16c135", "fusion_lon": 0.0, "lon": -77.02689166666667, "name": "d945f7c6ca41a14872f7378fbd16c135", "is_disabled": 0, "rental_uris": {"android": "https://dc.lft.to/lastmile_qr_scan", "ios": "https://dc.lft.to/lastmile_qr_scan"}, "type": "electric_scooter", "lat": 38.9067965, "is_reserved": 0, "fusion_lat": 0.0}, {"bike_id": "66a67cca6a7bcb1d97b9e7c584368814", "fusion_lon": 0.0, "lon": -77.02299416666666, "name": "66a67cca6a7bcb1d97b9e7c584368814", "is_disabled": 0, "rental_uris": {"android": "https://dc.lft.to/lastmile_qr_scan", "ios": "https://dc.lft.to/lastmile_qr_scan"}, "type": "electric_scooter", "lat": 38.89668116666667, "is_reserved": 0, "fusion_lat": 0.0}, {"bike_id": "e19307815f135abde4968b1fda5b2cf0", "fusion_lon": 0.0, "lon": -77.222246, "name": "e19307815f135abde4968b1fda5b2cf0", "is_disabled": 0, "rental_uris": {"android": "https://dc.lft.to/lastmile_qr_scan", "ios": "https://dc.lft.to/lastmile_qr_scan"}, "type": "electric_bike", "lat": 38.92855433333333, "is_reserved": 0, "fusion_lat": 0.0}, {"bike_id": "6c688e16e0dded55caee9e89d595dfa3", "fusion_lon": 0.0, "lon": -76.9788985, "name": "6c688e16e0dded55caee9e89d595dfa3", "is_disabled": 0, "rental_uris": {"android": "https://dc.lft.to/lastmile_qr_scan", "ios": "https://dc.lft.to/lastmile_qr_scan"}, "type": "electric_bike", "lat": 38.915829, "is_reserved": 0, "fusion_lat": 0.0}, {"bike_id": "d0d01870389ea8cd5cc40fdc449e7fc0", "fusion_lon": 0.0, "lon": -77.01199216666667, "name": "d0d01870389ea8cd5cc40fdc449e7fc0", "is_disabled": 0, "rental_uris": {"android": "https://dc.lft.to/lastmile_qr_scan", "ios": "https://dc.lft.to/lastmile_qr_scan"}, "type": "electric_scooter", "lat": 38.90010083333333, "is_reserved": 0, "fusion_lat": 0.0}, {"bike_id": "a842ac8e2682c6e5832c3fdadd190788", "fusion_lon": 0.0, "lon": -76.98385283333333, "name": "a842ac8e2682c6e5832c3fdadd190788", "is_disabled": 0, "rental_uris": {"android": "https://dc.lft.to/lastmile_qr_scan", "ios": "https://dc.lft.to/lastmile_qr_scan"}, "type": "electric_scooter", "lat": 38.861130333333335, "is_reserved": 0, "fusion_lat": 0.0}, {"bike_id": "04f7facb04783e29a10360c38f90b726", "fusion_lon": 0.0, "lon": -77.0020755, "name": "04f7facb04783e29a10360c38f90b726", "is_disabled": 0, "rental_uris": {"android": "https://dc.lft.to/lastmile_qr_scan", "ios": "https://dc.lft.to/lastmile_qr_scan"}, "type": "electric_scooter", "lat": 38.90069316666667, "is_reserved": 0, "fusion_lat": 0.0}, {"bike_id": "e00ca1904354d096d3f448ce6b70710d", "fusion_lon": 0.0, "lon": -76.99331866666667, "name": "e00ca1904354d096d3f448ce6b70710d", "is_disabled": 0, "rental_uris": {"android": "https://dc.lft.to/lastmile_qr_scan", "ios": "https://dc.lft.to/lastmile_qr_scan"}, "type": "electric_bike", "lat": 38.89363566666667, "is_reserved": 0, "fusion_lat": 0.0}, {"bike_id": "e1ae3395dda921828876c5835ee733c1", "fusion_lon": 0.0, "lon": -77.012212, "name": "e1ae3395dda921828876c5835ee733c1", "is_disabled": 0, "rental_uris": {"android": "https://dc.lft.to/lastmile_qr_scan", "ios": "https://dc.lft.to/lastmile_qr_scan"}, "type": "electric_scooter", "lat": 38.914393, "is_reserved": 0, "fusion_lat": 0.0}, {"bike_id": "35931b98238104aa8f2516b6c69822fb", "fusion_lon": 0.0, "lon": -77.01800433333334, "name": "35931b98238104aa8f2516b6c69822fb", "is_disabled": 0, "rental_uris": {"android": "https://dc.lft.to/lastmile_qr_scan", "ios": "https://dc.lft.to/lastmile_qr_scan"}, "type": "electric_scooter", "lat": 38.87674783333333, "is_reserved": 0, "fusion_lat": 0.0}, {"bike_id": "947c63b013cfc5eb57aaca7acb9261c4", "fusion_lon": 0.0, "lon": -77.03194566666667, "name": "947c63b013cfc5eb57aaca7acb9261c4", "is_disabled": 0, "rental_uris": {"android": "https://dc.lft.to/lastmile_qr_scan", "ios": "https://dc.lft.to/lastmile_qr_scan"}, "type": "electric_scooter", "lat": 38.90978066666667, "is_reserved": 0, "fusion_lat": 0.0}, {"bike_id": "ee7d8afcb43b506cf34102d21a929e60", "fusion_lon": 0.0, "lon": -77.022017, "name": "ee7d8afcb43b506cf34102d21a929e60", "is_disabled": 0, "rental_uris": {"android": "https://dc.lft.to/lastmile_qr_scan", "ios": "https://dc.lft.to/lastmile_qr_scan"}, "type": "electric_scooter", "lat": 38.91099333333333, "is_reserved": 0, "fusion_lat": 0.0}, {"bike_id": "88594d680144c1bfe928fbc1d93b09e0", "fusion_lon": 0.0, "lon": -77.031926, "name": "88594d680144c1bfe928fbc1d93b09e0", "is_disabled": 0, "rental_uris": {"android": "https://dc.lft.to/lastmile_qr_scan", "ios": "https://dc.lft.to/lastmile_qr_scan"}, "type": "electric_scooter", "lat": 38.92383183333333, "is_reserved": 0, "fusion_lat": 0.0}, {"bike_id": "fc60837bd3e1cbf2507386d910ba7fd9", "fusion_lon": 0.0, "lon": -77.0325945, "name": "fc60837bd3e1cbf2507386d910ba7fd9", "is_disabled": 0, "rental_uris": {"android": "https://dc.lft.to/lastmile_qr_scan", "ios": "https://dc.lft.to/lastmile_qr_scan"}, "type": "electric_scooter", "lat": 38.94272616666667, "is_reserved": 0, "fusion_lat": 0.0}, {"bike_id": "335ead06ef0a2b96063af0a3c8ec9671", "fusion_lon": 0.0, "lon": -77.06926916666667, "name": "335ead06ef0a2b96063af0a3c8ec9671", "is_disabled": 0, "rental_uris": {"android": "https://dc.lft.to/lastmile_qr_scan", "ios": "https://dc.lft.to/lastmile_qr_scan"}, "type": "electric_scooter", "lat": 38.90777583333333, "is_reserved": 0, "fusion_lat": 0.0}, {"bike_id": "1156840fb6d5f63fda6dc6507ad4389c", "fusion_lon": 0.0, "lon": -77.03705283333333, "name": "1156840fb6d5f63fda6dc6507ad4389c", "is_disabled": 0, "rental_uris": {"android": "https://dc.lft.to/lastmile_qr_scan", "ios": "https://dc.lft.to/lastmile_qr_scan"}, "type": "electric_scooter", "lat": 38.926422333333335, "is_reserved": 0, "fusion_lat": 0.0}, {"bike_id": "a400ed414f510538df731fee695d60cd", "fusion_lon": 0.0, "lon": -77.04903366666667, "name": "a400ed414f510538df731fee695d60cd", "is_disabled": 0, "rental_uris": {"android": "https://dc.lft.to/lastmile_qr_scan", "ios": "https://dc.lft.to/lastmile_qr_scan"}, "type": "electric_scooter", "lat": 38.90067416666667, "is_reserved": 0, "fusion_lat": 0.0}, {"bike_id": "1305c6a6b4608a933f3577ac332eeb18", "fusion_lon": 0.0, "lon": -77.01507583333333, "name": "1305c6a6b4608a933f3577ac332eeb18", "is_disabled": 0, "rental_uris": {"android": "https://dc.lft.to/lastmile_qr_scan", "ios": "https://dc.lft.to/lastmile_qr_scan"}, "type": "electric_scooter", "lat": 38.899428666666665, "is_reserved": 0, "fusion_lat": 0.0}, {"bike_id": "6148d899b7f0362e7787bb2eb21da5ba", "fusion_lon": 0.0, "lon": -77.033675, "name": "6148d899b7f0362e7787bb2eb21da5ba", "is_disabled": 0, "rental_uris": {"android": "https://dc.lft.to/lastmile_qr_scan", "ios": "https://dc.lft.to/lastmile_qr_scan"}, "type": "electric_scooter", "lat": 38.9288795, "is_reserved": 0, "fusion_lat": 0.0}, {"bike_id": "a7e382b5d6d814a74735884cb6be5d92", "fusion_lon": 0.0, "lon": -77.059254, "name": "a7e382b5d6d814a74735884cb6be5d92", "is_disabled": 0, "rental_uris": {"android": "https://dc.lft.to/lastmile_qr_scan", "ios": "https://dc.lft.to/lastmile_qr_scan"}, "type": "electric_scooter", "lat": 38.9094335, "is_reserved": 0, "fusion_lat": 0.0}, {"bike_id": "ef9a759192a290aa7d4914e720b05bc5", "fusion_lon": 0.0, "lon": -77.02398383333333, "name": "ef9a759192a290aa7d4914e720b05bc5", "is_disabled": 0, "rental_uris": {"android": "https://dc.lft.to/lastmile_qr_scan", "ios": "https://dc.lft.to/lastmile_qr_scan"}, "type": "electric_scooter", "lat": 38.90741166666667, "is_reserved": 0, "fusion_lat": 0.0}, {"bike_id": "e086bd1f21a50bbc95187163ef1f8fc1", "fusion_lon": 0.0, "lon": -77.02008666666667, "name": "e086bd1f21a50bbc95187163ef1f8fc1", "is_disabled": 0, "rental_uris": {"android": "https://dc.lft.to/lastmile_qr_scan", "ios": "https://dc.lft.to/lastmile_qr_scan"}, "type": "electric_scooter", "lat": 38.92418116666666, "is_reserved": 0, "fusion_lat": 0.0}, {"bike_id": "c8bf3bd096d59b3939ed612375ec0e86", "fusion_lon": 0.0, "lon": -76.985782, "name": "c8bf3bd096d59b3939ed612375ec0e86", "is_disabled": 0, "rental_uris": {"android": "https://dc.lft.to/lastmile_qr_scan", "ios": "https://dc.lft.to/lastmile_qr_scan"}, "type": "electric_scooter", "lat": 38.85447633333333, "is_reserved": 0, "fusion_lat": 0.0}, {"bike_id": "fb0b2dd3b843ccc50ce57c2424c9df07", "fusion_lon": 0.0, "lon": -77.0439825, "name": "fb0b2dd3b843ccc50ce57c2424c9df07", "is_disabled": 0, "rental_uris": {"android": "https://dc.lft.to/lastmile_qr_scan", "ios": "https://dc.lft.to/lastmile_qr_scan"}, "type": "electric_scooter", "lat": 38.9141635, "is_reserved": 0, "fusion_lat": 0.0}, {"bike_id": "b4c4a9e2bf4f15b2ec4f5a734067c032", "fusion_lon": 0.0, "lon": -76.93132416666667, "name": "b4c4a9e2bf4f15b2ec4f5a734067c032", "is_disabled": 0, "rental_uris": {"android": "https://dc.lft.to/lastmile_qr_scan", "ios": "https://dc.lft.to/lastmile_qr_scan"}, "type": "electric_scooter", "lat": 38.89336016666667, "is_reserved": 0, "fusion_lat": 0.0}, {"bike_id": "6d9873bdd670ae88adbbf499f4b12e5b", "fusion_lon": 0.0, "lon": -77.02767683333333, "name": "6d9873bdd670ae88adbbf499f4b12e5b", "is_disabled": 0, "rental_uris": {"android": "https://dc.lft.to/lastmile_qr_scan", "ios": "https://dc.lft.to/lastmile_qr_scan"}, "type": "electric_scooter", "lat": 38.954227333333336, "is_reserved": 0, "fusion_lat": 0.0}, {"bike_id": "1689c0636c9517e1b04a129264974e55", "fusion_lon": 0.0, "lon": -77.02173433333333, "name": "1689c0636c9517e1b04a129264974e55", "is_disabled": 0, "rental_uris": {"android": "https://dc.lft.to/lastmile_qr_scan", "ios": "https://dc.lft.to/lastmile_qr_scan"}, "type": "electric_scooter", "lat": 38.942895666666665, "is_reserved": 0, "fusion_lat": 0.0}, {"bike_id": "b7a4831f57e520b78490adff3fc08044", "fusion_lon": 0.0, "lon": -76.98090766666667, "name": "b7a4831f57e520b78490adff3fc08044", "is_disabled": 0, "rental_uris": {"android": "https://dc.lft.to/lastmile_qr_scan", "ios": "https://dc.lft.to/lastmile_qr_scan"}, "type": "electric_bike", "lat": 38.95357416666667, "is_reserved": 0, "fusion_lat": 0.0}, {"bike_id": "119ed86856fd4faeb8b1113ee9172328", "fusion_lon": 0.0, "lon": -77.028886, "name": "119ed86856fd4faeb8b1113ee9172328", "is_disabled": 0, "rental_uris": {"android": "https://dc.lft.to/lastmile_qr_scan", "ios": "https://dc.lft.to/lastmile_qr_scan"}, "type": "electric_bike", "lat": 38.9940695, "is_reserved": 0, "fusion_lat": 0.0}, {"bike_id": "32773109514708df00ebedd80ee8f430", "fusion_lon": 0.0, "lon": -77.02629183333333, "name": "32773109514708df00ebedd80ee8f430", "is_disabled": 0, "rental_uris": {"android": "https://dc.lft.to/lastmile_qr_scan", "ios": "https://dc.lft.to/lastmile_qr_scan"}, "type": "electric_bike", "lat": 38.96225916666667, "is_reserved": 0, "fusion_lat": 0.0}, {"bike_id": "59a66f3f2be8ce56ed2c6c083e3a7c54", "fusion_lon": 0.0, "lon": -77.043088, "name": "59a66f3f2be8ce56ed2c6c083e3a7c54", "is_disabled": 0, "rental_uris": {"android": "https://dc.lft.to/lastmile_qr_scan", "ios": "https://dc.lft.to/lastmile_qr_scan"}, "type": "electric_scooter", "lat": 38.92322383333333, "is_reserved": 0, "fusion_lat": 0.0}, {"bike_id": "02b3d0b78d55bc065c70c50b5bf6e44c", "fusion_lon": 0.0, "lon": -77.01537333333333, "name": "02b3d0b78d55bc065c70c50b5bf6e44c", "is_disabled": 0, "rental_uris": {"android": "https://dc.lft.to/lastmile_qr_scan", "ios": "https://dc.lft.to/lastmile_qr_scan"}, "type": "electric_scooter", "lat": 38.887442166666666, "is_reserved": 0, "fusion_lat": 0.0}, {"bike_id": "0dc25304be6f3f919107ae22ad0fed75", "fusion_lon": 0.0, "lon": -76.96527583333334, "name": "0dc25304be6f3f919107ae22ad0fed75", "is_disabled": 0, "rental_uris": {"android": "https://dc.lft.to/lastmile_qr_scan", "ios": "https://dc.lft.to/lastmile_qr_scan"}, "type": "electric_scooter", "lat": 38.8763115, "is_reserved": 0, "fusion_lat": 0.0}, {"bike_id": "486a6b9cb1939ad1689f63062f56bd10", "fusion_lon": 0.0, "lon": -77.02815616666666, "name": "486a6b9cb1939ad1689f63062f56bd10", "is_disabled": 0, "rental_uris": {"android": "https://dc.lft.to/lastmile_qr_scan", "ios": "https://dc.lft.to/lastmile_qr_scan"}, "type": "electric_scooter", "lat": 38.93173133333333, "is_reserved": 0, "fusion_lat": 0.0}, {"bike_id": "1cf7b50fd3922cedc97b24979365b5d8", "fusion_lon": 0.0, "lon": -77.04792383333333, "name": "1cf7b50fd3922cedc97b24979365b5d8", "is_disabled": 0, "rental_uris": {"android": "https://dc.lft.to/lastmile_qr_scan", "ios": "https://dc.lft.to/lastmile_qr_scan"}, "type": "electric_scooter", "lat": 38.893553, "is_reserved": 0, "fusion_lat": 0.0}, {"bike_id": "c0ff36855bcb939af2568b6ca38f4415", "fusion_lon": 0.0, "lon": -77.03797483333334, "name": "c0ff36855bcb939af2568b6ca38f4415", "is_disabled": 0, "rental_uris": {"android": "https://dc.lft.to/lastmile_qr_scan", "ios": "https://dc.lft.to/lastmile_qr_scan"}, "type": "electric_scooter", "lat": 38.925021666666666, "is_reserved": 0, "fusion_lat": 0.0}, {"bike_id": "b8905d102a3d45ff7b78f2acdb53ae25", "fusion_lon": 0.0, "lon": -77.02438816666667, "name": "b8905d102a3d45ff7b78f2acdb53ae25", "is_disabled": 0, "rental_uris": {"android": "https://dc.lft.to/lastmile_qr_scan", "ios": "https://dc.lft.to/lastmile_qr_scan"}, "type": "electric_bike", "lat": 38.94826466666667, "is_reserved": 0, "fusion_lat": 0.0}, {"bike_id": "cee292439993a263d691cfa9c362a837", "fusion_lon": 0.0, "lon": -77.0348815, "name": "cee292439993a263d691cfa9c362a837", "is_disabled": 0, "rental_uris": {"android": "https://dc.lft.to/lastmile_qr_scan", "ios": "https://dc.lft.to/lastmile_qr_scan"}, "type": "electric_bike", "lat": 38.935406666666665, "is_reserved": 0, "fusion_lat": 0.0}, {"bike_id": "3d943d9afd249af5c203720019b67057", "fusion_lon": 0.0, "lon": -76.99431033333333, "name": "3d943d9afd249af5c203720019b67057", "is_disabled": 0, "rental_uris": {"android": "https://dc.lft.to/lastmile_qr_scan", "ios": "https://dc.lft.to/lastmile_qr_scan"}, "type": "electric_scooter", "lat": 38.90317183333333, "is_reserved": 0, "fusion_lat": 0.0}, {"bike_id": "c6abba7bbee35244312ac88d2a0a21b9", "fusion_lon": 0.0, "lon": -77.03001066666667, "name": "c6abba7bbee35244312ac88d2a0a21b9", "is_disabled": 0, "rental_uris": {"android": "https://dc.lft.to/lastmile_qr_scan", "ios": "https://dc.lft.to/lastmile_qr_scan"}, "type": "electric_scooter", "lat": 38.884008666666666, "is_reserved": 0, "fusion_lat": 0.0}, {"bike_id": "7abe0485f6fd51a0fdf83b5074506180", "fusion_lon": 0.0, "lon": -77.10091583333333, "name": "7abe0485f6fd51a0fdf83b5074506180", "is_disabled": 0, "rental_uris": {"android": "https://dc.lft.to/lastmile_qr_scan", "ios": "https://dc.lft.to/lastmile_qr_scan"}, "type": "electric_bike", "lat": 38.95954533333333, "is_reserved": 0, "fusion_lat": 0.0}, {"bike_id": "4a2af81830d0154ede2041707631a327", "fusion_lon": 0.0, "lon": -77.03204966666667, "name": "4a2af81830d0154ede2041707631a327", "is_disabled": 0, "rental_uris": {"android": "https://dc.lft.to/lastmile_qr_scan", "ios": "https://dc.lft.to/lastmile_qr_scan"}, "type": "electric_scooter", "lat": 38.91480583333333, "is_reserved": 0, "fusion_lat": 0.0}, {"bike_id": "34566bd7394f8269cb1e7ace531f97fc", "fusion_lon": 0.0, "lon": -77.03787666666666, "name": "34566bd7394f8269cb1e7ace531f97fc", "is_disabled": 0, "rental_uris": {"android": "https://dc.lft.to/lastmile_qr_scan", "ios": "https://dc.lft.to/lastmile_qr_scan"}, "type": "electric_scooter", "lat": 38.92502133333333, "is_reserved": 0, "fusion_lat": 0.0}, {"bike_id": "24d971b21218ca1a5f94fdbbecac48d2", "fusion_lon": 0.0, "lon": -76.98830083333333, "name": "24d971b21218ca1a5f94fdbbecac48d2", "is_disabled": 0, "rental_uris": {"android": "https://dc.lft.to/lastmile_qr_scan", "ios": "https://dc.lft.to/lastmile_qr_scan"}, "type": "electric_scooter", "lat": 38.9002875, "is_reserved": 0, "fusion_lat": 0.0}, {"bike_id": "7cf656c416c4945363b6521dc54876e7", "fusion_lon": 0.0, "lon": -77.01667183333333, "name": "7cf656c416c4945363b6521dc54876e7", "is_disabled": 0, "rental_uris": {"android": "https://dc.lft.to/lastmile_qr_scan", "ios": "https://dc.lft.to/lastmile_qr_scan"}, "type": "electric_scooter", "lat": 38.88137416666667, "is_reserved": 0, "fusion_lat": 0.0}, {"bike_id": "fb0c25a04d5e8485681e2cd6e301fbcb", "fusion_lon": 0.0, "lon": -77.02314733333333, "name": "fb0c25a04d5e8485681e2cd6e301fbcb", "is_disabled": 0, "rental_uris": {"android": "https://dc.lft.to/lastmile_qr_scan", "ios": "https://dc.lft.to/lastmile_qr_scan"}, "type": "electric_scooter", "lat": 38.927726666666665, "is_reserved": 0, "fusion_lat": 0.0}, {"bike_id": "55a0629105c742e2d7ae44cbc44b2934", "fusion_lon": 0.0, "lon": -77.03584516666666, "name": "55a0629105c742e2d7ae44cbc44b2934", "is_disabled": 0, "rental_uris": {"android": "https://dc.lft.to/lastmile_qr_scan", "ios": "https://dc.lft.to/lastmile_qr_scan"}, "type": "electric_scooter", "lat": 38.92797133333333, "is_reserved": 0, "fusion_lat": 0.0}, {"bike_id": "bfd6c4a8403367aef422c8fc19aeadba", "fusion_lon": 0.0, "lon": -77.04909116666667, "name": "bfd6c4a8403367aef422c8fc19aeadba", "is_disabled": 0, "rental_uris": {"android": "https://dc.lft.to/lastmile_qr_scan", "ios": "https://dc.lft.to/lastmile_qr_scan"}, "type": "electric_scooter", "lat": 38.900706666666665, "is_reserved": 0, "fusion_lat": 0.0}, {"bike_id": "26f461ea2349188f72721e161450f5f8", "fusion_lon": 0.0, "lon": -77.027263, "name": "26f461ea2349188f72721e161450f5f8", "is_disabled": 0, "rental_uris": {"android": "https://dc.lft.to/lastmile_qr_scan", "ios": "https://dc.lft.to/lastmile_qr_scan"}, "type": "electric_scooter", "lat": 38.940850833333336, "is_reserved": 0, "fusion_lat": 0.0}, {"bike_id": "aaab34774aee0891be91b69017cfa096", "fusion_lon": 0.0, "lon": -77.00201366666667, "name": "aaab34774aee0891be91b69017cfa096", "is_disabled": 0, "rental_uris": {"android": "https://dc.lft.to/lastmile_qr_scan", "ios": "https://dc.lft.to/lastmile_qr_scan"}, "type": "electric_scooter", "lat": 38.90780433333333, "is_reserved": 0, "fusion_lat": 0.0}, {"bike_id": "0588e6bff647ffe97fb4c3124660c3c0", "fusion_lon": 0.0, "lon": -77.03549216666667, "name": "0588e6bff647ffe97fb4c3124660c3c0", "is_disabled": 0, "rental_uris": {"android": "https://dc.lft.to/lastmile_qr_scan", "ios": "https://dc.lft.to/lastmile_qr_scan"}, "type": "electric_scooter", "lat": 38.924724166666664, "is_reserved": 0, "fusion_lat": 0.0}, {"bike_id": "96e76264c5578a313c7167a785743dd3", "fusion_lon": 0.0, "lon": -77.03269483333334, "name": "96e76264c5578a313c7167a785743dd3", "is_disabled": 0, "rental_uris": {"android": "https://dc.lft.to/lastmile_qr_scan", "ios": "https://dc.lft.to/lastmile_qr_scan"}, "type": "electric_scooter", "lat": 38.916279, "is_reserved": 0, "fusion_lat": 0.0}, {"bike_id": "03ab7e771c02618e391a17f07dd7e773", "fusion_lon": 0.0, "lon": -77.02698666666667, "name": "03ab7e771c02618e391a17f07dd7e773", "is_disabled": 0, "rental_uris": {"android": "https://dc.lft.to/lastmile_qr_scan", "ios": "https://dc.lft.to/lastmile_qr_scan"}, "type": "electric_scooter", "lat": 38.918011666666665, "is_reserved": 0, "fusion_lat": 0.0}, {"bike_id": "540b4d8039ea782ee477b76d66049bc6", "fusion_lon": 0.0, "lon": -77.04325383333334, "name": "540b4d8039ea782ee477b76d66049bc6", "is_disabled": 0, "rental_uris": {"android": "https://dc.lft.to/lastmile_qr_scan", "ios": "https://dc.lft.to/lastmile_qr_scan"}, "type": "electric_scooter", "lat": 38.892225, "is_reserved": 0, "fusion_lat": 0.0}, {"bike_id": "5529cb0f0ac6932a0c19a957c7fcf220", "fusion_lon": 0.0, "lon": -77.04699733333334, "name": "5529cb0f0ac6932a0c19a957c7fcf220", "is_disabled": 0, "rental_uris": {"android": "https://dc.lft.to/lastmile_qr_scan", "ios": "https://dc.lft.to/lastmile_qr_scan"}, "type": "electric_scooter", "lat": 38.90966916666667, "is_reserved": 0, "fusion_lat": 0.0}, {"bike_id": "20e2317d383c722fcd912bec3a81d5f2", "fusion_lon": 0.0, "lon": -77.0418065, "name": "20e2317d383c722fcd912bec3a81d5f2", "is_disabled": 0, "rental_uris": {"android": "https://dc.lft.to/lastmile_qr_scan", "ios": "https://dc.lft.to/lastmile_qr_scan"}, "type": "electric_scooter", "lat": 38.903537, "is_reserved": 0, "fusion_lat": 0.0}, {"bike_id": "a26dc18589a623cb348b94f201eefadc", "fusion_lon": 0.0, "lon": -76.97167433333334, "name": "a26dc18589a623cb348b94f201eefadc", "is_disabled": 0, "rental_uris": {"android": "https://dc.lft.to/lastmile_qr_scan", "ios": "https://dc.lft.to/lastmile_qr_scan"}, "type": "electric_bike", "lat": 38.9163325, "is_reserved": 0, "fusion_lat": 0.0}, {"bike_id": "137636027125046d9025a92e4a781609", "fusion_lon": 0.0, "lon": -77.01881916666666, "name": "137636027125046d9025a92e4a781609", "is_disabled": 0, "rental_uris": {"android": "https://dc.lft.to/lastmile_qr_scan", "ios": "https://dc.lft.to/lastmile_qr_scan"}, "type": "electric_scooter", "lat": 38.9042785, "is_reserved": 0, "fusion_lat": 0.0}, {"bike_id": "fa956baa4acd03108d1420ce50d315c7", "fusion_lon": 0.0, "lon": -77.02688433333333, "name": "fa956baa4acd03108d1420ce50d315c7", "is_disabled": 0, "rental_uris": {"android": "https://dc.lft.to/lastmile_qr_scan", "ios": "https://dc.lft.to/lastmile_qr_scan"}, "type": "electric_scooter", "lat": 38.9126365, "is_reserved": 0, "fusion_lat": 0.0}, {"bike_id": "2360d48fc7e678b513920f2c5e304044", "fusion_lon": 0.0, "lon": -77.2332085, "name": "2360d48fc7e678b513920f2c5e304044", "is_disabled": 0, "rental_uris": {"android": "https://dc.lft.to/lastmile_qr_scan", "ios": "https://dc.lft.to/lastmile_qr_scan"}, "type": "electric_bike", "lat": 38.872841, "is_reserved": 0, "fusion_lat": 0.0}, {"bike_id": "22fc937eae9923fe77d8be3ee0e8057c", "fusion_lon": 0.0, "lon": -77.03227066666666, "name": "22fc937eae9923fe77d8be3ee0e8057c", "is_disabled": 0, "rental_uris": {"android": "https://dc.lft.to/lastmile_qr_scan", "ios": "https://dc.lft.to/lastmile_qr_scan"}, "type": "electric_scooter", "lat": 38.96165533333333, "is_reserved": 0, "fusion_lat": 0.0}, {"bike_id": "15e81f6d4c33deaa508a4555f060225a", "fusion_lon": 0.0, "lon": -77.02944716666667, "name": "15e81f6d4c33deaa508a4555f060225a", "is_disabled": 0, "rental_uris": {"android": "https://dc.lft.to/lastmile_qr_scan", "ios": "https://dc.lft.to/lastmile_qr_scan"}, "type": "electric_scooter", "lat": 38.90729183333333, "is_reserved": 0, "fusion_lat": 0.0}, {"bike_id": "63a8d1ab7b01a77d4da4c011b9178a41", "fusion_lon": 0.0, "lon": -77.0272345, "name": "63a8d1ab7b01a77d4da4c011b9178a41", "is_disabled": 0, "rental_uris": {"android": "https://dc.lft.to/lastmile_qr_scan", "ios": "https://dc.lft.to/lastmile_qr_scan"}, "type": "electric_scooter", "lat": 38.924809833333335, "is_reserved": 0, "fusion_lat": 0.0}, {"bike_id": "5c85ecbd04c5448032db25e1aff9e560", "fusion_lon": 0.0, "lon": -77.075939, "name": "5c85ecbd04c5448032db25e1aff9e560", "is_disabled": 0, "rental_uris": {"android": "https://dc.lft.to/lastmile_qr_scan", "ios": "https://dc.lft.to/lastmile_qr_scan"}, "type": "electric_scooter", "lat": 38.912166166666665, "is_reserved": 0, "fusion_lat": 0.0}, {"bike_id": "cbe49e7b239124637c4fe9caccf583a5", "fusion_lon": 0.0, "lon": -77.0035265, "name": "cbe49e7b239124637c4fe9caccf583a5", "is_disabled": 0, "rental_uris": {"android": "https://dc.lft.to/lastmile_qr_scan", "ios": "https://dc.lft.to/lastmile_qr_scan"}, "type": "electric_scooter", "lat": 38.901421166666665, "is_reserved": 0, "fusion_lat": 0.0}, {"bike_id": "1ce57247157cdc992783196ce33c5948", "fusion_lon": 0.0, "lon": -77.01765216666666, "name": "1ce57247157cdc992783196ce33c5948", "is_disabled": 0, "rental_uris": {"android": "https://dc.lft.to/lastmile_qr_scan", "ios": "https://dc.lft.to/lastmile_qr_scan"}, "type": "electric_bike", "lat": 38.87875666666667, "is_reserved": 0, "fusion_lat": 0.0}, {"bike_id": "4d154285f49d947839337efe23b91097", "fusion_lon": 0.0, "lon": -76.937554, "name": "4d154285f49d947839337efe23b91097", "is_disabled": 0, "rental_uris": {"android": "https://dc.lft.to/lastmile_qr_scan", "ios": "https://dc.lft.to/lastmile_qr_scan"}, "type": "electric_scooter", "lat": 38.890505833333336, "is_reserved": 0, "fusion_lat": 0.0}, {"bike_id": "da315f8691998a0e93e310323b7aa0c1", "fusion_lon": 0.0, "lon": -77.04326933333333, "name": "da315f8691998a0e93e310323b7aa0c1", "is_disabled": 0, "rental_uris": {"android": "https://dc.lft.to/lastmile_qr_scan", "ios": "https://dc.lft.to/lastmile_qr_scan"}, "type": "electric_scooter", "lat": 38.89226766666667, "is_reserved": 0, "fusion_lat": 0.0}, {"bike_id": "168a5847243efa56a1e55e0e2658f6ae", "fusion_lon": 0.0, "lon": -77.02168983333334, "name": "168a5847243efa56a1e55e0e2658f6ae", "is_disabled": 0, "rental_uris": {"android": "https://dc.lft.to/lastmile_qr_scan", "ios": "https://dc.lft.to/lastmile_qr_scan"}, "type": "electric_scooter", "lat": 38.88330083333334, "is_reserved": 0, "fusion_lat": 0.0}, {"bike_id": "f6d845dfeffec003dadd653bda72ab99", "fusion_lon": 0.0, "lon": -77.244419, "name": "f6d845dfeffec003dadd653bda72ab99", "is_disabled": 0, "rental_uris": {"android": "https://dc.lft.to/lastmile_qr_scan", "ios": "https://dc.lft.to/lastmile_qr_scan"}, "type": "electric_bike", "lat": 38.88191833333333, "is_reserved": 0, "fusion_lat": 0.0}, {"bike_id": "45033eb927ce60eeaaad10d3f6290352", "fusion_lon": 0.0, "lon": -77.02180083333333, "name": "45033eb927ce60eeaaad10d3f6290352", "is_disabled": 0, "rental_uris": {"android": "https://dc.lft.to/lastmile_qr_scan", "ios": "https://dc.lft.to/lastmile_qr_scan"}, "type": "electric_scooter", "lat": 38.91428466666667, "is_reserved": 0, "fusion_lat": 0.0}, {"bike_id": "6767bca578bc00d6010181bc16c0db88", "fusion_lon": 0.0, "lon": -76.9903, "name": "6767bca578bc00d6010181bc16c0db88", "is_disabled": 0, "rental_uris": {"android": "https://dc.lft.to/lastmile_qr_scan", "ios": "https://dc.lft.to/lastmile_qr_scan"}, "type": "electric_scooter", "lat": 38.865243166666666, "is_reserved": 0, "fusion_lat": 0.0}, {"bike_id": "3c00024877f76e1855868b179f2f6912", "fusion_lon": 0.0, "lon": -77.02350416666667, "name": "3c00024877f76e1855868b179f2f6912", "is_disabled": 0, "rental_uris": {"android": "https://dc.lft.to/lastmile_qr_scan", "ios": "https://dc.lft.to/lastmile_qr_scan"}, "type": "electric_scooter", "lat": 38.907295166666664, "is_reserved": 0, "fusion_lat": 0.0}, {"bike_id": "f1a5e7c85219cc5991c9615a1c031175", "fusion_lon": 0.0, "lon": -77.129644, "name": "f1a5e7c85219cc5991c9615a1c031175", "is_disabled": 0, "rental_uris": {"android": "https://dc.lft.to/lastmile_qr_scan", "ios": "https://dc.lft.to/lastmile_qr_scan"}, "type": "electric_bike", "lat": 38.852198666666666, "is_reserved": 0, "fusion_lat": 0.0}, {"bike_id": "eac476076b7a8981be01489a54e9caa7", "fusion_lon": 0.0, "lon": -77.05527483333333, "name": "eac476076b7a8981be01489a54e9caa7", "is_disabled": 0, "rental_uris": {"android": "https://dc.lft.to/lastmile_qr_scan", "ios": "https://dc.lft.to/lastmile_qr_scan"}, "type": "electric_scooter", "lat": 38.897270166666665, "is_reserved": 0, "fusion_lat": 0.0}, {"bike_id": "e2bd19638463a55f8043f8fb79788740", "fusion_lon": 0.0, "lon": -77.01480366666667, "name": "e2bd19638463a55f8043f8fb79788740", "is_disabled": 0, "rental_uris": {"android": "https://dc.lft.to/lastmile_qr_scan", "ios": "https://dc.lft.to/lastmile_qr_scan"}, "type": "electric_scooter", "lat": 38.876213, "is_reserved": 0, "fusion_lat": 0.0}, {"bike_id": "f3d328dbf45b33432ea438bf3f38f5d8", "fusion_lon": 0.0, "lon": -77.03108016666667, "name": "f3d328dbf45b33432ea438bf3f38f5d8", "is_disabled": 0, "rental_uris": {"android": "https://dc.lft.to/lastmile_qr_scan", "ios": "https://dc.lft.to/lastmile_qr_scan"}, "type": "electric_scooter", "lat": 38.91923383333334, "is_reserved": 0, "fusion_lat": 0.0}, {"bike_id": "c994bdcb5443d71882c1d2595a194ef1", "fusion_lon": 0.0, "lon": -77.03880033333333, "name": "c994bdcb5443d71882c1d2595a194ef1", "is_disabled": 0, "rental_uris": {"android": "https://dc.lft.to/lastmile_qr_scan", "ios": "https://dc.lft.to/lastmile_qr_scan"}, "type": "electric_scooter", "lat": 38.91707666666667, "is_reserved": 0, "fusion_lat": 0.0}, {"bike_id": "3d8b3c283f91adc02727ae26839f35e3", "fusion_lon": 0.0, "lon": -76.93228833333333, "name": "3d8b3c283f91adc02727ae26839f35e3", "is_disabled": 0, "rental_uris": {"android": "https://dc.lft.to/lastmile_qr_scan", "ios": "https://dc.lft.to/lastmile_qr_scan"}, "type": "electric_bike", "lat": 38.865926333333334, "is_reserved": 0, "fusion_lat": 0.0}, {"bike_id": "270e653741b43974b862027ff8a7b55d", "fusion_lon": 0.0, "lon": -77.03401066666666, "name": "270e653741b43974b862027ff8a7b55d", "is_disabled": 0, "rental_uris": {"android": "https://dc.lft.to/lastmile_qr_scan", "ios": "https://dc.lft.to/lastmile_qr_scan"}, "type": "electric_scooter", "lat": 38.919652666666664, "is_reserved": 0, "fusion_lat": 0.0}, {"bike_id": "9c7b4593197c0ffdd779559e473d6396", "fusion_lon": 0.0, "lon": -77.03677133333333, "name": "9c7b4593197c0ffdd779559e473d6396", "is_disabled": 0, "rental_uris": {"android": "https://dc.lft.to/lastmile_qr_scan", "ios": "https://dc.lft.to/lastmile_qr_scan"}, "type": "electric_scooter", "lat": 38.91713, "is_reserved": 0, "fusion_lat": 0.0}, {"bike_id": "19f9bb9fd88109d5b327be9119823b15", "fusion_lon": 0.0, "lon": -77.03268283333334, "name": "19f9bb9fd88109d5b327be9119823b15", "is_disabled": 0, "rental_uris": {"android": "https://dc.lft.to/lastmile_qr_scan", "ios": "https://dc.lft.to/lastmile_qr_scan"}, "type": "electric_scooter", "lat": 38.93254783333333, "is_reserved": 0, "fusion_lat": 0.0}, {"bike_id": "515394990f2036eec68d1278810fa8db", "fusion_lon": 0.0, "lon": -77.0347615, "name": "515394990f2036eec68d1278810fa8db", "is_disabled": 0, "rental_uris": {"android": "https://dc.lft.to/lastmile_qr_scan", "ios": "https://dc.lft.to/lastmile_qr_scan"}, "type": "electric_bike", "lat": 38.93532, "is_reserved": 0, "fusion_lat": 0.0}, {"bike_id": "677e652a58fb53f40f3f357a7dc6ffdb", "fusion_lon": 0.0, "lon": -77.01760916666667, "name": "677e652a58fb53f40f3f357a7dc6ffdb", "is_disabled": 0, "rental_uris": {"android": "https://dc.lft.to/lastmile_qr_scan", "ios": "https://dc.lft.to/lastmile_qr_scan"}, "type": "electric_scooter", "lat": 38.8832205, "is_reserved": 0, "fusion_lat": 0.0}, {"bike_id": "11b1987a85a0ebce6691163fcc7c950a", "fusion_lon": 0.0, "lon": -77.02885516666667, "name": "11b1987a85a0ebce6691163fcc7c950a", "is_disabled": 0, "rental_uris": {"android": "https://dc.lft.to/lastmile_qr_scan", "ios": "https://dc.lft.to/lastmile_qr_scan"}, "type": "electric_scooter", "lat": 38.9043115, "is_reserved": 0, "fusion_lat": 0.0}, {"bike_id": "c1cf313271301c608566fada24261614", "fusion_lon": 0.0, "lon": -77.0342745, "name": "c1cf313271301c608566fada24261614", "is_disabled": 0, "rental_uris": {"android": "https://dc.lft.to/lastmile_qr_scan", "ios": "https://dc.lft.to/lastmile_qr_scan"}, "type": "electric_scooter", "lat": 38.91922066666667, "is_reserved": 0, "fusion_lat": 0.0}, {"bike_id": "e36d44608cde469766d402eaf14f270c", "fusion_lon": 0.0, "lon": -77.0300425, "name": "e36d44608cde469766d402eaf14f270c", "is_disabled": 0, "rental_uris": {"android": "https://dc.lft.to/lastmile_qr_scan", "ios": "https://dc.lft.to/lastmile_qr_scan"}, "type": "electric_scooter", "lat": 38.917097, "is_reserved": 0, "fusion_lat": 0.0}, {"bike_id": "0e813b8b7f84eeef758f78e81ae84c53", "fusion_lon": 0.0, "lon": -77.024068, "name": "0e813b8b7f84eeef758f78e81ae84c53", "is_disabled": 0, "rental_uris": {"android": "https://dc.lft.to/lastmile_qr_scan", "ios": "https://dc.lft.to/lastmile_qr_scan"}, "type": "electric_scooter", "lat": 38.917504, "is_reserved": 0, "fusion_lat": 0.0},