{"data": {"bikes": [{"name": "e93404ad6bbf11b764a3a6fdeef4c2ed", "fusion_lat": 0.0, "fusion_lon": 0.0, "bike_id": "e93404ad6bbf11b764a3a6fdeef4c2ed", "rental_uris": {"ios": "https://dc.lft.to/lastmile_qr_scan", "android": "https://dc.lft.to/lastmile_qr_scan"}, "type": "electric_scooter", "lat": 38.90723066666666, "is_disabled": 0, "lon": -77.03443416666667, "is_reserved": 0}, {"name": "e72a662c54d6d30c0f5df323cd785c77", "fusion_lat": 0.0, "fusion_lon": 0.0, "bike_id": "e72a662c54d6d30c0f5df323cd785c77", "rental_uris": {"ios": "https://dc.lft.to/lastmile_qr_scan", "android": "https://dc.lft.to/lastmile_qr_scan"}, "type": "electric_scooter", "lat": 38.958706, "is_disabled": 0, "lon": -77.02051316666666, "is_reserved": 0}, {"name": "9e6314bf37ed2173bcc7964d361685c9", "fusion_lat": 0.0, "fusion_lon": 0.0, "bike_id": "9e6314bf37ed2173bcc7964d361685c9", "rental_uris": {"ios": "https://dc.lft.to/lastmile_qr_scan", "android": "https://dc.lft.to/lastmile_qr_scan"}, "type": "electric_scooter", "lat": 38.921501666666664, "is_disabled": 0, "lon": -77.03866366666666, "is_reserved": 0}, {"name": "614cbac474b8399b73cf9817944cee81", "fusion_lat": 0.0, "fusion_lon": 0.0, "bike_id": "614cbac474b8399b73cf9817944cee81", "rental_uris": {"ios": "https://dc.lft.to/lastmile_qr_scan", "android": "https://dc.lft.to/lastmile_qr_scan"}, "type": "electric_scooter", "lat": 38.93073233333333, "is_disabled": 0, "lon": -77.03191383333333, "is_reserved": 0}, {"name": "2dfb56a3acc9b9ec43828c91f4780653", "fusion_lat": 0.0, "fusion_lon": 0.0, "bike_id": "2dfb56a3acc9b9ec43828c91f4780653", "rental_uris": {"ios": "https://dc.lft.to/lastmile_qr_scan", "android": "https://dc.lft.to/lastmile_qr_scan"}, "type": "electric_bike", "lat": 38.854911333333334, "is_disabled": 0, "lon": -77.11525233333333, "is_reserved": 0}, {"name": "07bf8aa73a71e45fba5fc116de9041e8", "fusion_lat": 0.0, "fusion_lon": 0.0, "bike_id": "07bf8aa73a71e45fba5fc116de9041e8", "rental_uris": {"ios": "https://dc.lft.to/lastmile_qr_scan", "android": "https://dc.lft.to/lastmile_qr_scan"}, "type": "electric_bike", "lat": 38.905192166666666, "is_disabled": 0, "lon": -77.05680133333334, "is_reserved": 0}, {"name": "69c62982541dbbfa5a21d6e06e8700fe", "fusion_lat": 0.0, "fusion_lon": 0.0, "bike_id": "69c62982541dbbfa5a21d6e06e8700fe", "rental_uris": {"ios": "https://dc.lft.to/lastmile_qr_scan", "android": "https://dc.lft.to/lastmile_qr_scan"}, "type": "electric_scooter", "lat": 38.8635765, "is_disabled": 0, "lon": -76.9905, "is_reserved": 0}, {"name": "30eddd815cbccd38835a5ecc4d4190b9", "fusion_lat": 0.0, "fusion_lon": 0.0, "bike_id": "30eddd815cbccd38835a5ecc4d4190b9", "rental_uris": {"ios": "https://dc.lft.to/lastmile_qr_scan", "android": "https://dc.lft.to/lastmile_qr_scan"}, "type": "electric_scooter", "lat": 38.923487, "is_disabled": 0, "lon": -77.04133633333333, "is_reserved": 0}, {"name": "5f2e1339ac2adaa71bcef8808ee40129", "fusion_lat": 0.0, "fusion_lon": 0.0, "bike_id": "5f2e1339ac2adaa71bcef8808ee40129", "rental_uris": {"ios": "https://dc.lft.to/lastmile_qr_scan", "android": "https://dc.lft.to/lastmile_qr_scan"}, "type": "electric_scooter", "lat": 38.90417133333333, "is_disabled": 0, "lon": -77.04343433333334, "is_reserved": 0}, {"name": "939d46227954c55c7eb18a083f794e17", "fusion_lat": 0.0, "fusion_lon": 0.0, "bike_id": "939d46227954c55c7eb18a083f794e17", "rental_uris": {"ios": "https://dc.lft.to/lastmile_qr_scan", "android": "https://dc.lft.to/lastmile_qr_scan"}, "type": "electric_scooter", "lat": 38.91150783333333, "is_disabled": 0, "lon": -77.03848966666666, "is_reserved": 0}, {"name": "9d8622217e6599f9d8d270425366bd4f", "fusion_lat": 0.0, "fusion_lon": 0.0, "bike_id": "9d8622217e6599f9d8d270425366bd4f", "rental_uris": {"ios": "https://dc.lft.to/lastmile_qr_scan", "android": "https://dc.lft.to/lastmile_qr_scan"}, "type": "electric_scooter", "lat": 38.8901555, "is_disabled": 0, "lon": -76.93744333333333, "is_reserved": 0}, {"name": "d4a3e48939b1651ef4b5e5ebb0b1269f", "fusion_lat": 0.0, "fusion_lon": 0.0, "bike_id": "d4a3e48939b1651ef4b5e5ebb0b1269f", "rental_uris": {"ios": "https://dc.lft.to/lastmile_qr_scan", "android": "https://dc.lft.to/lastmile_qr_scan"}, "type": "electric_scooter", "lat": 38.931117666666665, "is_disabled": 0, "lon": -77.01245816666666, "is_reserved": 0}, {"name": "4b28160b4c0098038cd93a36235b7f35", "fusion_lat": 0.0, "fusion_lon": 0.0, "bike_id": "4b28160b4c0098038cd93a36235b7f35", "rental_uris": {"ios": "https://dc.lft.to/lastmile_qr_scan", "android": "https://dc.lft.to/lastmile_qr_scan"}, "type": "electric_scooter", "lat": 38.90326433333333, "is_disabled": 0, "lon": -77.02065033333334, "is_reserved": 0}, {"name": "79417003d2ecd9c56b854bfdbd780e7a", "fusion_lat": 0.0, "fusion_lon": 0.0, "bike_id": "79417003d2ecd9c56b854bfdbd780e7a", "rental_uris": {"ios": "https://dc.lft.to/lastmile_qr_scan", "android": "https://dc.lft.to/lastmile_qr_scan"}, "type": "electric_scooter", "lat": 38.91703433333333, "is_disabled": 0, "lon": -77.034736, "is_reserved": 0}, {"name": "7fd58432eb12716ccbc61c24c334caa9", "fusion_lat": 0.0, "fusion_lon": 0.0, "bike_id": "7fd58432eb12716ccbc61c24c334caa9", "rental_uris": {"ios": "https://dc.lft.to/lastmile_qr_scan", "android": "https://dc.lft.to/lastmile_qr_scan"}, "type": "electric_scooter", "lat": 38.88322483333334, "is_disabled": 0, "lon": -76.94941383333334, "is_reserved": 0}, {"name": "c500dd6d258ac40c6ac762a824b33632", "fusion_lat": 0.0, "fusion_lon": 0.0, "bike_id": "c500dd6d258ac40c6ac762a824b33632", "rental_uris": {"ios": "https://dc.lft.to/lastmile_qr_scan", "android": "https://dc.lft.to/lastmile_qr_scan"}, "type": "electric_scooter", "lat": 38.90038116666667, "is_disabled": 0, "lon": -76.9964155, "is_reserved": 0}, {"name": "86cdd0b599648a3e7b07cabde1e56657", "fusion_lat": 0.0, "fusion_lon": 0.0, "bike_id": "86cdd0b599648a3e7b07cabde1e56657", "rental_uris": {"ios": "https://dc.lft.to/lastmile_qr_scan", "android": "https://dc.lft.to/lastmile_qr_scan"}, "type": "electric_scooter", "lat": 38.928702, "is_disabled": 0, "lon": -77.027312, "is_reserved": 0}, {"name": "0920fb2fda003d6bc83f6a60845d0c2c", "fusion_lat": 0.0, "fusion_lon": 0.0, "bike_id": "0920fb2fda003d6bc83f6a60845d0c2c", "rental_uris": {"ios": "https://dc.lft.to/lastmile_qr_scan", "android": "https://dc.lft.to/lastmile_qr_scan"}, "type": "electric_bike", "lat": 38.85842383333333, "is_disabled": 0, "lon": -76.99284716666666, "is_reserved": 0}, {"name": "efa55d9313efd590bac7db090c79ba24", "fusion_lat": 0.0, "fusion_lon": 0.0, "bike_id": "efa55d9313efd590bac7db090c79ba24", "rental_uris": {"ios": "https://dc.lft.to/lastmile_qr_scan", "android": "https://dc.lft.to/lastmile_qr_scan"}, "type": "electric_scooter", "lat": 38.913462833333334, "is_disabled": 0, "lon": -77.0457735, "is_reserved": 0}, {"name": "18729ff37e1d418a8c7363b99451cf3b", "fusion_lat": 0.0, "fusion_lon": 0.0, "bike_id": "18729ff37e1d418a8c7363b99451cf3b", "rental_uris": {"ios": "https://dc.lft.to/lastmile_qr_scan", "android": "https://dc.lft.to/lastmile_qr_scan"}, "type": "electric_scooter", "lat": 38.9180935, "is_disabled": 0, "lon": -77.01019916666667, "is_reserved": 0}, {"name": "a5ea4c6440c258a1ff146410747bbc43", "fusion_lat": 0.0, "fusion_lon": 0.0, "bike_id": "a5ea4c6440c258a1ff146410747bbc43", "rental_uris": {"ios": "https://dc.lft.to/lastmile_qr_scan", "android": "https://dc.lft.to/lastmile_qr_scan"}, "type": "electric_scooter", "lat": 38.90238, "is_disabled": 0, "lon": -77.001964, "is_reserved": 0}, {"name": "b19aefd8083d669f77358fcfe66ed0a4", "fusion_lat": 0.0, "fusion_lon": 0.0, "bike_id": "b19aefd8083d669f77358fcfe66ed0a4", "rental_uris": {"ios": "https://dc.lft.to/lastmile_qr_scan", "android": "https://dc.lft.to/lastmile_qr_scan"}, "type": "electric_scooter", "lat": 38.8842355, "is_disabled": 0, "lon": -77.024674, "is_reserved": 0}, {"name": "6f03c362d9d326f1eb7c4e0951cc433b", "fusion_lat": 0.0, "fusion_lon": 0.0, "bike_id": "6f03c362d9d326f1eb7c4e0951cc433b", "rental_uris": {"ios": "https://dc.lft.to/lastmile_qr_scan", "android": "https://dc.lft.to/lastmile_qr_scan"}, "type": "electric_scooter", "lat": 38.8952975, "is_disabled": 0, "lon": -77.015273, "is_reserved": 0}, {"name": "5474600527f18337c30a8d3c1c65a77a", "fusion_lat": 0.0, "fusion_lon": 0.0, "bike_id": "5474600527f18337c30a8d3c1c65a77a", "rental_uris": {"ios": "https://dc.lft.to/lastmile_qr_scan", "android": "https://dc.lft.to/lastmile_qr_scan"}, "type": "electric_scooter", "lat": 38.879664166666664, "is_disabled": 0, "lon": -76.98749083333334, "is_reserved": 0}, {"name": "022321f848216b5966735692ab5aa170", "fusion_lat": 0.0, "fusion_lon": 0.0, "bike_id": "022321f848216b5966735692ab5aa170", "rental_uris": {"ios": "https://dc.lft.to/lastmile_qr_scan", "android": "https://dc.lft.to/lastmile_qr_scan"}, "type": "electric_scooter", "lat": 38.88145383333333, "is_disabled": 0, "lon": -76.991627, "is_reserved": 0}, {"name": "ad3d60c2d224af58bdaa2d67d555da6e", "fusion_lat": 0.0, "fusion_lon": 0.0, "bike_id": "ad3d60c2d224af58bdaa2d67d555da6e", "rental_uris": {"ios": "https://dc.lft.to/lastmile_qr_scan", "android": "https://dc.lft.to/lastmile_qr_scan"}, "type": "electric_scooter", "lat": 38.901276, "is_disabled": 0, "lon": -77.03173083333333, "is_reserved": 0}, {"name": "297583ba9d6b2e4976605d6336a45e75", "fusion_lat": 0.0, "fusion_lon": 0.0, "bike_id": "297583ba9d6b2e4976605d6336a45e75", "rental_uris": {"ios": "https://dc.lft.to/lastmile_qr_scan", "android": "https://dc.lft.to/lastmile_qr_scan"}, "type": "electric_scooter", "lat": 38.887719, "is_disabled": 0, "lon": -77.01545716666666, "is_reserved": 0}, {"name": "b42aa70e9d3578c547d357e28bbc8815", "fusion_lat": 0.0, "fusion_lon": 0.0, "bike_id": "b42aa70e9d3578c547d357e28bbc8815", "rental_uris": {"ios": "https://dc.lft.to/lastmile_qr_scan", "android": "https://dc.lft.to/lastmile_qr_scan"}, "type": "electric_scooter", "lat": 38.91374616666667, "is_disabled": 0, "lon": -77.04336683333334, "is_reserved": 0}, {"name": "6e4e80dcb4363304a83af53244dde850", "fusion_lat": 0.0, "fusion_lon": 0.0, "bike_id": "6e4e80dcb4363304a83af53244dde850", "rental_uris": {"ios": "https://dc.lft.to/lastmile_qr_scan", "android": "https://dc.lft.to/lastmile_qr_scan"}, "type": "electric_scooter", "lat": 38.904368833333336, "is_disabled": 0, "lon": -77.0293835, "is_reserved": 0}, {"name": "a2d71cbffd364597a79472843bacf2a0", "fusion_lat": 0.0, "fusion_lon": 0.0, "bike_id": "a2d71cbffd364597a79472843bacf2a0", "rental_uris": {"ios": "https://dc.lft.to/lastmile_qr_scan", "android": "https://dc.lft.to/lastmile_qr_scan"}, "type": "electric_scooter", "lat": 38.9003095, "is_disabled": 0, "lon": -76.998706, "is_reserved": 0}, {"name": "83749582db0c2aeecea7667596eba1fc", "fusion_lat": 0.0, "fusion_lon": 0.0, "bike_id": "83749582db0c2aeecea7667596eba1fc", "rental_uris": {"ios": "https://dc.lft.to/lastmile_qr_scan", "android": "https://dc.lft.to/lastmile_qr_scan"}, "type": "electric_scooter", "lat": 38.90383033333333, "is_disabled": 0, "lon": -77.0487035, "is_reserved": 0}, {"name": "648863b3525ea13fbeb4a7826ff73c4c", "fusion_lat": 0.0, "fusion_lon": 0.0, "bike_id": "648863b3525ea13fbeb4a7826ff73c4c", "rental_uris": {"ios": "https://dc.lft.to/lastmile_qr_scan", "android": "https://dc.lft.to/lastmile_qr_scan"}, "type": "electric_scooter", "lat": 38.8964075, "is_disabled": 0, "lon": -77.00922733333333, "is_reserved": 0}, {"name": "29448c80997e89fa3e3d039db249e8af", "fusion_lat": 0.0, "fusion_lon": 0.0, "bike_id": "29448c80997e89fa3e3d039db249e8af", "rental_uris": {"ios": "https://dc.lft.to/lastmile_qr_scan", "android": "https://dc.lft.to/lastmile_qr_scan"}, "type": "electric_scooter", "lat": 38.905089833333335, "is_disabled": 0, "lon": -77.04995916666667, "is_reserved": 0}, {"name": "8f7c6df204633bd9ab58fa7ad4562897", "fusion_lat": 0.0, "fusion_lon": 0.0, "bike_id": "8f7c6df204633bd9ab58fa7ad4562897", "rental_uris": {"ios": "https://dc.lft.to/lastmile_qr_scan", "android": "https://dc.lft.to/lastmile_qr_scan"}, "type": "electric_scooter", "lat": 38.913272, "is_disabled": 0, "lon": -77.04557233333334, "is_reserved": 0}, {"name": "e35ab70a0e7482cd17b32811b72ff817", "fusion_lat": 0.0, "fusion_lon": 0.0, "bike_id": "e35ab70a0e7482cd17b32811b72ff817", "rental_uris": {"ios": "https://dc.lft.to/lastmile_qr_scan", "android": "https://dc.lft.to/lastmile_qr_scan"}, "type": "electric_scooter", "lat": 38.92477, "is_disabled": 0, "lon": -77.05209916666666, "is_reserved": 0}, {"name": "e43b1a1d2b6a82a6e13a3bdf791df831", "fusion_lat": 0.0, "fusion_lon": 0.0, "bike_id": "e43b1a1d2b6a82a6e13a3bdf791df831", "rental_uris": {"ios": "https://dc.lft.to/lastmile_qr_scan", "android": "https://dc.lft.to/lastmile_qr_scan"}, "type": "electric_scooter", "lat": 38.884822, "is_disabled": 0, "lon": -76.92955566666667, "is_reserved": 0}, {"name": "63f51eb2b031d20436daebd956fe1459", "fusion_lat": 0.0, "fusion_lon": 0.0, "bike_id": "63f51eb2b031d20436daebd956fe1459", "rental_uris": {"ios": "https://dc.lft.to/lastmile_qr_scan", "android": "https://dc.lft.to/lastmile_qr_scan"}, "type": "electric_scooter", "lat": 38.93398066666666, "is_disabled": 0, "lon": -77.04122333333333, "is_reserved": 0}, {"name": "8471c5abb4e2776dd8152e2d41224039", "fusion_lat": 0.0, "fusion_lon": 0.0, "bike_id": "8471c5abb4e2776dd8152e2d41224039", "rental_uris": {"ios": "https://dc.lft.to/lastmile_qr_scan", "android": "https://dc.lft.to/lastmile_qr_scan"}, "type": "electric_scooter", "lat": 38.90533283333333, "is_disabled": 0, "lon": -77.045187, "is_reserved": 0}, {"name": "af45554d2aaff34bc0a68e2a44304d17", "fusion_lat": 0.0, "fusion_lon": 0.0, "bike_id": "af45554d2aaff34bc0a68e2a44304d17", "rental_uris": {"ios": "https://dc.lft.to/lastmile_qr_scan", "android": "https://dc.lft.to/lastmile_qr_scan"}, "type": "electric_scooter", "lat": 38.89941966666667, "is_disabled": 0, "lon": -77.0547635, "is_reserved": 0}, {"name": "f1b72d53f3621abfe14fcea44b619781", "fusion_lat": 0.0, "fusion_lon": 0.0, "bike_id": "f1b72d53f3621abfe14fcea44b619781", "rental_uris": {"ios": "https://dc.lft.to/lastmile_qr_scan", "android": "https://dc.lft.to/lastmile_qr_scan"}, "type": "electric_scooter", "lat": 38.89837283333333, "is_disabled": 0, "lon": -76.94636083333333, "is_reserved": 0}, {"name": "d784c7609f019f32843545219f0d6d17", "fusion_lat": 0.0, "fusion_lon": 0.0, "bike_id": "d784c7609f019f32843545219f0d6d17", "rental_uris": {"ios": "https://dc.lft.to/lastmile_qr_scan", "android": "https://dc.lft.to/lastmile_qr_scan"}, "type": "electric_scooter", "lat": 38.911987833333335, "is_disabled": 0, "lon": -77.00261066666667, "is_reserved": 0}, {"name": "acf66deb1676406e50685b0b284b9e42", "fusion_lat": 0.0, "fusion_lon": 0.0, "bike_id": "acf66deb1676406e50685b0b284b9e42", "rental_uris": {"ios": "https://dc.lft.to/lastmile_qr_scan", "android": "https://dc.lft.to/lastmile_qr_scan"}, "type": "electric_scooter", "lat": 38.91404266666667, "is_disabled": 0, "lon": -77.03228133333333, "is_reserved": 0}, {"name": "ef0691f6fb1995e7f2ddc340bb02ad10", "fusion_lat": 0.0, "fusion_lon": 0.0, "bike_id": "ef0691f6fb1995e7f2ddc340bb02ad10", "rental_uris": {"ios": "https://dc.lft.to/lastmile_qr_scan", "android": "https://dc.lft.to/lastmile_qr_scan"}, "type": "electric_scooter", "lat": 38.901805833333334, "is_disabled": 0, "lon": -76.92826633333334, "is_reserved": 0}, {"name": "a5e56fd6b1ebb07d35610142098a6e41", "fusion_lat": 0.0, "fusion_lon": 0.0, "bike_id": "a5e56fd6b1ebb07d35610142098a6e41", "rental_uris": {"ios": "https://dc.lft.to/lastmile_qr_scan", "android": "https://dc.lft.to/lastmile_qr_scan"}, "type": "electric_scooter", "lat": 38.920659666666666, "is_disabled": 0, "lon": -77.0254295, "is_reserved": 0}, {"name": "9ca32a6c569ae0ac89dd6a7404033917", "fusion_lat": 0.0, "fusion_lon": 0.0, "bike_id": "9ca32a6c569ae0ac89dd6a7404033917", "rental_uris": {"ios": "https://dc.lft.to/lastmile_qr_scan", "android": "https://dc.lft.to/lastmile_qr_scan"}, "type": "electric_scooter", "lat": 38.91480633333333, "is_disabled": 0, "lon": -77.03218, "is_reserved": 0}, {"name": "e409a3a11eb65199d32bb5a888057784", "fusion_lat": 0.0, "fusion_lon": 0.0, "bike_id": "e409a3a11eb65199d32bb5a888057784", "rental_uris": {"ios": "https://dc.lft.to/lastmile_qr_scan", "android": "https://dc.lft.to/lastmile_qr_scan"}, "type": "electric_scooter", "lat": 38.929946666666666, "is_disabled": 0, "lon": -77.05527933333333, "is_reserved": 0}, {"name": "6d5b0d59e6deef626b215f959b8535b7", "fusion_lat": 0.0, "fusion_lon": 0.0, "bike_id": "6d5b0d59e6deef626b215f959b8535b7", "rental_uris": {"ios": "https://dc.lft.to/lastmile_qr_scan", "android": "https://dc.lft.to/lastmile_qr_scan"}, "type": "electric_scooter", "lat": 38.9325355, "is_disabled": 0, "lon": -77.032764, "is_reserved": 0}, {"name": "587536f41da7c4488a00886de2c706b8", "fusion_lat": 0.0, "fusion_lon": 0.0, "bike_id": "587536f41da7c4488a00886de2c706b8", "rental_uris": {"ios": "https://dc.lft.to/lastmile_qr_scan", "android": "https://dc.lft.to/lastmile_qr_scan"}, "type": "electric_scooter", "lat": 38.899610833333334, "is_disabled": 0, "lon": -77.04612666666667, "is_reserved": 0}, {"name": "a183de5caaa4424da1cd82ec791722a4", "fusion_lat": 0.0, "fusion_lon": 0.0, "bike_id": "a183de5caaa4424da1cd82ec791722a4", "rental_uris": {"ios": "https://dc.lft.to/lastmile_qr_scan", "android": "https://dc.lft.to/lastmile_qr_scan"}, "type": "electric_scooter", "lat": 38.91079633333333, "is_disabled": 0, "lon": -77.00152066666666, "is_reserved": 0}, {"name": "ba27a95d5c82dec95073fffa713d2293", "fusion_lat": 0.0, "fusion_lon": 0.0, "bike_id": "ba27a95d5c82dec95073fffa713d2293", "rental_uris": {"ios": "https://dc.lft.to/lastmile_qr_scan", "android": "https://dc.lft.to/lastmile_qr_scan"}, "type": "electric_bike", "lat": 38.95755483333333, "is_disabled": 0, "lon": -76.98022966666667, "is_reserved": 0}, {"name": "0586057d8ecd023f2139c6bfbc5ab909", "fusion_lat": 0.0, "fusion_lon": 0.0, "bike_id": "0586057d8ecd023f2139c6bfbc5ab909", "rental_uris": {"ios": "https://dc.lft.to/lastmile_qr_scan", "android": "https://dc.lft.to/lastmile_qr_scan"}, "type": "electric_scooter", "lat": 38.897270666666664, "is_disabled": 0, "lon": -76.99259683333334, "is_reserved": 0}, {"name": "1fcadbdf3eea8c407c01d3c964f7d1cd", "fusion_lat": 0.0, "fusion_lon": 0.0, "bike_id": "1fcadbdf3eea8c407c01d3c964f7d1cd", "rental_uris": {"ios": "https://dc.lft.to/lastmile_qr_scan", "android": "https://dc.lft.to/lastmile_qr_scan"}, "type": "electric_scooter", "lat": 38.900529166666665, "is_disabled": 0, "lon": -77.043973, "is_reserved": 0}, {"name": "bd1f21cf06d319f02cd9ae77d999628b", "fusion_lat": 0.0, "fusion_lon": 0.0, "bike_id": "bd1f21cf06d319f02cd9ae77d999628b", "rental_uris": {"ios": "https://dc.lft.to/lastmile_qr_scan", "android": "https://dc.lft.to/lastmile_qr_scan"}, "type": "electric_scooter", "lat": 38.897541333333336, "is_disabled": 0, "lon": -77.02151633333334, "is_reserved": 0}, {"name": "b5004987b66ac4e27546e492c6bd85c1", "fusion_lat": 0.0, "fusion_lon": 0.0, "bike_id": "b5004987b66ac4e27546e492c6bd85c1", "rental_uris": {"ios": "https://dc.lft.to/lastmile_qr_scan", "android": "https://dc.lft.to/lastmile_qr_scan"}, "type": "electric_scooter", "lat": 38.91570983333333, "is_disabled": 0, "lon": -77.03275083333334, "is_reserved": 0}, {"name": "9897d4e0f03cdc6f67776ec0f73e9667", "fusion_lat": 0.0, "fusion_lon": 0.0, "bike_id": "9897d4e0f03cdc6f67776ec0f73e9667", "rental_uris": {"ios": "https://dc.lft.to/lastmile_qr_scan", "android": "https://dc.lft.to/lastmile_qr_scan"}, "type": "electric_scooter", "lat": 38.88049816666667, "is_disabled": 0, "lon": -77.02483233333334, "is_reserved": 0}, {"name": "c0fd7eb745ecea0431241bceecf7b5c1", "fusion_lat": 0.0, "fusion_lon": 0.0, "bike_id": "c0fd7eb745ecea0431241bceecf7b5c1", "rental_uris": {"ios": "https://dc.lft.to/lastmile_qr_scan", "android": "https://dc.lft.to/lastmile_qr_scan"}, "type": "electric_scooter", "lat": 38.90965166666667, "is_disabled": 0, "lon": -77.02005116666666, "is_reserved": 0}, {"name": "8f258bf760edc277fa084df5785af3ef", "fusion_lat": 0.0, "fusion_lon": 0.0, "bike_id": "8f258bf760edc277fa084df5785af3ef", "rental_uris": {"ios": "https://dc.lft.to/lastmile_qr_scan", "android": "https://dc.lft.to/lastmile_qr_scan"}, "type": "electric_scooter", "lat": 38.896184166666664, "is_disabled": 0, "lon": -76.99636216666667, "is_reserved": 0}, {"name": "f9a9e1ba0ee48bfe705c4bb38411cc49", "fusion_lat": 0.0, "fusion_lon": 0.0, "bike_id": "f9a9e1ba0ee48bfe705c4bb38411cc49", "rental_uris": {"ios": "https://dc.lft.to/lastmile_qr_scan", "android": "https://dc.lft.to/lastmile_qr_scan"}, "type": "electric_scooter", "lat": 38.92187066666666, "is_disabled": 0, "lon": -76.99755783333333, "is_reserved": 0}, {"name": "a8c884fcc98b3438e8d8d27c0f864937", "fusion_lat": 0.0, "fusion_lon": 0.0, "bike_id": "a8c884fcc98b3438e8d8d27c0f864937", "rental_uris": {"ios": "https://dc.lft.to/lastmile_qr_scan", "android": "https://dc.lft.to/lastmile_qr_scan"}, "type": "electric_scooter", "lat": 38.8706525, "is_disabled": 0, "lon": -76.97983533333333, "is_reserved": 0}, {"name": "0a3586b046fe1273965c5516c182e687", "fusion_lat": 0.0, "fusion_lon": 0.0, "bike_id": "0a3586b046fe1273965c5516c182e687", "rental_uris": {"ios": "https://dc.lft.to/lastmile_qr_scan", "android": "https://dc.lft.to/lastmile_qr_scan"}, "type": "electric_bike", "lat": 38.85487583333333, "is_disabled": 0, "lon": -76.97896216666666, "is_reserved": 0}, {"name": "dca8f7d87b90fc71bf6849d66bcd6454", "fusion_lat": 0.0, "fusion_lon": 0.0, "bike_id": "dca8f7d87b90fc71bf6849d66bcd6454", "rental_uris": {"ios": "https://dc.lft.to/lastmile_qr_scan", "android": "https://dc.lft.to/lastmile_qr_scan"}, "type": "electric_scooter", "lat": 38.86248833333333, "is_disabled": 0, "lon": -76.99538883333334, "is_reserved": 0}, {"name": "a136e11cafbb6d878805e8592312882a", "fusion_lat": 0.0, "fusion_lon": 0.0, "bike_id": "a136e11cafbb6d878805e8592312882a", "rental_uris": {"ios": "https://dc.lft.to/lastmile_qr_scan", "android": "https://dc.lft.to/lastmile_qr_scan"}, "type": "electric_bike", "lat": 38.88014866666666, "is_disabled": 0, "lon": -76.91593533333334, "is_reserved": 0}, {"name": "4e9727e1beb0272eed36e8c56f1d26f0", "fusion_lat": 0.0, "fusion_lon": 0.0, "bike_id": "4e9727e1beb0272eed36e8c56f1d26f0", "rental_uris": {"ios": "https://dc.lft.to/lastmile_qr_scan", "android": "https://dc.lft.to/lastmile_qr_scan"}, "type": "electric_scooter", "lat": 38.915061, "is_disabled": 0, "lon": -77.034411, "is_reserved": 0}, {"name": "2c8062acc05640a61d2f961ebbedbd4e", "fusion_lat": 0.0, "fusion_lon": 0.0, "bike_id": "2c8062acc05640a61d2f961ebbedbd4e", "rental_uris": {"ios": "https://dc.lft.to/lastmile_qr_scan", "android": "https://dc.lft.to/lastmile_qr_scan"}, "type": "electric_scooter", "lat": 38.9241135, "is_disabled": 0, "lon": -77.04029116666666, "is_reserved": 0}, {"name": "1a0d3474942bb99950afbc65c9dd14b7", "fusion_lat": 0.0, "fusion_lon": 0.0, "bike_id": "1a0d3474942bb99950afbc65c9dd14b7", "rental_uris": {"ios": "https://dc.lft.to/lastmile_qr_scan", "android": "https://dc.lft.to/lastmile_qr_scan"}, "type": "electric_scooter", "lat": 38.87113266666667, "is_disabled": 0, "lon": -77.0076905, "is_reserved": 0}, {"name": "0c69a979d6a289e7dde41de2ef1c8b24", "fusion_lat": 0.0, "fusion_lon": 0.0, "bike_id": "0c69a979d6a289e7dde41de2ef1c8b24", "rental_uris": {"ios": "https://dc.lft.to/lastmile_qr_scan", "android": "https://dc.lft.to/lastmile_qr_scan"}, "type": "electric_scooter", "lat": 38.9118725, "is_disabled": 0, "lon": -77.037453, "is_reserved": 0}, {"name": "351b7cdb2c0b9ee49d323f31caf9c343", "fusion_lat": 0.0, "fusion_lon": 0.0, "bike_id": "351b7cdb2c0b9ee49d323f31caf9c343", "rental_uris": {"ios": "https://dc.lft.to/lastmile_qr_scan", "android": "https://dc.lft.to/lastmile_qr_scan"}, "type": "electric_scooter", "lat": 38.88297333333333, "is_disabled": 0, "lon": -77.01639483333334, "is_reserved": 0}, {"name": "77f6d804f14abaadbcdac821359f5f1a", "fusion_lat": 0.0, "fusion_lon": 0.0, "bike_id": "77f6d804f14abaadbcdac821359f5f1a", "rental_uris": {"ios": "https://dc.lft.to/lastmile_qr_scan", "android": "https://dc.lft.to/lastmile_qr_scan"}, "type": "electric_bike", "lat": 38.99450483333333, "is_disabled": 0, "lon": -76.90818933333334, "is_reserved": 0}, {"name": "47b1747a9cf4755bc5b69df5109b7729", "fusion_lat": 0.0, "fusion_lon": 0.0, "bike_id": "47b1747a9cf4755bc5b69df5109b7729", "rental_uris": {"ios": "https://dc.lft.to/lastmile_qr_scan", "android": "https://dc.lft.to/lastmile_qr_scan"}, "type": "electric_scooter", "lat": 38.929754333333335, "is_disabled": 0, "lon": -77.03234466666666, "is_reserved": 0}, {"name": "b8eab75d917d680469bdb05a5e7995a8", "fusion_lat": 0.0, "fusion_lon": 0.0, "bike_id": "b8eab75d917d680469bdb05a5e7995a8", "rental_uris": {"ios": "https://dc.lft.to/lastmile_qr_scan", "android": "https://dc.lft.to/lastmile_qr_scan"}, "type": "electric_scooter", "lat": 38.89734133333333, "is_disabled": 0, "lon": -77.04725466666666, "is_reserved": 0}, {"name": "29384cc663c55f3126d135a3df7b898c", "fusion_lat": 0.0, "fusion_lon": 0.0, "bike_id": "29384cc663c55f3126d135a3df7b898c", "rental_uris": {"ios": "https://dc.lft.to/lastmile_qr_scan", "android": "https://dc.lft.to/lastmile_qr_scan"}, "type": "electric_scooter", "lat": 38.911893666666664, "is_disabled": 0, "lon": -77.037427, "is_reserved": 0}, {"name": "59ce59743b9be30a4125e9e2fd17005c", "fusion_lat": 0.0, "fusion_lon": 0.0, "bike_id": "59ce59743b9be30a4125e9e2fd17005c", "rental_uris": {"ios": "https://dc.lft.to/lastmile_qr_scan", "android": "https://dc.lft.to/lastmile_qr_scan"}, "type": "electric_bike", "lat": 38.8521375, "is_disabled": 0, "lon": -77.1275335, "is_reserved": 0}, {"name": "be67a90389b06efd7757fc841b8ee596", "fusion_lat": 0.0, "fusion_lon": 0.0, "bike_id": "be67a90389b06efd7757fc841b8ee596", "rental_uris": {"ios": "https://dc.lft.to/lastmile_qr_scan", "android": "https://dc.lft.to/lastmile_qr_scan"}, "type": "electric_scooter", "lat": 38.91809883333333, "is_disabled": 0, "lon": -77.035637, "is_reserved": 0}, {"name": "66fec091c64a6b38887927143309feab", "fusion_lat": 0.0, "fusion_lon": 0.0, "bike_id": "66fec091c64a6b38887927143309feab", "rental_uris": {"ios": "https://dc.lft.to/lastmile_qr_scan", "android": "https://dc.lft.to/lastmile_qr_scan"}, "type": "electric_scooter", "lat": 38.921920666666665, "is_disabled": 0, "lon": -77.01846933333333, "is_reserved": 0}, {"name": "8ac0483542dcdad6a81e57bb07b8ecad", "fusion_lat": 0.0, "fusion_lon": 0.0, "bike_id": "8ac0483542dcdad6a81e57bb07b8ecad", "rental_uris": {"ios": "https://dc.lft.to/lastmile_qr_scan", "android": "https://dc.lft.to/lastmile_qr_scan"}, "type": "electric_scooter", "lat": 38.90602283333333, "is_disabled": 0, "lon": -77.04734566666667, "is_reserved": 0}, {"name": "7df0129c2b06527e7fa67b83ecb805ec", "fusion_lat": 0.0, "fusion_lon": 0.0, "bike_id": "7df0129c2b06527e7fa67b83ecb805ec", "rental_uris": {"ios": "https://dc.lft.to/lastmile_qr_scan", "android": "https://dc.lft.to/lastmile_qr_scan"}, "type": "electric_scooter", "lat": 38.88230466666667, "is_disabled": 0, "lon": -76.99082783333333, "is_reserved": 0}, {"name": "957ea89c849d1058787768ce6d9774f2", "fusion_lat": 0.0, "fusion_lon": 0.0, "bike_id": "957ea89c849d1058787768ce6d9774f2", "rental_uris": {"ios": "https://dc.lft.to/lastmile_qr_scan", "android": "https://dc.lft.to/lastmile_qr_scan"}, "type": "electric_scooter", "lat": 38.883742166666664, "is_disabled": 0, "lon": -76.99520166666667, "is_reserved": 0}, {"name": "adc2c50cb83b8fe50073b672ca25b7ba", "fusion_lat": 0.0, "fusion_lon": 0.0, "bike_id": "adc2c50cb83b8fe50073b672ca25b7ba", "rental_uris": {"ios": "https://dc.lft.to/lastmile_qr_scan", "android": "https://dc.lft.to/lastmile_qr_scan"}, "type": "electric_scooter", "lat": 38.900568166666666, "is_disabled": 0, "lon": -77.021889, "is_reserved": 0}, {"name": "c0015debc13829a65306efa3f66dbf3b", "fusion_lat": 0.0, "fusion_lon": 0.0, "bike_id": "c0015debc13829a65306efa3f66dbf3b", "rental_uris": {"ios": "https://dc.lft.to/lastmile_qr_scan", "android": "https://dc.lft.to/lastmile_qr_scan"}, "type": "electric_scooter", "lat": 38.9082425, "is_disabled": 0, "lon": -77.036795, "is_reserved": 0}, {"name": "390cbfb068a1bab72f849cecb168ae50", "fusion_lat": 0.0, "fusion_lon": 0.0, "bike_id": "390cbfb068a1bab72f849cecb168ae50", "rental_uris": {"ios": "https://dc.lft.to/lastmile_qr_scan", "android": "https://dc.lft.to/lastmile_qr_scan"}, "type": "electric_bike", "lat": 38.86596933333333, "is_disabled": 0, "lon": -76.93230466666667, "is_reserved": 0}, {"name": "84cf7b649a449627edc2debc4d3e1023", "fusion_lat": 0.0, "fusion_lon": 0.0, "bike_id": "84cf7b649a449627edc2debc4d3e1023", "rental_uris": {"ios": "https://dc.lft.to/lastmile_qr_scan", "android": "https://dc.lft.to/lastmile_qr_scan"}, "type": "electric_scooter", "lat": 38.890078, "is_disabled": 0, "lon": -76.93735316666667, "is_reserved": 0}, {"name": "3f4a41f238db9e5bb114584573851299", "fusion_lat": 0.0, "fusion_lon": 0.0, "bike_id": "3f4a41f238db9e5bb114584573851299", "rental_uris": {"ios": "https://dc.lft.to/lastmile_qr_scan", "android": "https://dc.lft.to/lastmile_qr_scan"}, "type": "electric_scooter", "lat": 38.917648, "is_disabled": 0, "lon": -77.04155416666667, "is_reserved": 0}, {"name": "b9a33f10f854d55c8a5f663518e84b9e", "fusion_lat": 0.0, "fusion_lon": 0.0, "bike_id": "b9a33f10f854d55c8a5f663518e84b9e", "rental_uris": {"ios": "https://dc.lft.to/lastmile_qr_scan", "android": "https://dc.lft.to/lastmile_qr_scan"}, "type": "electric_scooter", "lat": 38.9219075, "is_disabled": 0, "lon": -76.99765966666666, "is_reserved": 0}, {"name": "d8bbabd67690f85f72066e4977a8fe24", "fusion_lat": 0.0, "fusion_lon": 0.0, "bike_id": "d8bbabd67690f85f72066e4977a8fe24", "rental_uris": {"ios": "https://dc.lft.to/lastmile_qr_scan", "android": "https://dc.lft.to/lastmile_qr_scan"}, "type": "electric_scooter", "lat": 38.921642, "is_disabled": 0, "lon": -77.04696233333334, "is_reserved": 0}, {"name": "493e5661bea474cefb10ccd74c5fb917", "fusion_lat": 0.0, "fusion_lon": 0.0, "bike_id": "493e5661bea474cefb10ccd74c5fb917", "rental_uris": {"ios": "https://dc.lft.to/lastmile_qr_scan", "android": "https://dc.lft.to/lastmile_qr_scan"}, "type": "electric_scooter", "lat": 38.904927, "is_disabled": 0, "lon": -77.03558066666666, "is_reserved": 0}, {"name": "5e0ca6ecef74b65428a512f8fd778098", "fusion_lat": 0.0, "fusion_lon": 0.0, "bike_id": "5e0ca6ecef74b65428a512f8fd778098", "rental_uris": {"ios": "https://dc.lft.to/lastmile_qr_scan", "android": "https://dc.lft.to/lastmile_qr_scan"}, "type": "electric_scooter", "lat": 38.88047816666667, "is_disabled": 0, "lon": -77.00542066666667, "is_reserved": 0}, {"name": "9b761f3dbc9788a41f8b9221bd79e829", "fusion_lat": 0.0, "fusion_lon": 0.0, "bike_id": "9b761f3dbc9788a41f8b9221bd79e829", "rental_uris": {"ios": "https://dc.lft.to/lastmile_qr_scan", "android": "https://dc.lft.to/lastmile_qr_scan"}, "type": "electric_scooter", "lat": 38.915807, "is_disabled": 0, "lon": -77.04999233333334, "is_reserved": 0}, {"name": "0126ead149b97baebbbdecdf98c5a57d", "fusion_lat": 0.0, "fusion_lon": 0.0, "bike_id": "0126ead149b97baebbbdecdf98c5a57d", "rental_uris": {"ios": "https://dc.lft.to/lastmile_qr_scan", "android": "https://dc.lft.to/lastmile_qr_scan"}, "type": "electric_scooter", "lat": 38.93180383333333, "is_disabled": 0, "lon": -77.03639566666666, "is_reserved": 0}, {"name": "ece07afb43343dcf9cbfe23052dd3f39", "fusion_lat": 0.0, "fusion_lon": 0.0, "bike_id": "ece07afb43343dcf9cbfe23052dd3f39", "rental_uris": {"ios": "https://dc.lft.to/lastmile_qr_scan", "android": "https://dc.lft.to/lastmile_qr_scan"}, "type": "electric_scooter", "lat": 38.88506016666667, "is_disabled": 0, "lon": -77.016082, "is_reserved": 0}, {"name": "476940725427a2f158f941bc21dfbcb6", "fusion_lat": 0.0, "fusion_lon": 0.0, "bike_id": "476940725427a2f158f941bc21dfbcb6", "rental_uris": {"ios": "https://dc.lft.to/lastmile_qr_scan", "android": "https://dc.lft.to/lastmile_qr_scan"}, "type": "electric_scooter", "lat": 38.88798766666667, "is_disabled": 0, "lon": -76.933583, "is_reserved": 0}, {"name": "0200e83fcda4407bbbdca129a8870050", "fusion_lat": 0.0, "fusion_lon": 0.0, "bike_id": "0200e83fcda4407bbbdca129a8870050", "rental_uris": {"ios": "https://dc.lft.to/lastmile_qr_scan", "android": "https://dc.lft.to/lastmile_qr_scan"}, "type": "electric_bike", "lat": 38.94577483333333, "is_disabled": 0, "lon": -76.98775716666667, "is_reserved": 0}, {"name": "9a5eeb4fa98876a1c3b62ac7912054ea", "fusion_lat": 0.0, "fusion_lon": 0.0, "bike_id": "9a5eeb4fa98876a1c3b62ac7912054ea", "rental_uris": {"ios": "https://dc.lft.to/lastmile_qr_scan", "android": "https://dc.lft.to/lastmile_qr_scan"}, "type": "electric_scooter", "lat": 38.846223333333334, "is_disabled": 0, "lon": -76.99632983333333, "is_reserved": 0}, {"name": "0e7f96258e7c280882dd87401998da1e", "fusion_lat": 0.0, "fusion_lon": 0.0, "bike_id": "0e7f96258e7c280882dd87401998da1e", "rental_uris": {"ios": "https://dc.lft.to/lastmile_qr_scan", "android": "https://dc.lft.to/lastmile_qr_scan"}, "type": "electric_scooter", "lat": 38.875768, "is_disabled": 0, "lon": -77.006836, "is_reserved": 0}, {"name": "97458ff6d2a199fec701ae345e390cc7", "fusion_lat": 0.0, "fusion_lon": 0.0, "bike_id": "97458ff6d2a199fec701ae345e390cc7", "rental_uris": {"ios": "https://dc.lft.to/lastmile_qr_scan", "android": "https://dc.lft.to/lastmile_qr_scan"}, "type": "electric_bike", "lat": 38.936698666666665, "is_disabled": 0, "lon": -76.95499416666667, "is_reserved": 0}, {"name": "65b3183dab7d9a88e49120b89b42d5e7", "fusion_lat": 0.0, "fusion_lon": 0.0, "bike_id": "65b3183dab7d9a88e49120b89b42d5e7", "rental_uris": {"ios": "https://dc.lft.to/lastmile_qr_scan", "android": "https://dc.lft.to/lastmile_qr_scan"}, "type": "electric_scooter", "lat": 38.926140333333336, "is_disabled": 0, "lon": -77.02173033333334, "is_reserved": 0}, {"name": "8182aba59d6d97f3c49c3d68858b6cfd", "fusion_lat": 0.0, "fusion_lon": 0.0, "bike_id": "8182aba59d6d97f3c49c3d68858b6cfd", "rental_uris": {"ios": "https://dc.lft.to/lastmile_qr_scan", "android": "https://dc.lft.to/lastmile_qr_scan"}, "type": "electric_scooter", "lat": 38.9186195, "is_disabled": 0, "lon": -77.041586, "is_reserved": 0}, {"name": "936f97a31126910df99674741b599988", "fusion_lat": 0.0, "fusion_lon": 0.0, "bike_id": "936f97a31126910df99674741b599988", "rental_uris": {"ios": "https://dc.lft.to/lastmile_qr_scan", "android": "https://dc.lft.to/lastmile_qr_scan"}, "type": "electric_scooter", "lat": 38.905642, "is_disabled": 0, "lon": -77.04999016666666, "is_reserved": 0}, {"name": "c6483d763855673a8be093fee1228c6c", "fusion_lat": 0.0, "fusion_lon": 0.0, "bike_id": "c6483d763855673a8be093fee1228c6c", "rental_uris": {"ios": "https://dc.lft.to/lastmile_qr_scan", "android": "https://dc.lft.to/lastmile_qr_scan"}, "type": "electric_scooter", "lat": 38.89609433333333, "is_disabled": 0, "lon": -77.04639216666666, "is_reserved": 0}, {"name": "2e04174148a38ca0654277d96786ab92", "fusion_lat": 0.0, "fusion_lon": 0.0, "bike_id": "2e04174148a38ca0654277d96786ab92", "rental_uris": {"ios": "https://dc.lft.to/lastmile_qr_scan", "android": "https://dc.lft.to/lastmile_qr_scan"}, "type": "electric_scooter", "lat": 38.89012966666667, "is_disabled": 0, "lon": -76.93837, "is_reserved": 0}, {"name": "fc5b2b21e53404201db50b6059cc70da", "fusion_lat": 0.0, "fusion_lon": 0.0, "bike_id": "fc5b2b21e53404201db50b6059cc70da", "rental_uris": {"ios": "https://dc.lft.to/lastmile_qr_scan", "android": "https://dc.lft.to/lastmile_qr_scan"}, "type": "electric_scooter", "lat": 38.89742416666667, "is_disabled": 0, "lon": -77.00352483333333, "is_reserved": 0}, {"name": "accf264b8969dfc3b098719659eb4ff6", "fusion_lat": 0.0, "fusion_lon": 0.0, "bike_id": "accf264b8969dfc3b098719659eb4ff6", "rental_uris": {"ios": "https://dc.lft.to/lastmile_qr_scan", "android": "https://dc.lft.to/lastmile_qr_scan"}, "type": "electric_scooter", "lat": 38.918325833333334, "is_disabled": 0, "lon": -77.03210716666666, "is_reserved": 0}, {"name": "4deb4eea421a775e73acbecc3b8353eb", "fusion_lat": 0.0, "fusion_lon": 0.0, "bike_id": "4deb4eea421a775e73acbecc3b8353eb", "rental_uris": {"ios": "https://dc.lft.to/lastmile_qr_scan", "android": "https://dc.lft.to/lastmile_qr_scan"}, "type": "electric_scooter", "lat": 38.905648166666666, "is_disabled": 0, "lon": -77.0485685, "is_reserved": 0}, {"name": "dd0a6d78588f5bae96a1a938f507178f", "fusion_lat": 0.0, "fusion_lon": 0.0, "bike_id": "dd0a6d78588f5bae96a1a938f507178f", "rental_uris": {"ios": "https://dc.lft.to/lastmile_qr_scan", "android": "https://dc.lft.to/lastmile_qr_scan"}, "type": "electric_bike", "lat": 39.024971, "is_disabled": 0, "lon": -77.125652, "is_reserved": 0}, {"name": "85a3fe2841ec1ca8e8b0e57bb867b46b", "fusion_lat": 0.0, "fusion_lon": 0.0, "bike_id": "85a3fe2841ec1ca8e8b0e57bb867b46b", "rental_uris": {"ios": "https://dc.lft.to/lastmile_qr_scan", "android": "https://dc.lft.to/lastmile_qr_scan"}, "type": "electric_scooter", "lat": 38.9170625, "is_disabled": 0, "lon": -77.02941916666667, "is_reserved": 0}, {"name": "a2cd6f1c2c116dda228b94df39c23f4c", "fusion_lat": 0.0, "fusion_lon": 0.0, "bike_id": "a2cd6f1c2c116dda228b94df39c23f4c", "rental_uris": {"ios": "https://dc.lft.to/lastmile_qr_scan", "android": "https://dc.lft.to/lastmile_qr_scan"}, "type": "electric_scooter", "lat": 38.93703633333333, "is_disabled": 0, "lon": -77.05600983333333, "is_reserved": 0}, {"name": "6225c74ddc0fb036dd33097f2232ce1a", "fusion_lat": 0.0, "fusion_lon": 0.0, "bike_id": "6225c74ddc0fb036dd33097f2232ce1a", "rental_uris": {"ios": "https://dc.lft.to/lastmile_qr_scan", "android": "https://dc.lft.to/lastmile_qr_scan"}, "type": "electric_scooter", "lat": 38.907190166666666, "is_disabled": 0, "lon": -77.00779466666667, "is_reserved": 0}, {"name": "2e55d3a9a59b9b80aa631e6073f28af9", "fusion_lat": 0.0, "fusion_lon": 0.0, "bike_id": "2e55d3a9a59b9b80aa631e6073f28af9", "rental_uris": {"ios": "https://dc.lft.to/lastmile_qr_scan", "android": "https://dc.lft.to/lastmile_qr_scan"}, "type": "electric_scooter", "lat": 38.924452, "is_disabled": 0, "lon": -77.02609683333333, "is_reserved": 0}, {"name": "23f735e77110c0d2ce8f9d35a0bdcca7", "fusion_lat": 0.0, "fusion_lon": 0.0, "bike_id": "23f735e77110c0d2ce8f9d35a0bdcca7", "rental_uris": {"ios": "https://dc.lft.to/lastmile_qr_scan", "android": "https://dc.lft.to/lastmile_qr_scan"}, "type": "electric_scooter", "lat": 38.896541666666664, "is_disabled": 0, "lon": -77.05022516666666, "is_reserved": 0}, {"name": "eadf3b39ca300b278ccfc4f2cbbcecbf", "fusion_lat": 0.0, "fusion_lon": 0.0, "bike_id": "eadf3b39ca300b278ccfc4f2cbbcecbf", "rental_uris": {"ios": "https://dc.lft.to/lastmile_qr_scan", "android": "https://dc.lft.to/lastmile_qr_scan"}, "type": "electric_scooter", "lat": 38.923272833333336, "is_disabled": 0, "lon": -77.046184, "is_reserved": 0}, {"name": "acf04097505c862304d7c7e74ead647c", "fusion_lat": 0.0, "fusion_lon": 0.0, "bike_id": "acf04097505c862304d7c7e74ead647c", "rental_uris": {"ios": "https://dc.lft.to/lastmile_qr_scan", "android": "https://dc.lft.to/lastmile_qr_scan"}, "type": "electric_scooter", "lat": 38.9012575, "is_disabled": 0, "lon": -77.03142433333333, "is_reserved": 0}, {"name": "16c9d4cd780c19f33313f9f9834f5285", "fusion_lat": 0.0, "fusion_lon": 0.0, "bike_id": "16c9d4cd780c19f33313f9f9834f5285", "rental_uris": {"ios": "https://dc.lft.to/lastmile_qr_scan", "android": "https://dc.lft.to/lastmile_qr_scan"}, "type": "electric_scooter", "lat": 38.8780195, "is_disabled": 0, "lon": -77.01749166666667, "is_reserved": 0}, {"name": "c8f56679188e4526a01de2635663eab0", "fusion_lat": 0.0, "fusion_lon": 0.0, "bike_id": "c8f56679188e4526a01de2635663eab0", "rental_uris": {"ios": "https://dc.lft.to/lastmile_qr_scan", "android": "https://dc.lft.to/lastmile_qr_scan"}, "type": "electric_scooter", "lat": 38.9169725, "is_disabled": 0, "lon": -77.027863, "is_reserved": 0}, {"name": "e35fbcb0fb72fdec327db2923ba8a7f4", "fusion_lat": 0.0, "fusion_lon": 0.0, "bike_id": "e35fbcb0fb72fdec327db2923ba8a7f4", "rental_uris": {"ios": "https://dc.lft.to/lastmile_qr_scan", "android": "https://dc.lft.to/lastmile_qr_scan"}, "type": "electric_scooter", "lat": 38.96733016666667, "is_disabled": 0, "lon": -77.02762016666667, "is_reserved": 0}, {"name": "2d2b88c57d11c729e7d29c17930cb1a1", "fusion_lat": 0.0, "fusion_lon": 0.0, "bike_id": "2d2b88c57d11c729e7d29c17930cb1a1", "rental_uris": {"ios": "https://dc.lft.to/lastmile_qr_scan", "android": "https://dc.lft.to/lastmile_qr_scan"}, "type": "electric_bike", "lat": 38.91355183333334, "is_disabled": 0, "lon": -77.028475, "is_reserved": 0}, {"name": "de861266b30a850941b8d589340bb509", "fusion_lat": 0.0, "fusion_lon": 0.0, "bike_id": "de861266b30a850941b8d589340bb509", "rental_uris": {"ios": "https://dc.lft.to/lastmile_qr_scan", "android": "https://dc.lft.to/lastmile_qr_scan"}, "type": "electric_scooter", "lat": 38.897270666666664, "is_disabled": 0, "lon": -77.04698783333333, "is_reserved": 0}, {"name": "63713ba83b087be69dcd300c923138de", "fusion_lat": 0.0, "fusion_lon": 0.0, "bike_id": "63713ba83b087be69dcd300c923138de", "rental_uris": {"ios": "https://dc.lft.to/lastmile_qr_scan", "android": "https://dc.lft.to/lastmile_qr_scan"}, "type": "electric_scooter", "lat": 38.90125283333333, "is_disabled": 0, "lon": -77.05099933333334, "is_reserved": 0}, {"name": "21331bda13efe4030a66cf8049740948", "fusion_lat": 0.0, "fusion_lon": 0.0, "bike_id": "21331bda13efe4030a66cf8049740948", "rental_uris": {"ios": "https://dc.lft.to/lastmile_qr_scan", "android": "https://dc.lft.to/lastmile_qr_scan"}, "type": "electric_scooter", "lat": 38.90387, "is_disabled": 0, "lon": -77.01756366666666, "is_reserved": 0}, {"name": "24e8b4f1160379126ead34cf99ef112a", "fusion_lat": 0.0, "fusion_lon": 0.0, "bike_id": "24e8b4f1160379126ead34cf99ef112a", "rental_uris": {"ios": "https://dc.lft.to/lastmile_qr_scan", "android": "https://dc.lft.to/lastmile_qr_scan"}, "type": "electric_scooter", "lat": 38.916101, "is_disabled": 0, "lon": -77.0487825, "is_reserved": 0}, {"name": "c3245945efd4fbcaf0d02e3f1fd8fa83", "fusion_lat": 0.0, "fusion_lon": 0.0, "bike_id": "c3245945efd4fbcaf0d02e3f1fd8fa83", "rental_uris": {"ios": "https://dc.lft.to/lastmile_qr_scan", "android": "https://dc.lft.to/lastmile_qr_scan"}, "type": "electric_scooter", "lat": 38.91921516666667, "is_disabled": 0, "lon": -77.042406, "is_reserved": 0}, {"name": "2edffcfbaffd2623f4b1ef0d392a7db1", "fusion_lat": 0.0, "fusion_lon": 0.0, "bike_id": "2edffcfbaffd2623f4b1ef0d392a7db1", "rental_uris": {"ios": "https://dc.lft.to/lastmile_qr_scan", "android": "https://dc.lft.to/lastmile_qr_scan"}, "type": "electric_scooter", "lat": 38.897384833333334, "is_disabled": 0, "lon": -77.03342633333334, "is_reserved": 0}, {"name": "cf06b930101a071f2acfe142dce1cba4", "fusion_lat": 0.0, "fusion_lon": 0.0, "bike_id": "cf06b930101a071f2acfe142dce1cba4", "rental_uris": {"ios": "https://dc.lft.to/lastmile_qr_scan", "android": "https://dc.lft.to/lastmile_qr_scan"}, "type": "electric_scooter", "lat": 38.88722116666667, "is_disabled": 0, "lon": -76.99647966666667, "is_reserved": 0}, {"name": "cba38b0735e8d5410b765d8413704fc5", "fusion_lat": 0.0, "fusion_lon": 0.0, "bike_id": "cba38b0735e8d5410b765d8413704fc5", "rental_uris": {"ios": "https://dc.lft.to/lastmile_qr_scan", "android": "https://dc.lft.to/lastmile_qr_scan"}, "type": "electric_scooter", "lat": 38.88478666666666, "is_disabled": 0, "lon": -77.01542133333334, "is_reserved": 0}, {"name": "fd48d89b9ebb61b527d26fe12b8b7c30", "fusion_lat": 0.0, "fusion_lon": 0.0, "bike_id": "fd48d89b9ebb61b527d26fe12b8b7c30", "rental_uris": {"ios": "https://dc.lft.to/lastmile_qr_scan", "android": "https://dc.lft.to/lastmile_qr_scan"}, "type": "electric_scooter", "lat": 38.905102666666664, "is_disabled": 0, "lon": -77.0578625, "is_reserved": 0}, {"name": "88f2666d24c1058785a998818850cbfa", "fusion_lat": 0.0, "fusion_lon": 0.0, "bike_id": "88f2666d24c1058785a998818850cbfa", "rental_uris": {"ios": "https://dc.lft.to/lastmile_qr_scan", "android": "https://dc.lft.to/lastmile_qr_scan"}, "type": "electric_scooter", "lat": 38.90460616666667, "is_disabled": 0, "lon": -77.03240883333333, "is_reserved": 0}, {"name": "a634177a4dfe2d3d1c355b4c8280f508", "fusion_lat": 0.0, "fusion_lon": 0.0, "bike_id": "a634177a4dfe2d3d1c355b4c8280f508", "rental_uris": {"ios": "https://dc.lft.to/lastmile_qr_scan", "android": "https://dc.lft.to/lastmile_qr_scan"}, "type": "electric_scooter", "lat": 38.915572833333336, "is_disabled": 0, "lon": -77.04188333333333, "is_reserved": 0}, {"name": "d13683d2078cf2aed2d892aaca5aa2a6", "fusion_lat": 0.0, "fusion_lon": 0.0, "bike_id": "d13683d2078cf2aed2d892aaca5aa2a6", "rental_uris": {"ios": "https://dc.lft.to/lastmile_qr_scan", "android": "https://dc.lft.to/lastmile_qr_scan"}, "type": "electric_scooter", "lat": 38.9012715, "is_disabled": 0, "lon": -77.03241783333333, "is_reserved": 0}, {"name": "30b4931f755cbd85cb552063df7ae55d", "fusion_lat": 0.0, "fusion_lon": 0.0, "bike_id": "30b4931f755cbd85cb552063df7ae55d", "rental_uris": {"ios": "https://dc.lft.to/lastmile_qr_scan", "android": "https://dc.lft.to/lastmile_qr_scan"}, "type": "electric_scooter", "lat": 38.916997333333335, "is_disabled": 0, "lon": -77.03187216666667, "is_reserved": 0}, {"name": "5f577cbb8673f087a0244d6992d70571", "fusion_lat": 0.0, "fusion_lon": 0.0, "bike_id": "5f577cbb8673f087a0244d6992d70571", "rental_uris": {"ios": "https://dc.lft.to/lastmile_qr_scan", "android": "https://dc.lft.to/lastmile_qr_scan"}, "type": "electric_scooter", "lat": 38.91365066666667, "is_disabled": 0, "lon": -77.04171033333333, "is_reserved": 0}, {"name": "1347fb0eba209a73d1cfe269c14743d7", "fusion_lat": 0.0, "fusion_lon": 0.0, "bike_id": "1347fb0eba209a73d1cfe269c14743d7", "rental_uris": {"ios": "https://dc.lft.to/lastmile_qr_scan", "android": "https://dc.lft.to/lastmile_qr_scan"}, "type": "electric_scooter", "lat": 38.905834666666664, "is_disabled": 0, "lon": -77.0220755, "is_reserved": 0}, {"name": "d46a5151801596800ce227092fc792a1", "fusion_lat": 0.0, "fusion_lon": 0.0, "bike_id": "d46a5151801596800ce227092fc792a1", "rental_uris": {"ios": "https://dc.lft.to/lastmile_qr_scan", "android": "https://dc.lft.to/lastmile_qr_scan"}, "type": "electric_scooter", "lat": 38.922302, "is_disabled": 0, "lon": -76.97531883333333, "is_reserved": 0}, {"name": "a2c262c0f6eb96f753d041d0a172d575", "fusion_lat": 0.0, "fusion_lon": 0.0, "bike_id": "a2c262c0f6eb96f753d041d0a172d575", "rental_uris": {"ios": "https://dc.lft.to/lastmile_qr_scan", "android": "https://dc.lft.to/lastmile_qr_scan"}, "type": "electric_scooter", "lat": 38.91749983333333, "is_disabled": 0, "lon": -77.02799066666667, "is_reserved": 0}, {"name": "5fed546e448d8f827f46a13b9d17f3b6", "fusion_lat": 0.0, "fusion_lon": 0.0, "bike_id": "5fed546e448d8f827f46a13b9d17f3b6", "rental_uris": {"ios": "https://dc.lft.to/lastmile_qr_scan", "android": "https://dc.lft.to/lastmile_qr_scan"}, "type": "electric_scooter", "lat": 38.9322555, "is_disabled": 0, "lon": -76.99483216666667, "is_reserved": 0}, {"name": "8a37e5095d694f984a11dc838ab9a7b2", "fusion_lat": 0.0, "fusion_lon": 0.0, "bike_id": "8a37e5095d694f984a11dc838ab9a7b2", "rental_uris": {"ios": "https://dc.lft.to/lastmile_qr_scan", "android": "https://dc.lft.to/lastmile_qr_scan"}, "type": "electric_scooter", "lat": 38.8972965, "is_disabled": 0, "lon": -77.01014966666666, "is_reserved": 0}, {"name": "5e5f10a924ec8ecb6a42e16ba4af7806", "fusion_lat": 0.0, "fusion_lon": 0.0, "bike_id": "5e5f10a924ec8ecb6a42e16ba4af7806", "rental_uris": {"ios": "https://dc.lft.to/lastmile_qr_scan", "android": "https://dc.lft.to/lastmile_qr_scan"}, "type": "electric_bike", "lat": 38.972572, "is_disabled": 0, "lon": -76.99169316666666, "is_reserved": 0}, {"name": "e13d9e2fabf226b0af5de5160bd6d749", "fusion_lat": 0.0, "fusion_lon": 0.0, "bike_id": "e13d9e2fabf226b0af5de5160bd6d749", "rental_uris": {"ios": "https://dc.lft.to/lastmile_qr_scan", "android": "https://dc.lft.to/lastmile_qr_scan"}, "type": "electric_scooter", "lat": 38.93472633333333, "is_disabled": 0, "lon": -77.06882883333333, "is_reserved": 0}, {"name": "9a0e9cf86a3724b8866b10fae93f1468", "fusion_lat": 0.0, "fusion_lon": 0.0, "bike_id": "9a0e9cf86a3724b8866b10fae93f1468", "rental_uris": {"ios": "https://dc.lft.to/lastmile_qr_scan", "android": "https://dc.lft.to/lastmile_qr_scan"}, "type": "electric_scooter", "lat": 38.88406066666667, "is_disabled": 0, "lon": -77.03047016666666, "is_reserved": 0}, {"name": "d34ae20ad787625c76e001e930dc2dcf", "fusion_lat": 0.0, "fusion_lon": 0.0, "bike_id": "d34ae20ad787625c76e001e930dc2dcf", "rental_uris": {"ios": "https://dc.lft.to/lastmile_qr_scan", "android": "https://dc.lft.to/lastmile_qr_scan"}, "type": "electric_scooter", "lat": 38.89851916666667, "is_disabled": 0, "lon": -77.016193, "is_reserved": 0}, {"name": "c15505dd7696290c635adbe3551cc9be", "fusion_lat": 0.0, "fusion_lon": 0.0, "bike_id": "c15505dd7696290c635adbe3551cc9be", "rental_uris": {"ios": "https://dc.lft.to/lastmile_qr_scan", "android": "https://dc.lft.to/lastmile_qr_scan"}, "type": "electric_scooter", "lat": 38.8792645, "is_disabled": 0, "lon": -77.01540583333333, "is_reserved": 0}, {"name": "32bd37fcf71699ee60c435cbf81b77d9", "fusion_lat": 0.0, "fusion_lon": 0.0, "bike_id": "32bd37fcf71699ee60c435cbf81b77d9", "rental_uris": {"ios": "https://dc.lft.to/lastmile_qr_scan", "android": "https://dc.lft.to/lastmile_qr_scan"}, "type": "electric_scooter", "lat": 38.91350666666666, "is_disabled": 0, "lon": -77.01754, "is_reserved": 0}, {"name": "56987ea0e34bd4d472c64c348f01aa12", "fusion_lat": 0.0, "fusion_lon": 0.0, "bike_id": "56987ea0e34bd4d472c64c348f01aa12", "rental_uris": {"ios": "https://dc.lft.to/lastmile_qr_scan", "android": "https://dc.lft.to/lastmile_qr_scan"}, "type": "electric_bike", "lat": 38.83934283333333, "is_disabled": 0, "lon": -77.0790275, "is_reserved": 0}, {"name": "087fbd157f587e34951dc7c9a8b2b034", "fusion_lat": 0.0, "fusion_lon": 0.0, "bike_id": "087fbd157f587e34951dc7c9a8b2b034", "rental_uris": {"ios": "https://dc.lft.to/lastmile_qr_scan", "android": "https://dc.lft.to/lastmile_qr_scan"}, "type": "electric_bike", "lat": 38.812689666666664, "is_disabled": 0, "lon": -77.06172116666667, "is_reserved": 0}, {"name": "6bd5cdf4f152240bae19e2bea3a9fc91", "fusion_lat": 0.0, "fusion_lon": 0.0, "bike_id": "6bd5cdf4f152240bae19e2bea3a9fc91", "rental_uris": {"ios": "https://dc.lft.to/lastmile_qr_scan", "android": "https://dc.lft.to/lastmile_qr_scan"}, "type": "electric_scooter", "lat": 38.905553166666664, "is_disabled": 0, "lon": -77.00613883333334, "is_reserved": 0}, {"name": "fbdb0eda12020cc25c57ff1140839111", "fusion_lat": 0.0, "fusion_lon": 0.0, "bike_id": "fbdb0eda12020cc25c57ff1140839111", "rental_uris": {"ios": "https://dc.lft.to/lastmile_qr_scan", "android": "https://dc.lft.to/lastmile_qr_scan"}, "type": "electric_scooter", "lat": 38.9199315, "is_disabled": 0, "lon": -77.03314816666666, "is_reserved": 0}, {"name": "7b9e74c4136e1247d47357d63ea754c5", "fusion_lat": 0.0, "fusion_lon": 0.0, "bike_id": "7b9e74c4136e1247d47357d63ea754c5", "rental_uris": {"ios": "https://dc.lft.to/lastmile_qr_scan", "android": "https://dc.lft.to/lastmile_qr_scan"}, "type": "electric_scooter", "lat": 38.9260415, "is_disabled": 0, "lon": -77.02157433333333, "is_reserved": 0}, {"name": "1bf50c66232a6c8c73d74f684cf40ffb", "fusion_lat": 0.0, "fusion_lon": 0.0, "bike_id": "1bf50c66232a6c8c73d74f684cf40ffb", "rental_uris": {"ios": "https://dc.lft.to/lastmile_qr_scan", "android": "https://dc.lft.to/lastmile_qr_scan"}, "type": "electric_scooter", "lat": 38.916924, "is_disabled": 0, "lon": -77.02599416666666, "is_reserved": 0}, {"name": "4d47167d950dae94ef61f2d7fac268ec", "fusion_lat": 0.0, "fusion_lon": 0.0, "bike_id": "4d47167d950dae94ef61f2d7fac268ec", "rental_uris": {"ios": "https://dc.lft.to/lastmile_qr_scan", "android": "https://dc.lft.to/lastmile_qr_scan"}, "type": "electric_bike", "lat": 39.007898833333336, "is_disabled": 0, "lon": -76.9956885, "is_reserved": 0}, {"name": "9853ed46059aee71cf7a096d49f76303", "fusion_lat": 0.0, "fusion_lon": 0.0, "bike_id": "9853ed46059aee71cf7a096d49f76303", "rental_uris": {"ios": "https://dc.lft.to/lastmile_qr_scan", "android": "https://dc.lft.to/lastmile_qr_scan"}, "type": "electric_scooter", "lat": 38.906534, "is_disabled": 0, "lon": -77.04528466666666, "is_reserved": 0}, {"name": "b5719d1a06ac2b2f1c9f933ac73546e2", "fusion_lat": 0.0, "fusion_lon": 0.0, "bike_id": "b5719d1a06ac2b2f1c9f933ac73546e2", "rental_uris": {"ios": "https://dc.lft.to/lastmile_qr_scan", "android": "https://dc.lft.to/lastmile_qr_scan"}, "type": "electric_scooter", "lat": 38.867028166666664, "is_disabled": 0, "lon": -76.987138, "is_reserved": 0}, {"name": "a1253c2d38272eb6683e4bdf75daa73d", "fusion_lat": 0.0, "fusion_lon": 0.0, "bike_id": "a1253c2d38272eb6683e4bdf75daa73d", "rental_uris": {"ios": "https://dc.lft.to/lastmile_qr_scan", "android": "https://dc.lft.to/lastmile_qr_scan"}, "type": "electric_scooter", "lat": 38.91964883333333, "is_disabled": 0, "lon": -77.03214133333333, "is_reserved": 0}, {"name": "8c6646f1c4736521bea1a32d4eaad735", "fusion_lat": 0.0, "fusion_lon": 0.0, "bike_id": "8c6646f1c4736521bea1a32d4eaad735", "rental_uris": {"ios": "https://dc.lft.to/lastmile_qr_scan", "android": "https://dc.lft.to/lastmile_qr_scan"}, "type": "electric_scooter", "lat": 38.92580066666667, "is_disabled": 0, "lon": -77.03211733333333, "is_reserved": 0}, {"name": "6381b5a812672cde14424a83b5eba0a9", "fusion_lat": 0.0, "fusion_lon": 0.0, "bike_id": "6381b5a812672cde14424a83b5eba0a9", "rental_uris": {"ios": "https://dc.lft.to/lastmile_qr_scan", "android": "https://dc.lft.to/lastmile_qr_scan"}, "type": "electric_scooter", "lat": 38.91773766666667, "is_disabled": 0, "lon": -77.02954883333334, "is_reserved": 0}, {"name": "1ebbfff002f2d5438eb7a6863466e9ce", "fusion_lat": 0.0, "fusion_lon": 0.0, "bike_id": "1ebbfff002f2d5438eb7a6863466e9ce", "rental_uris": {"ios": "https://dc.lft.to/lastmile_qr_scan", "android": "https://dc.lft.to/lastmile_qr_scan"}, "type": "electric_scooter", "lat": 38.87925366666666, "is_disabled": 0, "lon": -77.004777, "is_reserved": 0}, {"name": "16c75f92b4c3c1728225f779339a2889", "fusion_lat": 0.0, "fusion_lon": 0.0, "bike_id": "16c75f92b4c3c1728225f779339a2889", "rental_uris": {"ios": "https://dc.lft.to/lastmile_qr_scan", "android": "https://dc.lft.to/lastmile_qr_scan"}, "type": "electric_scooter", "lat": 38.8956695, "is_disabled": 0, "lon": -77.0265965, "is_reserved": 0}, {"name": "8ef539e67003a9c25e5d3b177a4268d3", "fusion_lat": 0.0, "fusion_lon": 0.0, "bike_id": "8ef539e67003a9c25e5d3b177a4268d3", "rental_uris": {"ios": "https://dc.lft.to/lastmile_qr_scan", "android": "https://dc.lft.to/lastmile_qr_scan"}, "type": "electric_scooter", "lat": 38.917108666666664, "is_disabled": 0, "lon": -77.04022216666667, "is_reserved": 0}, {"name": "769982d2bd84f06546ef6423be88a712", "fusion_lat": 0.0, "fusion_lon": 0.0, "bike_id": "769982d2bd84f06546ef6423be88a712", "rental_uris": {"ios": "https://dc.lft.to/lastmile_qr_scan", "android": "https://dc.lft.to/lastmile_qr_scan"}, "type": "electric_scooter", "lat": 38.909546166666665, "is_disabled": 0, "lon": -77.0322605, "is_reserved": 0}, {"name": "c807ad5aee939278bee89e85b098382e", "fusion_lat": 0.0, "fusion_lon": 0.0, "bike_id": "c807ad5aee939278bee89e85b098382e", "rental_uris": {"ios": "https://dc.lft.to/lastmile_qr_scan", "android": "https://dc.lft.to/lastmile_qr_scan"}, "type": "electric_scooter", "lat": 38.893614166666666, "is_disabled": 0, "lon": -76.98472566666666, "is_reserved": 0}, {"name": "786bdf77ebd3777c371d9d82a28f3d24", "fusion_lat": 0.0, "fusion_lon": 0.0, "bike_id": "786bdf77ebd3777c371d9d82a28f3d24", "rental_uris": {"ios": "https://dc.lft.to/lastmile_qr_scan", "android": "https://dc.lft.to/lastmile_qr_scan"}, "type": "electric_scooter", "lat": 38.884362, "is_disabled": 0, "lon": -77.0280015, "is_reserved": 0}, {"name": "1a37eab15a41d44b9fca4f092de31414", "fusion_lat": 0.0, "fusion_lon": 0.0, "bike_id": "1a37eab15a41d44b9fca4f092de31414", "rental_uris": {"ios": "https://dc.lft.to/lastmile_qr_scan", "android": "https://dc.lft.to/lastmile_qr_scan"}, "type": "electric_scooter", "lat": 38.90131266666667, "is_disabled": 0, "lon": -77.03997733333334, "is_reserved": 0}, {"name": "e649b7a4157a4337aa2a27f2e7a8a668", "fusion_lat": 0.0, "fusion_lon": 0.0, "bike_id": "e649b7a4157a4337aa2a27f2e7a8a668", "rental_uris": {"ios": "https://dc.lft.to/lastmile_qr_scan", "android": "https://dc.lft.to/lastmile_qr_scan"}, "type": "electric_scooter", "lat": 38.91681883333333, "is_disabled": 0, "lon": -77.04198383333333, "is_reserved": 0}, {"name": "f5f5c5f8c2dc97e1c8418db0e12938cf", "fusion_lat": 0.0, "fusion_lon": 0.0, "bike_id": "f5f5c5f8c2dc97e1c8418db0e12938cf", "rental_uris": {"ios": "https://dc.lft.to/lastmile_qr_scan", "android": "https://dc.lft.to/lastmile_qr_scan"}, "type": "electric_scooter", "lat": 38.89955533333333, "is_disabled": 0, "lon": -77.016826, "is_reserved": 0}, {"name": "c910dd0c6c3003f823db3ccb025cf673", "fusion_lat": 0.0, "fusion_lon": 0.0, "bike_id": "c910dd0c6c3003f823db3ccb025cf673", "rental_uris": {"ios": "https://dc.lft.to/lastmile_qr_scan", "android": "https://dc.lft.to/lastmile_qr_scan"}, "type": "electric_scooter", "lat": 38.91194133333333, "is_disabled": 0, "lon": -77.02954, "is_reserved": 0}, {"name": "66a16b821bad9ca725077326f696714a", "fusion_lat": 0.0, "fusion_lon": 0.0, "bike_id": "66a16b821bad9ca725077326f696714a", "rental_uris": {"ios": "https://dc.lft.to/lastmile_qr_scan", "android": "https://dc.lft.to/lastmile_qr_scan"}, "type": "electric_scooter", "lat": 38.900141, "is_disabled": 0, "lon": -76.98596283333333, "is_reserved": 0}, {"name": "9cb74701e7e20ffc27d52eef76d2193b", "fusion_lat": 0.0, "fusion_lon": 0.0, "bike_id": "9cb74701e7e20ffc27d52eef76d2193b", "rental_uris": {"ios": "https://dc.lft.to/lastmile_qr_scan", "android": "https://dc.lft.to/lastmile_qr_scan"}, "type": "electric_scooter", "lat": 38.9171275, "is_disabled": 0, "lon": -77.02719316666666, "is_reserved": 0}, {"name": "1b4e777856c1563440ae62ac05b83ea6", "fusion_lat": 0.0, "fusion_lon": 0.0, "bike_id": "1b4e777856c1563440ae62ac05b83ea6", "rental_uris": {"ios": "https://dc.lft.to/lastmile_qr_scan", "android": "https://dc.lft.to/lastmile_qr_scan"}, "type": "electric_scooter", "lat": 38.9052495, "is_disabled": 0, "lon": -77.065386, "is_reserved": 0}, {"name": "305b82f529175f8e68edc16bcffc4c45", "fusion_lat": 0.0, "fusion_lon": 0.0, "bike_id": "305b82f529175f8e68edc16bcffc4c45", "rental_uris": {"ios": "https://dc.lft.to/lastmile_qr_scan", "android": "https://dc.lft.to/lastmile_qr_scan"}, "type": "electric_scooter", "lat": 38.88030916666666, "is_disabled": 0, "lon": -76.995077, "is_reserved": 0}, {"name": "c33ec00171a925c490481d820109cc47", "fusion_lat": 0.0, "fusion_lon": 0.0, "bike_id": "c33ec00171a925c490481d820109cc47", "rental_uris": {"ios": "https://dc.lft.to/lastmile_qr_scan", "android": "https://dc.lft.to/lastmile_qr_scan"}, "type": "electric_scooter", "lat": 38.89993483333333, "is_disabled": 0, "lon": -77.01502766666667, "is_reserved": 0}, {"name": "ed22ed4e646ca2174f4539ead3620a80", "fusion_lat": 0.0, "fusion_lon": 0.0, "bike_id": "ed22ed4e646ca2174f4539ead3620a80", "rental_uris": {"ios": "https://dc.lft.to/lastmile_qr_scan", "android": "https://dc.lft.to/lastmile_qr_scan"}, "type": "electric_bike", "lat": 38.881858333333334, "is_disabled": 0, "lon": -77.11519383333334, "is_reserved": 0}, {"name": "62b8d9c10b035bf31ea1cab4f7bfa1bb", "fusion_lat": 0.0, "fusion_lon": 0.0, "bike_id": "62b8d9c10b035bf31ea1cab4f7bfa1bb", "rental_uris": {"ios": "https://dc.lft.to/lastmile_qr_scan", "android": "https://dc.lft.to/lastmile_qr_scan"}, "type": "electric_bike", "lat": 38.8882915, "is_disabled": 0, "lon": -77.12738, "is_reserved": 0}, {"name": "4136ebf90e03b2177a3e37abb24ecd52", "fusion_lat": 0.0, "fusion_lon": 0.0, "bike_id": "4136ebf90e03b2177a3e37abb24ecd52", "rental_uris": {"ios": "https://dc.lft.to/lastmile_qr_scan", "android": "https://dc.lft.to/lastmile_qr_scan"}, "type": "electric_scooter", "lat": 38.902075833333335, "is_disabled": 0, "lon": -77.02368216666666, "is_reserved": 0}, {"name": "15b3233668734e78e39954061dfc2510", "fusion_lat": 0.0, "fusion_lon": 0.0, "bike_id": "15b3233668734e78e39954061dfc2510", "rental_uris": {"ios": "https://dc.lft.to/lastmile_qr_scan", "android": "https://dc.lft.to/lastmile_qr_scan"}, "type": "electric_bike", "lat": 38.97578716666666, "is_disabled": 0, "lon": -76.9638705, "is_reserved": 0}, {"name": "099f8fb527fd9f30cbf6c7d3bb7ecce6", "fusion_lat": 0.0, "fusion_lon": 0.0, "bike_id": "099f8fb527fd9f30cbf6c7d3bb7ecce6", "rental_uris": {"ios": "https://dc.lft.to/lastmile_qr_scan", "android": "https://dc.lft.to/lastmile_qr_scan"}, "type": "electric_scooter", "lat": 38.885483, "is_disabled": 0, "lon": -77.019967, "is_reserved": 0}, {"name": "49e8647afde9674f9fd5612e6af65252", "fusion_lat": 0.0, "fusion_lon": 0.0, "bike_id": "49e8647afde9674f9fd5612e6af65252", "rental_uris": {"ios": "https://dc.lft.to/lastmile_qr_scan", "android": "https://dc.lft.to/lastmile_qr_scan"}, "type": "electric_bike", "lat": 38.917762, "is_disabled": 0, "lon": -77.0475085, "is_reserved": 0}, {"name": "195c66753e4e5ab9e5880564f78885c2", "fusion_lat": 0.0, "fusion_lon": 0.0, "bike_id": "195c66753e4e5ab9e5880564f78885c2", "rental_uris": {"ios": "https://dc.lft.to/lastmile_qr_scan", "android": "https://dc.lft.to/lastmile_qr_scan"}, "type": "electric_bike", "lat": 38.992362666666665, "is_disabled": 0, "lon": -76.87768383333334, "is_reserved": 0}, {"name": "87f0ff15ed9032f93fc160449b75afaf", "fusion_lat": 0.0, "fusion_lon": 0.0, "bike_id": "87f0ff15ed9032f93fc160449b75afaf", "rental_uris": {"ios": "https://dc.lft.to/lastmile_qr_scan", "android": "https://dc.lft.to/lastmile_qr_scan"}, "type": "electric_scooter", "lat": 38.8955475, "is_disabled": 0, "lon": -77.02168616666667, "is_reserved": 0}, {"name": "548b612f558a5bb1031d570bfd408b93", "fusion_lat": 0.0, "fusion_lon": 0.0, "bike_id": "548b612f558a5bb1031d570bfd408b93", "rental_uris": {"ios": "https://dc.lft.to/lastmile_qr_scan", "android": "https://dc.lft.to/lastmile_qr_scan"}, "type": "electric_scooter", "lat": 38.892518, "is_disabled": 0, "lon": -77.024123, "is_reserved": 0}, {"name": "ffd4bc04984129a4beeedac1e6eff67f", "fusion_lat": 0.0, "fusion_lon": 0.0, "bike_id": "ffd4bc04984129a4beeedac1e6eff67f", "rental_uris": {"ios": "https://dc.lft.to/lastmile_qr_scan", "android": "https://dc.lft.to/lastmile_qr_scan"}, "type": "electric_scooter", "lat": 38.90209333333333, "is_disabled": 0, "lon": -77.02366816666667, "is_reserved": 0}, {"name": "661b4149116a0c5945d8d70ec7039577", "fusion_lat": 0.0, "fusion_lon": 0.0, "bike_id": "661b4149116a0c5945d8d70ec7039577", "rental_uris": {"ios": "https://dc.lft.to/lastmile_qr_scan", "android": "https://dc.lft.to/lastmile_qr_scan"}, "type": "electric_scooter", "lat": 38.9012755, "is_disabled": 0, "lon": -77.01307033333333, "is_reserved": 0}, {"name": "7fc7bfa92d838167ef979bc99a97a823", "fusion_lat": 0.0, "fusion_lon": 0.0, "bike_id": "7fc7bfa92d838167ef979bc99a97a823", "rental_uris": {"ios": "https://dc.lft.to/lastmile_qr_scan", "android": "https://dc.lft.to/lastmile_qr_scan"}, "type": "electric_bike", "lat": 38.88968633333333, "is_disabled": 0, "lon": -76.9486475, "is_reserved": 0}, {"name": "befa385954451a15acde725e746c046a", "fusion_lat": 0.0, "fusion_lon": 0.0, "bike_id": "befa385954451a15acde725e746c046a", "rental_uris": {"ios": "https://dc.lft.to/lastmile_qr_scan", "android": "https://dc.lft.to/lastmile_qr_scan"}, "type": "electric_scooter", "lat": 38.8443955, "is_disabled": 0, "lon": -76.98400383333333, "is_reserved": 0}, {"name": "e93484d131e3c0c948b514d194a38887", "fusion_lat": 0.0, "fusion_lon": 0.0, "bike_id": "e93484d131e3c0c948b514d194a38887", "rental_uris": {"ios": "https://dc.lft.to/lastmile_qr_scan", "android": "https://dc.lft.to/lastmile_qr_scan"}, "type": "electric_scooter", "lat": 38.929065333333334, "is_disabled": 0, "lon": -77.0167295, "is_reserved": 0}, {"name": "a666bfebee00bcdc38ddf3bb88068b32", "fusion_lat": 0.0, "fusion_lon": 0.0, "bike_id": "a666bfebee00bcdc38ddf3bb88068b32", "rental_uris": {"ios": "https://dc.lft.to/lastmile_qr_scan", "android": "https://dc.lft.to/lastmile_qr_scan"}, "type": "electric_bike", "lat": 38.88473583333333, "is_disabled": 0, "lon": -77.09692583333333, "is_reserved": 0}, {"name": "2fb32de04b5b3c727b4fff04adfd0776", "fusion_lat": 0.0, "fusion_lon": 0.0, "bike_id": "2fb32de04b5b3c727b4fff04adfd0776", "rental_uris": {"ios": "https://dc.lft.to/lastmile_qr_scan", "android": "https://dc.lft.to/lastmile_qr_scan"}, "type": "electric_scooter", "lat": 38.903874, "is_disabled": 0, "lon": -77.03002833333333, "is_reserved": 0}, {"name": "0ed57c9a15b02699ae8579b7ce65edb1", "fusion_lat": 0.0, "fusion_lon": 0.0, "bike_id": "0ed57c9a15b02699ae8579b7ce65edb1", "rental_uris": {"ios": "https://dc.lft.to/lastmile_qr_scan", "android": "https://dc.lft.to/lastmile_qr_scan"}, "type": "electric_scooter", "lat": 38.887407833333334, "is_disabled": 0, "lon": -77.02211916666667, "is_reserved": 0}, {"name": "5613564f8de0a49ed1e3a0e870dd321a", "fusion_lat": 0.0, "fusion_lon": 0.0, "bike_id": "5613564f8de0a49ed1e3a0e870dd321a", "rental_uris": {"ios": "https://dc.lft.to/lastmile_qr_scan", "android": "https://dc.lft.to/lastmile_qr_scan"}, "type": "electric_scooter", "lat": 38.8984935, "is_disabled": 0, "lon": -76.93149166666667, "is_reserved": 0}, {"name": "8067eab639900cd2afbb15827f3e34de", "fusion_lat": 0.0, "fusion_lon": 0.0, "bike_id": "8067eab639900cd2afbb15827f3e34de", "rental_uris": {"ios": "https://dc.lft.to/lastmile_qr_scan", "android": "https://dc.lft.to/lastmile_qr_scan"}, "type": "electric_scooter", "lat": 38.89810033333333, "is_disabled": 0, "lon": -77.02924466666667, "is_reserved": 0}, {"name": "c2e5b002e4d9abe473bd666fd31c7cc7", "fusion_lat": 0.0, "fusion_lon": 0.0, "bike_id": "c2e5b002e4d9abe473bd666fd31c7cc7", "rental_uris": {"ios": "https://dc.lft.to/lastmile_qr_scan", "android": "https://dc.lft.to/lastmile_qr_scan"}, "type": "electric_scooter", "lat": 38.922397833333335, "is_disabled": 0, "lon": -77.04127133333333, "is_reserved": 0}, {"name": "7a89e8747378866a254c445606d0f678", "fusion_lat": 0.0, "fusion_lon": 0.0, "bike_id": "7a89e8747378866a254c445606d0f678", "rental_uris": {"ios": "https://dc.lft.to/lastmile_qr_scan", "android": "https://dc.lft.to/lastmile_qr_scan"}, "type": "electric_scooter", "lat": 38.93875966666667, "is_disabled": 0, "lon": -77.02506433333333, "is_reserved": 0}, {"name": "e8f7108eb8ada278403d5c75b1716ffe", "fusion_lat": 0.0, "fusion_lon": 0.0, "bike_id": "e8f7108eb8ada278403d5c75b1716ffe", "rental_uris": {"ios": "https://dc.lft.to/lastmile_qr_scan", "android": "https://dc.lft.to/lastmile_qr_scan"}, "type": "electric_scooter", "lat": 38.86711283333333, "is_disabled": 0, "lon": -76.98732483333333, "is_reserved": 0}, {"name": "1341af1481d11002f0f1de24a731cf95", "fusion_lat": 0.0, "fusion_lon": 0.0, "bike_id": "1341af1481d11002f0f1de24a731cf95", "rental_uris": {"ios": "https://dc.lft.to/lastmile_qr_scan", "android": "https://dc.lft.to/lastmile_qr_scan"}, "type": "electric_scooter", "lat": 38.9164695, "is_disabled": 0, "lon": -77.02244166666667, "is_reserved": 0}, {"name": "c1576b9b7df1d67793efb73720271657", "fusion_lat": 0.0, "fusion_lon": 0.0, "bike_id": "c1576b9b7df1d67793efb73720271657", "rental_uris": {"ios": "https://dc.lft.to/lastmile_qr_scan", "android": "https://dc.lft.to/lastmile_qr_scan"}, "type": "electric_scooter", "lat": 38.89313583333333, "is_disabled": 0, "lon": -77.050258, "is_reserved": 0}, {"name": "42929d33f03ed120629a0208c23b700d", "fusion_lat": 0.0, "fusion_lon": 0.0, "bike_id": "42929d33f03ed120629a0208c23b700d", "rental_uris": {"ios": "https://dc.lft.to/lastmile_qr_scan", "android": "https://dc.lft.to/lastmile_qr_scan"}, "type": "electric_scooter", "lat": 38.87173633333333, "is_disabled": 0, "lon": -77.00624533333334, "is_reserved": 0}, {"name": "1d3928194f899d258c5e989289cc1ae9", "fusion_lat": 0.0, "fusion_lon": 0.0, "bike_id": "1d3928194f899d258c5e989289cc1ae9", "rental_uris": {"ios": "https://dc.lft.to/lastmile_qr_scan", "android": "https://dc.lft.to/lastmile_qr_scan"}, "type": "electric_scooter", "lat": 38.86701516666667, "is_disabled": 0, "lon": -76.98711883333333, "is_reserved": 0}, {"name": "71555d37fb8d4bfc4c00d12e8316f526", "fusion_lat": 0.0, "fusion_lon": 0.0, "bike_id": "71555d37fb8d4bfc4c00d12e8316f526", "rental_uris": {"ios": "https://dc.lft.to/lastmile_qr_scan", "android": "https://dc.lft.to/lastmile_qr_scan"}, "type": "electric_scooter", "lat": 38.91983783333333, "is_disabled": 0, "lon": -77.03310433333333, "is_reserved": 0}, {"name": "b2132ec6e9f0cfc3cd8d28ac1fe76d7c", "fusion_lat": 0.0, "fusion_lon": 0.0, "bike_id": "b2132ec6e9f0cfc3cd8d28ac1fe76d7c", "rental_uris": {"ios": "https://dc.lft.to/lastmile_qr_scan", "android": "https://dc.lft.to/lastmile_qr_scan"}, "type": "electric_scooter", "lat": 38.9566, "is_disabled": 0, "lon": -77.08373133333333, "is_reserved": 0}, {"name": "05df5f4950385db754e679a5f8cb1e36", "fusion_lat": 0.0, "fusion_lon": 0.0, "bike_id": "05df5f4950385db754e679a5f8cb1e36", "rental_uris": {"ios": "https://dc.lft.to/lastmile_qr_scan", "android": "https://dc.lft.to/lastmile_qr_scan"}, "type": "electric_scooter", "lat": 38.91085233333333, "is_disabled": 0, "lon": -77.001491, "is_reserved": 0}, {"name": "1110a79dda81ddd5765b0592fc656fd8", "fusion_lat": 0.0, "fusion_lon": 0.0, "bike_id": "1110a79dda81ddd5765b0592fc656fd8", "rental_uris": {"ios": "https://dc.lft.to/lastmile_qr_scan", "android": "https://dc.lft.to/lastmile_qr_scan"}, "type": "electric_scooter", "lat": 38.91644, "is_disabled": 0, "lon": -77.05057533333333, "is_reserved": 0}, {"name": "86e137bdc3f8b335e12b598bdff63462", "fusion_lat": 0.0, "fusion_lon": 0.0, "bike_id": "86e137bdc3f8b335e12b598bdff63462", "rental_uris": {"ios": "https://dc.lft.to/lastmile_qr_scan", "android": "https://dc.lft.to/lastmile_qr_scan"}, "type": "electric_scooter", "lat": 38.8984365, "is_disabled": 0, "lon": -77.03306983333333, "is_reserved": 0}, {"name": "61d80680994776260f3bf49bee2f449b", "fusion_lat": 0.0, "fusion_lon": 0.0, "bike_id": "61d80680994776260f3bf49bee2f449b", "rental_uris": {"ios": "https://dc.lft.to/lastmile_qr_scan", "android": "https://dc.lft.to/lastmile_qr_scan"}, "type": "electric_scooter", "lat": 38.903567833333334, "is_disabled": 0, "lon": -77.01898566666667, "is_reserved": 0}, {"name": "8539d42b7de448608bc2cc36b138e260", "fusion_lat": 0.0, "fusion_lon": 0.0, "bike_id": "8539d42b7de448608bc2cc36b138e260", "rental_uris": {"ios": "https://dc.lft.to/lastmile_qr_scan", "android": "https://dc.lft.to/lastmile_qr_scan"}, "type": "electric_scooter", "lat": 38.9058325, "is_disabled": 0, "lon": -77.02905283333334, "is_reserved": 0}, {"name": "b78ef199043b3b229de1bb9809c60a79", "fusion_lat": 0.0, "fusion_lon": 0.0, "bike_id": "b78ef199043b3b229de1bb9809c60a79", "rental_uris": {"ios": "https://dc.lft.to/lastmile_qr_scan", "android": "https://dc.lft.to/lastmile_qr_scan"}, "type": "electric_scooter", "lat": 38.9319255, "is_disabled": 0, "lon": -77.0283665, "is_reserved": 0}, {"name": "6bd185354568d3a7ac771f8d042226d1", "fusion_lat": 0.0, "fusion_lon": 0.0, "bike_id": "6bd185354568d3a7ac771f8d042226d1", "rental_uris": {"ios": "https://dc.lft.to/lastmile_qr_scan", "android": "https://dc.lft.to/lastmile_qr_scan"}, "type": "electric_scooter", "lat": 38.911079666666666, "is_disabled": 0, "lon": -77.04473633333333, "is_reserved": 0}, {"name": "e0fe6fe0a9bb811a3f01b2c7d2ab6113", "fusion_lat": 0.0, "fusion_lon": 0.0, "bike_id": "e0fe6fe0a9bb811a3f01b2c7d2ab6113", "rental_uris": {"ios": "https://dc.lft.to/lastmile_qr_scan", "android": "https://dc.lft.to/lastmile_qr_scan"}, "type": "electric_scooter", "lat": 38.89231016666667, "is_disabled": 0, "lon": -77.03338566666666, "is_reserved": 0}, {"name": "69d4400db77d1ec6fe3a5d31557c1c8e", "fusion_lat": 0.0, "fusion_lon": 0.0, "bike_id": "69d4400db77d1ec6fe3a5d31557c1c8e", "rental_uris": {"ios": "https://dc.lft.to/lastmile_qr_scan", "android": "https://dc.lft.to/lastmile_qr_scan"}, "type": "electric_scooter", "lat": 38.91811466666667, "is_disabled": 0, "lon": -77.04157566666666, "is_reserved": 0}, {"name": "6be28dcc812a86883bccbdb3b35c3f1d", "fusion_lat": 0.0, "fusion_lon": 0.0, "bike_id": "6be28dcc812a86883bccbdb3b35c3f1d", "rental_uris": {"ios": "https://dc.lft.to/lastmile_qr_scan", "android": "https://dc.lft.to/lastmile_qr_scan"}, "type": "electric_scooter", "lat": 38.8777735, "is_disabled": 0, "lon": -77.01441666666666, "is_reserved": 0}, {"name": "6143c6890bfd59e138a487c18abc38bf", "fusion_lat": 0.0, "fusion_lon": 0.0, "bike_id": "6143c6890bfd59e138a487c18abc38bf", "rental_uris": {"ios": "https://dc.lft.to/lastmile_qr_scan", "android": "https://dc.lft.to/lastmile_qr_scan"}, "type": "electric_scooter", "lat": 38.900306666666665, "is_disabled": 0, "lon": -76.999629, "is_reserved": 0}, {"name": "491a8ac1c896178302848836327c6e3f", "fusion_lat": 0.0, "fusion_lon": 0.0, "bike_id": "491a8ac1c896178302848836327c6e3f", "rental_uris": {"ios": "https://dc.lft.to/lastmile_qr_scan", "android": "https://dc.lft.to/lastmile_qr_scan"}, "type": "electric_scooter", "lat": 38.91464366666666, "is_disabled": 0, "lon": -77.02178133333334, "is_reserved": 0}, {"name": "9f009279bff9d5a4adccd140c6943394", "fusion_lat": 0.0, "fusion_lon": 0.0, "bike_id": "9f009279bff9d5a4adccd140c6943394", "rental_uris": {"ios": "https://dc.lft.to/lastmile_qr_scan", "android": "https://dc.lft.to/lastmile_qr_scan"}, "type": "electric_scooter", "lat": 38.910118, "is_disabled": 0, "lon": -77.01386283333333, "is_reserved": 0}, {"name": "70304466f45ee251e448b5e8d5262ac9", "fusion_lat": 0.0, "fusion_lon": 0.0, "bike_id": "70304466f45ee251e448b5e8d5262ac9", "rental_uris": {"ios": "https://dc.lft.to/lastmile_qr_scan", "android": "https://dc.lft.to/lastmile_qr_scan"}, "type": "electric_bike", "lat": 38.94157166666667, "is_disabled": 0, "lon": -77.00193666666667, "is_reserved": 0}, {"name": "a8a31ad2e71dd37a08a22cf886727eeb", "fusion_lat": 0.0, "fusion_lon": 0.0, "bike_id": "a8a31ad2e71dd37a08a22cf886727eeb", "rental_uris": {"ios": "https://dc.lft.to/lastmile_qr_scan", "android": "https://dc.lft.to/lastmile_qr_scan"}, "type": "electric_scooter", "lat": 38.926040666666665, "is_disabled": 0, "lon": -77.02154733333333, "is_reserved": 0}, {"name": "e908907057e712158cd46102a15f3973", "fusion_lat": 0.0, "fusion_lon": 0.0, "bike_id": "e908907057e712158cd46102a15f3973", "rental_uris": {"ios": "https://dc.lft.to/lastmile_qr_scan", "android": "https://dc.lft.to/lastmile_qr_scan"}, "type": "electric_scooter", "lat": 38.88496816666667, "is_disabled": 0, "lon": -77.0071195, "is_reserved": 0}, {"name": "b74cf1c3ac371ab1be033dc416936006", "fusion_lat": 0.0, "fusion_lon": 0.0, "bike_id": "b74cf1c3ac371ab1be033dc416936006", "rental_uris": {"ios": "https://dc.lft.to/lastmile_qr_scan", "android": "https://dc.lft.to/lastmile_qr_scan"}, "type": "electric_scooter", "lat": 38.84878283333333, "is_disabled": 0, "lon": -77.005155, "is_reserved": 0}, {"name": "ab0fe14013a38b19b0d89aa4fb71141f", "fusion_lat": 0.0, "fusion_lon": 0.0, "bike_id": "ab0fe14013a38b19b0d89aa4fb71141f", "rental_uris": {"ios": "https://dc.lft.to/lastmile_qr_scan", "android": "https://dc.lft.to/lastmile_qr_scan"}, "type": "electric_scooter", "lat": 38.89843233333333, "is_disabled": 0, "lon": -76.94634283333333, "is_reserved": 0}, {"name": "2ecffe167787e04c324c58d060c3da11", "fusion_lat": 0.0, "fusion_lon": 0.0, "bike_id": "2ecffe167787e04c324c58d060c3da11", "rental_uris": {"ios": "https://dc.lft.to/lastmile_qr_scan", "android": "https://dc.lft.to/lastmile_qr_scan"}, "type": "electric_bike", "lat": 38.89333883333333, "is_disabled": 0, "lon": -77.12403533333334, "is_reserved": 0}, {"name": "1762ebc831f5897e0b9d15a3dc39aad9", "fusion_lat": 0.0, "fusion_lon": 0.0, "bike_id": "1762ebc831f5897e0b9d15a3dc39aad9", "rental_uris": {"ios": "https://dc.lft.to/lastmile_qr_scan", "android": "https://dc.lft.to/lastmile_qr_scan"}, "type": "electric_scooter", "lat": 38.919895, "is_disabled": 0, "lon": -77.0240965, "is_reserved": 0}, {"name": "c7b6d0c7bfeac2ae153fe6699d8b7bfc", "fusion_lat": 0.0, "fusion_lon": 0.0, "bike_id": "c7b6d0c7bfeac2ae153fe6699d8b7bfc", "rental_uris": {"ios": "https://dc.lft.to/lastmile_qr_scan", "android": "https://dc.lft.to/lastmile_qr_scan"}, "type": "electric_scooter", "lat": 38.903924333333336, "is_disabled": 0, "lon": -77.02801483333333, "is_reserved": 0}, {"name": "d5d6888fda27055a10ee2cdafd130162", "fusion_lat": 0.0, "fusion_lon": 0.0, "bike_id": "d5d6888fda27055a10ee2cdafd130162", "rental_uris": {"ios": "https://dc.lft.to/lastmile_qr_scan", "android": "https://dc.lft.to/lastmile_qr_scan"}, "type": "electric_scooter", "lat": 38.91545633333333, "is_disabled": 0, "lon": -77.0222905, "is_reserved": 0}, {"name": "851951c3b049ab58cc5d17e734e2c259", "fusion_lat": 0.0, "fusion_lon": 0.0, "bike_id": "851951c3b049ab58cc5d17e734e2c259", "rental_uris": {"ios": "https://dc.lft.to/lastmile_qr_scan", "android": "https://dc.lft.to/lastmile_qr_scan"}, "type": "electric_scooter", "lat": 38.95313816666667, "is_disabled": 0, "lon": -77.03599266666667, "is_reserved": 0}, {"name": "b63a8ae8e6e1f3c374427ca776a35fc7", "fusion_lat": 0.0, "fusion_lon": 0.0, "bike_id": "b63a8ae8e6e1f3c374427ca776a35fc7", "rental_uris": {"ios": "https://dc.lft.to/lastmile_qr_scan", "android": "https://dc.lft.to/lastmile_qr_scan"}, "type": "electric_scooter", "lat": 38.87473983333334, "is_disabled": 0, "lon": -77.012344, "is_reserved": 0}, {"name": "300ed763647f88387a513f37fc8c328b", "fusion_lat": 0.0, "fusion_lon": 0.0, "bike_id": "300ed763647f88387a513f37fc8c328b", "rental_uris": {"ios": "https://dc.lft.to/lastmile_qr_scan", "android": "https://dc.lft.to/lastmile_qr_scan"}, "type": "electric_scooter", "lat": 38.9197525, "is_disabled": 0, "lon": -77.02708666666666, "is_reserved": 0}, {"name": "64b1b2b46add5c623ad6408d5b4d09ea", "fusion_lat": 0.0, "fusion_lon": 0.0, "bike_id": "64b1b2b46add5c623ad6408d5b4d09ea", "rental_uris": {"ios": "https://dc.lft.to/lastmile_qr_scan", "android": "https://dc.lft.to/lastmile_qr_scan"}, "type": "electric_scooter", "lat": 38.862494, "is_disabled": 0, "lon": -76.99545333333333, "is_reserved": 0}, {"name": "269d4bcdd39857a7fc5ca9cafd3a625b", "fusion_lat": 0.0, "fusion_lon": 0.0, "bike_id": "269d4bcdd39857a7fc5ca9cafd3a625b", "rental_uris": {"ios": "https://dc.lft.to/lastmile_qr_scan", "android": "https://dc.lft.to/lastmile_qr_scan"}, "type": "electric_scooter", "lat": 38.9255805, "is_disabled": 0, "lon": -77.03772266666667, "is_reserved": 0}, {"name": "e36e804a63f5f7d3e7bb816b1dfc05e7", "fusion_lat": 0.0, "fusion_lon": 0.0, "bike_id": "e36e804a63f5f7d3e7bb816b1dfc05e7", "rental_uris": {"ios": "https://dc.lft.to/lastmile_qr_scan", "android": "https://dc.lft.to/lastmile_qr_scan"}, "type": "electric_scooter", "lat": 38.908883833333334, "is_disabled": 0, "lon": -77.0433275, "is_reserved": 0}, {"name": "37c83dda50b83719e8ac04036bc0f875", "fusion_lat": 0.0, "fusion_lon": 0.0, "bike_id": "37c83dda50b83719e8ac04036bc0f875", "rental_uris": {"ios": "https://dc.lft.to/lastmile_qr_scan", "android": "https://dc.lft.to/lastmile_qr_scan"}, "type": "electric_scooter", "lat": 38.932618166666664, "is_disabled": 0, "lon": -77.02978766666666, "is_reserved": 0}, {"name": "9e153c2bded084fce2f24040f2c0cc7f", "fusion_lat": 0.0, "fusion_lon": 0.0, "bike_id": "9e153c2bded084fce2f24040f2c0cc7f", "rental_uris": {"ios": "https://dc.lft.to/lastmile_qr_scan", "android": "https://dc.lft.to/lastmile_qr_scan"}, "type": "electric_scooter", "lat": 38.893066166666664, "is_disabled": 0, "lon": -77.01231833333334, "is_reserved": 0}, {"name": "3e69665c5e6afdcacc185f7ff8cabc0a", "fusion_lat": 0.0, "fusion_lon": 0.0, "bike_id": "3e69665c5e6afdcacc185f7ff8cabc0a", "rental_uris": {"ios": "https://dc.lft.to/lastmile_qr_scan", "android": "https://dc.lft.to/lastmile_qr_scan"}, "type": "electric_scooter", "lat": 38.89971833333333, "is_disabled": 0, "lon": -77.046179, "is_reserved": 0}, {"name": "e8a91b2e8f7449040ae09305b65b6788", "fusion_lat": 0.0, "fusion_lon": 0.0, "bike_id": "e8a91b2e8f7449040ae09305b65b6788", "rental_uris": {"ios": "https://dc.lft.to/lastmile_qr_scan", "android": "https://dc.lft.to/lastmile_qr_scan"}, "type": "electric_scooter", "lat": 38.9315265, "is_disabled": 0, "lon": -77.03450816666667, "is_reserved": 0}, {"name": "105466c8af2f7030c6bc38c63e01d029", "fusion_lat": 0.0, "fusion_lon": 0.0, "bike_id": "105466c8af2f7030c6bc38c63e01d029", "rental_uris": {"ios": "https://dc.lft.to/lastmile_qr_scan", "android": "https://dc.lft.to/lastmile_qr_scan"}, "type": "electric_scooter", "lat": 38.9040265, "is_disabled": 0, "lon": -77.04353833333333, "is_reserved": 0}, {"name": "0fbf393dcee6c4796131922047685ea7", "fusion_lat": 0.0, "fusion_lon": 0.0, "bike_id": "0fbf393dcee6c4796131922047685ea7", "rental_uris": {"ios": "https://dc.lft.to/lastmile_qr_scan", "android": "https://dc.lft.to/lastmile_qr_scan"}, "type": "electric_scooter", "lat": 38.956088333333334, "is_disabled": 0, "lon": -77.03631066666667, "is_reserved": 0}, {"name": "e67251d59a3cb991d8003177d32c4af9", "fusion_lat": 0.0, "fusion_lon": 0.0, "bike_id": "e67251d59a3cb991d8003177d32c4af9", "rental_uris": {"ios": "https://dc.lft.to/lastmile_qr_scan", "android": "https://dc.lft.to/lastmile_qr_scan"}, "type": "electric_bike", "lat": 39.09594, "is_disabled": 0, "lon": -77.14776883333333, "is_reserved": 0}, {"name": "c1041af98526364fe066687b04e2b904", "fusion_lat": 0.0, "fusion_lon": 0.0, "bike_id": "c1041af98526364fe066687b04e2b904", "rental_uris": {"ios": "https://dc.lft.to/lastmile_qr_scan", "android": "https://dc.lft.to/lastmile_qr_scan"}, "type": "electric_bike", "lat": 38.84194466666667, "is_disabled": 0, "lon": -77.077491, "is_reserved": 0}, {"name": "34c1605cb8b2789b739019dec5562b51", "fusion_lat": 0.0, "fusion_lon": 0.0, "bike_id": "34c1605cb8b2789b739019dec5562b51", "rental_uris": {"ios": "https://dc.lft.to/lastmile_qr_scan", "android": "https://dc.lft.to/lastmile_qr_scan"}, "type": "electric_scooter", "lat": 38.89730483333334, "is_disabled": 0, "lon": -76.94702533333333, "is_reserved": 0}, {"name": "a26dc917bf3d08fa12e5c303136334de", "fusion_lat": 0.0, "fusion_lon": 0.0, "bike_id": "a26dc917bf3d08fa12e5c303136334de", "rental_uris": {"ios": "https://dc.lft.to/lastmile_qr_scan", "android": "https://dc.lft.to/lastmile_qr_scan"}, "type": "electric_scooter", "lat": 38.931479833333334, "is_disabled": 0, "lon": -77.03607466666666, "is_reserved": 0}, {"name": "da54d4a858958550265532d9a1fcb412", "fusion_lat": 0.0, "fusion_lon": 0.0, "bike_id": "da54d4a858958550265532d9a1fcb412", "rental_uris": {"ios": "https://dc.lft.to/lastmile_qr_scan", "android": "https://dc.lft.to/lastmile_qr_scan"}, "type": "electric_bike", "lat": 38.999342, "is_disabled": 0, "lon": -77.001229, "is_reserved": 0}, {"name": "97d1bc598307d05cb3d2398e326211c0", "fusion_lat": 0.0, "fusion_lon": 0.0, "bike_id": "97d1bc598307d05cb3d2398e326211c0", "rental_uris": {"ios": "https://dc.lft.to/lastmile_qr_scan", "android": "https://dc.lft.to/lastmile_qr_scan"}, "type": "electric_bike", "lat": 38.8554735, "is_disabled": 0, "lon": -77.1070225, "is_reserved": 0}, {"name": "841c04869abe14afaf05ac99851b1827", "fusion_lat": 0.0, "fusion_lon": 0.0, "bike_id": "841c04869abe14afaf05ac99851b1827", "rental_uris": {"ios": "https://dc.lft.to/lastmile_qr_scan", "android": "https://dc.lft.to/lastmile_qr_scan"}, "type": "electric_scooter", "lat": 38.9001625, "is_disabled": 0, "lon": -76.99596333333334, "is_reserved": 0}, {"name": "5b4d6abe387dcd0d628588f3eb37649e", "fusion_lat": 0.0, "fusion_lon": 0.0, "bike_id": "5b4d6abe387dcd0d628588f3eb37649e", "rental_uris": {"ios": "https://dc.lft.to/lastmile_qr_scan", "android": "https://dc.lft.to/lastmile_qr_scan"}, "type": "electric_scooter", "lat": 38.8951195, "is_disabled": 0, "lon": -76.94885983333333, "is_reserved": 0}, {"name": "236cc9d361173bb51890514c4d612999", "fusion_lat": 0.0, "fusion_lon": 0.0, "bike_id": "236cc9d361173bb51890514c4d612999", "rental_uris": {"ios": "https://dc.lft.to/lastmile_qr_scan", "android": "https://dc.lft.to/lastmile_qr_scan"}, "type": "electric_scooter", "lat": 38.90385933333334, "is_disabled": 0, "lon": -77.01844833333334, "is_reserved": 0}, {"name": "8881cc20a972e2f97478213d9e2e4059", "fusion_lat": 0.0, "fusion_lon": 0.0, "bike_id": "8881cc20a972e2f97478213d9e2e4059", "rental_uris": {"ios": "https://dc.lft.to/lastmile_qr_scan", "android": "https://dc.lft.to/lastmile_qr_scan"}, "type": "electric_scooter", "lat": 38.86046866666667, "is_disabled": 0, "lon": -76.9968915, "is_reserved": 0}, {"name": "aebd04c010777a4ad245b31dbf24d128", "fusion_lat": 0.0, "fusion_lon": 0.0, "bike_id": "aebd04c010777a4ad245b31dbf24d128", "rental_uris": {"ios": "https://dc.lft.to/lastmile_qr_scan", "android": "https://dc.lft.to/lastmile_qr_scan"}, "type": "electric_scooter", "lat": 38.89953333333333, "is_disabled": 0, "lon": -77.025932, "is_reserved": 0}, {"name": "f2168ee585107e59fae0e1baf61063d0", "fusion_lat": 0.0, "fusion_lon": 0.0, "bike_id": "f2168ee585107e59fae0e1baf61063d0", "rental_uris": {"ios": "https://dc.lft.to/lastmile_qr_scan", "android": "https://dc.lft.to/lastmile_qr_scan"}, "type": "electric_scooter", "lat": 38.911938666666664, "is_disabled": 0, "lon": -77.00260683333333, "is_reserved": 0}, {"name": "a017e9fbefa14727e3e59830be88f037", "fusion_lat": 0.0, "fusion_lon": 0.0, "bike_id": "a017e9fbefa14727e3e59830be88f037", "rental_uris": {"ios": "https://dc.lft.to/lastmile_qr_scan", "android": "https://dc.lft.to/lastmile_qr_scan"}, "type": "electric_scooter", "lat": 38.91497366666667, "is_disabled": 0, "lon": -77.00773366666667, "is_reserved": 0}, {"name": "acbffabf39a37da3c098eace2a879f4a", "fusion_lat": 0.0, "fusion_lon": 0.0, "bike_id": "acbffabf39a37da3c098eace2a879f4a", "rental_uris": {"ios": "https://dc.lft.to/lastmile_qr_scan", "android": "https://dc.lft.to/lastmile_qr_scan"}, "type": "electric_bike", "lat": 38.830951, "is_disabled": 0, "lon": -77.04296083333334, "is_reserved": 0}, {"name": "e181bb6f3100e68a2ba836427732fbbf", "fusion_lat": 0.0, "fusion_lon": 0.0, "bike_id": "e181bb6f3100e68a2ba836427732fbbf", "rental_uris": {"ios": "https://dc.lft.to/lastmile_qr_scan", "android": "https://dc.lft.to/lastmile_qr_scan"}, "type": "electric_scooter", "lat": 38.84621033333333, "is_disabled": 0, "lon": -76.99629916666666, "is_reserved": 0}, {"name": "edb332ce2b893fe635b45033f87b35a0", "fusion_lat": 0.0, "fusion_lon": 0.0, "bike_id": "edb332ce2b893fe635b45033f87b35a0", "rental_uris": {"ios": "https://dc.lft.to/lastmile_qr_scan", "android": "https://dc.lft.to/lastmile_qr_scan"}, "type": "electric_scooter", "lat": 38.898286, "is_disabled": 0, "lon": -77.03124716666666, "is_reserved": 0}, {"name": "2c7f86028dc58d314dc19208a30b8eae", "fusion_lat": 0.0, "fusion_lon": 0.0, "bike_id": "2c7f86028dc58d314dc19208a30b8eae", "rental_uris": {"ios": "https://dc.lft.to/lastmile_qr_scan", "android": "https://dc.lft.to/lastmile_qr_scan"}, "type": "electric_scooter", "lat": 38.945169166666666, "is_disabled": 0, "lon": -77.02985, "is_reserved": 0}, {"name": "5a94c27aa87459704f9ff3fabf0582ee", "fusion_lat": 0.0, "fusion_lon": 0.0, "bike_id": "5a94c27aa87459704f9ff3fabf0582ee", "rental_uris": {"ios": "https://dc.lft.to/lastmile_qr_scan", "android": "https://dc.lft.to/lastmile_qr_scan"}, "type": "electric_scooter", "lat": 38.863575833333336, "is_disabled": 0, "lon": -76.99059133333333, "is_reserved": 0}, {"name": "6bcc3f8f46c69e0b027cece5379d06aa", "fusion_lat": 0.0, "fusion_lon": 0.0, "bike_id": "6bcc3f8f46c69e0b027cece5379d06aa", "rental_uris": {"ios": "https://dc.lft.to/lastmile_qr_scan", "android": "https://dc.lft.to/lastmile_qr_scan"}, "type": "electric_scooter", "lat": 38.897251, "is_disabled": 0, "lon": -77.0316755, "is_reserved": 0}, {"name": "ddac40eca75a190f387f970b0ba757b1", "fusion_lat": 0.0, "fusion_lon": 0.0, "bike_id": "ddac40eca75a190f387f970b0ba757b1", "rental_uris": {"ios": "https://dc.lft.to/lastmile_qr_scan", "android": "https://dc.lft.to/lastmile_qr_scan"}, "type": "electric_scooter", "lat": 38.8994125, "is_disabled": 0, "lon": -77.00344483333333, "is_reserved": 0}, {"name": "0d209842fab93187e7f051ae9877e50f", "fusion_lat": 0.0, "fusion_lon": 0.0, "bike_id": "0d209842fab93187e7f051ae9877e50f", "rental_uris": {"ios": "https://dc.lft.to/lastmile_qr_scan", "android": "https://dc.lft.to/lastmile_qr_scan"}, "type": "electric_scooter", "lat": 38.90335816666666, "is_disabled": 0, "lon": -76.99959716666666, "is_reserved": 0}, {"name": "4a122facee6b8eeb69bd2973e5524ab3", "fusion_lat": 0.0, "fusion_lon": 0.0, "bike_id": "4a122facee6b8eeb69bd2973e5524ab3", "rental_uris": {"ios": "https://dc.lft.to/lastmile_qr_scan", "android": "https://dc.lft.to/lastmile_qr_scan"}, "type": "electric_scooter", "lat": 38.89996216666667, "is_disabled": 0, "lon": -77.05568333333333, "is_reserved": 0}, {"name": "c0dc3f64e1e590732f9f3ddfb3d3e970", "fusion_lat": 0.0, "fusion_lon": 0.0, "bike_id": "c0dc3f64e1e590732f9f3ddfb3d3e970", "rental_uris": {"ios": "https://dc.lft.to/lastmile_qr_scan", "android": "https://dc.lft.to/lastmile_qr_scan"}, "type": "electric_scooter", "lat": 38.921669666666666, "is_disabled": 0, "lon": -76.99400783333333, "is_reserved": 0}, {"name": "921fb8015dc97d3c5955a9f9ac4fdd3e", "fusion_lat": 0.0, "fusion_lon": 0.0, "bike_id": "921fb8015dc97d3c5955a9f9ac4fdd3e", "rental_uris": {"ios": "https://dc.lft.to/lastmile_qr_scan", "android": "https://dc.lft.to/lastmile_qr_scan"}, "type": "electric_bike", "lat": 38.94563266666667, "is_disabled": 0, "lon": -77.05115183333334, "is_reserved": 0}, {"name": "ec9c094232ebb489eb17af4d8d856e61", "fusion_lat": 0.0, "fusion_lon": 0.0, "bike_id": "ec9c094232ebb489eb17af4d8d856e61", "rental_uris": {"ios": "https://dc.lft.to/lastmile_qr_scan", "android": "https://dc.lft.to/lastmile_qr_scan"}, "type": "electric_scooter", "lat": 38.91412583333333, "is_disabled": 0, "lon": -77.02828133333334, "is_reserved": 0}, {"name": "5411fe3fa2ca6374b91c14aef8dc03a0", "fusion_lat": 0.0, "fusion_lon": 0.0, "bike_id": "5411fe3fa2ca6374b91c14aef8dc03a0", "rental_uris": {"ios": "https://dc.lft.to/lastmile_qr_scan", "android": "https://dc.lft.to/lastmile_qr_scan"}, "type": "electric_bike", "lat": 38.944742166666664, "is_disabled": 0, "lon": -77.006448, "is_reserved": 0}, {"name": "97af1670b9f8069d6739e9fb623b4b26", "fusion_lat": 0.0, "fusion_lon": 0.0, "bike_id": "97af1670b9f8069d6739e9fb623b4b26", "rental_uris": {"ios": "https://dc.lft.to/lastmile_qr_scan", "android": "https://dc.lft.to/lastmile_qr_scan"}, "type": "electric_scooter", "lat": 38.93534416666667, "is_disabled": 0, "lon": -77.0235615, "is_reserved": 0}, {"name": "3157f8bb2fe4aa69ba2d2770255b3eea", "fusion_lat": 0.0, "fusion_lon": 0.0, "bike_id": "3157f8bb2fe4aa69ba2d2770255b3eea", "rental_uris": {"ios": "https://dc.lft.to/lastmile_qr_scan", "android": "https://dc.lft.to/lastmile_qr_scan"}, "type": "electric_scooter", "lat": 38.93077483333333, "is_disabled": 0, "lon": -77.031904, "is_reserved": 0}, {"name": "b64ea06a23c811b3ddbc91fd208adfb6", "fusion_lat": 0.0, "fusion_lon": 0.0, "bike_id": "b64ea06a23c811b3ddbc91fd208adfb6", "rental_uris": {"ios": "https://dc.lft.to/lastmile_qr_scan", "android": "https://dc.lft.to/lastmile_qr_scan"}, "type": "electric_scooter", "lat": 38.91468583333333, "is_disabled": 0, "lon": -77.03216316666666, "is_reserved": 0}, {"name": "a20e348116ac0307f67cf9cf698f6b09", "fusion_lat": 0.0, "fusion_lon": 0.0, "bike_id": "a20e348116ac0307f67cf9cf698f6b09", "rental_uris": {"ios": "https://dc.lft.to/lastmile_qr_scan", "android": "https://dc.lft.to/lastmile_qr_scan"}, "type": "electric_scooter", "lat": 38.934318833333336, "is_disabled": 0, "lon": -77.05835916666666, "is_reserved": 0}, {"name": "9018eeb31c0731e83f2e71a58c8f1703", "fusion_lat": 0.0, "fusion_lon": 0.0, "bike_id": "9018eeb31c0731e83f2e71a58c8f1703", "rental_uris": {"ios": "https://dc.lft.to/lastmile_qr_scan", "android": "https://dc.lft.to/lastmile_qr_scan"}, "type": "electric_scooter", "lat": 38.91569666666667, "is_disabled": 0, "lon": -77.03185633333334, "is_reserved": 0}, {"name": "b696eef0406873e4791b5503cc2d76dd", "fusion_lat": 0.0, "fusion_lon": 0.0, "bike_id": "b696eef0406873e4791b5503cc2d76dd", "rental_uris": {"ios": "https://dc.lft.to/lastmile_qr_scan", "android": "https://dc.lft.to/lastmile_qr_scan"}, "type": "electric_scooter", "lat": 38.91119416666667, "is_disabled": 0, "lon": -77.03729216666666, "is_reserved": 0}, {"name": "21c0f2870d90ceca034e4da6f829d0f8", "fusion_lat": 0.0, "fusion_lon": 0.0, "bike_id": "21c0f2870d90ceca034e4da6f829d0f8", "rental_uris": {"ios": "https://dc.lft.to/lastmile_qr_scan", "android": "https://dc.lft.to/lastmile_qr_scan"}, "type": "electric_scooter", "lat": 38.905287666666666, "is_disabled": 0, "lon": -77.06085166666666, "is_reserved": 0}, {"name": "2402124d3038176ea8860a5128799a97", "fusion_lat": 0.0, "fusion_lon": 0.0, "bike_id": "2402124d3038176ea8860a5128799a97", "rental_uris": {"ios": "https://dc.lft.to/lastmile_qr_scan", "android": "https://dc.lft.to/lastmile_qr_scan"}, "type": "electric_scooter", "lat": 38.9261815, "is_disabled": 0, "lon": -77.02159966666666, "is_reserved": 0}, {"name": "d1b11be7a064a6475f631172bd3fc99c", "fusion_lat": 0.0, "fusion_lon": 0.0, "bike_id": "d1b11be7a064a6475f631172bd3fc99c", "rental_uris": {"ios": "https://dc.lft.to/lastmile_qr_scan", "android": "https://dc.lft.to/lastmile_qr_scan"}, "type": "electric_scooter", "lat": 38.90577233333333, "is_disabled": 0, "lon": -77.00787783333334, "is_reserved": 0}, {"name": "4577c75d6d8d3fe9b86faa52329bf241", "fusion_lat": 0.0, "fusion_lon": 0.0, "bike_id": "4577c75d6d8d3fe9b86faa52329bf241", "rental_uris": {"ios": "https://dc.lft.to/lastmile_qr_scan", "android": "https://dc.lft.to/lastmile_qr_scan"}, "type": "electric_scooter", "lat": 38.89995416666667, "is_disabled": 0, "lon": -77.02616066666667, "is_reserved": 0}, {"name": "d0fff614f7a4b4ae13477c9565ff1c02", "fusion_lat": 0.0, "fusion_lon": 0.0, "bike_id": "d0fff614f7a4b4ae13477c9565ff1c02", "rental_uris": {"ios": "https://dc.lft.to/lastmile_qr_scan", "android": "https://dc.lft.to/lastmile_qr_scan"}, "type": "electric_bike", "lat": 38.887212, "is_disabled": 0, "lon": -77.13316616666667, "is_reserved": 0}, {"name": "b08274246fb70f9a1860ce5219ea5ece", "fusion_lat": 0.0, "fusion_lon": 0.0, "bike_id": "b08274246fb70f9a1860ce5219ea5ece", "rental_uris": {"ios": "https://dc.lft.to/lastmile_qr_scan", "android": "https://dc.lft.to/lastmile_qr_scan"}, "type": "electric_bike", "lat": 38.97053616666667, "is_disabled": 0, "lon": -76.9608285, "is_reserved": 0}, {"name": "6868a48ad37b6bfe4e121c7de54a71e7", "fusion_lat": 0.0, "fusion_lon": 0.0, "bike_id": "6868a48ad37b6bfe4e121c7de54a71e7", "rental_uris": {"ios": "https://dc.lft.to/lastmile_qr_scan", "android": "https://dc.lft.to/lastmile_qr_scan"}, "type": "electric_scooter", "lat": 38.912062666666664, "is_disabled": 0, "lon": -76.98484116666667, "is_reserved": 0}, {"name": "d64ee9330b7fd92dafdc8468b8744019", "fusion_lat": 0.0, "fusion_lon": 0.0, "bike_id": "d64ee9330b7fd92dafdc8468b8744019", "rental_uris": {"ios": "https://dc.lft.to/lastmile_qr_scan", "android": "https://dc.lft.to/lastmile_qr_scan"}, "type": "electric_scooter", "lat": 38.907317666666664, "is_disabled": 0, "lon": -77.02369833333333, "is_reserved": 0}, {"name": "5782d597af3cf6b6409002a33a60c576", "fusion_lat": 0.0, "fusion_lon": 0.0, "bike_id": "5782d597af3cf6b6409002a33a60c576", "rental_uris": {"ios": "https://dc.lft.to/lastmile_qr_scan", "android": "https://dc.lft.to/lastmile_qr_scan"}, "type": "electric_scooter", "lat": 38.8918395, "is_disabled": 0, "lon": -77.03166233333333, "is_reserved": 0}, {"name": "54f6105a1757554e162393b73cffb12c", "fusion_lat": 0.0, "fusion_lon": 0.0, "bike_id": "54f6105a1757554e162393b73cffb12c", "rental_uris": {"ios": "https://dc.lft.to/lastmile_qr_scan", "android": "https://dc.lft.to/lastmile_qr_scan"}, "type": "electric_scooter", "lat": 38.921675666666665, "is_disabled": 0, "lon": -77.0434125, "is_reserved": 0}, {"name": "fe417bc99d457f43e9a95f121a0000f1", "fusion_lat": 0.0, "fusion_lon": 0.0, "bike_id": "fe417bc99d457f43e9a95f121a0000f1", "rental_uris": {"ios": "https://dc.lft.to/lastmile_qr_scan", "android": "https://dc.lft.to/lastmile_qr_scan"}, "type": "electric_scooter", "lat": 38.886910666666665, "is_disabled": 0, "lon": -77.000936, "is_reserved": 0}, {"name": "16304c7158fc0dc60621a97a7109a659", "fusion_lat": 0.0, "fusion_lon": 0.0, "bike_id": "16304c7158fc0dc60621a97a7109a659", "rental_uris": {"ios": "https://dc.lft.to/lastmile_qr_scan", "android": "https://dc.lft.to/lastmile_qr_scan"}, "type": "electric_scooter", "lat": 38.9001635, "is_disabled": 0, "lon": -76.995958, "is_reserved": 0}, {"name": "c703d4c570a8c7a6687838031888c84f", "fusion_lat": 0.0, "fusion_lon": 0.0, "bike_id": "c703d4c570a8c7a6687838031888c84f", "rental_uris": {"ios": "https://dc.lft.to/lastmile_qr_scan", "android": "https://dc.lft.to/lastmile_qr_scan"}, "type": "electric_scooter", "lat": 38.918429333333336, "is_disabled": 0, "lon": -76.96551133333334, "is_reserved": 0}, {"name": "17e6d6ca9145efec12d740547824a0a1", "fusion_lat": 0.0, "fusion_lon": 0.0, "bike_id": "17e6d6ca9145efec12d740547824a0a1", "rental_uris": {"ios": "https://dc.lft.to/lastmile_qr_scan", "android": "https://dc.lft.to/lastmile_qr_scan"}, "type": "electric_scooter", "lat": 38.95632966666667, "is_disabled": 0, "lon": -77.03629433333333, "is_reserved": 0}, {"name": "1ad59954a043dc83487c49ce1794ca5e", "fusion_lat": 0.0, "fusion_lon": 0.0, "bike_id": "1ad59954a043dc83487c49ce1794ca5e", "rental_uris": {"ios": "https://dc.lft.to/lastmile_qr_scan", "android": "https://dc.lft.to/lastmile_qr_scan"}, "type": "electric_scooter", "lat": 38.90429616666667, "is_disabled": 0, "lon": -77.02942616666667, "is_reserved": 0}, {"name": "767e65358a8f4c5aa957c8d8eace4393", "fusion_lat": 0.0, "fusion_lon": 0.0, "bike_id": "767e65358a8f4c5aa957c8d8eace4393", "rental_uris": {"ios": "https://dc.lft.to/lastmile_qr_scan", "android": "https://dc.lft.to/lastmile_qr_scan"}, "type": "electric_scooter", "lat": 38.89710933333333, "is_disabled": 0, "lon": -76.94714183333333, "is_reserved": 0}, {"name": "36065671636daf027549b22b937ea2f6", "fusion_lat": 0.0, "fusion_lon": 0.0, "bike_id": "36065671636daf027549b22b937ea2f6", "rental_uris": {"ios": "https://dc.lft.to/lastmile_qr_scan", "android": "https://dc.lft.to/lastmile_qr_scan"}, "type": "electric_scooter", "lat": 38.88973583333333, "is_disabled": 0, "lon": -76.99202016666666, "is_reserved": 0}, {"name": "571afb5675a5bf282f592d06b7058d25", "fusion_lat": 0.0, "fusion_lon": 0.0, "bike_id": "571afb5675a5bf282f592d06b7058d25", "rental_uris": {"ios": "https://dc.lft.to/lastmile_qr_scan", "android": "https://dc.lft.to/lastmile_qr_scan"}, "type": "electric_scooter", "lat": 38.87630333333333, "is_disabled": 0, "lon": -77.01642516666666, "is_reserved": 0}, {"name": "04713d2b83d902d9e60d940a22d2d552", "fusion_lat": 0.0, "fusion_lon": 0.0, "bike_id": "04713d2b83d902d9e60d940a22d2d552", "rental_uris": {"ios": "https://dc.lft.to/lastmile_qr_scan", "android": "https://dc.lft.to/lastmile_qr_scan"}, "type": "electric_scooter", "lat": 38.92394, "is_disabled": 0, "lon": -77.04081916666667, "is_reserved": 0}, {"name": "d5fd4f8ef448649bdd8ee92b72867a5f", "fusion_lat": 0.0, "fusion_lon": 0.0, "bike_id": "d5fd4f8ef448649bdd8ee92b72867a5f", "rental_uris": {"ios": "https://dc.lft.to/lastmile_qr_scan", "android": "https://dc.lft.to/lastmile_qr_scan"}, "type": "electric_scooter", "lat": 38.928251, "is_disabled": 0, "lon": -77.0327025, "is_reserved": 0}, {"name": "2e326d08d390029e73c5597242734600", "fusion_lat": 0.0, "fusion_lon": 0.0, "bike_id": "2e326d08d390029e73c5597242734600", "rental_uris": {"ios": "https://dc.lft.to/lastmile_qr_scan", "android": "https://dc.lft.to/lastmile_qr_scan"}, "type": "electric_scooter", "lat": 38.885062833333336, "is_disabled": 0, "lon": -77.00566466666666, "is_reserved": 0}, {"name": "2eb6ca8f0dfa7fabdc7f7ca545c97c4d", "fusion_lat": 0.0, "fusion_lon": 0.0, "bike_id": "2eb6ca8f0dfa7fabdc7f7ca545c97c4d", "rental_uris": {"ios": "https://dc.lft.to/lastmile_qr_scan", "android": "https://dc.lft.to/lastmile_qr_scan"}, "type": "electric_scooter", "lat": 38.9192045, "is_disabled": 0, "lon": -77.033899, "is_reserved": 0},