{"data": {"bikes": [{"lat": 38.91615783333334, "is_disabled": 0, "type": "electric_scooter", "lon": -77.03642516666666, "bike_id": "b7f22caf81a030ea8189778dd9423559", "fusion_lat": 0.0, "name": "b7f22caf81a030ea8189778dd9423559", "is_reserved": 0, "rental_uris": {"android": "https://dc.lft.to/lastmile_qr_scan", "ios": "https://dc.lft.to/lastmile_qr_scan"}, "fusion_lon": 0.0}, {"lat": 38.903969833333335, "is_disabled": 0, "type": "electric_scooter", "lon": -77.0383655, "bike_id": "a386bc6881c8781fac0f78674003e6c3", "fusion_lat": 0.0, "name": "a386bc6881c8781fac0f78674003e6c3", "is_reserved": 0, "rental_uris": {"android": "https://dc.lft.to/lastmile_qr_scan", "ios": "https://dc.lft.to/lastmile_qr_scan"}, "fusion_lon": 0.0}, {"lat": 38.916873333333335, "is_disabled": 0, "type": "electric_scooter", "lon": -77.02952366666666, "bike_id": "68383bed19ee7b0df571c99147db79ee", "fusion_lat": 0.0, "name": "68383bed19ee7b0df571c99147db79ee", "is_reserved": 0, "rental_uris": {"android": "https://dc.lft.to/lastmile_qr_scan", "ios": "https://dc.lft.to/lastmile_qr_scan"}, "fusion_lon": 0.0}, {"lat": 38.907088333333334, "is_disabled": 0, "type": "electric_scooter", "lon": -77.02391266666666, "bike_id": "4228a5558f29f4ced9335adaabe2d9dd", "fusion_lat": 0.0, "name": "4228a5558f29f4ced9335adaabe2d9dd", "is_reserved": 0, "rental_uris": {"android": "https://dc.lft.to/lastmile_qr_scan", "ios": "https://dc.lft.to/lastmile_qr_scan"}, "fusion_lon": 0.0}, {"lat": 38.9028585, "is_disabled": 0, "type": "electric_scooter", "lon": -77.03642683333334, "bike_id": "07711697efd57335b76c8074a9cc28d8", "fusion_lat": 0.0, "name": "07711697efd57335b76c8074a9cc28d8", "is_reserved": 0, "rental_uris": {"android": "https://dc.lft.to/lastmile_qr_scan", "ios": "https://dc.lft.to/lastmile_qr_scan"}, "fusion_lon": 0.0}, {"lat": 38.90886233333333, "is_disabled": 0, "type": "electric_scooter", "lon": -77.04429416666666, "bike_id": "a75e447f13dcf1da8b7b6be4c627172e", "fusion_lat": 0.0, "name": "a75e447f13dcf1da8b7b6be4c627172e", "is_reserved": 0, "rental_uris": {"android": "https://dc.lft.to/lastmile_qr_scan", "ios": "https://dc.lft.to/lastmile_qr_scan"}, "fusion_lon": 0.0}, {"lat": 38.907337, "is_disabled": 0, "type": "electric_scooter", "lon": -77.0434435, "bike_id": "741a5ad170113565f6ddcce0111b0583", "fusion_lat": 0.0, "name": "741a5ad170113565f6ddcce0111b0583", "is_reserved": 0, "rental_uris": {"android": "https://dc.lft.to/lastmile_qr_scan", "ios": "https://dc.lft.to/lastmile_qr_scan"}, "fusion_lon": 0.0}, {"lat": 38.935009, "is_disabled": 0, "type": "electric_scooter", "lon": -77.02728133333333, "bike_id": "a683f1ffc658d79f2c2b15f57842f0e3", "fusion_lat": 0.0, "name": "a683f1ffc658d79f2c2b15f57842f0e3", "is_reserved": 0, "rental_uris": {"android": "https://dc.lft.to/lastmile_qr_scan", "ios": "https://dc.lft.to/lastmile_qr_scan"}, "fusion_lon": 0.0}, {"lat": 38.909701, "is_disabled": 0, "type": "electric_scooter", "lon": -77.03867483333333, "bike_id": "2f5f751a2dbf321f3e0356ab254a019b", "fusion_lat": 0.0, "name": "2f5f751a2dbf321f3e0356ab254a019b", "is_reserved": 0, "rental_uris": {"android": "https://dc.lft.to/lastmile_qr_scan", "ios": "https://dc.lft.to/lastmile_qr_scan"}, "fusion_lon": 0.0}, {"lat": 38.912024333333335, "is_disabled": 0, "type": "electric_scooter", "lon": -77.0342645, "bike_id": "2f5c949e5aa22d13b858576dae90b6ef", "fusion_lat": 0.0, "name": "2f5c949e5aa22d13b858576dae90b6ef", "is_reserved": 0, "rental_uris": {"android": "https://dc.lft.to/lastmile_qr_scan", "ios": "https://dc.lft.to/lastmile_qr_scan"}, "fusion_lon": 0.0}, {"lat": 38.95486833333333, "is_disabled": 0, "type": "electric_scooter", "lon": -77.06554683333333, "bike_id": "35637a5ca5ed370256decaaa40895f2a", "fusion_lat": 0.0, "name": "35637a5ca5ed370256decaaa40895f2a", "is_reserved": 0, "rental_uris": {"android": "https://dc.lft.to/lastmile_qr_scan", "ios": "https://dc.lft.to/lastmile_qr_scan"}, "fusion_lon": 0.0}, {"lat": 38.9067375, "is_disabled": 0, "type": "electric_scooter", "lon": -77.02705766666666, "bike_id": "9b35f820d1f3c2f9eb807b61ca9106ec", "fusion_lat": 0.0, "name": "9b35f820d1f3c2f9eb807b61ca9106ec", "is_reserved": 0, "rental_uris": {"android": "https://dc.lft.to/lastmile_qr_scan", "ios": "https://dc.lft.to/lastmile_qr_scan"}, "fusion_lon": 0.0}, {"lat": 38.9156945, "is_disabled": 0, "type": "electric_scooter", "lon": -77.03841266666667, "bike_id": "ed0c6a8ba06d686cd9d9895e50abc61e", "fusion_lat": 0.0, "name": "ed0c6a8ba06d686cd9d9895e50abc61e", "is_reserved": 0, "rental_uris": {"android": "https://dc.lft.to/lastmile_qr_scan", "ios": "https://dc.lft.to/lastmile_qr_scan"}, "fusion_lon": 0.0}, {"lat": 38.9120565, "is_disabled": 0, "type": "electric_scooter", "lon": -77.01463866666667, "bike_id": "818914cbea97f369a5b1cf5d2d30c269", "fusion_lat": 0.0, "name": "818914cbea97f369a5b1cf5d2d30c269", "is_reserved": 0, "rental_uris": {"android": "https://dc.lft.to/lastmile_qr_scan", "ios": "https://dc.lft.to/lastmile_qr_scan"}, "fusion_lon": 0.0}, {"lat": 38.966092333333336, "is_disabled": 0, "type": "electric_scooter", "lon": -77.02053266666667, "bike_id": "a978bdaee64d9b684af292d33991635e", "fusion_lat": 0.0, "name": "a978bdaee64d9b684af292d33991635e", "is_reserved": 0, "rental_uris": {"android": "https://dc.lft.to/lastmile_qr_scan", "ios": "https://dc.lft.to/lastmile_qr_scan"}, "fusion_lon": 0.0}, {"lat": 38.91714983333333, "is_disabled": 0, "type": "electric_scooter", "lon": -77.0238405, "bike_id": "e89b5d57e7bd4e0b98f941ffb15f6377", "fusion_lat": 0.0, "name": "e89b5d57e7bd4e0b98f941ffb15f6377", "is_reserved": 0, "rental_uris": {"android": "https://dc.lft.to/lastmile_qr_scan", "ios": "https://dc.lft.to/lastmile_qr_scan"}, "fusion_lon": 0.0}, {"lat": 38.8581115, "is_disabled": 0, "type": "electric_scooter", "lon": -76.98656233333334, "bike_id": "c008c0e00f011062f5435f90dfe5d029", "fusion_lat": 0.0, "name": "c008c0e00f011062f5435f90dfe5d029", "is_reserved": 0, "rental_uris": {"android": "https://dc.lft.to/lastmile_qr_scan", "ios": "https://dc.lft.to/lastmile_qr_scan"}, "fusion_lon": 0.0}, {"lat": 38.93324033333333, "is_disabled": 0, "type": "electric_scooter", "lon": -77.04524416666666, "bike_id": "194d48647bc9644b50593c75e2514eec", "fusion_lat": 0.0, "name": "194d48647bc9644b50593c75e2514eec", "is_reserved": 0, "rental_uris": {"android": "https://dc.lft.to/lastmile_qr_scan", "ios": "https://dc.lft.to/lastmile_qr_scan"}, "fusion_lon": 0.0}, {"lat": 38.97232283333334, "is_disabled": 0, "type": "electric_bike", "lon": -76.99345366666667, "bike_id": "acf92634c4187c68d1e7de3fa8f79f50", "fusion_lat": 0.0, "name": "acf92634c4187c68d1e7de3fa8f79f50", "is_reserved": 0, "rental_uris": {"android": "https://dc.lft.to/lastmile_qr_scan", "ios": "https://dc.lft.to/lastmile_qr_scan"}, "fusion_lon": 0.0}, {"lat": 38.94903133333333, "is_disabled": 0, "type": "electric_scooter", "lon": -77.03045883333333, "bike_id": "d8a5981122d5bd18022c2885dac7dcb2", "fusion_lat": 0.0, "name": "d8a5981122d5bd18022c2885dac7dcb2", "is_reserved": 0, "rental_uris": {"android": "https://dc.lft.to/lastmile_qr_scan", "ios": "https://dc.lft.to/lastmile_qr_scan"}, "fusion_lon": 0.0}, {"lat": 38.92245583333333, "is_disabled": 0, "type": "electric_scooter", "lon": -77.04579216666667, "bike_id": "bf6e7bd7650b4be11067a3db4048dfe3", "fusion_lat": 0.0, "name": "bf6e7bd7650b4be11067a3db4048dfe3", "is_reserved": 0, "rental_uris": {"android": "https://dc.lft.to/lastmile_qr_scan", "ios": "https://dc.lft.to/lastmile_qr_scan"}, "fusion_lon": 0.0}, {"lat": 38.903041333333334, "is_disabled": 0, "type": "electric_scooter", "lon": -77.03787016666666, "bike_id": "b8577eb3763e5cfef33a8c4d7a1bdfd9", "fusion_lat": 0.0, "name": "b8577eb3763e5cfef33a8c4d7a1bdfd9", "is_reserved": 0, "rental_uris": {"android": "https://dc.lft.to/lastmile_qr_scan", "ios": "https://dc.lft.to/lastmile_qr_scan"}, "fusion_lon": 0.0}, {"lat": 38.901685666666665, "is_disabled": 0, "type": "electric_scooter", "lon": -77.020146, "bike_id": "96079ec10ccec8b7bf4c14bd49657338", "fusion_lat": 0.0, "name": "96079ec10ccec8b7bf4c14bd49657338", "is_reserved": 0, "rental_uris": {"android": "https://dc.lft.to/lastmile_qr_scan", "ios": "https://dc.lft.to/lastmile_qr_scan"}, "fusion_lon": 0.0}, {"lat": 38.80049833333333, "is_disabled": 0, "type": "electric_bike", "lon": -77.0629855, "bike_id": "e226798a637d4fe04acadd665c174461", "fusion_lat": 0.0, "name": "e226798a637d4fe04acadd665c174461", "is_reserved": 0, "rental_uris": {"android": "https://dc.lft.to/lastmile_qr_scan", "ios": "https://dc.lft.to/lastmile_qr_scan"}, "fusion_lon": 0.0}, {"lat": 38.886833833333334, "is_disabled": 0, "type": "electric_scooter", "lon": -77.01332516666666, "bike_id": "413bacf48c281b071e432ea21af56296", "fusion_lat": 0.0, "name": "413bacf48c281b071e432ea21af56296", "is_reserved": 0, "rental_uris": {"android": "https://dc.lft.to/lastmile_qr_scan", "ios": "https://dc.lft.to/lastmile_qr_scan"}, "fusion_lon": 0.0}, {"lat": 38.9126145, "is_disabled": 0, "type": "electric_scooter", "lon": -77.0319975, "bike_id": "f34dcfcf94cef854278155085aded60d", "fusion_lat": 0.0, "name": "f34dcfcf94cef854278155085aded60d", "is_reserved": 0, "rental_uris": {"android": "https://dc.lft.to/lastmile_qr_scan", "ios": "https://dc.lft.to/lastmile_qr_scan"}, "fusion_lon": 0.0}, {"lat": 38.884953333333335, "is_disabled": 0, "type": "electric_scooter", "lon": -77.0070555, "bike_id": "d6a6c97b42b72039cf6441141d3aa736", "fusion_lat": 0.0, "name": "d6a6c97b42b72039cf6441141d3aa736", "is_reserved": 0, "rental_uris": {"android": "https://dc.lft.to/lastmile_qr_scan", "ios": "https://dc.lft.to/lastmile_qr_scan"}, "fusion_lon": 0.0}, {"lat": 38.86664433333333, "is_disabled": 0, "type": "electric_scooter", "lon": -76.98880066666666, "bike_id": "41bcb44aee2d76aaf9b248d35ace67fb", "fusion_lat": 0.0, "name": "41bcb44aee2d76aaf9b248d35ace67fb", "is_reserved": 0, "rental_uris": {"android": "https://dc.lft.to/lastmile_qr_scan", "ios": "https://dc.lft.to/lastmile_qr_scan"}, "fusion_lon": 0.0}, {"lat": 38.94176566666667, "is_disabled": 0, "type": "electric_bike", "lon": -76.98486533333333, "bike_id": "08a3f1718d5bb3ae8164f4a2656dfc47", "fusion_lat": 0.0, "name": "08a3f1718d5bb3ae8164f4a2656dfc47", "is_reserved": 0, "rental_uris": {"android": "https://dc.lft.to/lastmile_qr_scan", "ios": "https://dc.lft.to/lastmile_qr_scan"}, "fusion_lon": 0.0}, {"lat": 38.86703333333333, "is_disabled": 0, "type": "electric_scooter", "lon": -76.98711716666666, "bike_id": "ba980e7dc27bdb48196d8f9a976b183f", "fusion_lat": 0.0, "name": "ba980e7dc27bdb48196d8f9a976b183f", "is_reserved": 0, "rental_uris": {"android": "https://dc.lft.to/lastmile_qr_scan", "ios": "https://dc.lft.to/lastmile_qr_scan"}, "fusion_lon": 0.0}, {"lat": 38.909633666666664, "is_disabled": 0, "type": "electric_scooter", "lon": -77.03322033333333, "bike_id": "e1a88e4edbd519fdba99047185f04c09", "fusion_lat": 0.0, "name": "e1a88e4edbd519fdba99047185f04c09", "is_reserved": 0, "rental_uris": {"android": "https://dc.lft.to/lastmile_qr_scan", "ios": "https://dc.lft.to/lastmile_qr_scan"}, "fusion_lon": 0.0}, {"lat": 38.89467483333333, "is_disabled": 0, "type": "electric_bike", "lon": -77.026888, "bike_id": "3a794cd829f5ace0f2e59130ef56fe74", "fusion_lat": 0.0, "name": "3a794cd829f5ace0f2e59130ef56fe74", "is_reserved": 0, "rental_uris": {"android": "https://dc.lft.to/lastmile_qr_scan", "ios": "https://dc.lft.to/lastmile_qr_scan"}, "fusion_lon": 0.0}, {"lat": 38.902621, "is_disabled": 0, "type": "electric_scooter", "lon": -77.002077, "bike_id": "d333f6a38aba84123bbb8ccdc32b78e4", "fusion_lat": 0.0, "name": "d333f6a38aba84123bbb8ccdc32b78e4", "is_reserved": 0, "rental_uris": {"android": "https://dc.lft.to/lastmile_qr_scan", "ios": "https://dc.lft.to/lastmile_qr_scan"}, "fusion_lon": 0.0}, {"lat": 38.932508, "is_disabled": 0, "type": "electric_scooter", "lon": -77.06656716666667, "bike_id": "c9dee4c5038c2fb6cf26f46590c6a61a", "fusion_lat": 0.0, "name": "c9dee4c5038c2fb6cf26f46590c6a61a", "is_reserved": 0, "rental_uris": {"android": "https://dc.lft.to/lastmile_qr_scan", "ios": "https://dc.lft.to/lastmile_qr_scan"}, "fusion_lon": 0.0}, {"lat": 38.87993766666666, "is_disabled": 0, "type": "electric_scooter", "lon": -76.98678316666667, "bike_id": "cc28006861e7a52303e08f899c36c678", "fusion_lat": 0.0, "name": "cc28006861e7a52303e08f899c36c678", "is_reserved": 0, "rental_uris": {"android": "https://dc.lft.to/lastmile_qr_scan", "ios": "https://dc.lft.to/lastmile_qr_scan"}, "fusion_lon": 0.0}, {"lat": 38.91611116666667, "is_disabled": 0, "type": "electric_scooter", "lon": -77.02282316666667, "bike_id": "4ecdecb8f227b78bceec1092cc75d4d1", "fusion_lat": 0.0, "name": "4ecdecb8f227b78bceec1092cc75d4d1", "is_reserved": 0, "rental_uris": {"android": "https://dc.lft.to/lastmile_qr_scan", "ios": "https://dc.lft.to/lastmile_qr_scan"}, "fusion_lon": 0.0}, {"lat": 38.936197666666665, "is_disabled": 0, "type": "electric_scooter", "lon": -77.0575345, "bike_id": "e0c789d680fdb42a88ab5c2e79467fff", "fusion_lat": 0.0, "name": "e0c789d680fdb42a88ab5c2e79467fff", "is_reserved": 0, "rental_uris": {"android": "https://dc.lft.to/lastmile_qr_scan", "ios": "https://dc.lft.to/lastmile_qr_scan"}, "fusion_lon": 0.0}, {"lat": 38.9149955, "is_disabled": 0, "type": "electric_scooter", "lon": -77.0678505, "bike_id": "f3c038c3761acdd7c40d59d3883cfe10", "fusion_lat": 0.0, "name": "f3c038c3761acdd7c40d59d3883cfe10", "is_reserved": 0, "rental_uris": {"android": "https://dc.lft.to/lastmile_qr_scan", "ios": "https://dc.lft.to/lastmile_qr_scan"}, "fusion_lon": 0.0}, {"lat": 38.8714495, "is_disabled": 0, "type": "electric_bike", "lon": -76.93701083333333, "bike_id": "7d2587f6469dbc0a2f790267f03cc6aa", "fusion_lat": 0.0, "name": "7d2587f6469dbc0a2f790267f03cc6aa", "is_reserved": 0, "rental_uris": {"android": "https://dc.lft.to/lastmile_qr_scan", "ios": "https://dc.lft.to/lastmile_qr_scan"}, "fusion_lon": 0.0}, {"lat": 38.8572025, "is_disabled": 0, "type": "electric_bike", "lon": -76.97119716666667, "bike_id": "b0bda732d35641cf349b409251742a38", "fusion_lat": 0.0, "name": "b0bda732d35641cf349b409251742a38", "is_reserved": 0, "rental_uris": {"android": "https://dc.lft.to/lastmile_qr_scan", "ios": "https://dc.lft.to/lastmile_qr_scan"}, "fusion_lon": 0.0}, {"lat": 38.90555883333333, "is_disabled": 0, "type": "electric_scooter", "lon": -77.04661016666667, "bike_id": "bbf32a7b9cdfcae235a66f4f9f23193c", "fusion_lat": 0.0, "name": "bbf32a7b9cdfcae235a66f4f9f23193c", "is_reserved": 0, "rental_uris": {"android": "https://dc.lft.to/lastmile_qr_scan", "ios": "https://dc.lft.to/lastmile_qr_scan"}, "fusion_lon": 0.0}, {"lat": 38.92382833333333, "is_disabled": 0, "type": "electric_scooter", "lon": -77.03166083333333, "bike_id": "fc7bd77b28cc0c291db2a26fbd5e1975", "fusion_lat": 0.0, "name": "fc7bd77b28cc0c291db2a26fbd5e1975", "is_reserved": 0, "rental_uris": {"android": "https://dc.lft.to/lastmile_qr_scan", "ios": "https://dc.lft.to/lastmile_qr_scan"}, "fusion_lon": 0.0}, {"lat": 38.96139566666667, "is_disabled": 0, "type": "electric_scooter", "lon": -77.022352, "bike_id": "1f7bdb6ccde7e9665bd2955c5591f9ac", "fusion_lat": 0.0, "name": "1f7bdb6ccde7e9665bd2955c5591f9ac", "is_reserved": 0, "rental_uris": {"android": "https://dc.lft.to/lastmile_qr_scan", "ios": "https://dc.lft.to/lastmile_qr_scan"}, "fusion_lon": 0.0}, {"lat": 38.929802333333335, "is_disabled": 0, "type": "electric_scooter", "lon": -77.0130015, "bike_id": "2e64bf883709a43d4302eed09074a66e", "fusion_lat": 0.0, "name": "2e64bf883709a43d4302eed09074a66e", "is_reserved": 0, "rental_uris": {"android": "https://dc.lft.to/lastmile_qr_scan", "ios": "https://dc.lft.to/lastmile_qr_scan"}, "fusion_lon": 0.0}, {"lat": 38.90669716666667, "is_disabled": 0, "type": "electric_scooter", "lon": -77.038656, "bike_id": "dcb910ddc33f2c1540911a1e6065ede4", "fusion_lat": 0.0, "name": "dcb910ddc33f2c1540911a1e6065ede4", "is_reserved": 0, "rental_uris": {"android": "https://dc.lft.to/lastmile_qr_scan", "ios": "https://dc.lft.to/lastmile_qr_scan"}, "fusion_lon": 0.0}, {"lat": 38.929201666666664, "is_disabled": 0, "type": "electric_scooter", "lon": -77.0328685, "bike_id": "3a39d653eae0e956f8bbd61fd70ab5a3", "fusion_lat": 0.0, "name": "3a39d653eae0e956f8bbd61fd70ab5a3", "is_reserved": 0, "rental_uris": {"android": "https://dc.lft.to/lastmile_qr_scan", "ios": "https://dc.lft.to/lastmile_qr_scan"}, "fusion_lon": 0.0}, {"lat": 38.917086, "is_disabled": 0, "type": "electric_scooter", "lon": -77.03584933333333, "bike_id": "03c65230f2d2fe1e186e6a4beb600fa6", "fusion_lat": 0.0, "name": "03c65230f2d2fe1e186e6a4beb600fa6", "is_reserved": 0, "rental_uris": {"android": "https://dc.lft.to/lastmile_qr_scan", "ios": "https://dc.lft.to/lastmile_qr_scan"}, "fusion_lon": 0.0}, {"lat": 38.86215116666666, "is_disabled": 0, "type": "electric_bike", "lon": -76.99780333333334, "bike_id": "d69ae80c12ed5440dcc23274ecea74c6", "fusion_lat": 0.0, "name": "d69ae80c12ed5440dcc23274ecea74c6", "is_reserved": 0, "rental_uris": {"android": "https://dc.lft.to/lastmile_qr_scan", "ios": "https://dc.lft.to/lastmile_qr_scan"}, "fusion_lon": 0.0}, {"lat": 38.93447116666667, "is_disabled": 0, "type": "electric_scooter", "lon": -77.03452916666667, "bike_id": "41819911623793a18aae7deb13cdd504", "fusion_lat": 0.0, "name": "41819911623793a18aae7deb13cdd504", "is_reserved": 0, "rental_uris": {"android": "https://dc.lft.to/lastmile_qr_scan", "ios": "https://dc.lft.to/lastmile_qr_scan"}, "fusion_lon": 0.0}, {"lat": 38.87065033333333, "is_disabled": 0, "type": "electric_scooter", "lon": -77.00840916666667, "bike_id": "a41f498cd9ffee36c876e94a1f4e137c", "fusion_lat": 0.0, "name": "a41f498cd9ffee36c876e94a1f4e137c", "is_reserved": 0, "rental_uris": {"android": "https://dc.lft.to/lastmile_qr_scan", "ios": "https://dc.lft.to/lastmile_qr_scan"}, "fusion_lon": 0.0}, {"lat": 38.866784833333334, "is_disabled": 0, "type": "electric_scooter", "lon": -76.98542916666666, "bike_id": "e3d62a9afc231ab59026cd98df5e67e9", "fusion_lat": 0.0, "name": "e3d62a9afc231ab59026cd98df5e67e9", "is_reserved": 0, "rental_uris": {"android": "https://dc.lft.to/lastmile_qr_scan", "ios": "https://dc.lft.to/lastmile_qr_scan"}, "fusion_lon": 0.0}, {"lat": 38.899198166666665, "is_disabled": 0, "type": "electric_scooter", "lon": -76.93382083333333, "bike_id": "025d8c6b051952f06dabde204229accc", "fusion_lat": 0.0, "name": "025d8c6b051952f06dabde204229accc", "is_reserved": 0, "rental_uris": {"android": "https://dc.lft.to/lastmile_qr_scan", "ios": "https://dc.lft.to/lastmile_qr_scan"}, "fusion_lon": 0.0}, {"lat": 38.86348783333333, "is_disabled": 0, "type": "electric_scooter", "lon": -76.99003266666666, "bike_id": "02b51b334cf1cf48920c9a43d61eeeac", "fusion_lat": 0.0, "name": "02b51b334cf1cf48920c9a43d61eeeac", "is_reserved": 0, "rental_uris": {"android": "https://dc.lft.to/lastmile_qr_scan", "ios": "https://dc.lft.to/lastmile_qr_scan"}, "fusion_lon": 0.0}, {"lat": 38.84862316666667, "is_disabled": 0, "type": "electric_scooter", "lon": -76.9770235, "bike_id": "daa00cc075a4551030eeae36f65aacd2", "fusion_lat": 0.0, "name": "daa00cc075a4551030eeae36f65aacd2", "is_reserved": 0, "rental_uris": {"android": "https://dc.lft.to/lastmile_qr_scan", "ios": "https://dc.lft.to/lastmile_qr_scan"}, "fusion_lon": 0.0}, {"lat": 38.91260833333333, "is_disabled": 0, "type": "electric_scooter", "lon": -77.04767183333334, "bike_id": "ed73f47aeee8d08aa31b8633c81b0174", "fusion_lat": 0.0, "name": "ed73f47aeee8d08aa31b8633c81b0174", "is_reserved": 0, "rental_uris": {"android": "https://dc.lft.to/lastmile_qr_scan", "ios": "https://dc.lft.to/lastmile_qr_scan"}, "fusion_lon": 0.0}, {"lat": 38.91559066666667, "is_disabled": 0, "type": "electric_scooter", "lon": -77.02426316666667, "bike_id": "294a3b55375bb375e1501d62593e2ed3", "fusion_lat": 0.0, "name": "294a3b55375bb375e1501d62593e2ed3", "is_reserved": 0, "rental_uris": {"android": "https://dc.lft.to/lastmile_qr_scan", "ios": "https://dc.lft.to/lastmile_qr_scan"}, "fusion_lon": 0.0}, {"lat": 38.95558366666667, "is_disabled": 0, "type": "electric_bike", "lon": -76.9354565, "bike_id": "23129753ef7c2f0d3f5c22fce4ece31e", "fusion_lat": 0.0, "name": "23129753ef7c2f0d3f5c22fce4ece31e", "is_reserved": 0, "rental_uris": {"android": "https://dc.lft.to/lastmile_qr_scan", "ios": "https://dc.lft.to/lastmile_qr_scan"}, "fusion_lon": 0.0}, {"lat": 38.898820666666666, "is_disabled": 0, "type": "electric_scooter", "lon": -77.05338366666666, "bike_id": "ef775f879704ef24b8039b3faacce547", "fusion_lat": 0.0, "name": "ef775f879704ef24b8039b3faacce547", "is_reserved": 0, "rental_uris": {"android": "https://dc.lft.to/lastmile_qr_scan", "ios": "https://dc.lft.to/lastmile_qr_scan"}, "fusion_lon": 0.0}, {"lat": 38.914279, "is_disabled": 0, "type": "electric_scooter", "lon": -77.00507716666667, "bike_id": "9b50f36c066afbcf2ffdd17715e81d8d", "fusion_lat": 0.0, "name": "9b50f36c066afbcf2ffdd17715e81d8d", "is_reserved": 0, "rental_uris": {"android": "https://dc.lft.to/lastmile_qr_scan", "ios": "https://dc.lft.to/lastmile_qr_scan"}, "fusion_lon": 0.0}, {"lat": 38.90217483333333, "is_disabled": 0, "type": "electric_scooter", "lon": -76.9459655, "bike_id": "2c728b32120501f19ae32fac9869fa35", "fusion_lat": 0.0, "name": "2c728b32120501f19ae32fac9869fa35", "is_reserved": 0, "rental_uris": {"android": "https://dc.lft.to/lastmile_qr_scan", "ios": "https://dc.lft.to/lastmile_qr_scan"}, "fusion_lon": 0.0}, {"lat": 38.93014083333333, "is_disabled": 0, "type": "electric_bike", "lon": -77.21653516666667, "bike_id": "e84b08bccaaaa952414030ba084417db", "fusion_lat": 0.0, "name": "e84b08bccaaaa952414030ba084417db", "is_reserved": 0, "rental_uris": {"android": "https://dc.lft.to/lastmile_qr_scan", "ios": "https://dc.lft.to/lastmile_qr_scan"}, "fusion_lon": 0.0}, {"lat": 38.91969116666667, "is_disabled": 0, "type": "electric_bike", "lon": -76.97266666666667, "bike_id": "0b4e49bd17fd698afcc408d4416bea41", "fusion_lat": 0.0, "name": "0b4e49bd17fd698afcc408d4416bea41", "is_reserved": 0, "rental_uris": {"android": "https://dc.lft.to/lastmile_qr_scan", "ios": "https://dc.lft.to/lastmile_qr_scan"}, "fusion_lon": 0.0}, {"lat": 38.92855816666667, "is_disabled": 0, "type": "electric_scooter", "lon": -77.0543985, "bike_id": "b7a5233162ce543d5e242a11c6ea6ffb", "fusion_lat": 0.0, "name": "b7a5233162ce543d5e242a11c6ea6ffb", "is_reserved": 0, "rental_uris": {"android": "https://dc.lft.to/lastmile_qr_scan", "ios": "https://dc.lft.to/lastmile_qr_scan"}, "fusion_lon": 0.0}, {"lat": 38.9318245, "is_disabled": 0, "type": "electric_scooter", "lon": -77.03843283333333, "bike_id": "e5f8781596f359e13c35fdc88b99da18", "fusion_lat": 0.0, "name": "e5f8781596f359e13c35fdc88b99da18", "is_reserved": 0, "rental_uris": {"android": "https://dc.lft.to/lastmile_qr_scan", "ios": "https://dc.lft.to/lastmile_qr_scan"}, "fusion_lon": 0.0}, {"lat": 38.909804, "is_disabled": 0, "type": "electric_scooter", "lon": -77.03440583333334, "bike_id": "bc56c9ce58f631060f716920c84c3cb9", "fusion_lat": 0.0, "name": "bc56c9ce58f631060f716920c84c3cb9", "is_reserved": 0, "rental_uris": {"android": "https://dc.lft.to/lastmile_qr_scan", "ios": "https://dc.lft.to/lastmile_qr_scan"}, "fusion_lon": 0.0}, {"lat": 38.90147133333333, "is_disabled": 0, "type": "electric_bike", "lon": -76.98651066666666, "bike_id": "b462dc1d19721a69b1c7756a6084a56b", "fusion_lat": 0.0, "name": "b462dc1d19721a69b1c7756a6084a56b", "is_reserved": 0, "rental_uris": {"android": "https://dc.lft.to/lastmile_qr_scan", "ios": "https://dc.lft.to/lastmile_qr_scan"}, "fusion_lon": 0.0}, {"lat": 38.9194675, "is_disabled": 0, "type": "electric_scooter", "lon": -77.03202, "bike_id": "7863b2809059cb128234afabc7ae33c3", "fusion_lat": 0.0, "name": "7863b2809059cb128234afabc7ae33c3", "is_reserved": 0, "rental_uris": {"android": "https://dc.lft.to/lastmile_qr_scan", "ios": "https://dc.lft.to/lastmile_qr_scan"}, "fusion_lon": 0.0}, {"lat": 38.89779216666667, "is_disabled": 0, "type": "electric_scooter", "lon": -77.04368, "bike_id": "917917129db52f120a81f83613c4b00c", "fusion_lat": 0.0, "name": "917917129db52f120a81f83613c4b00c", "is_reserved": 0, "rental_uris": {"android": "https://dc.lft.to/lastmile_qr_scan", "ios": "https://dc.lft.to/lastmile_qr_scan"}, "fusion_lon": 0.0}, {"lat": 38.90632866666667, "is_disabled": 0, "type": "electric_scooter", "lon": -77.02692216666667, "bike_id": "a5a908badfa3be31063495fca32c9522", "fusion_lat": 0.0, "name": "a5a908badfa3be31063495fca32c9522", "is_reserved": 0, "rental_uris": {"android": "https://dc.lft.to/lastmile_qr_scan", "ios": "https://dc.lft.to/lastmile_qr_scan"}, "fusion_lon": 0.0}, {"lat": 38.93150116666666, "is_disabled": 0, "type": "electric_scooter", "lon": -77.04139266666667, "bike_id": "751172b2bbeb9bb406b14494a0ed03bf", "fusion_lat": 0.0, "name": "751172b2bbeb9bb406b14494a0ed03bf", "is_reserved": 0, "rental_uris": {"android": "https://dc.lft.to/lastmile_qr_scan", "ios": "https://dc.lft.to/lastmile_qr_scan"}, "fusion_lon": 0.0}, {"lat": 38.866527, "is_disabled": 0, "type": "electric_scooter", "lon": -76.988845, "bike_id": "4853e6aa5cb9a37389dc315a01767348", "fusion_lat": 0.0, "name": "4853e6aa5cb9a37389dc315a01767348", "is_reserved": 0, "rental_uris": {"android": "https://dc.lft.to/lastmile_qr_scan", "ios": "https://dc.lft.to/lastmile_qr_scan"}, "fusion_lon": 0.0}, {"lat": 38.91358916666667, "is_disabled": 0, "type": "electric_scooter", "lon": -77.06926066666666, "bike_id": "44d386fc9aef50f72ed7fd8683ce3578", "fusion_lat": 0.0, "name": "44d386fc9aef50f72ed7fd8683ce3578", "is_reserved": 0, "rental_uris": {"android": "https://dc.lft.to/lastmile_qr_scan", "ios": "https://dc.lft.to/lastmile_qr_scan"}, "fusion_lon": 0.0}, {"lat": 38.9142565, "is_disabled": 0, "type": "electric_scooter", "lon": -77.029254, "bike_id": "2a4e4eefc5ee183fdddfa8edea6ea6c0", "fusion_lat": 0.0, "name": "2a4e4eefc5ee183fdddfa8edea6ea6c0", "is_reserved": 0, "rental_uris": {"android": "https://dc.lft.to/lastmile_qr_scan", "ios": "https://dc.lft.to/lastmile_qr_scan"}, "fusion_lon": 0.0}, {"lat": 38.921685, "is_disabled": 0, "type": "electric_scooter", "lon": -77.03342083333334, "bike_id": "dc3b79b79c7b82dfd324b797795f4d83", "fusion_lat": 0.0, "name": "dc3b79b79c7b82dfd324b797795f4d83", "is_reserved": 0, "rental_uris": {"android": "https://dc.lft.to/lastmile_qr_scan", "ios": "https://dc.lft.to/lastmile_qr_scan"}, "fusion_lon": 0.0}, {"lat": 38.923236, "is_disabled": 0, "type": "electric_scooter", "lon": -77.03951783333333, "bike_id": "d03cf3f70ee311f0cb4f1f3b15613c82", "fusion_lat": 0.0, "name": "d03cf3f70ee311f0cb4f1f3b15613c82", "is_reserved": 0, "rental_uris": {"android": "https://dc.lft.to/lastmile_qr_scan", "ios": "https://dc.lft.to/lastmile_qr_scan"}, "fusion_lon": 0.0}, {"lat": 38.9036155, "is_disabled": 0, "type": "electric_scooter", "lon": -77.040016, "bike_id": "9771637634af45cce1e4bbe515069314", "fusion_lat": 0.0, "name": "9771637634af45cce1e4bbe515069314", "is_reserved": 0, "rental_uris": {"android": "https://dc.lft.to/lastmile_qr_scan", "ios": "https://dc.lft.to/lastmile_qr_scan"}, "fusion_lon": 0.0}, {"lat": 38.90978416666667, "is_disabled": 0, "type": "electric_bike", "lon": -76.98517, "bike_id": "dcefb6b83d07e5af242a14f02ae04079", "fusion_lat": 0.0, "name": "dcefb6b83d07e5af242a14f02ae04079", "is_reserved": 0, "rental_uris": {"android": "https://dc.lft.to/lastmile_qr_scan", "ios": "https://dc.lft.to/lastmile_qr_scan"}, "fusion_lon": 0.0}, {"lat": 38.925716666666666, "is_disabled": 0, "type": "electric_scooter", "lon": -77.035401, "bike_id": "5434af3ca8ddb80d9ccc95d9c80d21cb", "fusion_lat": 0.0, "name": "5434af3ca8ddb80d9ccc95d9c80d21cb", "is_reserved": 0, "rental_uris": {"android": "https://dc.lft.to/lastmile_qr_scan", "ios": "https://dc.lft.to/lastmile_qr_scan"}, "fusion_lon": 0.0}, {"lat": 38.91171466666667, "is_disabled": 0, "type": "electric_scooter", "lon": -77.02968966666667, "bike_id": "193597c1fb5ef5da6b9316aedbfff1ed", "fusion_lat": 0.0, "name": "193597c1fb5ef5da6b9316aedbfff1ed", "is_reserved": 0, "rental_uris": {"android": "https://dc.lft.to/lastmile_qr_scan", "ios": "https://dc.lft.to/lastmile_qr_scan"}, "fusion_lon": 0.0}, {"lat": 38.902851, "is_disabled": 0, "type": "electric_scooter", "lon": -77.03392233333334, "bike_id": "b3d3689dc81e1f2016f4bdce160b375d", "fusion_lat": 0.0, "name": "b3d3689dc81e1f2016f4bdce160b375d", "is_reserved": 0, "rental_uris": {"android": "https://dc.lft.to/lastmile_qr_scan", "ios": "https://dc.lft.to/lastmile_qr_scan"}, "fusion_lon": 0.0}, {"lat": 38.972826833333336, "is_disabled": 0, "type": "electric_bike", "lon": -77.0362555, "bike_id": "30acaac793a192978ee109068a17bcfb", "fusion_lat": 0.0, "name": "30acaac793a192978ee109068a17bcfb", "is_reserved": 0, "rental_uris": {"android": "https://dc.lft.to/lastmile_qr_scan", "ios": "https://dc.lft.to/lastmile_qr_scan"}, "fusion_lon": 0.0}, {"lat": 38.91424166666667, "is_disabled": 0, "type": "electric_scooter", "lon": -77.02202366666667, "bike_id": "eb7f037f30f0b89aa15a219c28743bd0", "fusion_lat": 0.0, "name": "eb7f037f30f0b89aa15a219c28743bd0", "is_reserved": 0, "rental_uris": {"android": "https://dc.lft.to/lastmile_qr_scan", "ios": "https://dc.lft.to/lastmile_qr_scan"}, "fusion_lon": 0.0}, {"lat": 38.923359166666664, "is_disabled": 0, "type": "electric_scooter", "lon": -77.04190616666666, "bike_id": "58477726049c214058cefec32c79feca", "fusion_lat": 0.0, "name": "58477726049c214058cefec32c79feca", "is_reserved": 0, "rental_uris": {"android": "https://dc.lft.to/lastmile_qr_scan", "ios": "https://dc.lft.to/lastmile_qr_scan"}, "fusion_lon": 0.0}, {"lat": 38.899769, "is_disabled": 0, "type": "electric_scooter", "lon": -77.02117716666666, "bike_id": "59b276700216d4415a2da5ba5e3e3a12", "fusion_lat": 0.0, "name": "59b276700216d4415a2da5ba5e3e3a12", "is_reserved": 0, "rental_uris": {"android": "https://dc.lft.to/lastmile_qr_scan", "ios": "https://dc.lft.to/lastmile_qr_scan"}, "fusion_lon": 0.0}, {"lat": 38.8709765, "is_disabled": 0, "type": "electric_bike", "lon": -77.13330433333333, "bike_id": "158c2665ad6b2ebc78467e64e87b047e", "fusion_lat": 0.0, "name": "158c2665ad6b2ebc78467e64e87b047e", "is_reserved": 0, "rental_uris": {"android": "https://dc.lft.to/lastmile_qr_scan", "ios": "https://dc.lft.to/lastmile_qr_scan"}, "fusion_lon": 0.0}, {"lat": 38.893479666666664, "is_disabled": 0, "type": "electric_scooter", "lon": -76.94936466666667, "bike_id": "10e57cc3ff0b8cf5f0bb691d7ed2ea86", "fusion_lat": 0.0, "name": "10e57cc3ff0b8cf5f0bb691d7ed2ea86", "is_reserved": 0, "rental_uris": {"android": "https://dc.lft.to/lastmile_qr_scan", "ios": "https://dc.lft.to/lastmile_qr_scan"}, "fusion_lon": 0.0}, {"lat": 38.91819916666667, "is_disabled": 0, "type": "electric_scooter", "lon": -77.03914066666667, "bike_id": "fa105157ded6b3358c01872e546430fa", "fusion_lat": 0.0, "name": "fa105157ded6b3358c01872e546430fa", "is_reserved": 0, "rental_uris": {"android": "https://dc.lft.to/lastmile_qr_scan", "ios": "https://dc.lft.to/lastmile_qr_scan"}, "fusion_lon": 0.0}, {"lat": 38.907712333333336, "is_disabled": 0, "type": "electric_scooter", "lon": -76.9830965, "bike_id": "2757c47671f4d1cf1ed22a6ce9626b4f", "fusion_lat": 0.0, "name": "2757c47671f4d1cf1ed22a6ce9626b4f", "is_reserved": 0, "rental_uris": {"android": "https://dc.lft.to/lastmile_qr_scan", "ios": "https://dc.lft.to/lastmile_qr_scan"}, "fusion_lon": 0.0}, {"lat": 38.894912833333336, "is_disabled": 0, "type": "electric_scooter", "lon": -77.021214, "bike_id": "4dbf41a159f7726017b382af4046898a", "fusion_lat": 0.0, "name": "4dbf41a159f7726017b382af4046898a", "is_reserved": 0, "rental_uris": {"android": "https://dc.lft.to/lastmile_qr_scan", "ios": "https://dc.lft.to/lastmile_qr_scan"}, "fusion_lon": 0.0}, {"lat": 38.8853965, "is_disabled": 0, "type": "electric_scooter", "lon": -76.98264566666667, "bike_id": "9b4a0e9159ca9eae1ca4a3040a1ccc22", "fusion_lat": 0.0, "name": "9b4a0e9159ca9eae1ca4a3040a1ccc22", "is_reserved": 0, "rental_uris": {"android": "https://dc.lft.to/lastmile_qr_scan", "ios": "https://dc.lft.to/lastmile_qr_scan"}, "fusion_lon": 0.0}, {"lat": 38.93386, "is_disabled": 0, "type": "electric_scooter", "lon": -76.9951495, "bike_id": "03698373a833bc192471a87fa1e890bd", "fusion_lat": 0.0, "name": "03698373a833bc192471a87fa1e890bd", "is_reserved": 0, "rental_uris": {"android": "https://dc.lft.to/lastmile_qr_scan", "ios": "https://dc.lft.to/lastmile_qr_scan"}, "fusion_lon": 0.0}, {"lat": 38.899711833333335, "is_disabled": 0, "type": "electric_scooter", "lon": -77.02701316666666, "bike_id": "6be7e905f6f71e29f39d850ba8fab628", "fusion_lat": 0.0, "name": "6be7e905f6f71e29f39d850ba8fab628", "is_reserved": 0, "rental_uris": {"android": "https://dc.lft.to/lastmile_qr_scan", "ios": "https://dc.lft.to/lastmile_qr_scan"}, "fusion_lon": 0.0}, {"lat": 38.80231333333333, "is_disabled": 0, "type": "electric_bike", "lon": -77.079162, "bike_id": "8ae01c29eb5f256e98c583c2c00a5f29", "fusion_lat": 0.0, "name": "8ae01c29eb5f256e98c583c2c00a5f29", "is_reserved": 0, "rental_uris": {"android": "https://dc.lft.to/lastmile_qr_scan", "ios": "https://dc.lft.to/lastmile_qr_scan"}, "fusion_lon": 0.0}, {"lat": 38.9243935, "is_disabled": 0, "type": "electric_scooter", "lon": -77.052113, "bike_id": "f5579289d7a9a80d44a31ed052452f33", "fusion_lat": 0.0, "name": "f5579289d7a9a80d44a31ed052452f33", "is_reserved": 0, "rental_uris": {"android": "https://dc.lft.to/lastmile_qr_scan", "ios": "https://dc.lft.to/lastmile_qr_scan"}, "fusion_lon": 0.0}, {"lat": 38.92798766666667, "is_disabled": 0, "type": "electric_scooter", "lon": -77.025998, "bike_id": "ffaf06bb57e24b0965c04996c9cc08b7", "fusion_lat": 0.0, "name": "ffaf06bb57e24b0965c04996c9cc08b7", "is_reserved": 0, "rental_uris": {"android": "https://dc.lft.to/lastmile_qr_scan", "ios": "https://dc.lft.to/lastmile_qr_scan"}, "fusion_lon": 0.0}, {"lat": 38.9111115, "is_disabled": 0, "type": "electric_scooter", "lon": -77.0423365, "bike_id": "19cdf1fa5b2600a4b59a501ec6323457", "fusion_lat": 0.0, "name": "19cdf1fa5b2600a4b59a501ec6323457", "is_reserved": 0, "rental_uris": {"android": "https://dc.lft.to/lastmile_qr_scan", "ios": "https://dc.lft.to/lastmile_qr_scan"}, "fusion_lon": 0.0}, {"lat": 38.863686333333334, "is_disabled": 0, "type": "electric_scooter", "lon": -76.99033916666667, "bike_id": "bf7d9718d58a2727432ce4d4e77e8914", "fusion_lat": 0.0, "name": "bf7d9718d58a2727432ce4d4e77e8914", "is_reserved": 0, "rental_uris": {"android": "https://dc.lft.to/lastmile_qr_scan", "ios": "https://dc.lft.to/lastmile_qr_scan"}, "fusion_lon": 0.0}, {"lat": 38.92110383333333, "is_disabled": 0, "type": "electric_scooter", "lon": -77.0469935, "bike_id": "71b75008c15e8317585992069d2910d7", "fusion_lat": 0.0, "name": "71b75008c15e8317585992069d2910d7", "is_reserved": 0, "rental_uris": {"android": "https://dc.lft.to/lastmile_qr_scan", "ios": "https://dc.lft.to/lastmile_qr_scan"}, "fusion_lon": 0.0}, {"lat": 38.959555, "is_disabled": 0, "type": "electric_scooter", "lon": -77.03310933333333, "bike_id": "e9cbf57b4cdd7d31fac2a0a72c1e470e", "fusion_lat": 0.0, "name": "e9cbf57b4cdd7d31fac2a0a72c1e470e", "is_reserved": 0, "rental_uris": {"android": "https://dc.lft.to/lastmile_qr_scan", "ios": "https://dc.lft.to/lastmile_qr_scan"}, "fusion_lon": 0.0}, {"lat": 38.95955566666667, "is_disabled": 0, "type": "electric_bike", "lon": -77.10091116666666, "bike_id": "bc05c59f3752f8460c681230e9113d55", "fusion_lat": 0.0, "name": "bc05c59f3752f8460c681230e9113d55", "is_reserved": 0, "rental_uris": {"android": "https://dc.lft.to/lastmile_qr_scan", "ios": "https://dc.lft.to/lastmile_qr_scan"}, "fusion_lon": 0.0}, {"lat": 38.96147416666667, "is_disabled": 0, "type": "electric_scooter", "lon": -77.02785383333334, "bike_id": "1075284d1561642ea865f8c87fac5126", "fusion_lat": 0.0, "name": "1075284d1561642ea865f8c87fac5126", "is_reserved": 0, "rental_uris": {"android": "https://dc.lft.to/lastmile_qr_scan", "ios": "https://dc.lft.to/lastmile_qr_scan"}, "fusion_lon": 0.0}, {"lat": 38.89224433333333, "is_disabled": 0, "type": "electric_scooter", "lon": -77.04875483333333, "bike_id": "3c47feb65979fd49994b6aba374fbb83", "fusion_lat": 0.0, "name": "3c47feb65979fd49994b6aba374fbb83", "is_reserved": 0, "rental_uris": {"android": "https://dc.lft.to/lastmile_qr_scan", "ios": "https://dc.lft.to/lastmile_qr_scan"}, "fusion_lon": 0.0}, {"lat": 38.913331666666664, "is_disabled": 0, "type": "electric_scooter", "lon": -77.0326965, "bike_id": "fe4676d2a18ff0faa6857f645dcf548c", "fusion_lat": 0.0, "name": "fe4676d2a18ff0faa6857f645dcf548c", "is_reserved": 0, "rental_uris": {"android": "https://dc.lft.to/lastmile_qr_scan", "ios": "https://dc.lft.to/lastmile_qr_scan"}, "fusion_lon": 0.0}, {"lat": 38.909022666666665, "is_disabled": 0, "type": "electric_scooter", "lon": -77.04424066666667, "bike_id": "99f99b361b8e0f071d7153f5e16e3e3c", "fusion_lat": 0.0, "name": "99f99b361b8e0f071d7153f5e16e3e3c", "is_reserved": 0, "rental_uris": {"android": "https://dc.lft.to/lastmile_qr_scan", "ios": "https://dc.lft.to/lastmile_qr_scan"}, "fusion_lon": 0.0}, {"lat": 38.92066616666666, "is_disabled": 0, "type": "electric_scooter", "lon": -77.04340683333334, "bike_id": "d1001a74c052e2492efe28f3a19c7f8a", "fusion_lat": 0.0, "name": "d1001a74c052e2492efe28f3a19c7f8a", "is_reserved": 0, "rental_uris": {"android": "https://dc.lft.to/lastmile_qr_scan", "ios": "https://dc.lft.to/lastmile_qr_scan"}, "fusion_lon": 0.0}, {"lat": 38.8933155, "is_disabled": 0, "type": "electric_scooter", "lon": -77.0316915, "bike_id": "cc819b3005f36d4555b5d98e05b6dbdb", "fusion_lat": 0.0, "name": "cc819b3005f36d4555b5d98e05b6dbdb", "is_reserved": 0, "rental_uris": {"android": "https://dc.lft.to/lastmile_qr_scan", "ios": "https://dc.lft.to/lastmile_qr_scan"}, "fusion_lon": 0.0}, {"lat": 38.916714, "is_disabled": 0, "type": "electric_scooter", "lon": -77.033506, "bike_id": "0a630712cb7715036685d41932b7e93e", "fusion_lat": 0.0, "name": "0a630712cb7715036685d41932b7e93e", "is_reserved": 0, "rental_uris": {"android": "https://dc.lft.to/lastmile_qr_scan", "ios": "https://dc.lft.to/lastmile_qr_scan"}, "fusion_lon": 0.0}, {"lat": 38.919237, "is_disabled": 0, "type": "electric_scooter", "lon": -77.04809816666666, "bike_id": "265c589807fe5e918d0edfc341bd16d9", "fusion_lat": 0.0, "name": "265c589807fe5e918d0edfc341bd16d9", "is_reserved": 0, "rental_uris": {"android": "https://dc.lft.to/lastmile_qr_scan", "ios": "https://dc.lft.to/lastmile_qr_scan"}, "fusion_lon": 0.0}, {"lat": 38.896823499999996, "is_disabled": 0, "type": "electric_scooter", "lon": -76.93538916666667, "bike_id": "21a68636727e1de41a1e1ba944af9ad2", "fusion_lat": 0.0, "name": "21a68636727e1de41a1e1ba944af9ad2", "is_reserved": 0, "rental_uris": {"android": "https://dc.lft.to/lastmile_qr_scan", "ios": "https://dc.lft.to/lastmile_qr_scan"}, "fusion_lon": 0.0}, {"lat": 38.919565166666665, "is_disabled": 0, "type": "electric_scooter", "lon": -77.03204166666667, "bike_id": "f69bc1a81f921d14e405318c7aa58946", "fusion_lat": 0.0, "name": "f69bc1a81f921d14e405318c7aa58946", "is_reserved": 0, "rental_uris": {"android": "https://dc.lft.to/lastmile_qr_scan", "ios": "https://dc.lft.to/lastmile_qr_scan"}, "fusion_lon": 0.0}, {"lat": 38.91488966666667, "is_disabled": 0, "type": "electric_scooter", "lon": -77.03251866666666, "bike_id": "432e6ea2e9b98fc120bd752ccd901202", "fusion_lat": 0.0, "name": "432e6ea2e9b98fc120bd752ccd901202", "is_reserved": 0, "rental_uris": {"android": "https://dc.lft.to/lastmile_qr_scan", "ios": "https://dc.lft.to/lastmile_qr_scan"}, "fusion_lon": 0.0}, {"lat": 38.926050333333336, "is_disabled": 0, "type": "electric_scooter", "lon": -77.021556, "bike_id": "944e22e1c1d834a0cc8976373dc095cf", "fusion_lat": 0.0, "name": "944e22e1c1d834a0cc8976373dc095cf", "is_reserved": 0, "rental_uris": {"android": "https://dc.lft.to/lastmile_qr_scan", "ios": "https://dc.lft.to/lastmile_qr_scan"}, "fusion_lon": 0.0}, {"lat": 38.866207, "is_disabled": 0, "type": "electric_bike", "lon": -76.94570716666666, "bike_id": "a2e019bab596e2597a567b171b18f1a6", "fusion_lat": 0.0, "name": "a2e019bab596e2597a567b171b18f1a6", "is_reserved": 0, "rental_uris": {"android": "https://dc.lft.to/lastmile_qr_scan", "ios": "https://dc.lft.to/lastmile_qr_scan"}, "fusion_lon": 0.0}, {"lat": 38.89853566666667, "is_disabled": 0, "type": "electric_scooter", "lon": -77.02900266666667, "bike_id": "84e9fcea22ddfe7d96895d184f6e6686", "fusion_lat": 0.0, "name": "84e9fcea22ddfe7d96895d184f6e6686", "is_reserved": 0, "rental_uris": {"android": "https://dc.lft.to/lastmile_qr_scan", "ios": "https://dc.lft.to/lastmile_qr_scan"}, "fusion_lon": 0.0}, {"lat": 38.893577, "is_disabled": 0, "type": "electric_scooter", "lon": -77.028011, "bike_id": "288c4510dbb90ee62f1a4674c99889de", "fusion_lat": 0.0, "name": "288c4510dbb90ee62f1a4674c99889de", "is_reserved": 0, "rental_uris": {"android": "https://dc.lft.to/lastmile_qr_scan", "ios": "https://dc.lft.to/lastmile_qr_scan"}, "fusion_lon": 0.0}, {"lat": 38.91981, "is_disabled": 0, "type": "electric_scooter", "lon": -77.02406316666666, "bike_id": "c9412ae3bfec3f5495506d2c20e07e1b", "fusion_lat": 0.0, "name": "c9412ae3bfec3f5495506d2c20e07e1b", "is_reserved": 0, "rental_uris": {"android": "https://dc.lft.to/lastmile_qr_scan", "ios": "https://dc.lft.to/lastmile_qr_scan"}, "fusion_lon": 0.0}, {"lat": 38.9784575, "is_disabled": 0, "type": "electric_bike", "lon": -77.02644116666667, "bike_id": "ff1b15ffdf8a3aa40049755678681580", "fusion_lat": 0.0, "name": "ff1b15ffdf8a3aa40049755678681580", "is_reserved": 0, "rental_uris": {"android": "https://dc.lft.to/lastmile_qr_scan", "ios": "https://dc.lft.to/lastmile_qr_scan"}, "fusion_lon": 0.0}, {"lat": 38.863847166666666, "is_disabled": 0, "type": "electric_scooter", "lon": -76.99251716666667, "bike_id": "6e353ac95e1956385d18a34ab74fd740", "fusion_lat": 0.0, "name": "6e353ac95e1956385d18a34ab74fd740", "is_reserved": 0, "rental_uris": {"android": "https://dc.lft.to/lastmile_qr_scan", "ios": "https://dc.lft.to/lastmile_qr_scan"}, "fusion_lon": 0.0}, {"lat": 38.916963, "is_disabled": 0, "type": "electric_scooter", "lon": -77.02601233333333, "bike_id": "a60b85564414e6d733c33963355b991d", "fusion_lat": 0.0, "name": "a60b85564414e6d733c33963355b991d", "is_reserved": 0, "rental_uris": {"android": "https://dc.lft.to/lastmile_qr_scan", "ios": "https://dc.lft.to/lastmile_qr_scan"}, "fusion_lon": 0.0}, {"lat": 38.94317016666667, "is_disabled": 0, "type": "electric_scooter", "lon": -77.05927816666667, "bike_id": "08974c007d0a49542da8e2876846245f", "fusion_lat": 0.0, "name": "08974c007d0a49542da8e2876846245f", "is_reserved": 0, "rental_uris": {"android": "https://dc.lft.to/lastmile_qr_scan", "ios": "https://dc.lft.to/lastmile_qr_scan"}, "fusion_lon": 0.0}, {"lat": 38.890379333333335, "is_disabled": 0, "type": "electric_scooter", "lon": -77.0297745, "bike_id": "3a98d45fabceab6f720fc9e39c18b183", "fusion_lat": 0.0, "name": "3a98d45fabceab6f720fc9e39c18b183", "is_reserved": 0, "rental_uris": {"android": "https://dc.lft.to/lastmile_qr_scan", "ios": "https://dc.lft.to/lastmile_qr_scan"}, "fusion_lon": 0.0}, {"lat": 38.885068, "is_disabled": 0, "type": "electric_scooter", "lon": -77.00565483333334, "bike_id": "d2243ba33423d009d5c63d8560a9292d", "fusion_lat": 0.0, "name": "d2243ba33423d009d5c63d8560a9292d", "is_reserved": 0, "rental_uris": {"android": "https://dc.lft.to/lastmile_qr_scan", "ios": "https://dc.lft.to/lastmile_qr_scan"}, "fusion_lon": 0.0}, {"lat": 38.85454566666667, "is_disabled": 0, "type": "electric_scooter", "lon": -76.972302, "bike_id": "5a106b41e8f171a9ba0e360a78f0854f", "fusion_lat": 0.0, "name": "5a106b41e8f171a9ba0e360a78f0854f", "is_reserved": 0, "rental_uris": {"android": "https://dc.lft.to/lastmile_qr_scan", "ios": "https://dc.lft.to/lastmile_qr_scan"}, "fusion_lon": 0.0}, {"lat": 38.90987333333333, "is_disabled": 0, "type": "electric_scooter", "lon": -77.0357655, "bike_id": "e1313051f5a8693b4b2b9017d1d85550", "fusion_lat": 0.0, "name": "e1313051f5a8693b4b2b9017d1d85550", "is_reserved": 0, "rental_uris": {"android": "https://dc.lft.to/lastmile_qr_scan", "ios": "https://dc.lft.to/lastmile_qr_scan"}, "fusion_lon": 0.0}, {"lat": 38.92360016666667, "is_disabled": 0, "type": "electric_scooter", "lon": -77.04393816666666, "bike_id": "1916e78211ecea2e66fca9eba64a72a9", "fusion_lat": 0.0, "name": "1916e78211ecea2e66fca9eba64a72a9", "is_reserved": 0, "rental_uris": {"android": "https://dc.lft.to/lastmile_qr_scan", "ios": "https://dc.lft.to/lastmile_qr_scan"}, "fusion_lon": 0.0}, {"lat": 38.91786583333333, "is_disabled": 0, "type": "electric_scooter", "lon": -77.04416266666667, "bike_id": "ce947b1a381f4d2766060dc037663610", "fusion_lat": 0.0, "name": "ce947b1a381f4d2766060dc037663610", "is_reserved": 0, "rental_uris": {"android": "https://dc.lft.to/lastmile_qr_scan", "ios": "https://dc.lft.to/lastmile_qr_scan"}, "fusion_lon": 0.0}, {"lat": 38.88680766666667, "is_disabled": 0, "type": "electric_bike", "lon": -77.00205166666667, "bike_id": "806ff90a5ac3aba5282f2a08f09f8e5c", "fusion_lat": 0.0, "name": "806ff90a5ac3aba5282f2a08f09f8e5c", "is_reserved": 0, "rental_uris": {"android": "https://dc.lft.to/lastmile_qr_scan", "ios": "https://dc.lft.to/lastmile_qr_scan"}, "fusion_lon": 0.0}, {"lat": 38.91707866666667, "is_disabled": 0, "type": "electric_bike", "lon": -77.09578516666667, "bike_id": "7b421f788b12258ad59686eb20d0edad", "fusion_lat": 0.0, "name": "7b421f788b12258ad59686eb20d0edad", "is_reserved": 0, "rental_uris": {"android": "https://dc.lft.to/lastmile_qr_scan", "ios": "https://dc.lft.to/lastmile_qr_scan"}, "fusion_lon": 0.0}, {"lat": 38.902204166666664, "is_disabled": 0, "type": "electric_scooter", "lon": -77.02311566666667, "bike_id": "86c32566bb2dfbcb99e8eca40956cf6b", "fusion_lat": 0.0, "name": "86c32566bb2dfbcb99e8eca40956cf6b", "is_reserved": 0, "rental_uris": {"android": "https://dc.lft.to/lastmile_qr_scan", "ios": "https://dc.lft.to/lastmile_qr_scan"}, "fusion_lon": 0.0}, {"lat": 38.921173333333336, "is_disabled": 0, "type": "electric_scooter", "lon": -77.01829066666667, "bike_id": "5692e54c7fff18ebb1638104ccfe7baf", "fusion_lat": 0.0, "name": "5692e54c7fff18ebb1638104ccfe7baf", "is_reserved": 0, "rental_uris": {"android": "https://dc.lft.to/lastmile_qr_scan", "ios": "https://dc.lft.to/lastmile_qr_scan"}, "fusion_lon": 0.0}, {"lat": 38.91002016666667, "is_disabled": 0, "type": "electric_scooter", "lon": -77.03188133333333, "bike_id": "e96a822bdf20ad5693a90a6b7edafe41", "fusion_lat": 0.0, "name": "e96a822bdf20ad5693a90a6b7edafe41", "is_reserved": 0, "rental_uris": {"android": "https://dc.lft.to/lastmile_qr_scan", "ios": "https://dc.lft.to/lastmile_qr_scan"}, "fusion_lon": 0.0}, {"lat": 38.9611705, "is_disabled": 0, "type": "electric_scooter", "lon": -77.0281165, "bike_id": "11c3e73d3d2c73659f9af61f66e5fb9e", "fusion_lat": 0.0, "name": "11c3e73d3d2c73659f9af61f66e5fb9e", "is_reserved": 0, "rental_uris": {"android": "https://dc.lft.to/lastmile_qr_scan", "ios": "https://dc.lft.to/lastmile_qr_scan"}, "fusion_lon": 0.0}, {"lat": 38.892217, "is_disabled": 0, "type": "electric_scooter", "lon": -77.02112733333334, "bike_id": "120e00d6b75860dedac39ca3dc407da2", "fusion_lat": 0.0, "name": "120e00d6b75860dedac39ca3dc407da2", "is_reserved": 0, "rental_uris": {"android": "https://dc.lft.to/lastmile_qr_scan", "ios": "https://dc.lft.to/lastmile_qr_scan"}, "fusion_lon": 0.0}, {"lat": 38.9266705, "is_disabled": 0, "type": "electric_scooter", "lon": -77.01467066666666, "bike_id": "e7e01b4e471f00714075c028877120d0", "fusion_lat": 0.0, "name": "e7e01b4e471f00714075c028877120d0", "is_reserved": 0, "rental_uris": {"android": "https://dc.lft.to/lastmile_qr_scan", "ios": "https://dc.lft.to/lastmile_qr_scan"}, "fusion_lon": 0.0}, {"lat": 38.902701, "is_disabled": 0, "type": "electric_scooter", "lon": -77.021636, "bike_id": "f98121649f64495bb04797e89b0fcc00", "fusion_lat": 0.0, "name": "f98121649f64495bb04797e89b0fcc00", "is_reserved": 0, "rental_uris": {"android": "https://dc.lft.to/lastmile_qr_scan", "ios": "https://dc.lft.to/lastmile_qr_scan"}, "fusion_lon": 0.0}, {"lat": 38.918469, "is_disabled": 0, "type": "electric_scooter", "lon": -77.0351695, "bike_id": "e6a84e12cae3b5d4c27db2f90641d49e", "fusion_lat": 0.0, "name": "e6a84e12cae3b5d4c27db2f90641d49e", "is_reserved": 0, "rental_uris": {"android": "https://dc.lft.to/lastmile_qr_scan", "ios": "https://dc.lft.to/lastmile_qr_scan"}, "fusion_lon": 0.0}, {"lat": 38.909841, "is_disabled": 0, "type": "electric_scooter", "lon": -77.03443133333333, "bike_id": "8d594e72875aa335f90cccbd3a2c5a9e", "fusion_lat": 0.0, "name": "8d594e72875aa335f90cccbd3a2c5a9e", "is_reserved": 0, "rental_uris": {"android": "https://dc.lft.to/lastmile_qr_scan", "ios": "https://dc.lft.to/lastmile_qr_scan"}, "fusion_lon": 0.0}, {"lat": 38.925854666666666, "is_disabled": 0, "type": "electric_scooter", "lon": -77.05755716666667, "bike_id": "d2ea2f12c5dd2be4328ff6bf84cee686", "fusion_lat": 0.0, "name": "d2ea2f12c5dd2be4328ff6bf84cee686", "is_reserved": 0, "rental_uris": {"android": "https://dc.lft.to/lastmile_qr_scan", "ios": "https://dc.lft.to/lastmile_qr_scan"}, "fusion_lon": 0.0}, {"lat": 38.892892833333335, "is_disabled": 0, "type": "electric_scooter", "lon": -76.95849116666666, "bike_id": "c7e6fe9d18689b853509ac2238b66421", "fusion_lat": 0.0, "name": "c7e6fe9d18689b853509ac2238b66421", "is_reserved": 0, "rental_uris": {"android": "https://dc.lft.to/lastmile_qr_scan", "ios": "https://dc.lft.to/lastmile_qr_scan"}, "fusion_lon": 0.0}, {"lat": 38.900028, "is_disabled": 0, "type": "electric_scooter", "lon": -76.99960733333333, "bike_id": "f8f181072dfb84e568e729071b3a8428", "fusion_lat": 0.0, "name": "f8f181072dfb84e568e729071b3a8428", "is_reserved": 0, "rental_uris": {"android": "https://dc.lft.to/lastmile_qr_scan", "ios": "https://dc.lft.to/lastmile_qr_scan"}, "fusion_lon": 0.0}, {"lat": 38.88106716666667, "is_disabled": 0, "type": "electric_scooter", "lon": -76.9951135, "bike_id": "b365dde84aa9cb61dff223277f1d16d0", "fusion_lat": 0.0, "name": "b365dde84aa9cb61dff223277f1d16d0", "is_reserved": 0, "rental_uris": {"android": "https://dc.lft.to/lastmile_qr_scan", "ios": "https://dc.lft.to/lastmile_qr_scan"}, "fusion_lon": 0.0}, {"lat": 38.8926965, "is_disabled": 0, "type": "electric_scooter", "lon": -77.0202295, "bike_id": "fe7ff5f68f2c1936893a8afa2d08adc2", "fusion_lat": 0.0, "name": "fe7ff5f68f2c1936893a8afa2d08adc2", "is_reserved": 0, "rental_uris": {"android": "https://dc.lft.to/lastmile_qr_scan", "ios": "https://dc.lft.to/lastmile_qr_scan"}, "fusion_lon": 0.0}, {"lat": 38.917798, "is_disabled": 0, "type": "electric_scooter", "lon": -77.023104, "bike_id": "b0a0004e51fea17eebbfb6e0f88a38b5", "fusion_lat": 0.0, "name": "b0a0004e51fea17eebbfb6e0f88a38b5", "is_reserved": 0, "rental_uris": {"android": "https://dc.lft.to/lastmile_qr_scan", "ios": "https://dc.lft.to/lastmile_qr_scan"}, "fusion_lon": 0.0}, {"lat": 38.915448166666664, "is_disabled": 0, "type": "electric_scooter", "lon": -77.07416183333333, "bike_id": "603fd6a4b237fae763ee771f1546a7d7", "fusion_lat": 0.0, "name": "603fd6a4b237fae763ee771f1546a7d7", "is_reserved": 0, "rental_uris": {"android": "https://dc.lft.to/lastmile_qr_scan", "ios": "https://dc.lft.to/lastmile_qr_scan"}, "fusion_lon": 0.0}, {"lat": 38.972252833333336, "is_disabled": 0, "type": "electric_bike", "lon": -77.036048, "bike_id": "f8c07a5ee520c95364b23964ff59330b", "fusion_lat": 0.0, "name": "f8c07a5ee520c95364b23964ff59330b", "is_reserved": 0, "rental_uris": {"android": "https://dc.lft.to/lastmile_qr_scan", "ios": "https://dc.lft.to/lastmile_qr_scan"}, "fusion_lon": 0.0}, {"lat": 38.915264666666666, "is_disabled": 0, "type": "electric_scooter", "lon": -77.03842316666666, "bike_id": "af37864925bdb798e0c9de8679890f8e", "fusion_lat": 0.0, "name": "af37864925bdb798e0c9de8679890f8e", "is_reserved": 0, "rental_uris": {"android": "https://dc.lft.to/lastmile_qr_scan", "ios": "https://dc.lft.to/lastmile_qr_scan"}, "fusion_lon": 0.0}, {"lat": 38.9295465, "is_disabled": 0, "type": "electric_scooter", "lon": -76.99088583333334, "bike_id": "9a60847df40190601c6cb63e5871a263", "fusion_lat": 0.0, "name": "9a60847df40190601c6cb63e5871a263", "is_reserved": 0, "rental_uris": {"android": "https://dc.lft.to/lastmile_qr_scan", "ios": "https://dc.lft.to/lastmile_qr_scan"}, "fusion_lon": 0.0}, {"lat": 38.921663, "is_disabled": 0, "type": "electric_scooter", "lon": -77.0401675, "bike_id": "7255d20afd670acd017a7ba0e27a0d38", "fusion_lat": 0.0, "name": "7255d20afd670acd017a7ba0e27a0d38", "is_reserved": 0, "rental_uris": {"android": "https://dc.lft.to/lastmile_qr_scan", "ios": "https://dc.lft.to/lastmile_qr_scan"}, "fusion_lon": 0.0}, {"lat": 38.885365, "is_disabled": 0, "type": "electric_scooter", "lon": -77.01520633333334, "bike_id": "a7a44a2a5951a644ea562495e240c67d", "fusion_lat": 0.0, "name": "a7a44a2a5951a644ea562495e240c67d", "is_reserved": 0, "rental_uris": {"android": "https://dc.lft.to/lastmile_qr_scan", "ios": "https://dc.lft.to/lastmile_qr_scan"}, "fusion_lon": 0.0}, {"lat": 38.910068833333334, "is_disabled": 0, "type": "electric_scooter", "lon": -77.040056, "bike_id": "4a07dc1af058e477456abd584b5ae166", "fusion_lat": 0.0, "name": "4a07dc1af058e477456abd584b5ae166", "is_reserved": 0, "rental_uris": {"android": "https://dc.lft.to/lastmile_qr_scan", "ios": "https://dc.lft.to/lastmile_qr_scan"}, "fusion_lon": 0.0}, {"lat": 38.8975455, "is_disabled": 0, "type": "electric_scooter", "lon": -77.02457266666667, "bike_id": "cba673a580adcf468cf38127778867fd", "fusion_lat": 0.0, "name": "cba673a580adcf468cf38127778867fd", "is_reserved": 0, "rental_uris": {"android": "https://dc.lft.to/lastmile_qr_scan", "ios": "https://dc.lft.to/lastmile_qr_scan"}, "fusion_lon": 0.0}, {"lat": 38.900634333333336, "is_disabled": 0, "type": "electric_scooter", "lon": -77.00761633333333, "bike_id": "46f1c2ec8882beb568fbbe6051d27490", "fusion_lat": 0.0, "name": "46f1c2ec8882beb568fbbe6051d27490", "is_reserved": 0, "rental_uris": {"android": "https://dc.lft.to/lastmile_qr_scan", "ios": "https://dc.lft.to/lastmile_qr_scan"}, "fusion_lon": 0.0}, {"lat": 38.8659665, "is_disabled": 0, "type": "electric_bike", "lon": -76.932235, "bike_id": "c0cb33714a1036c18dcc616c317fe846", "fusion_lat": 0.0, "name": "c0cb33714a1036c18dcc616c317fe846", "is_reserved": 0, "rental_uris": {"android": "https://dc.lft.to/lastmile_qr_scan", "ios": "https://dc.lft.to/lastmile_qr_scan"}, "fusion_lon": 0.0}, {"lat": 38.962648, "is_disabled": 0, "type": "electric_bike", "lon": -77.02811466666667, "bike_id": "b385c8ae1f75c7216916288c14c30ef1", "fusion_lat": 0.0, "name": "b385c8ae1f75c7216916288c14c30ef1", "is_reserved": 0, "rental_uris": {"android": "https://dc.lft.to/lastmile_qr_scan", "ios": "https://dc.lft.to/lastmile_qr_scan"}, "fusion_lon": 0.0}, {"lat": 38.9169685, "is_disabled": 0, "type": "electric_scooter", "lon": -77.02599183333334, "bike_id": "666847b93f1587984b18449c29179648", "fusion_lat": 0.0, "name": "666847b93f1587984b18449c29179648", "is_reserved": 0, "rental_uris": {"android": "https://dc.lft.to/lastmile_qr_scan", "ios": "https://dc.lft.to/lastmile_qr_scan"}, "fusion_lon": 0.0}, {"lat": 38.804711, "is_disabled": 0, "type": "electric_bike", "lon": -77.04336766666667, "bike_id": "b033e63956a7bfc4b3554f9f163aab2c", "fusion_lat": 0.0, "name": "b033e63956a7bfc4b3554f9f163aab2c", "is_reserved": 0, "rental_uris": {"android": "https://dc.lft.to/lastmile_qr_scan", "ios": "https://dc.lft.to/lastmile_qr_scan"}, "fusion_lon": 0.0}, {"lat": 38.89225716666667, "is_disabled": 0, "type": "electric_scooter", "lon": -77.04870716666667, "bike_id": "44a4dd0d48d76e12c80daee04d7e1930", "fusion_lat": 0.0, "name": "44a4dd0d48d76e12c80daee04d7e1930", "is_reserved": 0, "rental_uris": {"android": "https://dc.lft.to/lastmile_qr_scan", "ios": "https://dc.lft.to/lastmile_qr_scan"}, "fusion_lon": 0.0}, {"lat": 38.91817016666667, "is_disabled": 0, "type": "electric_scooter", "lon": -76.99969833333333, "bike_id": "e85fc8d0c02b957208c9802c707f632a", "fusion_lat": 0.0, "name": "e85fc8d0c02b957208c9802c707f632a", "is_reserved": 0, "rental_uris": {"android": "https://dc.lft.to/lastmile_qr_scan", "ios": "https://dc.lft.to/lastmile_qr_scan"}, "fusion_lon": 0.0}, {"lat": 38.852235, "is_disabled": 0, "type": "electric_bike", "lon": -77.12960433333333, "bike_id": "31bde88ee6ca4e620b5ad3ead71e435f", "fusion_lat": 0.0, "name": "31bde88ee6ca4e620b5ad3ead71e435f", "is_reserved": 0, "rental_uris": {"android": "https://dc.lft.to/lastmile_qr_scan", "ios": "https://dc.lft.to/lastmile_qr_scan"}, "fusion_lon": 0.0}, {"lat": 38.92171183333333, "is_disabled": 0, "type": "electric_scooter", "lon": -77.0513625, "bike_id": "028161142c75099db842db4dfe593b13", "fusion_lat": 0.0, "name": "028161142c75099db842db4dfe593b13", "is_reserved": 0, "rental_uris": {"android": "https://dc.lft.to/lastmile_qr_scan", "ios": "https://dc.lft.to/lastmile_qr_scan"}, "fusion_lon": 0.0}, {"lat": 38.934629, "is_disabled": 0, "type": "electric_scooter", "lon": -77.03228333333334, "bike_id": "392e98cd586d3d06ee44b4e41e1e16d4", "fusion_lat": 0.0, "name": "392e98cd586d3d06ee44b4e41e1e16d4", "is_reserved": 0, "rental_uris": {"android": "https://dc.lft.to/lastmile_qr_scan", "ios": "https://dc.lft.to/lastmile_qr_scan"}, "fusion_lon": 0.0}, {"lat": 38.93228933333333, "is_disabled": 0, "type": "electric_scooter", "lon": -77.04415366666667, "bike_id": "6abcc71edd71975015c05196da1b10a5", "fusion_lat": 0.0, "name": "6abcc71edd71975015c05196da1b10a5", "is_reserved": 0, "rental_uris": {"android": "https://dc.lft.to/lastmile_qr_scan", "ios": "https://dc.lft.to/lastmile_qr_scan"}, "fusion_lon": 0.0}, {"lat": 38.917699166666665, "is_disabled": 0, "type": "electric_scooter", "lon": -77.004521, "bike_id": "eb92cf7955857d30cd425bd5f12fc6b1", "fusion_lat": 0.0, "name": "eb92cf7955857d30cd425bd5f12fc6b1", "is_reserved": 0, "rental_uris": {"android": "https://dc.lft.to/lastmile_qr_scan", "ios": "https://dc.lft.to/lastmile_qr_scan"}, "fusion_lon": 0.0}, {"lat": 38.865188333333336, "is_disabled": 0, "type": "electric_scooter", "lon": -76.9903955, "bike_id": "dbe4d125b68ee4b3ea98c90475e60049", "fusion_lat": 0.0, "name": "dbe4d125b68ee4b3ea98c90475e60049", "is_reserved": 0, "rental_uris": {"android": "https://dc.lft.to/lastmile_qr_scan", "ios": "https://dc.lft.to/lastmile_qr_scan"}, "fusion_lon": 0.0}, {"lat": 38.95085233333333, "is_disabled": 0, "type": "electric_bike", "lon": -77.01202966666666, "bike_id": "ae85793e82b40cba548106e9e0ea0b7e", "fusion_lat": 0.0, "name": "ae85793e82b40cba548106e9e0ea0b7e", "is_reserved": 0, "rental_uris": {"android": "https://dc.lft.to/lastmile_qr_scan", "ios": "https://dc.lft.to/lastmile_qr_scan"}, "fusion_lon": 0.0}, {"lat": 38.92608933333333, "is_disabled": 0, "type": "electric_scooter", "lon": -77.021581, "bike_id": "e43eee0e8fd79b8fba84446309d27f0d", "fusion_lat": 0.0, "name": "e43eee0e8fd79b8fba84446309d27f0d", "is_reserved": 0, "rental_uris": {"android": "https://dc.lft.to/lastmile_qr_scan", "ios": "https://dc.lft.to/lastmile_qr_scan"}, "fusion_lon": 0.0}, {"lat": 38.91195466666667, "is_disabled": 0, "type": "electric_scooter", "lon": -77.04489116666667, "bike_id": "92329151ff61ba2bd58505ce34016059", "fusion_lat": 0.0, "name": "92329151ff61ba2bd58505ce34016059", "is_reserved": 0, "rental_uris": {"android": "https://dc.lft.to/lastmile_qr_scan", "ios": "https://dc.lft.to/lastmile_qr_scan"}, "fusion_lon": 0.0}, {"lat": 38.899732, "is_disabled": 0, "type": "electric_scooter", "lon": -77.05269233333334, "bike_id": "5b343ae1b5c8cc1a65a6381a517abe96", "fusion_lat": 0.0, "name": "5b343ae1b5c8cc1a65a6381a517abe96", "is_reserved": 0, "rental_uris": {"android": "https://dc.lft.to/lastmile_qr_scan", "ios": "https://dc.lft.to/lastmile_qr_scan"}, "fusion_lon": 0.0}, {"lat": 38.907605833333335, "is_disabled": 0, "type": "electric_scooter", "lon": -77.04180733333334, "bike_id": "136deeb2b6941161aef40738edef9a75", "fusion_lat": 0.0, "name": "136deeb2b6941161aef40738edef9a75", "is_reserved": 0, "rental_uris": {"android": "https://dc.lft.to/lastmile_qr_scan", "ios": "https://dc.lft.to/lastmile_qr_scan"}, "fusion_lon": 0.0}, {"lat": 38.906232833333334, "is_disabled": 0, "type": "electric_scooter", "lon": -77.02185133333333, "bike_id": "9b52b11168374b4596873696b530ebe7", "fusion_lat": 0.0, "name": "9b52b11168374b4596873696b530ebe7", "is_reserved": 0, "rental_uris": {"android": "https://dc.lft.to/lastmile_qr_scan", "ios": "https://dc.lft.to/lastmile_qr_scan"}, "fusion_lon": 0.0}, {"lat": 38.90635783333333, "is_disabled": 0, "type": "electric_scooter", "lon": -77.006025, "bike_id": "313880d056d512b87d9dbcb1937d883d", "fusion_lat": 0.0, "name": "313880d056d512b87d9dbcb1937d883d", "is_reserved": 0, "rental_uris": {"android": "https://dc.lft.to/lastmile_qr_scan", "ios": "https://dc.lft.to/lastmile_qr_scan"}, "fusion_lon": 0.0}, {"lat": 38.90340066666667, "is_disabled": 0, "type": "electric_scooter", "lon": -76.97053416666667, "bike_id": "a39a59ad6e23e9bdca3aad0e2cc444de", "fusion_lat": 0.0, "name": "a39a59ad6e23e9bdca3aad0e2cc444de", "is_reserved": 0, "rental_uris": {"android": "https://dc.lft.to/lastmile_qr_scan", "ios": "https://dc.lft.to/lastmile_qr_scan"}, "fusion_lon": 0.0}, {"lat": 38.88279633333333, "is_disabled": 0, "type": "electric_bike", "lon": -76.93235883333334, "bike_id": "aa419a3bd6c7d84ee422bb3796f68acc", "fusion_lat": 0.0, "name": "aa419a3bd6c7d84ee422bb3796f68acc", "is_reserved": 0, "rental_uris": {"android": "https://dc.lft.to/lastmile_qr_scan", "ios": "https://dc.lft.to/lastmile_qr_scan"}, "fusion_lon": 0.0}, {"lat": 38.901992, "is_disabled": 0, "type": "electric_scooter", "lon": -77.021812, "bike_id": "116cbc21af794fb25f6ecc5848288851", "fusion_lat": 0.0, "name": "116cbc21af794fb25f6ecc5848288851", "is_reserved": 0, "rental_uris": {"android": "https://dc.lft.to/lastmile_qr_scan", "ios": "https://dc.lft.to/lastmile_qr_scan"}, "fusion_lon": 0.0}, {"lat": 38.915113, "is_disabled": 0, "type": "electric_scooter", "lon": -76.9837925, "bike_id": "8e79c1257f6c24a0449782d8b9951908", "fusion_lat": 0.0, "name": "8e79c1257f6c24a0449782d8b9951908", "is_reserved": 0, "rental_uris": {"android": "https://dc.lft.to/lastmile_qr_scan", "ios": "https://dc.lft.to/lastmile_qr_scan"}, "fusion_lon": 0.0}, {"lat": 38.95738733333334, "is_disabled": 0, "type": "electric_scooter", "lon": -77.02382266666666, "bike_id": "690e63ed2ee080944a1e61f2aedf83ba", "fusion_lat": 0.0, "name": "690e63ed2ee080944a1e61f2aedf83ba", "is_reserved": 0, "rental_uris": {"android": "https://dc.lft.to/lastmile_qr_scan", "ios": "https://dc.lft.to/lastmile_qr_scan"}, "fusion_lon": 0.0}, {"lat": 38.90887, "is_disabled": 0, "type": "electric_scooter", "lon": -77.03668166666667, "bike_id": "36e9ddd4be1d5f3143de76b781c8bcd7", "fusion_lat": 0.0, "name": "36e9ddd4be1d5f3143de76b781c8bcd7", "is_reserved": 0, "rental_uris": {"android": "https://dc.lft.to/lastmile_qr_scan", "ios": "https://dc.lft.to/lastmile_qr_scan"}, "fusion_lon": 0.0}, {"lat": 38.866182, "is_disabled": 0, "type": "electric_scooter", "lon": -76.98663266666667, "bike_id": "a485a256081858391434b8dbc31bae91", "fusion_lat": 0.0, "name": "a485a256081858391434b8dbc31bae91", "is_reserved": 0, "rental_uris": {"android": "https://dc.lft.to/lastmile_qr_scan", "ios": "https://dc.lft.to/lastmile_qr_scan"}, "fusion_lon": 0.0}, {"lat": 38.914189, "is_disabled": 0, "type": "electric_scooter", "lon": -77.02215583333333, "bike_id": "251a46e40d16e4dbda997d5960c127c1", "fusion_lat": 0.0, "name": "251a46e40d16e4dbda997d5960c127c1", "is_reserved": 0, "rental_uris": {"android": "https://dc.lft.to/lastmile_qr_scan", "ios": "https://dc.lft.to/lastmile_qr_scan"}, "fusion_lon": 0.0}, {"lat": 38.93586083333334, "is_disabled": 0, "type": "electric_scooter", "lon": -77.0375515, "bike_id": "b853eb4f98e61590beff28e226c87106", "fusion_lat": 0.0, "name": "b853eb4f98e61590beff28e226c87106", "is_reserved": 0, "rental_uris": {"android": "https://dc.lft.to/lastmile_qr_scan", "ios": "https://dc.lft.to/lastmile_qr_scan"}, "fusion_lon": 0.0}, {"lat": 38.894375333333336, "is_disabled": 0, "type": "electric_scooter", "lon": -77.02101983333333, "bike_id": "329938b98068aa4d787dbf3f696f742f", "fusion_lat": 0.0, "name": "329938b98068aa4d787dbf3f696f742f", "is_reserved": 0, "rental_uris": {"android": "https://dc.lft.to/lastmile_qr_scan", "ios": "https://dc.lft.to/lastmile_qr_scan"}, "fusion_lon": 0.0}, {"lat": 38.9015005, "is_disabled": 0, "type": "electric_scooter", "lon": -77.05104616666667, "bike_id": "2c4036b294825cdd49ebc3c030fbfc7a", "fusion_lat": 0.0, "name": "2c4036b294825cdd49ebc3c030fbfc7a", "is_reserved": 0, "rental_uris": {"android": "https://dc.lft.to/lastmile_qr_scan", "ios": "https://dc.lft.to/lastmile_qr_scan"}, "fusion_lon": 0.0}, {"lat": 38.90030083333333, "is_disabled": 0, "type": "electric_scooter", "lon": -76.99904183333334, "bike_id": "cb29b5c23d9d89326eb4b7b34d83bfa9", "fusion_lat": 0.0, "name": "cb29b5c23d9d89326eb4b7b34d83bfa9", "is_reserved": 0, "rental_uris": {"android": "https://dc.lft.to/lastmile_qr_scan", "ios": "https://dc.lft.to/lastmile_qr_scan"}, "fusion_lon": 0.0}, {"lat": 38.9112705, "is_disabled": 0, "type": "electric_scooter", "lon": -77.0381135, "bike_id": "a3a4e16834522c52ba1cd81d2e52fc3b", "fusion_lat": 0.0, "name": "a3a4e16834522c52ba1cd81d2e52fc3b", "is_reserved": 0, "rental_uris": {"android": "https://dc.lft.to/lastmile_qr_scan", "ios": "https://dc.lft.to/lastmile_qr_scan"}, "fusion_lon": 0.0}, {"lat": 38.922380833333335, "is_disabled": 0, "type": "electric_scooter", "lon": -77.02960033333333, "bike_id": "a97066caec3182085c63d91867200e72", "fusion_lat": 0.0, "name": "a97066caec3182085c63d91867200e72", "is_reserved": 0, "rental_uris": {"android": "https://dc.lft.to/lastmile_qr_scan", "ios": "https://dc.lft.to/lastmile_qr_scan"}, "fusion_lon": 0.0}, {"lat": 38.8943255, "is_disabled": 0, "type": "electric_scooter", "lon": -77.03167566666667, "bike_id": "0fb21efb949783d2685ebdb0061c7478", "fusion_lat": 0.0, "name": "0fb21efb949783d2685ebdb0061c7478", "is_reserved": 0, "rental_uris": {"android": "https://dc.lft.to/lastmile_qr_scan", "ios": "https://dc.lft.to/lastmile_qr_scan"}, "fusion_lon": 0.0}, {"lat": 38.930914, "is_disabled": 0, "type": "electric_scooter", "lon": -77.07750716666666, "bike_id": "7eb98637bd87286c21a3a92c9d7d3b5d", "fusion_lat": 0.0, "name": "7eb98637bd87286c21a3a92c9d7d3b5d", "is_reserved": 0, "rental_uris": {"android": "https://dc.lft.to/lastmile_qr_scan", "ios": "https://dc.lft.to/lastmile_qr_scan"}, "fusion_lon": 0.0}, {"lat": 38.95789666666667, "is_disabled": 0, "type": "electric_bike", "lon": -77.02755233333333, "bike_id": "99acb4ad4ab4ff2fc57c093b4ed9050f", "fusion_lat": 0.0, "name": "99acb4ad4ab4ff2fc57c093b4ed9050f", "is_reserved": 0, "rental_uris": {"android": "https://dc.lft.to/lastmile_qr_scan", "ios": "https://dc.lft.to/lastmile_qr_scan"}, "fusion_lon": 0.0}, {"lat": 38.84036733333333, "is_disabled": 0, "type": "electric_bike", "lon": -76.97588433333334, "bike_id": "1a13550b722c0cd1a242b7fd16276a03", "fusion_lat": 0.0, "name": "1a13550b722c0cd1a242b7fd16276a03", "is_reserved": 0, "rental_uris": {"android": "https://dc.lft.to/lastmile_qr_scan", "ios": "https://dc.lft.to/lastmile_qr_scan"}, "fusion_lon": 0.0}, {"lat": 38.867021, "is_disabled": 0, "type": "electric_scooter", "lon": -76.98711066666667, "bike_id": "94e4c6711f8a5d4a3c6e4fe12a1f010a", "fusion_lat": 0.0, "name": "94e4c6711f8a5d4a3c6e4fe12a1f010a", "is_reserved": 0, "rental_uris": {"android": "https://dc.lft.to/lastmile_qr_scan", "ios": "https://dc.lft.to/lastmile_qr_scan"}, "fusion_lon": 0.0}, {"lat": 38.9094725, "is_disabled": 0, "type": "electric_scooter", "lon": -76.98965983333333, "bike_id": "078a779376a8610372a2aed8648cd6de", "fusion_lat": 0.0, "name": "078a779376a8610372a2aed8648cd6de", "is_reserved": 0, "rental_uris": {"android": "https://dc.lft.to/lastmile_qr_scan", "ios": "https://dc.lft.to/lastmile_qr_scan"}, "fusion_lon": 0.0}, {"lat": 38.8996305, "is_disabled": 0, "type": "electric_scooter", "lon": -77.03379616666666, "bike_id": "244788974995fdc0e5d649db3dcc330b", "fusion_lat": 0.0, "name": "244788974995fdc0e5d649db3dcc330b", "is_reserved": 0, "rental_uris": {"android": "https://dc.lft.to/lastmile_qr_scan", "ios": "https://dc.lft.to/lastmile_qr_scan"}, "fusion_lon": 0.0}, {"lat": 38.907643166666666, "is_disabled": 0, "type": "electric_scooter", "lon": -77.0702475, "bike_id": "32a00d11d9ec711b7feb3deca204664c", "fusion_lat": 0.0, "name": "32a00d11d9ec711b7feb3deca204664c", "is_reserved": 0, "rental_uris": {"android": "https://dc.lft.to/lastmile_qr_scan", "ios": "https://dc.lft.to/lastmile_qr_scan"}, "fusion_lon": 0.0}, {"lat": 38.89903966666667, "is_disabled": 0, "type": "electric_scooter", "lon": -76.9335855, "bike_id": "ac469e398e754699626b328b476c8a5d", "fusion_lat": 0.0, "name": "ac469e398e754699626b328b476c8a5d", "is_reserved": 0, "rental_uris": {"android": "https://dc.lft.to/lastmile_qr_scan", "ios": "https://dc.lft.to/lastmile_qr_scan"}, "fusion_lon": 0.0}, {"lat": 38.91789083333333, "is_disabled": 0, "type": "electric_scooter", "lon": -77.04333816666667, "bike_id": "53c10ac339e90bb700444551c337d72a", "fusion_lat": 0.0, "name": "53c10ac339e90bb700444551c337d72a", "is_reserved": 0, "rental_uris": {"android": "https://dc.lft.to/lastmile_qr_scan", "ios": "https://dc.lft.to/lastmile_qr_scan"}, "fusion_lon": 0.0}, {"lat": 38.897555, "is_disabled": 0, "type": "electric_scooter", "lon": -77.04526666666666, "bike_id": "8fd7bfb099f850aea4ef03cce6e8604c", "fusion_lat": 0.0, "name": "8fd7bfb099f850aea4ef03cce6e8604c", "is_reserved": 0, "rental_uris": {"android": "https://dc.lft.to/lastmile_qr_scan", "ios": "https://dc.lft.to/lastmile_qr_scan"}, "fusion_lon": 0.0}, {"lat": 38.932059333333335, "is_disabled": 0, "type": "electric_scooter", "lon": -77.03744783333333, "bike_id": "16e2b8563b80b2328ec6bfb68beebfc7", "fusion_lat": 0.0, "name": "16e2b8563b80b2328ec6bfb68beebfc7", "is_reserved": 0, "rental_uris": {"android": "https://dc.lft.to/lastmile_qr_scan", "ios": "https://dc.lft.to/lastmile_qr_scan"}, "fusion_lon": 0.0}, {"lat": 38.87412666666667, "is_disabled": 0, "type": "electric_scooter", "lon": -76.97309716666666, "bike_id": "33052a596c7c0040dcb55bef16180e6d", "fusion_lat": 0.0, "name": "33052a596c7c0040dcb55bef16180e6d", "is_reserved": 0, "rental_uris": {"android": "https://dc.lft.to/lastmile_qr_scan", "ios": "https://dc.lft.to/lastmile_qr_scan"}, "fusion_lon": 0.0}, {"lat": 38.8665785, "is_disabled": 0, "type": "electric_scooter", "lon": -76.98883233333333, "bike_id": "b3a448d034aeca8ac885b877678b2972", "fusion_lat": 0.0, "name": "b3a448d034aeca8ac885b877678b2972", "is_reserved": 0, "rental_uris": {"android": "https://dc.lft.to/lastmile_qr_scan", "ios": "https://dc.lft.to/lastmile_qr_scan"}, "fusion_lon": 0.0}, {"lat": 38.92570683333334, "is_disabled": 0, "type": "electric_scooter", "lon": -77.05759566666667, "bike_id": "6af640cd92d03bad0e414c86b23a66b9", "fusion_lat": 0.0, "name": "6af640cd92d03bad0e414c86b23a66b9", "is_reserved": 0, "rental_uris": {"android": "https://dc.lft.to/lastmile_qr_scan", "ios": "https://dc.lft.to/lastmile_qr_scan"}, "fusion_lon": 0.0}, {"lat": 38.80684983333333, "is_disabled": 0, "type": "electric_bike", "lon": -77.08117083333333, "bike_id": "03e4041a2cfee367cbe52cb447876dac", "fusion_lat": 0.0, "name": "03e4041a2cfee367cbe52cb447876dac", "is_reserved": 0, "rental_uris": {"android": "https://dc.lft.to/lastmile_qr_scan", "ios": "https://dc.lft.to/lastmile_qr_scan"}, "fusion_lon": 0.0}, {"lat": 38.9214175, "is_disabled": 0, "type": "electric_scooter", "lon": -77.04369183333333, "bike_id": "16b9520f177350155776669935056131", "fusion_lat": 0.0, "name": "16b9520f177350155776669935056131", "is_reserved": 0, "rental_uris": {"android": "https://dc.lft.to/lastmile_qr_scan", "ios": "https://dc.lft.to/lastmile_qr_scan"}, "fusion_lon": 0.0}, {"lat": 38.9033375, "is_disabled": 0, "type": "electric_scooter", "lon": -76.975958, "bike_id": "35ff62725aed7ce12fddda374af82ba5", "fusion_lat": 0.0, "name": "35ff62725aed7ce12fddda374af82ba5", "is_reserved": 0, "rental_uris": {"android": "https://dc.lft.to/lastmile_qr_scan", "ios": "https://dc.lft.to/lastmile_qr_scan"}, "fusion_lon": 0.0}, {"lat": 38.93992, "is_disabled": 0, "type": "electric_scooter", "lon": -77.07180333333334, "bike_id": "e541d465e31f1a890f47a339077ff38a", "fusion_lat": 0.0, "name": "e541d465e31f1a890f47a339077ff38a", "is_reserved": 0, "rental_uris": {"android": "https://dc.lft.to/lastmile_qr_scan", "ios": "https://dc.lft.to/lastmile_qr_scan"}, "fusion_lon": 0.0}, {"lat": 38.90356216666667, "is_disabled": 0, "type": "electric_scooter", "lon": -77.02510016666666, "bike_id": "06aeebffd2e2ae8ff9e3440f2b954abf", "fusion_lat": 0.0, "name": "06aeebffd2e2ae8ff9e3440f2b954abf", "is_reserved": 0, "rental_uris": {"android": "https://dc.lft.to/lastmile_qr_scan", "ios": "https://dc.lft.to/lastmile_qr_scan"}, "fusion_lon": 0.0}, {"lat": 38.9064305, "is_disabled": 0, "type": "electric_scooter", "lon": -77.033762, "bike_id": "c26bcb4208f56356cf7cf152d281d2d1", "fusion_lat": 0.0, "name": "c26bcb4208f56356cf7cf152d281d2d1", "is_reserved": 0, "rental_uris": {"android": "https://dc.lft.to/lastmile_qr_scan", "ios": "https://dc.lft.to/lastmile_qr_scan"}, "fusion_lon": 0.0}, {"lat": 38.911163, "is_disabled": 0, "type": "electric_scooter", "lon": -77.0382155, "bike_id": "20c0fa4e62949d0fdb6d079ae909069e", "fusion_lat": 0.0, "name": "20c0fa4e62949d0fdb6d079ae909069e", "is_reserved": 0, "rental_uris": {"android": "https://dc.lft.to/lastmile_qr_scan", "ios": "https://dc.lft.to/lastmile_qr_scan"}, "fusion_lon": 0.0}, {"lat": 38.920317833333335, "is_disabled": 0, "type": "electric_scooter", "lon": -77.03074216666667, "bike_id": "4e5853ecb7e30651920644fad341ee55", "fusion_lat": 0.0, "name": "4e5853ecb7e30651920644fad341ee55", "is_reserved": 0, "rental_uris": {"android": "https://dc.lft.to/lastmile_qr_scan", "ios": "https://dc.lft.to/lastmile_qr_scan"}, "fusion_lon": 0.0}, {"lat": 38.859704, "is_disabled": 0, "type": "electric_bike", "lon": -77.0567255, "bike_id": "1f2b678d882048d3ecadbda8d94c7ebc", "fusion_lat": 0.0, "name": "1f2b678d882048d3ecadbda8d94c7ebc", "is_reserved": 0, "rental_uris": {"android": "https://dc.lft.to/lastmile_qr_scan", "ios": "https://dc.lft.to/lastmile_qr_scan"}, "fusion_lon": 0.0}, {"lat": 38.9132665, "is_disabled": 0, "type": "electric_scooter", "lon": -77.03184933333333, "bike_id": "40ea316d9071d62f465cf67f3bb16cdb", "fusion_lat": 0.0, "name": "40ea316d9071d62f465cf67f3bb16cdb", "is_reserved": 0, "rental_uris": {"android": "https://dc.lft.to/lastmile_qr_scan", "ios": "https://dc.lft.to/lastmile_qr_scan"}, "fusion_lon": 0.0}, {"lat": 38.924017166666665, "is_disabled": 0, "type": "electric_scooter", "lon": -77.0516545, "bike_id": "ade7c1dba5eb165482febb7c9faf87a4", "fusion_lat": 0.0, "name": "ade7c1dba5eb165482febb7c9faf87a4", "is_reserved": 0, "rental_uris": {"android": "https://dc.lft.to/lastmile_qr_scan", "ios": "https://dc.lft.to/lastmile_qr_scan"}, "fusion_lon": 0.0}, {"lat": 38.9126885, "is_disabled": 0, "type": "electric_scooter", "lon": -77.02253766666666, "bike_id": "7ce891fe5e80722bef36c6e25ec1f377", "fusion_lat": 0.0, "name": "7ce891fe5e80722bef36c6e25ec1f377", "is_reserved": 0, "rental_uris": {"android": "https://dc.lft.to/lastmile_qr_scan", "ios": "https://dc.lft.to/lastmile_qr_scan"}, "fusion_lon": 0.0}, {"lat": 38.92297883333333, "is_disabled": 0, "type": "electric_scooter", "lon": -77.0402225, "bike_id": "52684a1e9796b3cd16a1cfc36658a9e4", "fusion_lat": 0.0, "name": "52684a1e9796b3cd16a1cfc36658a9e4", "is_reserved": 0, "rental_uris": {"android": "https://dc.lft.to/lastmile_qr_scan", "ios": "https://dc.lft.to/lastmile_qr_scan"}, "fusion_lon": 0.0}, {"lat": 38.87630516666667, "is_disabled": 0, "type": "electric_scooter", "lon": -76.96525633333333, "bike_id": "42bb745809dd226ea41b06ecb9425e29", "fusion_lat": 0.0, "name": "42bb745809dd226ea41b06ecb9425e29", "is_reserved": 0, "rental_uris": {"android": "https://dc.lft.to/lastmile_qr_scan", "ios": "https://dc.lft.to/lastmile_qr_scan"}, "fusion_lon": 0.0}, {"lat": 38.931107, "is_disabled": 0, "type": "electric_scooter", "lon": -77.03508966666666, "bike_id": "1542a1ece3606551ee6b7c4ca62789ea", "fusion_lat": 0.0, "name": "1542a1ece3606551ee6b7c4ca62789ea", "is_reserved": 0, "rental_uris": {"android": "https://dc.lft.to/lastmile_qr_scan", "ios": "https://dc.lft.to/lastmile_qr_scan"}, "fusion_lon": 0.0}, {"lat": 38.940717166666666, "is_disabled": 0, "type": "electric_scooter", "lon": -77.06132116666667, "bike_id": "4611a74234d0678051335e9ce2d6f000", "fusion_lat": 0.0, "name": "4611a74234d0678051335e9ce2d6f000", "is_reserved": 0, "rental_uris": {"android": "https://dc.lft.to/lastmile_qr_scan", "ios": "https://dc.lft.to/lastmile_qr_scan"}, "fusion_lon": 0.0}, {"lat": 38.90202133333333, "is_disabled": 0, "type": "electric_scooter", "lon": -77.02181333333333, "bike_id": "fc64aa8cabcd383093c8d5fe45d9bf55", "fusion_lat": 0.0, "name": "fc64aa8cabcd383093c8d5fe45d9bf55", "is_reserved": 0, "rental_uris": {"android": "https://dc.lft.to/lastmile_qr_scan", "ios": "https://dc.lft.to/lastmile_qr_scan"}, "fusion_lon": 0.0}, {"lat": 38.91492233333334, "is_disabled": 0, "type": "electric_scooter", "lon": -76.983619, "bike_id": "9a3bac4e3ea4549f8b6c8a5a2f91a8e3", "fusion_lat": 0.0, "name": "9a3bac4e3ea4549f8b6c8a5a2f91a8e3", "is_reserved": 0, "rental_uris": {"android": "https://dc.lft.to/lastmile_qr_scan", "ios": "https://dc.lft.to/lastmile_qr_scan"}, "fusion_lon": 0.0}, {"lat": 38.887775500000004, "is_disabled": 0, "type": "electric_scooter", "lon": -77.01506783333333, "bike_id": "64c0456a55ab50c6a0ec49a1e3a9ef28", "fusion_lat": 0.0, "name": "64c0456a55ab50c6a0ec49a1e3a9ef28", "is_reserved": 0, "rental_uris": {"android": "https://dc.lft.to/lastmile_qr_scan", "ios": "https://dc.lft.to/lastmile_qr_scan"}, "fusion_lon": 0.0}, {"lat": 38.931366833333335, "is_disabled": 0, "type": "electric_scooter", "lon": -77.032836, "bike_id": "658a114bda47ac888305fa1b22e5b1fe", "fusion_lat": 0.0, "name": "658a114bda47ac888305fa1b22e5b1fe", "is_reserved": 0, "rental_uris": {"android": "https://dc.lft.to/lastmile_qr_scan", "ios": "https://dc.lft.to/lastmile_qr_scan"}, "fusion_lon": 0.0}, {"lat": 38.932046666666665, "is_disabled": 0, "type": "electric_scooter", "lon": -77.04429966666666, "bike_id": "c9ffa18d180f976faaf294dd44a36d0b", "fusion_lat": 0.0, "name": "c9ffa18d180f976faaf294dd44a36d0b", "is_reserved": 0, "rental_uris": {"android": "https://dc.lft.to/lastmile_qr_scan", "ios": "https://dc.lft.to/lastmile_qr_scan"}, "fusion_lon": 0.0}, {"lat": 38.8990145, "is_disabled": 0, "type": "electric_scooter", "lon": -77.00719416666666, "bike_id": "5a12884e6eeb2a191a677056d2452e19", "fusion_lat": 0.0, "name": "5a12884e6eeb2a191a677056d2452e19", "is_reserved": 0, "rental_uris": {"android": "https://dc.lft.to/lastmile_qr_scan", "ios": "https://dc.lft.to/lastmile_qr_scan"}, "fusion_lon": 0.0}, {"lat": 38.91110233333333, "is_disabled": 0, "type": "electric_scooter", "lon": -77.02137866666666, "bike_id": "8d652b2dbdba00d86ca81d8fe32e7a1a", "fusion_lat": 0.0, "name": "8d652b2dbdba00d86ca81d8fe32e7a1a", "is_reserved": 0, "rental_uris": {"android": "https://dc.lft.to/lastmile_qr_scan", "ios": "https://dc.lft.to/lastmile_qr_scan"}, "fusion_lon": 0.0}, {"lat": 38.87736433333333, "is_disabled": 0, "type": "electric_bike", "lon": -77.11848316666666, "bike_id": "48e66414e1817c46f4a418b244a81575", "fusion_lat": 0.0, "name": "48e66414e1817c46f4a418b244a81575", "is_reserved": 0, "rental_uris": {"android": "https://dc.lft.to/lastmile_qr_scan", "ios": "https://dc.lft.to/lastmile_qr_scan"}, "fusion_lon": 0.0}, {"lat": 38.91219233333333, "is_disabled": 0, "type": "electric_scooter", "lon": -77.07600166666667, "bike_id": "124f048174574b26136fb786d7b93f61", "fusion_lat": 0.0, "name": "124f048174574b26136fb786d7b93f61", "is_reserved": 0, "rental_uris": {"android": "https://dc.lft.to/lastmile_qr_scan", "ios": "https://dc.lft.to/lastmile_qr_scan"}, "fusion_lon": 0.0}, {"lat": 38.9464405, "is_disabled": 0, "type": "electric_scooter", "lon": -77.0184175, "bike_id": "5e3db93db1e70964f147eae20f4c217b", "fusion_lat": 0.0, "name": "5e3db93db1e70964f147eae20f4c217b", "is_reserved": 0, "rental_uris": {"android": "https://dc.lft.to/lastmile_qr_scan", "ios": "https://dc.lft.to/lastmile_qr_scan"}, "fusion_lon": 0.0}, {"lat": 38.89726983333333, "is_disabled": 0, "type": "electric_scooter", "lon": -77.02007266666666, "bike_id": "177d07bdc6fdf3aafc2e1c8d31a68c8d", "fusion_lat": 0.0, "name": "177d07bdc6fdf3aafc2e1c8d31a68c8d", "is_reserved": 0, "rental_uris": {"android": "https://dc.lft.to/lastmile_qr_scan", "ios": "https://dc.lft.to/lastmile_qr_scan"}, "fusion_lon": 0.0}, {"lat": 38.95189116666667, "is_disabled": 0, "type": "electric_bike", "lon": -76.9354455, "bike_id": "fc53ef4c6282fc3d495f4140e643876e", "fusion_lat": 0.0, "name": "fc53ef4c6282fc3d495f4140e643876e", "is_reserved": 0, "rental_uris": {"android": "https://dc.lft.to/lastmile_qr_scan", "ios": "https://dc.lft.to/lastmile_qr_scan"}, "fusion_lon": 0.0}, {"lat": 38.867460333333334, "is_disabled": 0, "type": "electric_scooter", "lon": -76.97663516666667, "bike_id": "0807f1438e13d65b0c1f246fd38c2583", "fusion_lat": 0.0, "name": "0807f1438e13d65b0c1f246fd38c2583", "is_reserved": 0, "rental_uris": {"android": "https://dc.lft.to/lastmile_qr_scan", "ios": "https://dc.lft.to/lastmile_qr_scan"}, "fusion_lon": 0.0}, {"lat": 38.919444, "is_disabled": 0, "type": "electric_scooter", "lon": -77.0318425, "bike_id": "a51424ec4bb27572c30c1318f7356e9b", "fusion_lat": 0.0, "name": "a51424ec4bb27572c30c1318f7356e9b", "is_reserved": 0, "rental_uris": {"android": "https://dc.lft.to/lastmile_qr_scan", "ios": "https://dc.lft.to/lastmile_qr_scan"}, "fusion_lon": 0.0}, {"lat": 38.9105315, "is_disabled": 0, "type": "electric_scooter", "lon": -77.0152685, "bike_id": "5694b4536ba04bc2d3ede9f6caf788e2", "fusion_lat": 0.0, "name": "5694b4536ba04bc2d3ede9f6caf788e2", "is_reserved": 0, "rental_uris": {"android": "https://dc.lft.to/lastmile_qr_scan", "ios": "https://dc.lft.to/lastmile_qr_scan"}, "fusion_lon": 0.0}, {"lat": 38.90036466666667, "is_disabled": 0, "type": "electric_scooter", "lon": -76.999053, "bike_id": "1502608a36e3c3c650f7ac47659c73e0", "fusion_lat": 0.0, "name": "1502608a36e3c3c650f7ac47659c73e0", "is_reserved": 0, "rental_uris": {"android": "https://dc.lft.to/lastmile_qr_scan", "ios": "https://dc.lft.to/lastmile_qr_scan"}, "fusion_lon": 0.0}, {"lat": 38.855063, "is_disabled": 0, "type": "electric_bike", "lon": -76.98410266666667, "bike_id": "beb40412e224525150a38c185257b479", "fusion_lat": 0.0, "name": "beb40412e224525150a38c185257b479", "is_reserved": 0, "rental_uris": {"android": "https://dc.lft.to/lastmile_qr_scan", "ios": "https://dc.lft.to/lastmile_qr_scan"}, "fusion_lon": 0.0}, {"lat": 38.90278583333333, "is_disabled": 0, "type": "electric_scooter", "lon": -77.036577, "bike_id": "fb231606e047c095eb939d655889a073", "fusion_lat": 0.0, "name": "fb231606e047c095eb939d655889a073", "is_reserved": 0, "rental_uris": {"android": "https://dc.lft.to/lastmile_qr_scan", "ios": "https://dc.lft.to/lastmile_qr_scan"}, "fusion_lon": 0.0}, {"lat": 38.893048666666665, "is_disabled": 0, "type": "electric_scooter", "lon": -77.00007683333334, "bike_id": "161c3d1e0b3e9231c289e7c03bcd57bf", "fusion_lat": 0.0, "name": "161c3d1e0b3e9231c289e7c03bcd57bf", "is_reserved": 0, "rental_uris": {"android": "https://dc.lft.to/lastmile_qr_scan", "ios": "https://dc.lft.to/lastmile_qr_scan"}, "fusion_lon": 0.0}, {"lat": 38.913016, "is_disabled": 0, "type": "electric_scooter", "lon": -77.06166333333333, "bike_id": "08c22d684a7e4089f7e906e32a9bd199", "fusion_lat": 0.0, "name": "08c22d684a7e4089f7e906e32a9bd199", "is_reserved": 0, "rental_uris": {"android": "https://dc.lft.to/lastmile_qr_scan", "ios": "https://dc.lft.to/lastmile_qr_scan"}, "fusion_lon": 0.0}, {"lat": 38.900417833333336, "is_disabled": 0, "type": "electric_scooter", "lon": -77.00194566666667, "bike_id": "629875bb02e23981f3554aaa4ad5b1c3", "fusion_lat": 0.0, "name": "629875bb02e23981f3554aaa4ad5b1c3", "is_reserved": 0, "rental_uris": {"android": "https://dc.lft.to/lastmile_qr_scan", "ios": "https://dc.lft.to/lastmile_qr_scan"}, "fusion_lon": 0.0}, {"lat": 38.91115516666667, "is_disabled": 0, "type": "electric_scooter", "lon": -77.0481755, "bike_id": "8bd852e93f98b524badbd6d604d508bd", "fusion_lat": 0.0, "name": "8bd852e93f98b524badbd6d604d508bd", "is_reserved": 0, "rental_uris": {"android": "https://dc.lft.to/lastmile_qr_scan", "ios": "https://dc.lft.to/lastmile_qr_scan"}, "fusion_lon": 0.0}, {"lat": 38.813474666666664, "is_disabled": 0, "type": "electric_bike", "lon": -77.049264, "bike_id": "30e92dae5dda9a0b83776cbf11b84e4d", "fusion_lat": 0.0, "name": "30e92dae5dda9a0b83776cbf11b84e4d", "is_reserved": 0, "rental_uris": {"android": "https://dc.lft.to/lastmile_qr_scan", "ios": "https://dc.lft.to/lastmile_qr_scan"}, "fusion_lon": 0.0}, {"lat": 38.90372416666666, "is_disabled": 0, "type": "electric_scooter", "lon": -77.062822, "bike_id": "222ab1f140d168f8c55fa3a521b49033", "fusion_lat": 0.0, "name": "222ab1f140d168f8c55fa3a521b49033", "is_reserved": 0, "rental_uris": {"android": "https://dc.lft.to/lastmile_qr_scan", "ios": "https://dc.lft.to/lastmile_qr_scan"}, "fusion_lon": 0.0}, {"lat": 38.897577166666665, "is_disabled": 0, "type": "electric_scooter", "lon": -76.94184333333334, "bike_id": "551a168ee1131c8f9a8b5e3a31a025ea", "fusion_lat": 0.0, "name": "551a168ee1131c8f9a8b5e3a31a025ea", "is_reserved": 0, "rental_uris": {"android": "https://dc.lft.to/lastmile_qr_scan", "ios": "https://dc.lft.to/lastmile_qr_scan"}, "fusion_lon": 0.0}, {"lat": 38.9179125, "is_disabled": 0, "type": "electric_scooter", "lon": -77.0231055, "bike_id": "1dea542fbb2986a5fe158d65e697ca1f", "fusion_lat": 0.0, "name": "1dea542fbb2986a5fe158d65e697ca1f", "is_reserved": 0, "rental_uris": {"android": "https://dc.lft.to/lastmile_qr_scan", "ios": "https://dc.lft.to/lastmile_qr_scan"}, "fusion_lon": 0.0}, {"lat": 38.9074405, "is_disabled": 0, "type": "electric_scooter", "lon": -77.043426, "bike_id": "9be69b5950b42208e881ba62f85d1f12", "fusion_lat": 0.0, "name": "9be69b5950b42208e881ba62f85d1f12", "is_reserved": 0, "rental_uris": {"android": "https://dc.lft.to/lastmile_qr_scan", "ios": "https://dc.lft.to/lastmile_qr_scan"}, "fusion_lon": 0.0}, {"lat": 38.92229566666666, "is_disabled": 0, "type": "electric_scooter", "lon": -77.04344883333333, "bike_id": "2b6e5da742f4cfd1148606a0b2582ae6", "fusion_lat": 0.0, "name": "2b6e5da742f4cfd1148606a0b2582ae6", "is_reserved": 0, "rental_uris": {"android": "https://dc.lft.to/lastmile_qr_scan", "ios": "https://dc.lft.to/lastmile_qr_scan"}, "fusion_lon": 0.0}, {"lat": 38.914851666666664, "is_disabled": 0, "type": "electric_scooter", "lon": -77.01375716666666, "bike_id": "7cade4580d9ee6a462af1b0304362c57", "fusion_lat": 0.0, "name": "7cade4580d9ee6a462af1b0304362c57", "is_reserved": 0, "rental_uris": {"android": "https://dc.lft.to/lastmile_qr_scan", "ios": "https://dc.lft.to/lastmile_qr_scan"}, "fusion_lon": 0.0}, {"lat": 38.923857, "is_disabled": 0, "type": "electric_scooter", "lon": -77.03060233333333, "bike_id": "2b8182b158cc3f607e9ff30436cf6cc8", "fusion_lat": 0.0, "name": "2b8182b158cc3f607e9ff30436cf6cc8", "is_reserved": 0, "rental_uris": {"android": "https://dc.lft.to/lastmile_qr_scan", "ios": "https://dc.lft.to/lastmile_qr_scan"}, "fusion_lon": 0.0}, {"lat": 38.9008445, "is_disabled": 0, "type": "electric_scooter", "lon": -77.05074633333334, "bike_id": "9bd2dd1f58957845f62dc8580658bbfd", "fusion_lat": 0.0, "name": "9bd2dd1f58957845f62dc8580658bbfd", "is_reserved": 0, "rental_uris": {"android": "https://dc.lft.to/lastmile_qr_scan", "ios": "https://dc.lft.to/lastmile_qr_scan"}, "fusion_lon": 0.0}, {"lat": 38.871497833333336, "is_disabled": 0, "type": "electric_bike", "lon": -76.9370575, "bike_id": "94e525781250b45d5cdeefcac3e1538f", "fusion_lat": 0.0, "name": "94e525781250b45d5cdeefcac3e1538f", "is_reserved": 0, "rental_uris": {"android": "https://dc.lft.to/lastmile_qr_scan", "ios": "https://dc.lft.to/lastmile_qr_scan"}, "fusion_lon": 0.0}, {"lat": 38.83694716666667, "is_disabled": 0, "type": "electric_scooter", "lon": -77.10306733333333, "bike_id": "f579c84282bb40f6406df8fd055ff981", "fusion_lat": 0.0, "name": "f579c84282bb40f6406df8fd055ff981", "is_reserved": 0, "rental_uris": {"android": "https://dc.lft.to/lastmile_qr_scan", "ios": "https://dc.lft.to/lastmile_qr_scan"}, "fusion_lon": 0.0}, {"lat": 38.91616066666667, "is_disabled": 0, "type": "electric_scooter", "lon": -77.03244316666667, "bike_id": "6758f8074de8d83d9f3efaf490d9c40e", "fusion_lat": 0.0, "name": "6758f8074de8d83d9f3efaf490d9c40e", "is_reserved": 0, "rental_uris": {"android": "https://dc.lft.to/lastmile_qr_scan", "ios": "https://dc.lft.to/lastmile_qr_scan"}, "fusion_lon": 0.0}, {"lat": 38.845691, "is_disabled": 0, "type": "electric_bike", "lon": -77.09623116666667, "bike_id": "41c636a595ef1f33499765e95f68cc97", "fusion_lat": 0.0, "name": "41c636a595ef1f33499765e95f68cc97", "is_reserved": 0, "rental_uris": {"android": "https://dc.lft.to/lastmile_qr_scan", "ios": "https://dc.lft.to/lastmile_qr_scan"}, "fusion_lon": 0.0}, {"lat": 38.88114483333333, "is_disabled": 0, "type": "electric_scooter", "lon": -76.98337233333334, "bike_id": "73d0c388d1ee6502ff51297a605cee6a", "fusion_lat": 0.0, "name": "73d0c388d1ee6502ff51297a605cee6a", "is_reserved": 0, "rental_uris": {"android": "https://dc.lft.to/lastmile_qr_scan", "ios": "https://dc.lft.to/lastmile_qr_scan"}, "fusion_lon": 0.0}, {"lat": 38.920740333333335, "is_disabled": 0, "type": "electric_scooter", "lon": -77.02419333333333, "bike_id": "92b5426260c5fb07d5feb9166f018561", "fusion_lat": 0.0, "name": "92b5426260c5fb07d5feb9166f018561", "is_reserved": 0, "rental_uris": {"android": "https://dc.lft.to/lastmile_qr_scan", "ios": "https://dc.lft.to/lastmile_qr_scan"}, "fusion_lon": 0.0}, {"lat": 38.8671685, "is_disabled": 0, "type": "electric_scooter", "lon": -76.98725083333333, "bike_id": "63bdf0441a5eeb5d1e16500ed041fe35", "fusion_lat": 0.0, "name": "63bdf0441a5eeb5d1e16500ed041fe35", "is_reserved": 0, "rental_uris": {"android": "https://dc.lft.to/lastmile_qr_scan", "ios": "https://dc.lft.to/lastmile_qr_scan"}, "fusion_lon": 0.0}, {"lat": 38.9271235, "is_disabled": 0, "type": "electric_scooter", "lon": -77.02091533333333, "bike_id": "ed82aeb340e9d89a6dd6892edf4514d5", "fusion_lat": 0.0, "name": "ed82aeb340e9d89a6dd6892edf4514d5", "is_reserved": 0, "rental_uris": {"android": "https://dc.lft.to/lastmile_qr_scan", "ios": "https://dc.lft.to/lastmile_qr_scan"}, "fusion_lon": 0.0}, {"lat": 38.93670266666667, "is_disabled": 0, "type": "electric_scooter", "lon": -77.05932433333334, "bike_id": "c3d03545075ab23af5b6e2cae7c60ee8", "fusion_lat": 0.0, "name": "c3d03545075ab23af5b6e2cae7c60ee8", "is_reserved": 0, "rental_uris": {"android": "https://dc.lft.to/lastmile_qr_scan", "ios": "https://dc.lft.to/lastmile_qr_scan"}, "fusion_lon": 0.0}, {"lat": 38.91981766666667, "is_disabled": 0, "type": "electric_scooter", "lon": -77.02404466666667, "bike_id": "366d1cebf071a572fc3bf738c659c425", "fusion_lat": 0.0, "name": "366d1cebf071a572fc3bf738c659c425", "is_reserved": 0, "rental_uris": {"android": "https://dc.lft.to/lastmile_qr_scan", "ios": "https://dc.lft.to/lastmile_qr_scan"}, "fusion_lon": 0.0}, {"lat": 38.88661066666667, "is_disabled": 0, "type": "electric_bike", "lon": -77.03385133333333, "bike_id": "7938264f06d2244e48522f8136771a0e", "fusion_lat": 0.0, "name": "7938264f06d2244e48522f8136771a0e", "is_reserved": 0, "rental_uris": {"android": "https://dc.lft.to/lastmile_qr_scan", "ios": "https://dc.lft.to/lastmile_qr_scan"}, "fusion_lon": 0.0}, {"lat": 38.95791666666667, "is_disabled": 0, "type": "electric_scooter", "lon": -77.02764266666667, "bike_id": "04c74c63ddb928aaf339e818e8677cf9", "fusion_lat": 0.0, "name": "04c74c63ddb928aaf339e818e8677cf9", "is_reserved": 0, "rental_uris": {"android": "https://dc.lft.to/lastmile_qr_scan", "ios": "https://dc.lft.to/lastmile_qr_scan"}, "fusion_lon": 0.0}, {"lat": 38.908625, "is_disabled": 0, "type": "electric_scooter", "lon": -77.03652133333334, "bike_id": "521936ad49340606c9dbcfbe9366cb01", "fusion_lat": 0.0, "name": "521936ad49340606c9dbcfbe9366cb01", "is_reserved": 0, "rental_uris": {"android": "https://dc.lft.to/lastmile_qr_scan", "ios": "https://dc.lft.to/lastmile_qr_scan"}, "fusion_lon": 0.0}, {"lat": 38.95657416666667, "is_disabled": 0, "type": "electric_scooter", "lon": -77.023977, "bike_id": "7ad374ce864e31167f5fe9ea255f79bf", "fusion_lat": 0.0, "name": "7ad374ce864e31167f5fe9ea255f79bf", "is_reserved": 0, "rental_uris": {"android": "https://dc.lft.to/lastmile_qr_scan", "ios": "https://dc.lft.to/lastmile_qr_scan"}, "fusion_lon": 0.0}, {"lat": 38.9259525, "is_disabled": 0, "type": "electric_scooter", "lon": -77.02271933333333, "bike_id": "2791c86c982fe73a2d051d7c5c37e2af", "fusion_lat": 0.0, "name": "2791c86c982fe73a2d051d7c5c37e2af", "is_reserved": 0, "rental_uris": {"android": "https://dc.lft.to/lastmile_qr_scan", "ios": "https://dc.lft.to/lastmile_qr_scan"}, "fusion_lon": 0.0}, {"lat": 38.93285433333333, "is_disabled": 0, "type": "electric_scooter", "lon": -77.0355305, "bike_id": "c54e7c4a852f44e174570df4949eec62", "fusion_lat": 0.0, "name": "c54e7c4a852f44e174570df4949eec62", "is_reserved": 0, "rental_uris": {"android": "https://dc.lft.to/lastmile_qr_scan", "ios": "https://dc.lft.to/lastmile_qr_scan"}, "fusion_lon": 0.0}, {"lat": 38.90084783333333, "is_disabled": 0, "type": "electric_scooter", "lon": -77.0492575, "bike_id": "7a2fc7ef430a500601c6b53c0bb866e9", "fusion_lat": 0.0, "name": "7a2fc7ef430a500601c6b53c0bb866e9", "is_reserved": 0, "rental_uris": {"android": "https://dc.lft.to/lastmile_qr_scan", "ios": "https://dc.lft.to/lastmile_qr_scan"}, "fusion_lon": 0.0}, {"lat": 38.922154166666665, "is_disabled": 0, "type": "electric_scooter", "lon": -77.03285283333334, "bike_id": "19af1342bd739da30c6e65936eba769a", "fusion_lat": 0.0, "name": "19af1342bd739da30c6e65936eba769a", "is_reserved": 0, "rental_uris": {"android": "https://dc.lft.to/lastmile_qr_scan", "ios": "https://dc.lft.to/lastmile_qr_scan"}, "fusion_lon": 0.0}, {"lat": 38.90143333333333, "is_disabled": 0, "type": "electric_scooter", "lon": -77.00071983333333, "bike_id": "081f20dc08eb91edd8d282b1c20120ed", "fusion_lat": 0.0, "name": "081f20dc08eb91edd8d282b1c20120ed", "is_reserved": 0, "rental_uris": {"android": "https://dc.lft.to/lastmile_qr_scan", "ios": "https://dc.lft.to/lastmile_qr_scan"}, "fusion_lon": 0.0}, {"lat": 38.918152, "is_disabled": 0, "type": "electric_scooter", "lon": -77.0248, "bike_id": "64c621d4cc11be5d19a07592b54029c8", "fusion_lat": 0.0, "name": "64c621d4cc11be5d19a07592b54029c8", "is_reserved": 0, "rental_uris": {"android": "https://dc.lft.to/lastmile_qr_scan", "ios": "https://dc.lft.to/lastmile_qr_scan"}, "fusion_lon": 0.0}, {"lat": 38.92453183333333, "is_disabled": 0, "type": "electric_scooter", "lon": -77.04198283333334, "bike_id": "41ef051d4601074a94b6fcccb817c09f", "fusion_lat": 0.0, "name": "41ef051d4601074a94b6fcccb817c09f", "is_reserved": 0, "rental_uris": {"android": "https://dc.lft.to/lastmile_qr_scan", "ios": "https://dc.lft.to/lastmile_qr_scan"}, "fusion_lon": 0.0}, {"lat": 38.9083235, "is_disabled": 0, "type": "electric_scooter", "lon": -77.04339966666667, "bike_id": "3f9e60612677da284528e8c33aa176dd", "fusion_lat": 0.0, "name": "3f9e60612677da284528e8c33aa176dd", "is_reserved": 0, "rental_uris": {"android": "https://dc.lft.to/lastmile_qr_scan", "ios": "https://dc.lft.to/lastmile_qr_scan"}, "fusion_lon": 0.0}, {"lat": 38.915508833333334, "is_disabled": 0, "type": "electric_scooter", "lon": -77.01229966666666, "bike_id": "e0bded8a3c6e80eb3e4d98a9af1c8752", "fusion_lat": 0.0, "name": "e0bded8a3c6e80eb3e4d98a9af1c8752", "is_reserved": 0, "rental_uris": {"android": "https://dc.lft.to/lastmile_qr_scan", "ios": "https://dc.lft.to/lastmile_qr_scan"}, "fusion_lon": 0.0}, {"lat": 38.9023375, "is_disabled": 0, "type": "electric_scooter", "lon": -77.019394, "bike_id": "1ca1687d1cd6c507ddc18085b4c42799", "fusion_lat": 0.0, "name": "1ca1687d1cd6c507ddc18085b4c42799", "is_reserved": 0, "rental_uris": {"android": "https://dc.lft.to/lastmile_qr_scan", "ios": "https://dc.lft.to/lastmile_qr_scan"}, "fusion_lon": 0.0}, {"lat": 38.960945, "is_disabled": 0, "type": "electric_scooter", "lon": -77.08283166666666, "bike_id": "fa577931b376aa5d0132c1c51c9a6133", "fusion_lat": 0.0, "name": "fa577931b376aa5d0132c1c51c9a6133", "is_reserved": 0, "rental_uris": {"android": "https://dc.lft.to/lastmile_qr_scan", "ios": "https://dc.lft.to/lastmile_qr_scan"}, "fusion_lon": 0.0}, {"lat": 38.913303, "is_disabled": 0, "type": "electric_scooter", "lon": -77.0318685, "bike_id": "5cf36af44210267d2ee8bf7e0d52bafa", "fusion_lat": 0.0, "name": "5cf36af44210267d2ee8bf7e0d52bafa", "is_reserved": 0, "rental_uris": {"android": "https://dc.lft.to/lastmile_qr_scan", "ios": "https://dc.lft.to/lastmile_qr_scan"}, "fusion_lon": 0.0}, {"lat": 38.914235, "is_disabled": 0, "type": "electric_scooter", "lon": -77.0318685, "bike_id": "a5654b1e541a23b21ad20bc97ba911f0", "fusion_lat": 0.0, "name": "a5654b1e541a23b21ad20bc97ba911f0", "is_reserved": 0, "rental_uris": {"android": "https://dc.lft.to/lastmile_qr_scan", "ios": "https://dc.lft.to/lastmile_qr_scan"}, "fusion_lon": 0.0}, {"lat": 38.90646366666667, "is_disabled": 0, "type": "electric_scooter", "lon": -76.99024883333334, "bike_id": "7a08b011a1a6e8bedaa9115ca9471698", "fusion_lat": 0.0, "name": "7a08b011a1a6e8bedaa9115ca9471698", "is_reserved": 0, "rental_uris": {"android": "https://dc.lft.to/lastmile_qr_scan", "ios": "https://dc.lft.to/lastmile_qr_scan"}, "fusion_lon": 0.0}, {"lat": 38.9382545, "is_disabled": 0, "type": "electric_bike", "lon": -76.990457, "bike_id": "99a6c40b65fcf06e632e29e7f7b05588", "fusion_lat": 0.0, "name": "99a6c40b65fcf06e632e29e7f7b05588", "is_reserved": 0, "rental_uris": {"android": "https://dc.lft.to/lastmile_qr_scan", "ios": "https://dc.lft.to/lastmile_qr_scan"}, "fusion_lon": 0.0}, {"lat": 38.91549666666667, "is_disabled": 0, "type": "electric_scooter", "lon": -77.03207116666667, "bike_id": "7a2eafec7b0324c8f19b356a18a2210a", "fusion_lat": 0.0, "name": "7a2eafec7b0324c8f19b356a18a2210a", "is_reserved": 0, "rental_uris": {"android": "https://dc.lft.to/lastmile_qr_scan", "ios": "https://dc.lft.to/lastmile_qr_scan"}, "fusion_lon": 0.0}, {"lat": 38.95611483333333, "is_disabled": 0, "type": "electric_scooter", "lon": -77.010258, "bike_id": "d4cb0b5e1ab1517c215eb551d2a5be30", "fusion_lat": 0.0, "name": "d4cb0b5e1ab1517c215eb551d2a5be30", "is_reserved": 0, "rental_uris": {"android": "https://dc.lft.to/lastmile_qr_scan", "ios": "https://dc.lft.to/lastmile_qr_scan"}, "fusion_lon": 0.0}, {"lat": 38.844310166666666, "is_disabled": 0, "type": "electric_scooter", "lon": -76.99780433333333, "bike_id": "0900d15717f747f12e4afddf7f1cc8ce", "fusion_lat": 0.0, "name": "0900d15717f747f12e4afddf7f1cc8ce", "is_reserved": 0, "rental_uris": {"android": "https://dc.lft.to/lastmile_qr_scan", "ios": "https://dc.lft.to/lastmile_qr_scan"}, "fusion_lon": 0.0}, {"lat": 38.921148, "is_disabled": 0, "type": "electric_scooter", "lon": -77.041116, "bike_id": "065b67f9b1775119eef6f3ec6705a1c7", "fusion_lat": 0.0, "name": "065b67f9b1775119eef6f3ec6705a1c7", "is_reserved": 0, "rental_uris": {"android": "https://dc.lft.to/lastmile_qr_scan", "ios": "https://dc.lft.to/lastmile_qr_scan"}, "fusion_lon": 0.0}, {"lat": 38.907939666666664, "is_disabled": 0, "type": "electric_scooter", "lon": -77.001986, "bike_id": "699ae2e439ff96d73b97f28a294204c5", "fusion_lat": 0.0, "name": "699ae2e439ff96d73b97f28a294204c5", "is_reserved": 0, "rental_uris": {"android": "https://dc.lft.to/lastmile_qr_scan", "ios": "https://dc.lft.to/lastmile_qr_scan"}, "fusion_lon": 0.0}, {"lat": 38.85210283333333, "is_disabled": 0, "type": "electric_bike", "lon": -76.9957805, "bike_id": "9c9eb57195a43d0f61749df76974dcad", "fusion_lat": 0.0, "name": "9c9eb57195a43d0f61749df76974dcad", "is_reserved": 0, "rental_uris": {"android": "https://dc.lft.to/lastmile_qr_scan", "ios": "https://dc.lft.to/lastmile_qr_scan"}, "fusion_lon": 0.0}, {"lat": 38.93342716666667, "is_disabled": 0, "type": "electric_scooter", "lon": -76.9931125, "bike_id": "8b4400d3f6b5f27b20dc6c3311e811ab", "fusion_lat": 0.0, "name": "8b4400d3f6b5f27b20dc6c3311e811ab", "is_reserved": 0, "rental_uris": {"android": "https://dc.lft.to/lastmile_qr_scan", "ios": "https://dc.lft.to/lastmile_qr_scan"},