{"data": {"bikes": [{"lat": 38.8612395, "bike_id": "327e8bd3e66e1345478db242ba9c0f9b", "is_reserved": 0, "is_disabled": 0, "rental_uris": {"android": "https://dc.lft.to/lastmile_qr_scan", "ios": "https://dc.lft.to/lastmile_qr_scan"}, "fusion_lon": 0.0, "lon": -76.98376066666667, "type": "electric_scooter", "fusion_lat": 0.0, "name": "327e8bd3e66e1345478db242ba9c0f9b"}, {"lat": 38.897499333333336, "bike_id": "7b4d691fb278943c1919aa2ce54e6dbb", "is_reserved": 0, "is_disabled": 0, "rental_uris": {"android": "https://dc.lft.to/lastmile_qr_scan", "ios": "https://dc.lft.to/lastmile_qr_scan"}, "fusion_lon": 0.0, "lon": -77.03347566666666, "type": "electric_scooter", "fusion_lat": 0.0, "name": "7b4d691fb278943c1919aa2ce54e6dbb"}, {"lat": 38.90178383333333, "bike_id": "30338b07bb8cd5829771b167193a9042", "is_reserved": 0, "is_disabled": 0, "rental_uris": {"android": "https://dc.lft.to/lastmile_qr_scan", "ios": "https://dc.lft.to/lastmile_qr_scan"}, "fusion_lon": 0.0, "lon": -77.00913733333333, "type": "electric_scooter", "fusion_lat": 0.0, "name": "30338b07bb8cd5829771b167193a9042"}, {"lat": 38.87655316666667, "bike_id": "e6938d4fd3bec88bc5340caf8a7ad2fb", "is_reserved": 0, "is_disabled": 0, "rental_uris": {"android": "https://dc.lft.to/lastmile_qr_scan", "ios": "https://dc.lft.to/lastmile_qr_scan"}, "fusion_lon": 0.0, "lon": -77.00188233333333, "type": "electric_scooter", "fusion_lat": 0.0, "name": "e6938d4fd3bec88bc5340caf8a7ad2fb"}, {"lat": 38.88558283333333, "bike_id": "77cee720750073ac70ef9480ef9c9f43", "is_reserved": 0, "is_disabled": 0, "rental_uris": {"android": "https://dc.lft.to/lastmile_qr_scan", "ios": "https://dc.lft.to/lastmile_qr_scan"}, "fusion_lon": 0.0, "lon": -76.996204, "type": "electric_scooter", "fusion_lat": 0.0, "name": "77cee720750073ac70ef9480ef9c9f43"}, {"lat": 38.913498, "bike_id": "0368a03694c327beeed63432ff547eb5", "is_reserved": 0, "is_disabled": 0, "rental_uris": {"android": "https://dc.lft.to/lastmile_qr_scan", "ios": "https://dc.lft.to/lastmile_qr_scan"}, "fusion_lon": 0.0, "lon": -77.03184533333334, "type": "electric_scooter", "fusion_lat": 0.0, "name": "0368a03694c327beeed63432ff547eb5"}, {"lat": 38.8954885, "bike_id": "cb782e716dc23c777979d26ce9b9b4fc", "is_reserved": 0, "is_disabled": 0, "rental_uris": {"android": "https://dc.lft.to/lastmile_qr_scan", "ios": "https://dc.lft.to/lastmile_qr_scan"}, "fusion_lon": 0.0, "lon": -76.9952155, "type": "electric_scooter", "fusion_lat": 0.0, "name": "cb782e716dc23c777979d26ce9b9b4fc"}, {"lat": 38.887762, "bike_id": "47716e22c892e2886279f1563f2606d0", "is_reserved": 0, "is_disabled": 0, "rental_uris": {"android": "https://dc.lft.to/lastmile_qr_scan", "ios": "https://dc.lft.to/lastmile_qr_scan"}, "fusion_lon": 0.0, "lon": -76.97710833333333, "type": "electric_scooter", "fusion_lat": 0.0, "name": "47716e22c892e2886279f1563f2606d0"}, {"lat": 38.893856666666665, "bike_id": "f4450d159c5e58c1b23c3df2934c69d8", "is_reserved": 0, "is_disabled": 0, "rental_uris": {"android": "https://dc.lft.to/lastmile_qr_scan", "ios": "https://dc.lft.to/lastmile_qr_scan"}, "fusion_lon": 0.0, "lon": -76.9482225, "type": "electric_bike", "fusion_lat": 0.0, "name": "f4450d159c5e58c1b23c3df2934c69d8"}, {"lat": 38.903966833333335, "bike_id": "9a0d1245ea5232ec9b24ee49c2fced3f", "is_reserved": 0, "is_disabled": 0, "rental_uris": {"android": "https://dc.lft.to/lastmile_qr_scan", "ios": "https://dc.lft.to/lastmile_qr_scan"}, "fusion_lon": 0.0, "lon": -77.01848116666666, "type": "electric_scooter", "fusion_lat": 0.0, "name": "9a0d1245ea5232ec9b24ee49c2fced3f"}, {"lat": 38.876765, "bike_id": "2649542e7f47811e752e664a38141028", "is_reserved": 0, "is_disabled": 0, "rental_uris": {"android": "https://dc.lft.to/lastmile_qr_scan", "ios": "https://dc.lft.to/lastmile_qr_scan"}, "fusion_lon": 0.0, "lon": -77.01801716666667, "type": "electric_scooter", "fusion_lat": 0.0, "name": "2649542e7f47811e752e664a38141028"}, {"lat": 38.8592715, "bike_id": "924b546289097eaddb901dde918b64d4", "is_reserved": 0, "is_disabled": 0, "rental_uris": {"android": "https://dc.lft.to/lastmile_qr_scan", "ios": "https://dc.lft.to/lastmile_qr_scan"}, "fusion_lon": 0.0, "lon": -76.9677735, "type": "electric_scooter", "fusion_lat": 0.0, "name": "924b546289097eaddb901dde918b64d4"}, {"lat": 38.960764166666664, "bike_id": "99d7a510131ef789c8579f0ca8395df8", "is_reserved": 0, "is_disabled": 0, "rental_uris": {"android": "https://dc.lft.to/lastmile_qr_scan", "ios": "https://dc.lft.to/lastmile_qr_scan"}, "fusion_lon": 0.0, "lon": -77.02808533333334, "type": "electric_scooter", "fusion_lat": 0.0, "name": "99d7a510131ef789c8579f0ca8395df8"}, {"lat": 38.897042666666664, "bike_id": "beb04908ecb001426ea161716558be2d", "is_reserved": 0, "is_disabled": 0, "rental_uris": {"android": "https://dc.lft.to/lastmile_qr_scan", "ios": "https://dc.lft.to/lastmile_qr_scan"}, "fusion_lon": 0.0, "lon": -77.00490133333334, "type": "electric_scooter", "fusion_lat": 0.0, "name": "beb04908ecb001426ea161716558be2d"}, {"lat": 38.94010266666667, "bike_id": "c5023ed2f600f15f92acfd06c85284eb", "is_reserved": 0, "is_disabled": 0, "rental_uris": {"android": "https://dc.lft.to/lastmile_qr_scan", "ios": "https://dc.lft.to/lastmile_qr_scan"}, "fusion_lon": 0.0, "lon": -77.0723805, "type": "electric_scooter", "fusion_lat": 0.0, "name": "c5023ed2f600f15f92acfd06c85284eb"}, {"lat": 38.88609816666666, "bike_id": "01723b792484d40bafb33f2c3a5f7d60", "is_reserved": 0, "is_disabled": 0, "rental_uris": {"android": "https://dc.lft.to/lastmile_qr_scan", "ios": "https://dc.lft.to/lastmile_qr_scan"}, "fusion_lon": 0.0, "lon": -77.01749633333333, "type": "electric_scooter", "fusion_lat": 0.0, "name": "01723b792484d40bafb33f2c3a5f7d60"}, {"lat": 38.91557383333333, "bike_id": "e1fdb5ef082f50f691ff2df4f4a7a8d4", "is_reserved": 0, "is_disabled": 0, "rental_uris": {"android": "https://dc.lft.to/lastmile_qr_scan", "ios": "https://dc.lft.to/lastmile_qr_scan"}, "fusion_lon": 0.0, "lon": -77.0119195, "type": "electric_scooter", "fusion_lat": 0.0, "name": "e1fdb5ef082f50f691ff2df4f4a7a8d4"}, {"lat": 38.863622666666664, "bike_id": "cc01f41c76c367d4686bce09c7a4043d", "is_reserved": 0, "is_disabled": 0, "rental_uris": {"android": "https://dc.lft.to/lastmile_qr_scan", "ios": "https://dc.lft.to/lastmile_qr_scan"}, "fusion_lon": 0.0, "lon": -76.99059483333333, "type": "electric_scooter", "fusion_lat": 0.0, "name": "cc01f41c76c367d4686bce09c7a4043d"}, {"lat": 38.89390616666667, "bike_id": "f22055f8b6ebaee2e83e81c279e0d661", "is_reserved": 0, "is_disabled": 0, "rental_uris": {"android": "https://dc.lft.to/lastmile_qr_scan", "ios": "https://dc.lft.to/lastmile_qr_scan"}, "fusion_lon": 0.0, "lon": -76.95018016666667, "type": "electric_scooter", "fusion_lat": 0.0, "name": "f22055f8b6ebaee2e83e81c279e0d661"}, {"lat": 38.928267, "bike_id": "483620c5a7a7ebccb4b0bf9ad24bb893", "is_reserved": 0, "is_disabled": 0, "rental_uris": {"android": "https://dc.lft.to/lastmile_qr_scan", "ios": "https://dc.lft.to/lastmile_qr_scan"}, "fusion_lon": 0.0, "lon": -77.05442333333333, "type": "electric_scooter", "fusion_lat": 0.0, "name": "483620c5a7a7ebccb4b0bf9ad24bb893"}, {"lat": 38.94503266666667, "bike_id": "75459f06ce90319ac9d45151fa4a1b29", "is_reserved": 0, "is_disabled": 0, "rental_uris": {"android": "https://dc.lft.to/lastmile_qr_scan", "ios": "https://dc.lft.to/lastmile_qr_scan"}, "fusion_lon": 0.0, "lon": -77.03866233333333, "type": "electric_scooter", "fusion_lat": 0.0, "name": "75459f06ce90319ac9d45151fa4a1b29"}, {"lat": 38.896029666666664, "bike_id": "3306d3016eeca59ea6798d36bb5f26a5", "is_reserved": 0, "is_disabled": 0, "rental_uris": {"android": "https://dc.lft.to/lastmile_qr_scan", "ios": "https://dc.lft.to/lastmile_qr_scan"}, "fusion_lon": 0.0, "lon": -77.02220083333333, "type": "electric_scooter", "fusion_lat": 0.0, "name": "3306d3016eeca59ea6798d36bb5f26a5"}, {"lat": 38.904274, "bike_id": "0616dcf586ba1abfdc8a2c71322bc583", "is_reserved": 0, "is_disabled": 0, "rental_uris": {"android": "https://dc.lft.to/lastmile_qr_scan", "ios": "https://dc.lft.to/lastmile_qr_scan"}, "fusion_lon": 0.0, "lon": -77.03457766666666, "type": "electric_scooter", "fusion_lat": 0.0, "name": "0616dcf586ba1abfdc8a2c71322bc583"}, {"lat": 38.895495333333336, "bike_id": "8b9a92ca3e192a444051301e1e6d926f", "is_reserved": 0, "is_disabled": 0, "rental_uris": {"android": "https://dc.lft.to/lastmile_qr_scan", "ios": "https://dc.lft.to/lastmile_qr_scan"}, "fusion_lon": 0.0, "lon": -76.94874483333334, "type": "electric_scooter", "fusion_lat": 0.0, "name": "8b9a92ca3e192a444051301e1e6d926f"}, {"lat": 38.867037833333335, "bike_id": "6d3557239e0c3dba283c72c3fe48955f", "is_reserved": 0, "is_disabled": 0, "rental_uris": {"android": "https://dc.lft.to/lastmile_qr_scan", "ios": "https://dc.lft.to/lastmile_qr_scan"}, "fusion_lon": 0.0, "lon": -76.98710933333334, "type": "electric_scooter", "fusion_lat": 0.0, "name": "6d3557239e0c3dba283c72c3fe48955f"}, {"lat": 38.92814033333333, "bike_id": "de955a492387baaab2e65b0ca55a6ba0", "is_reserved": 0, "is_disabled": 0, "rental_uris": {"android": "https://dc.lft.to/lastmile_qr_scan", "ios": "https://dc.lft.to/lastmile_qr_scan"}, "fusion_lon": 0.0, "lon": -77.05396766666667, "type": "electric_scooter", "fusion_lat": 0.0, "name": "de955a492387baaab2e65b0ca55a6ba0"}, {"lat": 38.907767666666665, "bike_id": "3336be8c9256bf8b00e1a63a81f3682e", "is_reserved": 0, "is_disabled": 0, "rental_uris": {"android": "https://dc.lft.to/lastmile_qr_scan", "ios": "https://dc.lft.to/lastmile_qr_scan"}, "fusion_lon": 0.0, "lon": -76.99708666666666, "type": "electric_scooter", "fusion_lat": 0.0, "name": "3336be8c9256bf8b00e1a63a81f3682e"}, {"lat": 38.81262816666667, "bike_id": "a7d90540758440276ed44774865d909b", "is_reserved": 0, "is_disabled": 0, "rental_uris": {"android": "https://dc.lft.to/lastmile_qr_scan", "ios": "https://dc.lft.to/lastmile_qr_scan"}, "fusion_lon": 0.0, "lon": -77.11233416666667, "type": "electric_bike", "fusion_lat": 0.0, "name": "a7d90540758440276ed44774865d909b"}, {"lat": 38.8877195, "bike_id": "b7f436caed28bd2c5f2b52b9b7144a75", "is_reserved": 0, "is_disabled": 0, "rental_uris": {"android": "https://dc.lft.to/lastmile_qr_scan", "ios": "https://dc.lft.to/lastmile_qr_scan"}, "fusion_lon": 0.0, "lon": -76.9976025, "type": "electric_scooter", "fusion_lat": 0.0, "name": "b7f436caed28bd2c5f2b52b9b7144a75"}, {"lat": 38.90347933333334, "bike_id": "efa5432a0c6a05777cabb3f7c7a691f4", "is_reserved": 0, "is_disabled": 0, "rental_uris": {"android": "https://dc.lft.to/lastmile_qr_scan", "ios": "https://dc.lft.to/lastmile_qr_scan"}, "fusion_lon": 0.0, "lon": -77.0021365, "type": "electric_scooter", "fusion_lat": 0.0, "name": "efa5432a0c6a05777cabb3f7c7a691f4"}, {"lat": 38.8863035, "bike_id": "bdb0f092c7224c861f69759e840bc38e", "is_reserved": 0, "is_disabled": 0, "rental_uris": {"android": "https://dc.lft.to/lastmile_qr_scan", "ios": "https://dc.lft.to/lastmile_qr_scan"}, "fusion_lon": 0.0, "lon": -76.94684733333334, "type": "electric_scooter", "fusion_lat": 0.0, "name": "bdb0f092c7224c861f69759e840bc38e"}, {"lat": 38.91778, "bike_id": "975842c70e60c4e720b8439574b17321", "is_reserved": 0, "is_disabled": 0, "rental_uris": {"android": "https://dc.lft.to/lastmile_qr_scan", "ios": "https://dc.lft.to/lastmile_qr_scan"}, "fusion_lon": 0.0, "lon": -77.04100233333334, "type": "electric_scooter", "fusion_lat": 0.0, "name": "975842c70e60c4e720b8439574b17321"}, {"lat": 38.905444333333335, "bike_id": "5649c36806e95fb2773fe1cb412d10f5", "is_reserved": 0, "is_disabled": 0, "rental_uris": {"android": "https://dc.lft.to/lastmile_qr_scan", "ios": "https://dc.lft.to/lastmile_qr_scan"}, "fusion_lon": 0.0, "lon": -77.0331095, "type": "electric_scooter", "fusion_lat": 0.0, "name": "5649c36806e95fb2773fe1cb412d10f5"}, {"lat": 38.98270933333333, "bike_id": "9effefb2a98a6e3a4ccdfa2fe8b2d763", "is_reserved": 0, "is_disabled": 0, "rental_uris": {"android": "https://dc.lft.to/lastmile_qr_scan", "ios": "https://dc.lft.to/lastmile_qr_scan"}, "fusion_lon": 0.0, "lon": -77.01773683333333, "type": "electric_bike", "fusion_lat": 0.0, "name": "9effefb2a98a6e3a4ccdfa2fe8b2d763"}, {"lat": 38.901362166666665, "bike_id": "471def7201eb0f10a275808cac51f6b4", "is_reserved": 0, "is_disabled": 0, "rental_uris": {"android": "https://dc.lft.to/lastmile_qr_scan", "ios": "https://dc.lft.to/lastmile_qr_scan"}, "fusion_lon": 0.0, "lon": -77.04441983333334, "type": "electric_scooter", "fusion_lat": 0.0, "name": "471def7201eb0f10a275808cac51f6b4"}, {"lat": 38.89373883333333, "bike_id": "c2840ff21ef7fbeea523245f55f69f86", "is_reserved": 0, "is_disabled": 0, "rental_uris": {"android": "https://dc.lft.to/lastmile_qr_scan", "ios": "https://dc.lft.to/lastmile_qr_scan"}, "fusion_lon": 0.0, "lon": -76.941937, "type": "electric_scooter", "fusion_lat": 0.0, "name": "c2840ff21ef7fbeea523245f55f69f86"}, {"lat": 38.917090333333334, "bike_id": "6f2720bb833a0e1967a5212ade6b07a1", "is_reserved": 0, "is_disabled": 0, "rental_uris": {"android": "https://dc.lft.to/lastmile_qr_scan", "ios": "https://dc.lft.to/lastmile_qr_scan"}, "fusion_lon": 0.0, "lon": -77.02893266666666, "type": "electric_scooter", "fusion_lat": 0.0, "name": "6f2720bb833a0e1967a5212ade6b07a1"}, {"lat": 38.91565466666667, "bike_id": "2584f392d8c2c6db7c0f4b862a608866", "is_reserved": 0, "is_disabled": 0, "rental_uris": {"android": "https://dc.lft.to/lastmile_qr_scan", "ios": "https://dc.lft.to/lastmile_qr_scan"}, "fusion_lon": 0.0, "lon": -77.032468, "type": "electric_scooter", "fusion_lat": 0.0, "name": "2584f392d8c2c6db7c0f4b862a608866"}, {"lat": 38.934307, "bike_id": "f6d3215eaabdce824ebc8d82dcadae06", "is_reserved": 0, "is_disabled": 0, "rental_uris": {"android": "https://dc.lft.to/lastmile_qr_scan", "ios": "https://dc.lft.to/lastmile_qr_scan"}, "fusion_lon": 0.0, "lon": -77.0328095, "type": "electric_bike", "fusion_lat": 0.0, "name": "f6d3215eaabdce824ebc8d82dcadae06"}, {"lat": 38.876618666666666, "bike_id": "751b244fa1914f0edc97cc32dac9891e", "is_reserved": 0, "is_disabled": 0, "rental_uris": {"android": "https://dc.lft.to/lastmile_qr_scan", "ios": "https://dc.lft.to/lastmile_qr_scan"}, "fusion_lon": 0.0, "lon": -77.0047075, "type": "electric_scooter", "fusion_lat": 0.0, "name": "751b244fa1914f0edc97cc32dac9891e"}, {"lat": 38.891838666666665, "bike_id": "32aa6199a2f63a64c6a3153f7c9d9d3b", "is_reserved": 0, "is_disabled": 0, "rental_uris": {"android": "https://dc.lft.to/lastmile_qr_scan", "ios": "https://dc.lft.to/lastmile_qr_scan"}, "fusion_lon": 0.0, "lon": -77.0419175, "type": "electric_scooter", "fusion_lat": 0.0, "name": "32aa6199a2f63a64c6a3153f7c9d9d3b"}, {"lat": 38.9234235, "bike_id": "ee24bbf02a9d1c67307eb8a24a31fa48", "is_reserved": 0, "is_disabled": 0, "rental_uris": {"android": "https://dc.lft.to/lastmile_qr_scan", "ios": "https://dc.lft.to/lastmile_qr_scan"}, "fusion_lon": 0.0, "lon": -77.01910116666667, "type": "electric_scooter", "fusion_lat": 0.0, "name": "ee24bbf02a9d1c67307eb8a24a31fa48"}, {"lat": 38.96386, "bike_id": "868b474a49345d6288c3612cb98fd33a", "is_reserved": 0, "is_disabled": 0, "rental_uris": {"android": "https://dc.lft.to/lastmile_qr_scan", "ios": "https://dc.lft.to/lastmile_qr_scan"}, "fusion_lon": 0.0, "lon": -77.03504083333333, "type": "electric_scooter", "fusion_lat": 0.0, "name": "868b474a49345d6288c3612cb98fd33a"}, {"lat": 38.927475, "bike_id": "67e28d78f04703f67387971c8c08a35f", "is_reserved": 0, "is_disabled": 0, "rental_uris": {"android": "https://dc.lft.to/lastmile_qr_scan", "ios": "https://dc.lft.to/lastmile_qr_scan"}, "fusion_lon": 0.0, "lon": -77.03273, "type": "electric_scooter", "fusion_lat": 0.0, "name": "67e28d78f04703f67387971c8c08a35f"}, {"lat": 38.928169833333335, "bike_id": "98f4810e303b8dc1481891027148fdf6", "is_reserved": 0, "is_disabled": 0, "rental_uris": {"android": "https://dc.lft.to/lastmile_qr_scan", "ios": "https://dc.lft.to/lastmile_qr_scan"}, "fusion_lon": 0.0, "lon": -77.0290425, "type": "electric_scooter", "fusion_lat": 0.0, "name": "98f4810e303b8dc1481891027148fdf6"}, {"lat": 38.894942, "bike_id": "bb49b7946ffd4b7d28ef7325cbb54f6f", "is_reserved": 0, "is_disabled": 0, "rental_uris": {"android": "https://dc.lft.to/lastmile_qr_scan", "ios": "https://dc.lft.to/lastmile_qr_scan"}, "fusion_lon": 0.0, "lon": -77.02191966666666, "type": "electric_scooter", "fusion_lat": 0.0, "name": "bb49b7946ffd4b7d28ef7325cbb54f6f"}, {"lat": 38.92062583333333, "bike_id": "291858fbec9e53d2d7005f60877bc906", "is_reserved": 0, "is_disabled": 0, "rental_uris": {"android": "https://dc.lft.to/lastmile_qr_scan", "ios": "https://dc.lft.to/lastmile_qr_scan"}, "fusion_lon": 0.0, "lon": -77.04252666666666, "type": "electric_scooter", "fusion_lat": 0.0, "name": "291858fbec9e53d2d7005f60877bc906"}, {"lat": 38.923566666666666, "bike_id": "838a247cedae9f94bb36bd5336c42b3e", "is_reserved": 0, "is_disabled": 0, "rental_uris": {"android": "https://dc.lft.to/lastmile_qr_scan", "ios": "https://dc.lft.to/lastmile_qr_scan"}, "fusion_lon": 0.0, "lon": -77.0415175, "type": "electric_scooter", "fusion_lat": 0.0, "name": "838a247cedae9f94bb36bd5336c42b3e"}, {"lat": 38.89850466666667, "bike_id": "bbc7a17c667cf780fc8a158f277538f2", "is_reserved": 0, "is_disabled": 0, "rental_uris": {"android": "https://dc.lft.to/lastmile_qr_scan", "ios": "https://dc.lft.to/lastmile_qr_scan"}, "fusion_lon": 0.0, "lon": -77.052983, "type": "electric_bike", "fusion_lat": 0.0, "name": "bbc7a17c667cf780fc8a158f277538f2"}, {"lat": 38.90049233333333, "bike_id": "02c12e2375d073c271fbb712f23aa5fa", "is_reserved": 0, "is_disabled": 0, "rental_uris": {"android": "https://dc.lft.to/lastmile_qr_scan", "ios": "https://dc.lft.to/lastmile_qr_scan"}, "fusion_lon": 0.0, "lon": -76.98286816666666, "type": "electric_scooter", "fusion_lat": 0.0, "name": "02c12e2375d073c271fbb712f23aa5fa"}, {"lat": 38.92387316666667, "bike_id": "f76f341f4bad8dbc3dbe227df102ec6c", "is_reserved": 0, "is_disabled": 0, "rental_uris": {"android": "https://dc.lft.to/lastmile_qr_scan", "ios": "https://dc.lft.to/lastmile_qr_scan"}, "fusion_lon": 0.0, "lon": -77.080376, "type": "electric_scooter", "fusion_lat": 0.0, "name": "f76f341f4bad8dbc3dbe227df102ec6c"}, {"lat": 38.901285, "bike_id": "d90109e77b22657ae28d15e686212bdc", "is_reserved": 0, "is_disabled": 0, "rental_uris": {"android": "https://dc.lft.to/lastmile_qr_scan", "ios": "https://dc.lft.to/lastmile_qr_scan"}, "fusion_lon": 0.0, "lon": -76.99880016666667, "type": "electric_scooter", "fusion_lat": 0.0, "name": "d90109e77b22657ae28d15e686212bdc"}, {"lat": 38.932980666666666, "bike_id": "df3b4aded740d85a8e50b7d39617fc3e", "is_reserved": 0, "is_disabled": 0, "rental_uris": {"android": "https://dc.lft.to/lastmile_qr_scan", "ios": "https://dc.lft.to/lastmile_qr_scan"}, "fusion_lon": 0.0, "lon": -77.02804966666666, "type": "electric_scooter", "fusion_lat": 0.0, "name": "df3b4aded740d85a8e50b7d39617fc3e"}, {"lat": 38.847984833333335, "bike_id": "17374050588d55807ddc11d355d0b1cf", "is_reserved": 0, "is_disabled": 0, "rental_uris": {"android": "https://dc.lft.to/lastmile_qr_scan", "ios": "https://dc.lft.to/lastmile_qr_scan"}, "fusion_lon": 0.0, "lon": -76.967092, "type": "electric_scooter", "fusion_lat": 0.0, "name": "17374050588d55807ddc11d355d0b1cf"}, {"lat": 38.966191, "bike_id": "10b0591bf1bf041a95070a4fd43e9f39", "is_reserved": 0, "is_disabled": 0, "rental_uris": {"android": "https://dc.lft.to/lastmile_qr_scan", "ios": "https://dc.lft.to/lastmile_qr_scan"}, "fusion_lon": 0.0, "lon": -76.944211, "type": "electric_bike", "fusion_lat": 0.0, "name": "10b0591bf1bf041a95070a4fd43e9f39"}, {"lat": 38.905396833333334, "bike_id": "f0cd6554122b2e4e4be9250a2004b63c", "is_reserved": 0, "is_disabled": 0, "rental_uris": {"android": "https://dc.lft.to/lastmile_qr_scan", "ios": "https://dc.lft.to/lastmile_qr_scan"}, "fusion_lon": 0.0, "lon": -77.02200683333334, "type": "electric_scooter", "fusion_lat": 0.0, "name": "f0cd6554122b2e4e4be9250a2004b63c"}, {"lat": 38.90240333333333, "bike_id": "14df34f42823d96f7624d01c7d3ff621", "is_reserved": 0, "is_disabled": 0, "rental_uris": {"android": "https://dc.lft.to/lastmile_qr_scan", "ios": "https://dc.lft.to/lastmile_qr_scan"}, "fusion_lon": 0.0, "lon": -77.0020145, "type": "electric_scooter", "fusion_lat": 0.0, "name": "14df34f42823d96f7624d01c7d3ff621"}, {"lat": 38.94185483333333, "bike_id": "3e29ef9e0008cb51d1bef8b2e0cfcdc1", "is_reserved": 0, "is_disabled": 0, "rental_uris": {"android": "https://dc.lft.to/lastmile_qr_scan", "ios": "https://dc.lft.to/lastmile_qr_scan"}, "fusion_lon": 0.0, "lon": -77.02491483333333, "type": "electric_scooter", "fusion_lat": 0.0, "name": "3e29ef9e0008cb51d1bef8b2e0cfcdc1"}, {"lat": 38.901259, "bike_id": "1aeebfccc28dde99b93f3ec9416d2847", "is_reserved": 0, "is_disabled": 0, "rental_uris": {"android": "https://dc.lft.to/lastmile_qr_scan", "ios": "https://dc.lft.to/lastmile_qr_scan"}, "fusion_lon": 0.0, "lon": -77.05800433333333, "type": "electric_bike", "fusion_lat": 0.0, "name": "1aeebfccc28dde99b93f3ec9416d2847"}, {"lat": 38.92858783333333, "bike_id": "9e90556984b160c19b382c4079456bf7", "is_reserved": 0, "is_disabled": 0, "rental_uris": {"android": "https://dc.lft.to/lastmile_qr_scan", "ios": "https://dc.lft.to/lastmile_qr_scan"}, "fusion_lon": 0.0, "lon": -77.03358216666666, "type": "electric_scooter", "fusion_lat": 0.0, "name": "9e90556984b160c19b382c4079456bf7"}, {"lat": 38.95200633333333, "bike_id": "3308ec25427e4213d0e47ce8b4fbc817", "is_reserved": 0, "is_disabled": 0, "rental_uris": {"android": "https://dc.lft.to/lastmile_qr_scan", "ios": "https://dc.lft.to/lastmile_qr_scan"}, "fusion_lon": 0.0, "lon": -77.0813525, "type": "electric_bike", "fusion_lat": 0.0, "name": "3308ec25427e4213d0e47ce8b4fbc817"}, {"lat": 38.90713233333334, "bike_id": "5091757bb3cc4404d6b341ac1f8d7202", "is_reserved": 0, "is_disabled": 0, "rental_uris": {"android": "https://dc.lft.to/lastmile_qr_scan", "ios": "https://dc.lft.to/lastmile_qr_scan"}, "fusion_lon": 0.0, "lon": -77.05133116666667, "type": "electric_scooter", "fusion_lat": 0.0, "name": "5091757bb3cc4404d6b341ac1f8d7202"}, {"lat": 38.92670183333333, "bike_id": "e5d7fa6c322aeb72103bdafbbc25c315", "is_reserved": 0, "is_disabled": 0, "rental_uris": {"android": "https://dc.lft.to/lastmile_qr_scan", "ios": "https://dc.lft.to/lastmile_qr_scan"}, "fusion_lon": 0.0, "lon": -77.00774666666666, "type": "electric_scooter", "fusion_lat": 0.0, "name": "e5d7fa6c322aeb72103bdafbbc25c315"}, {"lat": 38.926131833333336, "bike_id": "f6dde610f9d8dcb6d38f71797bdb67b7", "is_reserved": 0, "is_disabled": 0, "rental_uris": {"android": "https://dc.lft.to/lastmile_qr_scan", "ios": "https://dc.lft.to/lastmile_qr_scan"}, "fusion_lon": 0.0, "lon": -77.02162166666666, "type": "electric_scooter", "fusion_lat": 0.0, "name": "f6dde610f9d8dcb6d38f71797bdb67b7"}, {"lat": 38.895755, "bike_id": "08ea2c114a4d2a1372acaf658beb3963", "is_reserved": 0, "is_disabled": 0, "rental_uris": {"android": "https://dc.lft.to/lastmile_qr_scan", "ios": "https://dc.lft.to/lastmile_qr_scan"}, "fusion_lon": 0.0, "lon": -77.0321205, "type": "electric_scooter", "fusion_lat": 0.0, "name": "08ea2c114a4d2a1372acaf658beb3963"}, {"lat": 38.90384916666667, "bike_id": "53856ee67122bd1cc7889b0e20dd037c", "is_reserved": 0, "is_disabled": 0, "rental_uris": {"android": "https://dc.lft.to/lastmile_qr_scan", "ios": "https://dc.lft.to/lastmile_qr_scan"}, "fusion_lon": 0.0, "lon": -77.05153283333334, "type": "electric_scooter", "fusion_lat": 0.0, "name": "53856ee67122bd1cc7889b0e20dd037c"}, {"lat": 38.9291075, "bike_id": "44b795ec1ece1a816c98062302850a0f", "is_reserved": 0, "is_disabled": 0, "rental_uris": {"android": "https://dc.lft.to/lastmile_qr_scan", "ios": "https://dc.lft.to/lastmile_qr_scan"}, "fusion_lon": 0.0, "lon": -77.07409733333333, "type": "electric_scooter", "fusion_lat": 0.0, "name": "44b795ec1ece1a816c98062302850a0f"}, {"lat": 38.917910666666664, "bike_id": "5484fdaa1b97e5752dd6571b1b4ab6a0", "is_reserved": 0, "is_disabled": 0, "rental_uris": {"android": "https://dc.lft.to/lastmile_qr_scan", "ios": "https://dc.lft.to/lastmile_qr_scan"}, "fusion_lon": 0.0, "lon": -76.97188166666666, "type": "electric_bike", "fusion_lat": 0.0, "name": "5484fdaa1b97e5752dd6571b1b4ab6a0"}, {"lat": 38.881106333333335, "bike_id": "c70d0b676eb7b8a3dee94e8b0be30119", "is_reserved": 0, "is_disabled": 0, "rental_uris": {"android": "https://dc.lft.to/lastmile_qr_scan", "ios": "https://dc.lft.to/lastmile_qr_scan"}, "fusion_lon": 0.0, "lon": -77.04295416666666, "type": "electric_scooter", "fusion_lat": 0.0, "name": "c70d0b676eb7b8a3dee94e8b0be30119"}, {"lat": 38.86172766666667, "bike_id": "ec289a7590732a3e865d73e8a86e3a35", "is_reserved": 0, "is_disabled": 0, "rental_uris": {"android": "https://dc.lft.to/lastmile_qr_scan", "ios": "https://dc.lft.to/lastmile_qr_scan"}, "fusion_lon": 0.0, "lon": -77.13145716666666, "type": "electric_bike", "fusion_lat": 0.0, "name": "ec289a7590732a3e865d73e8a86e3a35"}, {"lat": 38.923212666666664, "bike_id": "23742b0b345049050f5ca1f3b6e9877f", "is_reserved": 0, "is_disabled": 0, "rental_uris": {"android": "https://dc.lft.to/lastmile_qr_scan", "ios": "https://dc.lft.to/lastmile_qr_scan"}, "fusion_lon": 0.0, "lon": -77.021392, "type": "electric_scooter", "fusion_lat": 0.0, "name": "23742b0b345049050f5ca1f3b6e9877f"}, {"lat": 38.90324233333333, "bike_id": "f9d332f8f78699444360864fb1a3cfb3", "is_reserved": 0, "is_disabled": 0, "rental_uris": {"android": "https://dc.lft.to/lastmile_qr_scan", "ios": "https://dc.lft.to/lastmile_qr_scan"}, "fusion_lon": 0.0, "lon": -77.05182566666667, "type": "electric_scooter", "fusion_lat": 0.0, "name": "f9d332f8f78699444360864fb1a3cfb3"}, {"lat": 38.894681166666665, "bike_id": "37f56d0503d22ff88864c68b028fc0ba", "is_reserved": 0, "is_disabled": 0, "rental_uris": {"android": "https://dc.lft.to/lastmile_qr_scan", "ios": "https://dc.lft.to/lastmile_qr_scan"}, "fusion_lon": 0.0, "lon": -77.03110966666667, "type": "electric_scooter", "fusion_lat": 0.0, "name": "37f56d0503d22ff88864c68b028fc0ba"}, {"lat": 38.9365625, "bike_id": "cd1d4372bc34390aa0c5aa0264991f5c", "is_reserved": 0, "is_disabled": 0, "rental_uris": {"android": "https://dc.lft.to/lastmile_qr_scan", "ios": "https://dc.lft.to/lastmile_qr_scan"}, "fusion_lon": 0.0, "lon": -77.05508283333333, "type": "electric_scooter", "fusion_lat": 0.0, "name": "cd1d4372bc34390aa0c5aa0264991f5c"}, {"lat": 38.92458533333333, "bike_id": "d71e26a2b43dd089d88794e69df63425", "is_reserved": 0, "is_disabled": 0, "rental_uris": {"android": "https://dc.lft.to/lastmile_qr_scan", "ios": "https://dc.lft.to/lastmile_qr_scan"}, "fusion_lon": 0.0, "lon": -76.99911316666666, "type": "electric_scooter", "fusion_lat": 0.0, "name": "d71e26a2b43dd089d88794e69df63425"}, {"lat": 38.90176983333333, "bike_id": "e2dd4933c69eebd87240ccfbf43d76a0", "is_reserved": 0, "is_disabled": 0, "rental_uris": {"android": "https://dc.lft.to/lastmile_qr_scan", "ios": "https://dc.lft.to/lastmile_qr_scan"}, "fusion_lon": 0.0, "lon": -77.04798416666667, "type": "electric_scooter", "fusion_lat": 0.0, "name": "e2dd4933c69eebd87240ccfbf43d76a0"}, {"lat": 38.91553833333333, "bike_id": "7ddf1afc0c18db637dfe6ac3dd5245ab", "is_reserved": 0, "is_disabled": 0, "rental_uris": {"android": "https://dc.lft.to/lastmile_qr_scan", "ios": "https://dc.lft.to/lastmile_qr_scan"}, "fusion_lon": 0.0, "lon": -77.03173683333333, "type": "electric_scooter", "fusion_lat": 0.0, "name": "7ddf1afc0c18db637dfe6ac3dd5245ab"}, {"lat": 38.892261166666664, "bike_id": "0534431ccb93a610570ee0b556de390e", "is_reserved": 0, "is_disabled": 0, "rental_uris": {"android": "https://dc.lft.to/lastmile_qr_scan", "ios": "https://dc.lft.to/lastmile_qr_scan"}, "fusion_lon": 0.0, "lon": -77.04332566666666, "type": "electric_scooter", "fusion_lat": 0.0, "name": "0534431ccb93a610570ee0b556de390e"}, {"lat": 38.89621433333333, "bike_id": "4abead40f82a0ba054f8cfcaeb793afe", "is_reserved": 0, "is_disabled": 0, "rental_uris": {"android": "https://dc.lft.to/lastmile_qr_scan", "ios": "https://dc.lft.to/lastmile_qr_scan"}, "fusion_lon": 0.0, "lon": -77.02226633333333, "type": "electric_scooter", "fusion_lat": 0.0, "name": "4abead40f82a0ba054f8cfcaeb793afe"}, {"lat": 38.921085166666664, "bike_id": "4be5171bd626121ed0a2eba83feaacbf", "is_reserved": 0, "is_disabled": 0, "rental_uris": {"android": "https://dc.lft.to/lastmile_qr_scan", "ios": "https://dc.lft.to/lastmile_qr_scan"}, "fusion_lon": 0.0, "lon": -76.98094083333334, "type": "electric_bike", "fusion_lat": 0.0, "name": "4be5171bd626121ed0a2eba83feaacbf"}, {"lat": 38.91687733333333, "bike_id": "048306c5feff615a110acf18eae4891a", "is_reserved": 0, "is_disabled": 0, "rental_uris": {"android": "https://dc.lft.to/lastmile_qr_scan", "ios": "https://dc.lft.to/lastmile_qr_scan"}, "fusion_lon": 0.0, "lon": -77.03686516666667, "type": "electric_scooter", "fusion_lat": 0.0, "name": "048306c5feff615a110acf18eae4891a"}, {"lat": 38.946302333333335, "bike_id": "cbc0a726c2f00909f59f344666935ea7", "is_reserved": 0, "is_disabled": 0, "rental_uris": {"android": "https://dc.lft.to/lastmile_qr_scan", "ios": "https://dc.lft.to/lastmile_qr_scan"}, "fusion_lon": 0.0, "lon": -77.03264066666667, "type": "electric_scooter", "fusion_lat": 0.0, "name": "cbc0a726c2f00909f59f344666935ea7"}, {"lat": 38.89915116666667, "bike_id": "feef1262d71150f9d993aac68ce5b231", "is_reserved": 0, "is_disabled": 0, "rental_uris": {"android": "https://dc.lft.to/lastmile_qr_scan", "ios": "https://dc.lft.to/lastmile_qr_scan"}, "fusion_lon": 0.0, "lon": -76.93374333333334, "type": "electric_scooter", "fusion_lat": 0.0, "name": "feef1262d71150f9d993aac68ce5b231"}, {"lat": 38.92313683333333, "bike_id": "2f3ddda5120b13ce4f1c3b1cb97cc4d0", "is_reserved": 0, "is_disabled": 0, "rental_uris": {"android": "https://dc.lft.to/lastmile_qr_scan", "ios": "https://dc.lft.to/lastmile_qr_scan"}, "fusion_lon": 0.0, "lon": -77.04279483333333, "type": "electric_scooter", "fusion_lat": 0.0, "name": "2f3ddda5120b13ce4f1c3b1cb97cc4d0"}, {"lat": 38.9019975, "bike_id": "745afc0ed7a4104e7f6e560626196a85", "is_reserved": 0, "is_disabled": 0, "rental_uris": {"android": "https://dc.lft.to/lastmile_qr_scan", "ios": "https://dc.lft.to/lastmile_qr_scan"}, "fusion_lon": 0.0, "lon": -77.04322183333333, "type": "electric_scooter", "fusion_lat": 0.0, "name": "745afc0ed7a4104e7f6e560626196a85"}, {"lat": 38.917746666666666, "bike_id": "abdb4960ac218a9d58c4d00acfbbbc97", "is_reserved": 0, "is_disabled": 0, "rental_uris": {"android": "https://dc.lft.to/lastmile_qr_scan", "ios": "https://dc.lft.to/lastmile_qr_scan"}, "fusion_lon": 0.0, "lon": -77.04095783333334, "type": "electric_scooter", "fusion_lat": 0.0, "name": "abdb4960ac218a9d58c4d00acfbbbc97"}, {"lat": 38.896145, "bike_id": "e22ff5c800011130f17e3b47bc886531", "is_reserved": 0, "is_disabled": 0, "rental_uris": {"android": "https://dc.lft.to/lastmile_qr_scan", "ios": "https://dc.lft.to/lastmile_qr_scan"}, "fusion_lon": 0.0, "lon": -77.02144783333334, "type": "electric_scooter", "fusion_lat": 0.0, "name": "e22ff5c800011130f17e3b47bc886531"}, {"lat": 38.895352333333335, "bike_id": "5480dbb60a41415e733eff8d1a050b00", "is_reserved": 0, "is_disabled": 0, "rental_uris": {"android": "https://dc.lft.to/lastmile_qr_scan", "ios": "https://dc.lft.to/lastmile_qr_scan"}, "fusion_lon": 0.0, "lon": -77.04929283333334, "type": "electric_scooter", "fusion_lat": 0.0, "name": "5480dbb60a41415e733eff8d1a050b00"}, {"lat": 38.8718255, "bike_id": "0efe8c47ab46fcc6cd43a0195a0285fa", "is_reserved": 0, "is_disabled": 0, "rental_uris": {"android": "https://dc.lft.to/lastmile_qr_scan", "ios": "https://dc.lft.to/lastmile_qr_scan"}, "fusion_lon": 0.0, "lon": -77.01145116666666, "type": "electric_scooter", "fusion_lat": 0.0, "name": "0efe8c47ab46fcc6cd43a0195a0285fa"}, {"lat": 38.87472433333333, "bike_id": "15590744939b93325b32076e1e64b2af", "is_reserved": 0, "is_disabled": 0, "rental_uris": {"android": "https://dc.lft.to/lastmile_qr_scan", "ios": "https://dc.lft.to/lastmile_qr_scan"}, "fusion_lon": 0.0, "lon": -77.00506283333333, "type": "electric_scooter", "fusion_lat": 0.0, "name": "15590744939b93325b32076e1e64b2af"}, {"lat": 38.886163, "bike_id": "15e2ce3e959da6ba94f6e2f45d88054d", "is_reserved": 0, "is_disabled": 0, "rental_uris": {"android": "https://dc.lft.to/lastmile_qr_scan", "ios": "https://dc.lft.to/lastmile_qr_scan"}, "fusion_lon": 0.0, "lon": -77.003513, "type": "electric_scooter", "fusion_lat": 0.0, "name": "15e2ce3e959da6ba94f6e2f45d88054d"}, {"lat": 38.973692, "bike_id": "76a807adcba31d4ad2a199dcaa76c692", "is_reserved": 0, "is_disabled": 0, "rental_uris": {"android": "https://dc.lft.to/lastmile_qr_scan", "ios": "https://dc.lft.to/lastmile_qr_scan"}, "fusion_lon": 0.0, "lon": -77.0185215, "type": "electric_scooter", "fusion_lat": 0.0, "name": "76a807adcba31d4ad2a199dcaa76c692"}, {"lat": 38.9167335, "bike_id": "dcf177f3e57abae8fc664d2b92201296", "is_reserved": 0, "is_disabled": 0, "rental_uris": {"android": "https://dc.lft.to/lastmile_qr_scan", "ios": "https://dc.lft.to/lastmile_qr_scan"}, "fusion_lon": 0.0, "lon": -77.0437975, "type": "electric_scooter", "fusion_lat": 0.0, "name": "dcf177f3e57abae8fc664d2b92201296"}, {"lat": 38.9294345, "bike_id": "380971f0b4d756d865be38041bd47df9", "is_reserved": 0, "is_disabled": 0, "rental_uris": {"android": "https://dc.lft.to/lastmile_qr_scan", "ios": "https://dc.lft.to/lastmile_qr_scan"}, "fusion_lon": 0.0, "lon": -77.03779433333334, "type": "electric_bike", "fusion_lat": 0.0, "name": "380971f0b4d756d865be38041bd47df9"}, {"lat": 38.9034395, "bike_id": "8e980d136f49809c29d9d0e49372dd14", "is_reserved": 0, "is_disabled": 0, "rental_uris": {"android": "https://dc.lft.to/lastmile_qr_scan", "ios": "https://dc.lft.to/lastmile_qr_scan"}, "fusion_lon": 0.0, "lon": -77.03199033333334, "type": "electric_scooter", "fusion_lat": 0.0, "name": "8e980d136f49809c29d9d0e49372dd14"}, {"lat": 38.920620666666665, "bike_id": "51fa2c6b5dc9b570ee4bf3c967e50cec", "is_reserved": 0, "is_disabled": 0, "rental_uris": {"android": "https://dc.lft.to/lastmile_qr_scan", "ios": "https://dc.lft.to/lastmile_qr_scan"}, "fusion_lon": 0.0, "lon": -77.03350983333333, "type": "electric_scooter", "fusion_lat": 0.0, "name": "51fa2c6b5dc9b570ee4bf3c967e50cec"}, {"lat": 38.935652166666664, "bike_id": "5120dfd33824ab85e6cb4acef6708199", "is_reserved": 0, "is_disabled": 0, "rental_uris": {"android": "https://dc.lft.to/lastmile_qr_scan", "ios": "https://dc.lft.to/lastmile_qr_scan"}, "fusion_lon": 0.0, "lon": -77.058199, "type": "electric_scooter", "fusion_lat": 0.0, "name": "5120dfd33824ab85e6cb4acef6708199"}, {"lat": 38.890493, "bike_id": "dd330694d106179b17a76d58d59885de", "is_reserved": 0, "is_disabled": 0, "rental_uris": {"android": "https://dc.lft.to/lastmile_qr_scan", "ios": "https://dc.lft.to/lastmile_qr_scan"}, "fusion_lon": 0.0, "lon": -76.9375055, "type": "electric_scooter", "fusion_lat": 0.0, "name": "dd330694d106179b17a76d58d59885de"}, {"lat": 38.9548015, "bike_id": "ed807a563e4af79ba2da63e08258a799", "is_reserved": 0, "is_disabled": 0, "rental_uris": {"android": "https://dc.lft.to/lastmile_qr_scan", "ios": "https://dc.lft.to/lastmile_qr_scan"}, "fusion_lon": 0.0, "lon": -76.9886355, "type": "electric_bike", "fusion_lat": 0.0, "name": "ed807a563e4af79ba2da63e08258a799"}, {"lat": 38.88373683333333, "bike_id": "5c2ae58c8029adac9b6691e227b62d70", "is_reserved": 0, "is_disabled": 0, "rental_uris": {"android": "https://dc.lft.to/lastmile_qr_scan", "ios": "https://dc.lft.to/lastmile_qr_scan"}, "fusion_lon": 0.0, "lon": -76.99519016666666, "type": "electric_scooter", "fusion_lat": 0.0, "name": "5c2ae58c8029adac9b6691e227b62d70"}, {"lat": 38.87015916666667, "bike_id": "9d819c7f334de241fe0562797a9087b5", "is_reserved": 0, "is_disabled": 0, "rental_uris": {"android": "https://dc.lft.to/lastmile_qr_scan", "ios": "https://dc.lft.to/lastmile_qr_scan"}, "fusion_lon": 0.0, "lon": -76.96022516666666, "type": "electric_bike", "fusion_lat": 0.0, "name": "9d819c7f334de241fe0562797a9087b5"}, {"lat": 38.92876733333333, "bike_id": "4a1dc4bab7a6e89a19388784d6c25611", "is_reserved": 0, "is_disabled": 0, "rental_uris": {"android": "https://dc.lft.to/lastmile_qr_scan", "ios": "https://dc.lft.to/lastmile_qr_scan"}, "fusion_lon": 0.0, "lon": -77.03261183333333, "type": "electric_bike", "fusion_lat": 0.0, "name": "4a1dc4bab7a6e89a19388784d6c25611"}, {"lat": 38.9426305, "bike_id": "255253fba564ac5cdfb13e603e9416b4", "is_reserved": 0, "is_disabled": 0, "rental_uris": {"android": "https://dc.lft.to/lastmile_qr_scan", "ios": "https://dc.lft.to/lastmile_qr_scan"}, "fusion_lon": 0.0, "lon": -77.02841483333333, "type": "electric_bike", "fusion_lat": 0.0, "name": "255253fba564ac5cdfb13e603e9416b4"}, {"lat": 38.884075, "bike_id": "660c3ccd95b7d9db049991606052d67f", "is_reserved": 0, "is_disabled": 0, "rental_uris": {"android": "https://dc.lft.to/lastmile_qr_scan", "ios": "https://dc.lft.to/lastmile_qr_scan"}, "fusion_lon": 0.0, "lon": -76.96057633333334, "type": "electric_bike", "fusion_lat": 0.0, "name": "660c3ccd95b7d9db049991606052d67f"}, {"lat": 38.87142733333334, "bike_id": "92366f6ad37498b0fa3e89108fba8eaf", "is_reserved": 0, "is_disabled": 0, "rental_uris": {"android": "https://dc.lft.to/lastmile_qr_scan", "ios": "https://dc.lft.to/lastmile_qr_scan"}, "fusion_lon": 0.0, "lon": -76.9933015, "type": "electric_scooter", "fusion_lat": 0.0, "name": "92366f6ad37498b0fa3e89108fba8eaf"}, {"lat": 38.91744883333333, "bike_id": "07ff523b2d7d8fc1ae18aa81c9c25935", "is_reserved": 0, "is_disabled": 0, "rental_uris": {"android": "https://dc.lft.to/lastmile_qr_scan", "ios": "https://dc.lft.to/lastmile_qr_scan"}, "fusion_lon": 0.0, "lon": -77.04828416666666, "type": "electric_scooter", "fusion_lat": 0.0, "name": "07ff523b2d7d8fc1ae18aa81c9c25935"}, {"lat": 38.914874166666664, "bike_id": "01ced64b1a68d86e37b980737190440a", "is_reserved": 0, "is_disabled": 0, "rental_uris": {"android": "https://dc.lft.to/lastmile_qr_scan", "ios": "https://dc.lft.to/lastmile_qr_scan"}, "fusion_lon": 0.0, "lon": -77.02551983333333, "type": "electric_scooter", "fusion_lat": 0.0, "name": "01ced64b1a68d86e37b980737190440a"}, {"lat": 38.918225, "bike_id": "65846463515bafe4a546606efa69c6a7", "is_reserved": 0, "is_disabled": 0, "rental_uris": {"android": "https://dc.lft.to/lastmile_qr_scan", "ios": "https://dc.lft.to/lastmile_qr_scan"}, "fusion_lon": 0.0, "lon": -77.04004416666666, "type": "electric_scooter", "fusion_lat": 0.0, "name": "65846463515bafe4a546606efa69c6a7"}, {"lat": 38.8965055, "bike_id": "fd3d61f1b22e704725ce9743ece81012", "is_reserved": 0, "is_disabled": 0, "rental_uris": {"android": "https://dc.lft.to/lastmile_qr_scan", "ios": "https://dc.lft.to/lastmile_qr_scan"}, "fusion_lon": 0.0, "lon": -77.009253, "type": "electric_scooter", "fusion_lat": 0.0, "name": "fd3d61f1b22e704725ce9743ece81012"}, {"lat": 38.91804033333333, "bike_id": "b7a3338a95fa10c1b2ca7e98ebed56ab", "is_reserved": 0, "is_disabled": 0, "rental_uris": {"android": "https://dc.lft.to/lastmile_qr_scan", "ios": "https://dc.lft.to/lastmile_qr_scan"}, "fusion_lon": 0.0, "lon": -77.03208766666667, "type": "electric_scooter", "fusion_lat": 0.0, "name": "b7a3338a95fa10c1b2ca7e98ebed56ab"}, {"lat": 38.91901, "bike_id": "f238375a52e72191c92b395c57d1bcdd", "is_reserved": 0, "is_disabled": 0, "rental_uris": {"android": "https://dc.lft.to/lastmile_qr_scan", "ios": "https://dc.lft.to/lastmile_qr_scan"}, "fusion_lon": 0.0, "lon": -77.02166933333334, "type": "electric_scooter", "fusion_lat": 0.0, "name": "f238375a52e72191c92b395c57d1bcdd"}, {"lat": 38.82914, "bike_id": "e6417ef4896e02e289b55ac027fd3c84", "is_reserved": 0, "is_disabled": 0, "rental_uris": {"android": "https://dc.lft.to/lastmile_qr_scan", "ios": "https://dc.lft.to/lastmile_qr_scan"}, "fusion_lon": 0.0, "lon": -77.00833666666666, "type": "electric_bike", "fusion_lat": 0.0, "name": "e6417ef4896e02e289b55ac027fd3c84"}, {"lat": 38.93094516666667, "bike_id": "0706a64cc5a200d34211a93528f9a0d6", "is_reserved": 0, "is_disabled": 0, "rental_uris": {"android": "https://dc.lft.to/lastmile_qr_scan", "ios": "https://dc.lft.to/lastmile_qr_scan"}, "fusion_lon": 0.0, "lon": -77.03822316666667, "type": "electric_scooter", "fusion_lat": 0.0, "name": "0706a64cc5a200d34211a93528f9a0d6"}, {"lat": 38.9480495, "bike_id": "e00c25dd15b5e47729e0f3a3d5b86c94", "is_reserved": 0, "is_disabled": 0, "rental_uris": {"android": "https://dc.lft.to/lastmile_qr_scan", "ios": "https://dc.lft.to/lastmile_qr_scan"}, "fusion_lon": 0.0, "lon": -77.07888983333333, "type": "electric_scooter", "fusion_lat": 0.0, "name": "e00c25dd15b5e47729e0f3a3d5b86c94"}, {"lat": 38.903470166666665, "bike_id": "c73b40d088e25b47d2c489587119b138", "is_reserved": 0, "is_disabled": 0, "rental_uris": {"android": "https://dc.lft.to/lastmile_qr_scan", "ios": "https://dc.lft.to/lastmile_qr_scan"}, "fusion_lon": 0.0, "lon": -77.00913166666666, "type": "electric_scooter", "fusion_lat": 0.0, "name": "c73b40d088e25b47d2c489587119b138"}, {"lat": 38.88706116666667, "bike_id": "e7e0e43ed3b0f16d5ebaf69b828868ab", "is_reserved": 0, "is_disabled": 0, "rental_uris": {"android": "https://dc.lft.to/lastmile_qr_scan", "ios": "https://dc.lft.to/lastmile_qr_scan"}, "fusion_lon": 0.0, "lon": -77.01366733333333, "type": "electric_scooter", "fusion_lat": 0.0, "name": "e7e0e43ed3b0f16d5ebaf69b828868ab"}, {"lat": 38.8569095, "bike_id": "6e3891ee5940ac1ac056be719a7d1714", "is_reserved": 0, "is_disabled": 0, "rental_uris": {"android": "https://dc.lft.to/lastmile_qr_scan", "ios": "https://dc.lft.to/lastmile_qr_scan"}, "fusion_lon": 0.0, "lon": -76.99599116666667, "type": "electric_scooter", "fusion_lat": 0.0, "name": "6e3891ee5940ac1ac056be719a7d1714"}, {"lat": 38.907739666666664, "bike_id": "bea61ea589402942220863410a21d358", "is_reserved": 0, "is_disabled": 0, "rental_uris": {"android": "https://dc.lft.to/lastmile_qr_scan", "ios": "https://dc.lft.to/lastmile_qr_scan"}, "fusion_lon": 0.0, "lon": -77.0014565, "type": "electric_scooter", "fusion_lat": 0.0, "name": "bea61ea589402942220863410a21d358"}, {"lat": 38.919521833333334, "bike_id": "fd43311a768285690d9748743d41b191", "is_reserved": 0, "is_disabled": 0, "rental_uris": {"android": "https://dc.lft.to/lastmile_qr_scan", "ios": "https://dc.lft.to/lastmile_qr_scan"}, "fusion_lon": 0.0, "lon": -77.07975666666667, "type": "electric_scooter", "fusion_lat": 0.0, "name": "fd43311a768285690d9748743d41b191"}, {"lat": 38.929829, "bike_id": "2794af84b3b946551b7ceae6be49aabb", "is_reserved": 0, "is_disabled": 0, "rental_uris": {"android": "https://dc.lft.to/lastmile_qr_scan", "ios": "https://dc.lft.to/lastmile_qr_scan"}, "fusion_lon": 0.0, "lon": -77.03229283333333, "type": "electric_scooter", "fusion_lat": 0.0, "name": "2794af84b3b946551b7ceae6be49aabb"}, {"lat": 38.939383, "bike_id": "caba68fffbfd8265e91a4684abe71c00", "is_reserved": 0, "is_disabled": 0, "rental_uris": {"android": "https://dc.lft.to/lastmile_qr_scan", "ios": "https://dc.lft.to/lastmile_qr_scan"}, "fusion_lon": 0.0, "lon": -77.03597333333333, "type": "electric_scooter", "fusion_lat": 0.0, "name": "caba68fffbfd8265e91a4684abe71c00"}, {"lat": 38.90524166666667, "bike_id": "03de30aa41805e823cc6e7f3922d195c", "is_reserved": 0, "is_disabled": 0, "rental_uris": {"android": "https://dc.lft.to/lastmile_qr_scan", "ios": "https://dc.lft.to/lastmile_qr_scan"}, "fusion_lon": 0.0, "lon": -76.98300933333333, "type": "electric_scooter", "fusion_lat": 0.0, "name": "03de30aa41805e823cc6e7f3922d195c"}, {"lat": 38.92328533333333, "bike_id": "6dd86e8f805ff2279605237b6c8caef5", "is_reserved": 0, "is_disabled": 0, "rental_uris": {"android": "https://dc.lft.to/lastmile_qr_scan", "ios": "https://dc.lft.to/lastmile_qr_scan"}, "fusion_lon": 0.0, "lon": -77.043112, "type": "electric_scooter", "fusion_lat": 0.0, "name": "6dd86e8f805ff2279605237b6c8caef5"}, {"lat": 38.92681983333333, "bike_id": "09c852e3d97923b8dc64ec8d89fc12d4", "is_reserved": 0, "is_disabled": 0, "rental_uris": {"android": "https://dc.lft.to/lastmile_qr_scan", "ios": "https://dc.lft.to/lastmile_qr_scan"}, "fusion_lon": 0.0, "lon": -77.0299375, "type": "electric_scooter", "fusion_lat": 0.0, "name": "09c852e3d97923b8dc64ec8d89fc12d4"}, {"lat": 38.925263, "bike_id": "0d7911897f91f93661fd28b8571cdfe3", "is_reserved": 0, "is_disabled": 0, "rental_uris": {"android": "https://dc.lft.to/lastmile_qr_scan", "ios": "https://dc.lft.to/lastmile_qr_scan"}, "fusion_lon": 0.0, "lon": -77.03847983333333, "type": "electric_scooter", "fusion_lat": 0.0, "name": "0d7911897f91f93661fd28b8571cdfe3"}, {"lat": 38.88119616666667, "bike_id": "078fa31950a14bf7f22b2b1f2eddd163", "is_reserved": 0, "is_disabled": 0, "rental_uris": {"android": "https://dc.lft.to/lastmile_qr_scan", "ios": "https://dc.lft.to/lastmile_qr_scan"}, "fusion_lon": 0.0, "lon": -77.01406616666667, "type": "electric_scooter", "fusion_lat": 0.0, "name": "078fa31950a14bf7f22b2b1f2eddd163"}, {"lat": 38.88632466666667, "bike_id": "0ca9e90358e78c1bf271432a08f2d278", "is_reserved": 0, "is_disabled": 0, "rental_uris": {"android": "https://dc.lft.to/lastmile_qr_scan", "ios": "https://dc.lft.to/lastmile_qr_scan"}, "fusion_lon": 0.0, "lon": -76.99610283333334, "type": "electric_scooter", "fusion_lat": 0.0, "name": "0ca9e90358e78c1bf271432a08f2d278"}, {"lat": 38.9524635, "bike_id": "15cdb8bbcaa304a97e7ae39f72b2f5ce", "is_reserved": 0, "is_disabled": 0, "rental_uris": {"android": "https://dc.lft.to/lastmile_qr_scan", "ios": "https://dc.lft.to/lastmile_qr_scan"}, "fusion_lon": 0.0, "lon": -76.97670266666667, "type": "electric_bike", "fusion_lat": 0.0, "name": "15cdb8bbcaa304a97e7ae39f72b2f5ce"}, {"lat": 38.93200816666667, "bike_id": "94e9c177824624e06f3c2b652de4e622", "is_reserved": 0, "is_disabled": 0, "rental_uris": {"android": "https://dc.lft.to/lastmile_qr_scan", "ios": "https://dc.lft.to/lastmile_qr_scan"}, "fusion_lon": 0.0, "lon": -77.03857016666667, "type": "electric_scooter", "fusion_lat": 0.0, "name": "94e9c177824624e06f3c2b652de4e622"}, {"lat": 38.83610916666667, "bike_id": "f2ca1958a3286a951d5884620d7b6674", "is_reserved": 0, "is_disabled": 0, "rental_uris": {"android": "https://dc.lft.to/lastmile_qr_scan", "ios": "https://dc.lft.to/lastmile_qr_scan"}, "fusion_lon": 0.0, "lon": -77.00383866666667, "type": "electric_bike", "fusion_lat": 0.0, "name": "f2ca1958a3286a951d5884620d7b6674"}, {"lat": 38.902835333333336, "bike_id": "ff4cc57edc66409990230d1a8e685fb9", "is_reserved": 0, "is_disabled": 0, "rental_uris": {"android": "https://dc.lft.to/lastmile_qr_scan", "ios": "https://dc.lft.to/lastmile_qr_scan"}, "fusion_lon": 0.0, "lon": -76.981913, "type": "electric_scooter", "fusion_lat": 0.0, "name": "ff4cc57edc66409990230d1a8e685fb9"}, {"lat": 38.924801333333335, "bike_id": "9c7690694924c603c3fd77752555d3ac", "is_reserved": 0, "is_disabled": 0, "rental_uris": {"android": "https://dc.lft.to/lastmile_qr_scan", "ios": "https://dc.lft.to/lastmile_qr_scan"}, "fusion_lon": 0.0, "lon": -77.02560683333333, "type": "electric_scooter", "fusion_lat": 0.0, "name": "9c7690694924c603c3fd77752555d3ac"}, {"lat": 38.9240845, "bike_id": "ceb7f62ec9ed35e4e1820cb0633a08e6", "is_reserved": 0, "is_disabled": 0, "rental_uris": {"android": "https://dc.lft.to/lastmile_qr_scan", "ios": "https://dc.lft.to/lastmile_qr_scan"}, "fusion_lon": 0.0, "lon": -77.0254575, "type": "electric_scooter", "fusion_lat": 0.0, "name": "ceb7f62ec9ed35e4e1820cb0633a08e6"}, {"lat": 38.902321666666666, "bike_id": "a3eb424476c59108bba97f94db5b520f", "is_reserved": 0, "is_disabled": 0, "rental_uris": {"android": "https://dc.lft.to/lastmile_qr_scan", "ios": "https://dc.lft.to/lastmile_qr_scan"}, "fusion_lon": 0.0, "lon": -77.0590755, "type": "electric_scooter", "fusion_lat": 0.0, "name": "a3eb424476c59108bba97f94db5b520f"}, {"lat": 38.91266866666667, "bike_id": "1f199b8b62a5206b1b0a3fff1fe5cb77", "is_reserved": 0, "is_disabled": 0, "rental_uris": {"android": "https://dc.lft.to/lastmile_qr_scan", "ios": "https://dc.lft.to/lastmile_qr_scan"}, "fusion_lon": 0.0, "lon": -77.02682716666666, "type": "electric_scooter", "fusion_lat": 0.0, "name": "1f199b8b62a5206b1b0a3fff1fe5cb77"}, {"lat": 38.930656166666665, "bike_id": "ccfd3cc825f4da60ab1e1d16eff43aef", "is_reserved": 0, "is_disabled": 0, "rental_uris": {"android": "https://dc.lft.to/lastmile_qr_scan", "ios": "https://dc.lft.to/lastmile_qr_scan"}, "fusion_lon": 0.0, "lon": -77.03960483333333, "type": "electric_scooter", "fusion_lat": 0.0, "name": "ccfd3cc825f4da60ab1e1d16eff43aef"}, {"lat": 38.9153545, "bike_id": "d090aec825ff5544821ef528aeb4cabf", "is_reserved": 0, "is_disabled": 0, "rental_uris": {"android": "https://dc.lft.to/lastmile_qr_scan", "ios": "https://dc.lft.to/lastmile_qr_scan"}, "fusion_lon": 0.0, "lon": -76.98347233333334, "type": "electric_scooter", "fusion_lat": 0.0, "name": "d090aec825ff5544821ef528aeb4cabf"}, {"lat": 38.942048166666666, "bike_id": "caa8afb1e63ac5b3483310f605272e27", "is_reserved": 0, "is_disabled": 0, "rental_uris": {"android": "https://dc.lft.to/lastmile_qr_scan", "ios": "https://dc.lft.to/lastmile_qr_scan"}, "fusion_lon": 0.0, "lon": -77.01833816666667, "type": "electric_scooter", "fusion_lat": 0.0, "name": "caa8afb1e63ac5b3483310f605272e27"}, {"lat": 38.98826783333333, "bike_id": "639d9a985c93e705af589d7452bb493d", "is_reserved": 0, "is_disabled": 0, "rental_uris": {"android": "https://dc.lft.to/lastmile_qr_scan", "ios": "https://dc.lft.to/lastmile_qr_scan"}, "fusion_lon": 0.0, "lon": -76.99645883333334, "type": "electric_bike", "fusion_lat": 0.0, "name": "639d9a985c93e705af589d7452bb493d"}, {"lat": 38.918255333333335, "bike_id": "6ddd404ea00f25146c8f561cfd5a191b", "is_reserved": 0, "is_disabled": 0, "rental_uris": {"android": "https://dc.lft.to/lastmile_qr_scan", "ios": "https://dc.lft.to/lastmile_qr_scan"}, "fusion_lon": 0.0, "lon": -77.0390465, "type": "electric_scooter", "fusion_lat": 0.0, "name": "6ddd404ea00f25146c8f561cfd5a191b"}, {"lat": 38.9192795, "bike_id": "064fdcb7bf37749eb1839c37243d54b5", "is_reserved": 0, "is_disabled": 0, "rental_uris": {"android": "https://dc.lft.to/lastmile_qr_scan", "ios": "https://dc.lft.to/lastmile_qr_scan"}, "fusion_lon": 0.0, "lon": -77.02521633333333, "type": "electric_scooter", "fusion_lat": 0.0, "name": "064fdcb7bf37749eb1839c37243d54b5"}, {"lat": 38.890014, "bike_id": "7a308212ce58ffcfb13d79e4af9c79cb", "is_reserved": 0, "is_disabled": 0, "rental_uris": {"android": "https://dc.lft.to/lastmile_qr_scan", "ios": "https://dc.lft.to/lastmile_qr_scan"}, "fusion_lon": 0.0, "lon": -77.04898233333333, "type": "electric_scooter", "fusion_lat": 0.0, "name": "7a308212ce58ffcfb13d79e4af9c79cb"}, {"lat": 38.92682966666667, "bike_id": "e6c7412e0f11f3e1a27009928f0585eb", "is_reserved": 0, "is_disabled": 0, "rental_uris": {"android": "https://dc.lft.to/lastmile_qr_scan", "ios": "https://dc.lft.to/lastmile_qr_scan"}, "fusion_lon": 0.0, "lon": -77.02672083333333, "type": "electric_scooter", "fusion_lat": 0.0, "name": "e6c7412e0f11f3e1a27009928f0585eb"}, {"lat": 38.90357383333333, "bike_id": "73c2f8d8dbb89d53f1db054ae925b29b", "is_reserved": 0, "is_disabled": 0, "rental_uris": {"android": "https://dc.lft.to/lastmile_qr_scan", "ios": "https://dc.lft.to/lastmile_qr_scan"}, "fusion_lon": 0.0, "lon": -77.05231, "type": "electric_scooter", "fusion_lat": 0.0, "name": "73c2f8d8dbb89d53f1db054ae925b29b"}, {"lat": 38.907509166666664, "bike_id": "34a47549d0b61ce6c491b8fdf1f6c77f", "is_reserved": 0, "is_disabled": 0, "rental_uris": {"android": "https://dc.lft.to/lastmile_qr_scan", "ios": "https://dc.lft.to/lastmile_qr_scan"}, "fusion_lon": 0.0, "lon": -77.04334483333334, "type": "electric_scooter", "fusion_lat": 0.0, "name": "34a47549d0b61ce6c491b8fdf1f6c77f"}, {"lat": 38.936750333333336, "bike_id": "51c59f7aea0a44e001942c1a721b9459", "is_reserved": 0, "is_disabled": 0, "rental_uris": {"android": "https://dc.lft.to/lastmile_qr_scan", "ios": "https://dc.lft.to/lastmile_qr_scan"}, "fusion_lon": 0.0, "lon": -77.03596333333333, "type": "electric_scooter", "fusion_lat": 0.0, "name": "51c59f7aea0a44e001942c1a721b9459"}, {"lat": 38.9056775, "bike_id": "7c6ba2c67e489092749804c5a4da30e8", "is_reserved": 0, "is_disabled": 0, "rental_uris": {"android": "https://dc.lft.to/lastmile_qr_scan", "ios": "https://dc.lft.to/lastmile_qr_scan"}, "fusion_lon": 0.0, "lon": -77.03627283333333, "type": "electric_scooter", "fusion_lat": 0.0, "name": "7c6ba2c67e489092749804c5a4da30e8"}, {"lat": 38.906815, "bike_id": "497a2c6b142370365eebb78f8f0b27c1", "is_reserved": 0, "is_disabled": 0, "rental_uris": {"android": "https://dc.lft.to/lastmile_qr_scan", "ios": "https://dc.lft.to/lastmile_qr_scan"}, "fusion_lon": 0.0, "lon": -77.03845416666667, "type": "electric_scooter", "fusion_lat": 0.0, "name": "497a2c6b142370365eebb78f8f0b27c1"}, {"lat": 38.88704116666667, "bike_id": "67f5f428fdd0bc04bf37dc1580f077cf", "is_reserved": 0, "is_disabled": 0, "rental_uris": {"android": "https://dc.lft.to/lastmile_qr_scan", "ios": "https://dc.lft.to/lastmile_qr_scan"}, "fusion_lon": 0.0, "lon": -76.99610966666667, "type": "electric_scooter", "fusion_lat": 0.0, "name": "67f5f428fdd0bc04bf37dc1580f077cf"}, {"lat": 38.93489183333333, "bike_id": "ebdaf49deaf1b23936b51d0116d5ef7f", "is_reserved": 0, "is_disabled": 0, "rental_uris": {"android": "https://dc.lft.to/lastmile_qr_scan", "ios": "https://dc.lft.to/lastmile_qr_scan"}, "fusion_lon": 0.0, "lon": -77.072747, "type": "electric_scooter", "fusion_lat": 0.0, "name": "ebdaf49deaf1b23936b51d0116d5ef7f"}, {"lat": 38.92031383333333, "bike_id": "e7582cf0254263b9343303bc6c03a231", "is_reserved": 0, "is_disabled": 0, "rental_uris": {"android": "https://dc.lft.to/lastmile_qr_scan", "ios": "https://dc.lft.to/lastmile_qr_scan"}, "fusion_lon": 0.0, "lon": -77.07148466666666, "type": "electric_scooter", "fusion_lat": 0.0, "name": "e7582cf0254263b9343303bc6c03a231"}, {"lat": 38.90973566666667, "bike_id": "29223630dfb6c5b0eeef49ad16787d10", "is_reserved": 0, "is_disabled": 0, "rental_uris": {"android": "https://dc.lft.to/lastmile_qr_scan", "ios": "https://dc.lft.to/lastmile_qr_scan"}, "fusion_lon": 0.0, "lon": -77.024346, "type": "electric_scooter", "fusion_lat": 0.0, "name": "29223630dfb6c5b0eeef49ad16787d10"}, {"lat": 38.919934, "bike_id": "555ecb09e42adad8875d113b5e872c98", "is_reserved": 0, "is_disabled": 0, "rental_uris": {"android": "https://dc.lft.to/lastmile_qr_scan", "ios": "https://dc.lft.to/lastmile_qr_scan"}, "fusion_lon": 0.0, "lon": -76.973049, "type": "electric_scooter", "fusion_lat": 0.0, "name": "555ecb09e42adad8875d113b5e872c98"}, {"lat": 38.892238, "bike_id": "3cac0bb63550b46f08980f1a1cefd11f", "is_reserved": 0, "is_disabled": 0, "rental_uris": {"android": "https://dc.lft.to/lastmile_qr_scan", "ios": "https://dc.lft.to/lastmile_qr_scan"}, "fusion_lon": 0.0, "lon": -77.04335066666667, "type": "electric_scooter", "fusion_lat": 0.0, "name": "3cac0bb63550b46f08980f1a1cefd11f"}, {"lat": 38.898327, "bike_id": "2887a01a56b1bad957d095e09b4c649d", "is_reserved": 0, "is_disabled": 0, "rental_uris": {"android": "https://dc.lft.to/lastmile_qr_scan", "ios": "https://dc.lft.to/lastmile_qr_scan"}, "fusion_lon": 0.0, "lon": -77.03044616666666, "type": "electric_scooter", "fusion_lat": 0.0, "name": "2887a01a56b1bad957d095e09b4c649d"}, {"lat": 38.89741466666667, "bike_id": "9bf1bebc1695cb6605119f002a8ce23a", "is_reserved": 0, "is_disabled": 0, "rental_uris": {"android": "https://dc.lft.to/lastmile_qr_scan", "ios": "https://dc.lft.to/lastmile_qr_scan"}, "fusion_lon": 0.0, "lon": -77.02456683333334, "type": "electric_scooter", "fusion_lat": 0.0, "name": "9bf1bebc1695cb6605119f002a8ce23a"}, {"lat": 39.0629375, "bike_id": "0b6dfd439bbe25e68588d1c758b68cf4", "is_reserved": 0, "is_disabled": 0, "rental_uris": {"android": "https://dc.lft.to/lastmile_qr_scan", "ios": "https://dc.lft.to/lastmile_qr_scan"}, "fusion_lon": 0.0, "lon": -77.0497735, "type": "electric_bike", "fusion_lat": 0.0, "name": "0b6dfd439bbe25e68588d1c758b68cf4"}, {"lat": 38.95631566666667, "bike_id": "7feaa49c8fb02efc67a0b3cac6627388", "is_reserved": 0, "is_disabled": 0, "rental_uris": {"android": "https://dc.lft.to/lastmile_qr_scan", "ios": "https://dc.lft.to/lastmile_qr_scan"}, "fusion_lon": 0.0, "lon": -77.03292783333333, "type": "electric_scooter", "fusion_lat": 0.0, "name": "7feaa49c8fb02efc67a0b3cac6627388"}, {"lat": 38.871046166666666, "bike_id": "eebaa29b21b26ade8eb0f0a9e36d4b4e", "is_reserved": 0, "is_disabled": 0, "rental_uris": {"android": "https://dc.lft.to/lastmile_qr_scan", "ios": "https://dc.lft.to/lastmile_qr_scan"}, "fusion_lon": 0.0, "lon": -76.96627183333334, "type": "electric_scooter", "fusion_lat": 0.0, "name": "eebaa29b21b26ade8eb0f0a9e36d4b4e"}, {"lat": 38.896709333333334, "bike_id": "1995bdf72d39caf0a2463239ee3f914d", "is_reserved": 0, "is_disabled": 0, "rental_uris": {"android": "https://dc.lft.to/lastmile_qr_scan", "ios": "https://dc.lft.to/lastmile_qr_scan"}, "fusion_lon": 0.0, "lon": -76.9424615, "type": "electric_scooter", "fusion_lat": 0.0, "name": "1995bdf72d39caf0a2463239ee3f914d"}, {"lat": 38.8323655, "bike_id": "cfd4dce3d9a396364784f322a09e2b96", "is_reserved": 0, "is_disabled": 0, "rental_uris": {"android": "https://dc.lft.to/lastmile_qr_scan", "ios": "https://dc.lft.to/lastmile_qr_scan"}, "fusion_lon": 0.0, "lon": -76.94619666666667, "type": "electric_bike", "fusion_lat": 0.0, "name": "cfd4dce3d9a396364784f322a09e2b96"}, {"lat": 38.906206, "bike_id": "0faa1410131239fc6c47186c29465936", "is_reserved": 0, "is_disabled": 0, "rental_uris": {"android": "https://dc.lft.to/lastmile_qr_scan", "ios": "https://dc.lft.to/lastmile_qr_scan"}, "fusion_lon": 0.0, "lon": -77.043006, "type": "electric_scooter", "fusion_lat": 0.0, "name": "0faa1410131239fc6c47186c29465936"}, {"lat": 38.903307833333336, "bike_id": "fac75bfda8a76bbdfb6e42986c9449ec", "is_reserved": 0, "is_disabled": 0, "rental_uris": {"android": "https://dc.lft.to/lastmile_qr_scan", "ios": "https://dc.lft.to/lastmile_qr_scan"}, "fusion_lon": 0.0, "lon": -77.02710883333333, "type": "electric_scooter", "fusion_lat": 0.0, "name": "fac75bfda8a76bbdfb6e42986c9449ec"}, {"lat": 38.90503433333333, "bike_id": "aac1e79f8ab4dc9b8d1bc8c92946540a", "is_reserved": 0, "is_disabled": 0, "rental_uris": {"android": "https://dc.lft.to/lastmile_qr_scan", "ios": "https://dc.lft.to/lastmile_qr_scan"}, "fusion_lon": 0.0, "lon": -77.00131316666666, "type": "electric_scooter", "fusion_lat": 0.0, "name": "aac1e79f8ab4dc9b8d1bc8c92946540a"}, {"lat": 38.924982166666666, "bike_id": "bad6114a3e39c972f128d2aa079195fa", "is_reserved": 0, "is_disabled": 0, "rental_uris": {"android": "https://dc.lft.to/lastmile_qr_scan", "ios": "https://dc.lft.to/lastmile_qr_scan"}, "fusion_lon": 0.0, "lon": -77.0576385, "type": "electric_scooter", "fusion_lat": 0.0, "name": "bad6114a3e39c972f128d2aa079195fa"}, {"lat": 38.916743333333336, "bike_id": "c9bc26615dd456deea719b6298e92909", "is_reserved": 0, "is_disabled": 0, "rental_uris": {"android": "https://dc.lft.to/lastmile_qr_scan", "ios": "https://dc.lft.to/lastmile_qr_scan"}, "fusion_lon": 0.0, "lon": -77.02713316666667, "type": "electric_scooter", "fusion_lat": 0.0, "name": "c9bc26615dd456deea719b6298e92909"}, {"lat": 38.95640683333333, "bike_id": "4090e0993b024b37304c6bfef0ec853d", "is_reserved": 0, "is_disabled": 0, "rental_uris": {"android": "https://dc.lft.to/lastmile_qr_scan", "ios": "https://dc.lft.to/lastmile_qr_scan"}, "fusion_lon": 0.0, "lon": -76.93884866666667, "type": "electric_bike", "fusion_lat": 0.0, "name": "4090e0993b024b37304c6bfef0ec853d"}, {"lat": 38.923641333333336, "bike_id": "961e0b1a46cb4e7d7b6fedf8de6ca7f4", "is_reserved": 0, "is_disabled": 0, "rental_uris": {"android": "https://dc.lft.to/lastmile_qr_scan", "ios": "https://dc.lft.to/lastmile_qr_scan"}, "fusion_lon": 0.0, "lon": -77.05128233333333, "type": "electric_scooter", "fusion_lat": 0.0, "name": "961e0b1a46cb4e7d7b6fedf8de6ca7f4"}, {"lat": 38.89238733333333, "bike_id": "290fd2d0da5b264a671863e39c54aa45", "is_reserved": 0, "is_disabled": 0, "rental_uris": {"android": "https://dc.lft.to/lastmile_qr_scan", "ios": "https://dc.lft.to/lastmile_qr_scan"}, "fusion_lon": 0.0, "lon": -77.03349766666666, "type": "electric_scooter", "fusion_lat": 0.0, "name": "290fd2d0da5b264a671863e39c54aa45"}, {"lat": 38.87673183333333, "bike_id": "45f652219352f0a71b21b3e07b9354b3", "is_reserved": 0, "is_disabled": 0, "rental_uris": {"android": "https://dc.lft.to/lastmile_qr_scan", "ios": "https://dc.lft.to/lastmile_qr_scan"}, "fusion_lon": 0.0, "lon": -77.00050316666666, "type": "electric_scooter", "fusion_lat": 0.0, "name": "45f652219352f0a71b21b3e07b9354b3"}, {"lat": 38.917609, "bike_id": "61d305c9f99b6c79c7822877abe754b9", "is_reserved": 0, "is_disabled": 0, "rental_uris": {"android": "https://dc.lft.to/lastmile_qr_scan", "ios": "https://dc.lft.to/lastmile_qr_scan"}, "fusion_lon": 0.0, "lon": -77.03988216666667, "type": "electric_scooter", "fusion_lat": 0.0, "name": "61d305c9f99b6c79c7822877abe754b9"}, {"lat": 38.91125133333333, "bike_id": "56c477c1389ba1c211b69441d73be9e6", "is_reserved": 0, "is_disabled": 0, "rental_uris": {"android": "https://dc.lft.to/lastmile_qr_scan", "ios": "https://dc.lft.to/lastmile_qr_scan"}, "fusion_lon": 0.0, "lon": -77.04359983333333, "type": "electric_scooter", "fusion_lat": 0.0, "name": "56c477c1389ba1c211b69441d73be9e6"}, {"lat": 38.9231605, "bike_id": "cd31f573156cf1766ef785ad96c68f8a", "is_reserved": 0, "is_disabled": 0, "rental_uris": {"android": "https://dc.lft.to/lastmile_qr_scan", "ios": "https://dc.lft.to/lastmile_qr_scan"}, "fusion_lon": 0.0, "lon": -77.041529, "type": "electric_scooter", "fusion_lat": 0.0, "name": "cd31f573156cf1766ef785ad96c68f8a"}, {"lat": 38.897502, "bike_id": "4cf4e44e87fa245bcebb67469443acc5", "is_reserved": 0, "is_disabled": 0, "rental_uris": {"android": "https://dc.lft.to/lastmile_qr_scan", "ios": "https://dc.lft.to/lastmile_qr_scan"}, "fusion_lon": 0.0, "lon": -77.0309235, "type": "electric_scooter", "fusion_lat": 0.0, "name": "4cf4e44e87fa245bcebb67469443acc5"}, {"lat": 38.919146166666664, "bike_id": "4a541f29e47a9020940b45d58a43e1df", "is_reserved": 0, "is_disabled": 0, "rental_uris": {"android": "https://dc.lft.to/lastmile_qr_scan", "ios": "https://dc.lft.to/lastmile_qr_scan"}, "fusion_lon": 0.0, "lon": -77.04800483333334, "type": "electric_scooter", "fusion_lat": 0.0, "name": "4a541f29e47a9020940b45d58a43e1df"}, {"lat": 38.89733433333333, "bike_id": "a894c3cf97084e32c02cad8ab7e41a2a", "is_reserved": 0, "is_disabled": 0, "rental_uris": {"android": "https://dc.lft.to/lastmile_qr_scan", "ios": "https://dc.lft.to/lastmile_qr_scan"}, "fusion_lon": 0.0, "lon": -77.00373816666666, "type": "electric_scooter", "fusion_lat": 0.0, "name": "a894c3cf97084e32c02cad8ab7e41a2a"}, {"lat": 38.896381, "bike_id": "3abcf956a53141c917134e4b7c1f8fa4", "is_reserved": 0, "is_disabled": 0, "rental_uris": {"android": "https://dc.lft.to/lastmile_qr_scan", "ios": "https://dc.lft.to/lastmile_qr_scan"}, "fusion_lon": 0.0, "lon": -77.03139533333334, "type": "electric_scooter", "fusion_lat": 0.0, "name": "3abcf956a53141c917134e4b7c1f8fa4"}, {"lat": 38.931655666666664, "bike_id": "0e8fb18041659d3e5b83d4f4ea400262", "is_reserved": 0, "is_disabled": 0, "rental_uris": {"android": "https://dc.lft.to/lastmile_qr_scan", "ios": "https://dc.lft.to/lastmile_qr_scan"}, "fusion_lon": 0.0, "lon": -77.03227066666666, "type": "electric_scooter", "fusion_lat": 0.0, "name": "0e8fb18041659d3e5b83d4f4ea400262"}, {"lat": 38.90398416666667, "bike_id": "71af27befe7ab20158ad486df5737614", "is_reserved": 0, "is_disabled": 0, "rental_uris": {"android": "https://dc.lft.to/lastmile_qr_scan", "ios": "https://dc.lft.to/lastmile_qr_scan"}, "fusion_lon": 0.0, "lon": -77.06756516666667, "type": "electric_scooter", "fusion_lat": 0.0, "name": "71af27befe7ab20158ad486df5737614"}, {"lat": 38.91631483333333, "bike_id": "ecddaaafe772b2b23eb2cf6942f83e2c", "is_reserved": 0, "is_disabled": 0, "rental_uris": {"android": "https://dc.lft.to/lastmile_qr_scan", "ios": "https://dc.lft.to/lastmile_qr_scan"}, "fusion_lon": 0.0, "lon": -77.035992, "type": "electric_scooter", "fusion_lat": 0.0, "name": "ecddaaafe772b2b23eb2cf6942f83e2c"}, {"lat": 38.8534825, "bike_id": "6153aaca79d4899a7a06294d95740612", "is_reserved": 0, "is_disabled": 0, "rental_uris": {"android": "https://dc.lft.to/lastmile_qr_scan", "ios": "https://dc.lft.to/lastmile_qr_scan"}, "fusion_lon": 0.0, "lon": -77.134731, "type": "electric_bike", "fusion_lat": 0.0, "name": "6153aaca79d4899a7a06294d95740612"}, {"lat": 38.93829233333334, "bike_id": "2efc584cd534e4bb5a8e882569c6001e", "is_reserved": 0, "is_disabled": 0, "rental_uris": {"android": "https://dc.lft.to/lastmile_qr_scan", "ios": "https://dc.lft.to/lastmile_qr_scan"}, "fusion_lon": 0.0, "lon": -76.98614883333333, "type": "electric_scooter", "fusion_lat": 0.0, "name": "2efc584cd534e4bb5a8e882569c6001e"}, {"lat": 38.89404583333334, "bike_id": "53bea4d676b885c3ba0a9eb24e3e9f99", "is_reserved": 0, "is_disabled": 0, "rental_uris": {"android": "https://dc.lft.to/lastmile_qr_scan", "ios": "https://dc.lft.to/lastmile_qr_scan"}, "fusion_lon": 0.0, "lon": -77.02145666666667, "type": "electric_scooter", "fusion_lat": 0.0, "name": "53bea4d676b885c3ba0a9eb24e3e9f99"}, {"lat": 38.8803775, "bike_id": "b75fff9a99bf77aa1217583a503d9058", "is_reserved": 0, "is_disabled": 0, "rental_uris": {"android": "https://dc.lft.to/lastmile_qr_scan", "ios": "https://dc.lft.to/lastmile_qr_scan"}, "fusion_lon": 0.0, "lon": -77.011333, "type": "electric_scooter", "fusion_lat": 0.0, "name": "b75fff9a99bf77aa1217583a503d9058"}, {"lat": 38.900381833333334, "bike_id": "d48abd80ce66ea2faea0ed18d2497633", "is_reserved": 0, "is_disabled": 0, "rental_uris": {"android": "https://dc.lft.to/lastmile_qr_scan", "ios": "https://dc.lft.to/lastmile_qr_scan"}, "fusion_lon": 0.0, "lon": -77.00552366666666, "type": "electric_scooter", "fusion_lat": 0.0, "name": "d48abd80ce66ea2faea0ed18d2497633"}, {"lat": 38.89675183333333, "bike_id": "45b438cc89a5d4ea428694833d1899b5", "is_reserved": 0, "is_disabled": 0, "rental_uris": {"android": "https://dc.lft.to/lastmile_qr_scan", "ios": "https://dc.lft.to/lastmile_qr_scan"}, "fusion_lon": 0.0, "lon": -77.03201483333333, "type": "electric_scooter", "fusion_lat": 0.0, "name": "45b438cc89a5d4ea428694833d1899b5"}, {"lat": 38.922734, "bike_id": "b4b87a94adfb7ba503ed7682557b7e9d", "is_reserved": 0, "is_disabled": 0, "rental_uris": {"android": "https://dc.lft.to/lastmile_qr_scan", "ios": "https://dc.lft.to/lastmile_qr_scan"}, "fusion_lon": 0.0, "lon": -77.01981216666667, "type": "electric_scooter", "fusion_lat": 0.0, "name": "b4b87a94adfb7ba503ed7682557b7e9d"}, {"lat": 38.89895716666667, "bike_id": "2c62aa226fe0ab7be92e002438754092", "is_reserved": 0, "is_disabled": 0, "rental_uris": {"android": "https://dc.lft.to/lastmile_qr_scan", "ios": "https://dc.lft.to/lastmile_qr_scan"}, "fusion_lon": 0.0, "lon": -76.93362283333333, "type": "electric_scooter", "fusion_lat": 0.0, "name": "2c62aa226fe0ab7be92e002438754092"}, {"lat": 38.954263833333336, "bike_id": "7023075b22c6f2263aef937c61ab8b7c", "is_reserved": 0, "is_disabled": 0, "rental_uris": {"android": "https://dc.lft.to/lastmile_qr_scan", "ios": "https://dc.lft.to/lastmile_qr_scan"}, "fusion_lon": 0.0, "lon": -77.02767666666666, "type": "electric_scooter", "fusion_lat": 0.0, "name": "7023075b22c6f2263aef937c61ab8b7c"}, {"lat": 38.8923175, "bike_id": "383f44f2a501dff5cbc03cf4c6786c42", "is_reserved": 0, "is_disabled": 0, "rental_uris": {"android": "https://dc.lft.to/lastmile_qr_scan", "ios": "https://dc.lft.to/lastmile_qr_scan"}, "fusion_lon": 0.0, "lon": -77.05001633333333, "type": "electric_scooter", "fusion_lat": 0.0, "name": "383f44f2a501dff5cbc03cf4c6786c42"}, {"lat": 38.9662925, "bike_id": "e8e08fc9a9b54c0dce673b207782b7dc", "is_reserved": 0, "is_disabled": 0, "rental_uris": {"android": "https://dc.lft.to/lastmile_qr_scan", "ios": "https://dc.lft.to/lastmile_qr_scan"}, "fusion_lon": 0.0, "lon": -77.0199935, "type": "electric_scooter", "fusion_lat": 0.0, "name": "e8e08fc9a9b54c0dce673b207782b7dc"}, {"lat": 38.90284316666666, "bike_id": "edc50cbdadbef5c6ea266f958d867686", "is_reserved": 0, "is_disabled": 0, "rental_uris": {"android": "https://dc.lft.to/lastmile_qr_scan", "ios": "https://dc.lft.to/lastmile_qr_scan"}, "fusion_lon": 0.0, "lon": -76.981977, "type": "electric_scooter", "fusion_lat": 0.0, "name": "edc50cbdadbef5c6ea266f958d867686"}, {"lat": 38.8811795, "bike_id": "06dd73d94a8cfa7967f6f6b5c4ff244e", "is_reserved": 0, "is_disabled": 0, "rental_uris": {"android": "https://dc.lft.to/lastmile_qr_scan", "ios": "https://dc.lft.to/lastmile_qr_scan"}, "fusion_lon": 0.0, "lon": -77.016505, "type": "electric_scooter", "fusion_lat": 0.0, "name": "06dd73d94a8cfa7967f6f6b5c4ff244e"}, {"lat": 38.881219, "bike_id": "870114f34628642b455b2f4f81efe958", "is_reserved": 0, "is_disabled": 0, "rental_uris": {"android": "https://dc.lft.to/lastmile_qr_scan", "ios": "https://dc.lft.to/lastmile_qr_scan"}, "fusion_lon": 0.0, "lon": -77.00053216666667, "type": "electric_scooter", "fusion_lat": 0.0, "name": "870114f34628642b455b2f4f81efe958"}, {"lat": 38.859116, "bike_id": "f1f33da74410be59d743bc74bbed4fe9", "is_reserved": 0, "is_disabled": 0, "rental_uris": {"android": "https://dc.lft.to/lastmile_qr_scan", "ios": "https://dc.lft.to/lastmile_qr_scan"}, "fusion_lon": 0.0, "lon": -76.99714066666667, "type": "electric_scooter", "fusion_lat": 0.0, "name": "f1f33da74410be59d743bc74bbed4fe9"}, {"lat": 38.89975183333333, "bike_id": "c919b45f59505a35bb4a4352a19de790", "is_reserved": 0, "is_disabled": 0, "rental_uris": {"android": "https://dc.lft.to/lastmile_qr_scan", "ios": "https://dc.lft.to/lastmile_qr_scan"}, "fusion_lon": 0.0, "lon": -77.02451216666667, "type": "electric_scooter", "fusion_lat": 0.0, "name": "c919b45f59505a35bb4a4352a19de790"}, {"lat": 38.910199666666664, "bike_id": "a1487bac9b9649e1fb39ef9588220441", "is_reserved": 0, "is_disabled": 0, "rental_uris": {"android": "https://dc.lft.to/lastmile_qr_scan", "ios": "https://dc.lft.to/lastmile_qr_scan"}, "fusion_lon": 0.0, "lon": -77.06911266666667, "type": "electric_scooter", "fusion_lat": 0.0, "name": "a1487bac9b9649e1fb39ef9588220441"}, {"lat": 38.91241133333333, "bike_id": "733cb738dbb66e7f36eca2938039a206", "is_reserved": 0, "is_disabled": 0, "rental_uris": {"android": "https://dc.lft.to/lastmile_qr_scan", "ios": "https://dc.lft.to/lastmile_qr_scan"}, "fusion_lon": 0.0, "lon": -77.0091415, "type": "electric_scooter", "fusion_lat": 0.0, "name": "733cb738dbb66e7f36eca2938039a206"}, {"lat": 38.925744, "bike_id": "d49ae3b250970ad8020be2e3984305e5", "is_reserved": 0, "is_disabled": 0, "rental_uris": {"android": "https://dc.lft.to/lastmile_qr_scan", "ios": "https://dc.lft.to/lastmile_qr_scan"}, "fusion_lon": 0.0, "lon": -77.0400705, "type": "electric_scooter", "fusion_lat": 0.0, "name": "d49ae3b250970ad8020be2e3984305e5"}, {"lat": 38.92347866666667, "bike_id": "4f6a381de29421f46071703f480d0deb", "is_reserved": 0, "is_disabled": 0, "rental_uris": {"android": "https://dc.lft.to/lastmile_qr_scan", "ios": "https://dc.lft.to/lastmile_qr_scan"}, "fusion_lon": 0.0, "lon": -77.05121383333334, "type": "electric_scooter", "fusion_lat": 0.0, "name": "4f6a381de29421f46071703f480d0deb"}, {"lat": 38.80229816666667, "bike_id": "7df2228f5c0e83f04c990813a0bce2ef", "is_reserved": 0, "is_disabled": 0, "rental_uris": {"android": "https://dc.lft.to/lastmile_qr_scan", "ios": "https://dc.lft.to/lastmile_qr_scan"}, "fusion_lon": 0.0, "lon": -77.07916033333333, "type": "electric_bike", "fusion_lat": 0.0, "name": "7df2228f5c0e83f04c990813a0bce2ef"}, {"lat": 38.922520666666664, "bike_id": "f26d848b2eb62767e075942fdb8dac8c", "is_reserved": 0, "is_disabled": 0, "rental_uris": {"android": "https://dc.lft.to/lastmile_qr_scan", "ios": "https://dc.lft.to/lastmile_qr_scan"}, "fusion_lon": 0.0, "lon": -77.02099883333334, "type": "electric_scooter", "fusion_lat": 0.0, "name": "f26d848b2eb62767e075942fdb8dac8c"}, {"lat": 38.91704266666667, "bike_id": "b3d4ab40cbd789756216018a178884b8", "is_reserved": 0, "is_disabled": 0, "rental_uris": {"android": "https://dc.lft.to/lastmile_qr_scan", "ios": "https://dc.lft.to/lastmile_qr_scan"}, "fusion_lon": 0.0, "lon": -77.03472133333334, "type": "electric_scooter", "fusion_lat": 0.0, "name": "b3d4ab40cbd789756216018a178884b8"}, {"lat": 38.88688366666667, "bike_id": "df840593a313c0cbe54c8450ec268c7c", "is_reserved": 0, "is_disabled": 0, "rental_uris": {"android": "https://dc.lft.to/lastmile_qr_scan", "ios": "https://dc.lft.to/lastmile_qr_scan"}, "fusion_lon": 0.0, "lon": -77.16087633333333, "type": "electric_bike", "fusion_lat": 0.0, "name": "df840593a313c0cbe54c8450ec268c7c"}, {"lat": 38.866606, "bike_id": "3daf55ef47dc755596c40a9e2ab14b2b", "is_reserved": 0, "is_disabled": 0, "rental_uris": {"android": "https://dc.lft.to/lastmile_qr_scan", "ios": "https://dc.lft.to/lastmile_qr_scan"}, "fusion_lon": 0.0, "lon": -76.9888365, "type": "electric_scooter", "fusion_lat": 0.0, "name": "3daf55ef47dc755596c40a9e2ab14b2b"}, {"lat": 38.89223, "bike_id": "10a1989475179648dd53ebf30ce58062", "is_reserved": 0, "is_disabled": 0, "rental_uris": {"android": "https://dc.lft.to/lastmile_qr_scan", "ios": "https://dc.lft.to/lastmile_qr_scan"}, "fusion_lon": 0.0, "lon": -77.026467, "type": "electric_scooter", "fusion_lat": 0.0, "name": "10a1989475179648dd53ebf30ce58062"}, {"lat": 38.905633, "bike_id": "88b413e9471134fbc635632ddb6e261a", "is_reserved": 0, "is_disabled": 0, "rental_uris": {"android": "https://dc.lft.to/lastmile_qr_scan", "ios": "https://dc.lft.to/lastmile_qr_scan"}, "fusion_lon": 0.0, "lon": -77.02171716666666, "type": "electric_scooter", "fusion_lat": 0.0, "name": "88b413e9471134fbc635632ddb6e261a"}, {"lat": 38.897285833333335, "bike_id": "368fa43d6e362931ca4bcf79b5a17abe", "is_reserved": 0, "is_disabled": 0, "rental_uris": {"android": "https://dc.lft.to/lastmile_qr_scan", "ios": "https://dc.lft.to/lastmile_qr_scan"}, "fusion_lon": 0.0, "lon": -77.044213, "type": "electric_bike", "fusion_lat": 0.0, "name": "368fa43d6e362931ca4bcf79b5a17abe"}, {"lat": 38.898439833333335, "bike_id": "d437864e2a63f8a00f4773e694abb88d", "is_reserved": 0, "is_disabled": 0, "rental_uris": {"android": "https://dc.lft.to/lastmile_qr_scan", "ios": "https://dc.lft.to/lastmile_qr_scan"}, "fusion_lon": 0.0, "lon": -77.043648, "type": "electric_scooter", "fusion_lat": 0.0, "name": "d437864e2a63f8a00f4773e694abb88d"}, {"lat": 38.91931966666667, "bike_id": "0eb45f7ebcc3dc02f957f565774185b5", "is_reserved": 0, "is_disabled": 0, "rental_uris": {"android": "https://dc.lft.to/lastmile_qr_scan", "ios": "https://dc.lft.to/lastmile_qr_scan"}, "fusion_lon": 0.0, "lon": -77.03190566666666, "type": "electric_scooter", "fusion_lat": 0.0, "name": "0eb45f7ebcc3dc02f957f565774185b5"}, {"lat": 38.902677, "bike_id": "166363e03741e704c013145ea4467682", "is_reserved": 0, "is_disabled": 0, "rental_uris": {"android": "https://dc.lft.to/lastmile_qr_scan", "ios": "https://dc.lft.to/lastmile_qr_scan"}, "fusion_lon": 0.0, "lon": -77.01801466666667, "type": "electric_scooter", "fusion_lat": 0.0, "name": "166363e03741e704c013145ea4467682"}, {"lat": 38.89218966666667, "bike_id": "03934777a78572c4323a568a70148cb9", "is_reserved": 0, "is_disabled": 0, "rental_uris": {"android": "https://dc.lft.to/lastmile_qr_scan", "ios": "https://dc.lft.to/lastmile_qr_scan"}, "fusion_lon": 0.0, "lon": -77.03981383333333, "type": "electric_scooter", "fusion_lat": 0.0, "name": "03934777a78572c4323a568a70148cb9"}, {"lat": 38.917156166666665, "bike_id": "f3d0e2076d92b9d9728b696c08b16ac5", "is_reserved": 0, "is_disabled": 0, "rental_uris": {"android": "https://dc.lft.to/lastmile_qr_scan", "ios": "https://dc.lft.to/lastmile_qr_scan"}, "fusion_lon": 0.0, "lon": -77.02764816666667, "type": "electric_scooter", "fusion_lat": 0.0, "name": "f3d0e2076d92b9d9728b696c08b16ac5"}, {"lat": 38.8768135, "bike_id": "c9577ba481c3931db3fd77b7875f40ac", "is_reserved": 0, "is_disabled": 0, "rental_uris": {"android": "https://dc.lft.to/lastmile_qr_scan", "ios": "https://dc.lft.to/lastmile_qr_scan"}, "fusion_lon": 0.0, "lon": -77.01791683333333, "type": "electric_scooter", "fusion_lat": 0.0, "name": "c9577ba481c3931db3fd77b7875f40ac"}, {"lat": 38.9090005, "bike_id": "808cb243206f1c34343e0f133beffbdb", "is_reserved": 0, "is_disabled": 0, "rental_uris": {"android": "https://dc.lft.to/lastmile_qr_scan", "ios": "https://dc.lft.to/lastmile_qr_scan"}, "fusion_lon": 0.0, "lon": -76.99772983333334, "type": "electric_scooter", "fusion_lat": 0.0, "name": "808cb243206f1c34343e0f133beffbdb"}, {"lat": 39.074932833333335, "bike_id": "9f4726fc51511d102fa021f0affcc113", "is_reserved": 0, "is_disabled": 0, "rental_uris": {"android": "https://dc.lft.to/lastmile_qr_scan", "ios": "https://dc.lft.to/lastmile_qr_scan"}, "fusion_lon": 0.0, "lon": -77.11602683333334, "type": "electric_bike", "fusion_lat": 0.0, "name": "9f4726fc51511d102fa021f0affcc113"}, {"lat": 38.902655, "bike_id": "ce7dfa596aedc31e2fd06c146e259aae", "is_reserved": 0, "is_disabled": 0, "rental_uris": {"android": "https://dc.lft.to/lastmile_qr_scan", "ios": "https://dc.lft.to/lastmile_qr_scan"}, "fusion_lon": 0.0, "lon": -77.01770716666667, "type": "electric_scooter", "fusion_lat": 0.0, "name": "ce7dfa596aedc31e2fd06c146e259aae"}, {"lat": 38.911689333333335, "bike_id": "8aab8e2388111164648c395e2a6d6b1c", "is_reserved": 0, "is_disabled": 0, "rental_uris": {"android": "https://dc.lft.to/lastmile_qr_scan", "ios": "https://dc.lft.to/lastmile_qr_scan"}, "fusion_lon": 0.0, "lon": -77.00287366666667, "type": "electric_bike", "fusion_lat": 0.0, "name": "8aab8e2388111164648c395e2a6d6b1c"}, {"lat": 38.92957416666667, "bike_id": "2b4ac50fb8a71fc094e36144bd9bd4df", "is_reserved": 0, "is_disabled": 0, "rental_uris": {"android": "https://dc.lft.to/lastmile_qr_scan", "ios": "https://dc.lft.to/lastmile_qr_scan"}, "fusion_lon": 0.0, "lon": -77.02977083333333, "type": "electric_scooter", "fusion_lat": 0.0, "name": "2b4ac50fb8a71fc094e36144bd9bd4df"}, {"lat": 38.91390366666667, "bike_id": "afe4db9dc1db14b6e6b31c0e5f7e5331", "is_reserved": 0, "is_disabled": 0, "rental_uris": {"android": "https://dc.lft.to/lastmile_qr_scan", "ios": "https://dc.lft.to/lastmile_qr_scan"}, "fusion_lon": 0.0, "lon": -77.01898983333334, "type": "electric_scooter", "fusion_lat": 0.0, "name": "afe4db9dc1db14b6e6b31c0e5f7e5331"}, {"lat": 38.90641516666667, "bike_id": "8dbd4bb97a2d544b8b3291cb46343678", "is_reserved": 0, "is_disabled": 0, "rental_uris": {"android": "https://dc.lft.to/lastmile_qr_scan", "ios": "https://dc.lft.to/lastmile_qr_scan"}, "fusion_lon": 0.0, "lon": -77.0424725, "type": "electric_scooter", "fusion_lat": 0.0, "name": "8dbd4bb97a2d544b8b3291cb46343678"}, {"lat": 38.91699716666667, "bike_id": "37da45dee2c7573cac2b45f8fbac4826", "is_reserved": 0, "is_disabled": 0, "rental_uris": {"android": "https://dc.lft.to/lastmile_qr_scan", "ios": "https://dc.lft.to/lastmile_qr_scan"}, "fusion_lon": 0.0, "lon": -77.03467766666667, "type": "electric_scooter", "fusion_lat": 0.0, "name": "37da45dee2c7573cac2b45f8fbac4826"}, {"lat": 38.9163845, "bike_id": "241f6b868b3db07ee4b3b8ecb3aff6c8", "is_reserved": 0, "is_disabled": 0, "rental_uris": {"android": "https://dc.lft.to/lastmile_qr_scan", "ios": "https://dc.lft.to/lastmile_qr_scan"}, "fusion_lon": 0.0, "lon": -77.0317865, "type": "electric_scooter", "fusion_lat": 0.0, "name": "241f6b868b3db07ee4b3b8ecb3aff6c8"}, {"lat": 38.929876666666665, "bike_id": "3be17c41599aab183c7f3e6c133ed215", "is_reserved": 0, "is_disabled": 0, "rental_uris": {"android": "https://dc.lft.to/lastmile_qr_scan", "ios": "https://dc.lft.to/lastmile_qr_scan"}, "fusion_lon": 0.0, "lon": -77.0324375, "type": "electric_scooter", "fusion_lat": 0.0, "name": "3be17c41599aab183c7f3e6c133ed215"}, {"lat": 38.903666333333334, "bike_id": "cf5e6bdafc6fb44b8edb92e917813547", "is_reserved": 0, "is_disabled": 0, "rental_uris": {"android": "https://dc.lft.to/lastmile_qr_scan", "ios": "https://dc.lft.to/lastmile_qr_scan"}, "fusion_lon": 0.0, "lon": -77.03930166666666, "type": "electric_scooter", "fusion_lat": 0.0, "name": "cf5e6bdafc6fb44b8edb92e917813547"}, {"lat": 38.90165283333333, "bike_id": "8a33fccc5895750d3cbc10b514395a54", "is_reserved": 0, "is_disabled": 0, "rental_uris": {"android": "https://dc.lft.to/lastmile_qr_scan", "ios": "https://dc.lft.to/lastmile_qr_scan"}, "fusion_lon": 0.0, "lon": -77.0468345, "type": "electric_scooter", "fusion_lat": 0.0, "name": "8a33fccc5895750d3cbc10b514395a54"}, {"lat": 38.922472666666664, "bike_id": "5314a78a977f253548dffe66c8b90d4a", "is_reserved": 0, "is_disabled": 0, "rental_uris": {"android": "https://dc.lft.to/lastmile_qr_scan", "ios": "https://dc.lft.to/lastmile_qr_scan"}, "fusion_lon": 0.0, "lon": -77.03030866666667, "type": "electric_scooter", "fusion_lat": 0.0, "name": "5314a78a977f253548dffe66c8b90d4a"}, {"lat": 38.91708966666667, "bike_id": "6efbcd0a63f78dd423ad4e3ad0ef440d", "is_reserved": 0, "is_disabled": 0, "rental_uris": {"android": "https://dc.lft.to/lastmile_qr_scan", "ios": "https://dc.lft.to/lastmile_qr_scan"}, "fusion_lon": 0.0, "lon": -77.04075516666667, "type": "electric_scooter", "fusion_lat": 0.0, "name": "6efbcd0a63f78dd423ad4e3ad0ef440d"}, {"lat": 38.90304483333333, "bike_id": "35efb6cb6db3dc4d9d4021167112d7a3", "is_reserved": 0, "is_disabled": 0, "rental_uris": {"android": "https://dc.lft.to/lastmile_qr_scan", "ios": "https://dc.lft.to/lastmile_qr_scan"}, "fusion_lon": 0.0, "lon": -77.028954, "type": "electric_scooter", "fusion_lat": 0.0, "name": "35efb6cb6db3dc4d9d4021167112d7a3"}, {"lat": 38.932724, "bike_id": "ee06668e288cb8fd9cc1f2caec485816", "is_reserved": 0, "is_disabled": 0, "rental_uris": {"android": "https://dc.lft.to/lastmile_qr_scan", "ios": "https://dc.lft.to/lastmile_qr_scan"}, "fusion_lon": 0.0, "lon": -77.03493266666666, "type": "electric_scooter", "fusion_lat": 0.0, "name": "ee06668e288cb8fd9cc1f2caec485816"}, {"lat": 38.9308425, "bike_id": "00404fc0701b2ad51550455d0867ade6", "is_reserved": 0, "is_disabled": 0, "rental_uris": {"android": "https://dc.lft.to/lastmile_qr_scan", "ios": "https://dc.lft.to/lastmile_qr_scan"}, "fusion_lon": 0.0, "lon": -77.02794883333334, "type": "electric_scooter", "fusion_lat": 0.0, "name": "00404fc0701b2ad51550455d0867ade6"}, {"lat": 38.92406966666667, "bike_id": "66c24600587f2f956c45f2a637b577a3", "is_reserved": 0, "is_disabled": 0, "rental_uris": {"android": "https://dc.lft.to/lastmile_qr_scan", "ios": "https://dc.lft.to/lastmile_qr_scan"}, "fusion_lon": 0.0, "lon": -77.02747183333334, "type": "electric_scooter", "fusion_lat": 0.0, "name": "66c24600587f2f956c45f2a637b577a3"}, {"lat": 38.9235275, "bike_id": "b042b52adaaf7a416465da4fe8c2b384", "is_reserved": 0, "is_disabled": 0, "rental_uris": {"android": "https://dc.lft.to/lastmile_qr_scan", "ios": "https://dc.lft.to/lastmile_qr_scan"}, "fusion_lon": 0.0, "lon": -77.05422416666667, "type": "electric_scooter", "fusion_lat": 0.0, "name": "b042b52adaaf7a416465da4fe8c2b384"}, {"lat": 38.9012555, "bike_id": "0bf0301c8c097180535a9cb6ea17fbc4", "is_reserved": 0, "is_disabled": 0, "rental_uris": {"android": "https://dc.lft.to/lastmile_qr_scan", "ios": "https://dc.lft.to/lastmile_qr_scan"}, "fusion_lon": 0.0, "lon": -77.021895, "type": "electric_scooter", "fusion_lat": 0.0, "name": "0bf0301c8c097180535a9cb6ea17fbc4"}, {"lat": 38.93392166666667, "bike_id": "bb8831328a5e61a4e6168f8f853717cd", "is_reserved": 0, "is_disabled": 0, "rental_uris": {"android": "https://dc.lft.to/lastmile_qr_scan", "ios": "https://dc.lft.to/lastmile_qr_scan"}, "fusion_lon": 0.0, "lon": -77.05744466666667, "type": "electric_scooter", "fusion_lat": 0.0, "name": "bb8831328a5e61a4e6168f8f853717cd"}, {"lat": 38.900340166666666, "bike_id": "7028d607a5f037defc9d434be2c43263", "is_reserved": 0, "is_disabled": 0, "rental_uris": {"android": "https://dc.lft.to/lastmile_qr_scan", "ios": "https://dc.lft.to/lastmile_qr_scan"}, "fusion_lon": 0.0, "lon": -76.99645383333333, "type": "electric_scooter", "fusion_lat": 0.0, "name": "7028d607a5f037defc9d434be2c43263"}, {"lat": 38.93650216666666, "bike_id": "faac7f24a91fa4cab4c1aed598325a17", "is_reserved": 0, "is_disabled": 0, "rental_uris": {"android": "https://dc.lft.to/lastmile_qr_scan", "ios": "https://dc.lft.to/lastmile_qr_scan"}, "fusion_lon": 0.0, "lon": -77.02078016666667, "type": "electric_bike", "fusion_lat": 0.0, "name": "faac7f24a91fa4cab4c1aed598325a17"}, {"lat": 38.97190333333333, "bike_id": "21cf4808b77a27afdb3aacb02964a4ff", "is_reserved": 0, "is_disabled": 0, "rental_uris": {"android": "https://dc.lft.to/lastmile_qr_scan", "ios": "https://dc.lft.to/lastmile_qr_scan"}, "fusion_lon": 0.0, "lon": -76.9938005, "type": "electric_bike", "fusion_lat": 0.0, "name": "21cf4808b77a27afdb3aacb02964a4ff"}, {"lat": 38.895541333333334, "bike_id": "8a6502cc6d8f1245d50328443eafb9a4", "is_reserved": 0, "is_disabled": 0, "rental_uris": {"android": "https://dc.lft.to/lastmile_qr_scan", "ios": "https://dc.lft.to/lastmile_qr_scan"}, "fusion_lon": 0.0, "lon": -76.94876066666667, "type": "electric_scooter", "fusion_lat": 0.0, "name": "8a6502cc6d8f1245d50328443eafb9a4"}, {"lat": 38.92555933333333, "bike_id": "1a58ad3cd0e0888b0d6db44dba783dc5", "is_reserved": 0, "is_disabled": 0, "rental_uris": {"android": "https://dc.lft.to/lastmile_qr_scan", "ios": "https://dc.lft.to/lastmile_qr_scan"}, "fusion_lon": 0.0, "lon": -77.05289066666667, "type": "electric_scooter", "fusion_lat": 0.0, "name": "1a58ad3cd0e0888b0d6db44dba783dc5"}, {"lat": 38.97368766666666, "bike_id": "6e9a1f3bfe371c2d48138b742ec5ed97", "is_reserved": 0, "is_disabled": 0, "rental_uris": {"android": "https://dc.lft.to/lastmile_qr_scan", "ios": "https://dc.lft.to/lastmile_qr_scan"}, "fusion_lon": 0.0, "lon": -77.0186395, "type": "electric_scooter", "fusion_lat": 0.0, "name": "6e9a1f3bfe371c2d48138b742ec5ed97"}, {"lat": 38.9261855, "bike_id": "f098232ddb18eb260fedbbf75be4c3bf", "is_reserved": 0, "is_disabled": 0, "rental_uris": {"android": "https://dc.lft.to/lastmile_qr_scan", "ios": "https://dc.lft.to/lastmile_qr_scan"}, "fusion_lon": 0.0, "lon": -77.07321783333333, "type": "electric_scooter", "fusion_lat": 0.0, "name": "f098232ddb18eb260fedbbf75be4c3bf"}, {"lat": 38.93756466666667, "bike_id": "2789587b5c4728227cf4fc5131098531", "is_reserved": 0, "is_disabled": 0, "rental_uris": {"android": "https://dc.lft.to/lastmile_qr_scan", "ios": "https://dc.lft.to/lastmile_qr_scan"}, "fusion_lon": 0.0, "lon": -77.02487466666666, "type": "electric_scooter", "fusion_lat": 0.0, "name": "2789587b5c4728227cf4fc5131098531"}, {"lat": 38.93893766666667, "bike_id": "04c145870e8bff2ac27f4b2d47695b14", "is_reserved": 0, "is_disabled": 0, "rental_uris": {"android": "https://dc.lft.to/lastmile_qr_scan", "ios": "https://dc.lft.to/lastmile_qr_scan"}, "fusion_lon": 0.0, "lon": -77.03264116666666, "type": "electric_scooter", "fusion_lat": 0.0, "name": "04c145870e8bff2ac27f4b2d47695b14"}, {"lat": 38.94093733333333, "bike_id": "c90eb73fbb7099931cbd5a85869b2d91", "is_reserved": 0, "is_disabled": 0, "rental_uris": {"android": "https://dc.lft.to/lastmile_qr_scan", "ios": "https://dc.lft.to/lastmile_qr_scan"}, "fusion_lon": 0.0, "lon": -77.02317883333333, "type": "electric_scooter", "fusion_lat": 0.0, "name": "c90eb73fbb7099931cbd5a85869b2d91"}, {"lat": 38.893517833333334, "bike_id": "55808bddb84e430ee3a1762c017ada37", "is_reserved": 0, "is_disabled": 0, "rental_uris": {"android": "https://dc.lft.to/lastmile_qr_scan", "ios": "https://dc.lft.to/lastmile_qr_scan"}, "fusion_lon": 0.0, "lon": -77.187415, "type": "electric_bike", "fusion_lat": 0.0, "name": "55808bddb84e430ee3a1762c017ada37"}, {"lat": 38.9025085, "bike_id": "1b182a71dafa3c8c2719cdeba6933096", "is_reserved": 0, "is_disabled": 0, "rental_uris": {"android": "https://dc.lft.to/lastmile_qr_scan", "ios": "https://dc.lft.to/lastmile_qr_scan"}, "fusion_lon": 0.0, "lon": -77.02673316666667, "type": "electric_scooter", "fusion_lat": 0.0, "name": "1b182a71dafa3c8c2719cdeba6933096"}, {"lat": 38.901680666666664, "bike_id": "b0512236f09df29d0d97f367f8f83f9d", "is_reserved": 0, "is_disabled": 0, "rental_uris": {"android": "https://dc.lft.to/lastmile_qr_scan", "ios": "https://dc.lft.to/lastmile_qr_scan"}, "fusion_lon": 0.0, "lon": -77.0260305, "type": "electric_scooter", "fusion_lat": 0.0, "name": "b0512236f09df29d0d97f367f8f83f9d"}, {"lat": 38.915539, "bike_id": "13356e99db61a20cb2e63c3c0ccaeaf5", "is_reserved": 0, "is_disabled": 0, "rental_uris": {"android": "https://dc.lft.to/lastmile_qr_scan", "ios": "https://dc.lft.to/lastmile_qr_scan"}, "fusion_lon": 0.0, "lon": -77.0317575, "type": "electric_scooter", "fusion_lat": 0.0, "name": "13356e99db61a20cb2e63c3c0ccaeaf5"}, {"lat": 38.9071395, "bike_id": "dbf07ff5eb216b712207ca0441c940f0", "is_reserved": 0, "is_disabled": 0, "rental_uris": {"android": "https://dc.lft.to/lastmile_qr_scan", "ios": "https://dc.lft.to/lastmile_qr_scan"}, "fusion_lon": 0.0, "lon": -77.0299405, "type": "electric_scooter", "fusion_lat": 0.0, "name": "dbf07ff5eb216b712207ca0441c940f0"}, {"lat": 38.8792755, "bike_id": "bcd13761be1a2c33cb36011dd972b7b5", "is_reserved": 0, "is_disabled": 0, "rental_uris": {"android": "https://dc.lft.to/lastmile_qr_scan", "ios": "https://dc.lft.to/lastmile_qr_scan"}, "fusion_lon": 0.0, "lon": -77.01329416666667, "type": "electric_scooter", "fusion_lat": 0.0, "name": "bcd13761be1a2c33cb36011dd972b7b5"}, {"lat": 38.936949, "bike_id": "331161c50cf595b3454299368eded8c6", "is_reserved": 0, "is_disabled": 0, "rental_uris": {"android": "https://dc.lft.to/lastmile_qr_scan", "ios": "https://dc.lft.to/lastmile_qr_scan"}, "fusion_lon": 0.0, "lon": -77.02715433333333, "type": "electric_scooter", "fusion_lat": 0.0, "name": "331161c50cf595b3454299368eded8c6"}, {"lat": 38.93752216666667, "bike_id": "31b62e39265426f0af023d9c16cec518", "is_reserved": 0, "is_disabled": 0, "rental_uris": {"android": "https://dc.lft.to/lastmile_qr_scan", "ios": "https://dc.lft.to/lastmile_qr_scan"}, "fusion_lon": 0.0, "lon": -77.024662, "type": "electric_scooter", "fusion_lat": 0.0, "name": "31b62e39265426f0af023d9c16cec518"}, {"lat": 38.91988283333333, "bike_id": "649815b8cd5d33ffae2a1de4c2bd899d", "is_reserved": 0, "is_disabled": 0, "rental_uris": {"android": "https://dc.lft.to/lastmile_qr_scan", "ios": "https://dc.lft.to/lastmile_qr_scan"}, "fusion_lon": 0.0, "lon": -77.03255933333334, "type": "electric_scooter", "fusion_lat": 0.0, "name": "649815b8cd5d33ffae2a1de4c2bd899d"}, {"lat": 38.8556645, "bike_id": "178972a2ed14e7e3cf6a6880f6f30fd2", "is_reserved": 0, "is_disabled": 0, "rental_uris": {"android": "https://dc.lft.to/lastmile_qr_scan", "ios": "https://dc.lft.to/lastmile_qr_scan"}, "fusion_lon": 0.0, "lon": -77.107134, "type": "electric_bike", "fusion_lat": 0.0, "name": "178972a2ed14e7e3cf6a6880f6f30fd2"}, {"lat": 38.92140933333334, "bike_id": "17d33f9854e91c5bd433687cb1b63bdf", "is_reserved": 0, "is_disabled": 0, "rental_uris": {"android": "https://dc.lft.to/lastmile_qr_scan", "ios": "https://dc.lft.to/lastmile_qr_scan"}, "fusion_lon": 0.0, "lon": -77.02841316666667, "type": "electric_bike", "fusion_lat": 0.0, "name": "17d33f9854e91c5bd433687cb1b63bdf"}, {"lat": 38.84819016666667, "bike_id": "ffb4e79f04ba9822c9cee73ba4eea285", "is_reserved": 0, "is_disabled": 0, "rental_uris": {"android": "https://dc.lft.to/lastmile_qr_scan", "ios": "https://dc.lft.to/lastmile_qr_scan"}, "fusion_lon": 0.0, "lon": -77.08456533333333, "type": "electric_bike", "fusion_lat": 0.0, "name": "ffb4e79f04ba9822c9cee73ba4eea285"}, {"lat": 38.926724666666665, "bike_id": "98a3902383fd3c1fa6b4ddcbe30b594d", "is_reserved": 0, "is_disabled": 0, "rental_uris": {"android": "https://dc.lft.to/lastmile_qr_scan", "ios": "https://dc.lft.to/lastmile_qr_scan"}, "fusion_lon": 0.0, "lon": -77.007663, "type": "electric_scooter", "fusion_lat": 0.0, "name": "98a3902383fd3c1fa6b4ddcbe30b594d"}, {"lat": 38.94817833333333, "bike_id": "c00d3b4f04b0e43c2dfe4ecb53cad044", "is_reserved": 0, "is_disabled": 0, "rental_uris": {"android": "https://dc.lft.to/lastmile_qr_scan", "ios": "https://dc.lft.to/lastmile_qr_scan"}, "fusion_lon": 0.0, "lon": -76.99905033333333, "type": "electric_scooter", "fusion_lat": 0.0, "name": "c00d3b4f04b0e43c2dfe4ecb53cad044"}, {"lat": 38.89562933333333, "bike_id": "e66a2d8e39a7c794d0fdf7f8d550baf0", "is_reserved": 0, "is_disabled": 0, "rental_uris": {"android": "https://dc.lft.to/lastmile_qr_scan", "ios": "https://dc.lft.to/lastmile_qr_scan"}, "fusion_lon": 0.0, "lon": -77.12731466666666, "type": "electric_bike", "fusion_lat": 0.0, "name": "e66a2d8e39a7c794d0fdf7f8d550baf0"}, {"lat": 38.91694016666667, "bike_id": "bedb6ffc30229c7cb8f307318a0781b2", "is_reserved": 0, "is_disabled": 0, "rental_uris": {"android": "https://dc.lft.to/lastmile_qr_scan", "ios": "https://dc.lft.to/lastmile_qr_scan"}, "fusion_lon": 0.0, "lon": -77.037214, "type": "electric_scooter", "fusion_lat": 0.0, "name": "bedb6ffc30229c7cb8f307318a0781b2"}, {"lat": 38.928861, "bike_id": "1199c553c981db38ed42021897818c34", "is_reserved": 0, "is_disabled": 0, "rental_uris": {"android": "https://dc.lft.to/lastmile_qr_scan", "ios": "https://dc.lft.to/lastmile_qr_scan"}, "fusion_lon": 0.0, "lon": -77.02711566666666, "type": "electric_scooter", "fusion_lat": 0.0, "name": "1199c553c981db38ed42021897818c34"}, {"lat": 38.905580666666665, "bike_id": "af1e8fd251fdb52a8a7ebd77081648bb", "is_reserved": 0, "is_disabled": 0, "rental_uris": {"android": "https://dc.lft.to/lastmile_qr_scan", "ios": "https://dc.lft.to/lastmile_qr_scan"}, "fusion_lon": 0.0, "lon": -77.02180383333334, "type": "electric_scooter", "fusion_lat": 0.0, "name": "af1e8fd251fdb52a8a7ebd77081648bb"}, {"lat": 38.90027416666667, "bike_id": "f23ba78dfaa1bb081dc130581ecc760d", "is_reserved": 0, "is_disabled": 0, "rental_uris": {"android": "https://dc.lft.to/lastmile_qr_scan", "ios": "https://dc.lft.to/lastmile_qr_scan"}, "fusion_lon": 0.0, "lon": -76.98878883333333, "type": "electric_scooter", "fusion_lat": 0.0, "name": "f23ba78dfaa1bb081dc130581ecc760d"}, {"lat": 38.93335416666667, "bike_id": "471679de829d4d252bb8f04901e78d9d", "is_reserved": 0, "is_disabled": 0, "rental_uris": {"android": "https://dc.lft.to/lastmile_qr_scan", "ios": "https://dc.lft.to/lastmile_qr_scan"}, "fusion_lon": 0.0, "lon": -77.083265, "type": "electric_bike", "fusion_lat": 0.0, "name": "471679de829d4d252bb8f04901e78d9d"}, {"lat": 38.927443833333335, "bike_id": "3cd845818eabd34fe75709b2f976dd55", "is_reserved": 0, "is_disabled": 0, "rental_uris": {"android": "https://dc.lft.to/lastmile_qr_scan", "ios": "https://dc.lft.to/lastmile_qr_scan"}, "fusion_lon": 0.0, "lon": -77.03644033333333, "type": "electric_scooter", "fusion_lat": 0.0, "name": "3cd845818eabd34fe75709b2f976dd55"}, {"lat": 38.916014833333335, "bike_id": "980bc2b008b7e8c61cc52134410832a7", "is_reserved": 0, "is_disabled": 0, "rental_uris": {"android": "https://dc.lft.to/lastmile_qr_scan", "ios": "https://dc.lft.to/lastmile_qr_scan"}, "fusion_lon": 0.0, "lon": -77.03663266666666, "type": "electric_scooter", "fusion_lat": 0.0, "name": "980bc2b008b7e8c61cc52134410832a7"}, {"lat": 38.87293916666667, "bike_id": "32f635a8eb337b0f59f4f02d1d2272da", "is_reserved": 0, "is_disabled": 0, "rental_uris": {"android": "https://dc.lft.to/lastmile_qr_scan", "ios": "https://dc.lft.to/lastmile_qr_scan"}, "fusion_lon": 0.0, "lon": -77.13940733333334, "type": "electric_bike", "fusion_lat": 0.0, "name": "32f635a8eb337b0f59f4f02d1d2272da"}, {"lat": 38.901661, "bike_id": "93446ee7a1eef0e1ee3f5b3a1b753539", "is_reserved": 0, "is_disabled": 0, "rental_uris": {"android": "https://dc.lft.to/lastmile_qr_scan", "ios": "https://dc.lft.to/lastmile_qr_scan"}, "fusion_lon": 0.0, "lon": -76.93077916666667, "type": "electric_scooter", "fusion_lat": 0.0, "name": "93446ee7a1eef0e1ee3f5b3a1b753539"}, {"lat": 38.906407333333334, "bike_id": "733a45254f03d615da63c93b3b91e921", "is_reserved": 0, "is_disabled": 0, "rental_uris": {"android": "https://dc.lft.to/lastmile_qr_scan", "ios": "https://dc.lft.to/lastmile_qr_scan"}, "fusion_lon": 0.0, "lon": -77.0702555, "type": "electric_scooter", "fusion_lat": 0.0, "name": "733a45254f03d615da63c93b3b91e921"}, {"lat": 38.878891833333334, "bike_id": "c369b36b2aaeacba25cf530a2adfd5cb", "is_reserved": 0, "is_disabled": 0, "rental_uris": {"android": "https://dc.lft.to/lastmile_qr_scan", "ios": "https://dc.lft.to/lastmile_qr_scan"}, "fusion_lon": 0.0, "lon": -77.02201716666667, "type": "electric_scooter", "fusion_lat": 0.0, "name": "c369b36b2aaeacba25cf530a2adfd5cb"}, {"lat": 38.89935533333333, "bike_id": "4f61703d86163b9eabc9444ca72ceb13", "is_reserved": 0, "is_disabled": 0, "rental_uris": {"android": "https://dc.lft.to/lastmile_qr_scan", "ios": "https://dc.lft.to/lastmile_qr_scan"}, "fusion_lon": 0.0, "lon": -77.02934866666666, "type": "electric_scooter", "fusion_lat": 0.0, "name": "4f61703d86163b9eabc9444ca72ceb13"}, {"lat": 38.92010466666667, "bike_id": "65068365b15f8935d06f453f83d27aba", "is_reserved": 0, "is_disabled": 0, "rental_uris": {"android": "https://dc.lft.to/lastmile_qr_scan", "ios": "https://dc.lft.to/lastmile_qr_scan"}, "fusion_lon": 0.0, "lon": -77.02392416666666, "type": "electric_scooter", "fusion_lat": 0.0, "name": "65068365b15f8935d06f453f83d27aba"}, {"lat": 38.890413333333335, "bike_id": "1a25c3664c5f115ba73c6f729ceb76f4", "is_reserved": 0, "is_disabled": 0, "rental_uris": {"android": "https://dc.lft.to/lastmile_qr_scan", "ios": "https://dc.lft.to/lastmile_qr_scan"}, "fusion_lon": 0.0, "lon": -76.93749066666666, "type": "electric_scooter", "fusion_lat": 0.0, "name": "1a25c3664c5f115ba73c6f729ceb76f4"}, {"lat": 38.9066835, "bike_id": "f696ecae1d8dc427adeb701afbf03474", "is_reserved": 0, "is_disabled": 0, "rental_uris": {"android": "https://dc.lft.to/lastmile_qr_scan", "ios": "https://dc.lft.to/lastmile_qr_scan"}, "fusion_lon": 0.0, "lon": -77.02704716666666, "type": "electric_scooter", "fusion_lat": 0.0, "name": "f696ecae1d8dc427adeb701afbf03474"}, {"lat": 38.93176916666667, "bike_id": "ca1a1448abaac2fab36de948051cda42", "is_reserved": 0, "is_disabled": 0, "rental_uris": {"android": "https://dc.lft.to/lastmile_qr_scan", "ios": "https://dc.lft.to/lastmile_qr_scan"}, "fusion_lon": 0.0, "lon": -77.07076733333334, "type": "electric_scooter", "fusion_lat": 0.0, "name": "ca1a1448abaac2fab36de948051cda42"}, {"lat": 38.91806316666667, "bike_id": "9400fe997b9270dd63216f598521f859", "is_reserved": 0, "is_disabled": 0, "rental_uris": {"android": "https://dc.lft.to/lastmile_qr_scan", "ios": "https://dc.lft.to/lastmile_qr_scan"}, "fusion_lon": 0.0, "lon": -77.02493566666666, "type": "electric_scooter", "fusion_lat": 0.0, "name": "9400fe997b9270dd63216f598521f859"}, {"lat": 38.91815483333333, "bike_id": "9c92ed4541888ff14fc43ecda50a86eb", "is_reserved": 0, "is_disabled": 0, "rental_uris": {"android": "https://dc.lft.to/lastmile_qr_scan", "ios": "https://dc.lft.to/lastmile_qr_scan"}, "fusion_lon": 0.0, "lon": -77.03471816666666, "type": "electric_scooter", "fusion_lat": 0.0, "name": "9c92ed4541888ff14fc43ecda50a86eb"}, {"lat": 38.90274133333333, "bike_id": "ed150cf5e9abca8950b7cbef3ceaeb14", "is_reserved": 0, "is_disabled": 0, "rental_uris": {"android": "https://dc.lft.to/lastmile_qr_scan", "ios": "https://dc.lft.to/lastmile_qr_scan"}, "fusion_lon": 0.0, "lon": -77.036769, "type": "electric_scooter", "fusion_lat": 0.0, "name": "ed150cf5e9abca8950b7cbef3ceaeb14"}, {"lat": 38.914124666666666, "bike_id": "01851a4c8acbfad7167e8a52125a2690", "is_reserved": 0, "is_disabled": 0, "rental_uris": {"android": "https://dc.lft.to/lastmile_qr_scan", "ios": "https://dc.lft.to/lastmile_qr_scan"}, "fusion_lon": 0.0, "lon": -77.00978383333333, "type": "electric_scooter", "fusion_lat": 0.0, "name": "01851a4c8acbfad7167e8a52125a2690"}, {"lat": 38.8983815, "bike_id": "0bffdc0582633c2b59e30f326c8e7090", "is_reserved": 0, "is_disabled": 0, "rental_uris": {"android": "https://dc.lft.to/lastmile_qr_scan", "ios": "https://dc.lft.to/lastmile_qr_scan"}, "fusion_lon": 0.0, "lon": -77.00741333333333, "type": "electric_scooter", "fusion_lat": 0.0, "name": "0bffdc0582633c2b59e30f326c8e7090"}, {"lat": 38.962051333333335, "bike_id": "b6b3ae3a59bdab44df9b6d902dd6b56a", "is_reserved": 0, "is_disabled": 0, "rental_uris": {"android": "https://dc.lft.to/lastmile_qr_scan", "ios": "https://dc.lft.to/lastmile_qr_scan"}, "fusion_lon": 0.0, "lon": -77.03514166666666, "type": "electric_bike", "fusion_lat": 0.0, "name": "b6b3ae3a59bdab44df9b6d902dd6b56a"},