{"data": {"bikes": [{"rental_uris": {"ios": "https://dc.lft.to/lastmile_qr_scan", "android": "https://dc.lft.to/lastmile_qr_scan"}, "lon": -77.03567816666667, "type": "electric_scooter", "fusion_lat": 0.0, "lat": 38.92744533333333, "name": "25e47b234f17e76b23baa30d2a93a7f8", "fusion_lon": 0.0, "bike_id": "25e47b234f17e76b23baa30d2a93a7f8", "is_disabled": 0, "is_reserved": 0}, {"rental_uris": {"ios": "https://dc.lft.to/lastmile_qr_scan", "android": "https://dc.lft.to/lastmile_qr_scan"}, "lon": -76.98005466666666, "type": "electric_bike", "fusion_lat": 0.0, "lat": 38.853117833333336, "name": "cf02760e490930ff024809c7afdc99d2", "fusion_lon": 0.0, "bike_id": "cf02760e490930ff024809c7afdc99d2", "is_disabled": 0, "is_reserved": 0}, {"rental_uris": {"ios": "https://dc.lft.to/lastmile_qr_scan", "android": "https://dc.lft.to/lastmile_qr_scan"}, "lon": -77.06852933333333, "type": "electric_scooter", "fusion_lat": 0.0, "lat": 38.917032166666665, "name": "72f824cee017c5598f6e4b54efda4447", "fusion_lon": 0.0, "bike_id": "72f824cee017c5598f6e4b54efda4447", "is_disabled": 0, "is_reserved": 0}, {"rental_uris": {"ios": "https://dc.lft.to/lastmile_qr_scan", "android": "https://dc.lft.to/lastmile_qr_scan"}, "lon": -77.02166966666667, "type": "electric_scooter", "fusion_lat": 0.0, "lat": 38.89902383333333, "name": "ef6cc13e6836f2f3a091106bd68493fb", "fusion_lon": 0.0, "bike_id": "ef6cc13e6836f2f3a091106bd68493fb", "is_disabled": 0, "is_reserved": 0}, {"rental_uris": {"ios": "https://dc.lft.to/lastmile_qr_scan", "android": "https://dc.lft.to/lastmile_qr_scan"}, "lon": -76.98831133333333, "type": "electric_scooter", "fusion_lat": 0.0, "lat": 38.880203333333334, "name": "6559807606e86e030a98f221b33a82ef", "fusion_lon": 0.0, "bike_id": "6559807606e86e030a98f221b33a82ef", "is_disabled": 0, "is_reserved": 0}, {"rental_uris": {"ios": "https://dc.lft.to/lastmile_qr_scan", "android": "https://dc.lft.to/lastmile_qr_scan"}, "lon": -77.0351045, "type": "electric_scooter", "fusion_lat": 0.0, "lat": 38.93105933333333, "name": "0c521f6a2a77a0c10fac87bcc18fa867", "fusion_lon": 0.0, "bike_id": "0c521f6a2a77a0c10fac87bcc18fa867", "is_disabled": 0, "is_reserved": 0}, {"rental_uris": {"ios": "https://dc.lft.to/lastmile_qr_scan", "android": "https://dc.lft.to/lastmile_qr_scan"}, "lon": -77.03583733333333, "type": "electric_scooter", "fusion_lat": 0.0, "lat": 38.94242366666667, "name": "ef7d33d9861f8b8e7cd95d1cf620225e", "fusion_lon": 0.0, "bike_id": "ef7d33d9861f8b8e7cd95d1cf620225e", "is_disabled": 0, "is_reserved": 0}, {"rental_uris": {"ios": "https://dc.lft.to/lastmile_qr_scan", "android": "https://dc.lft.to/lastmile_qr_scan"}, "lon": -77.0688615, "type": "electric_scooter", "fusion_lat": 0.0, "lat": 38.90509333333333, "name": "c2edda7d8dd28a345804d6bf2e8f6e45", "fusion_lon": 0.0, "bike_id": "c2edda7d8dd28a345804d6bf2e8f6e45", "is_disabled": 0, "is_reserved": 0}, {"rental_uris": {"ios": "https://dc.lft.to/lastmile_qr_scan", "android": "https://dc.lft.to/lastmile_qr_scan"}, "lon": -77.049373, "type": "electric_scooter", "fusion_lat": 0.0, "lat": 38.90894466666666, "name": "5acb62769b55cde358699434a1a69c46", "fusion_lon": 0.0, "bike_id": "5acb62769b55cde358699434a1a69c46", "is_disabled": 0, "is_reserved": 0}, {"rental_uris": {"ios": "https://dc.lft.to/lastmile_qr_scan", "android": "https://dc.lft.to/lastmile_qr_scan"}, "lon": -77.013168, "type": "electric_scooter", "fusion_lat": 0.0, "lat": 38.90181916666667, "name": "6d51ef50e10d866e82dab13c403dbb04", "fusion_lon": 0.0, "bike_id": "6d51ef50e10d866e82dab13c403dbb04", "is_disabled": 0, "is_reserved": 0}, {"rental_uris": {"ios": "https://dc.lft.to/lastmile_qr_scan", "android": "https://dc.lft.to/lastmile_qr_scan"}, "lon": -76.98655016666666, "type": "electric_scooter", "fusion_lat": 0.0, "lat": 38.858027166666666, "name": "dff1fa2e2c5746e7d7fcaf09afab8aec", "fusion_lon": 0.0, "bike_id": "dff1fa2e2c5746e7d7fcaf09afab8aec", "is_disabled": 0, "is_reserved": 0}, {"rental_uris": {"ios": "https://dc.lft.to/lastmile_qr_scan", "android": "https://dc.lft.to/lastmile_qr_scan"}, "lon": -77.02486633333334, "type": "electric_scooter", "fusion_lat": 0.0, "lat": 38.93814183333333, "name": "b26d390838469ac76ee3e4312b5494d4", "fusion_lon": 0.0, "bike_id": "b26d390838469ac76ee3e4312b5494d4", "is_disabled": 0, "is_reserved": 0}, {"rental_uris": {"ios": "https://dc.lft.to/lastmile_qr_scan", "android": "https://dc.lft.to/lastmile_qr_scan"}, "lon": -77.10028433333333, "type": "electric_bike", "fusion_lat": 0.0, "lat": 38.99058466666666, "name": "5a4cdf66c82cdc1371dc30a96754962e", "fusion_lon": 0.0, "bike_id": "5a4cdf66c82cdc1371dc30a96754962e", "is_disabled": 0, "is_reserved": 0}, {"rental_uris": {"ios": "https://dc.lft.to/lastmile_qr_scan", "android": "https://dc.lft.to/lastmile_qr_scan"}, "lon": -76.99206316666667, "type": "electric_scooter", "fusion_lat": 0.0, "lat": 38.84675383333333, "name": "71b3e9d8b7f822ac731e16847144a40b", "fusion_lon": 0.0, "bike_id": "71b3e9d8b7f822ac731e16847144a40b", "is_disabled": 0, "is_reserved": 0}, {"rental_uris": {"ios": "https://dc.lft.to/lastmile_qr_scan", "android": "https://dc.lft.to/lastmile_qr_scan"}, "lon": -77.02240833333333, "type": "electric_scooter", "fusion_lat": 0.0, "lat": 38.96210816666667, "name": "afed0bab29dab68d616fa83d7b0b2102", "fusion_lon": 0.0, "bike_id": "afed0bab29dab68d616fa83d7b0b2102", "is_disabled": 0, "is_reserved": 0}, {"rental_uris": {"ios": "https://dc.lft.to/lastmile_qr_scan", "android": "https://dc.lft.to/lastmile_qr_scan"}, "lon": -77.03213716666667, "type": "electric_scooter", "fusion_lat": 0.0, "lat": 38.91608466666667, "name": "1ba56e9aff5b97f03e6631d56d67d8b8", "fusion_lon": 0.0, "bike_id": "1ba56e9aff5b97f03e6631d56d67d8b8", "is_disabled": 0, "is_reserved": 0}, {"rental_uris": {"ios": "https://dc.lft.to/lastmile_qr_scan", "android": "https://dc.lft.to/lastmile_qr_scan"}, "lon": -76.980967, "type": "electric_scooter", "fusion_lat": 0.0, "lat": 38.857193333333335, "name": "f74c17c37b2f38728cb7c3fe2cd3fa6b", "fusion_lon": 0.0, "bike_id": "f74c17c37b2f38728cb7c3fe2cd3fa6b", "is_disabled": 0, "is_reserved": 0}, {"rental_uris": {"ios": "https://dc.lft.to/lastmile_qr_scan", "android": "https://dc.lft.to/lastmile_qr_scan"}, "lon": -77.01756666666667, "type": "electric_scooter", "fusion_lat": 0.0, "lat": 38.88308766666667, "name": "5978ed9a57876394c50e7db2ee46b6c7", "fusion_lon": 0.0, "bike_id": "5978ed9a57876394c50e7db2ee46b6c7", "is_disabled": 0, "is_reserved": 0}, {"rental_uris": {"ios": "https://dc.lft.to/lastmile_qr_scan", "android": "https://dc.lft.to/lastmile_qr_scan"}, "lon": -77.01837216666667, "type": "electric_scooter", "fusion_lat": 0.0, "lat": 38.914865, "name": "dc7280d85b0eb953ddb71e0fb207f99c", "fusion_lon": 0.0, "bike_id": "dc7280d85b0eb953ddb71e0fb207f99c", "is_disabled": 0, "is_reserved": 0}, {"rental_uris": {"ios": "https://dc.lft.to/lastmile_qr_scan", "android": "https://dc.lft.to/lastmile_qr_scan"}, "lon": -76.97658, "type": "electric_scooter", "fusion_lat": 0.0, "lat": 38.898523, "name": "3213e460f0e414686f60bc307fc586f2", "fusion_lon": 0.0, "bike_id": "3213e460f0e414686f60bc307fc586f2", "is_disabled": 0, "is_reserved": 0}, {"rental_uris": {"ios": "https://dc.lft.to/lastmile_qr_scan", "android": "https://dc.lft.to/lastmile_qr_scan"}, "lon": -77.01661216666666, "type": "electric_scooter", "fusion_lat": 0.0, "lat": 38.88287616666667, "name": "c3bd77b31a3c74d47e6e0f65c83caa13", "fusion_lon": 0.0, "bike_id": "c3bd77b31a3c74d47e6e0f65c83caa13", "is_disabled": 0, "is_reserved": 0}, {"rental_uris": {"ios": "https://dc.lft.to/lastmile_qr_scan", "android": "https://dc.lft.to/lastmile_qr_scan"}, "lon": -77.039019, "type": "electric_scooter", "fusion_lat": 0.0, "lat": 38.932675833333334, "name": "712b714f23669dc5583ff1ae373c860a", "fusion_lon": 0.0, "bike_id": "712b714f23669dc5583ff1ae373c860a", "is_disabled": 0, "is_reserved": 0}, {"rental_uris": {"ios": "https://dc.lft.to/lastmile_qr_scan", "android": "https://dc.lft.to/lastmile_qr_scan"}, "lon": -77.03266066666667, "type": "electric_scooter", "fusion_lat": 0.0, "lat": 38.93520733333333, "name": "bbc7a33ebd0fb78c8c2979996baf7650", "fusion_lon": 0.0, "bike_id": "bbc7a33ebd0fb78c8c2979996baf7650", "is_disabled": 0, "is_reserved": 0}, {"rental_uris": {"ios": "https://dc.lft.to/lastmile_qr_scan", "android": "https://dc.lft.to/lastmile_qr_scan"}, "lon": -77.015814, "type": "electric_scooter", "fusion_lat": 0.0, "lat": 38.885035, "name": "27fa836a8b5dc081fe6cd4f4ed0e5acc", "fusion_lon": 0.0, "bike_id": "27fa836a8b5dc081fe6cd4f4ed0e5acc", "is_disabled": 0, "is_reserved": 0}, {"rental_uris": {"ios": "https://dc.lft.to/lastmile_qr_scan", "android": "https://dc.lft.to/lastmile_qr_scan"}, "lon": -77.00364466666667, "type": "electric_scooter", "fusion_lat": 0.0, "lat": 38.89751733333333, "name": "ce438cb5a7d9dd25d3a5821b269419b5", "fusion_lon": 0.0, "bike_id": "ce438cb5a7d9dd25d3a5821b269419b5", "is_disabled": 0, "is_reserved": 0}, {"rental_uris": {"ios": "https://dc.lft.to/lastmile_qr_scan", "android": "https://dc.lft.to/lastmile_qr_scan"}, "lon": -76.988065, "type": "electric_scooter", "fusion_lat": 0.0, "lat": 38.85151833333333, "name": "16f0ebebd46941d91b678fd77ad67475", "fusion_lon": 0.0, "bike_id": "16f0ebebd46941d91b678fd77ad67475", "is_disabled": 0, "is_reserved": 0}, {"rental_uris": {"ios": "https://dc.lft.to/lastmile_qr_scan", "android": "https://dc.lft.to/lastmile_qr_scan"}, "lon": -77.0118325, "type": "electric_bike", "fusion_lat": 0.0, "lat": 38.87226783333333, "name": "edc4f9c0004dcc1c36143ec9da5ef442", "fusion_lon": 0.0, "bike_id": "edc4f9c0004dcc1c36143ec9da5ef442", "is_disabled": 0, "is_reserved": 0}, {"rental_uris": {"ios": "https://dc.lft.to/lastmile_qr_scan", "android": "https://dc.lft.to/lastmile_qr_scan"}, "lon": -77.03168233333334, "type": "electric_scooter", "fusion_lat": 0.0, "lat": 38.88344266666667, "name": "bd0729a1a3b33bc109f2226b98fc3046", "fusion_lon": 0.0, "bike_id": "bd0729a1a3b33bc109f2226b98fc3046", "is_disabled": 0, "is_reserved": 0}, {"rental_uris": {"ios": "https://dc.lft.to/lastmile_qr_scan", "android": "https://dc.lft.to/lastmile_qr_scan"}, "lon": -77.03453816666666, "type": "electric_scooter", "fusion_lat": 0.0, "lat": 38.9025265, "name": "904e663a4156e55a23bdf929d8055cf1", "fusion_lon": 0.0, "bike_id": "904e663a4156e55a23bdf929d8055cf1", "is_disabled": 0, "is_reserved": 0}, {"rental_uris": {"ios": "https://dc.lft.to/lastmile_qr_scan", "android": "https://dc.lft.to/lastmile_qr_scan"}, "lon": -77.046713, "type": "electric_scooter", "fusion_lat": 0.0, "lat": 38.89262516666667, "name": "50f483705445e457888d3bfbe5cdd775", "fusion_lon": 0.0, "bike_id": "50f483705445e457888d3bfbe5cdd775", "is_disabled": 0, "is_reserved": 0}, {"rental_uris": {"ios": "https://dc.lft.to/lastmile_qr_scan", "android": "https://dc.lft.to/lastmile_qr_scan"}, "lon": -76.973281, "type": "electric_bike", "fusion_lat": 0.0, "lat": 38.917589666666665, "name": "cf6f19c78ec2564a221acef1241f0f3e", "fusion_lon": 0.0, "bike_id": "cf6f19c78ec2564a221acef1241f0f3e", "is_disabled": 0, "is_reserved": 0}, {"rental_uris": {"ios": "https://dc.lft.to/lastmile_qr_scan", "android": "https://dc.lft.to/lastmile_qr_scan"}, "lon": -77.02317616666667, "type": "electric_scooter", "fusion_lat": 0.0, "lat": 38.88186666666667, "name": "c9defa51fb75a7eb1a7fd5be123c7355", "fusion_lon": 0.0, "bike_id": "c9defa51fb75a7eb1a7fd5be123c7355", "is_disabled": 0, "is_reserved": 0}, {"rental_uris": {"ios": "https://dc.lft.to/lastmile_qr_scan", "android": "https://dc.lft.to/lastmile_qr_scan"}, "lon": -77.04425966666666, "type": "electric_scooter", "fusion_lat": 0.0, "lat": 38.91974116666667, "name": "02ddfb91fded44d376dabcc65f1a3ad6", "fusion_lon": 0.0, "bike_id": "02ddfb91fded44d376dabcc65f1a3ad6", "is_disabled": 0, "is_reserved": 0}, {"rental_uris": {"ios": "https://dc.lft.to/lastmile_qr_scan", "android": "https://dc.lft.to/lastmile_qr_scan"}, "lon": -77.04649533333334, "type": "electric_scooter", "fusion_lat": 0.0, "lat": 38.934272166666666, "name": "28fddfe26c2afc9318a09bb3846b6f5f", "fusion_lon": 0.0, "bike_id": "28fddfe26c2afc9318a09bb3846b6f5f", "is_disabled": 0, "is_reserved": 0}, {"rental_uris": {"ios": "https://dc.lft.to/lastmile_qr_scan", "android": "https://dc.lft.to/lastmile_qr_scan"}, "lon": -77.01100883333334, "type": "electric_scooter", "fusion_lat": 0.0, "lat": 38.89545366666667, "name": "7c7a0c24fde4392fad0683c4217c1221", "fusion_lon": 0.0, "bike_id": "7c7a0c24fde4392fad0683c4217c1221", "is_disabled": 0, "is_reserved": 0}, {"rental_uris": {"ios": "https://dc.lft.to/lastmile_qr_scan", "android": "https://dc.lft.to/lastmile_qr_scan"}, "lon": -77.0238825, "type": "electric_bike", "fusion_lat": 0.0, "lat": 38.9028105, "name": "845f1bbd3591aba1e4eda6af12bf014b", "fusion_lon": 0.0, "bike_id": "845f1bbd3591aba1e4eda6af12bf014b", "is_disabled": 0, "is_reserved": 0}, {"rental_uris": {"ios": "https://dc.lft.to/lastmile_qr_scan", "android": "https://dc.lft.to/lastmile_qr_scan"}, "lon": -77.045102, "type": "electric_scooter", "fusion_lat": 0.0, "lat": 38.91212216666667, "name": "0342b1b00915c9469e06e4d018a1935b", "fusion_lon": 0.0, "bike_id": "0342b1b00915c9469e06e4d018a1935b", "is_disabled": 0, "is_reserved": 0}, {"rental_uris": {"ios": "https://dc.lft.to/lastmile_qr_scan", "android": "https://dc.lft.to/lastmile_qr_scan"}, "lon": -77.0277305, "type": "electric_scooter", "fusion_lat": 0.0, "lat": 38.881639666666665, "name": "4ab097877caac550529e58881c4e8084", "fusion_lon": 0.0, "bike_id": "4ab097877caac550529e58881c4e8084", "is_disabled": 0, "is_reserved": 0}, {"rental_uris": {"ios": "https://dc.lft.to/lastmile_qr_scan", "android": "https://dc.lft.to/lastmile_qr_scan"}, "lon": -77.0296305, "type": "electric_scooter", "fusion_lat": 0.0, "lat": 38.91768416666667, "name": "591815c3000aca74399aa3790456882b", "fusion_lon": 0.0, "bike_id": "591815c3000aca74399aa3790456882b", "is_disabled": 0, "is_reserved": 0}, {"rental_uris": {"ios": "https://dc.lft.to/lastmile_qr_scan", "android": "https://dc.lft.to/lastmile_qr_scan"}, "lon": -77.03351533333333, "type": "electric_bike", "fusion_lat": 0.0, "lat": 38.96800533333333, "name": "2f66da13c2c31dff38bd798f75685042", "fusion_lon": 0.0, "bike_id": "2f66da13c2c31dff38bd798f75685042", "is_disabled": 0, "is_reserved": 0}, {"rental_uris": {"ios": "https://dc.lft.to/lastmile_qr_scan", "android": "https://dc.lft.to/lastmile_qr_scan"}, "lon": -77.03936733333333, "type": "electric_scooter", "fusion_lat": 0.0, "lat": 38.89890716666667, "name": "1f3697f5fa3b2f7475d3c7b43a128e42", "fusion_lon": 0.0, "bike_id": "1f3697f5fa3b2f7475d3c7b43a128e42", "is_disabled": 0, "is_reserved": 0}, {"rental_uris": {"ios": "https://dc.lft.to/lastmile_qr_scan", "android": "https://dc.lft.to/lastmile_qr_scan"}, "lon": -77.02897816666666, "type": "electric_scooter", "fusion_lat": 0.0, "lat": 38.92565533333333, "name": "9a6934476b4bc2e55577c8ee3cc4ceb1", "fusion_lon": 0.0, "bike_id": "9a6934476b4bc2e55577c8ee3cc4ceb1", "is_disabled": 0, "is_reserved": 0}, {"rental_uris": {"ios": "https://dc.lft.to/lastmile_qr_scan", "android": "https://dc.lft.to/lastmile_qr_scan"}, "lon": -77.03125583333333, "type": "electric_scooter", "fusion_lat": 0.0, "lat": 38.91333066666667, "name": "5bfa7edb6bb4a3c2e55e12b92c624b8a", "fusion_lon": 0.0, "bike_id": "5bfa7edb6bb4a3c2e55e12b92c624b8a", "is_disabled": 0, "is_reserved": 0}, {"rental_uris": {"ios": "https://dc.lft.to/lastmile_qr_scan", "android": "https://dc.lft.to/lastmile_qr_scan"}, "lon": -77.0588615, "type": "electric_scooter", "fusion_lat": 0.0, "lat": 38.936330833333336, "name": "8164d149b8349fed5c9c5703158bd0fe", "fusion_lon": 0.0, "bike_id": "8164d149b8349fed5c9c5703158bd0fe", "is_disabled": 0, "is_reserved": 0}, {"rental_uris": {"ios": "https://dc.lft.to/lastmile_qr_scan", "android": "https://dc.lft.to/lastmile_qr_scan"}, "lon": -77.03128666666667, "type": "electric_scooter", "fusion_lat": 0.0, "lat": 38.899816666666666, "name": "c5fdf6caf7845aeea82ea99014cf677d", "fusion_lon": 0.0, "bike_id": "c5fdf6caf7845aeea82ea99014cf677d", "is_disabled": 0, "is_reserved": 0}, {"rental_uris": {"ios": "https://dc.lft.to/lastmile_qr_scan", "android": "https://dc.lft.to/lastmile_qr_scan"}, "lon": -77.04691283333334, "type": "electric_scooter", "fusion_lat": 0.0, "lat": 38.895998166666665, "name": "bc6c994e5451f412bf538a401ed375f5", "fusion_lon": 0.0, "bike_id": "bc6c994e5451f412bf538a401ed375f5", "is_disabled": 0, "is_reserved": 0}, {"rental_uris": {"ios": "https://dc.lft.to/lastmile_qr_scan", "android": "https://dc.lft.to/lastmile_qr_scan"}, "lon": -76.97495916666666, "type": "electric_scooter", "fusion_lat": 0.0, "lat": 38.8691365, "name": "1844667461eb86e6a5d8b5e2d1e3cb5a", "fusion_lon": 0.0, "bike_id": "1844667461eb86e6a5d8b5e2d1e3cb5a", "is_disabled": 0, "is_reserved": 0}, {"rental_uris": {"ios": "https://dc.lft.to/lastmile_qr_scan", "android": "https://dc.lft.to/lastmile_qr_scan"}, "lon": -77.0725405, "type": "electric_scooter", "fusion_lat": 0.0, "lat": 38.9331975, "name": "b2781156cab82ed4d93f25eafdf85912", "fusion_lon": 0.0, "bike_id": "b2781156cab82ed4d93f25eafdf85912", "is_disabled": 0, "is_reserved": 0}, {"rental_uris": {"ios": "https://dc.lft.to/lastmile_qr_scan", "android": "https://dc.lft.to/lastmile_qr_scan"}, "lon": -77.059153, "type": "electric_scooter", "fusion_lat": 0.0, "lat": 38.902102666666664, "name": "57d2e47542b061366a8435d293b4ed75", "fusion_lon": 0.0, "bike_id": "57d2e47542b061366a8435d293b4ed75", "is_disabled": 0, "is_reserved": 0}, {"rental_uris": {"ios": "https://dc.lft.to/lastmile_qr_scan", "android": "https://dc.lft.to/lastmile_qr_scan"}, "lon": -77.0208395, "type": "electric_scooter", "fusion_lat": 0.0, "lat": 38.915465833333336, "name": "04a5727f99d20e2721b4d3f9a8db3dbf", "fusion_lon": 0.0, "bike_id": "04a5727f99d20e2721b4d3f9a8db3dbf", "is_disabled": 0, "is_reserved": 0}, {"rental_uris": {"ios": "https://dc.lft.to/lastmile_qr_scan", "android": "https://dc.lft.to/lastmile_qr_scan"}, "lon": -76.99493766666667, "type": "electric_scooter", "fusion_lat": 0.0, "lat": 38.899497, "name": "514926324db9669d8b0301414386cad3", "fusion_lon": 0.0, "bike_id": "514926324db9669d8b0301414386cad3", "is_disabled": 0, "is_reserved": 0}, {"rental_uris": {"ios": "https://dc.lft.to/lastmile_qr_scan", "android": "https://dc.lft.to/lastmile_qr_scan"}, "lon": -77.05224166666666, "type": "electric_scooter", "fusion_lat": 0.0, "lat": 38.924826833333334, "name": "f96d32f2f9f93d5f1da783068e285540", "fusion_lon": 0.0, "bike_id": "f96d32f2f9f93d5f1da783068e285540", "is_disabled": 0, "is_reserved": 0}, {"rental_uris": {"ios": "https://dc.lft.to/lastmile_qr_scan", "android": "https://dc.lft.to/lastmile_qr_scan"}, "lon": -77.02103283333334, "type": "electric_scooter", "fusion_lat": 0.0, "lat": 38.87916516666667, "name": "54a34523f5e775f5e10da98a15d83aa0", "fusion_lon": 0.0, "bike_id": "54a34523f5e775f5e10da98a15d83aa0", "is_disabled": 0, "is_reserved": 0}, {"rental_uris": {"ios": "https://dc.lft.to/lastmile_qr_scan", "android": "https://dc.lft.to/lastmile_qr_scan"}, "lon": -76.93175866666667, "type": "electric_scooter", "fusion_lat": 0.0, "lat": 38.89882716666666, "name": "ae771c343d62dc4c112ad1eefc6052b0", "fusion_lon": 0.0, "bike_id": "ae771c343d62dc4c112ad1eefc6052b0", "is_disabled": 0, "is_reserved": 0}, {"rental_uris": {"ios": "https://dc.lft.to/lastmile_qr_scan", "android": "https://dc.lft.to/lastmile_qr_scan"}, "lon": -76.981811, "type": "electric_scooter", "fusion_lat": 0.0, "lat": 38.89569183333333, "name": "bb61d5f87ad4c4d2c2466bb3202ceaf0", "fusion_lon": 0.0, "bike_id": "bb61d5f87ad4c4d2c2466bb3202ceaf0", "is_disabled": 0, "is_reserved": 0}, {"rental_uris": {"ios": "https://dc.lft.to/lastmile_qr_scan", "android": "https://dc.lft.to/lastmile_qr_scan"}, "lon": -77.0319585, "type": "electric_scooter", "fusion_lat": 0.0, "lat": 38.91098916666667, "name": "6cb9be721a0720fba77c503135d147cb", "fusion_lon": 0.0, "bike_id": "6cb9be721a0720fba77c503135d147cb", "is_disabled": 0, "is_reserved": 0}, {"rental_uris": {"ios": "https://dc.lft.to/lastmile_qr_scan", "android": "https://dc.lft.to/lastmile_qr_scan"}, "lon": -77.02366833333333, "type": "electric_scooter", "fusion_lat": 0.0, "lat": 38.9205265, "name": "850fc294ce17616d6ccc0f8109c1148d", "fusion_lon": 0.0, "bike_id": "850fc294ce17616d6ccc0f8109c1148d", "is_disabled": 0, "is_reserved": 0}, {"rental_uris": {"ios": "https://dc.lft.to/lastmile_qr_scan", "android": "https://dc.lft.to/lastmile_qr_scan"}, "lon": -76.94889133333334, "type": "electric_scooter", "fusion_lat": 0.0, "lat": 38.895277, "name": "436e6bfe4856bc11dbaed9d9057af2f0", "fusion_lon": 0.0, "bike_id": "436e6bfe4856bc11dbaed9d9057af2f0", "is_disabled": 0, "is_reserved": 0}, {"rental_uris": {"ios": "https://dc.lft.to/lastmile_qr_scan", "android": "https://dc.lft.to/lastmile_qr_scan"}, "lon": -77.03684816666667, "type": "electric_scooter", "fusion_lat": 0.0, "lat": 38.9393165, "name": "e2116a97413a469a2e24c9b902f454e1", "fusion_lon": 0.0, "bike_id": "e2116a97413a469a2e24c9b902f454e1", "is_disabled": 0, "is_reserved": 0}, {"rental_uris": {"ios": "https://dc.lft.to/lastmile_qr_scan", "android": "https://dc.lft.to/lastmile_qr_scan"}, "lon": -77.02358366666667, "type": "electric_scooter", "fusion_lat": 0.0, "lat": 38.924949166666664, "name": "44723bfd1e8b296b9adc4776134fc1bf", "fusion_lon": 0.0, "bike_id": "44723bfd1e8b296b9adc4776134fc1bf", "is_disabled": 0, "is_reserved": 0}, {"rental_uris": {"ios": "https://dc.lft.to/lastmile_qr_scan", "android": "https://dc.lft.to/lastmile_qr_scan"}, "lon": -77.01303816666666, "type": "electric_scooter", "fusion_lat": 0.0, "lat": 38.921177666666665, "name": "a0351547c0ade99fe1308cda3d61bdb0", "fusion_lon": 0.0, "bike_id": "a0351547c0ade99fe1308cda3d61bdb0", "is_disabled": 0, "is_reserved": 0}, {"rental_uris": {"ios": "https://dc.lft.to/lastmile_qr_scan", "android": "https://dc.lft.to/lastmile_qr_scan"}, "lon": -77.04640333333333, "type": "electric_scooter", "fusion_lat": 0.0, "lat": 38.89219633333333, "name": "a50168477eda0a8674fddeeaf761028b", "fusion_lon": 0.0, "bike_id": "a50168477eda0a8674fddeeaf761028b", "is_disabled": 0, "is_reserved": 0}, {"rental_uris": {"ios": "https://dc.lft.to/lastmile_qr_scan", "android": "https://dc.lft.to/lastmile_qr_scan"}, "lon": -76.90965816666667, "type": "electric_bike", "fusion_lat": 0.0, "lat": 38.85435066666667, "name": "c7e3f840c0bdfb3a3b7a3abdd836fffb", "fusion_lon": 0.0, "bike_id": "c7e3f840c0bdfb3a3b7a3abdd836fffb", "is_disabled": 0, "is_reserved": 0}, {"rental_uris": {"ios": "https://dc.lft.to/lastmile_qr_scan", "android": "https://dc.lft.to/lastmile_qr_scan"}, "lon": -77.00529916666666, "type": "electric_bike", "fusion_lat": 0.0, "lat": 38.880002833333336, "name": "2f2251b9b6eebf55498244e6f2fcf986", "fusion_lon": 0.0, "bike_id": "2f2251b9b6eebf55498244e6f2fcf986", "is_disabled": 0, "is_reserved": 0}, {"rental_uris": {"ios": "https://dc.lft.to/lastmile_qr_scan", "android": "https://dc.lft.to/lastmile_qr_scan"}, "lon": -77.00106183333334, "type": "electric_scooter", "fusion_lat": 0.0, "lat": 38.894245833333336, "name": "67c556fc844227fbbde53f2f4c8d352a", "fusion_lon": 0.0, "bike_id": "67c556fc844227fbbde53f2f4c8d352a", "is_disabled": 0, "is_reserved": 0}, {"rental_uris": {"ios": "https://dc.lft.to/lastmile_qr_scan", "android": "https://dc.lft.to/lastmile_qr_scan"}, "lon": -77.02451933333333, "type": "electric_scooter", "fusion_lat": 0.0, "lat": 38.937316333333335, "name": "cd9f31283ea9380cb72ba0950264a9f4", "fusion_lon": 0.0, "bike_id": "cd9f31283ea9380cb72ba0950264a9f4", "is_disabled": 0, "is_reserved": 0}, {"rental_uris": {"ios": "https://dc.lft.to/lastmile_qr_scan", "android": "https://dc.lft.to/lastmile_qr_scan"}, "lon": -77.04665, "type": "electric_scooter", "fusion_lat": 0.0, "lat": 38.904816833333335, "name": "2ca7b0b1ce3432d450cce74591cfc175", "fusion_lon": 0.0, "bike_id": "2ca7b0b1ce3432d450cce74591cfc175", "is_disabled": 0, "is_reserved": 0}, {"rental_uris": {"ios": "https://dc.lft.to/lastmile_qr_scan", "android": "https://dc.lft.to/lastmile_qr_scan"}, "lon": -77.04879366666667, "type": "electric_scooter", "fusion_lat": 0.0, "lat": 38.90066133333333, "name": "659e3095706a5ed18ab3f4038dd7d529", "fusion_lon": 0.0, "bike_id": "659e3095706a5ed18ab3f4038dd7d529", "is_disabled": 0, "is_reserved": 0}, {"rental_uris": {"ios": "https://dc.lft.to/lastmile_qr_scan", "android": "https://dc.lft.to/lastmile_qr_scan"}, "lon": -77.03632216666666, "type": "electric_scooter", "fusion_lat": 0.0, "lat": 38.92651266666667, "name": "cfd7e66fcda03abbed6e56ec4f3a5aa6", "fusion_lon": 0.0, "bike_id": "cfd7e66fcda03abbed6e56ec4f3a5aa6", "is_disabled": 0, "is_reserved": 0}, {"rental_uris": {"ios": "https://dc.lft.to/lastmile_qr_scan", "android": "https://dc.lft.to/lastmile_qr_scan"}, "lon": -77.00428816666667, "type": "electric_scooter", "fusion_lat": 0.0, "lat": 38.90388566666667, "name": "2696f7c53034b77073edb9bf204fbfbe", "fusion_lon": 0.0, "bike_id": "2696f7c53034b77073edb9bf204fbfbe", "is_disabled": 0, "is_reserved": 0}, {"rental_uris": {"ios": "https://dc.lft.to/lastmile_qr_scan", "android": "https://dc.lft.to/lastmile_qr_scan"}, "lon": -77.02025883333333, "type": "electric_scooter", "fusion_lat": 0.0, "lat": 38.915419666666665, "name": "145459408ccf5982d2aeaa3ca2d1f925", "fusion_lon": 0.0, "bike_id": "145459408ccf5982d2aeaa3ca2d1f925", "is_disabled": 0, "is_reserved": 0}, {"rental_uris": {"ios": "https://dc.lft.to/lastmile_qr_scan", "android": "https://dc.lft.to/lastmile_qr_scan"}, "lon": -77.04199433333334, "type": "electric_scooter", "fusion_lat": 0.0, "lat": 38.920407833333336, "name": "5f1b531e5b402f0b9b45a7b95123fd87", "fusion_lon": 0.0, "bike_id": "5f1b531e5b402f0b9b45a7b95123fd87", "is_disabled": 0, "is_reserved": 0}, {"rental_uris": {"ios": "https://dc.lft.to/lastmile_qr_scan", "android": "https://dc.lft.to/lastmile_qr_scan"}, "lon": -77.02604566666666, "type": "electric_scooter", "fusion_lat": 0.0, "lat": 38.8966965, "name": "f0cbecd3c4e532fb5a6380b4a046578c", "fusion_lon": 0.0, "bike_id": "f0cbecd3c4e532fb5a6380b4a046578c", "is_disabled": 0, "is_reserved": 0}, {"rental_uris": {"ios": "https://dc.lft.to/lastmile_qr_scan", "android": "https://dc.lft.to/lastmile_qr_scan"}, "lon": -77.02545666666667, "type": "electric_scooter", "fusion_lat": 0.0, "lat": 38.93498616666667, "name": "3ce8e7457fa9f5d5f4e548537dc347f1", "fusion_lon": 0.0, "bike_id": "3ce8e7457fa9f5d5f4e548537dc347f1", "is_disabled": 0, "is_reserved": 0}, {"rental_uris": {"ios": "https://dc.lft.to/lastmile_qr_scan", "android": "https://dc.lft.to/lastmile_qr_scan"}, "lon": -77.032553, "type": "electric_bike", "fusion_lat": 0.0, "lat": 38.962691166666666, "name": "7a39f5a323dadc98718704161eea974c", "fusion_lon": 0.0, "bike_id": "7a39f5a323dadc98718704161eea974c", "is_disabled": 0, "is_reserved": 0}, {"rental_uris": {"ios": "https://dc.lft.to/lastmile_qr_scan", "android": "https://dc.lft.to/lastmile_qr_scan"}, "lon": -76.95757566666667, "type": "electric_scooter", "fusion_lat": 0.0, "lat": 38.88420283333333, "name": "2cb5bf088dad198ec68f80cb1c74a5ab", "fusion_lon": 0.0, "bike_id": "2cb5bf088dad198ec68f80cb1c74a5ab", "is_disabled": 0, "is_reserved": 0}, {"rental_uris": {"ios": "https://dc.lft.to/lastmile_qr_scan", "android": "https://dc.lft.to/lastmile_qr_scan"}, "lon": -77.06194083333334, "type": "electric_scooter", "fusion_lat": 0.0, "lat": 38.90878166666667, "name": "03e68aa0e4521c6b402bf99e73a2c75d", "fusion_lon": 0.0, "bike_id": "03e68aa0e4521c6b402bf99e73a2c75d", "is_disabled": 0, "is_reserved": 0}, {"rental_uris": {"ios": "https://dc.lft.to/lastmile_qr_scan", "android": "https://dc.lft.to/lastmile_qr_scan"}, "lon": -77.014025, "type": "electric_scooter", "fusion_lat": 0.0, "lat": 38.89225283333333, "name": "f7cf8c6b369829c7583a8569d32fdca3", "fusion_lon": 0.0, "bike_id": "f7cf8c6b369829c7583a8569d32fdca3", "is_disabled": 0, "is_reserved": 0}, {"rental_uris": {"ios": "https://dc.lft.to/lastmile_qr_scan", "android": "https://dc.lft.to/lastmile_qr_scan"}, "lon": -76.98138, "type": "electric_scooter", "fusion_lat": 0.0, "lat": 38.85715033333334, "name": "dbd8cdb3c22c0674a578a8dbd09e2ab9", "fusion_lon": 0.0, "bike_id": "dbd8cdb3c22c0674a578a8dbd09e2ab9", "is_disabled": 0, "is_reserved": 0}, {"rental_uris": {"ios": "https://dc.lft.to/lastmile_qr_scan", "android": "https://dc.lft.to/lastmile_qr_scan"}, "lon": -77.054768, "type": "electric_scooter", "fusion_lat": 0.0, "lat": 38.91062933333333, "name": "fff4d2ab38d8a4e40de16ad63e1e5747", "fusion_lon": 0.0, "bike_id": "fff4d2ab38d8a4e40de16ad63e1e5747", "is_disabled": 0, "is_reserved": 0}, {"rental_uris": {"ios": "https://dc.lft.to/lastmile_qr_scan", "android": "https://dc.lft.to/lastmile_qr_scan"}, "lon": -77.05546016666666, "type": "electric_scooter", "fusion_lat": 0.0, "lat": 38.925258, "name": "cb39216c49e9f465169610b931b59785", "fusion_lon": 0.0, "bike_id": "cb39216c49e9f465169610b931b59785", "is_disabled": 0, "is_reserved": 0}, {"rental_uris": {"ios": "https://dc.lft.to/lastmile_qr_scan", "android": "https://dc.lft.to/lastmile_qr_scan"}, "lon": -77.047212, "type": "electric_scooter", "fusion_lat": 0.0, "lat": 38.899609833333336, "name": "f7c347131eb07e6df684bff0dc873cbb", "fusion_lon": 0.0, "bike_id": "f7c347131eb07e6df684bff0dc873cbb", "is_disabled": 0, "is_reserved": 0}, {"rental_uris": {"ios": "https://dc.lft.to/lastmile_qr_scan", "android": "https://dc.lft.to/lastmile_qr_scan"}, "lon": -77.043406, "type": "electric_scooter", "fusion_lat": 0.0, "lat": 38.91044383333333, "name": "9ff510d6af713d2065eb0be4a554ab45", "fusion_lon": 0.0, "bike_id": "9ff510d6af713d2065eb0be4a554ab45", "is_disabled": 0, "is_reserved": 0}, {"rental_uris": {"ios": "https://dc.lft.to/lastmile_qr_scan", "android": "https://dc.lft.to/lastmile_qr_scan"}, "lon": -77.03941916666666, "type": "electric_scooter", "fusion_lat": 0.0, "lat": 38.89884466666667, "name": "84f64bdc95d90f7353ccd1f075031668", "fusion_lon": 0.0, "bike_id": "84f64bdc95d90f7353ccd1f075031668", "is_disabled": 0, "is_reserved": 0}, {"rental_uris": {"ios": "https://dc.lft.to/lastmile_qr_scan", "android": "https://dc.lft.to/lastmile_qr_scan"}, "lon": -76.93966366666666, "type": "electric_scooter", "fusion_lat": 0.0, "lat": 38.899599, "name": "69a1a21533fb3a91dff82bab3c18cbbd", "fusion_lon": 0.0, "bike_id": "69a1a21533fb3a91dff82bab3c18cbbd", "is_disabled": 0, "is_reserved": 0}, {"rental_uris": {"ios": "https://dc.lft.to/lastmile_qr_scan", "android": "https://dc.lft.to/lastmile_qr_scan"}, "lon": -77.08055966666667, "type": "electric_bike", "fusion_lat": 0.0, "lat": 38.848334, "name": "23776b76fb66afdfe8aa3e67ce423ab5", "fusion_lon": 0.0, "bike_id": "23776b76fb66afdfe8aa3e67ce423ab5", "is_disabled": 0, "is_reserved": 0}, {"rental_uris": {"ios": "https://dc.lft.to/lastmile_qr_scan", "android": "https://dc.lft.to/lastmile_qr_scan"}, "lon": -77.0229035, "type": "electric_scooter", "fusion_lat": 0.0, "lat": 38.89686566666666, "name": "e533edf52301fa10ad99eac80eced692", "fusion_lon": 0.0, "bike_id": "e533edf52301fa10ad99eac80eced692", "is_disabled": 0, "is_reserved": 0}, {"rental_uris": {"ios": "https://dc.lft.to/lastmile_qr_scan", "android": "https://dc.lft.to/lastmile_qr_scan"}, "lon": -77.03565216666667, "type": "electric_scooter", "fusion_lat": 0.0, "lat": 38.939746, "name": "f8249f12a52a88a17539f50abf223e7a", "fusion_lon": 0.0, "bike_id": "f8249f12a52a88a17539f50abf223e7a", "is_disabled": 0, "is_reserved": 0}, {"rental_uris": {"ios": "https://dc.lft.to/lastmile_qr_scan", "android": "https://dc.lft.to/lastmile_qr_scan"}, "lon": -77.0658325, "type": "electric_bike", "fusion_lat": 0.0, "lat": 38.9112375, "name": "16b756c9f05856c5f23ee1af19b67551", "fusion_lon": 0.0, "bike_id": "16b756c9f05856c5f23ee1af19b67551", "is_disabled": 0, "is_reserved": 0}, {"rental_uris": {"ios": "https://dc.lft.to/lastmile_qr_scan", "android": "https://dc.lft.to/lastmile_qr_scan"}, "lon": -77.00568966666667, "type": "electric_scooter", "fusion_lat": 0.0, "lat": 38.88499933333333, "name": "89709808d43268446829acb73fa80a04", "fusion_lon": 0.0, "bike_id": "89709808d43268446829acb73fa80a04", "is_disabled": 0, "is_reserved": 0}, {"rental_uris": {"ios": "https://dc.lft.to/lastmile_qr_scan", "android": "https://dc.lft.to/lastmile_qr_scan"}, "lon": -76.99498883333334, "type": "electric_scooter", "fusion_lat": 0.0, "lat": 38.862377, "name": "d12574ae00e301ff0b186d60bd083534", "fusion_lon": 0.0, "bike_id": "d12574ae00e301ff0b186d60bd083534", "is_disabled": 0, "is_reserved": 0}, {"rental_uris": {"ios": "https://dc.lft.to/lastmile_qr_scan", "android": "https://dc.lft.to/lastmile_qr_scan"}, "lon": -76.99352266666666, "type": "electric_scooter", "fusion_lat": 0.0, "lat": 38.900018, "name": "47cad4f972ed74bf9426022bb10b8825", "fusion_lon": 0.0, "bike_id": "47cad4f972ed74bf9426022bb10b8825", "is_disabled": 0, "is_reserved": 0}, {"rental_uris": {"ios": "https://dc.lft.to/lastmile_qr_scan", "android": "https://dc.lft.to/lastmile_qr_scan"}, "lon": -77.040124, "type": "electric_scooter", "fusion_lat": 0.0, "lat": 38.93249083333333, "name": "1236e383043ee8b3402ce6be9b0b1807", "fusion_lon": 0.0, "bike_id": "1236e383043ee8b3402ce6be9b0b1807", "is_disabled": 0, "is_reserved": 0}, {"rental_uris": {"ios": "https://dc.lft.to/lastmile_qr_scan", "android": "https://dc.lft.to/lastmile_qr_scan"}, "lon": -77.05751016666666, "type": "electric_scooter", "fusion_lat": 0.0, "lat": 38.92453483333333, "name": "1d073fc1a45c0210ab6cacecf8767e7c", "fusion_lon": 0.0, "bike_id": "1d073fc1a45c0210ab6cacecf8767e7c", "is_disabled": 0, "is_reserved": 0}, {"rental_uris": {"ios": "https://dc.lft.to/lastmile_qr_scan", "android": "https://dc.lft.to/lastmile_qr_scan"}, "lon": -77.01451333333333, "type": "electric_scooter", "fusion_lat": 0.0, "lat": 38.929776, "name": "5db128d6f1efb2bf81a0ad3c4b9ba62b", "fusion_lon": 0.0, "bike_id": "5db128d6f1efb2bf81a0ad3c4b9ba62b", "is_disabled": 0, "is_reserved": 0}, {"rental_uris": {"ios": "https://dc.lft.to/lastmile_qr_scan", "android": "https://dc.lft.to/lastmile_qr_scan"}, "lon": -77.0240205, "type": "electric_scooter", "fusion_lat": 0.0, "lat": 38.93703566666667, "name": "e79787937478d4afdc47090ea482cb42", "fusion_lon": 0.0, "bike_id": "e79787937478d4afdc47090ea482cb42", "is_disabled": 0, "is_reserved": 0}, {"rental_uris": {"ios": "https://dc.lft.to/lastmile_qr_scan", "android": "https://dc.lft.to/lastmile_qr_scan"}, "lon": -76.90084716666667, "type": "electric_bike", "fusion_lat": 0.0, "lat": 38.88747133333333, "name": "e3588ca7f7cee967e1f0c0afb5e84c35", "fusion_lon": 0.0, "bike_id": "e3588ca7f7cee967e1f0c0afb5e84c35", "is_disabled": 0, "is_reserved": 0}, {"rental_uris": {"ios": "https://dc.lft.to/lastmile_qr_scan", "android": "https://dc.lft.to/lastmile_qr_scan"}, "lon": -77.0307225, "type": "electric_scooter", "fusion_lat": 0.0, "lat": 38.918176333333335, "name": "d93601aed2bf16655a81fc7c68481267", "fusion_lon": 0.0, "bike_id": "d93601aed2bf16655a81fc7c68481267", "is_disabled": 0, "is_reserved": 0}, {"rental_uris": {"ios": "https://dc.lft.to/lastmile_qr_scan", "android": "https://dc.lft.to/lastmile_qr_scan"}, "lon": -77.05299633333334, "type": "electric_scooter", "fusion_lat": 0.0, "lat": 38.89925916666667, "name": "540e518a29de375bc574aab1fa8eb7ed", "fusion_lon": 0.0, "bike_id": "540e518a29de375bc574aab1fa8eb7ed", "is_disabled": 0, "is_reserved": 0}, {"rental_uris": {"ios": "https://dc.lft.to/lastmile_qr_scan", "android": "https://dc.lft.to/lastmile_qr_scan"}, "lon": -77.00559483333333, "type": "electric_bike", "fusion_lat": 0.0, "lat": 38.83973616666667, "name": "00015f6ab1570ae6aa5479154ae1631a", "fusion_lon": 0.0, "bike_id": "00015f6ab1570ae6aa5479154ae1631a", "is_disabled": 0, "is_reserved": 0}, {"rental_uris": {"ios": "https://dc.lft.to/lastmile_qr_scan", "android": "https://dc.lft.to/lastmile_qr_scan"}, "lon": -77.04901016666666, "type": "electric_scooter", "fusion_lat": 0.0, "lat": 38.9193415, "name": "09df78beb9893ee5219410ea2cd57c74", "fusion_lon": 0.0, "bike_id": "09df78beb9893ee5219410ea2cd57c74", "is_disabled": 0, "is_reserved": 0}, {"rental_uris": {"ios": "https://dc.lft.to/lastmile_qr_scan", "android": "https://dc.lft.to/lastmile_qr_scan"}, "lon": -77.05803866666666, "type": "electric_scooter", "fusion_lat": 0.0, "lat": 38.9029325, "name": "f238b68ce2dbdd892471988bf08e60dc", "fusion_lon": 0.0, "bike_id": "f238b68ce2dbdd892471988bf08e60dc", "is_disabled": 0, "is_reserved": 0}, {"rental_uris": {"ios": "https://dc.lft.to/lastmile_qr_scan", "android": "https://dc.lft.to/lastmile_qr_scan"}, "lon": -77.048097, "type": "electric_scooter", "fusion_lat": 0.0, "lat": 38.8974465, "name": "2c5610b4e8ab6fcbe96adc2a9a335498", "fusion_lon": 0.0, "bike_id": "2c5610b4e8ab6fcbe96adc2a9a335498", "is_disabled": 0, "is_reserved": 0}, {"rental_uris": {"ios": "https://dc.lft.to/lastmile_qr_scan", "android": "https://dc.lft.to/lastmile_qr_scan"}, "lon": -77.00408666666667, "type": "electric_scooter", "fusion_lat": 0.0, "lat": 38.917487666666666, "name": "6eaa3966de0d796d3c2e719ad1c63e08", "fusion_lon": 0.0, "bike_id": "6eaa3966de0d796d3c2e719ad1c63e08", "is_disabled": 0, "is_reserved": 0}, {"rental_uris": {"ios": "https://dc.lft.to/lastmile_qr_scan", "android": "https://dc.lft.to/lastmile_qr_scan"}, "lon": -76.93547833333334, "type": "electric_bike", "fusion_lat": 0.0, "lat": 38.951789166666664, "name": "4e6674547c89b11bce842c368ffadfc8", "fusion_lon": 0.0, "bike_id": "4e6674547c89b11bce842c368ffadfc8", "is_disabled": 0, "is_reserved": 0}, {"rental_uris": {"ios": "https://dc.lft.to/lastmile_qr_scan", "android": "https://dc.lft.to/lastmile_qr_scan"}, "lon": -76.97339316666667, "type": "electric_scooter", "fusion_lat": 0.0, "lat": 38.90484983333333, "name": "cb9c281433ad6ea94efa81531e446863", "fusion_lon": 0.0, "bike_id": "cb9c281433ad6ea94efa81531e446863", "is_disabled": 0, "is_reserved": 0}, {"rental_uris": {"ios": "https://dc.lft.to/lastmile_qr_scan", "android": "https://dc.lft.to/lastmile_qr_scan"}, "lon": -77.0336265, "type": "electric_scooter", "fusion_lat": 0.0, "lat": 38.92872966666667, "name": "324e816443cc5a256b8c3281cc3a4125", "fusion_lon": 0.0, "bike_id": "324e816443cc5a256b8c3281cc3a4125", "is_disabled": 0, "is_reserved": 0}, {"rental_uris": {"ios": "https://dc.lft.to/lastmile_qr_scan", "android": "https://dc.lft.to/lastmile_qr_scan"}, "lon": -77.05683133333334, "type": "electric_scooter", "fusion_lat": 0.0, "lat": 38.9370055, "name": "ad59576398359d91e9aa21984c08fd32", "fusion_lon": 0.0, "bike_id": "ad59576398359d91e9aa21984c08fd32", "is_disabled": 0, "is_reserved": 0}, {"rental_uris": {"ios": "https://dc.lft.to/lastmile_qr_scan", "android": "https://dc.lft.to/lastmile_qr_scan"}, "lon": -77.001084, "type": "electric_scooter", "fusion_lat": 0.0, "lat": 38.87320016666666, "name": "06caf400b59b960b445174664d722e45", "fusion_lon": 0.0, "bike_id": "06caf400b59b960b445174664d722e45", "is_disabled": 0, "is_reserved": 0}, {"rental_uris": {"ios": "https://dc.lft.to/lastmile_qr_scan", "android": "https://dc.lft.to/lastmile_qr_scan"}, "lon": -77.039621, "type": "electric_scooter", "fusion_lat": 0.0, "lat": 38.919753, "name": "acdec0e2d739c98bea40edb29506a761", "fusion_lon": 0.0, "bike_id": "acdec0e2d739c98bea40edb29506a761", "is_disabled": 0, "is_reserved": 0}, {"rental_uris": {"ios": "https://dc.lft.to/lastmile_qr_scan", "android": "https://dc.lft.to/lastmile_qr_scan"}, "lon": -77.032259, "type": "electric_scooter", "fusion_lat": 0.0, "lat": 38.90030933333333, "name": "210b1cc52176b0fd0e3cb4d00b75047b", "fusion_lon": 0.0, "bike_id": "210b1cc52176b0fd0e3cb4d00b75047b", "is_disabled": 0, "is_reserved": 0}, {"rental_uris": {"ios": "https://dc.lft.to/lastmile_qr_scan", "android": "https://dc.lft.to/lastmile_qr_scan"}, "lon": -77.0215595, "type": "electric_scooter", "fusion_lat": 0.0, "lat": 38.89602083333333, "name": "3736901859a8ef7e8e17aae687243c43", "fusion_lon": 0.0, "bike_id": "3736901859a8ef7e8e17aae687243c43", "is_disabled": 0, "is_reserved": 0}, {"rental_uris": {"ios": "https://dc.lft.to/lastmile_qr_scan", "android": "https://dc.lft.to/lastmile_qr_scan"}, "lon": -77.03824866666666, "type": "electric_scooter", "fusion_lat": 0.0, "lat": 38.90957183333333, "name": "ba62f34b9ca377e05199228ea800ae76", "fusion_lon": 0.0, "bike_id": "ba62f34b9ca377e05199228ea800ae76", "is_disabled": 0, "is_reserved": 0}, {"rental_uris": {"ios": "https://dc.lft.to/lastmile_qr_scan", "android": "https://dc.lft.to/lastmile_qr_scan"}, "lon": -77.03170233333333, "type": "electric_scooter", "fusion_lat": 0.0, "lat": 38.8835595, "name": "f568ad1608984fa0edf3cff97964913d", "fusion_lon": 0.0, "bike_id": "f568ad1608984fa0edf3cff97964913d", "is_disabled": 0, "is_reserved": 0}, {"rental_uris": {"ios": "https://dc.lft.to/lastmile_qr_scan", "android": "https://dc.lft.to/lastmile_qr_scan"}, "lon": -77.014145, "type": "electric_scooter", "fusion_lat": 0.0, "lat": 38.92015266666667, "name": "14e7850a296135cd88817cf18dea3db5", "fusion_lon": 0.0, "bike_id": "14e7850a296135cd88817cf18dea3db5", "is_disabled": 0, "is_reserved": 0}, {"rental_uris": {"ios": "https://dc.lft.to/lastmile_qr_scan", "android": "https://dc.lft.to/lastmile_qr_scan"}, "lon": -77.02965433333334, "type": "electric_scooter", "fusion_lat": 0.0, "lat": 38.900581, "name": "5145bdec0e73a7335eb666a6deb48ec6", "fusion_lon": 0.0, "bike_id": "5145bdec0e73a7335eb666a6deb48ec6", "is_disabled": 0, "is_reserved": 0}, {"rental_uris": {"ios": "https://dc.lft.to/lastmile_qr_scan", "android": "https://dc.lft.to/lastmile_qr_scan"}, "lon": -77.03274866666666, "type": "electric_scooter", "fusion_lat": 0.0, "lat": 38.928728166666666, "name": "8d81c76e18ff7f74b560b5a7e2180d4f", "fusion_lon": 0.0, "bike_id": "8d81c76e18ff7f74b560b5a7e2180d4f", "is_disabled": 0, "is_reserved": 0}, {"rental_uris": {"ios": "https://dc.lft.to/lastmile_qr_scan", "android": "https://dc.lft.to/lastmile_qr_scan"}, "lon": -76.93867633333333, "type": "electric_scooter", "fusion_lat": 0.0, "lat": 38.900826333333335, "name": "53e2f239bd58de86244831929de9a4b5", "fusion_lon": 0.0, "bike_id": "53e2f239bd58de86244831929de9a4b5", "is_disabled": 0, "is_reserved": 0}, {"rental_uris": {"ios": "https://dc.lft.to/lastmile_qr_scan", "android": "https://dc.lft.to/lastmile_qr_scan"}, "lon": -76.97668083333333, "type": "electric_bike", "fusion_lat": 0.0, "lat": 38.9662255, "name": "56550443d52a8a08265d9876eeebe741", "fusion_lon": 0.0, "bike_id": "56550443d52a8a08265d9876eeebe741", "is_disabled": 0, "is_reserved": 0}, {"rental_uris": {"ios": "https://dc.lft.to/lastmile_qr_scan", "android": "https://dc.lft.to/lastmile_qr_scan"}, "lon": -77.0326345, "type": "electric_scooter", "fusion_lat": 0.0, "lat": 38.935174833333335, "name": "e0751c4dcf03d1ce36e07f59caf88b77", "fusion_lon": 0.0, "bike_id": "e0751c4dcf03d1ce36e07f59caf88b77", "is_disabled": 0, "is_reserved": 0}, {"rental_uris": {"ios": "https://dc.lft.to/lastmile_qr_scan", "android": "https://dc.lft.to/lastmile_qr_scan"}, "lon": -76.98955766666667, "type": "electric_scooter", "fusion_lat": 0.0, "lat": 38.901262333333335, "name": "30f0a0c3203f834dcbc468491f555cd3", "fusion_lon": 0.0, "bike_id": "30f0a0c3203f834dcbc468491f555cd3", "is_disabled": 0, "is_reserved": 0}, {"rental_uris": {"ios": "https://dc.lft.to/lastmile_qr_scan", "android": "https://dc.lft.to/lastmile_qr_scan"}, "lon": -77.0436545, "type": "electric_scooter", "fusion_lat": 0.0, "lat": 38.892343, "name": "1dde8e9eab9bdd61df84cd24b31e6297", "fusion_lon": 0.0, "bike_id": "1dde8e9eab9bdd61df84cd24b31e6297", "is_disabled": 0, "is_reserved": 0}, {"rental_uris": {"ios": "https://dc.lft.to/lastmile_qr_scan", "android": "https://dc.lft.to/lastmile_qr_scan"}, "lon": -77.01227316666666, "type": "electric_scooter", "fusion_lat": 0.0, "lat": 38.90031666666667, "name": "6131dd19689aaf861a389341e6879479", "fusion_lon": 0.0, "bike_id": "6131dd19689aaf861a389341e6879479", "is_disabled": 0, "is_reserved": 0}, {"rental_uris": {"ios": "https://dc.lft.to/lastmile_qr_scan", "android": "https://dc.lft.to/lastmile_qr_scan"}, "lon": -77.02391966666667, "type": "electric_scooter", "fusion_lat": 0.0, "lat": 38.907378, "name": "0f7c699032ab4e6c55e19e93896c18f7", "fusion_lon": 0.0, "bike_id": "0f7c699032ab4e6c55e19e93896c18f7", "is_disabled": 0, "is_reserved": 0}, {"rental_uris": {"ios": "https://dc.lft.to/lastmile_qr_scan", "android": "https://dc.lft.to/lastmile_qr_scan"}, "lon": -77.01999116666667, "type": "electric_scooter", "fusion_lat": 0.0, "lat": 38.8774365, "name": "31b18c910b009593d1a6f3ed0195b274", "fusion_lon": 0.0, "bike_id": "31b18c910b009593d1a6f3ed0195b274", "is_disabled": 0, "is_reserved": 0}, {"rental_uris": {"ios": "https://dc.lft.to/lastmile_qr_scan", "android": "https://dc.lft.to/lastmile_qr_scan"}, "lon": -77.0345185, "type": "electric_scooter", "fusion_lat": 0.0, "lat": 38.91017933333333, "name": "56a3ea476ce607414bfe5a26661e0b04", "fusion_lon": 0.0, "bike_id": "56a3ea476ce607414bfe5a26661e0b04", "is_disabled": 0, "is_reserved": 0}, {"rental_uris": {"ios": "https://dc.lft.to/lastmile_qr_scan", "android": "https://dc.lft.to/lastmile_qr_scan"}, "lon": -77.0777905, "type": "electric_scooter", "fusion_lat": 0.0, "lat": 38.94558983333334, "name": "2ad6362b7c1a40542024cac2b0732ec6", "fusion_lon": 0.0, "bike_id": "2ad6362b7c1a40542024cac2b0732ec6", "is_disabled": 0, "is_reserved": 0}, {"rental_uris": {"ios": "https://dc.lft.to/lastmile_qr_scan", "android": "https://dc.lft.to/lastmile_qr_scan"}, "lon": -77.06268816666666, "type": "electric_scooter", "fusion_lat": 0.0, "lat": 38.90279233333333, "name": "a4fb998d5269f39990c1feb6a84716de", "fusion_lon": 0.0, "bike_id": "a4fb998d5269f39990c1feb6a84716de", "is_disabled": 0, "is_reserved": 0}, {"rental_uris": {"ios": "https://dc.lft.to/lastmile_qr_scan", "android": "https://dc.lft.to/lastmile_qr_scan"}, "lon": -77.04905916666667, "type": "electric_scooter", "fusion_lat": 0.0, "lat": 38.903791, "name": "459f3b2180ce1826f91de454aebc116c", "fusion_lon": 0.0, "bike_id": "459f3b2180ce1826f91de454aebc116c", "is_disabled": 0, "is_reserved": 0}, {"rental_uris": {"ios": "https://dc.lft.to/lastmile_qr_scan", "android": "https://dc.lft.to/lastmile_qr_scan"}, "lon": -76.98846066666667, "type": "electric_bike", "fusion_lat": 0.0, "lat": 38.8426715, "name": "d19bb32fe65ccdf88b65a2c89d7121d0", "fusion_lon": 0.0, "bike_id": "d19bb32fe65ccdf88b65a2c89d7121d0", "is_disabled": 0, "is_reserved": 0}, {"rental_uris": {"ios": "https://dc.lft.to/lastmile_qr_scan", "android": "https://dc.lft.to/lastmile_qr_scan"}, "lon": -77.03858166666667, "type": "electric_scooter", "fusion_lat": 0.0, "lat": 38.90462933333333, "name": "0c4f6b3ecf96a4f43c4eb9a992a20b2c", "fusion_lon": 0.0, "bike_id": "0c4f6b3ecf96a4f43c4eb9a992a20b2c", "is_disabled": 0, "is_reserved": 0}, {"rental_uris": {"ios": "https://dc.lft.to/lastmile_qr_scan", "android": "https://dc.lft.to/lastmile_qr_scan"}, "lon": -76.9519185, "type": "electric_bike", "fusion_lat": 0.0, "lat": 38.906756666666666, "name": "0000fdd7936722a06c2b89b7442b6848", "fusion_lon": 0.0, "bike_id": "0000fdd7936722a06c2b89b7442b6848", "is_disabled": 0, "is_reserved": 0}, {"rental_uris": {"ios": "https://dc.lft.to/lastmile_qr_scan", "android": "https://dc.lft.to/lastmile_qr_scan"}, "lon": -76.99961716666667, "type": "electric_scooter", "fusion_lat": 0.0, "lat": 38.9048785, "name": "332cfe885b3d1381234e2e77619ca9e8", "fusion_lon": 0.0, "bike_id": "332cfe885b3d1381234e2e77619ca9e8", "is_disabled": 0, "is_reserved": 0}, {"rental_uris": {"ios": "https://dc.lft.to/lastmile_qr_scan", "android": "https://dc.lft.to/lastmile_qr_scan"}, "lon": -77.011112, "type": "electric_scooter", "fusion_lat": 0.0, "lat": 38.903550333333335, "name": "3054b8af91bf7f8735aca74394e84da7", "fusion_lon": 0.0, "bike_id": "3054b8af91bf7f8735aca74394e84da7", "is_disabled": 0, "is_reserved": 0}, {"rental_uris": {"ios": "https://dc.lft.to/lastmile_qr_scan", "android": "https://dc.lft.to/lastmile_qr_scan"}, "lon": -77.08203, "type": "electric_bike", "fusion_lat": 0.0, "lat": 38.92194666666666, "name": "824e21b11947887932cbc967f7ef96b2", "fusion_lon": 0.0, "bike_id": "824e21b11947887932cbc967f7ef96b2", "is_disabled": 0, "is_reserved": 0}, {"rental_uris": {"ios": "https://dc.lft.to/lastmile_qr_scan", "android": "https://dc.lft.to/lastmile_qr_scan"}, "lon": -77.07920616666667, "type": "electric_bike", "fusion_lat": 0.0, "lat": 38.80218516666667, "name": "28a8b3c7906467b122eef38d54097241", "fusion_lon": 0.0, "bike_id": "28a8b3c7906467b122eef38d54097241", "is_disabled": 0, "is_reserved": 0}, {"rental_uris": {"ios": "https://dc.lft.to/lastmile_qr_scan", "android": "https://dc.lft.to/lastmile_qr_scan"}, "lon": -77.03667516666667, "type": "electric_scooter", "fusion_lat": 0.0, "lat": 38.918655666666666, "name": "a9a3d062854cfc86f410c156f679f7f0", "fusion_lon": 0.0, "bike_id": "a9a3d062854cfc86f410c156f679f7f0", "is_disabled": 0, "is_reserved": 0}, {"rental_uris": {"ios": "https://dc.lft.to/lastmile_qr_scan", "android": "https://dc.lft.to/lastmile_qr_scan"}, "lon": -77.071471, "type": "electric_scooter", "fusion_lat": 0.0, "lat": 38.95270333333333, "name": "5b49faf9785b4e89241a4f758daf8e74", "fusion_lon": 0.0, "bike_id": "5b49faf9785b4e89241a4f758daf8e74", "is_disabled": 0, "is_reserved": 0}, {"rental_uris": {"ios": "https://dc.lft.to/lastmile_qr_scan", "android": "https://dc.lft.to/lastmile_qr_scan"}, "lon": -77.04291466666666, "type": "electric_scooter", "fusion_lat": 0.0, "lat": 38.895322, "name": "edbd5041ced1cf06830c959731561299", "fusion_lon": 0.0, "bike_id": "edbd5041ced1cf06830c959731561299", "is_disabled": 0, "is_reserved": 0}, {"rental_uris": {"ios": "https://dc.lft.to/lastmile_qr_scan", "android": "https://dc.lft.to/lastmile_qr_scan"}, "lon": -76.959037, "type": "electric_scooter", "fusion_lat": 0.0, "lat": 38.9268575, "name": "01e67c76fb7f359cea46cb853c12f363", "fusion_lon": 0.0, "bike_id": "01e67c76fb7f359cea46cb853c12f363", "is_disabled": 0, "is_reserved": 0}, {"rental_uris": {"ios": "https://dc.lft.to/lastmile_qr_scan", "android": "https://dc.lft.to/lastmile_qr_scan"}, "lon": -77.04032566666666, "type": "electric_scooter", "fusion_lat": 0.0, "lat": 38.916960333333336, "name": "4de0088310a1021f23387ff0f537e0f5", "fusion_lon": 0.0, "bike_id": "4de0088310a1021f23387ff0f537e0f5", "is_disabled": 0, "is_reserved": 0}, {"rental_uris": {"ios": "https://dc.lft.to/lastmile_qr_scan", "android": "https://dc.lft.to/lastmile_qr_scan"}, "lon": -77.01368716666667, "type": "electric_scooter", "fusion_lat": 0.0, "lat": 38.88649983333333, "name": "a894e43139ed925bc59c6e5f7c722a88", "fusion_lon": 0.0, "bike_id": "a894e43139ed925bc59c6e5f7c722a88", "is_disabled": 0, "is_reserved": 0}, {"rental_uris": {"ios": "https://dc.lft.to/lastmile_qr_scan", "android": "https://dc.lft.to/lastmile_qr_scan"}, "lon": -76.931776, "type": "electric_scooter", "fusion_lat": 0.0, "lat": 38.8988075, "name": "f1da30fdf77e2c1fed124f45a3cb8015", "fusion_lon": 0.0, "bike_id": "f1da30fdf77e2c1fed124f45a3cb8015", "is_disabled": 0, "is_reserved": 0}, {"rental_uris": {"ios": "https://dc.lft.to/lastmile_qr_scan", "android": "https://dc.lft.to/lastmile_qr_scan"}, "lon": -77.03457133333333, "type": "electric_scooter", "fusion_lat": 0.0, "lat": 38.909377, "name": "1ac48f574d8b546745e240a87c474c6f", "fusion_lon": 0.0, "bike_id": "1ac48f574d8b546745e240a87c474c6f", "is_disabled": 0, "is_reserved": 0}, {"rental_uris": {"ios": "https://dc.lft.to/lastmile_qr_scan", "android": "https://dc.lft.to/lastmile_qr_scan"}, "lon": -77.016789, "type": "electric_scooter", "fusion_lat": 0.0, "lat": 38.904664833333335, "name": "a0d5a2f9c7519e6023bce8ac8314ad8b", "fusion_lon": 0.0, "bike_id": "a0d5a2f9c7519e6023bce8ac8314ad8b", "is_disabled": 0, "is_reserved": 0}, {"rental_uris": {"ios": "https://dc.lft.to/lastmile_qr_scan", "android": "https://dc.lft.to/lastmile_qr_scan"}, "lon": -76.974296, "type": "electric_bike", "fusion_lat": 0.0, "lat": 38.932046, "name": "fa091767c89f29c83fe92f59999f569d", "fusion_lon": 0.0, "bike_id": "fa091767c89f29c83fe92f59999f569d", "is_disabled": 0, "is_reserved": 0}, {"rental_uris": {"ios": "https://dc.lft.to/lastmile_qr_scan", "android": "https://dc.lft.to/lastmile_qr_scan"}, "lon": -77.03190383333333, "type": "electric_scooter", "fusion_lat": 0.0, "lat": 38.910979166666664, "name": "bf8d573343005f179d3dfac49b5b71c2", "fusion_lon": 0.0, "bike_id": "bf8d573343005f179d3dfac49b5b71c2", "is_disabled": 0, "is_reserved": 0}, {"rental_uris": {"ios": "https://dc.lft.to/lastmile_qr_scan", "android": "https://dc.lft.to/lastmile_qr_scan"}, "lon": -77.04251416666666, "type": "electric_scooter", "fusion_lat": 0.0, "lat": 38.9219655, "name": "b077efce54158c8df35c17c04f8dbff9", "fusion_lon": 0.0, "bike_id": "b077efce54158c8df35c17c04f8dbff9", "is_disabled": 0, "is_reserved": 0}, {"rental_uris": {"ios": "https://dc.lft.to/lastmile_qr_scan", "android": "https://dc.lft.to/lastmile_qr_scan"}, "lon": -77.0318395, "type": "electric_scooter", "fusion_lat": 0.0, "lat": 38.9112315, "name": "886e6ec967a325534f74b6dbfbc03d45", "fusion_lon": 0.0, "bike_id": "886e6ec967a325534f74b6dbfbc03d45", "is_disabled": 0, "is_reserved": 0}, {"rental_uris": {"ios": "https://dc.lft.to/lastmile_qr_scan", "android": "https://dc.lft.to/lastmile_qr_scan"}, "lon": -76.9499745, "type": "electric_scooter", "fusion_lat": 0.0, "lat": 38.8937325, "name": "162d6f957aefa5c423e2673860628c01", "fusion_lon": 0.0, "bike_id": "162d6f957aefa5c423e2673860628c01", "is_disabled": 0, "is_reserved": 0}, {"rental_uris": {"ios": "https://dc.lft.to/lastmile_qr_scan", "android": "https://dc.lft.to/lastmile_qr_scan"}, "lon": -77.08192716666667, "type": "electric_scooter", "fusion_lat": 0.0, "lat": 38.92006283333333, "name": "a6fe1c1aec8284338f1524fe233e8794", "fusion_lon": 0.0, "bike_id": "a6fe1c1aec8284338f1524fe233e8794", "is_disabled": 0, "is_reserved": 0}, {"rental_uris": {"ios": "https://dc.lft.to/lastmile_qr_scan", "android": "https://dc.lft.to/lastmile_qr_scan"}, "lon": -77.182848, "type": "electric_bike", "fusion_lat": 0.0, "lat": 38.8834885, "name": "1f118d8e9e3305673c8366e435e264f8", "fusion_lon": 0.0, "bike_id": "1f118d8e9e3305673c8366e435e264f8", "is_disabled": 0, "is_reserved": 0}, {"rental_uris": {"ios": "https://dc.lft.to/lastmile_qr_scan", "android": "https://dc.lft.to/lastmile_qr_scan"}, "lon": -77.0257585, "type": "electric_scooter", "fusion_lat": 0.0, "lat": 38.90128433333334, "name": "1945caa3565bfd1d103a8264a6659dd8", "fusion_lon": 0.0, "bike_id": "1945caa3565bfd1d103a8264a6659dd8", "is_disabled": 0, "is_reserved": 0}, {"rental_uris": {"ios": "https://dc.lft.to/lastmile_qr_scan", "android": "https://dc.lft.to/lastmile_qr_scan"}, "lon": -77.0713785, "type": "electric_scooter", "fusion_lat": 0.0, "lat": 38.927283, "name": "f456adf6a40093c58e9d61d24674ac11", "fusion_lon": 0.0, "bike_id": "f456adf6a40093c58e9d61d24674ac11", "is_disabled": 0, "is_reserved": 0}, {"rental_uris": {"ios": "https://dc.lft.to/lastmile_qr_scan", "android": "https://dc.lft.to/lastmile_qr_scan"}, "lon": -77.10755883333333, "type": "electric_bike", "fusion_lat": 0.0, "lat": 38.886151, "name": "bbf5e365ad7bab7dbd41bdb6ddee3217", "fusion_lon": 0.0, "bike_id": "bbf5e365ad7bab7dbd41bdb6ddee3217", "is_disabled": 0, "is_reserved": 0}, {"rental_uris": {"ios": "https://dc.lft.to/lastmile_qr_scan", "android": "https://dc.lft.to/lastmile_qr_scan"}, "lon": -77.1359905, "type": "electric_bike", "fusion_lat": 0.0, "lat": 39.0534265, "name": "a4ca9a58430b081612aadd5a10a3fcb3", "fusion_lon": 0.0, "bike_id": "a4ca9a58430b081612aadd5a10a3fcb3", "is_disabled": 0, "is_reserved": 0}, {"rental_uris": {"ios": "https://dc.lft.to/lastmile_qr_scan", "android": "https://dc.lft.to/lastmile_qr_scan"}, "lon": -76.98720383333334, "type": "electric_scooter", "fusion_lat": 0.0, "lat": 38.862585833333334, "name": "9a8cc9f63148c1c173a1e9339eb8a6e3", "fusion_lon": 0.0, "bike_id": "9a8cc9f63148c1c173a1e9339eb8a6e3", "is_disabled": 0, "is_reserved": 0}, {"rental_uris": {"ios": "https://dc.lft.to/lastmile_qr_scan", "android": "https://dc.lft.to/lastmile_qr_scan"}, "lon": -77.03449933333333, "type": "electric_scooter", "fusion_lat": 0.0, "lat": 38.907304833333335, "name": "7bf80676524cc8ca260332fdeec044c5", "fusion_lon": 0.0, "bike_id": "7bf80676524cc8ca260332fdeec044c5", "is_disabled": 0, "is_reserved": 0}, {"rental_uris": {"ios": "https://dc.lft.to/lastmile_qr_scan", "android": "https://dc.lft.to/lastmile_qr_scan"}, "lon": -77.078943, "type": "electric_scooter", "fusion_lat": 0.0, "lat": 38.93135316666667, "name": "800de642878d94cbe8661b21ffe60792", "fusion_lon": 0.0, "bike_id": "800de642878d94cbe8661b21ffe60792", "is_disabled": 0, "is_reserved": 0}, {"rental_uris": {"ios": "https://dc.lft.to/lastmile_qr_scan", "android": "https://dc.lft.to/lastmile_qr_scan"}, "lon": -77.11260983333334, "type": "electric_bike", "fusion_lat": 0.0, "lat": 38.844279, "name": "0b55c2f2d991585d8671f364f2a6b716", "fusion_lon": 0.0, "bike_id": "0b55c2f2d991585d8671f364f2a6b716", "is_disabled": 0, "is_reserved": 0}, {"rental_uris": {"ios": "https://dc.lft.to/lastmile_qr_scan", "android": "https://dc.lft.to/lastmile_qr_scan"}, "lon": -77.01262366666667, "type": "electric_scooter", "fusion_lat": 0.0, "lat": 38.89963916666667, "name": "5b4fe93a01331e94061b53639f7e0043", "fusion_lon": 0.0, "bike_id": "5b4fe93a01331e94061b53639f7e0043", "is_disabled": 0, "is_reserved": 0}, {"rental_uris": {"ios": "https://dc.lft.to/lastmile_qr_scan", "android": "https://dc.lft.to/lastmile_qr_scan"}, "lon": -77.01014433333333, "type": "electric_scooter", "fusion_lat": 0.0, "lat": 38.8948355, "name": "ac0b32448625dc2790f1fdc700603c5e", "fusion_lon": 0.0, "bike_id": "ac0b32448625dc2790f1fdc700603c5e", "is_disabled": 0, "is_reserved": 0}, {"rental_uris": {"ios": "https://dc.lft.to/lastmile_qr_scan", "android": "https://dc.lft.to/lastmile_qr_scan"}, "lon": -77.03214866666667, "type": "electric_scooter", "fusion_lat": 0.0, "lat": 38.916229333333334, "name": "f203936eeef8c852d8dc27f958bbbb63", "fusion_lon": 0.0, "bike_id": "f203936eeef8c852d8dc27f958bbbb63", "is_disabled": 0, "is_reserved": 0}, {"rental_uris": {"ios": "https://dc.lft.to/lastmile_qr_scan", "android": "https://dc.lft.to/lastmile_qr_scan"}, "lon": -77.02197316666667, "type": "electric_scooter", "fusion_lat": 0.0, "lat": 38.910972, "name": "cb03e27665f81ffc344edf19f1c7e386", "fusion_lon": 0.0, "bike_id": "cb03e27665f81ffc344edf19f1c7e386", "is_disabled": 0, "is_reserved": 0}, {"rental_uris": {"ios": "https://dc.lft.to/lastmile_qr_scan", "android": "https://dc.lft.to/lastmile_qr_scan"}, "lon": -76.94760266666667, "type": "electric_scooter", "fusion_lat": 0.0, "lat": 38.900616, "name": "ab22d2c4d597a25a53f966eb69dca3af", "fusion_lon": 0.0, "bike_id": "ab22d2c4d597a25a53f966eb69dca3af", "is_disabled": 0, "is_reserved": 0}, {"rental_uris": {"ios": "https://dc.lft.to/lastmile_qr_scan", "android": "https://dc.lft.to/lastmile_qr_scan"}, "lon": -77.04803716666666, "type": "electric_bike", "fusion_lat": 0.0, "lat": 38.888119333333336, "name": "e9bd356f7f680b1819d8b332e8b6358f", "fusion_lon": 0.0, "bike_id": "e9bd356f7f680b1819d8b332e8b6358f", "is_disabled": 0, "is_reserved": 0}, {"rental_uris": {"ios": "https://dc.lft.to/lastmile_qr_scan", "android": "https://dc.lft.to/lastmile_qr_scan"}, "lon": -76.9969215, "type": "electric_scooter", "fusion_lat": 0.0, "lat": 38.900807, "name": "ce76b5629cd18b2e46b06856079f71dd", "fusion_lon": 0.0, "bike_id": "ce76b5629cd18b2e46b06856079f71dd", "is_disabled": 0, "is_reserved": 0}, {"rental_uris": {"ios": "https://dc.lft.to/lastmile_qr_scan", "android": "https://dc.lft.to/lastmile_qr_scan"}, "lon": -76.97290933333333, "type": "electric_scooter", "fusion_lat": 0.0, "lat": 38.903361833333335, "name": "05d857f34f6f0c4a14e018167764c056", "fusion_lon": 0.0, "bike_id": "05d857f34f6f0c4a14e018167764c056", "is_disabled": 0, "is_reserved": 0}, {"rental_uris": {"ios": "https://dc.lft.to/lastmile_qr_scan", "android": "https://dc.lft.to/lastmile_qr_scan"}, "lon": -77.04359083333334, "type": "electric_scooter", "fusion_lat": 0.0, "lat": 38.91589866666666, "name": "52bc5263261f03adf86fa18ea87e5879", "fusion_lon": 0.0, "bike_id": "52bc5263261f03adf86fa18ea87e5879", "is_disabled": 0, "is_reserved": 0}, {"rental_uris": {"ios": "https://dc.lft.to/lastmile_qr_scan", "android": "https://dc.lft.to/lastmile_qr_scan"}, "lon": -77.00203016666667, "type": "electric_scooter", "fusion_lat": 0.0, "lat": 38.90018766666667, "name": "9ab8cf88fa0b0d959f99cf8bcdd0b93b", "fusion_lon": 0.0, "bike_id": "9ab8cf88fa0b0d959f99cf8bcdd0b93b", "is_disabled": 0, "is_reserved": 0}, {"rental_uris": {"ios": "https://dc.lft.to/lastmile_qr_scan", "android": "https://dc.lft.to/lastmile_qr_scan"}, "lon": -76.98373183333334, "type": "electric_scooter", "fusion_lat": 0.0, "lat": 38.895484833333335, "name": "6c8616b64f99f73af34d0d089f2ac395", "fusion_lon": 0.0, "bike_id": "6c8616b64f99f73af34d0d089f2ac395", "is_disabled": 0, "is_reserved": 0}, {"rental_uris": {"ios": "https://dc.lft.to/lastmile_qr_scan", "android": "https://dc.lft.to/lastmile_qr_scan"}, "lon": -77.05475616666666, "type": "electric_scooter", "fusion_lat": 0.0, "lat": 38.893883833333334, "name": "864b1ccfe8bd443063e4ef4f727d27a9", "fusion_lon": 0.0, "bike_id": "864b1ccfe8bd443063e4ef4f727d27a9", "is_disabled": 0, "is_reserved": 0}, {"rental_uris": {"ios": "https://dc.lft.to/lastmile_qr_scan", "android": "https://dc.lft.to/lastmile_qr_scan"}, "lon": -77.02213916666666, "type": "electric_scooter", "fusion_lat": 0.0, "lat": 38.89598066666667, "name": "e2da9aae6535aa13714f75bb9c0c76e0", "fusion_lon": 0.0, "bike_id": "e2da9aae6535aa13714f75bb9c0c76e0", "is_disabled": 0, "is_reserved": 0}, {"rental_uris": {"ios": "https://dc.lft.to/lastmile_qr_scan", "android": "https://dc.lft.to/lastmile_qr_scan"}, "lon": -76.95992833333334, "type": "electric_scooter", "fusion_lat": 0.0, "lat": 38.88034, "name": "04a0397916ac1b9f641edf6cc1e66247", "fusion_lon": 0.0, "bike_id": "04a0397916ac1b9f641edf6cc1e66247", "is_disabled": 0, "is_reserved": 0}, {"rental_uris": {"ios": "https://dc.lft.to/lastmile_qr_scan", "android": "https://dc.lft.to/lastmile_qr_scan"}, "lon": -77.02320383333333, "type": "electric_scooter", "fusion_lat": 0.0, "lat": 38.93050433333333, "name": "ac93ae2cffbd4e5d7d23b7d88fff6b23", "fusion_lon": 0.0, "bike_id": "ac93ae2cffbd4e5d7d23b7d88fff6b23", "is_disabled": 0, "is_reserved": 0}, {"rental_uris": {"ios": "https://dc.lft.to/lastmile_qr_scan", "android": "https://dc.lft.to/lastmile_qr_scan"}, "lon": -76.959, "type": "electric_bike", "fusion_lat": 0.0, "lat": 38.98502583333333, "name": "681d918b954778100a80f210bc1d80d8", "fusion_lon": 0.0, "bike_id": "681d918b954778100a80f210bc1d80d8", "is_disabled": 0, "is_reserved": 0}, {"rental_uris": {"ios": "https://dc.lft.to/lastmile_qr_scan", "android": "https://dc.lft.to/lastmile_qr_scan"}, "lon": -76.93231383333334, "type": "electric_bike", "fusion_lat": 0.0, "lat": 38.86588583333333, "name": "f4046893f87b61c17faa1a9cfb36b900", "fusion_lon": 0.0, "bike_id": "f4046893f87b61c17faa1a9cfb36b900", "is_disabled": 0, "is_reserved": 0}, {"rental_uris": {"ios": "https://dc.lft.to/lastmile_qr_scan", "android": "https://dc.lft.to/lastmile_qr_scan"}, "lon": -77.02737766666667, "type": "electric_scooter", "fusion_lat": 0.0, "lat": 38.88154383333333, "name": "136b9aa6e2ef10bb6062ce0331ed1b8e", "fusion_lon": 0.0, "bike_id": "136b9aa6e2ef10bb6062ce0331ed1b8e", "is_disabled": 0, "is_reserved": 0}, {"rental_uris": {"ios": "https://dc.lft.to/lastmile_qr_scan", "android": "https://dc.lft.to/lastmile_qr_scan"}, "lon": -77.129558, "type": "electric_bike", "fusion_lat": 0.0, "lat": 38.852159666666665, "name": "2049b105a815d33d5ebd740fb4db0075", "fusion_lon": 0.0, "bike_id": "2049b105a815d33d5ebd740fb4db0075", "is_disabled": 0, "is_reserved": 0}, {"rental_uris": {"ios": "https://dc.lft.to/lastmile_qr_scan", "android": "https://dc.lft.to/lastmile_qr_scan"}, "lon": -77.02262466666667, "type": "electric_scooter", "fusion_lat": 0.0, "lat": 38.87828866666667, "name": "cb87672a2c1f8546fb4d8f9bd834e227", "fusion_lon": 0.0, "bike_id": "cb87672a2c1f8546fb4d8f9bd834e227", "is_disabled": 0, "is_reserved": 0}, {"rental_uris": {"ios": "https://dc.lft.to/lastmile_qr_scan", "android": "https://dc.lft.to/lastmile_qr_scan"}, "lon": -77.048686, "type": "electric_scooter", "fusion_lat": 0.0, "lat": 38.89213933333333, "name": "52f3d9b74d44d3bd455711adfd9b7253", "fusion_lon": 0.0, "bike_id": "52f3d9b74d44d3bd455711adfd9b7253", "is_disabled": 0, "is_reserved": 0}, {"rental_uris": {"ios": "https://dc.lft.to/lastmile_qr_scan", "android": "https://dc.lft.to/lastmile_qr_scan"}, "lon": -77.02159166666667, "type": "electric_scooter", "fusion_lat": 0.0, "lat": 38.9021855, "name": "ddf826a872c32210b068e9de2936d45d", "fusion_lon": 0.0, "bike_id": "ddf826a872c32210b068e9de2936d45d", "is_disabled": 0, "is_reserved": 0}, {"rental_uris": {"ios": "https://dc.lft.to/lastmile_qr_scan", "android": "https://dc.lft.to/lastmile_qr_scan"}, "lon": -77.03274716666667, "type": "electric_scooter", "fusion_lat": 0.0, "lat": 38.92963683333333, "name": "ff7f9e120cb2d2c83f7c8b496b1e7ea5", "fusion_lon": 0.0, "bike_id": "ff7f9e120cb2d2c83f7c8b496b1e7ea5", "is_disabled": 0, "is_reserved": 0}, {"rental_uris": {"ios": "https://dc.lft.to/lastmile_qr_scan", "android": "https://dc.lft.to/lastmile_qr_scan"}, "lon": -77.0321345, "type": "electric_scooter", "fusion_lat": 0.0, "lat": 38.91813883333333, "name": "4651427661ec10d2db1caa0fcf290cbc", "fusion_lon": 0.0, "bike_id": "4651427661ec10d2db1caa0fcf290cbc", "is_disabled": 0, "is_reserved": 0}, {"rental_uris": {"ios": "https://dc.lft.to/lastmile_qr_scan", "android": "https://dc.lft.to/lastmile_qr_scan"}, "lon": -77.03841033333333, "type": "electric_scooter", "fusion_lat": 0.0, "lat": 38.93107, "name": "104ea2cd1c9649209a8f3acc40363e00", "fusion_lon": 0.0, "bike_id": "104ea2cd1c9649209a8f3acc40363e00", "is_disabled": 0, "is_reserved": 0}, {"rental_uris": {"ios": "https://dc.lft.to/lastmile_qr_scan", "android": "https://dc.lft.to/lastmile_qr_scan"}, "lon": -76.93370216666666, "type": "electric_scooter", "fusion_lat": 0.0, "lat": 38.89912433333333, "name": "21c8c6539830269fa9e4ccc7b5ee544a", "fusion_lon": 0.0, "bike_id": "21c8c6539830269fa9e4ccc7b5ee544a", "is_disabled": 0, "is_reserved": 0}, {"rental_uris": {"ios": "https://dc.lft.to/lastmile_qr_scan", "android": "https://dc.lft.to/lastmile_qr_scan"}, "lon": -77.01121316666666, "type": "electric_scooter", "fusion_lat": 0.0, "lat": 38.91177883333334, "name": "44de328dfea7513cd3676edf992a897f", "fusion_lon": 0.0, "bike_id": "44de328dfea7513cd3676edf992a897f", "is_disabled": 0, "is_reserved": 0}, {"rental_uris": {"ios": "https://dc.lft.to/lastmile_qr_scan", "android": "https://dc.lft.to/lastmile_qr_scan"}, "lon": -76.95600816666666, "type": "electric_scooter", "fusion_lat": 0.0, "lat": 38.887637166666664, "name": "4348e51ea09efc65bef45eb55380fb38", "fusion_lon": 0.0, "bike_id": "4348e51ea09efc65bef45eb55380fb38", "is_disabled": 0, "is_reserved": 0}, {"rental_uris": {"ios": "https://dc.lft.to/lastmile_qr_scan", "android": "https://dc.lft.to/lastmile_qr_scan"}, "lon": -77.03879283333333, "type": "electric_scooter", "fusion_lat": 0.0, "lat": 38.934278666666664, "name": "e40f0885e3194c369826977e214a7f3e", "fusion_lon": 0.0, "bike_id": "e40f0885e3194c369826977e214a7f3e", "is_disabled": 0, "is_reserved": 0}, {"rental_uris": {"ios": "https://dc.lft.to/lastmile_qr_scan", "android": "https://dc.lft.to/lastmile_qr_scan"}, "lon": -77.03900716666666, "type": "electric_scooter", "fusion_lat": 0.0, "lat": 38.932676666666666, "name": "c5ec0f2f5f941f7ced6bff3bb3c11824", "fusion_lon": 0.0, "bike_id": "c5ec0f2f5f941f7ced6bff3bb3c11824", "is_disabled": 0, "is_reserved": 0}, {"rental_uris": {"ios": "https://dc.lft.to/lastmile_qr_scan", "android": "https://dc.lft.to/lastmile_qr_scan"}, "lon": -77.02127633333333, "type": "electric_scooter", "fusion_lat": 0.0, "lat": 38.9160795, "name": "dc11c6da1a98e01edb1dbaf0b12bb407", "fusion_lon": 0.0, "bike_id": "dc11c6da1a98e01edb1dbaf0b12bb407", "is_disabled": 0, "is_reserved": 0}, {"rental_uris": {"ios": "https://dc.lft.to/lastmile_qr_scan", "android": "https://dc.lft.to/lastmile_qr_scan"}, "lon": -77.015003, "type": "electric_scooter", "fusion_lat": 0.0, "lat": 38.917599833333334, "name": "b388375dd99b05da90277987cd9c54e4", "fusion_lon": 0.0, "bike_id": "b388375dd99b05da90277987cd9c54e4", "is_disabled": 0, "is_reserved": 0}, {"rental_uris": {"ios": "https://dc.lft.to/lastmile_qr_scan", "android": "https://dc.lft.to/lastmile_qr_scan"}, "lon": -77.02437183333333, "type": "electric_scooter", "fusion_lat": 0.0, "lat": 38.9265215, "name": "0681deae603c62653acb43ba1a78ed8d", "fusion_lon": 0.0, "bike_id": "0681deae603c62653acb43ba1a78ed8d", "is_disabled": 0, "is_reserved": 0}, {"rental_uris": {"ios": "https://dc.lft.to/lastmile_qr_scan", "android": "https://dc.lft.to/lastmile_qr_scan"}, "lon": -77.0258265, "type": "electric_scooter", "fusion_lat": 0.0, "lat": 38.920347, "name": "251306bb580cfb73c2eb73429acfbafe", "fusion_lon": 0.0, "bike_id": "251306bb580cfb73c2eb73429acfbafe", "is_disabled": 0, "is_reserved": 0}, {"rental_uris": {"ios": "https://dc.lft.to/lastmile_qr_scan", "android": "https://dc.lft.to/lastmile_qr_scan"}, "lon": -76.987123, "type": "electric_scooter", "fusion_lat": 0.0, "lat": 38.86698283333333, "name": "59553d944134d1517c4ad08e3640cc54", "fusion_lon": 0.0, "bike_id": "59553d944134d1517c4ad08e3640cc54", "is_disabled": 0, "is_reserved": 0}, {"rental_uris": {"ios": "https://dc.lft.to/lastmile_qr_scan", "android": "https://dc.lft.to/lastmile_qr_scan"}, "lon": -76.9318025, "type": "electric_scooter", "fusion_lat": 0.0, "lat": 38.8988325, "name": "0b7f3a5eae24dd8c9d5c9e515cc98776", "fusion_lon": 0.0, "bike_id": "0b7f3a5eae24dd8c9d5c9e515cc98776", "is_disabled": 0, "is_reserved": 0}, {"rental_uris": {"ios": "https://dc.lft.to/lastmile_qr_scan", "android": "https://dc.lft.to/lastmile_qr_scan"}, "lon": -77.041472, "type": "electric_scooter", "fusion_lat": 0.0, "lat": 38.9174795, "name": "533ba4a5e8bfd3b9aac1dbb764cbf71e", "fusion_lon": 0.0, "bike_id": "533ba4a5e8bfd3b9aac1dbb764cbf71e", "is_disabled": 0, "is_reserved": 0}, {"rental_uris": {"ios": "https://dc.lft.to/lastmile_qr_scan", "android": "https://dc.lft.to/lastmile_qr_scan"}, "lon": -76.9888625, "type": "electric_scooter", "fusion_lat": 0.0, "lat": 38.86654466666667, "name": "91d2062ab50cf56700eab57abed29e87", "fusion_lon": 0.0, "bike_id": "91d2062ab50cf56700eab57abed29e87", "is_disabled": 0, "is_reserved": 0}, {"rental_uris": {"ios": "https://dc.lft.to/lastmile_qr_scan", "android": "https://dc.lft.to/lastmile_qr_scan"}, "lon": -77.0369995, "type": "electric_scooter", "fusion_lat": 0.0, "lat": 38.92637716666667, "name": "b8eb229f11dddde6adacfeace33eb6e4", "fusion_lon": 0.0, "bike_id": "b8eb229f11dddde6adacfeace33eb6e4", "is_disabled": 0, "is_reserved": 0}, {"rental_uris": {"ios": "https://dc.lft.to/lastmile_qr_scan", "android": "https://dc.lft.to/lastmile_qr_scan"}, "lon": -77.0114865, "type": "electric_bike", "fusion_lat": 0.0, "lat": 38.911829833333336, "name": "11ea7bc4ac97cd68c622f3ae18061777", "fusion_lon": 0.0, "bike_id": "11ea7bc4ac97cd68c622f3ae18061777", "is_disabled": 0, "is_reserved": 0}, {"rental_uris": {"ios": "https://dc.lft.to/lastmile_qr_scan", "android": "https://dc.lft.to/lastmile_qr_scan"}, "lon": -77.04018766666667, "type": "electric_scooter", "fusion_lat": 0.0, "lat": 38.918041833333334, "name": "b2b3e7a796dc6861c82d8c4370f11e3a", "fusion_lon": 0.0, "bike_id": "b2b3e7a796dc6861c82d8c4370f11e3a", "is_disabled": 0, "is_reserved": 0}, {"rental_uris": {"ios": "https://dc.lft.to/lastmile_qr_scan", "android": "https://dc.lft.to/lastmile_qr_scan"}, "lon": -77.00201366666667, "type": "electric_scooter", "fusion_lat": 0.0, "lat": 38.90036, "name": "82c33a87db27180631568bceeb44f9d5", "fusion_lon": 0.0, "bike_id": "82c33a87db27180631568bceeb44f9d5", "is_disabled": 0, "is_reserved": 0}, {"rental_uris": {"ios": "https://dc.lft.to/lastmile_qr_scan", "android": "https://dc.lft.to/lastmile_qr_scan"}, "lon": -77.04123366666667, "type": "electric_scooter", "fusion_lat": 0.0, "lat": 38.9170615, "name": "2aeb81841d6398d4037b2a7c4aea0239", "fusion_lon": 0.0, "bike_id": "2aeb81841d6398d4037b2a7c4aea0239", "is_disabled": 0, "is_reserved": 0}, {"rental_uris": {"ios": "https://dc.lft.to/lastmile_qr_scan", "android": "https://dc.lft.to/lastmile_qr_scan"}, "lon": -77.0256315, "type": "electric_scooter", "fusion_lat": 0.0, "lat": 38.9147825, "name": "447716aa0bc07331b74b65b27685dee2", "fusion_lon": 0.0, "bike_id": "447716aa0bc07331b74b65b27685dee2", "is_disabled": 0, "is_reserved": 0}, {"rental_uris": {"ios": "https://dc.lft.to/lastmile_qr_scan", "android": "https://dc.lft.to/lastmile_qr_scan"}, "lon": -77.02758733333333, "type": "electric_scooter", "fusion_lat": 0.0, "lat": 38.881517, "name": "7fd182fbe36d4894451679d5420acc3e", "fusion_lon": 0.0, "bike_id": "7fd182fbe36d4894451679d5420acc3e", "is_disabled": 0, "is_reserved": 0}, {"rental_uris": {"ios": "https://dc.lft.to/lastmile_qr_scan", "android": "https://dc.lft.to/lastmile_qr_scan"}, "lon": -77.05197266666667, "type": "electric_scooter", "fusion_lat": 0.0, "lat": 38.924484166666666, "name": "1e3c1d595e405076fe0e751de6d96d6a", "fusion_lon": 0.0, "bike_id": "1e3c1d595e405076fe0e751de6d96d6a", "is_disabled": 0, "is_reserved": 0}, {"rental_uris": {"ios": "https://dc.lft.to/lastmile_qr_scan", "android": "https://dc.lft.to/lastmile_qr_scan"}, "lon": -77.054369, "type": "electric_scooter", "fusion_lat": 0.0, "lat": 38.923512333333335, "name": "e0efb10fe60234fe048c82591f351f4b", "fusion_lon": 0.0, "bike_id": "e0efb10fe60234fe048c82591f351f4b", "is_disabled": 0, "is_reserved": 0}, {"rental_uris": {"ios": "https://dc.lft.to/lastmile_qr_scan", "android": "https://dc.lft.to/lastmile_qr_scan"}, "lon": -77.12963983333333, "type": "electric_bike", "fusion_lat": 0.0, "lat": 38.807894833333336, "name": "ffbd5c8e23f0fb8e683b6299484a24da", "fusion_lon": 0.0, "bike_id": "ffbd5c8e23f0fb8e683b6299484a24da", "is_disabled": 0, "is_reserved": 0}, {"rental_uris": {"ios": "https://dc.lft.to/lastmile_qr_scan", "android": "https://dc.lft.to/lastmile_qr_scan"}, "lon": -77.0295955, "type": "electric_scooter", "fusion_lat": 0.0, "lat": 38.908371, "name": "644bc47eb62d7ef39496c3c07c619ad4", "fusion_lon": 0.0, "bike_id": "644bc47eb62d7ef39496c3c07c619ad4", "is_disabled": 0, "is_reserved": 0}, {"rental_uris": {"ios": "https://dc.lft.to/lastmile_qr_scan", "android": "https://dc.lft.to/lastmile_qr_scan"}, "lon": -77.04658383333333, "type": "electric_scooter", "fusion_lat": 0.0, "lat": 38.93294216666666, "name": "9140c026aff2adb17619418310cf66fd", "fusion_lon": 0.0, "bike_id": "9140c026aff2adb17619418310cf66fd", "is_disabled": 0, "is_reserved": 0}, {"rental_uris": {"ios": "https://dc.lft.to/lastmile_qr_scan", "android": "https://dc.lft.to/lastmile_qr_scan"}, "lon": -76.99031216666667, "type": "electric_scooter", "fusion_lat": 0.0, "lat": 38.8565845, "name": "f9be8f3a9c4550e84ae7e26c215a1113", "fusion_lon": 0.0, "bike_id": "f9be8f3a9c4550e84ae7e26c215a1113", "is_disabled": 0, "is_reserved": 0}, {"rental_uris": {"ios": "https://dc.lft.to/lastmile_qr_scan", "android": "https://dc.lft.to/lastmile_qr_scan"}, "lon": -77.01307216666666, "type": "electric_bike", "fusion_lat": 0.0, "lat": 39.00359566666667, "name": "4c26506f89501852ed8faefa0bc2a385", "fusion_lon": 0.0, "bike_id": "4c26506f89501852ed8faefa0bc2a385", "is_disabled": 0, "is_reserved": 0}, {"rental_uris": {"ios": "https://dc.lft.to/lastmile_qr_scan", "android": "https://dc.lft.to/lastmile_qr_scan"}, "lon": -77.0227865, "type": "electric_scooter", "fusion_lat": 0.0, "lat": 38.87841433333333, "name": "e1ecc41e707e338720b9152ea3088e1d", "fusion_lon": 0.0, "bike_id": "e1ecc41e707e338720b9152ea3088e1d", "is_disabled": 0, "is_reserved": 0}, {"rental_uris": {"ios": "https://dc.lft.to/lastmile_qr_scan", "android": "https://dc.lft.to/lastmile_qr_scan"}, "lon": -76.93245383333333, "type": "electric_scooter", "fusion_lat": 0.0, "lat": 38.89401133333333, "name": "860f37795eec585ec167939a845f6c92", "fusion_lon": 0.0, "bike_id": "860f37795eec585ec167939a845f6c92", "is_disabled": 0, "is_reserved": 0}, {"rental_uris": {"ios": "https://dc.lft.to/lastmile_qr_scan", "android": "https://dc.lft.to/lastmile_qr_scan"}, "lon": -77.07372666666667, "type": "electric_scooter", "fusion_lat": 0.0, "lat": 38.96169, "name": "c43072f4374ce176f47e3229ab75c3bf", "fusion_lon": 0.0, "bike_id": "c43072f4374ce176f47e3229ab75c3bf", "is_disabled": 0, "is_reserved": 0}, {"rental_uris": {"ios": "https://dc.lft.to/lastmile_qr_scan", "android": "https://dc.lft.to/lastmile_qr_scan"}, "lon": -77.02321033333334, "type": "electric_scooter", "fusion_lat": 0.0, "lat": 38.930581333333336, "name": "349fdc81d472eff4f15ea233d5895c17", "fusion_lon": 0.0, "bike_id": "349fdc81d472eff4f15ea233d5895c17", "is_disabled": 0, "is_reserved": 0}, {"rental_uris": {"ios": "https://dc.lft.to/lastmile_qr_scan", "android": "https://dc.lft.to/lastmile_qr_scan"}, "lon": -77.03929483333333, "type": "electric_scooter", "fusion_lat": 0.0, "lat": 38.9248955, "name": "63cb311ddd56760326175b7fb313c56e", "fusion_lon": 0.0, "bike_id": "63cb311ddd56760326175b7fb313c56e", "is_disabled": 0, "is_reserved": 0}, {"rental_uris": {"ios": "https://dc.lft.to/lastmile_qr_scan", "android": "https://dc.lft.to/lastmile_qr_scan"}, "lon": -77.04646016666666, "type": "electric_bike", "fusion_lat": 0.0, "lat": 38.852097666666666, "name": "fbc690787c0eb4a0c829228e7d9ee1cb", "fusion_lon": 0.0, "bike_id": "fbc690787c0eb4a0c829228e7d9ee1cb", "is_disabled": 0, "is_reserved": 0}, {"rental_uris": {"ios": "https://dc.lft.to/lastmile_qr_scan", "android": "https://dc.lft.to/lastmile_qr_scan"}, "lon": -77.01943783333333, "type": "electric_scooter", "fusion_lat": 0.0, "lat": 38.947020333333334, "name": "eb9f9293c9f173c05dec7284df803c97", "fusion_lon": 0.0, "bike_id": "eb9f9293c9f173c05dec7284df803c97", "is_disabled": 0, "is_reserved": 0}, {"rental_uris": {"ios": "https://dc.lft.to/lastmile_qr_scan", "android": "https://dc.lft.to/lastmile_qr_scan"}, "lon": -77.02201783333334, "type": "electric_scooter", "fusion_lat": 0.0, "lat": 38.87874766666667, "name": "32a803e4909512d17bfc9f54bdd000b5", "fusion_lon": 0.0, "bike_id": "32a803e4909512d17bfc9f54bdd000b5", "is_disabled": 0, "is_reserved": 0}, {"rental_uris": {"ios": "https://dc.lft.to/lastmile_qr_scan", "android": "https://dc.lft.to/lastmile_qr_scan"}, "lon": -77.00727133333334, "type": "electric_scooter", "fusion_lat": 0.0, "lat": 38.87008616666667, "name": "69b5ae684e186b7c719aa7ca0fdb52a3", "fusion_lon": 0.0, "bike_id": "69b5ae684e186b7c719aa7ca0fdb52a3", "is_disabled": 0, "is_reserved": 0}, {"rental_uris": {"ios": "https://dc.lft.to/lastmile_qr_scan", "android": "https://dc.lft.to/lastmile_qr_scan"}, "lon": -77.00576333333333, "type": "electric_scooter", "fusion_lat": 0.0, "lat": 38.872776, "name": "a043498a7a50043b4795e37e99f92088", "fusion_lon": 0.0, "bike_id": "a043498a7a50043b4795e37e99f92088", "is_disabled": 0, "is_reserved": 0}, {"rental_uris": {"ios": "https://dc.lft.to/lastmile_qr_scan", "android": "https://dc.lft.to/lastmile_qr_scan"}, "lon": -77.02357933333333, "type": "electric_scooter", "fusion_lat": 0.0, "lat": 38.90958933333334, "name": "cb2896f3b2eb62c584215737e3cf3155", "fusion_lon": 0.0, "bike_id": "cb2896f3b2eb62c584215737e3cf3155", "is_disabled": 0, "is_reserved": 0}, {"rental_uris": {"ios": "https://dc.lft.to/lastmile_qr_scan", "android": "https://dc.lft.to/lastmile_qr_scan"}, "lon": -77.04548716666666, "type": "electric_scooter", "fusion_lat": 0.0, "lat": 38.934085333333336, "name": "beadfedaf0cc3787347ae161ab950f95", "fusion_lon": 0.0, "bike_id": "beadfedaf0cc3787347ae161ab950f95", "is_disabled": 0, "is_reserved": 0}, {"rental_uris": {"ios": "https://dc.lft.to/lastmile_qr_scan", "android": "https://dc.lft.to/lastmile_qr_scan"}, "lon": -77.03399933333333, "type": "electric_scooter", "fusion_lat": 0.0, "lat": 38.923483166666664, "name": "feacdfb5e71ac9d5a6fb4d290d0fba75", "fusion_lon": 0.0, "bike_id": "feacdfb5e71ac9d5a6fb4d290d0fba75", "is_disabled": 0, "is_reserved": 0}, {"rental_uris": {"ios": "https://dc.lft.to/lastmile_qr_scan", "android": "https://dc.lft.to/lastmile_qr_scan"}, "lon": -76.98533883333333, "type": "electric_scooter", "fusion_lat": 0.0, "lat": 38.9045425, "name": "f3b9723726c79773e3e873a1c18d64f3", "fusion_lon": 0.0, "bike_id": "f3b9723726c79773e3e873a1c18d64f3", "is_disabled": 0, "is_reserved": 0}, {"rental_uris": {"ios": "https://dc.lft.to/lastmile_qr_scan", "android": "https://dc.lft.to/lastmile_qr_scan"}, "lon": -76.98843483333333, "type": "electric_bike", "fusion_lat": 0.0, "lat": 38.89607566666667, "name": "18b1240a120e9b3b46b0b6e644ee4135", "fusion_lon": 0.0, "bike_id": "18b1240a120e9b3b46b0b6e644ee4135", "is_disabled": 0, "is_reserved": 0}, {"rental_uris": {"ios": "https://dc.lft.to/lastmile_qr_scan", "android": "https://dc.lft.to/lastmile_qr_scan"}, "lon": -77.02944483333333, "type": "electric_scooter", "fusion_lat": 0.0, "lat": 38.91559816666667, "name": "70a4ffb4a80cf6078685216b0183dc40", "fusion_lon": 0.0, "bike_id": "70a4ffb4a80cf6078685216b0183dc40", "is_disabled": 0, "is_reserved": 0}, {"rental_uris": {"ios": "https://dc.lft.to/lastmile_qr_scan", "android": "https://dc.lft.to/lastmile_qr_scan"}, "lon": -77.03639433333333, "type": "electric_bike", "fusion_lat": 0.0, "lat": 38.92744666666667, "name": "018bdbe235406e2a6c54f661c3b47671", "fusion_lon": 0.0, "bike_id": "018bdbe235406e2a6c54f661c3b47671", "is_disabled": 0, "is_reserved": 0}, {"rental_uris": {"ios": "https://dc.lft.to/lastmile_qr_scan", "android": "https://dc.lft.to/lastmile_qr_scan"}, "lon": -77.104612, "type": "electric_bike", "fusion_lat": 0.0, "lat": 38.89634916666667, "name": "f2a3a73c8bc20ef24377dfc6af69f592", "fusion_lon": 0.0, "bike_id": "f2a3a73c8bc20ef24377dfc6af69f592", "is_disabled": 0, "is_reserved": 0}, {"rental_uris": {"ios": "https://dc.lft.to/lastmile_qr_scan", "android": "https://dc.lft.to/lastmile_qr_scan"}, "lon": -76.93737333333334, "type": "electric_scooter", "fusion_lat": 0.0, "lat": 38.89009383333333, "name": "7447f6e89b3f64fd0e7d73545896bfb7", "fusion_lon": 0.0, "bike_id": "7447f6e89b3f64fd0e7d73545896bfb7", "is_disabled": 0, "is_reserved": 0}, {"rental_uris": {"ios": "https://dc.lft.to/lastmile_qr_scan", "android": "https://dc.lft.to/lastmile_qr_scan"}, "lon": -77.03174083333333, "type": "electric_scooter", "fusion_lat": 0.0, "lat": 38.92871983333333, "name": "67aa6de7e4cadb38c2c0f85323cd8354", "fusion_lon": 0.0, "bike_id": "67aa6de7e4cadb38c2c0f85323cd8354", "is_disabled": 0, "is_reserved": 0}, {"rental_uris": {"ios": "https://dc.lft.to/lastmile_qr_scan", "android": "https://dc.lft.to/lastmile_qr_scan"}, "lon": -76.94702283333334, "type": "electric_scooter", "fusion_lat": 0.0, "lat": 38.897301166666665, "name": "92f5daa7a1e4bc1796a512a0152789a2", "fusion_lon": 0.0, "bike_id": "92f5daa7a1e4bc1796a512a0152789a2", "is_disabled": 0, "is_reserved": 0}, {"rental_uris": {"ios": "https://dc.lft.to/lastmile_qr_scan", "android": "https://dc.lft.to/lastmile_qr_scan"}, "lon": -77.00749733333333, "type": "electric_scooter", "fusion_lat": 0.0, "lat": 38.900406, "name": "0fa35bc0c12d76dfae849af837f9a7a9", "fusion_lon": 0.0, "bike_id": "0fa35bc0c12d76dfae849af837f9a7a9", "is_disabled": 0, "is_reserved": 0}, {"rental_uris": {"ios": "https://dc.lft.to/lastmile_qr_scan", "android": "https://dc.lft.to/lastmile_qr_scan"}, "lon": -76.960854, "type": "electric_scooter", "fusion_lat": 0.0, "lat": 38.87412583333333, "name": "cc18af87f0f7c3d67f3a6b11f95d7f14", "fusion_lon": 0.0, "bike_id": "cc18af87f0f7c3d67f3a6b11f95d7f14", "is_disabled": 0, "is_reserved": 0}, {"rental_uris": {"ios": "https://dc.lft.to/lastmile_qr_scan", "android": "https://dc.lft.to/lastmile_qr_scan"}, "lon": -77.02172216666666, "type": "electric_scooter", "fusion_lat": 0.0, "lat": 38.94283466666667, "name": "d457802933e70ea6a66782a07a168589", "fusion_lon": 0.0, "bike_id": "d457802933e70ea6a66782a07a168589", "is_disabled": 0, "is_reserved": 0}, {"rental_uris": {"ios": "https://dc.lft.to/lastmile_qr_scan", "android": "https://dc.lft.to/lastmile_qr_scan"}, "lon": -77.03330216666667, "type": "electric_scooter", "fusion_lat": 0.0, "lat": 38.89901566666666, "name": "a907395247167c738b972144a6d103fc", "fusion_lon": 0.0, "bike_id": "a907395247167c738b972144a6d103fc", "is_disabled": 0, "is_reserved": 0}, {"rental_uris": {"ios": "https://dc.lft.to/lastmile_qr_scan", "android": "https://dc.lft.to/lastmile_qr_scan"}, "lon": -77.03812516666666, "type": "electric_scooter", "fusion_lat": 0.0, "lat": 38.933938, "name": "c1778fac59a3433f3dab82b1bed910c6", "fusion_lon": 0.0, "bike_id": "c1778fac59a3433f3dab82b1bed910c6", "is_disabled": 0, "is_reserved": 0}, {"rental_uris": {"ios": "https://dc.lft.to/lastmile_qr_scan", "android": "https://dc.lft.to/lastmile_qr_scan"}, "lon": -77.0671185, "type": "electric_scooter", "fusion_lat": 0.0, "lat": 38.909793666666666, "name": "bc7cfc62d027365bb60a5dbdf4d5816a", "fusion_lon": 0.0, "bike_id": "bc7cfc62d027365bb60a5dbdf4d5816a", "is_disabled": 0, "is_reserved": 0}, {"rental_uris": {"ios": "https://dc.lft.to/lastmile_qr_scan", "android": "https://dc.lft.to/lastmile_qr_scan"}, "lon": -76.94997883333333, "type": "electric_scooter", "fusion_lat": 0.0, "lat": 38.893706, "name": "78d17e7d502358c43e4189b7ead9d8a0", "fusion_lon": 0.0, "bike_id": "78d17e7d502358c43e4189b7ead9d8a0", "is_disabled": 0, "is_reserved": 0}, {"rental_uris": {"ios": "https://dc.lft.to/lastmile_qr_scan", "android": "https://dc.lft.to/lastmile_qr_scan"}, "lon": -77.03282633333333, "type": "electric_scooter", "fusion_lat": 0.0, "lat": 38.938253, "name": "615c80403ad8fccb54cd1c3f769f6a99", "fusion_lon": 0.0, "bike_id": "615c80403ad8fccb54cd1c3f769f6a99", "is_disabled": 0, "is_reserved": 0}, {"rental_uris": {"ios": "https://dc.lft.to/lastmile_qr_scan", "android": "https://dc.lft.to/lastmile_qr_scan"}, "lon": -77.019802, "type": "electric_scooter", "fusion_lat": 0.0, "lat": 38.900936, "name": "eb12b9f1f93e174e4010a1f865593ba9", "fusion_lon": 0.0, "bike_id": "eb12b9f1f93e174e4010a1f865593ba9", "is_disabled": 0, "is_reserved": 0}, {"rental_uris": {"ios": "https://dc.lft.to/lastmile_qr_scan", "android": "https://dc.lft.to/lastmile_qr_scan"}, "lon": -77.04657083333333, "type": "electric_scooter", "fusion_lat": 0.0, "lat": 38.897273166666665, "name": "22245e93e6afdc5643ad93ca073000de", "fusion_lon": 0.0, "bike_id": "22245e93e6afdc5643ad93ca073000de", "is_disabled": 0, "is_reserved": 0}, {"rental_uris": {"ios": "https://dc.lft.to/lastmile_qr_scan", "android": "https://dc.lft.to/lastmile_qr_scan"}, "lon": -76.98980833333333, "type": "electric_scooter", "fusion_lat": 0.0, "lat": 38.85911633333333, "name": "aa08f13d6d5b1d2d6f7dbf36bd4c5b91", "fusion_lon": 0.0, "bike_id": "aa08f13d6d5b1d2d6f7dbf36bd4c5b91", "is_disabled": 0, "is_reserved": 0}, {"rental_uris": {"ios": "https://dc.lft.to/lastmile_qr_scan", "android": "https://dc.lft.to/lastmile_qr_scan"}, "lon": -77.02460816666667, "type": "electric_scooter", "fusion_lat": 0.0, "lat": 38.92385516666667, "name": "a082e86d2b9ca902f3d6b747113092f0", "fusion_lon": 0.0, "bike_id": "a082e86d2b9ca902f3d6b747113092f0", "is_disabled": 0, "is_reserved": 0}, {"rental_uris": {"ios": "https://dc.lft.to/lastmile_qr_scan", "android": "https://dc.lft.to/lastmile_qr_scan"}, "lon": -77.02540816666667, "type": "electric_scooter", "fusion_lat": 0.0, "lat": 38.886465, "name": "557e61961031bec8de7744fc9f401b1e", "fusion_lon": 0.0, "bike_id": "557e61961031bec8de7744fc9f401b1e", "is_disabled": 0, "is_reserved": 0}, {"rental_uris": {"ios": "https://dc.lft.to/lastmile_qr_scan", "android": "https://dc.lft.to/lastmile_qr_scan"}, "lon": -77.02207416666667, "type": "electric_scooter", "fusion_lat": 0.0, "lat": 38.89615383333334, "name": "b2d36937884325cf196a86067c5cf0df", "fusion_lon": 0.0, "bike_id": "b2d36937884325cf196a86067c5cf0df", "is_disabled": 0, "is_reserved": 0}, {"rental_uris": {"ios": "https://dc.lft.to/lastmile_qr_scan", "android": "https://dc.lft.to/lastmile_qr_scan"}, "lon": -77.01133233333333, "type": "electric_scooter", "fusion_lat": 0.0, "lat": 38.870778333333334, "name": "edf4813ce261f68e3f943de6298a49d2", "fusion_lon": 0.0, "bike_id": "edf4813ce261f68e3f943de6298a49d2", "is_disabled": 0, "is_reserved": 0}, {"rental_uris": {"ios": "https://dc.lft.to/lastmile_qr_scan", "android": "https://dc.lft.to/lastmile_qr_scan"}, "lon": -77.0075645, "type": "electric_scooter", "fusion_lat": 0.0, "lat": 38.879105333333335, "name": "67318e6657b531adee347519cb413045", "fusion_lon": 0.0, "bike_id": "67318e6657b531adee347519cb413045", "is_disabled": 0, "is_reserved": 0}, {"rental_uris": {"ios": "https://dc.lft.to/lastmile_qr_scan", "android": "https://dc.lft.to/lastmile_qr_scan"}, "lon": -77.017572, "type": "electric_scooter", "fusion_lat": 0.0, "lat": 38.87681033333333, "name": "f9708ddcaec8cd283f3cddaecd83bad5", "fusion_lon": 0.0, "bike_id": "f9708ddcaec8cd283f3cddaecd83bad5", "is_disabled": 0, "is_reserved": 0}, {"rental_uris": {"ios": "https://dc.lft.to/lastmile_qr_scan", "android": "https://dc.lft.to/lastmile_qr_scan"}, "lon": -77.02698833333334, "type": "electric_scooter", "fusion_lat": 0.0, "lat": 38.94974216666667, "name": "626572799bfae3bcab2d86162e5b3515", "fusion_lon": 0.0, "bike_id": "626572799bfae3bcab2d86162e5b3515", "is_disabled": 0, "is_reserved": 0}, {"rental_uris": {"ios": "https://dc.lft.to/lastmile_qr_scan", "android": "https://dc.lft.to/lastmile_qr_scan"}, "lon": -76.99701733333333, "type": "electric_scooter", "fusion_lat": 0.0, "lat": 38.90007466666667, "name": "1bc7914e392ef147b2d9c2f0b908741f", "fusion_lon": 0.0, "bike_id": "1bc7914e392ef147b2d9c2f0b908741f", "is_disabled": 0, "is_reserved": 0}, {"rental_uris": {"ios": "https://dc.lft.to/lastmile_qr_scan", "android": "https://dc.lft.to/lastmile_qr_scan"}, "lon": -76.9289, "type": "electric_scooter", "fusion_lat": 0.0, "lat": 38.893265166666666, "name": "af21f225ad9fe84e9e127498920faee3", "fusion_lon": 0.0, "bike_id": "af21f225ad9fe84e9e127498920faee3", "is_disabled": 0, "is_reserved": 0}, {"rental_uris": {"ios": "https://dc.lft.to/lastmile_qr_scan", "android": "https://dc.lft.to/lastmile_qr_scan"}, "lon": -77.046153, "type": "electric_scooter", "fusion_lat": 0.0, "lat": 38.9039115, "name": "8f34d26134b8eace4c774ab72c36af66", "fusion_lon": 0.0, "bike_id": "8f34d26134b8eace4c774ab72c36af66", "is_disabled": 0, "is_reserved": 0}, {"rental_uris": {"ios": "https://dc.lft.to/lastmile_qr_scan", "android": "https://dc.lft.to/lastmile_qr_scan"}, "lon": -77.0365035, "type": "electric_scooter", "fusion_lat": 0.0, "lat": 38.92121783333333, "name": "375b1c398165be5b6d93db4b907da9d8", "fusion_lon": 0.0, "bike_id": "375b1c398165be5b6d93db4b907da9d8", "is_disabled": 0, "is_reserved": 0}, {"rental_uris": {"ios": "https://dc.lft.to/lastmile_qr_scan", "android": "https://dc.lft.to/lastmile_qr_scan"}, "lon": -76.96634233333333, "type": "electric_bike", "fusion_lat": 0.0, "lat": 38.9419625, "name": "7a0911e8ec1a70caaa2b2ee0010b6145", "fusion_lon": 0.0, "bike_id": "7a0911e8ec1a70caaa2b2ee0010b6145", "is_disabled": 0, "is_reserved": 0}, {"rental_uris": {"ios": "https://dc.lft.to/lastmile_qr_scan", "android": "https://dc.lft.to/lastmile_qr_scan"}, "lon": -77.01118366666667, "type": "electric_scooter", "fusion_lat": 0.0, "lat": 38.915471, "name": "8db095b820e24344654444d5682142f1", "fusion_lon": 0.0, "bike_id": "8db095b820e24344654444d5682142f1", "is_disabled": 0, "is_reserved": 0}, {"rental_uris": {"ios": "https://dc.lft.to/lastmile_qr_scan", "android": "https://dc.lft.to/lastmile_qr_scan"}, "lon": -77.04446, "type": "electric_scooter", "fusion_lat": 0.0, "lat": 38.910096, "name": "8b34d33d7304f85bf904595976a44246", "fusion_lon": 0.0, "bike_id": "8b34d33d7304f85bf904595976a44246", "is_disabled": 0, "is_reserved": 0}, {"rental_uris": {"ios": "https://dc.lft.to/lastmile_qr_scan", "android": "https://dc.lft.to/lastmile_qr_scan"}, "lon": -77.0240665, "type": "electric_scooter", "fusion_lat": 0.0, "lat": 38.900732166666664, "name": "bc1c34f2e9c961e8f19dfbfc0b6d50d2", "fusion_lon": 0.0, "bike_id": "bc1c34f2e9c961e8f19dfbfc0b6d50d2", "is_disabled": 0, "is_reserved": 0}, {"rental_uris": {"ios": "https://dc.lft.to/lastmile_qr_scan", "android": "https://dc.lft.to/lastmile_qr_scan"}, "lon": -77.03346116666667, "type": "electric_scooter", "fusion_lat": 0.0, "lat": 38.8853065, "name": "0471c7428c2e5628194308c1a3508679", "fusion_lon": 0.0, "bike_id": "0471c7428c2e5628194308c1a3508679", "is_disabled": 0, "is_reserved": 0}, {"rental_uris": {"ios": "https://dc.lft.to/lastmile_qr_scan", "android": "https://dc.lft.to/lastmile_qr_scan"}, "lon": -77.03320233333334, "type": "electric_scooter", "fusion_lat": 0.0, "lat": 38.926585333333335, "name": "33c6f94b191c14d163bcbed0258ee44d", "fusion_lon": 0.0, "bike_id": "33c6f94b191c14d163bcbed0258ee44d", "is_disabled": 0, "is_reserved": 0}, {"rental_uris": {"ios": "https://dc.lft.to/lastmile_qr_scan", "android": "https://dc.lft.to/lastmile_qr_scan"}, "lon": -77.07032333333333, "type": "electric_bike", "fusion_lat": 0.0, "lat": 38.91875833333334, "name": "d96f588d2c1c8d7f27a19e0bc06424a4", "fusion_lon": 0.0, "bike_id": "d96f588d2c1c8d7f27a19e0bc06424a4", "is_disabled": 0, "is_reserved": 0}, {"rental_uris": {"ios": "https://dc.lft.to/lastmile_qr_scan", "android": "https://dc.lft.to/lastmile_qr_scan"}, "lon": -76.98713, "type": "electric_scooter", "fusion_lat": 0.0, "lat": 38.8669865, "name": "059f874d43946e14317514b812fe913d", "fusion_lon": 0.0, "bike_id": "059f874d43946e14317514b812fe913d", "is_disabled": 0, "is_reserved": 0}, {"rental_uris": {"ios": "https://dc.lft.to/lastmile_qr_scan", "android": "https://dc.lft.to/lastmile_qr_scan"}, "lon": -76.98026266666666, "type": "electric_scooter", "fusion_lat": 0.0, "lat": 38.88760666666667, "name": "4202f9c7708df2c6e773c31adb315c41", "fusion_lon": 0.0, "bike_id": "4202f9c7708df2c6e773c31adb315c41", "is_disabled": 0, "is_reserved": 0}, {"rental_uris": {"ios": "https://dc.lft.to/lastmile_qr_scan", "android": "https://dc.lft.to/lastmile_qr_scan"}, "lon": -77.00518083333333, "type": "electric_scooter", "fusion_lat": 0.0, "lat": 38.89677533333333, "name": "8532d70b10ce07559ab269b8e57c3f09", "fusion_lon": 0.0, "bike_id": "8532d70b10ce07559ab269b8e57c3f09", "is_disabled": 0, "is_reserved": 0}, {"rental_uris": {"ios": "https://dc.lft.to/lastmile_qr_scan", "android": "https://dc.lft.to/lastmile_qr_scan"}, "lon": -77.03737716666667, "type": "electric_scooter", "fusion_lat": 0.0, "lat": 38.91707533333334, "name": "c2af1d253cbe4c68427e81aed35b3e13", "fusion_lon": 0.0, "bike_id": "c2af1d253cbe4c68427e81aed35b3e13", "is_disabled": 0, "is_reserved": 0}, {"rental_uris": {"ios": "https://dc.lft.to/lastmile_qr_scan", "android": "https://dc.lft.to/lastmile_qr_scan"}, "lon": -77.04001816666667, "type": "electric_scooter", "fusion_lat": 0.0, "lat": 38.90963333333333, "name": "049b882e8bc21f3bfbb277e7a14321e3", "fusion_lon": 0.0, "bike_id": "049b882e8bc21f3bfbb277e7a14321e3", "is_disabled": 0, "is_reserved": 0}, {"rental_uris": {"ios": "https://dc.lft.to/lastmile_qr_scan", "android": "https://dc.lft.to/lastmile_qr_scan"}, "lon": -76.99832366666666, "type": "electric_scooter", "fusion_lat": 0.0, "lat": 38.923227833333335, "name": "cc7c9d9250159192e68fd33d072151b7", "fusion_lon": 0.0, "bike_id": "cc7c9d9250159192e68fd33d072151b7", "is_disabled": 0, "is_reserved": 0}, {"rental_uris": {"ios": "https://dc.lft.to/lastmile_qr_scan", "android": "https://dc.lft.to/lastmile_qr_scan"}, "lon": -76.9726915, "type": "electric_bike", "fusion_lat": 0.0, "lat": 38.91973, "name": "12e4f857149a22e718a43017d5551ddc", "fusion_lon": 0.0, "bike_id": "12e4f857149a22e718a43017d5551ddc", "is_disabled": 0, "is_reserved": 0}, {"rental_uris": {"ios": "https://dc.lft.to/lastmile_qr_scan", "android": "https://dc.lft.to/lastmile_qr_scan"}, "lon": -77.02592233333333, "type": "electric_scooter", "fusion_lat": 0.0, "lat": 38.8806705, "name": "d02dd28bea99735ebf8b38a2ce441bc0", "fusion_lon": 0.0, "bike_id": "d02dd28bea99735ebf8b38a2ce441bc0", "is_disabled": 0, "is_reserved": 0}, {"rental_uris": {"ios": "https://dc.lft.to/lastmile_qr_scan", "android": "https://dc.lft.to/lastmile_qr_scan"}, "lon": -77.02372516666667, "type": "electric_scooter", "fusion_lat": 0.0, "lat": 38.93690466666666, "name": "be49df6a8b421db4272d580575700818", "fusion_lon": 0.0, "bike_id": "be49df6a8b421db4272d580575700818", "is_disabled": 0, "is_reserved": 0}, {"rental_uris": {"ios": "https://dc.lft.to/lastmile_qr_scan", "android": "https://dc.lft.to/lastmile_qr_scan"}, "lon": -77.1106355, "type": "electric_bike", "fusion_lat": 0.0, "lat": 38.870674, "name": "b87b2c3be54eeec2fd7c4a945a944830", "fusion_lon": 0.0, "bike_id": "b87b2c3be54eeec2fd7c4a945a944830", "is_disabled": 0, "is_reserved": 0}, {"rental_uris": {"ios": "https://dc.lft.to/lastmile_qr_scan", "android": "https://dc.lft.to/lastmile_qr_scan"}, "lon": -77.02497666666666, "type": "electric_scooter", "fusion_lat": 0.0, "lat": 38.91802366666667, "name": "615f98bbd0cd7a7514b30040e4328122", "fusion_lon": 0.0, "bike_id": "615f98bbd0cd7a7514b30040e4328122", "is_disabled": 0, "is_reserved": 0}, {"rental_uris": {"ios": "https://dc.lft.to/lastmile_qr_scan", "android": "https://dc.lft.to/lastmile_qr_scan"}, "lon": -77.04729116666667, "type": "electric_scooter", "fusion_lat": 0.0, "lat": 38.897350833333334, "name": "2fc72d73e81c2990ed45f8a0893f001b", "fusion_lon": 0.0, "bike_id": "2fc72d73e81c2990ed45f8a0893f001b", "is_disabled": 0, "is_reserved": 0}, {"rental_uris": {"ios": "https://dc.lft.to/lastmile_qr_scan", "android": "https://dc.lft.to/lastmile_qr_scan"}, "lon": -77.00223683333333, "type": "electric_scooter", "fusion_lat": 0.0, "lat": 38.900092666666666, "name": "3b2ec0134d37da3a7a42398796e9d9b0", "fusion_lon": 0.0, "bike_id": "3b2ec0134d37da3a7a42398796e9d9b0", "is_disabled": 0, "is_reserved": 0}, {"rental_uris": {"ios": "https://dc.lft.to/lastmile_qr_scan", "android": "https://dc.lft.to/lastmile_qr_scan"}, "lon": -77.0398095, "type": "electric_scooter", "fusion_lat": 0.0, "lat": 38.895300666666664, "name": "5f511e2209b89d87f8d357b467a31269", "fusion_lon": 0.0, "bike_id": "5f511e2209b89d87f8d357b467a31269", "is_disabled": 0, "is_reserved": 0}, {"rental_uris": {"ios": "https://dc.lft.to/lastmile_qr_scan", "android": "https://dc.lft.to/lastmile_qr_scan"}, "lon": -77.04894583333333, "type": "electric_scooter", "fusion_lat": 0.0, "lat": 38.90058033333333, "name": "b6664be61012327406dd59ff1f221285", "fusion_lon": 0.0, "bike_id": "b6664be61012327406dd59ff1f221285", "is_disabled": 0, "is_reserved": 0}, {"rental_uris": {"ios": "https://dc.lft.to/lastmile_qr_scan", "android": "https://dc.lft.to/lastmile_qr_scan"}, "lon": -76.96526883333334, "type": "electric_scooter", "fusion_lat": 0.0, "lat": 38.87859483333333, "name": "bf76e044ef312e36845d4c51aeadabcb", "fusion_lon": 0.0, "bike_id": "bf76e044ef312e36845d4c51aeadabcb", "is_disabled": 0, "is_reserved": 0}, {"rental_uris": {"ios": "https://dc.lft.to/lastmile_qr_scan", "android": "https://dc.lft.to/lastmile_qr_scan"}, "lon": -76.99501866666667, "type": "electric_bike", "fusion_lat": 0.0, "lat": 38.999966666666666, "name": "282a63155f4b36ea24b7b6a3d745e1a7", "fusion_lon": 0.0, "bike_id": "282a63155f4b36ea24b7b6a3d745e1a7", "is_disabled": 0, "is_reserved": 0}, {"rental_uris": {"ios": "https://dc.lft.to/lastmile_qr_scan", "android": "https://dc.lft.to/lastmile_qr_scan"}, "lon": -77.06330233333334, "type": "electric_scooter", "fusion_lat": 0.0, "lat": 38.90759283333333, "name": "7109240326734b55a2a27799b52ccc88", "fusion_lon": 0.0, "bike_id": "7109240326734b55a2a27799b52ccc88", "is_disabled": 0, "is_reserved": 0}, {"rental_uris": {"ios": "https://dc.lft.to/lastmile_qr_scan", "android": "https://dc.lft.to/lastmile_qr_scan"}, "lon": -77.038593, "type": "electric_scooter", "fusion_lat": 0.0, "lat": 38.915417, "name": "1bc169aa887dc54b932aa8ed8e4258cd", "fusion_lon": 0.0, "bike_id": "1bc169aa887dc54b932aa8ed8e4258cd", "is_disabled": 0, "is_reserved": 0}, {"rental_uris": {"ios": "https://dc.lft.to/lastmile_qr_scan", "android": "https://dc.lft.to/lastmile_qr_scan"}, "lon": -76.99982766666666, "type": "electric_scooter", "fusion_lat": 0.0, "lat": 38.83827266666667, "name": "cde2ff4241aefd5bc728b4f2493e0392", "fusion_lon": 0.0, "bike_id": "cde2ff4241aefd5bc728b4f2493e0392", "is_disabled": 0, "is_reserved": 0}, {"rental_uris": {"ios": "https://dc.lft.to/lastmile_qr_scan", "android": "https://dc.lft.to/lastmile_qr_scan"},