{"data": {"bikes": [{"rental_uris": {"android": "https://dc.lft.to/lastmile_qr_scan", "ios": "https://dc.lft.to/lastmile_qr_scan"}, "lon": -77.04514433333334, "name": "ab80a7384a87ffb2fbc4857c279cb6cc", "lat": 38.896091, "is_reserved": 0, "fusion_lat": 0.0, "bike_id": "ab80a7384a87ffb2fbc4857c279cb6cc", "type": "electric_scooter", "is_disabled": 0, "fusion_lon": 0.0}, {"rental_uris": {"android": "https://dc.lft.to/lastmile_qr_scan", "ios": "https://dc.lft.to/lastmile_qr_scan"}, "lon": -77.03234016666667, "name": "6ac851d5c742dd80da563dc9b7454072", "lat": 38.9268945, "is_reserved": 0, "fusion_lat": 0.0, "bike_id": "6ac851d5c742dd80da563dc9b7454072", "type": "electric_scooter", "is_disabled": 0, "fusion_lon": 0.0}, {"rental_uris": {"android": "https://dc.lft.to/lastmile_qr_scan", "ios": "https://dc.lft.to/lastmile_qr_scan"}, "lon": -77.038584, "name": "82ae935646de7d3793f238cdaa2f60de", "lat": 38.902736833333336, "is_reserved": 0, "fusion_lat": 0.0, "bike_id": "82ae935646de7d3793f238cdaa2f60de", "type": "electric_scooter", "is_disabled": 0, "fusion_lon": 0.0}, {"rental_uris": {"android": "https://dc.lft.to/lastmile_qr_scan", "ios": "https://dc.lft.to/lastmile_qr_scan"}, "lon": -77.04012283333333, "name": "4915d51c5c49b114b4c35bae29dd85ed", "lat": 38.90341033333333, "is_reserved": 0, "fusion_lat": 0.0, "bike_id": "4915d51c5c49b114b4c35bae29dd85ed", "type": "electric_scooter", "is_disabled": 0, "fusion_lon": 0.0}, {"rental_uris": {"android": "https://dc.lft.to/lastmile_qr_scan", "ios": "https://dc.lft.to/lastmile_qr_scan"}, "lon": -76.97055116666667, "name": "06d95e71eb64d12d78667d58c95e59b7", "lat": 38.95874666666667, "is_reserved": 0, "fusion_lat": 0.0, "bike_id": "06d95e71eb64d12d78667d58c95e59b7", "type": "electric_bike", "is_disabled": 0, "fusion_lon": 0.0}, {"rental_uris": {"android": "https://dc.lft.to/lastmile_qr_scan", "ios": "https://dc.lft.to/lastmile_qr_scan"}, "lon": -77.03168966666667, "name": "85630de181cbe1e1cc277606f4f5bf8c", "lat": 38.9209845, "is_reserved": 0, "fusion_lat": 0.0, "bike_id": "85630de181cbe1e1cc277606f4f5bf8c", "type": "electric_scooter", "is_disabled": 0, "fusion_lon": 0.0}, {"rental_uris": {"android": "https://dc.lft.to/lastmile_qr_scan", "ios": "https://dc.lft.to/lastmile_qr_scan"}, "lon": -77.0438685, "name": "9d96e621f0f55fd810a6db9a70de3acb", "lat": 38.90034633333333, "is_reserved": 0, "fusion_lat": 0.0, "bike_id": "9d96e621f0f55fd810a6db9a70de3acb", "type": "electric_scooter", "is_disabled": 0, "fusion_lon": 0.0}, {"rental_uris": {"android": "https://dc.lft.to/lastmile_qr_scan", "ios": "https://dc.lft.to/lastmile_qr_scan"}, "lon": -77.0294435, "name": "54c150541e5b4703a886dca6f649af87", "lat": 38.905052833333336, "is_reserved": 0, "fusion_lat": 0.0, "bike_id": "54c150541e5b4703a886dca6f649af87", "type": "electric_scooter", "is_disabled": 0, "fusion_lon": 0.0}, {"rental_uris": {"android": "https://dc.lft.to/lastmile_qr_scan", "ios": "https://dc.lft.to/lastmile_qr_scan"}, "lon": -77.02704766666666, "name": "c8f85663766556c6a313f2e445f3753d", "lat": 38.973121166666665, "is_reserved": 0, "fusion_lat": 0.0, "bike_id": "c8f85663766556c6a313f2e445f3753d", "type": "electric_scooter", "is_disabled": 0, "fusion_lon": 0.0}, {"rental_uris": {"android": "https://dc.lft.to/lastmile_qr_scan", "ios": "https://dc.lft.to/lastmile_qr_scan"}, "lon": -77.04001133333334, "name": "8ea72af03409b57be52bdf91c64b57ac", "lat": 38.934252666666666, "is_reserved": 0, "fusion_lat": 0.0, "bike_id": "8ea72af03409b57be52bdf91c64b57ac", "type": "electric_scooter", "is_disabled": 0, "fusion_lon": 0.0}, {"rental_uris": {"android": "https://dc.lft.to/lastmile_qr_scan", "ios": "https://dc.lft.to/lastmile_qr_scan"}, "lon": -77.01374316666667, "name": "b5cab0bf756c20eef8cae7bc247e16cf", "lat": 38.879012833333334, "is_reserved": 0, "fusion_lat": 0.0, "bike_id": "b5cab0bf756c20eef8cae7bc247e16cf", "type": "electric_scooter", "is_disabled": 0, "fusion_lon": 0.0}, {"rental_uris": {"android": "https://dc.lft.to/lastmile_qr_scan", "ios": "https://dc.lft.to/lastmile_qr_scan"}, "lon": -77.036753, "name": "9e8fc8e277745b14946b46bcb13f1363", "lat": 38.9215525, "is_reserved": 0, "fusion_lat": 0.0, "bike_id": "9e8fc8e277745b14946b46bcb13f1363", "type": "electric_scooter", "is_disabled": 0, "fusion_lon": 0.0}, {"rental_uris": {"android": "https://dc.lft.to/lastmile_qr_scan", "ios": "https://dc.lft.to/lastmile_qr_scan"}, "lon": -77.03496783333334, "name": "7c054fa0eaab885f86891e92adbe58f6", "lat": 38.921403833333336, "is_reserved": 0, "fusion_lat": 0.0, "bike_id": "7c054fa0eaab885f86891e92adbe58f6", "type": "electric_scooter", "is_disabled": 0, "fusion_lon": 0.0}, {"rental_uris": {"android": "https://dc.lft.to/lastmile_qr_scan", "ios": "https://dc.lft.to/lastmile_qr_scan"}, "lon": -77.032868, "name": "769a87dc5f3429cef633876993f519ae", "lat": 38.920635, "is_reserved": 0, "fusion_lat": 0.0, "bike_id": "769a87dc5f3429cef633876993f519ae", "type": "electric_scooter", "is_disabled": 0, "fusion_lon": 0.0}, {"rental_uris": {"android": "https://dc.lft.to/lastmile_qr_scan", "ios": "https://dc.lft.to/lastmile_qr_scan"}, "lon": -77.017594, "name": "67bbc61b08bd112fac2bd5a9cdbe5b67", "lat": 38.902637, "is_reserved": 0, "fusion_lat": 0.0, "bike_id": "67bbc61b08bd112fac2bd5a9cdbe5b67", "type": "electric_scooter", "is_disabled": 0, "fusion_lon": 0.0}, {"rental_uris": {"android": "https://dc.lft.to/lastmile_qr_scan", "ios": "https://dc.lft.to/lastmile_qr_scan"}, "lon": -77.026883, "name": "68c3b2e43068d7f576d639d1fd2af293", "lat": 38.89713283333333, "is_reserved": 0, "fusion_lat": 0.0, "bike_id": "68c3b2e43068d7f576d639d1fd2af293", "type": "electric_scooter", "is_disabled": 0, "fusion_lon": 0.0}, {"rental_uris": {"android": "https://dc.lft.to/lastmile_qr_scan", "ios": "https://dc.lft.to/lastmile_qr_scan"}, "lon": -77.02942783333333, "name": "40623a6b49f2e75df4b832d01d6eb70d", "lat": 38.908752166666666, "is_reserved": 0, "fusion_lat": 0.0, "bike_id": "40623a6b49f2e75df4b832d01d6eb70d", "type": "electric_scooter", "is_disabled": 0, "fusion_lon": 0.0}, {"rental_uris": {"android": "https://dc.lft.to/lastmile_qr_scan", "ios": "https://dc.lft.to/lastmile_qr_scan"}, "lon": -77.0137535, "name": "7f9fa813ff42b9d357f92ca66035ee14", "lat": 38.88707733333333, "is_reserved": 0, "fusion_lat": 0.0, "bike_id": "7f9fa813ff42b9d357f92ca66035ee14", "type": "electric_scooter", "is_disabled": 0, "fusion_lon": 0.0}, {"rental_uris": {"android": "https://dc.lft.to/lastmile_qr_scan", "ios": "https://dc.lft.to/lastmile_qr_scan"}, "lon": -77.03776416666666, "name": "22732677a21f70f7cc9284f9e317ad20", "lat": 38.9360485, "is_reserved": 0, "fusion_lat": 0.0, "bike_id": "22732677a21f70f7cc9284f9e317ad20", "type": "electric_scooter", "is_disabled": 0, "fusion_lon": 0.0}, {"rental_uris": {"android": "https://dc.lft.to/lastmile_qr_scan", "ios": "https://dc.lft.to/lastmile_qr_scan"}, "lon": -76.9872605, "name": "6e9f8ebbc2625bad4d1901b08bce2d28", "lat": 38.85597933333333, "is_reserved": 0, "fusion_lat": 0.0, "bike_id": "6e9f8ebbc2625bad4d1901b08bce2d28", "type": "electric_scooter", "is_disabled": 0, "fusion_lon": 0.0}, {"rental_uris": {"android": "https://dc.lft.to/lastmile_qr_scan", "ios": "https://dc.lft.to/lastmile_qr_scan"}, "lon": -77.0059805, "name": "4b07b194a5a0a5f906e9761749c4da69", "lat": 38.87561766666666, "is_reserved": 0, "fusion_lat": 0.0, "bike_id": "4b07b194a5a0a5f906e9761749c4da69", "type": "electric_scooter", "is_disabled": 0, "fusion_lon": 0.0}, {"rental_uris": {"android": "https://dc.lft.to/lastmile_qr_scan", "ios": "https://dc.lft.to/lastmile_qr_scan"}, "lon": -77.03826866666667, "name": "ada79421b5b50a2c4e56c8641c707d48", "lat": 38.912588, "is_reserved": 0, "fusion_lat": 0.0, "bike_id": "ada79421b5b50a2c4e56c8641c707d48", "type": "electric_scooter", "is_disabled": 0, "fusion_lon": 0.0}, {"rental_uris": {"android": "https://dc.lft.to/lastmile_qr_scan", "ios": "https://dc.lft.to/lastmile_qr_scan"}, "lon": -77.0313095, "name": "bf38f3792d53f02c2289318f33f2c087", "lat": 38.91611, "is_reserved": 0, "fusion_lat": 0.0, "bike_id": "bf38f3792d53f02c2289318f33f2c087", "type": "electric_scooter", "is_disabled": 0, "fusion_lon": 0.0}, {"rental_uris": {"android": "https://dc.lft.to/lastmile_qr_scan", "ios": "https://dc.lft.to/lastmile_qr_scan"}, "lon": -76.98505716666666, "name": "06ecfa0e752489713f6d61fc96c12781", "lat": 38.86058166666667, "is_reserved": 0, "fusion_lat": 0.0, "bike_id": "06ecfa0e752489713f6d61fc96c12781", "type": "electric_scooter", "is_disabled": 0, "fusion_lon": 0.0}, {"rental_uris": {"android": "https://dc.lft.to/lastmile_qr_scan", "ios": "https://dc.lft.to/lastmile_qr_scan"}, "lon": -77.0440425, "name": "9d416f9f0545111941c44745b97fc62f", "lat": 38.90888983333333, "is_reserved": 0, "fusion_lat": 0.0, "bike_id": "9d416f9f0545111941c44745b97fc62f", "type": "electric_scooter", "is_disabled": 0, "fusion_lon": 0.0}, {"rental_uris": {"android": "https://dc.lft.to/lastmile_qr_scan", "ios": "https://dc.lft.to/lastmile_qr_scan"}, "lon": -76.94699633333333, "name": "19586f6f9c2df975278d6c9f981e8bc5", "lat": 38.893665, "is_reserved": 0, "fusion_lat": 0.0, "bike_id": "19586f6f9c2df975278d6c9f981e8bc5", "type": "electric_scooter", "is_disabled": 0, "fusion_lon": 0.0}, {"rental_uris": {"android": "https://dc.lft.to/lastmile_qr_scan", "ios": "https://dc.lft.to/lastmile_qr_scan"}, "lon": -77.0119225, "name": "3f9d743ebd455f35b09400b1d5ed7653", "lat": 38.9002945, "is_reserved": 0, "fusion_lat": 0.0, "bike_id": "3f9d743ebd455f35b09400b1d5ed7653", "type": "electric_scooter", "is_disabled": 0, "fusion_lon": 0.0}, {"rental_uris": {"android": "https://dc.lft.to/lastmile_qr_scan", "ios": "https://dc.lft.to/lastmile_qr_scan"}, "lon": -77.02191366666666, "name": "d0e8bf05e624cf5e97e56ef4c60888ff", "lat": 38.915104666666664, "is_reserved": 0, "fusion_lat": 0.0, "bike_id": "d0e8bf05e624cf5e97e56ef4c60888ff", "type": "electric_scooter", "is_disabled": 0, "fusion_lon": 0.0}, {"rental_uris": {"android": "https://dc.lft.to/lastmile_qr_scan", "ios": "https://dc.lft.to/lastmile_qr_scan"}, "lon": -77.04232033333334, "name": "17a57d49ba96dcc5b0f823d9b6daa64d", "lat": 38.9110845, "is_reserved": 0, "fusion_lat": 0.0, "bike_id": "17a57d49ba96dcc5b0f823d9b6daa64d", "type": "electric_scooter", "is_disabled": 0, "fusion_lon": 0.0}, {"rental_uris": {"android": "https://dc.lft.to/lastmile_qr_scan", "ios": "https://dc.lft.to/lastmile_qr_scan"}, "lon": -77.2341015, "name": "92ad9d861df7a01d62848acc4a1dd67f", "lat": 38.87579383333333, "is_reserved": 0, "fusion_lat": 0.0, "bike_id": "92ad9d861df7a01d62848acc4a1dd67f", "type": "electric_bike", "is_disabled": 0, "fusion_lon": 0.0}, {"rental_uris": {"android": "https://dc.lft.to/lastmile_qr_scan", "ios": "https://dc.lft.to/lastmile_qr_scan"}, "lon": -76.98367466666667, "name": "ecf102437d274803baea11d2a10f3aaf", "lat": 38.9149065, "is_reserved": 0, "fusion_lat": 0.0, "bike_id": "ecf102437d274803baea11d2a10f3aaf", "type": "electric_scooter", "is_disabled": 0, "fusion_lon": 0.0}, {"rental_uris": {"android": "https://dc.lft.to/lastmile_qr_scan", "ios": "https://dc.lft.to/lastmile_qr_scan"}, "lon": -77.02203583333333, "name": "3874fee3bbcabdd77870dc864d2ab335", "lat": 38.915910833333335, "is_reserved": 0, "fusion_lat": 0.0, "bike_id": "3874fee3bbcabdd77870dc864d2ab335", "type": "electric_scooter", "is_disabled": 0, "fusion_lon": 0.0}, {"rental_uris": {"android": "https://dc.lft.to/lastmile_qr_scan", "ios": "https://dc.lft.to/lastmile_qr_scan"}, "lon": -77.02239316666666, "name": "4da920a0e3d94da8a9f6e27859a35ee7", "lat": 38.9246845, "is_reserved": 0, "fusion_lat": 0.0, "bike_id": "4da920a0e3d94da8a9f6e27859a35ee7", "type": "electric_scooter", "is_disabled": 0, "fusion_lon": 0.0}, {"rental_uris": {"android": "https://dc.lft.to/lastmile_qr_scan", "ios": "https://dc.lft.to/lastmile_qr_scan"}, "lon": -77.02172933333334, "name": "a962c004a0a22881727cb11ba67d275b", "lat": 38.94294333333333, "is_reserved": 0, "fusion_lat": 0.0, "bike_id": "a962c004a0a22881727cb11ba67d275b", "type": "electric_scooter", "is_disabled": 0, "fusion_lon": 0.0}, {"rental_uris": {"android": "https://dc.lft.to/lastmile_qr_scan", "ios": "https://dc.lft.to/lastmile_qr_scan"}, "lon": -77.01760483333334, "name": "35458023f7161e147e1c0185e7c8ecb8", "lat": 38.91448466666667, "is_reserved": 0, "fusion_lat": 0.0, "bike_id": "35458023f7161e147e1c0185e7c8ecb8", "type": "electric_scooter", "is_disabled": 0, "fusion_lon": 0.0}, {"rental_uris": {"android": "https://dc.lft.to/lastmile_qr_scan", "ios": "https://dc.lft.to/lastmile_qr_scan"}, "lon": -77.0256765, "name": "4207e40f08aaf9c6495fc5594c31af5d", "lat": 38.92575216666667, "is_reserved": 0, "fusion_lat": 0.0, "bike_id": "4207e40f08aaf9c6495fc5594c31af5d", "type": "electric_scooter", "is_disabled": 0, "fusion_lon": 0.0}, {"rental_uris": {"android": "https://dc.lft.to/lastmile_qr_scan", "ios": "https://dc.lft.to/lastmile_qr_scan"}, "lon": -77.0144045, "name": "58423be8ed32578f108a13b76037c4e1", "lat": 38.9196395, "is_reserved": 0, "fusion_lat": 0.0, "bike_id": "58423be8ed32578f108a13b76037c4e1", "type": "electric_scooter", "is_disabled": 0, "fusion_lon": 0.0}, {"rental_uris": {"android": "https://dc.lft.to/lastmile_qr_scan", "ios": "https://dc.lft.to/lastmile_qr_scan"}, "lon": -77.04513, "name": "94782dcca4a586978bbdc3841b56a0e8", "lat": 38.89222816666667, "is_reserved": 0, "fusion_lat": 0.0, "bike_id": "94782dcca4a586978bbdc3841b56a0e8", "type": "electric_scooter", "is_disabled": 0, "fusion_lon": 0.0}, {"rental_uris": {"android": "https://dc.lft.to/lastmile_qr_scan", "ios": "https://dc.lft.to/lastmile_qr_scan"}, "lon": -77.00582566666667, "name": "79665d515baa1115908a6c1f7907858e", "lat": 38.90564283333333, "is_reserved": 0, "fusion_lat": 0.0, "bike_id": "79665d515baa1115908a6c1f7907858e", "type": "electric_scooter", "is_disabled": 0, "fusion_lon": 0.0}, {"rental_uris": {"android": "https://dc.lft.to/lastmile_qr_scan", "ios": "https://dc.lft.to/lastmile_qr_scan"}, "lon": -76.98337766666667, "name": "e8d619e4e1743f46a015cc8f773c411c", "lat": 38.865640166666665, "is_reserved": 0, "fusion_lat": 0.0, "bike_id": "e8d619e4e1743f46a015cc8f773c411c", "type": "electric_scooter", "is_disabled": 0, "fusion_lon": 0.0}, {"rental_uris": {"android": "https://dc.lft.to/lastmile_qr_scan", "ios": "https://dc.lft.to/lastmile_qr_scan"}, "lon": -77.0385925, "name": "309eed6a93ac68965b219e25cfefe95b", "lat": 38.9078345, "is_reserved": 0, "fusion_lat": 0.0, "bike_id": "309eed6a93ac68965b219e25cfefe95b", "type": "electric_scooter", "is_disabled": 0, "fusion_lon": 0.0}, {"rental_uris": {"android": "https://dc.lft.to/lastmile_qr_scan", "ios": "https://dc.lft.to/lastmile_qr_scan"}, "lon": -77.02634133333333, "name": "8d3b304c42e6cd6ba80803467dc7b197", "lat": 38.892251, "is_reserved": 0, "fusion_lat": 0.0, "bike_id": "8d3b304c42e6cd6ba80803467dc7b197", "type": "electric_scooter", "is_disabled": 0, "fusion_lon": 0.0}, {"rental_uris": {"android": "https://dc.lft.to/lastmile_qr_scan", "ios": "https://dc.lft.to/lastmile_qr_scan"}, "lon": -77.03847183333333, "name": "21709f3e25b4407ad20bdb87bfbe3201", "lat": 38.90284033333333, "is_reserved": 0, "fusion_lat": 0.0, "bike_id": "21709f3e25b4407ad20bdb87bfbe3201", "type": "electric_scooter", "is_disabled": 0, "fusion_lon": 0.0}, {"rental_uris": {"android": "https://dc.lft.to/lastmile_qr_scan", "ios": "https://dc.lft.to/lastmile_qr_scan"}, "lon": -77.04656733333333, "name": "fa7dec0df61c77886afc8f493d85695b", "lat": 38.90103966666667, "is_reserved": 0, "fusion_lat": 0.0, "bike_id": "fa7dec0df61c77886afc8f493d85695b", "type": "electric_scooter", "is_disabled": 0, "fusion_lon": 0.0}, {"rental_uris": {"android": "https://dc.lft.to/lastmile_qr_scan", "ios": "https://dc.lft.to/lastmile_qr_scan"}, "lon": -77.04060566666666, "name": "878c3056bacf0735f8be260f683482e9", "lat": 38.931421, "is_reserved": 0, "fusion_lat": 0.0, "bike_id": "878c3056bacf0735f8be260f683482e9", "type": "electric_scooter", "is_disabled": 0, "fusion_lon": 0.0}, {"rental_uris": {"android": "https://dc.lft.to/lastmile_qr_scan", "ios": "https://dc.lft.to/lastmile_qr_scan"}, "lon": -77.02536716666667, "name": "256a41ba99126285c17c707f16aefd07", "lat": 38.93099183333333, "is_reserved": 0, "fusion_lat": 0.0, "bike_id": "256a41ba99126285c17c707f16aefd07", "type": "electric_scooter", "is_disabled": 0, "fusion_lon": 0.0}, {"rental_uris": {"android": "https://dc.lft.to/lastmile_qr_scan", "ios": "https://dc.lft.to/lastmile_qr_scan"}, "lon": -77.2288945, "name": "27448187155bf254a672290721a63ad6", "lat": 38.909614, "is_reserved": 0, "fusion_lat": 0.0, "bike_id": "27448187155bf254a672290721a63ad6", "type": "electric_bike", "is_disabled": 0, "fusion_lon": 0.0}, {"rental_uris": {"android": "https://dc.lft.to/lastmile_qr_scan", "ios": "https://dc.lft.to/lastmile_qr_scan"}, "lon": -76.9902915, "name": "02f2cea30a2573d99b8d269a4ec2ee78", "lat": 38.901544666666666, "is_reserved": 0, "fusion_lat": 0.0, "bike_id": "02f2cea30a2573d99b8d269a4ec2ee78", "type": "electric_scooter", "is_disabled": 0, "fusion_lon": 0.0}, {"rental_uris": {"android": "https://dc.lft.to/lastmile_qr_scan", "ios": "https://dc.lft.to/lastmile_qr_scan"}, "lon": -77.015063, "name": "feb4871fc7e9be37fe727f457212e707", "lat": 38.890172666666665, "is_reserved": 0, "fusion_lat": 0.0, "bike_id": "feb4871fc7e9be37fe727f457212e707", "type": "electric_scooter", "is_disabled": 0, "fusion_lon": 0.0}, {"rental_uris": {"android": "https://dc.lft.to/lastmile_qr_scan", "ios": "https://dc.lft.to/lastmile_qr_scan"}, "lon": -76.98969216666667, "name": "d30ad03afa425ed99b3b2e5a334ed1f9", "lat": 38.90137933333333, "is_reserved": 0, "fusion_lat": 0.0, "bike_id": "d30ad03afa425ed99b3b2e5a334ed1f9", "type": "electric_scooter", "is_disabled": 0, "fusion_lon": 0.0}, {"rental_uris": {"android": "https://dc.lft.to/lastmile_qr_scan", "ios": "https://dc.lft.to/lastmile_qr_scan"}, "lon": -77.01778366666667, "name": "cb2f9d7000d8a1a78d2dee8c7789ae12", "lat": 38.944196, "is_reserved": 0, "fusion_lat": 0.0, "bike_id": "cb2f9d7000d8a1a78d2dee8c7789ae12", "type": "electric_scooter", "is_disabled": 0, "fusion_lon": 0.0}, {"rental_uris": {"android": "https://dc.lft.to/lastmile_qr_scan", "ios": "https://dc.lft.to/lastmile_qr_scan"}, "lon": -76.988794, "name": "8405daab04219815cf188ebafc0c53b3", "lat": 38.866554666666666, "is_reserved": 0, "fusion_lat": 0.0, "bike_id": "8405daab04219815cf188ebafc0c53b3", "type": "electric_scooter", "is_disabled": 0, "fusion_lon": 0.0}, {"rental_uris": {"android": "https://dc.lft.to/lastmile_qr_scan", "ios": "https://dc.lft.to/lastmile_qr_scan"}, "lon": -77.0121335, "name": "8080edaa0437dd2abcdec39912a6296a", "lat": 38.921207, "is_reserved": 0, "fusion_lat": 0.0, "bike_id": "8080edaa0437dd2abcdec39912a6296a", "type": "electric_scooter", "is_disabled": 0, "fusion_lon": 0.0}, {"rental_uris": {"android": "https://dc.lft.to/lastmile_qr_scan", "ios": "https://dc.lft.to/lastmile_qr_scan"}, "lon": -77.0440705, "name": "88034be3018deddbc6fce3a1ab928adc", "lat": 38.93422783333333, "is_reserved": 0, "fusion_lat": 0.0, "bike_id": "88034be3018deddbc6fce3a1ab928adc", "type": "electric_scooter", "is_disabled": 0, "fusion_lon": 0.0}, {"rental_uris": {"android": "https://dc.lft.to/lastmile_qr_scan", "ios": "https://dc.lft.to/lastmile_qr_scan"}, "lon": -77.03334783333334, "name": "2655401c5c313feaff83d8546790a8d8", "lat": 38.89831916666667, "is_reserved": 0, "fusion_lat": 0.0, "bike_id": "2655401c5c313feaff83d8546790a8d8", "type": "electric_scooter", "is_disabled": 0, "fusion_lon": 0.0}, {"rental_uris": {"android": "https://dc.lft.to/lastmile_qr_scan", "ios": "https://dc.lft.to/lastmile_qr_scan"}, "lon": -77.03094633333333, "name": "a67c3af1b21cc6f3c85dcdfa6d9d2111", "lat": 38.9237765, "is_reserved": 0, "fusion_lat": 0.0, "bike_id": "a67c3af1b21cc6f3c85dcdfa6d9d2111", "type": "electric_scooter", "is_disabled": 0, "fusion_lon": 0.0}, {"rental_uris": {"android": "https://dc.lft.to/lastmile_qr_scan", "ios": "https://dc.lft.to/lastmile_qr_scan"}, "lon": -77.02972266666667, "name": "aaa0e3fc75755e9fb53f91bacb4c326c", "lat": 38.906381, "is_reserved": 0, "fusion_lat": 0.0, "bike_id": "aaa0e3fc75755e9fb53f91bacb4c326c", "type": "electric_scooter", "is_disabled": 0, "fusion_lon": 0.0}, {"rental_uris": {"android": "https://dc.lft.to/lastmile_qr_scan", "ios": "https://dc.lft.to/lastmile_qr_scan"}, "lon": -77.03812266666667, "name": "bfdb87ef20bbd3b90ce859f4c66bd847", "lat": 38.9311595, "is_reserved": 0, "fusion_lat": 0.0, "bike_id": "bfdb87ef20bbd3b90ce859f4c66bd847", "type": "electric_scooter", "is_disabled": 0, "fusion_lon": 0.0}, {"rental_uris": {"android": "https://dc.lft.to/lastmile_qr_scan", "ios": "https://dc.lft.to/lastmile_qr_scan"}, "lon": -77.05152533333333, "name": "cbb0042f9f0b2c907198a3501ee681e7", "lat": 38.90512833333333, "is_reserved": 0, "fusion_lat": 0.0, "bike_id": "cbb0042f9f0b2c907198a3501ee681e7", "type": "electric_scooter", "is_disabled": 0, "fusion_lon": 0.0}, {"rental_uris": {"android": "https://dc.lft.to/lastmile_qr_scan", "ios": "https://dc.lft.to/lastmile_qr_scan"}, "lon": -77.0212705, "name": "b77839def935e901a60bd2b136e1d8c7", "lat": 38.919708, "is_reserved": 0, "fusion_lat": 0.0, "bike_id": "b77839def935e901a60bd2b136e1d8c7", "type": "electric_scooter", "is_disabled": 0, "fusion_lon": 0.0}, {"rental_uris": {"android": "https://dc.lft.to/lastmile_qr_scan", "ios": "https://dc.lft.to/lastmile_qr_scan"}, "lon": -77.08068466666667, "name": "e8cc9e65a8ea57e8d107e161ba842de9", "lat": 39.05254566666667, "is_reserved": 0, "fusion_lat": 0.0, "bike_id": "e8cc9e65a8ea57e8d107e161ba842de9", "type": "electric_bike", "is_disabled": 0, "fusion_lon": 0.0}, {"rental_uris": {"android": "https://dc.lft.to/lastmile_qr_scan", "ios": "https://dc.lft.to/lastmile_qr_scan"}, "lon": -77.004856, "name": "4571a717f7d2814d59ad7e59788ab659", "lat": 38.874664333333335, "is_reserved": 0, "fusion_lat": 0.0, "bike_id": "4571a717f7d2814d59ad7e59788ab659", "type": "electric_scooter", "is_disabled": 0, "fusion_lon": 0.0}, {"rental_uris": {"android": "https://dc.lft.to/lastmile_qr_scan", "ios": "https://dc.lft.to/lastmile_qr_scan"}, "lon": -76.97030616666666, "name": "61e7df629d29bb53121a9a35415172a4", "lat": 38.87362866666667, "is_reserved": 0, "fusion_lat": 0.0, "bike_id": "61e7df629d29bb53121a9a35415172a4", "type": "electric_scooter", "is_disabled": 0, "fusion_lon": 0.0}, {"rental_uris": {"android": "https://dc.lft.to/lastmile_qr_scan", "ios": "https://dc.lft.to/lastmile_qr_scan"}, "lon": -77.02969366666666, "name": "de7614f291eeb3bf686b815c0c5ffac5", "lat": 38.9027535, "is_reserved": 0, "fusion_lat": 0.0, "bike_id": "de7614f291eeb3bf686b815c0c5ffac5", "type": "electric_scooter", "is_disabled": 0, "fusion_lon": 0.0}, {"rental_uris": {"android": "https://dc.lft.to/lastmile_qr_scan", "ios": "https://dc.lft.to/lastmile_qr_scan"}, "lon": -77.02350183333333, "name": "5fcdb73c04abbdba74fa640283702601", "lat": 38.931780333333336, "is_reserved": 0, "fusion_lat": 0.0, "bike_id": "5fcdb73c04abbdba74fa640283702601", "type": "electric_scooter", "is_disabled": 0, "fusion_lon": 0.0}, {"rental_uris": {"android": "https://dc.lft.to/lastmile_qr_scan", "ios": "https://dc.lft.to/lastmile_qr_scan"}, "lon": -77.03382766666667, "name": "60e79994684646d597d572ac77e92354", "lat": 38.9254095, "is_reserved": 0, "fusion_lat": 0.0, "bike_id": "60e79994684646d597d572ac77e92354", "type": "electric_scooter", "is_disabled": 0, "fusion_lon": 0.0}, {"rental_uris": {"android": "https://dc.lft.to/lastmile_qr_scan", "ios": "https://dc.lft.to/lastmile_qr_scan"}, "lon": -77.005279, "name": "74538c8f994018cd4f993f8cc2e1bd7e", "lat": 38.91796383333333, "is_reserved": 0, "fusion_lat": 0.0, "bike_id": "74538c8f994018cd4f993f8cc2e1bd7e", "type": "electric_scooter", "is_disabled": 0, "fusion_lon": 0.0}, {"rental_uris": {"android": "https://dc.lft.to/lastmile_qr_scan", "ios": "https://dc.lft.to/lastmile_qr_scan"}, "lon": -77.04495683333333, "name": "e2ae0a83c609593bb83d2bd3ede4a0ad", "lat": 38.915129, "is_reserved": 0, "fusion_lat": 0.0, "bike_id": "e2ae0a83c609593bb83d2bd3ede4a0ad", "type": "electric_scooter", "is_disabled": 0, "fusion_lon": 0.0}, {"rental_uris": {"android": "https://dc.lft.to/lastmile_qr_scan", "ios": "https://dc.lft.to/lastmile_qr_scan"}, "lon": -77.0461215, "name": "38082b18ce53c26a78c42e7b89651f11", "lat": 38.916815666666665, "is_reserved": 0, "fusion_lat": 0.0, "bike_id": "38082b18ce53c26a78c42e7b89651f11", "type": "electric_scooter", "is_disabled": 0, "fusion_lon": 0.0}, {"rental_uris": {"android": "https://dc.lft.to/lastmile_qr_scan", "ios": "https://dc.lft.to/lastmile_qr_scan"}, "lon": -77.047181, "name": "81713eb547a848854d6a872894b35036", "lat": 38.920535, "is_reserved": 0, "fusion_lat": 0.0, "bike_id": "81713eb547a848854d6a872894b35036", "type": "electric_scooter", "is_disabled": 0, "fusion_lon": 0.0}, {"rental_uris": {"android": "https://dc.lft.to/lastmile_qr_scan", "ios": "https://dc.lft.to/lastmile_qr_scan"}, "lon": -77.02605633333333, "name": "ddbec0cf392e9b74984e8fc423e6b52c", "lat": 38.89646233333333, "is_reserved": 0, "fusion_lat": 0.0, "bike_id": "ddbec0cf392e9b74984e8fc423e6b52c", "type": "electric_scooter", "is_disabled": 0, "fusion_lon": 0.0}, {"rental_uris": {"android": "https://dc.lft.to/lastmile_qr_scan", "ios": "https://dc.lft.to/lastmile_qr_scan"}, "lon": -77.03832283333334, "name": "c32f63c5d8b7319e8fc248999b9bf601", "lat": 38.914756833333335, "is_reserved": 0, "fusion_lat": 0.0, "bike_id": "c32f63c5d8b7319e8fc248999b9bf601", "type": "electric_scooter", "is_disabled": 0, "fusion_lon": 0.0}, {"rental_uris": {"android": "https://dc.lft.to/lastmile_qr_scan", "ios": "https://dc.lft.to/lastmile_qr_scan"}, "lon": -77.03655566666667, "name": "fe3436747ed6319ea2cbf7d5b3d5b46a", "lat": 38.936287666666665, "is_reserved": 0, "fusion_lat": 0.0, "bike_id": "fe3436747ed6319ea2cbf7d5b3d5b46a", "type": "electric_bike", "is_disabled": 0, "fusion_lon": 0.0}, {"rental_uris": {"android": "https://dc.lft.to/lastmile_qr_scan", "ios": "https://dc.lft.to/lastmile_qr_scan"}, "lon": -77.03625316666667, "name": "8c758d236150b9852e41298e8ee5457a", "lat": 38.9391385, "is_reserved": 0, "fusion_lat": 0.0, "bike_id": "8c758d236150b9852e41298e8ee5457a", "type": "electric_scooter", "is_disabled": 0, "fusion_lon": 0.0}, {"rental_uris": {"android": "https://dc.lft.to/lastmile_qr_scan", "ios": "https://dc.lft.to/lastmile_qr_scan"}, "lon": -77.03200916666667, "name": "8b470f6dff88053546eb55a31fea3f2f", "lat": 38.916423333333334, "is_reserved": 0, "fusion_lat": 0.0, "bike_id": "8b470f6dff88053546eb55a31fea3f2f", "type": "electric_scooter", "is_disabled": 0, "fusion_lon": 0.0}, {"rental_uris": {"android": "https://dc.lft.to/lastmile_qr_scan", "ios": "https://dc.lft.to/lastmile_qr_scan"}, "lon": -77.006972, "name": "4d7f0de6559a2f9e7d55db2fe5e9bd68", "lat": 38.952501833333336, "is_reserved": 0, "fusion_lat": 0.0, "bike_id": "4d7f0de6559a2f9e7d55db2fe5e9bd68", "type": "electric_scooter", "is_disabled": 0, "fusion_lon": 0.0}, {"rental_uris": {"android": "https://dc.lft.to/lastmile_qr_scan", "ios": "https://dc.lft.to/lastmile_qr_scan"}, "lon": -77.01209783333333, "name": "52ff68e2785ad8eb493fa47fcbe550c4", "lat": 38.914798833333336, "is_reserved": 0, "fusion_lat": 0.0, "bike_id": "52ff68e2785ad8eb493fa47fcbe550c4", "type": "electric_scooter", "is_disabled": 0, "fusion_lon": 0.0}, {"rental_uris": {"android": "https://dc.lft.to/lastmile_qr_scan", "ios": "https://dc.lft.to/lastmile_qr_scan"}, "lon": -77.02599983333333, "name": "2050286770c3d5894be9a8af092db109", "lat": 38.944088, "is_reserved": 0, "fusion_lat": 0.0, "bike_id": "2050286770c3d5894be9a8af092db109", "type": "electric_scooter", "is_disabled": 0, "fusion_lon": 0.0}, {"rental_uris": {"android": "https://dc.lft.to/lastmile_qr_scan", "ios": "https://dc.lft.to/lastmile_qr_scan"}, "lon": -76.99785016666667, "name": "18a740d63f076f6b93a693c27e1fabff", "lat": 38.84184916666667, "is_reserved": 0, "fusion_lat": 0.0, "bike_id": "18a740d63f076f6b93a693c27e1fabff", "type": "electric_scooter", "is_disabled": 0, "fusion_lon": 0.0}, {"rental_uris": {"android": "https://dc.lft.to/lastmile_qr_scan", "ios": "https://dc.lft.to/lastmile_qr_scan"}, "lon": -76.98894183333333, "name": "fb09a803c74fa9a06454712cb62d71f5", "lat": 38.866582, "is_reserved": 0, "fusion_lat": 0.0, "bike_id": "fb09a803c74fa9a06454712cb62d71f5", "type": "electric_scooter", "is_disabled": 0, "fusion_lon": 0.0}, {"rental_uris": {"android": "https://dc.lft.to/lastmile_qr_scan", "ios": "https://dc.lft.to/lastmile_qr_scan"}, "lon": -77.02703683333333, "name": "7f63934e1dc9c42bc319fa0b46af3805", "lat": 38.925557, "is_reserved": 0, "fusion_lat": 0.0, "bike_id": "7f63934e1dc9c42bc319fa0b46af3805", "type": "electric_scooter", "is_disabled": 0, "fusion_lon": 0.0}, {"rental_uris": {"android": "https://dc.lft.to/lastmile_qr_scan", "ios": "https://dc.lft.to/lastmile_qr_scan"}, "lon": -77.02937716666666, "name": "38d8bb4a63333dae5409d53ac1f67152", "lat": 38.9168705, "is_reserved": 0, "fusion_lat": 0.0, "bike_id": "38d8bb4a63333dae5409d53ac1f67152", "type": "electric_scooter", "is_disabled": 0, "fusion_lon": 0.0}, {"rental_uris": {"android": "https://dc.lft.to/lastmile_qr_scan", "ios": "https://dc.lft.to/lastmile_qr_scan"}, "lon": -77.01193283333333, "name": "4abaec2fa4ab6e6ee95e57330ec710fe", "lat": 38.90018533333333, "is_reserved": 0, "fusion_lat": 0.0, "bike_id": "4abaec2fa4ab6e6ee95e57330ec710fe", "type": "electric_scooter", "is_disabled": 0, "fusion_lon": 0.0}, {"rental_uris": {"android": "https://dc.lft.to/lastmile_qr_scan", "ios": "https://dc.lft.to/lastmile_qr_scan"}, "lon": -77.0347765, "name": "a72bbfb0aa11c0aa779385598acb4c93", "lat": 38.905642666666665, "is_reserved": 0, "fusion_lat": 0.0, "bike_id": "a72bbfb0aa11c0aa779385598acb4c93", "type": "electric_scooter", "is_disabled": 0, "fusion_lon": 0.0}, {"rental_uris": {"android": "https://dc.lft.to/lastmile_qr_scan", "ios": "https://dc.lft.to/lastmile_qr_scan"}, "lon": -77.043352, "name": "d5f51aa5f6bbdfff6fc68a1b2df8b208", "lat": 38.90383416666667, "is_reserved": 0, "fusion_lat": 0.0, "bike_id": "d5f51aa5f6bbdfff6fc68a1b2df8b208", "type": "electric_scooter", "is_disabled": 0, "fusion_lon": 0.0}, {"rental_uris": {"android": "https://dc.lft.to/lastmile_qr_scan", "ios": "https://dc.lft.to/lastmile_qr_scan"}, "lon": -77.02835383333333, "name": "90dca17315aea87d15313320cdff207e", "lat": 38.8873165, "is_reserved": 0, "fusion_lat": 0.0, "bike_id": "90dca17315aea87d15313320cdff207e", "type": "electric_scooter", "is_disabled": 0, "fusion_lon": 0.0}, {"rental_uris": {"android": "https://dc.lft.to/lastmile_qr_scan", "ios": "https://dc.lft.to/lastmile_qr_scan"}, "lon": -77.0240355, "name": "35a9c911965881dc19e87fb23a34ee60", "lat": 38.91976716666667, "is_reserved": 0, "fusion_lat": 0.0, "bike_id": "35a9c911965881dc19e87fb23a34ee60", "type": "electric_scooter", "is_disabled": 0, "fusion_lon": 0.0}, {"rental_uris": {"android": "https://dc.lft.to/lastmile_qr_scan", "ios": "https://dc.lft.to/lastmile_qr_scan"}, "lon": -77.02284183333333, "name": "899bfc425c9d0732f2d5dd7a7002bbb3", "lat": 38.895184666666665, "is_reserved": 0, "fusion_lat": 0.0, "bike_id": "899bfc425c9d0732f2d5dd7a7002bbb3", "type": "electric_scooter", "is_disabled": 0, "fusion_lon": 0.0}, {"rental_uris": {"android": "https://dc.lft.to/lastmile_qr_scan", "ios": "https://dc.lft.to/lastmile_qr_scan"}, "lon": -77.0260315, "name": "9da9c1c358c708248f86280918c007b8", "lat": 38.94431983333333, "is_reserved": 0, "fusion_lat": 0.0, "bike_id": "9da9c1c358c708248f86280918c007b8", "type": "electric_bike", "is_disabled": 0, "fusion_lon": 0.0}, {"rental_uris": {"android": "https://dc.lft.to/lastmile_qr_scan", "ios": "https://dc.lft.to/lastmile_qr_scan"}, "lon": -77.06309833333333, "name": "cfd38b341be481962927d93151f3ecc5", "lat": 38.798544666666665, "is_reserved": 0, "fusion_lat": 0.0, "bike_id": "cfd38b341be481962927d93151f3ecc5", "type": "electric_bike", "is_disabled": 0, "fusion_lon": 0.0}, {"rental_uris": {"android": "https://dc.lft.to/lastmile_qr_scan", "ios": "https://dc.lft.to/lastmile_qr_scan"}, "lon": -77.02236583333334, "name": "debe7ba2bbaa5b3ed5879ada72fd35cc", "lat": 38.9111855, "is_reserved": 0, "fusion_lat": 0.0, "bike_id": "debe7ba2bbaa5b3ed5879ada72fd35cc", "type": "electric_scooter", "is_disabled": 0, "fusion_lon": 0.0}, {"rental_uris": {"android": "https://dc.lft.to/lastmile_qr_scan", "ios": "https://dc.lft.to/lastmile_qr_scan"}, "lon": -77.01351516666666, "name": "eca9f253a405dd583a3daea3dd82964b", "lat": 38.9128475, "is_reserved": 0, "fusion_lat": 0.0, "bike_id": "eca9f253a405dd583a3daea3dd82964b", "type": "electric_scooter", "is_disabled": 0, "fusion_lon": 0.0}, {"rental_uris": {"android": "https://dc.lft.to/lastmile_qr_scan", "ios": "https://dc.lft.to/lastmile_qr_scan"}, "lon": -76.97727166666667, "name": "1538dbba5ecf32fbe7620167b3e52b5b", "lat": 38.872508333333336, "is_reserved": 0, "fusion_lat": 0.0, "bike_id": "1538dbba5ecf32fbe7620167b3e52b5b", "type": "electric_scooter", "is_disabled": 0, "fusion_lon": 0.0}, {"rental_uris": {"android": "https://dc.lft.to/lastmile_qr_scan", "ios": "https://dc.lft.to/lastmile_qr_scan"}, "lon": -76.98752483333334, "name": "3b8bab1369a189a6e11b776dae656b16", "lat": 38.85771916666667, "is_reserved": 0, "fusion_lat": 0.0, "bike_id": "3b8bab1369a189a6e11b776dae656b16", "type": "electric_bike", "is_disabled": 0, "fusion_lon": 0.0}, {"rental_uris": {"android": "https://dc.lft.to/lastmile_qr_scan", "ios": "https://dc.lft.to/lastmile_qr_scan"}, "lon": -77.0382335, "name": "67d2b21a18d3cd50b0046bc5ac8d0ac5", "lat": 38.912570833333334, "is_reserved": 0, "fusion_lat": 0.0, "bike_id": "67d2b21a18d3cd50b0046bc5ac8d0ac5", "type": "electric_scooter", "is_disabled": 0, "fusion_lon": 0.0}, {"rental_uris": {"android": "https://dc.lft.to/lastmile_qr_scan", "ios": "https://dc.lft.to/lastmile_qr_scan"}, "lon": -77.06403533333334, "name": "2949b7edc7753f42459fe0a651066119", "lat": 38.8434705, "is_reserved": 0, "fusion_lat": 0.0, "bike_id": "2949b7edc7753f42459fe0a651066119", "type": "electric_bike", "is_disabled": 0, "fusion_lon": 0.0}, {"rental_uris": {"android": "https://dc.lft.to/lastmile_qr_scan", "ios": "https://dc.lft.to/lastmile_qr_scan"}, "lon": -77.02487716666667, "name": "412c5e8fa5449649377abef3639ff781", "lat": 38.94184816666667, "is_reserved": 0, "fusion_lat": 0.0, "bike_id": "412c5e8fa5449649377abef3639ff781", "type": "electric_scooter", "is_disabled": 0, "fusion_lon": 0.0}, {"rental_uris": {"android": "https://dc.lft.to/lastmile_qr_scan", "ios": "https://dc.lft.to/lastmile_qr_scan"}, "lon": -77.0227645, "name": "81872719ce2951e073869ba24565f509", "lat": 38.916549333333336, "is_reserved": 0, "fusion_lat": 0.0, "bike_id": "81872719ce2951e073869ba24565f509", "type": "electric_scooter", "is_disabled": 0, "fusion_lon": 0.0}, {"rental_uris": {"android": "https://dc.lft.to/lastmile_qr_scan", "ios": "https://dc.lft.to/lastmile_qr_scan"}, "lon": -76.9753695, "name": "28db2a5da436f6f08078f2c3a555e701", "lat": 38.90325833333333, "is_reserved": 0, "fusion_lat": 0.0, "bike_id": "28db2a5da436f6f08078f2c3a555e701", "type": "electric_scooter", "is_disabled": 0, "fusion_lon": 0.0}, {"rental_uris": {"android": "https://dc.lft.to/lastmile_qr_scan", "ios": "https://dc.lft.to/lastmile_qr_scan"}, "lon": -77.032652, "name": "70c694afaf79f97788863df92e8ad927", "lat": 38.9357005, "is_reserved": 0, "fusion_lat": 0.0, "bike_id": "70c694afaf79f97788863df92e8ad927", "type": "electric_scooter", "is_disabled": 0, "fusion_lon": 0.0}, {"rental_uris": {"android": "https://dc.lft.to/lastmile_qr_scan", "ios": "https://dc.lft.to/lastmile_qr_scan"}, "lon": -77.04042533333333, "name": "02b9d255d934b4718f49136f54130968", "lat": 38.92465816666667, "is_reserved": 0, "fusion_lat": 0.0, "bike_id": "02b9d255d934b4718f49136f54130968", "type": "electric_scooter", "is_disabled": 0, "fusion_lon": 0.0}, {"rental_uris": {"android": "https://dc.lft.to/lastmile_qr_scan", "ios": "https://dc.lft.to/lastmile_qr_scan"}, "lon": -76.92885716666666, "name": "c0d2f6a5e6d471dbb797167c41be067a", "lat": 38.8837465, "is_reserved": 0, "fusion_lat": 0.0, "bike_id": "c0d2f6a5e6d471dbb797167c41be067a", "type": "electric_scooter", "is_disabled": 0, "fusion_lon": 0.0}, {"rental_uris": {"android": "https://dc.lft.to/lastmile_qr_scan", "ios": "https://dc.lft.to/lastmile_qr_scan"}, "lon": -77.0141145, "name": "3537510beb4389e299d24b993288853e", "lat": 38.928004666666666, "is_reserved": 0, "fusion_lat": 0.0, "bike_id": "3537510beb4389e299d24b993288853e", "type": "electric_scooter", "is_disabled": 0, "fusion_lon": 0.0}, {"rental_uris": {"android": "https://dc.lft.to/lastmile_qr_scan", "ios": "https://dc.lft.to/lastmile_qr_scan"}, "lon": -77.13305983333333, "name": "ee3718e2dd7a7d105129008733565140", "lat": 38.88718, "is_reserved": 0, "fusion_lat": 0.0, "bike_id": "ee3718e2dd7a7d105129008733565140", "type": "electric_bike", "is_disabled": 0, "fusion_lon": 0.0}, {"rental_uris": {"android": "https://dc.lft.to/lastmile_qr_scan", "ios": "https://dc.lft.to/lastmile_qr_scan"}, "lon": -77.04998866666666, "name": "389b9fa95da153ef1a3840167bd3a8fc", "lat": 38.81702883333333, "is_reserved": 0, "fusion_lat": 0.0, "bike_id": "389b9fa95da153ef1a3840167bd3a8fc", "type": "electric_bike", "is_disabled": 0, "fusion_lon": 0.0}, {"rental_uris": {"android": "https://dc.lft.to/lastmile_qr_scan", "ios": "https://dc.lft.to/lastmile_qr_scan"}, "lon": -77.02741233333333, "name": "a171f14ddf0c583dfd3d69ecb84735fd", "lat": 38.927713, "is_reserved": 0, "fusion_lat": 0.0, "bike_id": "a171f14ddf0c583dfd3d69ecb84735fd", "type": "electric_scooter", "is_disabled": 0, "fusion_lon": 0.0}, {"rental_uris": {"android": "https://dc.lft.to/lastmile_qr_scan", "ios": "https://dc.lft.to/lastmile_qr_scan"}, "lon": -77.04338616666666, "name": "01de5065f9ace08e48ce3d55a73a5ea7", "lat": 38.931329, "is_reserved": 0, "fusion_lat": 0.0, "bike_id": "01de5065f9ace08e48ce3d55a73a5ea7", "type": "electric_scooter", "is_disabled": 0, "fusion_lon": 0.0}, {"rental_uris": {"android": "https://dc.lft.to/lastmile_qr_scan", "ios": "https://dc.lft.to/lastmile_qr_scan"}, "lon": -77.02485583333333, "name": "c7f7d855f294552b9852d9c817731bb2", "lat": 38.93886916666666, "is_reserved": 0, "fusion_lat": 0.0, "bike_id": "c7f7d855f294552b9852d9c817731bb2", "type": "electric_scooter", "is_disabled": 0, "fusion_lon": 0.0}, {"rental_uris": {"android": "https://dc.lft.to/lastmile_qr_scan", "ios": "https://dc.lft.to/lastmile_qr_scan"}, "lon": -77.00976483333334, "name": "2698f72f4b99da10f13478caf4612994", "lat": 38.872975, "is_reserved": 0, "fusion_lat": 0.0, "bike_id": "2698f72f4b99da10f13478caf4612994", "type": "electric_scooter", "is_disabled": 0, "fusion_lon": 0.0}, {"rental_uris": {"android": "https://dc.lft.to/lastmile_qr_scan", "ios": "https://dc.lft.to/lastmile_qr_scan"}, "lon": -77.03966983333333, "name": "229cd0a4101d5a950c21c52d1c017974", "lat": 38.902303333333336, "is_reserved": 0, "fusion_lat": 0.0, "bike_id": "229cd0a4101d5a950c21c52d1c017974", "type": "electric_scooter", "is_disabled": 0, "fusion_lon": 0.0}, {"rental_uris": {"android": "https://dc.lft.to/lastmile_qr_scan", "ios": "https://dc.lft.to/lastmile_qr_scan"}, "lon": -77.031859, "name": "f6665ea0e1707ff1ff48fb9dd66dd277", "lat": 38.898443, "is_reserved": 0, "fusion_lat": 0.0, "bike_id": "f6665ea0e1707ff1ff48fb9dd66dd277", "type": "electric_scooter", "is_disabled": 0, "fusion_lon": 0.0}, {"rental_uris": {"android": "https://dc.lft.to/lastmile_qr_scan", "ios": "https://dc.lft.to/lastmile_qr_scan"}, "lon": -77.00109533333334, "name": "7dc8c90776e964e6c2d5a15a7d74c325", "lat": 38.90036, "is_reserved": 0, "fusion_lat": 0.0, "bike_id": "7dc8c90776e964e6c2d5a15a7d74c325", "type": "electric_scooter", "is_disabled": 0, "fusion_lon": 0.0}, {"rental_uris": {"android": "https://dc.lft.to/lastmile_qr_scan", "ios": "https://dc.lft.to/lastmile_qr_scan"}, "lon": -76.95076533333334, "name": "c4a1e08fb7eefd30c324c6763d224d2a", "lat": 38.90521316666667, "is_reserved": 0, "fusion_lat": 0.0, "bike_id": "c4a1e08fb7eefd30c324c6763d224d2a", "type": "electric_scooter", "is_disabled": 0, "fusion_lon": 0.0}, {"rental_uris": {"android": "https://dc.lft.to/lastmile_qr_scan", "ios": "https://dc.lft.to/lastmile_qr_scan"}, "lon": -76.98241933333334, "name": "cd3f2e92ece6f9f0123d10dba88ecdf1", "lat": 38.899837, "is_reserved": 0, "fusion_lat": 0.0, "bike_id": "cd3f2e92ece6f9f0123d10dba88ecdf1", "type": "electric_scooter", "is_disabled": 0, "fusion_lon": 0.0}, {"rental_uris": {"android": "https://dc.lft.to/lastmile_qr_scan", "ios": "https://dc.lft.to/lastmile_qr_scan"}, "lon": -76.99030983333333, "name": "e368fe57f4dfc71f8d6c8fb565572c91", "lat": 38.938819333333335, "is_reserved": 0, "fusion_lat": 0.0, "bike_id": "e368fe57f4dfc71f8d6c8fb565572c91", "type": "electric_bike", "is_disabled": 0, "fusion_lon": 0.0}, {"rental_uris": {"android": "https://dc.lft.to/lastmile_qr_scan", "ios": "https://dc.lft.to/lastmile_qr_scan"}, "lon": -77.06823466666667, "name": "054f81c4e06cc99edd57c5895e43e1d7", "lat": 38.91802583333333, "is_reserved": 0, "fusion_lat": 0.0, "bike_id": "054f81c4e06cc99edd57c5895e43e1d7", "type": "electric_scooter", "is_disabled": 0, "fusion_lon": 0.0}, {"rental_uris": {"android": "https://dc.lft.to/lastmile_qr_scan", "ios": "https://dc.lft.to/lastmile_qr_scan"}, "lon": -77.03654383333334, "name": "03b0dbda42d7afe58f8fb32ebfdf53bc", "lat": 38.9209545, "is_reserved": 0, "fusion_lat": 0.0, "bike_id": "03b0dbda42d7afe58f8fb32ebfdf53bc", "type": "electric_scooter", "is_disabled": 0, "fusion_lon": 0.0}, {"rental_uris": {"android": "https://dc.lft.to/lastmile_qr_scan", "ios": "https://dc.lft.to/lastmile_qr_scan"}, "lon": -77.0299235, "name": "bd28bc4a787d4f60afdc48785a1b770b", "lat": 38.9073525, "is_reserved": 0, "fusion_lat": 0.0, "bike_id": "bd28bc4a787d4f60afdc48785a1b770b", "type": "electric_scooter", "is_disabled": 0, "fusion_lon": 0.0}, {"rental_uris": {"android": "https://dc.lft.to/lastmile_qr_scan", "ios": "https://dc.lft.to/lastmile_qr_scan"}, "lon": -77.02475733333333, "name": "52bfeefd6e36152e2fa6339457940eaf", "lat": 38.92059033333334, "is_reserved": 0, "fusion_lat": 0.0, "bike_id": "52bfeefd6e36152e2fa6339457940eaf", "type": "electric_scooter", "is_disabled": 0, "fusion_lon": 0.0}, {"rental_uris": {"android": "https://dc.lft.to/lastmile_qr_scan", "ios": "https://dc.lft.to/lastmile_qr_scan"}, "lon": -76.99636033333333, "name": "7c0ab7e0178daf621c444be86f865f62", "lat": 38.9053035, "is_reserved": 0, "fusion_lat": 0.0, "bike_id": "7c0ab7e0178daf621c444be86f865f62", "type": "electric_scooter", "is_disabled": 0, "fusion_lon": 0.0}, {"rental_uris": {"android": "https://dc.lft.to/lastmile_qr_scan", "ios": "https://dc.lft.to/lastmile_qr_scan"}, "lon": -77.02741566666667, "name": "5ca9962cce442f4202b6e095d5bd4c86", "lat": 38.927731333333334, "is_reserved": 0, "fusion_lat": 0.0, "bike_id": "5ca9962cce442f4202b6e095d5bd4c86", "type": "electric_scooter", "is_disabled": 0, "fusion_lon": 0.0}, {"rental_uris": {"android": "https://dc.lft.to/lastmile_qr_scan", "ios": "https://dc.lft.to/lastmile_qr_scan"}, "lon": -77.02202866666667, "name": "3397711ee63bfc47d802898a3eacb2d7", "lat": 38.900125833333334, "is_reserved": 0, "fusion_lat": 0.0, "bike_id": "3397711ee63bfc47d802898a3eacb2d7", "type": "electric_scooter", "is_disabled": 0, "fusion_lon": 0.0}, {"rental_uris": {"android": "https://dc.lft.to/lastmile_qr_scan", "ios": "https://dc.lft.to/lastmile_qr_scan"}, "lon": -77.0357085, "name": "e0523c95fa39db84606f2225ef9db79d", "lat": 38.90141716666667, "is_reserved": 0, "fusion_lat": 0.0, "bike_id": "e0523c95fa39db84606f2225ef9db79d", "type": "electric_scooter", "is_disabled": 0, "fusion_lon": 0.0}, {"rental_uris": {"android": "https://dc.lft.to/lastmile_qr_scan", "ios": "https://dc.lft.to/lastmile_qr_scan"}, "lon": -76.93337316666667, "name": "13bbb1d69da75f6a9e197c649c23c81a", "lat": 38.908695, "is_reserved": 0, "fusion_lat": 0.0, "bike_id": "13bbb1d69da75f6a9e197c649c23c81a", "type": "electric_scooter", "is_disabled": 0, "fusion_lon": 0.0}, {"rental_uris": {"android": "https://dc.lft.to/lastmile_qr_scan", "ios": "https://dc.lft.to/lastmile_qr_scan"}, "lon": -77.03521, "name": "76552ce2b35a7b98ff4504d669427f8a", "lat": 38.9226295, "is_reserved": 0, "fusion_lat": 0.0, "bike_id": "76552ce2b35a7b98ff4504d669427f8a", "type": "electric_scooter", "is_disabled": 0, "fusion_lon": 0.0}, {"rental_uris": {"android": "https://dc.lft.to/lastmile_qr_scan", "ios": "https://dc.lft.to/lastmile_qr_scan"}, "lon": -77.022112, "name": "fef8c39689821346d6e19d5b911aff06", "lat": 38.910159166666666, "is_reserved": 0, "fusion_lat": 0.0, "bike_id": "fef8c39689821346d6e19d5b911aff06", "type": "electric_scooter", "is_disabled": 0, "fusion_lon": 0.0}, {"rental_uris": {"android": "https://dc.lft.to/lastmile_qr_scan", "ios": "https://dc.lft.to/lastmile_qr_scan"}, "lon": -77.03498316666666, "name": "4e3283b959612aab3b722a1aed8b0fbd", "lat": 38.921535, "is_reserved": 0, "fusion_lat": 0.0, "bike_id": "4e3283b959612aab3b722a1aed8b0fbd", "type": "electric_scooter", "is_disabled": 0, "fusion_lon": 0.0}, {"rental_uris": {"android": "https://dc.lft.to/lastmile_qr_scan", "ios": "https://dc.lft.to/lastmile_qr_scan"}, "lon": -77.03562466666666, "name": "8167ad1193cd909d602b492da33f24d8", "lat": 38.9269375, "is_reserved": 0, "fusion_lat": 0.0, "bike_id": "8167ad1193cd909d602b492da33f24d8", "type": "electric_scooter", "is_disabled": 0, "fusion_lon": 0.0}, {"rental_uris": {"android": "https://dc.lft.to/lastmile_qr_scan", "ios": "https://dc.lft.to/lastmile_qr_scan"}, "lon": -77.0269515, "name": "35e2aea4fb53a1c1cc7f98a07c30dc4f", "lat": 38.909552166666664, "is_reserved": 0, "fusion_lat": 0.0, "bike_id": "35e2aea4fb53a1c1cc7f98a07c30dc4f", "type": "electric_scooter", "is_disabled": 0, "fusion_lon": 0.0}, {"rental_uris": {"android": "https://dc.lft.to/lastmile_qr_scan", "ios": "https://dc.lft.to/lastmile_qr_scan"}, "lon": -77.02980783333334, "name": "70ef9c9e754e0d5e28af22b74dac9020", "lat": 38.946023, "is_reserved": 0, "fusion_lat": 0.0, "bike_id": "70ef9c9e754e0d5e28af22b74dac9020", "type": "electric_scooter", "is_disabled": 0, "fusion_lon": 0.0}, {"rental_uris": {"android": "https://dc.lft.to/lastmile_qr_scan", "ios": "https://dc.lft.to/lastmile_qr_scan"}, "lon": -76.98721716666667, "name": "146fc36f046879eeb08477dafabaf9e7", "lat": 38.86319533333333, "is_reserved": 0, "fusion_lat": 0.0, "bike_id": "146fc36f046879eeb08477dafabaf9e7", "type": "electric_bike", "is_disabled": 0, "fusion_lon": 0.0}, {"rental_uris": {"android": "https://dc.lft.to/lastmile_qr_scan", "ios": "https://dc.lft.to/lastmile_qr_scan"}, "lon": -76.986562, "name": "ce1e59e3daf8f7d0f1e1716b43988966", "lat": 38.85805666666667, "is_reserved": 0, "fusion_lat": 0.0, "bike_id": "ce1e59e3daf8f7d0f1e1716b43988966", "type": "electric_scooter", "is_disabled": 0, "fusion_lon": 0.0}, {"rental_uris": {"android": "https://dc.lft.to/lastmile_qr_scan", "ios": "https://dc.lft.to/lastmile_qr_scan"}, "lon": -77.07884, "name": "0c813c239baf387f355cfc057bfe6a5d", "lat": 38.84257, "is_reserved": 0, "fusion_lat": 0.0, "bike_id": "0c813c239baf387f355cfc057bfe6a5d", "type": "electric_bike", "is_disabled": 0, "fusion_lon": 0.0}, {"rental_uris": {"android": "https://dc.lft.to/lastmile_qr_scan", "ios": "https://dc.lft.to/lastmile_qr_scan"}, "lon": -77.03180766666667, "name": "2e6c0c5ac4490b08f8e025029ea11f10", "lat": 38.917559833333335, "is_reserved": 0, "fusion_lat": 0.0, "bike_id": "2e6c0c5ac4490b08f8e025029ea11f10", "type": "electric_scooter", "is_disabled": 0, "fusion_lon": 0.0}, {"rental_uris": {"android": "https://dc.lft.to/lastmile_qr_scan", "ios": "https://dc.lft.to/lastmile_qr_scan"}, "lon": -77.034476, "name": "16363053c2c7a4484d00eeddf28018c7", "lat": 38.90949533333333, "is_reserved": 0, "fusion_lat": 0.0, "bike_id": "16363053c2c7a4484d00eeddf28018c7", "type": "electric_scooter", "is_disabled": 0, "fusion_lon": 0.0}, {"rental_uris": {"android": "https://dc.lft.to/lastmile_qr_scan", "ios": "https://dc.lft.to/lastmile_qr_scan"}, "lon": -77.04276066666667, "name": "9ed0757692f5091a2a5b6b11c2427efc", "lat": 38.90722933333333, "is_reserved": 0, "fusion_lat": 0.0, "bike_id": "9ed0757692f5091a2a5b6b11c2427efc", "type": "electric_scooter", "is_disabled": 0, "fusion_lon": 0.0}, {"rental_uris": {"android": "https://dc.lft.to/lastmile_qr_scan", "ios": "https://dc.lft.to/lastmile_qr_scan"}, "lon": -77.02213866666666, "name": "8b60652d7ea1f1fb30e05f99e16bf74d", "lat": 38.912711333333334, "is_reserved": 0, "fusion_lat": 0.0, "bike_id": "8b60652d7ea1f1fb30e05f99e16bf74d", "type": "electric_scooter", "is_disabled": 0, "fusion_lon": 0.0}, {"rental_uris": {"android": "https://dc.lft.to/lastmile_qr_scan", "ios": "https://dc.lft.to/lastmile_qr_scan"}, "lon": -77.03039283333334, "name": "e93d7a81f217f907adf84fcbda65a27d", "lat": 38.931171166666665, "is_reserved": 0, "fusion_lat": 0.0, "bike_id": "e93d7a81f217f907adf84fcbda65a27d", "type": "electric_scooter", "is_disabled": 0, "fusion_lon": 0.0}, {"rental_uris": {"android": "https://dc.lft.to/lastmile_qr_scan", "ios": "https://dc.lft.to/lastmile_qr_scan"}, "lon": -77.04352233333333, "name": "551d08e5f106e632ba448161f36880bb", "lat": 38.9042575, "is_reserved": 0, "fusion_lat": 0.0, "bike_id": "551d08e5f106e632ba448161f36880bb", "type": "electric_scooter", "is_disabled": 0, "fusion_lon": 0.0}, {"rental_uris": {"android": "https://dc.lft.to/lastmile_qr_scan", "ios": "https://dc.lft.to/lastmile_qr_scan"}, "lon": -77.06192066666667, "name": "9a2c7d03993650eaeee070e1b498f4a4", "lat": 38.918476, "is_reserved": 0, "fusion_lat": 0.0, "bike_id": "9a2c7d03993650eaeee070e1b498f4a4", "type": "electric_scooter", "is_disabled": 0, "fusion_lon": 0.0}, {"rental_uris": {"android": "https://dc.lft.to/lastmile_qr_scan", "ios": "https://dc.lft.to/lastmile_qr_scan"}, "lon": -77.03127916666666, "name": "1847659dac3fd460cc3f546621e7018f", "lat": 38.90443233333333, "is_reserved": 0, "fusion_lat": 0.0, "bike_id": "1847659dac3fd460cc3f546621e7018f", "type": "electric_scooter", "is_disabled": 0, "fusion_lon": 0.0}, {"rental_uris": {"android": "https://dc.lft.to/lastmile_qr_scan", "ios": "https://dc.lft.to/lastmile_qr_scan"}, "lon": -77.02038183333333, "name": "b6998845aa34fbe6530f1d560671be07", "lat": 38.92089633333333, "is_reserved": 0, "fusion_lat": 0.0, "bike_id": "b6998845aa34fbe6530f1d560671be07", "type": "electric_scooter", "is_disabled": 0, "fusion_lon": 0.0}, {"rental_uris": {"android": "https://dc.lft.to/lastmile_qr_scan", "ios": "https://dc.lft.to/lastmile_qr_scan"}, "lon": -77.04080133333333, "name": "b75cab41a3155b2437659a7e6a2db5ae", "lat": 38.90716116666667, "is_reserved": 0, "fusion_lat": 0.0, "bike_id": "b75cab41a3155b2437659a7e6a2db5ae", "type": "electric_scooter", "is_disabled": 0, "fusion_lon": 0.0}, {"rental_uris": {"android": "https://dc.lft.to/lastmile_qr_scan", "ios": "https://dc.lft.to/lastmile_qr_scan"}, "lon": -77.0905625, "name": "8f870a0abaf22356d5d7aabaac6c82d7", "lat": 38.94256633333333, "is_reserved": 0, "fusion_lat": 0.0, "bike_id": "8f870a0abaf22356d5d7aabaac6c82d7", "type": "electric_scooter", "is_disabled": 0, "fusion_lon": 0.0}, {"rental_uris": {"android": "https://dc.lft.to/lastmile_qr_scan", "ios": "https://dc.lft.to/lastmile_qr_scan"}, "lon": -76.997715, "name": "683d8e1c444c5f11aa7198c082b3b7bf", "lat": 38.96158283333333, "is_reserved": 0, "fusion_lat": 0.0, "bike_id": "683d8e1c444c5f11aa7198c082b3b7bf", "type": "electric_scooter", "is_disabled": 0, "fusion_lon": 0.0}, {"rental_uris": {"android": "https://dc.lft.to/lastmile_qr_scan", "ios": "https://dc.lft.to/lastmile_qr_scan"}, "lon": -77.03871083333334, "name": "e78617557b47c735f2c14b2ded767343", "lat": 38.912542333333334, "is_reserved": 0, "fusion_lat": 0.0, "bike_id": "e78617557b47c735f2c14b2ded767343", "type": "electric_scooter", "is_disabled": 0, "fusion_lon": 0.0}, {"rental_uris": {"android": "https://dc.lft.to/lastmile_qr_scan", "ios": "https://dc.lft.to/lastmile_qr_scan"}, "lon": -76.98542733333333, "name": "4e0aedd39a0c15cee7b93a02810c08d5", "lat": 38.866914, "is_reserved": 0, "fusion_lat": 0.0, "bike_id": "4e0aedd39a0c15cee7b93a02810c08d5", "type": "electric_scooter", "is_disabled": 0, "fusion_lon": 0.0}, {"rental_uris": {"android": "https://dc.lft.to/lastmile_qr_scan", "ios": "https://dc.lft.to/lastmile_qr_scan"}, "lon": -76.99917316666667, "name": "13cd628b2297387e7b5446b55a44e1c4", "lat": 38.90922066666667, "is_reserved": 0, "fusion_lat": 0.0, "bike_id": "13cd628b2297387e7b5446b55a44e1c4", "type": "electric_scooter", "is_disabled": 0, "fusion_lon": 0.0}, {"rental_uris": {"android": "https://dc.lft.to/lastmile_qr_scan", "ios": "https://dc.lft.to/lastmile_qr_scan"}, "lon": -77.0019275, "name": "2028b8d2a91a98febef26071e6e269f4", "lat": 38.94145066666667, "is_reserved": 0, "fusion_lat": 0.0, "bike_id": "2028b8d2a91a98febef26071e6e269f4", "type": "electric_bike", "is_disabled": 0, "fusion_lon": 0.0}, {"rental_uris": {"android": "https://dc.lft.to/lastmile_qr_scan", "ios": "https://dc.lft.to/lastmile_qr_scan"}, "lon": -77.00302966666666, "name": "98d79d46a0e657a137fe09df9ef934cf", "lat": 38.83367766666667, "is_reserved": 0, "fusion_lat": 0.0, "bike_id": "98d79d46a0e657a137fe09df9ef934cf", "type": "electric_bike", "is_disabled": 0, "fusion_lon": 0.0}, {"rental_uris": {"android": "https://dc.lft.to/lastmile_qr_scan", "ios": "https://dc.lft.to/lastmile_qr_scan"}, "lon": -77.03873133333333, "name": "93a58877b9493477120c0c954ceeaaba", "lat": 38.915637333333336, "is_reserved": 0, "fusion_lat": 0.0, "bike_id": "93a58877b9493477120c0c954ceeaaba", "type": "electric_scooter", "is_disabled": 0, "fusion_lon": 0.0}, {"rental_uris": {"android": "https://dc.lft.to/lastmile_qr_scan", "ios": "https://dc.lft.to/lastmile_qr_scan"}, "lon": -77.0383285, "name": "a85fd2ffcd090bd405a3900bbe0ddafe", "lat": 38.90983033333333, "is_reserved": 0, "fusion_lat": 0.0, "bike_id": "a85fd2ffcd090bd405a3900bbe0ddafe", "type": "electric_scooter", "is_disabled": 0, "fusion_lon": 0.0}, {"rental_uris": {"android": "https://dc.lft.to/lastmile_qr_scan", "ios": "https://dc.lft.to/lastmile_qr_scan"}, "lon": -77.04697683333333, "name": "768116ba72488ddcdfe463471b0b6b40", "lat": 38.921862, "is_reserved": 0, "fusion_lat": 0.0, "bike_id": "768116ba72488ddcdfe463471b0b6b40", "type": "electric_scooter", "is_disabled": 0, "fusion_lon": 0.0}, {"rental_uris": {"android": "https://dc.lft.to/lastmile_qr_scan", "ios": "https://dc.lft.to/lastmile_qr_scan"}, "lon": -77.03520166666667, "name": "a5141e3152cb0275eda5b17e68d054bb", "lat": 38.9252965, "is_reserved": 0, "fusion_lat": 0.0, "bike_id": "a5141e3152cb0275eda5b17e68d054bb", "type": "electric_scooter", "is_disabled": 0, "fusion_lon": 0.0}, {"rental_uris": {"android": "https://dc.lft.to/lastmile_qr_scan", "ios": "https://dc.lft.to/lastmile_qr_scan"}, "lon": -77.04254983333334, "name": "a0749546da555d36fdcd9678724c355b", "lat": 38.906489, "is_reserved": 0, "fusion_lat": 0.0, "bike_id": "a0749546da555d36fdcd9678724c355b", "type": "electric_scooter", "is_disabled": 0, "fusion_lon": 0.0}, {"rental_uris": {"android": "https://dc.lft.to/lastmile_qr_scan", "ios": "https://dc.lft.to/lastmile_qr_scan"}, "lon": -77.0299365, "name": "9f764ae4e3cf6dff3410dca35761aab2", "lat": 38.9084965, "is_reserved": 0, "fusion_lat": 0.0, "bike_id": "9f764ae4e3cf6dff3410dca35761aab2", "type": "electric_scooter", "is_disabled": 0, "fusion_lon": 0.0}, {"rental_uris": {"android": "https://dc.lft.to/lastmile_qr_scan", "ios": "https://dc.lft.to/lastmile_qr_scan"}, "lon": -77.03516266666666, "name": "2f90b63b4ba96273433c7be78b71ba15", "lat": 38.912636166666665, "is_reserved": 0, "fusion_lat": 0.0, "bike_id": "2f90b63b4ba96273433c7be78b71ba15", "type": "electric_scooter", "is_disabled": 0, "fusion_lon": 0.0}, {"rental_uris": {"android": "https://dc.lft.to/lastmile_qr_scan", "ios": "https://dc.lft.to/lastmile_qr_scan"}, "lon": -77.03444183333333, "name": "4b7c019dd488ee478f812d4b31e8f895", "lat": 38.9180435, "is_reserved": 0, "fusion_lat": 0.0, "bike_id": "4b7c019dd488ee478f812d4b31e8f895", "type": "electric_scooter", "is_disabled": 0, "fusion_lon": 0.0}, {"rental_uris": {"android": "https://dc.lft.to/lastmile_qr_scan", "ios": "https://dc.lft.to/lastmile_qr_scan"}, "lon": -77.03105016666666, "name": "c7444943f4e4620de26cf86719373a7a", "lat": 38.88322633333333, "is_reserved": 0, "fusion_lat": 0.0, "bike_id": "c7444943f4e4620de26cf86719373a7a", "type": "electric_scooter", "is_disabled": 0, "fusion_lon": 0.0}, {"rental_uris": {"android": "https://dc.lft.to/lastmile_qr_scan", "ios": "https://dc.lft.to/lastmile_qr_scan"}, "lon": -77.00543333333333, "name": "91a6192970c7a24f4c62aa9227676290", "lat": 38.876509666666664, "is_reserved": 0, "fusion_lat": 0.0, "bike_id": "91a6192970c7a24f4c62aa9227676290", "type": "electric_scooter", "is_disabled": 0, "fusion_lon": 0.0}, {"rental_uris": {"android": "https://dc.lft.to/lastmile_qr_scan", "ios": "https://dc.lft.to/lastmile_qr_scan"}, "lon": -77.029516, "name": "8b8b1bc2d7a7d6e2aa28fa4688fa2cfd", "lat": 38.91683416666667, "is_reserved": 0, "fusion_lat": 0.0, "bike_id": "8b8b1bc2d7a7d6e2aa28fa4688fa2cfd", "type": "electric_scooter", "is_disabled": 0, "fusion_lon": 0.0}, {"rental_uris": {"android": "https://dc.lft.to/lastmile_qr_scan", "ios": "https://dc.lft.to/lastmile_qr_scan"}, "lon": -77.02911116666667, "name": "8c66a677d8c4dd131e9b471c8aa05c0d", "lat": 38.91706466666667, "is_reserved": 0, "fusion_lat": 0.0, "bike_id": "8c66a677d8c4dd131e9b471c8aa05c0d", "type": "electric_scooter", "is_disabled": 0, "fusion_lon": 0.0}, {"rental_uris": {"android": "https://dc.lft.to/lastmile_qr_scan", "ios": "https://dc.lft.to/lastmile_qr_scan"}, "lon": -77.027015, "name": "a7284a2f82e279fdc7c32771ea366086", "lat": 38.90354416666667, "is_reserved": 0, "fusion_lat": 0.0, "bike_id": "a7284a2f82e279fdc7c32771ea366086", "type": "electric_scooter", "is_disabled": 0, "fusion_lon": 0.0}, {"rental_uris": {"android": "https://dc.lft.to/lastmile_qr_scan", "ios": "https://dc.lft.to/lastmile_qr_scan"}, "lon": -76.98532133333333, "name": "8ddcdf3a5b85e91a6b7261f88917a839", "lat": 38.904160833333336, "is_reserved": 0, "fusion_lat": 0.0, "bike_id": "8ddcdf3a5b85e91a6b7261f88917a839", "type": "electric_scooter", "is_disabled": 0, "fusion_lon": 0.0}, {"rental_uris": {"android": "https://dc.lft.to/lastmile_qr_scan", "ios": "https://dc.lft.to/lastmile_qr_scan"}, "lon": -77.02211933333334, "name": "19f4ef7163d7cccfd0c06b66313a45ea", "lat": 38.901573166666665, "is_reserved": 0, "fusion_lat": 0.0, "bike_id": "19f4ef7163d7cccfd0c06b66313a45ea", "type": "electric_scooter", "is_disabled": 0, "fusion_lon": 0.0}, {"rental_uris": {"android": "https://dc.lft.to/lastmile_qr_scan", "ios": "https://dc.lft.to/lastmile_qr_scan"}, "lon": -77.03236466666667, "name": "45187e3961a2f9abe4423a181ae8a4f7", "lat": 38.937143, "is_reserved": 0, "fusion_lat": 0.0, "bike_id": "45187e3961a2f9abe4423a181ae8a4f7", "type": "electric_scooter", "is_disabled": 0, "fusion_lon": 0.0}, {"rental_uris": {"android": "https://dc.lft.to/lastmile_qr_scan", "ios": "https://dc.lft.to/lastmile_qr_scan"}, "lon": -77.03260016666667, "name": "4c98f7d53bdf99b4c1bcec783656de19", "lat": 38.932139166666666, "is_reserved": 0, "fusion_lat": 0.0, "bike_id": "4c98f7d53bdf99b4c1bcec783656de19", "type": "electric_scooter", "is_disabled": 0, "fusion_lon": 0.0}, {"rental_uris": {"android": "https://dc.lft.to/lastmile_qr_scan", "ios": "https://dc.lft.to/lastmile_qr_scan"}, "lon": -77.04168116666666, "name": "e5120f3164893daab41f6761d0855aaf", "lat": 38.9083795, "is_reserved": 0, "fusion_lat": 0.0, "bike_id": "e5120f3164893daab41f6761d0855aaf", "type": "electric_scooter", "is_disabled": 0, "fusion_lon": 0.0}, {"rental_uris": {"android": "https://dc.lft.to/lastmile_qr_scan", "ios": "https://dc.lft.to/lastmile_qr_scan"}, "lon": -76.99004616666667, "name": "1cd816d8199652af2b9ac8a9f1b477c8", "lat": 38.865081333333336, "is_reserved": 0, "fusion_lat": 0.0, "bike_id": "1cd816d8199652af2b9ac8a9f1b477c8", "type": "electric_scooter", "is_disabled": 0, "fusion_lon": 0.0}, {"rental_uris": {"android": "https://dc.lft.to/lastmile_qr_scan", "ios": "https://dc.lft.to/lastmile_qr_scan"}, "lon": -77.03333633333334, "name": "b06ba6f922b2f6e98e2f52cf29a1c2e4", "lat": 38.9613795, "is_reserved": 0, "fusion_lat": 0.0, "bike_id": "b06ba6f922b2f6e98e2f52cf29a1c2e4", "type": "electric_bike", "is_disabled": 0, "fusion_lon": 0.0}, {"rental_uris": {"android": "https://dc.lft.to/lastmile_qr_scan", "ios": "https://dc.lft.to/lastmile_qr_scan"}, "lon": -77.04212233333334, "name": "e0ceaaa91a576685bc473c840734f70f", "lat": 38.9216005, "is_reserved": 0, "fusion_lat": 0.0, "bike_id": "e0ceaaa91a576685bc473c840734f70f", "type": "electric_scooter", "is_disabled": 0, "fusion_lon": 0.0}, {"rental_uris": {"android": "https://dc.lft.to/lastmile_qr_scan", "ios": "https://dc.lft.to/lastmile_qr_scan"}, "lon": -76.98277583333333, "name": "ef5054bf2d80f050b8b1ec4ebcdc5e73", "lat": 38.908511833333336, "is_reserved": 0, "fusion_lat": 0.0, "bike_id": "ef5054bf2d80f050b8b1ec4ebcdc5e73", "type": "electric_bike", "is_disabled": 0, "fusion_lon": 0.0}, {"rental_uris": {"android": "https://dc.lft.to/lastmile_qr_scan", "ios": "https://dc.lft.to/lastmile_qr_scan"}, "lon": -76.97468383333333, "name": "98cbd1f6520d9e418a52eb9db97e17bb", "lat": 38.863787, "is_reserved": 0, "fusion_lat": 0.0, "bike_id": "98cbd1f6520d9e418a52eb9db97e17bb", "type": "electric_bike", "is_disabled": 0, "fusion_lon": 0.0}, {"rental_uris": {"android": "https://dc.lft.to/lastmile_qr_scan", "ios": "https://dc.lft.to/lastmile_qr_scan"}, "lon": -77.0280215, "name": "d4f06ee7d98e0e714d70557b5b3c82bd", "lat": 38.91760216666667, "is_reserved": 0, "fusion_lat": 0.0, "bike_id": "d4f06ee7d98e0e714d70557b5b3c82bd", "type": "electric_scooter", "is_disabled": 0, "fusion_lon": 0.0}, {"rental_uris": {"android": "https://dc.lft.to/lastmile_qr_scan", "ios": "https://dc.lft.to/lastmile_qr_scan"}, "lon": -77.01979866666667, "name": "ce4690ebaee1dd0befa9359f06e3f73c", "lat": 38.8990175, "is_reserved": 0, "fusion_lat": 0.0, "bike_id": "ce4690ebaee1dd0befa9359f06e3f73c", "type": "electric_scooter", "is_disabled": 0, "fusion_lon": 0.0}, {"rental_uris": {"android": "https://dc.lft.to/lastmile_qr_scan", "ios": "https://dc.lft.to/lastmile_qr_scan"}, "lon": -77.04502083333334, "name": "c9395bb5e308da09ef15fe44f230f1b8", "lat": 38.911111166666664, "is_reserved": 0, "fusion_lat": 0.0, "bike_id": "c9395bb5e308da09ef15fe44f230f1b8", "type": "electric_scooter", "is_disabled": 0, "fusion_lon": 0.0}, {"rental_uris": {"android": "https://dc.lft.to/lastmile_qr_scan", "ios": "https://dc.lft.to/lastmile_qr_scan"}, "lon": -76.99409266666666, "name": "3887102b022a2fc053455671b9f145da", "lat": 38.921723666666665, "is_reserved": 0, "fusion_lat": 0.0, "bike_id": "3887102b022a2fc053455671b9f145da", "type": "electric_bike", "is_disabled": 0, "fusion_lon": 0.0}, {"rental_uris": {"android": "https://dc.lft.to/lastmile_qr_scan", "ios": "https://dc.lft.to/lastmile_qr_scan"}, "lon": -77.03882383333334, "name": "f78916f61dce8b25fd109d4b44109050", "lat": 38.901267, "is_reserved": 0, "fusion_lat": 0.0, "bike_id": "f78916f61dce8b25fd109d4b44109050", "type": "electric_scooter", "is_disabled": 0, "fusion_lon": 0.0}, {"rental_uris": {"android": "https://dc.lft.to/lastmile_qr_scan", "ios": "https://dc.lft.to/lastmile_qr_scan"}, "lon": -77.04145316666667, "name": "da65b1b0af72b53fdf0548934f77336f", "lat": 38.9160645, "is_reserved": 0, "fusion_lat": 0.0, "bike_id": "da65b1b0af72b53fdf0548934f77336f", "type": "electric_bike", "is_disabled": 0, "fusion_lon": 0.0}, {"rental_uris": {"android": "https://dc.lft.to/lastmile_qr_scan", "ios": "https://dc.lft.to/lastmile_qr_scan"}, "lon": -76.93925533333334, "name": "a098e021469f8d3fcc91dd55d240c348", "lat": 38.893303333333336, "is_reserved": 0, "fusion_lat": 0.0, "bike_id": "a098e021469f8d3fcc91dd55d240c348", "type": "electric_scooter", "is_disabled": 0, "fusion_lon": 0.0}, {"rental_uris": {"android": "https://dc.lft.to/lastmile_qr_scan", "ios": "https://dc.lft.to/lastmile_qr_scan"}, "lon": -76.98093616666667, "name": "7afa4a6ae81950cf49ff1d77a187c88e", "lat": 38.95358, "is_reserved": 0, "fusion_lat": 0.0, "bike_id": "7afa4a6ae81950cf49ff1d77a187c88e", "type": "electric_bike", "is_disabled": 0, "fusion_lon": 0.0}, {"rental_uris": {"android": "https://dc.lft.to/lastmile_qr_scan", "ios": "https://dc.lft.to/lastmile_qr_scan"}, "lon": -77.0453075, "name": "9454c65a5cc6029bc87907eaf083df8c", "lat": 38.934582666666664, "is_reserved": 0, "fusion_lat": 0.0, "bike_id": "9454c65a5cc6029bc87907eaf083df8c", "type": "electric_scooter", "is_disabled": 0, "fusion_lon": 0.0}, {"rental_uris": {"android": "https://dc.lft.to/lastmile_qr_scan", "ios": "https://dc.lft.to/lastmile_qr_scan"}, "lon": -77.025285, "name": "60e5b3753d9c8735fc2998e86820bdd9", "lat": 38.9034115, "is_reserved": 0, "fusion_lat": 0.0, "bike_id": "60e5b3753d9c8735fc2998e86820bdd9", "type": "electric_scooter", "is_disabled": 0, "fusion_lon": 0.0}, {"rental_uris": {"android": "https://dc.lft.to/lastmile_qr_scan", "ios": "https://dc.lft.to/lastmile_qr_scan"}, "lon": -77.03880483333333, "name": "1b869cf3b8382879032e279c2bf282be", "lat": 38.918509, "is_reserved": 0, "fusion_lat": 0.0, "bike_id": "1b869cf3b8382879032e279c2bf282be", "type": "electric_scooter", "is_disabled": 0, "fusion_lon": 0.0}, {"rental_uris": {"android": "https://dc.lft.to/lastmile_qr_scan", "ios": "https://dc.lft.to/lastmile_qr_scan"}, "lon": -77.0183765, "name": "1b2106d1be470ea02cd821da5a949d1a", "lat": 38.915350833333335, "is_reserved": 0, "fusion_lat": 0.0, "bike_id": "1b2106d1be470ea02cd821da5a949d1a", "type": "electric_scooter", "is_disabled": 0, "fusion_lon": 0.0}, {"rental_uris": {"android": "https://dc.lft.to/lastmile_qr_scan", "ios": "https://dc.lft.to/lastmile_qr_scan"}, "lon": -77.03175883333333, "name": "d0539a25a0f5709cd49247f811456cb5", "lat": 38.9072945, "is_reserved": 0, "fusion_lat": 0.0, "bike_id": "d0539a25a0f5709cd49247f811456cb5", "type": "electric_scooter", "is_disabled": 0, "fusion_lon": 0.0}, {"rental_uris": {"android": "https://dc.lft.to/lastmile_qr_scan", "ios": "https://dc.lft.to/lastmile_qr_scan"}, "lon": -77.03646416666666, "name": "f1044c7ab6fdc021e6cf768742389d7f", "lat": 38.92810383333333, "is_reserved": 0, "fusion_lat": 0.0, "bike_id": "f1044c7ab6fdc021e6cf768742389d7f", "type": "electric_scooter", "is_disabled": 0, "fusion_lon": 0.0}, {"rental_uris": {"android": "https://dc.lft.to/lastmile_qr_scan", "ios": "https://dc.lft.to/lastmile_qr_scan"}, "lon": -76.99847033333333, "name": "b5d2d51615677b99621e68e9ad0549d5", "lat": 38.9003445, "is_reserved": 0, "fusion_lat": 0.0, "bike_id": "b5d2d51615677b99621e68e9ad0549d5", "type": "electric_scooter", "is_disabled": 0, "fusion_lon": 0.0}, {"rental_uris": {"android": "https://dc.lft.to/lastmile_qr_scan", "ios": "https://dc.lft.to/lastmile_qr_scan"}, "lon": -77.056366, "name": "b90f0014275228b58267a7a9d6878df7", "lat": 38.92342383333333, "is_reserved": 0, "fusion_lat": 0.0, "bike_id": "b90f0014275228b58267a7a9d6878df7", "type": "electric_scooter", "is_disabled": 0, "fusion_lon": 0.0}, {"rental_uris": {"android": "https://dc.lft.to/lastmile_qr_scan", "ios": "https://dc.lft.to/lastmile_qr_scan"}, "lon": -77.00596616666667, "name": "39eadcd88d44820b6b0c49c0faff74a7", "lat": 38.907796166666664, "is_reserved": 0, "fusion_lat": 0.0, "bike_id": "39eadcd88d44820b6b0c49c0faff74a7", "type": "electric_scooter", "is_disabled": 0, "fusion_lon": 0.0}, {"rental_uris": {"android": "https://dc.lft.to/lastmile_qr_scan", "ios": "https://dc.lft.to/lastmile_qr_scan"}, "lon": -77.02638733333333, "name": "4d794742c5c184476895aba7b572e021", "lat": 38.90420966666667, "is_reserved": 0, "fusion_lat": 0.0, "bike_id": "4d794742c5c184476895aba7b572e021", "type": "electric_scooter", "is_disabled": 0, "fusion_lon": 0.0}, {"rental_uris": {"android": "https://dc.lft.to/lastmile_qr_scan", "ios": "https://dc.lft.to/lastmile_qr_scan"}, "lon": -77.02731016666667, "name": "a544ec3e793d378b35f0218081a50fea", "lat": 38.928709833333336, "is_reserved": 0, "fusion_lat": 0.0, "bike_id": "a544ec3e793d378b35f0218081a50fea", "type": "electric_scooter", "is_disabled": 0, "fusion_lon": 0.0}, {"rental_uris": {"android": "https://dc.lft.to/lastmile_qr_scan", "ios": "https://dc.lft.to/lastmile_qr_scan"}, "lon": -77.0340725, "name": "9d7e6033310c58ae7fe5635bfe541e4a", "lat": 38.924378, "is_reserved": 0, "fusion_lat": 0.0, "bike_id": "9d7e6033310c58ae7fe5635bfe541e4a", "type": "electric_scooter", "is_disabled": 0, "fusion_lon": 0.0}, {"rental_uris": {"android": "https://dc.lft.to/lastmile_qr_scan", "ios": "https://dc.lft.to/lastmile_qr_scan"}, "lon": -77.036389, "name": "5b46cd7ba871fa50097a57fad39a1ed0", "lat": 38.91464533333333, "is_reserved": 0, "fusion_lat": 0.0, "bike_id": "5b46cd7ba871fa50097a57fad39a1ed0", "type": "electric_scooter", "is_disabled": 0, "fusion_lon": 0.0}, {"rental_uris": {"android": "https://dc.lft.to/lastmile_qr_scan", "ios": "https://dc.lft.to/lastmile_qr_scan"}, "lon": -77.02530716666666, "name": "652c9c7d86273562b83548754f9e89a8", "lat": 38.93753366666667, "is_reserved": 0, "fusion_lat": 0.0, "bike_id": "652c9c7d86273562b83548754f9e89a8", "type": "electric_scooter", "is_disabled": 0, "fusion_lon": 0.0}, {"rental_uris": {"android": "https://dc.lft.to/lastmile_qr_scan", "ios": "https://dc.lft.to/lastmile_qr_scan"}, "lon": -76.98880366666667, "name": "24b0bbc857738797fbc35a75cb409fd8", "lat": 38.866602, "is_reserved": 0, "fusion_lat": 0.0, "bike_id": "24b0bbc857738797fbc35a75cb409fd8", "type": "electric_scooter", "is_disabled": 0, "fusion_lon": 0.0}, {"rental_uris": {"android": "https://dc.lft.to/lastmile_qr_scan", "ios": "https://dc.lft.to/lastmile_qr_scan"}, "lon": -77.0102565, "name": "c1e93a666013ccd31ee3683251077c68", "lat": 38.920329833333334, "is_reserved": 0, "fusion_lat": 0.0, "bike_id": "c1e93a666013ccd31ee3683251077c68", "type": "electric_scooter", "is_disabled": 0, "fusion_lon": 0.0}, {"rental_uris": {"android": "https://dc.lft.to/lastmile_qr_scan", "ios": "https://dc.lft.to/lastmile_qr_scan"}, "lon": -76.981574, "name": "5b0f8a01ed1cbad59f98b7ea820a75bb", "lat": 38.89950616666667, "is_reserved": 0, "fusion_lat": 0.0, "bike_id": "5b0f8a01ed1cbad59f98b7ea820a75bb", "type": "electric_scooter", "is_disabled": 0, "fusion_lon": 0.0}, {"rental_uris": {"android": "https://dc.lft.to/lastmile_qr_scan", "ios": "https://dc.lft.to/lastmile_qr_scan"}, "lon": -77.02136133333333, "name": "33ba07f95680babd75b48bd5f9d5da82", "lat": 38.9249265, "is_reserved": 0, "fusion_lat": 0.0, "bike_id": "33ba07f95680babd75b48bd5f9d5da82", "type": "electric_scooter", "is_disabled": 0, "fusion_lon": 0.0}, {"rental_uris": {"android": "https://dc.lft.to/lastmile_qr_scan", "ios": "https://dc.lft.to/lastmile_qr_scan"}, "lon": -77.0363845, "name": "59db794f94cc39ec25694a40e8610bdd", "lat": 38.9230125, "is_reserved": 0, "fusion_lat": 0.0, "bike_id": "59db794f94cc39ec25694a40e8610bdd", "type": "electric_scooter", "is_disabled": 0, "fusion_lon": 0.0}, {"rental_uris": {"android": "https://dc.lft.to/lastmile_qr_scan", "ios": "https://dc.lft.to/lastmile_qr_scan"}, "lon": -77.02709516666667, "name": "817008b3894a288e9464b07c13fe50d2", "lat": 38.907919, "is_reserved": 0, "fusion_lat": 0.0, "bike_id": "817008b3894a288e9464b07c13fe50d2", "type": "electric_scooter", "is_disabled": 0, "fusion_lon": 0.0}, {"rental_uris": {"android": "https://dc.lft.to/lastmile_qr_scan", "ios": "https://dc.lft.to/lastmile_qr_scan"}, "lon": -77.02213366666666, "name": "21c158bd86be39e0fa8f01a6bcbc2535", "lat": 38.903074, "is_reserved": 0, "fusion_lat": 0.0, "bike_id": "21c158bd86be39e0fa8f01a6bcbc2535", "type": "electric_scooter", "is_disabled": 0, "fusion_lon": 0.0}, {"rental_uris": {"android": "https://dc.lft.to/lastmile_qr_scan", "ios": "https://dc.lft.to/lastmile_qr_scan"}, "lon": -76.9524475, "name": "558a0903cafdba4f54793f43c5fe18bb", "lat": 38.89042766666667, "is_reserved": 0, "fusion_lat": 0.0, "bike_id": "558a0903cafdba4f54793f43c5fe18bb", "type": "electric_scooter", "is_disabled": 0, "fusion_lon": 0.0}, {"rental_uris": {"android": "https://dc.lft.to/lastmile_qr_scan", "ios": "https://dc.lft.to/lastmile_qr_scan"}, "lon": -76.92657283333334, "name": "2191b35403da26fce903a1ad020c20df", "lat": 38.9017045, "is_reserved": 0, "fusion_lat": 0.0, "bike_id": "2191b35403da26fce903a1ad020c20df", "type": "electric_scooter", "is_disabled": 0, "fusion_lon": 0.0}, {"rental_uris": {"android": "https://dc.lft.to/lastmile_qr_scan", "ios": "https://dc.lft.to/lastmile_qr_scan"}, "lon": -77.03520433333334, "name": "1dd489d0784edb6e360c546f39f94f2f", "lat": 38.922422166666664, "is_reserved": 0, "fusion_lat": 0.0, "bike_id": "1dd489d0784edb6e360c546f39f94f2f", "type": "electric_scooter", "is_disabled": 0, "fusion_lon": 0.0}, {"rental_uris": {"android": "https://dc.lft.to/lastmile_qr_scan", "ios": "https://dc.lft.to/lastmile_qr_scan"}, "lon": -77.02399033333333, "name": "903bc4f91694aeac0bd28d027fa609b3", "lat": 38.91961283333333, "is_reserved": 0, "fusion_lat": 0.0, "bike_id": "903bc4f91694aeac0bd28d027fa609b3", "type": "electric_scooter", "is_disabled": 0, "fusion_lon": 0.0}, {"rental_uris": {"android": "https://dc.lft.to/lastmile_qr_scan", "ios": "https://dc.lft.to/lastmile_qr_scan"}, "lon": -77.01361916666667, "name": "be1ae16fb23a4e4bcecc6108cae2ca02", "lat": 38.897908666666666, "is_reserved": 0, "fusion_lat": 0.0, "bike_id": "be1ae16fb23a4e4bcecc6108cae2ca02", "type": "electric_scooter", "is_disabled": 0, "fusion_lon": 0.0}, {"rental_uris": {"android": "https://dc.lft.to/lastmile_qr_scan", "ios": "https://dc.lft.to/lastmile_qr_scan"}, "lon": -77.03176866666666, "name": "36e8a0ff0e235a852b5952f478e1fc6c", "lat": 38.907308666666665, "is_reserved": 0, "fusion_lat": 0.0, "bike_id": "36e8a0ff0e235a852b5952f478e1fc6c", "type": "electric_scooter", "is_disabled": 0, "fusion_lon": 0.0}, {"rental_uris": {"android": "https://dc.lft.to/lastmile_qr_scan", "ios": "https://dc.lft.to/lastmile_qr_scan"}, "lon": -76.98563666666666, "name": "93fffed352aeb3c9c4dce08845e83415", "lat": 38.86681333333333, "is_reserved": 0, "fusion_lat": 0.0, "bike_id": "93fffed352aeb3c9c4dce08845e83415", "type": "electric_scooter", "is_disabled": 0, "fusion_lon": 0.0}, {"rental_uris": {"android": "https://dc.lft.to/lastmile_qr_scan", "ios": "https://dc.lft.to/lastmile_qr_scan"}, "lon": -77.07328233333334, "name": "32985db76dd2b096cc5df2b9d07e7a8e", "lat": 38.92720166666667, "is_reserved": 0, "fusion_lat": 0.0, "bike_id": "32985db76dd2b096cc5df2b9d07e7a8e", "type": "electric_bike", "is_disabled": 0, "fusion_lon": 0.0}, {"rental_uris": {"android": "https://dc.lft.to/lastmile_qr_scan", "ios": "https://dc.lft.to/lastmile_qr_scan"}, "lon": -77.02854166666667, "name": "cb6346ca767ff72157a345a0f5f9e053", "lat": 38.92764283333333, "is_reserved": 0, "fusion_lat": 0.0, "bike_id": "cb6346ca767ff72157a345a0f5f9e053", "type": "electric_scooter", "is_disabled": 0, "fusion_lon": 0.0}, {"rental_uris": {"android": "https://dc.lft.to/lastmile_qr_scan", "ios": "https://dc.lft.to/lastmile_qr_scan"}, "lon": -76.974438, "name": "f226562e9dfd2add98c018d18aec32ce", "lat": 38.90243566666667, "is_reserved": 0, "fusion_lat": 0.0, "bike_id": "f226562e9dfd2add98c018d18aec32ce", "type": "electric_scooter", "is_disabled": 0, "fusion_lon": 0.0}, {"rental_uris": {"android": "https://dc.lft.to/lastmile_qr_scan", "ios": "https://dc.lft.to/lastmile_qr_scan"}, "lon": -77.0172735, "name": "dae96c2bfd5713f89d442dee5c2306b4", "lat": 38.9024475, "is_reserved": 0, "fusion_lat": 0.0, "bike_id": "dae96c2bfd5713f89d442dee5c2306b4", "type": "electric_scooter", "is_disabled": 0, "fusion_lon": 0.0}, {"rental_uris": {"android": "https://dc.lft.to/lastmile_qr_scan", "ios": "https://dc.lft.to/lastmile_qr_scan"}, "lon": -77.02177783333333, "name": "04c17c6ec4cd55dd793a06e941c2ff41", "lat": 38.91608333333333, "is_reserved": 0, "fusion_lat": 0.0, "bike_id": "04c17c6ec4cd55dd793a06e941c2ff41", "type": "electric_scooter", "is_disabled": 0, "fusion_lon": 0.0}, {"rental_uris": {"android": "https://dc.lft.to/lastmile_qr_scan", "ios": "https://dc.lft.to/lastmile_qr_scan"}, "lon": -77.00670933333333, "name": "b712d012eb3c8887b654759daa7335b7", "lat": 38.8771205, "is_reserved": 0, "fusion_lat": 0.0, "bike_id": "b712d012eb3c8887b654759daa7335b7", "type": "electric_scooter", "is_disabled": 0, "fusion_lon": 0.0}, {"rental_uris": {"android": "https://dc.lft.to/lastmile_qr_scan", "ios": "https://dc.lft.to/lastmile_qr_scan"}, "lon": -76.97919116666667, "name": "f0d05c8609a634fefc08e0f5160f5d88", "lat": 38.924605666666665, "is_reserved": 0, "fusion_lat": 0.0, "bike_id": "f0d05c8609a634fefc08e0f5160f5d88", "type": "electric_scooter", "is_disabled": 0, "fusion_lon": 0.0}, {"rental_uris": {"android": "https://dc.lft.to/lastmile_qr_scan", "ios": "https://dc.lft.to/lastmile_qr_scan"}, "lon": -77.02797083333333, "name": "f693173ede0f4d12e98d6756b7073477", "lat": 38.930583, "is_reserved": 0, "fusion_lat": 0.0, "bike_id": "f693173ede0f4d12e98d6756b7073477", "type": "electric_scooter", "is_disabled": 0, "fusion_lon": 0.0}, {"rental_uris": {"android": "https://dc.lft.to/lastmile_qr_scan", "ios": "https://dc.lft.to/lastmile_qr_scan"}, "lon": -76.99581533333334, "name": "dd8f87beb93629ca915ee5acc5750ef4", "lat": 38.851773333333334, "is_reserved": 0, "fusion_lat": 0.0, "bike_id": "dd8f87beb93629ca915ee5acc5750ef4", "type": "electric_scooter", "is_disabled": 0, "fusion_lon": 0.0}, {"rental_uris": {"android": "https://dc.lft.to/lastmile_qr_scan", "ios": "https://dc.lft.to/lastmile_qr_scan"}, "lon": -77.0176905, "name": "773dff4938b6ecbc27948504f89a3df8", "lat": 38.87897783333333, "is_reserved": 0, "fusion_lat": 0.0, "bike_id": "773dff4938b6ecbc27948504f89a3df8", "type": "electric_scooter", "is_disabled": 0, "fusion_lon": 0.0}, {"rental_uris": {"android": "https://dc.lft.to/lastmile_qr_scan", "ios": "https://dc.lft.to/lastmile_qr_scan"}, "lon": -77.03608916666667, "name": "a4ec76968487ad1e175fad80c1a32616", "lat": 38.93156666666667, "is_reserved": 0, "fusion_lat": 0.0, "bike_id": "a4ec76968487ad1e175fad80c1a32616", "type": "electric_scooter", "is_disabled": 0, "fusion_lon": 0.0}, {"rental_uris": {"android": "https://dc.lft.to/lastmile_qr_scan", "ios": "https://dc.lft.to/lastmile_qr_scan"}, "lon": -77.01908133333333, "name": "1738f1a0ddd354eed7d990969b91cbd7", "lat": 38.899766166666666, "is_reserved": 0, "fusion_lat": 0.0, "bike_id": "1738f1a0ddd354eed7d990969b91cbd7", "type": "electric_scooter", "is_disabled": 0, "fusion_lon": 0.0}, {"rental_uris": {"android": "https://dc.lft.to/lastmile_qr_scan", "ios": "https://dc.lft.to/lastmile_qr_scan"}, "lon": -77.0386415, "name": "21c86ab212497adf1f7c287a1b075596", "lat": 38.907784666666664, "is_reserved": 0, "fusion_lat": 0.0, "bike_id": "21c86ab212497adf1f7c287a1b075596", "type": "electric_scooter", "is_disabled": 0, "fusion_lon": 0.0}, {"rental_uris": {"android": "https://dc.lft.to/lastmile_qr_scan", "ios": "https://dc.lft.to/lastmile_qr_scan"}, "lon": -76.98714733333334, "name": "1fd7dc45f3d38d129bd937b7953cd652", "lat": 38.86629833333333, "is_reserved": 0, "fusion_lat": 0.0, "bike_id": "1fd7dc45f3d38d129bd937b7953cd652", "type": "electric_scooter", "is_disabled": 0, "fusion_lon": 0.0}, {"rental_uris": {"android": "https://dc.lft.to/lastmile_qr_scan", "ios": "https://dc.lft.to/lastmile_qr_scan"}, "lon": -77.00148233333333, "name": "d77722ce630f208e63e4cab09fb539d5", "lat": 38.90771016666667, "is_reserved": 0, "fusion_lat": 0.0, "bike_id": "d77722ce630f208e63e4cab09fb539d5", "type": "electric_scooter", "is_disabled": 0, "fusion_lon": 0.0}, {"rental_uris": {"android": "https://dc.lft.to/lastmile_qr_scan", "ios": "https://dc.lft.to/lastmile_qr_scan"}, "lon": -77.00568916666667, "name": "d84e6c1687f932b1180876f0b4a71330", "lat": 38.91811766666667, "is_reserved": 0, "fusion_lat": 0.0, "bike_id": "d84e6c1687f932b1180876f0b4a71330", "type": "electric_scooter", "is_disabled": 0, "fusion_lon": 0.0}, {"rental_uris": {"android": "https://dc.lft.to/lastmile_qr_scan", "ios": "https://dc.lft.to/lastmile_qr_scan"}, "lon": -77.03285633333333, "name": "0324217e49bdf56558190a8afb620454", "lat": 38.94816266666667, "is_reserved": 0, "fusion_lat": 0.0, "bike_id": "0324217e49bdf56558190a8afb620454", "type": "electric_scooter", "is_disabled": 0, "fusion_lon": 0.0}, {"rental_uris": {"android": "https://dc.lft.to/lastmile_qr_scan", "ios": "https://dc.lft.to/lastmile_qr_scan"}, "lon": -76.95888016666666, "name": "cae0b60e9f57f8f67818131f4654a91d", "lat": 38.88187283333333, "is_reserved": 0, "fusion_lat": 0.0, "bike_id": "cae0b60e9f57f8f67818131f4654a91d", "type": "electric_scooter", "is_disabled": 0, "fusion_lon": 0.0}, {"rental_uris": {"android": "https://dc.lft.to/lastmile_qr_scan", "ios": "https://dc.lft.to/lastmile_qr_scan"}, "lon": -77.00126466666667, "name": "4d676bda1cf5f5d053d7d6ce3d93ed95", "lat": 38.905621333333336, "is_reserved": 0, "fusion_lat": 0.0, "bike_id": "4d676bda1cf5f5d053d7d6ce3d93ed95", "type": "electric_scooter", "is_disabled": 0, "fusion_lon": 0.0}, {"rental_uris": {"android": "https://dc.lft.to/lastmile_qr_scan", "ios": "https://dc.lft.to/lastmile_qr_scan"}, "lon": -77.024199, "name": "fc2c7e09c8da48acf2e4632f8b293ca0", "lat": 38.920904666666665, "is_reserved": 0, "fusion_lat": 0.0, "bike_id": "fc2c7e09c8da48acf2e4632f8b293ca0", "type": "electric_scooter", "is_disabled": 0, "fusion_lon": 0.0}, {"rental_uris": {"android": "https://dc.lft.to/lastmile_qr_scan", "ios": "https://dc.lft.to/lastmile_qr_scan"}, "lon": -77.05005466666667, "name": "f7ca9f87a887b8c8e41a3cc40dc010d5", "lat": 38.89236916666667, "is_reserved": 0, "fusion_lat": 0.0, "bike_id": "f7ca9f87a887b8c8e41a3cc40dc010d5", "type": "electric_scooter", "is_disabled": 0, "fusion_lon": 0.0}, {"rental_uris": {"android": "https://dc.lft.to/lastmile_qr_scan", "ios": "https://dc.lft.to/lastmile_qr_scan"}, "lon": -77.04354966666666, "name": "c25db99021c65b973765151d23fbe63a", "lat": 38.904565, "is_reserved": 0, "fusion_lat": 0.0, "bike_id": "c25db99021c65b973765151d23fbe63a", "type": "electric_scooter", "is_disabled": 0, "fusion_lon": 0.0}, {"rental_uris": {"android": "https://dc.lft.to/lastmile_qr_scan", "ios": "https://dc.lft.to/lastmile_qr_scan"}, "lon": -76.95581533333333, "name": "077ba726cb99de1a9675a1b99f6ba984", "lat": 38.88614283333333, "is_reserved": 0, "fusion_lat": 0.0, "bike_id": "077ba726cb99de1a9675a1b99f6ba984", "type": "electric_scooter", "is_disabled": 0, "fusion_lon": 0.0}, {"rental_uris": {"android": "https://dc.lft.to/lastmile_qr_scan", "ios": "https://dc.lft.to/lastmile_qr_scan"}, "lon": -77.00077133333333, "name": "6eca2850f4dcf65e527f330ec02bd2d2", "lat": 38.901423666666666, "is_reserved": 0, "fusion_lat": 0.0, "bike_id": "6eca2850f4dcf65e527f330ec02bd2d2", "type": "electric_scooter", "is_disabled": 0, "fusion_lon": 0.0}, {"rental_uris": {"android": "https://dc.lft.to/lastmile_qr_scan", "ios": "https://dc.lft.to/lastmile_qr_scan"}, "lon": -77.0268645, "name": "a3ad492146af373e6051356d0d04d2cc", "lat": 38.89718583333333, "is_reserved": 0, "fusion_lat": 0.0, "bike_id": "a3ad492146af373e6051356d0d04d2cc", "type": "electric_scooter", "is_disabled": 0, "fusion_lon": 0.0}, {"rental_uris": {"android": "https://dc.lft.to/lastmile_qr_scan", "ios": "https://dc.lft.to/lastmile_qr_scan"}, "lon": -77.04478133333333, "name": "be35ae884b1b3f8a0459ef957f1e6db7", "lat": 38.89528933333333, "is_reserved": 0, "fusion_lat": 0.0, "bike_id": "be35ae884b1b3f8a0459ef957f1e6db7", "type": "electric_scooter", "is_disabled": 0, "fusion_lon": 0.0}, {"rental_uris": {"android": "https://dc.lft.to/lastmile_qr_scan", "ios": "https://dc.lft.to/lastmile_qr_scan"}, "lon": -77.046955, "name": "fcc1bcfed44b637d78055cff775c6e75", "lat": 38.89222783333334, "is_reserved": 0, "fusion_lat": 0.0, "bike_id": "fcc1bcfed44b637d78055cff775c6e75", "type": "electric_scooter", "is_disabled": 0, "fusion_lon": 0.0}, {"rental_uris": {"android": "https://dc.lft.to/lastmile_qr_scan", "ios": "https://dc.lft.to/lastmile_qr_scan"}, "lon": -77.01915516666666, "name": "08159019c08b64f9ab8c2d0ccc2d20af", "lat": 38.921392166666664, "is_reserved": 0, "fusion_lat": 0.0, "bike_id": "08159019c08b64f9ab8c2d0ccc2d20af", "type": "electric_scooter", "is_disabled": 0, "fusion_lon": 0.0}, {"rental_uris": {"android": "https://dc.lft.to/lastmile_qr_scan", "ios": "https://dc.lft.to/lastmile_qr_scan"}, "lon": -77.0430165, "name": "04517afce88c8aaf43a3d81d4a1b2f77", "lat": 38.931827166666665, "is_reserved": 0, "fusion_lat": 0.0, "bike_id": "04517afce88c8aaf43a3d81d4a1b2f77", "type": "electric_scooter", "is_disabled": 0, "fusion_lon": 0.0}, {"rental_uris": {"android": "https://dc.lft.to/lastmile_qr_scan", "ios": "https://dc.lft.to/lastmile_qr_scan"}, "lon": -77.03788616666667, "name": "493f5add2a17a0856082a2c5e1a27afc", "lat": 38.9360785, "is_reserved": 0, "fusion_lat": 0.0, "bike_id": "493f5add2a17a0856082a2c5e1a27afc", "type": "electric_scooter", "is_disabled": 0, "fusion_lon": 0.0}, {"rental_uris": {"android": "https://dc.lft.to/lastmile_qr_scan", "ios": "https://dc.lft.to/lastmile_qr_scan"}, "lon": -77.018227, "name": "00a0ff7b3c115758cf93e1d55eca79f5", "lat": 38.922728166666666, "is_reserved": 0, "fusion_lat": 0.0, "bike_id": "00a0ff7b3c115758cf93e1d55eca79f5", "type": "electric_scooter", "is_disabled": 0, "fusion_lon": 0.0}, {"rental_uris": {"android": "https://dc.lft.to/lastmile_qr_scan", "ios": "https://dc.lft.to/lastmile_qr_scan"}, "lon": -76.98864966666666, "name": "494937d670fff42a6a830728def5cf8f", "lat": 38.857747, "is_reserved": 0, "fusion_lat": 0.0, "bike_id": "494937d670fff42a6a830728def5cf8f", "type": "electric_scooter", "is_disabled": 0, "fusion_lon": 0.0}, {"rental_uris": {"android": "https://dc.lft.to/lastmile_qr_scan", "ios": "https://dc.lft.to/lastmile_qr_scan"}, "lon": -77.03643683333334, "name": "ad05bd17f5055014ccedfc4737ff8d75", "lat": 38.9173855, "is_reserved": 0, "fusion_lat": 0.0, "bike_id": "ad05bd17f5055014ccedfc4737ff8d75", "type": "electric_scooter", "is_disabled": 0, "fusion_lon": 0.0}, {"rental_uris": {"android": "https://dc.lft.to/lastmile_qr_scan", "ios": "https://dc.lft.to/lastmile_qr_scan"}, "lon": -77.02380183333334, "name": "87235850ee6fa2219e7bc3bc8b4207ac", "lat": 38.92063316666667, "is_reserved": 0, "fusion_lat": 0.0, "bike_id": "87235850ee6fa2219e7bc3bc8b4207ac", "type": "electric_scooter", "is_disabled": 0, "fusion_lon": 0.0}, {"rental_uris": {"android": "https://dc.lft.to/lastmile_qr_scan", "ios": "https://dc.lft.to/lastmile_qr_scan"}, "lon": -76.99804566666667, "name": "e7c1e67bcd67e1104d1ae77994a2e386", "lat": 38.90137633333333, "is_reserved": 0, "fusion_lat": 0.0, "bike_id": "e7c1e67bcd67e1104d1ae77994a2e386", "type": "electric_scooter", "is_disabled": 0, "fusion_lon": 0.0}, {"rental_uris": {"android": "https://dc.lft.to/lastmile_qr_scan", "ios": "https://dc.lft.to/lastmile_qr_scan"}, "lon": -77.0629565, "name": "e796394f46dd986f6d5ebc1591db0e6e", "lat": 38.943810666666664, "is_reserved": 0, "fusion_lat": 0.0, "bike_id": "e796394f46dd986f6d5ebc1591db0e6e", "type": "electric_scooter", "is_disabled": 0, "fusion_lon": 0.0}, {"rental_uris": {"android": "https://dc.lft.to/lastmile_qr_scan", "ios": "https://dc.lft.to/lastmile_qr_scan"}, "lon": -76.95165433333334, "name": "175b3d87abbb3ca258e0c9508c9e6143", "lat": 39.08441466666667, "is_reserved": 0, "fusion_lat": 0.0, "bike_id": "175b3d87abbb3ca258e0c9508c9e6143", "type": "electric_bike", "is_disabled": 0, "fusion_lon": 0.0}, {"rental_uris": {"android": "https://dc.lft.to/lastmile_qr_scan", "ios": "https://dc.lft.to/lastmile_qr_scan"}, "lon": -77.03828116666666, "name": "26834a820c22a71585190c55e526552a", "lat": 38.912585, "is_reserved": 0, "fusion_lat": 0.0, "bike_id": "26834a820c22a71585190c55e526552a", "type": "electric_scooter", "is_disabled": 0, "fusion_lon": 0.0}, {"rental_uris": {"android": "https://dc.lft.to/lastmile_qr_scan", "ios": "https://dc.lft.to/lastmile_qr_scan"}, "lon": -77.05508666666667, "name": "67680aa07b79747a6362f5717f00c8a7", "lat": 38.929516, "is_reserved": 0, "fusion_lat": 0.0, "bike_id": "67680aa07b79747a6362f5717f00c8a7", "type": "electric_scooter", "is_disabled": 0, "fusion_lon": 0.0}, {"rental_uris": {"android": "https://dc.lft.to/lastmile_qr_scan", "ios": "https://dc.lft.to/lastmile_qr_scan"}, "lon": -77.02821016666667, "name": "73a59be87811639f92e3195c0a9979c6", "lat": 38.95616183333333, "is_reserved": 0, "fusion_lat": 0.0, "bike_id": "73a59be87811639f92e3195c0a9979c6", "type": "electric_scooter", "is_disabled": 0, "fusion_lon": 0.0}, {"rental_uris": {"android": "https://dc.lft.to/lastmile_qr_scan", "ios": "https://dc.lft.to/lastmile_qr_scan"}, "lon": -76.99777516666667, "name": "4bb2cd3903b357c6d28a6787e1bf8070", "lat": 38.84438333333333, "is_reserved": 0, "fusion_lat": 0.0, "bike_id": "4bb2cd3903b357c6d28a6787e1bf8070", "type": "electric_scooter", "is_disabled": 0, "fusion_lon": 0.0}, {"rental_uris": {"android": "https://dc.lft.to/lastmile_qr_scan", "ios": "https://dc.lft.to/lastmile_qr_scan"}, "lon": -77.03836583333333, "name": "cdfcd90c165bdbef97f48bbce183e1fe", "lat": 38.90978466666667, "is_reserved": 0, "fusion_lat": 0.0, "bike_id": "cdfcd90c165bdbef97f48bbce183e1fe", "type": "electric_scooter", "is_disabled": 0, "fusion_lon": 0.0}, {"rental_uris": {"android": "https://dc.lft.to/lastmile_qr_scan", "ios": "https://dc.lft.to/lastmile_qr_scan"}, "lon": -77.0239105, "name": "143314562ee5c13e7260ff73fef384db", "lat": 38.91676566666667, "is_reserved": 0, "fusion_lat": 0.0, "bike_id": "143314562ee5c13e7260ff73fef384db", "type": "electric_scooter", "is_disabled": 0, "fusion_lon": 0.0}, {"rental_uris": {"android": "https://dc.lft.to/lastmile_qr_scan", "ios": "https://dc.lft.to/lastmile_qr_scan"}, "lon": -77.03965333333333, "name": "f4cfdf3c4b46cc2aed2052032886c86b", "lat": 38.93327083333333, "is_reserved": 0, "fusion_lat": 0.0, "bike_id": "f4cfdf3c4b46cc2aed2052032886c86b", "type": "electric_bike", "is_disabled": 0, "fusion_lon": 0.0}, {"rental_uris": {"android": "https://dc.lft.to/lastmile_qr_scan", "ios": "https://dc.lft.to/lastmile_qr_scan"}, "lon": -77.04291016666667, "name": "2bbf2bbc2fee8bf015ea0451318438ac", "lat": 38.92671266666667, "is_reserved": 0, "fusion_lat": 0.0, "bike_id": "2bbf2bbc2fee8bf015ea0451318438ac", "type": "electric_scooter", "is_disabled": 0, "fusion_lon": 0.0}, {"rental_uris": {"android": "https://dc.lft.to/lastmile_qr_scan", "ios": "https://dc.lft.to/lastmile_qr_scan"}, "lon": -77.02686483333333, "name": "76196ff8f75be6a3f6f16df0e3e88f10", "lat": 38.923874166666664, "is_reserved": 0, "fusion_lat": 0.0, "bike_id": "76196ff8f75be6a3f6f16df0e3e88f10", "type": "electric_scooter", "is_disabled": 0, "fusion_lon": 0.0}, {"rental_uris": {"android": "https://dc.lft.to/lastmile_qr_scan", "ios": "https://dc.lft.to/lastmile_qr_scan"}, "lon": -77.0447665, "name": "be3b1b150ea0af3b3551195330f0d7d4", "lat": 38.918702833333334, "is_reserved": 0, "fusion_lat": 0.0, "bike_id": "be3b1b150ea0af3b3551195330f0d7d4", "type": "electric_scooter", "is_disabled": 0, "fusion_lon": 0.0}, {"rental_uris": {"android": "https://dc.lft.to/lastmile_qr_scan", "ios": "https://dc.lft.to/lastmile_qr_scan"}, "lon": -77.023786, "name": "d2d72e7410a9f71a42b08a74cd6450d2", "lat": 38.908893666666664, "is_reserved": 0, "fusion_lat": 0.0, "bike_id": "d2d72e7410a9f71a42b08a74cd6450d2", "type": "electric_scooter", "is_disabled": 0, "fusion_lon": 0.0}, {"rental_uris": {"android": "https://dc.lft.to/lastmile_qr_scan", "ios": "https://dc.lft.to/lastmile_qr_scan"}, "lon": -77.18740533333333, "name": "18d503aa6b02ec6d181e4e2b053c47ec", "lat": 38.893519, "is_reserved": 0, "fusion_lat": 0.0, "bike_id": "18d503aa6b02ec6d181e4e2b053c47ec", "type": "electric_bike", "is_disabled": 0, "fusion_lon": 0.0}, {"rental_uris": {"android": "https://dc.lft.to/lastmile_qr_scan", "ios": "https://dc.lft.to/lastmile_qr_scan"}, "lon": -77.02142566666667, "name": "c640f717e9e1e635280f97c861ace19d", "lat": 38.948109, "is_reserved": 0, "fusion_lat": 0.0, "bike_id": "c640f717e9e1e635280f97c861ace19d", "type": "electric_bike", "is_disabled": 0, "fusion_lon": 0.0}, {"rental_uris": {"android": "https://dc.lft.to/lastmile_qr_scan", "ios": "https://dc.lft.to/lastmile_qr_scan"}, "lon": -77.02800083333334, "name": "e06cdfd8d00f99f939de8df03851d69a", "lat": 38.91714666666667, "is_reserved": 0, "fusion_lat": 0.0, "bike_id": "e06cdfd8d00f99f939de8df03851d69a", "type": "electric_scooter", "is_disabled": 0, "fusion_lon": 0.0}, {"rental_uris": {"android": "https://dc.lft.to/lastmile_qr_scan", "ios": "https://dc.lft.to/lastmile_qr_scan"}, "lon": -77.0739355, "name": "fb55f74cfb8b129d0fe70661c099d4f4", "lat": 38.9617265, "is_reserved": 0, "fusion_lat": 0.0, "bike_id": "fb55f74cfb8b129d0fe70661c099d4f4", "type": "electric_bike", "is_disabled": 0, "fusion_lon": 0.0}, {"rental_uris": {"android": "https://dc.lft.to/lastmile_qr_scan", "ios": "https://dc.lft.to/lastmile_qr_scan"}, "lon": -77.04338416666667, "name": "abe81c77674865f202a36563ea29e0a1", "lat": 38.897268333333336, "is_reserved": 0, "fusion_lat": 0.0, "bike_id": "abe81c77674865f202a36563ea29e0a1", "type": "electric_scooter", "is_disabled": 0, "fusion_lon": 0.0}, {"rental_uris": {"android": "https://dc.lft.to/lastmile_qr_scan", "ios": "https://dc.lft.to/lastmile_qr_scan"}, "lon": -77.01355333333333, "name": "b09879bc1820a562a5417f4ad87d13e3", "lat": 38.916282833333334, "is_reserved": 0, "fusion_lat": 0.0, "bike_id": "b09879bc1820a562a5417f4ad87d13e3", "type": "electric_scooter", "is_disabled": 0, "fusion_lon": 0.0}, {"rental_uris": {"android": "https://dc.lft.to/lastmile_qr_scan", "ios": "https://dc.lft.to/lastmile_qr_scan"}, "lon": -77.01895166666667, "name": "3f7eda994b2fcba23b320bfeca6ad23d", "lat": 38.9050325, "is_reserved": 0, "fusion_lat": 0.0, "bike_id": "3f7eda994b2fcba23b320bfeca6ad23d", "type": "electric_bike", "is_disabled": 0, "fusion_lon": 0.0}, {"rental_uris": {"android": "https://dc.lft.to/lastmile_qr_scan", "ios": "https://dc.lft.to/lastmile_qr_scan"}, "lon": -77.0312, "name": "d15a0c7df5ea127f431e556e2a490e43", "lat": 38.91698216666666, "is_reserved": 0, "fusion_lat": 0.0, "bike_id": "d15a0c7df5ea127f431e556e2a490e43", "type": "electric_scooter", "is_disabled": 0, "fusion_lon": 0.0}, {"rental_uris": {"android": "https://dc.lft.to/lastmile_qr_scan", "ios": "https://dc.lft.to/lastmile_qr_scan"}, "lon": -77.04348466666667, "name": "e5aaab059f29c093c0cd53777c86b100", "lat": 38.90429866666667, "is_reserved": 0, "fusion_lat": 0.0, "bike_id": "e5aaab059f29c093c0cd53777c86b100", "type": "electric_scooter", "is_disabled": 0, "fusion_lon": 0.0}, {"rental_uris": {"android": "https://dc.lft.to/lastmile_qr_scan", "ios": "https://dc.lft.to/lastmile_qr_scan"}, "lon": -77.04515116666667, "name": "40c5bc860eadb8949ff7c57cd7f0e6a7", "lat": 38.89225, "is_reserved": 0, "fusion_lat": 0.0, "bike_id": "40c5bc860eadb8949ff7c57cd7f0e6a7", "type": "electric_scooter", "is_disabled": 0, "fusion_lon": 0.0}, {"rental_uris": {"android": "https://dc.lft.to/lastmile_qr_scan", "ios": "https://dc.lft.to/lastmile_qr_scan"}, "lon": -77.02076533333333, "name": "656396be105a70ccb07a73f526d13732", "lat": 38.9272015, "is_reserved": 0, "fusion_lat": 0.0, "bike_id": "656396be105a70ccb07a73f526d13732", "type": "electric_scooter", "is_disabled": 0, "fusion_lon": 0.0}, {"rental_uris": {"android": "https://dc.lft.to/lastmile_qr_scan", "ios": "https://dc.lft.to/lastmile_qr_scan"}, "lon": -77.04356233333333, "name": "5c54cbd6e3bedbcffe31f6b20938f2f7", "lat": 38.9072235, "is_reserved": 0, "fusion_lat": 0.0, "bike_id": "5c54cbd6e3bedbcffe31f6b20938f2f7", "type": "electric_scooter", "is_disabled": 0, "fusion_lon": 0.0}, {"rental_uris": {"android": "https://dc.lft.to/lastmile_qr_scan", "ios": "https://dc.lft.to/lastmile_qr_scan"}, "lon": -77.03858983333333, "name": "d08541e90b9c843bf430876f9553f0ca", "lat": 38.908633, "is_reserved": 0, "fusion_lat": 0.0, "bike_id": "d08541e90b9c843bf430876f9553f0ca", "type": "electric_scooter", "is_disabled": 0, "fusion_lon": 0.0}, {"rental_uris": {"android": "https://dc.lft.to/lastmile_qr_scan", "ios": "https://dc.lft.to/lastmile_qr_scan"}, "lon": -76.98194366666667, "name": "bdac0fd525a3c0e70b34241857fed71b", "lat": 38.8660095, "is_reserved": 0, "fusion_lat": 0.0, "bike_id": "bdac0fd525a3c0e70b34241857fed71b", "type": "electric_scooter", "is_disabled": 0, "fusion_lon": 0.0}, {"rental_uris": {"android": "https://dc.lft.to/lastmile_qr_scan", "ios": "https://dc.lft.to/lastmile_qr_scan"}, "lon": -77.03338616666667, "name": "8d73550ad682f667f9a5467447599ecd", "lat": 38.9156485, "is_reserved": 0, "fusion_lat": 0.0, "bike_id": "8d73550ad682f667f9a5467447599ecd", "type": "electric_scooter", "is_disabled": 0, "fusion_lon": 0.0}, {"rental_uris": {"android": "https://dc.lft.to/lastmile_qr_scan", "ios": "https://dc.lft.to/lastmile_qr_scan"}, "lon": -77.04023916666667, "name": "e42452f9fd72bd94c8d46d26e1aa85f8", "lat": 38.923842666666665, "is_reserved": 0, "fusion_lat": 0.0, "bike_id": "e42452f9fd72bd94c8d46d26e1aa85f8", "type": "electric_bike", "is_disabled": 0, "fusion_lon": 0.0}, {"rental_uris": {"android": "https://dc.lft.to/lastmile_qr_scan", "ios": "https://dc.lft.to/lastmile_qr_scan"}, "lon": -77.02697283333333, "name": "d2f1280c4b756ed8d92538e738d75777", "lat": 38.94979433333334, "is_reserved": 0, "fusion_lat": 0.0, "bike_id": "d2f1280c4b756ed8d92538e738d75777", "type": "electric_scooter", "is_disabled": 0, "fusion_lon": 0.0}, {"rental_uris": {"android": "https://dc.lft.to/lastmile_qr_scan", "ios": "https://dc.lft.to/lastmile_qr_scan"}, "lon": -76.99545616666667, "name": "5e2dee88aeaf47ed144fd66eab7f29b1", "lat": 38.84340366666667, "is_reserved": 0, "fusion_lat": 0.0, "bike_id": "5e2dee88aeaf47ed144fd66eab7f29b1", "type": "electric_scooter", "is_disabled": 0, "fusion_lon": 0.0}, {"rental_uris": {"android": "https://dc.lft.to/lastmile_qr_scan", "ios": "https://dc.lft.to/lastmile_qr_scan"}, "lon": -77.00198516666667, "name": "4cc42dca8ccc319347100b9a31327000", "lat": 38.90788383333334, "is_reserved": 0, "fusion_lat": 0.0, "bike_id": "4cc42dca8ccc319347100b9a31327000", "type": "electric_scooter", "is_disabled": 0, "fusion_lon": 0.0}, {"rental_uris": {"android": "https://dc.lft.to/lastmile_qr_scan", "ios": "https://dc.lft.to/lastmile_qr_scan"}, "lon": -77.01778266666666, "name": "222b9e2cc78a40b447c5f6c56c60b356", "lat": 38.887139, "is_reserved": 0, "fusion_lat": 0.0, "bike_id": "222b9e2cc78a40b447c5f6c56c60b356", "type": "electric_scooter", "is_disabled": 0, "fusion_lon": 0.0}, {"rental_uris": {"android": "https://dc.lft.to/lastmile_qr_scan", "ios": "https://dc.lft.to/lastmile_qr_scan"}, "lon": -77.0239055, "name": "eefc4dbf6bb4bf3301a1f6df832ca911", "lat": 38.89214716666667, "is_reserved": 0, "fusion_lat": 0.0, "bike_id": "eefc4dbf6bb4bf3301a1f6df832ca911", "type": "electric_scooter", "is_disabled": 0, "fusion_lon": 0.0}, {"rental_uris": {"android": "https://dc.lft.to/lastmile_qr_scan", "ios": "https://dc.lft.to/lastmile_qr_scan"}, "lon": -77.0422415, "name": "640b9d6547e14abea0d8f744658ca1c8", "lat": 38.90249333333333, "is_reserved": 0, "fusion_lat": 0.0, "bike_id": "640b9d6547e14abea0d8f744658ca1c8", "type": "electric_scooter", "is_disabled": 0, "fusion_lon": 0.0}, {"rental_uris": {"android": "https://dc.lft.to/lastmile_qr_scan", "ios": "https://dc.lft.to/lastmile_qr_scan"}, "lon": -77.03873883333333, "name": "591f55ea4c0f4ed34f72adc105410003", "lat": 38.990593, "is_reserved": 0, "fusion_lat": 0.0, "bike_id": "591f55ea4c0f4ed34f72adc105410003", "type": "electric_bike", "is_disabled": 0, "fusion_lon": 0.0}, {"rental_uris": {"android": "https://dc.lft.to/lastmile_qr_scan", "ios": "https://dc.lft.to/lastmile_qr_scan"}, "lon": -77.04197516666666, "name": "09200a79b2be481acc65b782d614da6d", "lat": 38.89222933333333, "is_reserved": 0, "fusion_lat": 0.0, "bike_id": "09200a79b2be481acc65b782d614da6d", "type": "electric_scooter", "is_disabled": 0, "fusion_lon": 0.0}, {"rental_uris": {"android": "https://dc.lft.to/lastmile_qr_scan", "ios": "https://dc.lft.to/lastmile_qr_scan"}, "lon": -76.9655665, "name": "54b1f39b8bd78415af9da2dda0060cad", "lat": 38.91847283333333, "is_reserved": 0, "fusion_lat": 0.0, "bike_id": "54b1f39b8bd78415af9da2dda0060cad", "type": "electric_scooter", "is_disabled": 0, "fusion_lon": 0.0}, {"rental_uris": {"android": "https://dc.lft.to/lastmile_qr_scan", "ios": "https://dc.lft.to/lastmile_qr_scan"},