{"data": {"bikes": [{"bike_id": "b1b0c5080f2036fb4457d868756d570c", "fusion_lon": 0.0, "name": "b1b0c5080f2036fb4457d868756d570c", "lat": 38.87658, "is_disabled": 0, "is_reserved": 0, "lon": -77.0091935, "type": "electric_scooter", "fusion_lat": 0.0, "rental_uris": {"android": "https://dc.lft.to/lastmile_qr_scan", "ios": "https://dc.lft.to/lastmile_qr_scan"}}, {"bike_id": "82db455afb8ec4c306eb62047c9b6964", "fusion_lon": 0.0, "name": "82db455afb8ec4c306eb62047c9b6964", "lat": 38.895874166666665, "is_disabled": 0, "is_reserved": 0, "lon": -77.02302966666667, "type": "electric_scooter", "fusion_lat": 0.0, "rental_uris": {"android": "https://dc.lft.to/lastmile_qr_scan", "ios": "https://dc.lft.to/lastmile_qr_scan"}}, {"bike_id": "82a7cfc4b035f1a03354fcece30c8399", "fusion_lon": 0.0, "name": "82a7cfc4b035f1a03354fcece30c8399", "lat": 38.923163, "is_disabled": 0, "is_reserved": 0, "lon": -77.03916533333333, "type": "electric_scooter", "fusion_lat": 0.0, "rental_uris": {"android": "https://dc.lft.to/lastmile_qr_scan", "ios": "https://dc.lft.to/lastmile_qr_scan"}}, {"bike_id": "1fb1df740b598a2df552b90a22b8346a", "fusion_lon": 0.0, "name": "1fb1df740b598a2df552b90a22b8346a", "lat": 38.917879666666664, "is_disabled": 0, "is_reserved": 0, "lon": -77.02219766666667, "type": "electric_scooter", "fusion_lat": 0.0, "rental_uris": {"android": "https://dc.lft.to/lastmile_qr_scan", "ios": "https://dc.lft.to/lastmile_qr_scan"}}, {"bike_id": "ab391a5db2bac9a9281c4013b2db249f", "fusion_lon": 0.0, "name": "ab391a5db2bac9a9281c4013b2db249f", "lat": 38.95881966666666, "is_disabled": 0, "is_reserved": 0, "lon": -77.01171183333334, "type": "electric_scooter", "fusion_lat": 0.0, "rental_uris": {"android": "https://dc.lft.to/lastmile_qr_scan", "ios": "https://dc.lft.to/lastmile_qr_scan"}}, {"bike_id": "c52d12a697308943ba7f086ac752dae4", "fusion_lon": 0.0, "name": "c52d12a697308943ba7f086ac752dae4", "lat": 38.91940116666667, "is_disabled": 0, "is_reserved": 0, "lon": -77.0449435, "type": "electric_scooter", "fusion_lat": 0.0, "rental_uris": {"android": "https://dc.lft.to/lastmile_qr_scan", "ios": "https://dc.lft.to/lastmile_qr_scan"}}, {"bike_id": "a438f261388c15a7cfa896ba1e924a9c", "fusion_lon": 0.0, "name": "a438f261388c15a7cfa896ba1e924a9c", "lat": 38.9002165, "is_disabled": 0, "is_reserved": 0, "lon": -77.043887, "type": "electric_scooter", "fusion_lat": 0.0, "rental_uris": {"android": "https://dc.lft.to/lastmile_qr_scan", "ios": "https://dc.lft.to/lastmile_qr_scan"}}, {"bike_id": "988eb056eaaaabe80ab5fb0b11909765", "fusion_lon": 0.0, "name": "988eb056eaaaabe80ab5fb0b11909765", "lat": 38.89918516666667, "is_disabled": 0, "is_reserved": 0, "lon": -77.033041, "type": "electric_scooter", "fusion_lat": 0.0, "rental_uris": {"android": "https://dc.lft.to/lastmile_qr_scan", "ios": "https://dc.lft.to/lastmile_qr_scan"}}, {"bike_id": "a840b1d99869789e45b8ae62d6bcd66b", "fusion_lon": 0.0, "name": "a840b1d99869789e45b8ae62d6bcd66b", "lat": 38.9575545, "is_disabled": 0, "is_reserved": 0, "lon": -76.9808965, "type": "electric_bike", "fusion_lat": 0.0, "rental_uris": {"android": "https://dc.lft.to/lastmile_qr_scan", "ios": "https://dc.lft.to/lastmile_qr_scan"}}, {"bike_id": "35012e45cd921396f24c8913057cf873", "fusion_lon": 0.0, "name": "35012e45cd921396f24c8913057cf873", "lat": 38.9002525, "is_disabled": 0, "is_reserved": 0, "lon": -77.04672716666667, "type": "electric_scooter", "fusion_lat": 0.0, "rental_uris": {"android": "https://dc.lft.to/lastmile_qr_scan", "ios": "https://dc.lft.to/lastmile_qr_scan"}}, {"bike_id": "4634bf77f6728185752e834aa8b48205", "fusion_lon": 0.0, "name": "4634bf77f6728185752e834aa8b48205", "lat": 38.898413166666664, "is_disabled": 0, "is_reserved": 0, "lon": -77.03278166666666, "type": "electric_scooter", "fusion_lat": 0.0, "rental_uris": {"android": "https://dc.lft.to/lastmile_qr_scan", "ios": "https://dc.lft.to/lastmile_qr_scan"}}, {"bike_id": "c5e1f0a708c44fcf47f0c0f1f0f9ed51", "fusion_lon": 0.0, "name": "c5e1f0a708c44fcf47f0c0f1f0f9ed51", "lat": 38.95972233333333, "is_disabled": 0, "is_reserved": 0, "lon": -76.981552, "type": "electric_bike", "fusion_lat": 0.0, "rental_uris": {"android": "https://dc.lft.to/lastmile_qr_scan", "ios": "https://dc.lft.to/lastmile_qr_scan"}}, {"bike_id": "6b8fef99214142f242fd6218cb056030", "fusion_lon": 0.0, "name": "6b8fef99214142f242fd6218cb056030", "lat": 38.92084783333333, "is_disabled": 0, "is_reserved": 0, "lon": -77.027238, "type": "electric_scooter", "fusion_lat": 0.0, "rental_uris": {"android": "https://dc.lft.to/lastmile_qr_scan", "ios": "https://dc.lft.to/lastmile_qr_scan"}}, {"bike_id": "90a0489365a5323cfb8133be15b6e9df", "fusion_lon": 0.0, "name": "90a0489365a5323cfb8133be15b6e9df", "lat": 38.913319333333334, "is_disabled": 0, "is_reserved": 0, "lon": -77.0487265, "type": "electric_scooter", "fusion_lat": 0.0, "rental_uris": {"android": "https://dc.lft.to/lastmile_qr_scan", "ios": "https://dc.lft.to/lastmile_qr_scan"}}, {"bike_id": "bef219db61892dccaf45d0757d6178c5", "fusion_lon": 0.0, "name": "bef219db61892dccaf45d0757d6178c5", "lat": 38.932043, "is_disabled": 0, "is_reserved": 0, "lon": -76.982807, "type": "electric_scooter", "fusion_lat": 0.0, "rental_uris": {"android": "https://dc.lft.to/lastmile_qr_scan", "ios": "https://dc.lft.to/lastmile_qr_scan"}}, {"bike_id": "f95e0494f69168c4d45985fde639044c", "fusion_lon": 0.0, "name": "f95e0494f69168c4d45985fde639044c", "lat": 38.924197166666666, "is_disabled": 0, "is_reserved": 0, "lon": -77.01941416666666, "type": "electric_scooter", "fusion_lat": 0.0, "rental_uris": {"android": "https://dc.lft.to/lastmile_qr_scan", "ios": "https://dc.lft.to/lastmile_qr_scan"}}, {"bike_id": "253975934f60a050e4ae045598868540", "fusion_lon": 0.0, "name": "253975934f60a050e4ae045598868540", "lat": 38.926085, "is_disabled": 0, "is_reserved": 0, "lon": -77.0571015, "type": "electric_scooter", "fusion_lat": 0.0, "rental_uris": {"android": "https://dc.lft.to/lastmile_qr_scan", "ios": "https://dc.lft.to/lastmile_qr_scan"}}, {"bike_id": "390304877fa9f8a17a97ec8131f84d95", "fusion_lon": 0.0, "name": "390304877fa9f8a17a97ec8131f84d95", "lat": 38.915533833333335, "is_disabled": 0, "is_reserved": 0, "lon": -77.0377295, "type": "electric_scooter", "fusion_lat": 0.0, "rental_uris": {"android": "https://dc.lft.to/lastmile_qr_scan", "ios": "https://dc.lft.to/lastmile_qr_scan"}}, {"bike_id": "8617b963522039f16a7ae2fe9567239e", "fusion_lon": 0.0, "name": "8617b963522039f16a7ae2fe9567239e", "lat": 38.92362633333333, "is_disabled": 0, "is_reserved": 0, "lon": -77.05029033333334, "type": "electric_scooter", "fusion_lat": 0.0, "rental_uris": {"android": "https://dc.lft.to/lastmile_qr_scan", "ios": "https://dc.lft.to/lastmile_qr_scan"}}, {"bike_id": "630fa247cbdfcb8a597766101f305788", "fusion_lon": 0.0, "name": "630fa247cbdfcb8a597766101f305788", "lat": 38.90882766666667, "is_disabled": 0, "is_reserved": 0, "lon": -77.06430133333333, "type": "electric_scooter", "fusion_lat": 0.0, "rental_uris": {"android": "https://dc.lft.to/lastmile_qr_scan", "ios": "https://dc.lft.to/lastmile_qr_scan"}}, {"bike_id": "8fa885c99336726e691f12b394142d3c", "fusion_lon": 0.0, "name": "8fa885c99336726e691f12b394142d3c", "lat": 38.88630366666667, "is_disabled": 0, "is_reserved": 0, "lon": -77.01557416666667, "type": "electric_scooter", "fusion_lat": 0.0, "rental_uris": {"android": "https://dc.lft.to/lastmile_qr_scan", "ios": "https://dc.lft.to/lastmile_qr_scan"}}, {"bike_id": "fc7abb1bc45ba669626a55651be2ed57", "fusion_lon": 0.0, "name": "fc7abb1bc45ba669626a55651be2ed57", "lat": 38.89732566666667, "is_disabled": 0, "is_reserved": 0, "lon": -77.04527, "type": "electric_scooter", "fusion_lat": 0.0, "rental_uris": {"android": "https://dc.lft.to/lastmile_qr_scan", "ios": "https://dc.lft.to/lastmile_qr_scan"}}, {"bike_id": "7b9ca76043ecd18d559b937a5aeabd78", "fusion_lon": 0.0, "name": "7b9ca76043ecd18d559b937a5aeabd78", "lat": 38.89502533333334, "is_disabled": 0, "is_reserved": 0, "lon": -77.002132, "type": "electric_scooter", "fusion_lat": 0.0, "rental_uris": {"android": "https://dc.lft.to/lastmile_qr_scan", "ios": "https://dc.lft.to/lastmile_qr_scan"}}, {"bike_id": "d8238587e924e6b9433fae6bded4d1d5", "fusion_lon": 0.0, "name": "d8238587e924e6b9433fae6bded4d1d5", "lat": 38.91262866666667, "is_disabled": 0, "is_reserved": 0, "lon": -77.0143445, "type": "electric_scooter", "fusion_lat": 0.0, "rental_uris": {"android": "https://dc.lft.to/lastmile_qr_scan", "ios": "https://dc.lft.to/lastmile_qr_scan"}}, {"bike_id": "f6f4b7da634ab8400ef548fea1ad8784", "fusion_lon": 0.0, "name": "f6f4b7da634ab8400ef548fea1ad8784", "lat": 38.91267416666667, "is_disabled": 0, "is_reserved": 0, "lon": -77.0383035, "type": "electric_scooter", "fusion_lat": 0.0, "rental_uris": {"android": "https://dc.lft.to/lastmile_qr_scan", "ios": "https://dc.lft.to/lastmile_qr_scan"}}, {"bike_id": "dfc6f5c00efdde8450f22795331488d0", "fusion_lon": 0.0, "name": "dfc6f5c00efdde8450f22795331488d0", "lat": 38.935593, "is_disabled": 0, "is_reserved": 0, "lon": -77.07462883333334, "type": "electric_scooter", "fusion_lat": 0.0, "rental_uris": {"android": "https://dc.lft.to/lastmile_qr_scan", "ios": "https://dc.lft.to/lastmile_qr_scan"}}, {"bike_id": "34c54185f19e7b11a2665519928abdef", "fusion_lon": 0.0, "name": "34c54185f19e7b11a2665519928abdef", "lat": 38.8766, "is_disabled": 0, "is_reserved": 0, "lon": -77.00516083333333, "type": "electric_scooter", "fusion_lat": 0.0, "rental_uris": {"android": "https://dc.lft.to/lastmile_qr_scan", "ios": "https://dc.lft.to/lastmile_qr_scan"}}, {"bike_id": "3ad73f8e8d52d4d5698711bfce368794", "fusion_lon": 0.0, "name": "3ad73f8e8d52d4d5698711bfce368794", "lat": 38.8316105, "is_disabled": 0, "is_reserved": 0, "lon": -76.99544833333333, "type": "electric_bike", "fusion_lat": 0.0, "rental_uris": {"android": "https://dc.lft.to/lastmile_qr_scan", "ios": "https://dc.lft.to/lastmile_qr_scan"}}, {"bike_id": "7bc63f64bec335bcd6769bf29c5cf3d8", "fusion_lon": 0.0, "name": "7bc63f64bec335bcd6769bf29c5cf3d8", "lat": 38.914458, "is_disabled": 0, "is_reserved": 0, "lon": -76.98821233333334, "type": "electric_scooter", "fusion_lat": 0.0, "rental_uris": {"android": "https://dc.lft.to/lastmile_qr_scan", "ios": "https://dc.lft.to/lastmile_qr_scan"}}, {"bike_id": "56db047208181aa2c96001311faab9ec", "fusion_lon": 0.0, "name": "56db047208181aa2c96001311faab9ec", "lat": 38.922603333333335, "is_disabled": 0, "is_reserved": 0, "lon": -77.00914066666667, "type": "electric_scooter", "fusion_lat": 0.0, "rental_uris": {"android": "https://dc.lft.to/lastmile_qr_scan", "ios": "https://dc.lft.to/lastmile_qr_scan"}}, {"bike_id": "773af8a9b95a4ac31b1cad7aa5500af5", "fusion_lon": 0.0, "name": "773af8a9b95a4ac31b1cad7aa5500af5", "lat": 38.89226033333333, "is_disabled": 0, "is_reserved": 0, "lon": -77.03144583333334, "type": "electric_scooter", "fusion_lat": 0.0, "rental_uris": {"android": "https://dc.lft.to/lastmile_qr_scan", "ios": "https://dc.lft.to/lastmile_qr_scan"}}, {"bike_id": "87725c54d5a914e4be1f4afa13b7bc3b", "fusion_lon": 0.0, "name": "87725c54d5a914e4be1f4afa13b7bc3b", "lat": 38.90550066666667, "is_disabled": 0, "is_reserved": 0, "lon": -77.00599566666666, "type": "electric_scooter", "fusion_lat": 0.0, "rental_uris": {"android": "https://dc.lft.to/lastmile_qr_scan", "ios": "https://dc.lft.to/lastmile_qr_scan"}}, {"bike_id": "d000c1bf3c5953266a20d1cd118c1484", "fusion_lon": 0.0, "name": "d000c1bf3c5953266a20d1cd118c1484", "lat": 38.938600666666666, "is_disabled": 0, "is_reserved": 0, "lon": -77.025551, "type": "electric_scooter", "fusion_lat": 0.0, "rental_uris": {"android": "https://dc.lft.to/lastmile_qr_scan", "ios": "https://dc.lft.to/lastmile_qr_scan"}}, {"bike_id": "0f02cb08478496e5f7ce2d8084b7ab93", "fusion_lon": 0.0, "name": "0f02cb08478496e5f7ce2d8084b7ab93", "lat": 38.900339, "is_disabled": 0, "is_reserved": 0, "lon": -76.97222366666666, "type": "electric_bike", "fusion_lat": 0.0, "rental_uris": {"android": "https://dc.lft.to/lastmile_qr_scan", "ios": "https://dc.lft.to/lastmile_qr_scan"}}, {"bike_id": "1239ccb13f846056792cb00d2daae022", "fusion_lon": 0.0, "name": "1239ccb13f846056792cb00d2daae022", "lat": 38.87726216666667, "is_disabled": 0, "is_reserved": 0, "lon": -77.00416116666666, "type": "electric_scooter", "fusion_lat": 0.0, "rental_uris": {"android": "https://dc.lft.to/lastmile_qr_scan", "ios": "https://dc.lft.to/lastmile_qr_scan"}}, {"bike_id": "ef81eda2add6973aa6dd43941b78ef72", "fusion_lon": 0.0, "name": "ef81eda2add6973aa6dd43941b78ef72", "lat": 38.91395116666666, "is_disabled": 0, "is_reserved": 0, "lon": -77.04172083333333, "type": "electric_scooter", "fusion_lat": 0.0, "rental_uris": {"android": "https://dc.lft.to/lastmile_qr_scan", "ios": "https://dc.lft.to/lastmile_qr_scan"}}, {"bike_id": "b08eb2660d7ddddf0c1f449bd68ba05e", "fusion_lon": 0.0, "name": "b08eb2660d7ddddf0c1f449bd68ba05e", "lat": 38.90572133333333, "is_disabled": 0, "is_reserved": 0, "lon": -77.04360966666667, "type": "electric_scooter", "fusion_lat": 0.0, "rental_uris": {"android": "https://dc.lft.to/lastmile_qr_scan", "ios": "https://dc.lft.to/lastmile_qr_scan"}}, {"bike_id": "7dfe3ff31ce572a8b627e5c45671cd9f", "fusion_lon": 0.0, "name": "7dfe3ff31ce572a8b627e5c45671cd9f", "lat": 38.9016125, "is_disabled": 0, "is_reserved": 0, "lon": -77.049971, "type": "electric_scooter", "fusion_lat": 0.0, "rental_uris": {"android": "https://dc.lft.to/lastmile_qr_scan", "ios": "https://dc.lft.to/lastmile_qr_scan"}}, {"bike_id": "124c96d329eb7a7cc7abd9df50d3fcc4", "fusion_lon": 0.0, "name": "124c96d329eb7a7cc7abd9df50d3fcc4", "lat": 38.917039333333335, "is_disabled": 0, "is_reserved": 0, "lon": -77.03153816666666, "type": "electric_scooter", "fusion_lat": 0.0, "rental_uris": {"android": "https://dc.lft.to/lastmile_qr_scan", "ios": "https://dc.lft.to/lastmile_qr_scan"}}, {"bike_id": "d906880ae67dd930e9da4b83c1db1802", "fusion_lon": 0.0, "name": "d906880ae67dd930e9da4b83c1db1802", "lat": 38.88079316666666, "is_disabled": 0, "is_reserved": 0, "lon": -76.98515633333334, "type": "electric_scooter", "fusion_lat": 0.0, "rental_uris": {"android": "https://dc.lft.to/lastmile_qr_scan", "ios": "https://dc.lft.to/lastmile_qr_scan"}}, {"bike_id": "58adf76f6b51c08aa02bb27c556b379e", "fusion_lon": 0.0, "name": "58adf76f6b51c08aa02bb27c556b379e", "lat": 38.92047733333333, "is_disabled": 0, "is_reserved": 0, "lon": -77.00208416666666, "type": "electric_scooter", "fusion_lat": 0.0, "rental_uris": {"android": "https://dc.lft.to/lastmile_qr_scan", "ios": "https://dc.lft.to/lastmile_qr_scan"}}, {"bike_id": "6dd6a201618207f710f2070e97f21ee1", "fusion_lon": 0.0, "name": "6dd6a201618207f710f2070e97f21ee1", "lat": 38.85512116666666, "is_disabled": 0, "is_reserved": 0, "lon": -77.105387, "type": "electric_bike", "fusion_lat": 0.0, "rental_uris": {"android": "https://dc.lft.to/lastmile_qr_scan", "ios": "https://dc.lft.to/lastmile_qr_scan"}}, {"bike_id": "afb18d67fe9b0751592d202fa7c729da", "fusion_lon": 0.0, "name": "afb18d67fe9b0751592d202fa7c729da", "lat": 38.89223466666667, "is_disabled": 0, "is_reserved": 0, "lon": -77.0480365, "type": "electric_scooter", "fusion_lat": 0.0, "rental_uris": {"android": "https://dc.lft.to/lastmile_qr_scan", "ios": "https://dc.lft.to/lastmile_qr_scan"}}, {"bike_id": "3d61fcc1ee67488ae2975f64a3ecd011", "fusion_lon": 0.0, "name": "3d61fcc1ee67488ae2975f64a3ecd011", "lat": 38.88352533333333, "is_disabled": 0, "is_reserved": 0, "lon": -76.995086, "type": "electric_scooter", "fusion_lat": 0.0, "rental_uris": {"android": "https://dc.lft.to/lastmile_qr_scan", "ios": "https://dc.lft.to/lastmile_qr_scan"}}, {"bike_id": "f515480e9937fef8f20830e4d34db55e", "fusion_lon": 0.0, "name": "f515480e9937fef8f20830e4d34db55e", "lat": 38.9018615, "is_disabled": 0, "is_reserved": 0, "lon": -76.92898483333333, "type": "electric_scooter", "fusion_lat": 0.0, "rental_uris": {"android": "https://dc.lft.to/lastmile_qr_scan", "ios": "https://dc.lft.to/lastmile_qr_scan"}}, {"bike_id": "898f2e22dfcdfd3f5e0f6c3ad3c6c105", "fusion_lon": 0.0, "name": "898f2e22dfcdfd3f5e0f6c3ad3c6c105", "lat": 38.89704033333334, "is_disabled": 0, "is_reserved": 0, "lon": -77.02735033333333, "type": "electric_scooter", "fusion_lat": 0.0, "rental_uris": {"android": "https://dc.lft.to/lastmile_qr_scan", "ios": "https://dc.lft.to/lastmile_qr_scan"}}, {"bike_id": "304652d216c50e31682fbe8d8bbdeb03", "fusion_lon": 0.0, "name": "304652d216c50e31682fbe8d8bbdeb03", "lat": 38.92834, "is_disabled": 0, "is_reserved": 0, "lon": -77.054379, "type": "electric_scooter", "fusion_lat": 0.0, "rental_uris": {"android": "https://dc.lft.to/lastmile_qr_scan", "ios": "https://dc.lft.to/lastmile_qr_scan"}}, {"bike_id": "4d52617ccbbcebe617c0de61472d391e", "fusion_lon": 0.0, "name": "4d52617ccbbcebe617c0de61472d391e", "lat": 38.886316666666666, "is_disabled": 0, "is_reserved": 0, "lon": -76.92587616666667, "type": "electric_scooter", "fusion_lat": 0.0, "rental_uris": {"android": "https://dc.lft.to/lastmile_qr_scan", "ios": "https://dc.lft.to/lastmile_qr_scan"}}, {"bike_id": "064e615739db107ef85db8dcf42c7cb1", "fusion_lon": 0.0, "name": "064e615739db107ef85db8dcf42c7cb1", "lat": 38.9140035, "is_disabled": 0, "is_reserved": 0, "lon": -77.02289316666666, "type": "electric_scooter", "fusion_lat": 0.0, "rental_uris": {"android": "https://dc.lft.to/lastmile_qr_scan", "ios": "https://dc.lft.to/lastmile_qr_scan"}}, {"bike_id": "107d68748546db85cc310a5110a79fa6", "fusion_lon": 0.0, "name": "107d68748546db85cc310a5110a79fa6", "lat": 38.926427833333335, "is_disabled": 0, "is_reserved": 0, "lon": -77.0332085, "type": "electric_scooter", "fusion_lat": 0.0, "rental_uris": {"android": "https://dc.lft.to/lastmile_qr_scan", "ios": "https://dc.lft.to/lastmile_qr_scan"}}, {"bike_id": "1b191441c47e127e70b4ca99699104ae", "fusion_lon": 0.0, "name": "1b191441c47e127e70b4ca99699104ae", "lat": 38.891166, "is_disabled": 0, "is_reserved": 0, "lon": -76.93850183333333, "type": "electric_scooter", "fusion_lat": 0.0, "rental_uris": {"android": "https://dc.lft.to/lastmile_qr_scan", "ios": "https://dc.lft.to/lastmile_qr_scan"}}, {"bike_id": "f09ee29b658bf20932ae11484259c173", "fusion_lon": 0.0, "name": "f09ee29b658bf20932ae11484259c173", "lat": 38.856569666666665, "is_disabled": 0, "is_reserved": 0, "lon": -76.99671616666667, "type": "electric_scooter", "fusion_lat": 0.0, "rental_uris": {"android": "https://dc.lft.to/lastmile_qr_scan", "ios": "https://dc.lft.to/lastmile_qr_scan"}}, {"bike_id": "b1dd8ca14cec0a212569b039883165df", "fusion_lon": 0.0, "name": "b1dd8ca14cec0a212569b039883165df", "lat": 38.88713333333333, "is_disabled": 0, "is_reserved": 0, "lon": -77.02202916666667, "type": "electric_scooter", "fusion_lat": 0.0, "rental_uris": {"android": "https://dc.lft.to/lastmile_qr_scan", "ios": "https://dc.lft.to/lastmile_qr_scan"}}, {"bike_id": "1e9fce7ae8e273ffa687845be52d5724", "fusion_lon": 0.0, "name": "1e9fce7ae8e273ffa687845be52d5724", "lat": 38.90206166666667, "is_disabled": 0, "is_reserved": 0, "lon": -77.0223355, "type": "electric_scooter", "fusion_lat": 0.0, "rental_uris": {"android": "https://dc.lft.to/lastmile_qr_scan", "ios": "https://dc.lft.to/lastmile_qr_scan"}}, {"bike_id": "4de951ea6afd2bd5d6d2faad48d84d0c", "fusion_lon": 0.0, "name": "4de951ea6afd2bd5d6d2faad48d84d0c", "lat": 38.89822616666667, "is_disabled": 0, "is_reserved": 0, "lon": -77.01204516666667, "type": "electric_scooter", "fusion_lat": 0.0, "rental_uris": {"android": "https://dc.lft.to/lastmile_qr_scan", "ios": "https://dc.lft.to/lastmile_qr_scan"}}, {"bike_id": "2ed228ef81c90c66847f86a0a1c4c22c", "fusion_lon": 0.0, "name": "2ed228ef81c90c66847f86a0a1c4c22c", "lat": 38.9182315, "is_disabled": 0, "is_reserved": 0, "lon": -77.01209683333333, "type": "electric_scooter", "fusion_lat": 0.0, "rental_uris": {"android": "https://dc.lft.to/lastmile_qr_scan", "ios": "https://dc.lft.to/lastmile_qr_scan"}}, {"bike_id": "cef6f964ebcc16ba70311896fb821447", "fusion_lon": 0.0, "name": "cef6f964ebcc16ba70311896fb821447", "lat": 38.89735366666667, "is_disabled": 0, "is_reserved": 0, "lon": -76.92044583333333, "type": "electric_bike", "fusion_lat": 0.0, "rental_uris": {"android": "https://dc.lft.to/lastmile_qr_scan", "ios": "https://dc.lft.to/lastmile_qr_scan"}}, {"bike_id": "5c31aa728c0ba68f8ea12bafc30c673a", "fusion_lon": 0.0, "name": "5c31aa728c0ba68f8ea12bafc30c673a", "lat": 38.897359, "is_disabled": 0, "is_reserved": 0, "lon": -77.00376733333333, "type": "electric_scooter", "fusion_lat": 0.0, "rental_uris": {"android": "https://dc.lft.to/lastmile_qr_scan", "ios": "https://dc.lft.to/lastmile_qr_scan"}}, {"bike_id": "246ba1992cc64c9de8e2696f34a62c65", "fusion_lon": 0.0, "name": "246ba1992cc64c9de8e2696f34a62c65", "lat": 38.92450683333333, "is_disabled": 0, "is_reserved": 0, "lon": -77.03324416666666, "type": "electric_scooter", "fusion_lat": 0.0, "rental_uris": {"android": "https://dc.lft.to/lastmile_qr_scan", "ios": "https://dc.lft.to/lastmile_qr_scan"}}, {"bike_id": "3da26f79ed2339c6014a3edbfbaa5ddf", "fusion_lon": 0.0, "name": "3da26f79ed2339c6014a3edbfbaa5ddf", "lat": 38.961289666666666, "is_disabled": 0, "is_reserved": 0, "lon": -77.027848, "type": "electric_scooter", "fusion_lat": 0.0, "rental_uris": {"android": "https://dc.lft.to/lastmile_qr_scan", "ios": "https://dc.lft.to/lastmile_qr_scan"}}, {"bike_id": "78a55cf386767fdb5ed5998260746416", "fusion_lon": 0.0, "name": "78a55cf386767fdb5ed5998260746416", "lat": 38.9312185, "is_disabled": 0, "is_reserved": 0, "lon": -77.03877983333334, "type": "electric_scooter", "fusion_lat": 0.0, "rental_uris": {"android": "https://dc.lft.to/lastmile_qr_scan", "ios": "https://dc.lft.to/lastmile_qr_scan"}}, {"bike_id": "00f13e663386ff526c9ce329d824e780", "fusion_lon": 0.0, "name": "00f13e663386ff526c9ce329d824e780", "lat": 38.94987116666667, "is_disabled": 0, "is_reserved": 0, "lon": -77.02705666666667, "type": "electric_scooter", "fusion_lat": 0.0, "rental_uris": {"android": "https://dc.lft.to/lastmile_qr_scan", "ios": "https://dc.lft.to/lastmile_qr_scan"}}, {"bike_id": "c7997b78e6bf7b97582d682f1714068b", "fusion_lon": 0.0, "name": "c7997b78e6bf7b97582d682f1714068b", "lat": 38.917779833333334, "is_disabled": 0, "is_reserved": 0, "lon": -77.023077, "type": "electric_scooter", "fusion_lat": 0.0, "rental_uris": {"android": "https://dc.lft.to/lastmile_qr_scan", "ios": "https://dc.lft.to/lastmile_qr_scan"}}, {"bike_id": "1e19f7796c228f3c379fa78dcf31bd28", "fusion_lon": 0.0, "name": "1e19f7796c228f3c379fa78dcf31bd28", "lat": 38.90977183333333, "is_disabled": 0, "is_reserved": 0, "lon": -77.02864883333334, "type": "electric_scooter", "fusion_lat": 0.0, "rental_uris": {"android": "https://dc.lft.to/lastmile_qr_scan", "ios": "https://dc.lft.to/lastmile_qr_scan"}}, {"bike_id": "f14a26803284f6c1a21e71eea2e02731", "fusion_lon": 0.0, "name": "f14a26803284f6c1a21e71eea2e02731", "lat": 38.88489233333333, "is_disabled": 0, "is_reserved": 0, "lon": -77.00709733333333, "type": "electric_scooter", "fusion_lat": 0.0, "rental_uris": {"android": "https://dc.lft.to/lastmile_qr_scan", "ios": "https://dc.lft.to/lastmile_qr_scan"}}, {"bike_id": "d00a144cc39f4f4219e6d17672bbe54f", "fusion_lon": 0.0, "name": "d00a144cc39f4f4219e6d17672bbe54f", "lat": 38.88876783333333, "is_disabled": 0, "is_reserved": 0, "lon": -76.9773155, "type": "electric_scooter", "fusion_lat": 0.0, "rental_uris": {"android": "https://dc.lft.to/lastmile_qr_scan", "ios": "https://dc.lft.to/lastmile_qr_scan"}}, {"bike_id": "550eadc9263469628a14fcfb7064dc7c", "fusion_lon": 0.0, "name": "550eadc9263469628a14fcfb7064dc7c", "lat": 38.867626666666666, "is_disabled": 0, "is_reserved": 0, "lon": -76.982797, "type": "electric_scooter", "fusion_lat": 0.0, "rental_uris": {"android": "https://dc.lft.to/lastmile_qr_scan", "ios": "https://dc.lft.to/lastmile_qr_scan"}}, {"bike_id": "79795910b6216fe8427f072fec81a669", "fusion_lon": 0.0, "name": "79795910b6216fe8427f072fec81a669", "lat": 38.8845095, "is_disabled": 0, "is_reserved": 0, "lon": -76.995261, "type": "electric_scooter", "fusion_lat": 0.0, "rental_uris": {"android": "https://dc.lft.to/lastmile_qr_scan", "ios": "https://dc.lft.to/lastmile_qr_scan"}}, {"bike_id": "0a366845ca7a9e111aafffa6f1ceb7be", "fusion_lon": 0.0, "name": "0a366845ca7a9e111aafffa6f1ceb7be", "lat": 38.892368166666664, "is_disabled": 0, "is_reserved": 0, "lon": -77.04159866666667, "type": "electric_scooter", "fusion_lat": 0.0, "rental_uris": {"android": "https://dc.lft.to/lastmile_qr_scan", "ios": "https://dc.lft.to/lastmile_qr_scan"}}, {"bike_id": "1a27eb6771f4a1a331cec050108de98a", "fusion_lon": 0.0, "name": "1a27eb6771f4a1a331cec050108de98a", "lat": 38.874081833333335, "is_disabled": 0, "is_reserved": 0, "lon": -77.00062, "type": "electric_scooter", "fusion_lat": 0.0, "rental_uris": {"android": "https://dc.lft.to/lastmile_qr_scan", "ios": "https://dc.lft.to/lastmile_qr_scan"}}, {"bike_id": "900fb55bda327e6c9404972623d0a607", "fusion_lon": 0.0, "name": "900fb55bda327e6c9404972623d0a607", "lat": 38.89042966666667, "is_disabled": 0, "is_reserved": 0, "lon": -76.95245783333333, "type": "electric_scooter", "fusion_lat": 0.0, "rental_uris": {"android": "https://dc.lft.to/lastmile_qr_scan", "ios": "https://dc.lft.to/lastmile_qr_scan"}}, {"bike_id": "29fd936bc9f450942f05d4aec40dc3a0", "fusion_lon": 0.0, "name": "29fd936bc9f450942f05d4aec40dc3a0", "lat": 38.9158385, "is_disabled": 0, "is_reserved": 0, "lon": -77.0211075, "type": "electric_scooter", "fusion_lat": 0.0, "rental_uris": {"android": "https://dc.lft.to/lastmile_qr_scan", "ios": "https://dc.lft.to/lastmile_qr_scan"}}, {"bike_id": "266476cd1446980cd641153c2cdf6edd", "fusion_lon": 0.0, "name": "266476cd1446980cd641153c2cdf6edd", "lat": 38.883011333333336, "is_disabled": 0, "is_reserved": 0, "lon": -76.94854033333333, "type": "electric_scooter", "fusion_lat": 0.0, "rental_uris": {"android": "https://dc.lft.to/lastmile_qr_scan", "ios": "https://dc.lft.to/lastmile_qr_scan"}}, {"bike_id": "fd163ea21bb5cedb18f7cc90316ac217", "fusion_lon": 0.0, "name": "fd163ea21bb5cedb18f7cc90316ac217", "lat": 38.9002705, "is_disabled": 0, "is_reserved": 0, "lon": -76.99903666666667, "type": "electric_scooter", "fusion_lat": 0.0, "rental_uris": {"android": "https://dc.lft.to/lastmile_qr_scan", "ios": "https://dc.lft.to/lastmile_qr_scan"}}, {"bike_id": "fbaa305d068931c767fcd0fa3fe41365", "fusion_lon": 0.0, "name": "fbaa305d068931c767fcd0fa3fe41365", "lat": 39.07052983333333, "is_disabled": 0, "is_reserved": 0, "lon": -77.114846, "type": "electric_bike", "fusion_lat": 0.0, "rental_uris": {"android": "https://dc.lft.to/lastmile_qr_scan", "ios": "https://dc.lft.to/lastmile_qr_scan"}}, {"bike_id": "74364ff10c547d826cd2e7622e9857ac", "fusion_lon": 0.0, "name": "74364ff10c547d826cd2e7622e9857ac", "lat": 38.8642895, "is_disabled": 0, "is_reserved": 0, "lon": -76.98993283333333, "type": "electric_scooter", "fusion_lat": 0.0, "rental_uris": {"android": "https://dc.lft.to/lastmile_qr_scan", "ios": "https://dc.lft.to/lastmile_qr_scan"}}, {"bike_id": "9fa6f76b5783f1fd42f3bfe099af4f77", "fusion_lon": 0.0, "name": "9fa6f76b5783f1fd42f3bfe099af4f77", "lat": 38.93135683333333, "is_disabled": 0, "is_reserved": 0, "lon": -77.032542, "type": "electric_scooter", "fusion_lat": 0.0, "rental_uris": {"android": "https://dc.lft.to/lastmile_qr_scan", "ios": "https://dc.lft.to/lastmile_qr_scan"}}, {"bike_id": "efcecdc97cd1e5de3e965f37a7a93262", "fusion_lon": 0.0, "name": "efcecdc97cd1e5de3e965f37a7a93262", "lat": 38.8849115, "is_disabled": 0, "is_reserved": 0, "lon": -77.01085666666667, "type": "electric_scooter", "fusion_lat": 0.0, "rental_uris": {"android": "https://dc.lft.to/lastmile_qr_scan", "ios": "https://dc.lft.to/lastmile_qr_scan"}}, {"bike_id": "94bfe3bee2614067eebc0878990d37bf", "fusion_lon": 0.0, "name": "94bfe3bee2614067eebc0878990d37bf", "lat": 38.92365183333333, "is_disabled": 0, "is_reserved": 0, "lon": -77.05033916666666, "type": "electric_scooter", "fusion_lat": 0.0, "rental_uris": {"android": "https://dc.lft.to/lastmile_qr_scan", "ios": "https://dc.lft.to/lastmile_qr_scan"}}, {"bike_id": "76efe816f452d916bc9fd4eb4c2a733d", "fusion_lon": 0.0, "name": "76efe816f452d916bc9fd4eb4c2a733d", "lat": 38.93507066666667, "is_disabled": 0, "is_reserved": 0, "lon": -77.0242415, "type": "electric_scooter", "fusion_lat": 0.0, "rental_uris": {"android": "https://dc.lft.to/lastmile_qr_scan", "ios": "https://dc.lft.to/lastmile_qr_scan"}}, {"bike_id": "dbfb20bccf6126c3ddef49ea8c3f3fdd", "fusion_lon": 0.0, "name": "dbfb20bccf6126c3ddef49ea8c3f3fdd", "lat": 38.900233, "is_disabled": 0, "is_reserved": 0, "lon": -77.03476183333333, "type": "electric_scooter", "fusion_lat": 0.0, "rental_uris": {"android": "https://dc.lft.to/lastmile_qr_scan", "ios": "https://dc.lft.to/lastmile_qr_scan"}}, {"bike_id": "1fb0fc3edbbc1a5dd3c365b1e34038b1", "fusion_lon": 0.0, "name": "1fb0fc3edbbc1a5dd3c365b1e34038b1", "lat": 39.00384283333333, "is_disabled": 0, "is_reserved": 0, "lon": -77.012904, "type": "electric_bike", "fusion_lat": 0.0, "rental_uris": {"android": "https://dc.lft.to/lastmile_qr_scan", "ios": "https://dc.lft.to/lastmile_qr_scan"}}, {"bike_id": "fec1ddb1e7e019e180111f3c3a665bfa", "fusion_lon": 0.0, "name": "fec1ddb1e7e019e180111f3c3a665bfa", "lat": 38.90007883333333, "is_disabled": 0, "is_reserved": 0, "lon": -77.01954666666667, "type": "electric_scooter", "fusion_lat": 0.0, "rental_uris": {"android": "https://dc.lft.to/lastmile_qr_scan", "ios": "https://dc.lft.to/lastmile_qr_scan"}}, {"bike_id": "0e06985578a3bdc69c4234704e22903e", "fusion_lon": 0.0, "name": "0e06985578a3bdc69c4234704e22903e", "lat": 38.9088765, "is_disabled": 0, "is_reserved": 0, "lon": -77.03219333333334, "type": "electric_scooter", "fusion_lat": 0.0, "rental_uris": {"android": "https://dc.lft.to/lastmile_qr_scan", "ios": "https://dc.lft.to/lastmile_qr_scan"}}, {"bike_id": "10b3a1fbbfdd3d3c063c72111c62c41f", "fusion_lon": 0.0, "name": "10b3a1fbbfdd3d3c063c72111c62c41f", "lat": 38.8846735, "is_disabled": 0, "is_reserved": 0, "lon": -77.01533433333333, "type": "electric_scooter", "fusion_lat": 0.0, "rental_uris": {"android": "https://dc.lft.to/lastmile_qr_scan", "ios": "https://dc.lft.to/lastmile_qr_scan"}}, {"bike_id": "1b089e535c02468478d19a9c9c673cbe", "fusion_lon": 0.0, "name": "1b089e535c02468478d19a9c9c673cbe", "lat": 38.90851966666666, "is_disabled": 0, "is_reserved": 0, "lon": -77.02330283333333, "type": "electric_scooter", "fusion_lat": 0.0, "rental_uris": {"android": "https://dc.lft.to/lastmile_qr_scan", "ios": "https://dc.lft.to/lastmile_qr_scan"}}, {"bike_id": "82295d1d473d30c2f4efde79d4378ff3", "fusion_lon": 0.0, "name": "82295d1d473d30c2f4efde79d4378ff3", "lat": 38.883168, "is_disabled": 0, "is_reserved": 0, "lon": -77.01676766666667, "type": "electric_scooter", "fusion_lat": 0.0, "rental_uris": {"android": "https://dc.lft.to/lastmile_qr_scan", "ios": "https://dc.lft.to/lastmile_qr_scan"}}, {"bike_id": "b92be115b4c5d8deb318c23b89245d99", "fusion_lon": 0.0, "name": "b92be115b4c5d8deb318c23b89245d99", "lat": 38.93184083333333, "is_disabled": 0, "is_reserved": 0, "lon": -77.0731535, "type": "electric_scooter", "fusion_lat": 0.0, "rental_uris": {"android": "https://dc.lft.to/lastmile_qr_scan", "ios": "https://dc.lft.to/lastmile_qr_scan"}}, {"bike_id": "9e695e1cce288285481cc1137706d352", "fusion_lon": 0.0, "name": "9e695e1cce288285481cc1137706d352", "lat": 38.923651, "is_disabled": 0, "is_reserved": 0, "lon": -77.01903566666667, "type": "electric_scooter", "fusion_lat": 0.0, "rental_uris": {"android": "https://dc.lft.to/lastmile_qr_scan", "ios": "https://dc.lft.to/lastmile_qr_scan"}}, {"bike_id": "e03fe41068b7e198dfa41f113bb0c49f", "fusion_lon": 0.0, "name": "e03fe41068b7e198dfa41f113bb0c49f", "lat": 38.905266, "is_disabled": 0, "is_reserved": 0, "lon": -77.043483, "type": "electric_scooter", "fusion_lat": 0.0, "rental_uris": {"android": "https://dc.lft.to/lastmile_qr_scan", "ios": "https://dc.lft.to/lastmile_qr_scan"}}, {"bike_id": "a30adfd710c35b3f3de8891b1358b27b", "fusion_lon": 0.0, "name": "a30adfd710c35b3f3de8891b1358b27b", "lat": 38.939086833333334, "is_disabled": 0, "is_reserved": 0, "lon": -77.03331883333334, "type": "electric_scooter", "fusion_lat": 0.0, "rental_uris": {"android": "https://dc.lft.to/lastmile_qr_scan", "ios": "https://dc.lft.to/lastmile_qr_scan"}}, {"bike_id": "79ce6c6e1223bbdd6f5a7bb198d17954", "fusion_lon": 0.0, "name": "79ce6c6e1223bbdd6f5a7bb198d17954", "lat": 38.9288305, "is_disabled": 0, "is_reserved": 0, "lon": -77.03310083333334, "type": "electric_scooter", "fusion_lat": 0.0, "rental_uris": {"android": "https://dc.lft.to/lastmile_qr_scan", "ios": "https://dc.lft.to/lastmile_qr_scan"}}, {"bike_id": "177ad26c3d81fa83aa80d9941fcf4672", "fusion_lon": 0.0, "name": "177ad26c3d81fa83aa80d9941fcf4672", "lat": 38.94276266666667, "is_disabled": 0, "is_reserved": 0, "lon": -77.01261516666666, "type": "electric_scooter", "fusion_lat": 0.0, "rental_uris": {"android": "https://dc.lft.to/lastmile_qr_scan", "ios": "https://dc.lft.to/lastmile_qr_scan"}}, {"bike_id": "c48088f6e08a196440cc46e573c4dd28", "fusion_lon": 0.0, "name": "c48088f6e08a196440cc46e573c4dd28", "lat": 38.929955666666665, "is_disabled": 0, "is_reserved": 0, "lon": -77.0326435, "type": "electric_scooter", "fusion_lat": 0.0, "rental_uris": {"android": "https://dc.lft.to/lastmile_qr_scan", "ios": "https://dc.lft.to/lastmile_qr_scan"}}, {"bike_id": "b3c4816292647c80b881d93727d29d9f", "fusion_lon": 0.0, "name": "b3c4816292647c80b881d93727d29d9f", "lat": 38.89536416666667, "is_disabled": 0, "is_reserved": 0, "lon": -77.0281135, "type": "electric_scooter", "fusion_lat": 0.0, "rental_uris": {"android": "https://dc.lft.to/lastmile_qr_scan", "ios": "https://dc.lft.to/lastmile_qr_scan"}}, {"bike_id": "1369105f52e2d8a920bbd92fabfff419", "fusion_lon": 0.0, "name": "1369105f52e2d8a920bbd92fabfff419", "lat": 38.90726466666667, "is_disabled": 0, "is_reserved": 0, "lon": -77.06902933333333, "type": "electric_scooter", "fusion_lat": 0.0, "rental_uris": {"android": "https://dc.lft.to/lastmile_qr_scan", "ios": "https://dc.lft.to/lastmile_qr_scan"}}, {"bike_id": "d05ec9f47db31fd76ae5797530a8d7a8", "fusion_lon": 0.0, "name": "d05ec9f47db31fd76ae5797530a8d7a8", "lat": 38.91128483333333, "is_disabled": 0, "is_reserved": 0, "lon": -77.04423, "type": "electric_scooter", "fusion_lat": 0.0, "rental_uris": {"android": "https://dc.lft.to/lastmile_qr_scan", "ios": "https://dc.lft.to/lastmile_qr_scan"}}, {"bike_id": "87ac055bfe05521d98f2f900086784c9", "fusion_lon": 0.0, "name": "87ac055bfe05521d98f2f900086784c9", "lat": 38.897338, "is_disabled": 0, "is_reserved": 0, "lon": -77.05473716666667, "type": "electric_scooter", "fusion_lat": 0.0, "rental_uris": {"android": "https://dc.lft.to/lastmile_qr_scan", "ios": "https://dc.lft.to/lastmile_qr_scan"}}, {"bike_id": "4949c85864f11c6db0857fa26f90a5e3", "fusion_lon": 0.0, "name": "4949c85864f11c6db0857fa26f90a5e3", "lat": 38.909516833333335, "is_disabled": 0, "is_reserved": 0, "lon": -76.998875, "type": "electric_scooter", "fusion_lat": 0.0, "rental_uris": {"android": "https://dc.lft.to/lastmile_qr_scan", "ios": "https://dc.lft.to/lastmile_qr_scan"}}, {"bike_id": "a8db7e23edc6d1484f4e18e61f8b71e0", "fusion_lon": 0.0, "name": "a8db7e23edc6d1484f4e18e61f8b71e0", "lat": 38.835768333333334, "is_disabled": 0, "is_reserved": 0, "lon": -77.0012925, "type": "electric_bike", "fusion_lat": 0.0, "rental_uris": {"android": "https://dc.lft.to/lastmile_qr_scan", "ios": "https://dc.lft.to/lastmile_qr_scan"}}, {"bike_id": "6b720a8bd86de66f3b085a1e6a10815b", "fusion_lon": 0.0, "name": "6b720a8bd86de66f3b085a1e6a10815b", "lat": 38.8942655, "is_disabled": 0, "is_reserved": 0, "lon": -77.00093933333333, "type": "electric_scooter", "fusion_lat": 0.0, "rental_uris": {"android": "https://dc.lft.to/lastmile_qr_scan", "ios": "https://dc.lft.to/lastmile_qr_scan"}}, {"bike_id": "3b7808310ca761b8ff5dac457468c5e1", "fusion_lon": 0.0, "name": "3b7808310ca761b8ff5dac457468c5e1", "lat": 38.927474333333336, "is_disabled": 0, "is_reserved": 0, "lon": -77.02134966666667, "type": "electric_scooter", "fusion_lat": 0.0, "rental_uris": {"android": "https://dc.lft.to/lastmile_qr_scan", "ios": "https://dc.lft.to/lastmile_qr_scan"}}, {"bike_id": "c0232edc2be4bcd3ebaac6e157e41d26", "fusion_lon": 0.0, "name": "c0232edc2be4bcd3ebaac6e157e41d26", "lat": 38.895554833333335, "is_disabled": 0, "is_reserved": 0, "lon": -77.039527, "type": "electric_scooter", "fusion_lat": 0.0, "rental_uris": {"android": "https://dc.lft.to/lastmile_qr_scan", "ios": "https://dc.lft.to/lastmile_qr_scan"}}, {"bike_id": "52c44aef6eb4e17f7b4b7d2efffd4439", "fusion_lon": 0.0, "name": "52c44aef6eb4e17f7b4b7d2efffd4439", "lat": 38.92320866666667, "is_disabled": 0, "is_reserved": 0, "lon": -77.029729, "type": "electric_scooter", "fusion_lat": 0.0, "rental_uris": {"android": "https://dc.lft.to/lastmile_qr_scan", "ios": "https://dc.lft.to/lastmile_qr_scan"}}, {"bike_id": "b3d5ed32dbf3ccad1134328404d24e0c", "fusion_lon": 0.0, "name": "b3d5ed32dbf3ccad1134328404d24e0c", "lat": 38.98061216666667, "is_disabled": 0, "is_reserved": 0, "lon": -77.026395, "type": "electric_scooter", "fusion_lat": 0.0, "rental_uris": {"android": "https://dc.lft.to/lastmile_qr_scan", "ios": "https://dc.lft.to/lastmile_qr_scan"}}, {"bike_id": "4599de6260eb7d58f65b7b7b7e56f4c5", "fusion_lon": 0.0, "name": "4599de6260eb7d58f65b7b7b7e56f4c5", "lat": 38.87659933333333, "is_disabled": 0, "is_reserved": 0, "lon": -77.016117, "type": "electric_scooter", "fusion_lat": 0.0, "rental_uris": {"android": "https://dc.lft.to/lastmile_qr_scan", "ios": "https://dc.lft.to/lastmile_qr_scan"}}, {"bike_id": "63f1891769de9f4cb6555dd455856b7a", "fusion_lon": 0.0, "name": "63f1891769de9f4cb6555dd455856b7a", "lat": 38.90280833333333, "is_disabled": 0, "is_reserved": 0, "lon": -77.04386233333334, "type": "electric_scooter", "fusion_lat": 0.0, "rental_uris": {"android": "https://dc.lft.to/lastmile_qr_scan", "ios": "https://dc.lft.to/lastmile_qr_scan"}}, {"bike_id": "090dc51ef970f9b6956a607bc2eb1161", "fusion_lon": 0.0, "name": "090dc51ef970f9b6956a607bc2eb1161", "lat": 38.87709183333333, "is_disabled": 0, "is_reserved": 0, "lon": -77.00453116666667, "type": "electric_scooter", "fusion_lat": 0.0, "rental_uris": {"android": "https://dc.lft.to/lastmile_qr_scan", "ios": "https://dc.lft.to/lastmile_qr_scan"}}, {"bike_id": "12dd60cb3efb9231014af33013274063", "fusion_lon": 0.0, "name": "12dd60cb3efb9231014af33013274063", "lat": 38.91667983333333, "is_disabled": 0, "is_reserved": 0, "lon": -77.04380566666667, "type": "electric_scooter", "fusion_lat": 0.0, "rental_uris": {"android": "https://dc.lft.to/lastmile_qr_scan", "ios": "https://dc.lft.to/lastmile_qr_scan"}}, {"bike_id": "eb863bd45466cfda74ca98429a177b90", "fusion_lon": 0.0, "name": "eb863bd45466cfda74ca98429a177b90", "lat": 38.91926133333333, "is_disabled": 0, "is_reserved": 0, "lon": -77.009832, "type": "electric_scooter", "fusion_lat": 0.0, "rental_uris": {"android": "https://dc.lft.to/lastmile_qr_scan", "ios": "https://dc.lft.to/lastmile_qr_scan"}}, {"bike_id": "0e7d7b2772d78d79aa768d30babf47c1", "fusion_lon": 0.0, "name": "0e7d7b2772d78d79aa768d30babf47c1", "lat": 38.874804833333336, "is_disabled": 0, "is_reserved": 0, "lon": -77.00058, "type": "electric_scooter", "fusion_lat": 0.0, "rental_uris": {"android": "https://dc.lft.to/lastmile_qr_scan", "ios": "https://dc.lft.to/lastmile_qr_scan"}}, {"bike_id": "6f680e4bae9f715eda93af204e61b8d3", "fusion_lon": 0.0, "name": "6f680e4bae9f715eda93af204e61b8d3", "lat": 38.88751216666667, "is_disabled": 0, "is_reserved": 0, "lon": -77.028443, "type": "electric_scooter", "fusion_lat": 0.0, "rental_uris": {"android": "https://dc.lft.to/lastmile_qr_scan", "ios": "https://dc.lft.to/lastmile_qr_scan"}}, {"bike_id": "fe5abfa6f49574705b7403e658dc8dc3", "fusion_lon": 0.0, "name": "fe5abfa6f49574705b7403e658dc8dc3", "lat": 38.864503666666664, "is_disabled": 0, "is_reserved": 0, "lon": -77.10683683333333, "type": "electric_bike", "fusion_lat": 0.0, "rental_uris": {"android": "https://dc.lft.to/lastmile_qr_scan", "ios": "https://dc.lft.to/lastmile_qr_scan"}}, {"bike_id": "461d8c9ce968602ee337425925e29c94", "fusion_lon": 0.0, "name": "461d8c9ce968602ee337425925e29c94", "lat": 38.95630716666667, "is_disabled": 0, "is_reserved": 0, "lon": -77.09131916666666, "type": "electric_scooter", "fusion_lat": 0.0, "rental_uris": {"android": "https://dc.lft.to/lastmile_qr_scan", "ios": "https://dc.lft.to/lastmile_qr_scan"}}, {"bike_id": "12f8c6ccbe8717a2db56ef5efb6604a4", "fusion_lon": 0.0, "name": "12f8c6ccbe8717a2db56ef5efb6604a4", "lat": 38.90639383333333, "is_disabled": 0, "is_reserved": 0, "lon": -77.0102695, "type": "electric_scooter", "fusion_lat": 0.0, "rental_uris": {"android": "https://dc.lft.to/lastmile_qr_scan", "ios": "https://dc.lft.to/lastmile_qr_scan"}}, {"bike_id": "ee10628f692575c4e2f85f4fc3fd6a10", "fusion_lon": 0.0, "name": "ee10628f692575c4e2f85f4fc3fd6a10", "lat": 38.903821666666666, "is_disabled": 0, "is_reserved": 0, "lon": -77.04453316666667, "type": "electric_scooter", "fusion_lat": 0.0, "rental_uris": {"android": "https://dc.lft.to/lastmile_qr_scan", "ios": "https://dc.lft.to/lastmile_qr_scan"}}, {"bike_id": "420a6b9a2e5a3c8cde4f1d29152e23c8", "fusion_lon": 0.0, "name": "420a6b9a2e5a3c8cde4f1d29152e23c8", "lat": 38.89733583333334, "is_disabled": 0, "is_reserved": 0, "lon": -77.049902, "type": "electric_scooter", "fusion_lat": 0.0, "rental_uris": {"android": "https://dc.lft.to/lastmile_qr_scan", "ios": "https://dc.lft.to/lastmile_qr_scan"}}, {"bike_id": "1721ece75b5ac43bc26e993c35e82212", "fusion_lon": 0.0, "name": "1721ece75b5ac43bc26e993c35e82212", "lat": 38.91631916666667, "is_disabled": 0, "is_reserved": 0, "lon": -77.03144816666666, "type": "electric_scooter", "fusion_lat": 0.0, "rental_uris": {"android": "https://dc.lft.to/lastmile_qr_scan", "ios": "https://dc.lft.to/lastmile_qr_scan"}}, {"bike_id": "c159a412a9f377bb4ba28f41cdff00d0", "fusion_lon": 0.0, "name": "c159a412a9f377bb4ba28f41cdff00d0", "lat": 38.9169715, "is_disabled": 0, "is_reserved": 0, "lon": -77.03596283333333, "type": "electric_scooter", "fusion_lat": 0.0, "rental_uris": {"android": "https://dc.lft.to/lastmile_qr_scan", "ios": "https://dc.lft.to/lastmile_qr_scan"}}, {"bike_id": "8a662d971035b1e88f82dd5af3185421", "fusion_lon": 0.0, "name": "8a662d971035b1e88f82dd5af3185421", "lat": 38.923865166666666, "is_disabled": 0, "is_reserved": 0, "lon": -77.03662916666667, "type": "electric_scooter", "fusion_lat": 0.0, "rental_uris": {"android": "https://dc.lft.to/lastmile_qr_scan", "ios": "https://dc.lft.to/lastmile_qr_scan"}}, {"bike_id": "2864211382483d6889ed4d199cd9878b", "fusion_lon": 0.0, "name": "2864211382483d6889ed4d199cd9878b", "lat": 38.89665516666667, "is_disabled": 0, "is_reserved": 0, "lon": -77.02466766666667, "type": "electric_scooter", "fusion_lat": 0.0, "rental_uris": {"android": "https://dc.lft.to/lastmile_qr_scan", "ios": "https://dc.lft.to/lastmile_qr_scan"}}, {"bike_id": "d1e60a1cf21ae2debc936685f7bb110c", "fusion_lon": 0.0, "name": "d1e60a1cf21ae2debc936685f7bb110c", "lat": 38.8724305, "is_disabled": 0, "is_reserved": 0, "lon": -76.97725583333333, "type": "electric_scooter", "fusion_lat": 0.0, "rental_uris": {"android": "https://dc.lft.to/lastmile_qr_scan", "ios": "https://dc.lft.to/lastmile_qr_scan"}}, {"bike_id": "20ad02f89d81dc1d1c526ebcc9ac5a0c", "fusion_lon": 0.0, "name": "20ad02f89d81dc1d1c526ebcc9ac5a0c", "lat": 38.903933333333335, "is_disabled": 0, "is_reserved": 0, "lon": -77.04358983333333, "type": "electric_scooter", "fusion_lat": 0.0, "rental_uris": {"android": "https://dc.lft.to/lastmile_qr_scan", "ios": "https://dc.lft.to/lastmile_qr_scan"}}, {"bike_id": "1242cb3c4d65b00ae0d2c836c1d07826", "fusion_lon": 0.0, "name": "1242cb3c4d65b00ae0d2c836c1d07826", "lat": 38.98768866666666, "is_disabled": 0, "is_reserved": 0, "lon": -77.14054516666667, "type": "electric_bike", "fusion_lat": 0.0, "rental_uris": {"android": "https://dc.lft.to/lastmile_qr_scan", "ios": "https://dc.lft.to/lastmile_qr_scan"}}, {"bike_id": "581af96004e09ff7316a80e234ec9d59", "fusion_lon": 0.0, "name": "581af96004e09ff7316a80e234ec9d59", "lat": 38.916995, "is_disabled": 0, "is_reserved": 0, "lon": -77.03584816666667, "type": "electric_scooter", "fusion_lat": 0.0, "rental_uris": {"android": "https://dc.lft.to/lastmile_qr_scan", "ios": "https://dc.lft.to/lastmile_qr_scan"}}, {"bike_id": "4720c21b5c6b27bc1f1bc270df440b01", "fusion_lon": 0.0, "name": "4720c21b5c6b27bc1f1bc270df440b01", "lat": 38.902686333333335, "is_disabled": 0, "is_reserved": 0, "lon": -77.035264, "type": "electric_scooter", "fusion_lat": 0.0, "rental_uris": {"android": "https://dc.lft.to/lastmile_qr_scan", "ios": "https://dc.lft.to/lastmile_qr_scan"}}, {"bike_id": "54f4bbe68b46dae2589d83d940684d73", "fusion_lon": 0.0, "name": "54f4bbe68b46dae2589d83d940684d73", "lat": 38.90307116666666, "is_disabled": 0, "is_reserved": 0, "lon": -77.02885283333333, "type": "electric_scooter", "fusion_lat": 0.0, "rental_uris": {"android": "https://dc.lft.to/lastmile_qr_scan", "ios": "https://dc.lft.to/lastmile_qr_scan"}}, {"bike_id": "9a918d4406c2bf6fa35d3c6b09977b62", "fusion_lon": 0.0, "name": "9a918d4406c2bf6fa35d3c6b09977b62", "lat": 38.90520083333333, "is_disabled": 0, "is_reserved": 0, "lon": -77.06306633333334, "type": "electric_scooter", "fusion_lat": 0.0, "rental_uris": {"android": "https://dc.lft.to/lastmile_qr_scan", "ios": "https://dc.lft.to/lastmile_qr_scan"}}, {"bike_id": "6e32a3605b042000288edb6175cf397c", "fusion_lon": 0.0, "name": "6e32a3605b042000288edb6175cf397c", "lat": 38.904114166666666, "is_disabled": 0, "is_reserved": 0, "lon": -76.97328883333333, "type": "electric_scooter", "fusion_lat": 0.0, "rental_uris": {"android": "https://dc.lft.to/lastmile_qr_scan", "ios": "https://dc.lft.to/lastmile_qr_scan"}}, {"bike_id": "4d3c93f2037c7fef9f29b71a921576af", "fusion_lon": 0.0, "name": "4d3c93f2037c7fef9f29b71a921576af", "lat": 38.900422166666665, "is_disabled": 0, "is_reserved": 0, "lon": -77.043521, "type": "electric_scooter", "fusion_lat": 0.0, "rental_uris": {"android": "https://dc.lft.to/lastmile_qr_scan", "ios": "https://dc.lft.to/lastmile_qr_scan"}}, {"bike_id": "b0c1ec54fe8df59886256a13eafe9416", "fusion_lon": 0.0, "name": "b0c1ec54fe8df59886256a13eafe9416", "lat": 38.90744983333333, "is_disabled": 0, "is_reserved": 0, "lon": -77.04351166666666, "type": "electric_scooter", "fusion_lat": 0.0, "rental_uris": {"android": "https://dc.lft.to/lastmile_qr_scan", "ios": "https://dc.lft.to/lastmile_qr_scan"}}, {"bike_id": "156eb49aca60259d178c6aeb2598c9c8", "fusion_lon": 0.0, "name": "156eb49aca60259d178c6aeb2598c9c8", "lat": 38.90867516666667, "is_disabled": 0, "is_reserved": 0, "lon": -77.01294433333334, "type": "electric_scooter", "fusion_lat": 0.0, "rental_uris": {"android": "https://dc.lft.to/lastmile_qr_scan", "ios": "https://dc.lft.to/lastmile_qr_scan"}}, {"bike_id": "f69f376bc7a0f1fce7ff75efa3693a2f", "fusion_lon": 0.0, "name": "f69f376bc7a0f1fce7ff75efa3693a2f", "lat": 38.902574666666666, "is_disabled": 0, "is_reserved": 0, "lon": -77.03361616666666, "type": "electric_scooter", "fusion_lat": 0.0, "rental_uris": {"android": "https://dc.lft.to/lastmile_qr_scan", "ios": "https://dc.lft.to/lastmile_qr_scan"}}, {"bike_id": "7d55e9c3e63756108133cccdc0f7569b", "fusion_lon": 0.0, "name": "7d55e9c3e63756108133cccdc0f7569b", "lat": 38.896494833333335, "is_disabled": 0, "is_reserved": 0, "lon": -77.03332233333333, "type": "electric_scooter", "fusion_lat": 0.0, "rental_uris": {"android": "https://dc.lft.to/lastmile_qr_scan", "ios": "https://dc.lft.to/lastmile_qr_scan"}}, {"bike_id": "fa9f064a7833b04f4445eb1cddbc4aec", "fusion_lon": 0.0, "name": "fa9f064a7833b04f4445eb1cddbc4aec", "lat": 38.92607366666667, "is_disabled": 0, "is_reserved": 0, "lon": -77.02215633333333, "type": "electric_scooter", "fusion_lat": 0.0, "rental_uris": {"android": "https://dc.lft.to/lastmile_qr_scan", "ios": "https://dc.lft.to/lastmile_qr_scan"}}, {"bike_id": "c7a73d3bdfe9bded03217524f720dbb6", "fusion_lon": 0.0, "name": "c7a73d3bdfe9bded03217524f720dbb6", "lat": 38.887070333333334, "is_disabled": 0, "is_reserved": 0, "lon": -77.0321435, "type": "electric_scooter", "fusion_lat": 0.0, "rental_uris": {"android": "https://dc.lft.to/lastmile_qr_scan", "ios": "https://dc.lft.to/lastmile_qr_scan"}}, {"bike_id": "6baf6dfa9ac6c6af2cb994967abd0a77", "fusion_lon": 0.0, "name": "6baf6dfa9ac6c6af2cb994967abd0a77", "lat": 38.91812516666667, "is_disabled": 0, "is_reserved": 0, "lon": -77.03334366666667, "type": "electric_scooter", "fusion_lat": 0.0, "rental_uris": {"android": "https://dc.lft.to/lastmile_qr_scan", "ios": "https://dc.lft.to/lastmile_qr_scan"}}, {"bike_id": "d08497f434cda99cde4f9a022041c549", "fusion_lon": 0.0, "name": "d08497f434cda99cde4f9a022041c549", "lat": 38.9146935, "is_disabled": 0, "is_reserved": 0, "lon": -77.04548283333334, "type": "electric_scooter", "fusion_lat": 0.0, "rental_uris": {"android": "https://dc.lft.to/lastmile_qr_scan", "ios": "https://dc.lft.to/lastmile_qr_scan"}}, {"bike_id": "17aa02f98d07c75793d48a05c0ba1796", "fusion_lon": 0.0, "name": "17aa02f98d07c75793d48a05c0ba1796", "lat": 38.86724683333333, "is_disabled": 0, "is_reserved": 0, "lon": -76.98701116666666, "type": "electric_scooter", "fusion_lat": 0.0, "rental_uris": {"android": "https://dc.lft.to/lastmile_qr_scan", "ios": "https://dc.lft.to/lastmile_qr_scan"}}, {"bike_id": "de2d492f884ec0935a41e3d1888cea00", "fusion_lon": 0.0, "name": "de2d492f884ec0935a41e3d1888cea00", "lat": 38.91535433333333, "is_disabled": 0, "is_reserved": 0, "lon": -77.0121965, "type": "electric_scooter", "fusion_lat": 0.0, "rental_uris": {"android": "https://dc.lft.to/lastmile_qr_scan", "ios": "https://dc.lft.to/lastmile_qr_scan"}}, {"bike_id": "a41503fe932792051b4be01fa9b5cb2a", "fusion_lon": 0.0, "name": "a41503fe932792051b4be01fa9b5cb2a", "lat": 38.89627516666667, "is_disabled": 0, "is_reserved": 0, "lon": -76.98836833333333, "type": "electric_scooter", "fusion_lat": 0.0, "rental_uris": {"android": "https://dc.lft.to/lastmile_qr_scan", "ios": "https://dc.lft.to/lastmile_qr_scan"}}, {"bike_id": "6f5ddcf506e1a363d17725ceb0568e81", "fusion_lon": 0.0, "name": "6f5ddcf506e1a363d17725ceb0568e81", "lat": 38.89101566666667, "is_disabled": 0, "is_reserved": 0, "lon": -77.18417183333334, "type": "electric_bike", "fusion_lat": 0.0, "rental_uris": {"android": "https://dc.lft.to/lastmile_qr_scan", "ios": "https://dc.lft.to/lastmile_qr_scan"}}, {"bike_id": "537f8efa5f8c89af77305bc07ffeef73", "fusion_lon": 0.0, "name": "537f8efa5f8c89af77305bc07ffeef73", "lat": 38.9171135, "is_disabled": 0, "is_reserved": 0, "lon": -77.0288, "type": "electric_scooter", "fusion_lat": 0.0, "rental_uris": {"android": "https://dc.lft.to/lastmile_qr_scan", "ios": "https://dc.lft.to/lastmile_qr_scan"}}, {"bike_id": "0381d688ca0f7b0022bff258e6a6d4e8", "fusion_lon": 0.0, "name": "0381d688ca0f7b0022bff258e6a6d4e8", "lat": 38.89849816666667, "is_disabled": 0, "is_reserved": 0, "lon": -77.0285305, "type": "electric_scooter", "fusion_lat": 0.0, "rental_uris": {"android": "https://dc.lft.to/lastmile_qr_scan", "ios": "https://dc.lft.to/lastmile_qr_scan"}}, {"bike_id": "8f948670bef95dc284fe95a66577c3ed", "fusion_lon": 0.0, "name": "8f948670bef95dc284fe95a66577c3ed", "lat": 38.928598, "is_disabled": 0, "is_reserved": 0, "lon": -77.03520916666666, "type": "electric_scooter", "fusion_lat": 0.0, "rental_uris": {"android": "https://dc.lft.to/lastmile_qr_scan", "ios": "https://dc.lft.to/lastmile_qr_scan"}}, {"bike_id": "5b18ad387fd1d0c707b49a0d13e2b045", "fusion_lon": 0.0, "name": "5b18ad387fd1d0c707b49a0d13e2b045", "lat": 38.9158615, "is_disabled": 0, "is_reserved": 0, "lon": -76.97966033333333, "type": "electric_scooter", "fusion_lat": 0.0, "rental_uris": {"android": "https://dc.lft.to/lastmile_qr_scan", "ios": "https://dc.lft.to/lastmile_qr_scan"}}, {"bike_id": "897368f4d2e090e4f84c51a85f25053c", "fusion_lon": 0.0, "name": "897368f4d2e090e4f84c51a85f25053c", "lat": 38.905453666666666, "is_disabled": 0, "is_reserved": 0, "lon": -77.003082, "type": "electric_scooter", "fusion_lat": 0.0, "rental_uris": {"android": "https://dc.lft.to/lastmile_qr_scan", "ios": "https://dc.lft.to/lastmile_qr_scan"}}, {"bike_id": "ea02c158d5c8acec50ca6f38d4765c08", "fusion_lon": 0.0, "name": "ea02c158d5c8acec50ca6f38d4765c08", "lat": 38.85702466666667, "is_disabled": 0, "is_reserved": 0, "lon": -76.99592766666666, "type": "electric_scooter", "fusion_lat": 0.0, "rental_uris": {"android": "https://dc.lft.to/lastmile_qr_scan", "ios": "https://dc.lft.to/lastmile_qr_scan"}}, {"bike_id": "b8dda593035d97eb704d6e19dffd2e39", "fusion_lon": 0.0, "name": "b8dda593035d97eb704d6e19dffd2e39", "lat": 38.88713083333333, "is_disabled": 0, "is_reserved": 0, "lon": -77.02197316666667, "type": "electric_scooter", "fusion_lat": 0.0, "rental_uris": {"android": "https://dc.lft.to/lastmile_qr_scan", "ios": "https://dc.lft.to/lastmile_qr_scan"}}, {"bike_id": "271cfa8e5f4e28b30aa282f7313429e0", "fusion_lon": 0.0, "name": "271cfa8e5f4e28b30aa282f7313429e0", "lat": 38.8962585, "is_disabled": 0, "is_reserved": 0, "lon": -77.02609266666667, "type": "electric_scooter", "fusion_lat": 0.0, "rental_uris": {"android": "https://dc.lft.to/lastmile_qr_scan", "ios": "https://dc.lft.to/lastmile_qr_scan"}}, {"bike_id": "8082713109610e0d872f8ec23207ef24", "fusion_lon": 0.0, "name": "8082713109610e0d872f8ec23207ef24", "lat": 38.9239625, "is_disabled": 0, "is_reserved": 0, "lon": -77.04304366666666, "type": "electric_scooter", "fusion_lat": 0.0, "rental_uris": {"android": "https://dc.lft.to/lastmile_qr_scan", "ios": "https://dc.lft.to/lastmile_qr_scan"}}, {"bike_id": "28d49826b9655b9a17e828987659cc66", "fusion_lon": 0.0, "name": "28d49826b9655b9a17e828987659cc66", "lat": 38.872865833333336, "is_disabled": 0, "is_reserved": 0, "lon": -77.0098765, "type": "electric_scooter", "fusion_lat": 0.0, "rental_uris": {"android": "https://dc.lft.to/lastmile_qr_scan", "ios": "https://dc.lft.to/lastmile_qr_scan"}}, {"bike_id": "b390ac5610b8fc6ee2f4ce5569760472", "fusion_lon": 0.0, "name": "b390ac5610b8fc6ee2f4ce5569760472", "lat": 38.84130233333333, "is_disabled": 0, "is_reserved": 0, "lon": -77.06307083333333, "type": "electric_bike", "fusion_lat": 0.0, "rental_uris": {"android": "https://dc.lft.to/lastmile_qr_scan", "ios": "https://dc.lft.to/lastmile_qr_scan"}}, {"bike_id": "d7679ab0933d073dafa2a98c03f99ba2", "fusion_lon": 0.0, "name": "d7679ab0933d073dafa2a98c03f99ba2", "lat": 38.88532283333333, "is_disabled": 0, "is_reserved": 0, "lon": -77.12189733333334, "type": "electric_bike", "fusion_lat": 0.0, "rental_uris": {"android": "https://dc.lft.to/lastmile_qr_scan", "ios": "https://dc.lft.to/lastmile_qr_scan"}}, {"bike_id": "9dc6198076a30d992d2f375f91715e9e", "fusion_lon": 0.0, "name": "9dc6198076a30d992d2f375f91715e9e", "lat": 38.899971, "is_disabled": 0, "is_reserved": 0, "lon": -76.99945833333334, "type": "electric_scooter", "fusion_lat": 0.0, "rental_uris": {"android": "https://dc.lft.to/lastmile_qr_scan", "ios": "https://dc.lft.to/lastmile_qr_scan"}}, {"bike_id": "05b48ac3a9365d8534de3f48bb175a9f", "fusion_lon": 0.0, "name": "05b48ac3a9365d8534de3f48bb175a9f", "lat": 38.89833216666667, "is_disabled": 0, "is_reserved": 0, "lon": -77.0319225, "type": "electric_scooter", "fusion_lat": 0.0, "rental_uris": {"android": "https://dc.lft.to/lastmile_qr_scan", "ios": "https://dc.lft.to/lastmile_qr_scan"}}, {"bike_id": "bf3d5b6906f88b97304e457651ed10d5", "fusion_lon": 0.0, "name": "bf3d5b6906f88b97304e457651ed10d5", "lat": 38.899651166666665, "is_disabled": 0, "is_reserved": 0, "lon": -76.9815995, "type": "electric_scooter", "fusion_lat": 0.0, "rental_uris": {"android": "https://dc.lft.to/lastmile_qr_scan", "ios": "https://dc.lft.to/lastmile_qr_scan"}}, {"bike_id": "e15b264d0f7d4245ada0594517426053", "fusion_lon": 0.0, "name": "e15b264d0f7d4245ada0594517426053", "lat": 38.892645, "is_disabled": 0, "is_reserved": 0, "lon": -77.00350833333333, "type": "electric_scooter", "fusion_lat": 0.0, "rental_uris": {"android": "https://dc.lft.to/lastmile_qr_scan", "ios": "https://dc.lft.to/lastmile_qr_scan"}}, {"bike_id": "98fedc342dbe1f17d2d969f0bc865a94", "fusion_lon": 0.0, "name": "98fedc342dbe1f17d2d969f0bc865a94", "lat": 38.91716916666667, "is_disabled": 0, "is_reserved": 0, "lon": -77.02385083333333, "type": "electric_scooter", "fusion_lat": 0.0, "rental_uris": {"android": "https://dc.lft.to/lastmile_qr_scan", "ios": "https://dc.lft.to/lastmile_qr_scan"}}, {"bike_id": "7748f5f099200087a7c83b9b51f84f86", "fusion_lon": 0.0, "name": "7748f5f099200087a7c83b9b51f84f86", "lat": 38.931244666666665, "is_disabled": 0, "is_reserved": 0, "lon": -76.9843875, "type": "electric_scooter", "fusion_lat": 0.0, "rental_uris": {"android": "https://dc.lft.to/lastmile_qr_scan", "ios": "https://dc.lft.to/lastmile_qr_scan"}}, {"bike_id": "f4458ea4cc3b9f7963b23ba8cf1337a8", "fusion_lon": 0.0, "name": "f4458ea4cc3b9f7963b23ba8cf1337a8", "lat": 38.95594033333333, "is_disabled": 0, "is_reserved": 0, "lon": -76.99531566666667, "type": "electric_bike", "fusion_lat": 0.0, "rental_uris": {"android": "https://dc.lft.to/lastmile_qr_scan", "ios": "https://dc.lft.to/lastmile_qr_scan"}}, {"bike_id": "1b67bef37502ce0b0e28362292019321", "fusion_lon": 0.0, "name": "1b67bef37502ce0b0e28362292019321", "lat": 38.944524666666666, "is_disabled": 0, "is_reserved": 0, "lon": -77.02336766666667, "type": "electric_scooter", "fusion_lat": 0.0, "rental_uris": {"android": "https://dc.lft.to/lastmile_qr_scan", "ios": "https://dc.lft.to/lastmile_qr_scan"}}, {"bike_id": "185f7f5a32c53b761a29eed61c6dae1b", "fusion_lon": 0.0, "name": "185f7f5a32c53b761a29eed61c6dae1b", "lat": 38.899683833333334, "is_disabled": 0, "is_reserved": 0, "lon": -77.046511, "type": "electric_scooter", "fusion_lat": 0.0, "rental_uris": {"android": "https://dc.lft.to/lastmile_qr_scan", "ios": "https://dc.lft.to/lastmile_qr_scan"}}, {"bike_id": "1909ad2c0a12956333b12584fd0208e7", "fusion_lon": 0.0, "name": "1909ad2c0a12956333b12584fd0208e7", "lat": 38.866255333333335, "is_disabled": 0, "is_reserved": 0, "lon": -76.98715483333334, "type": "electric_scooter", "fusion_lat": 0.0, "rental_uris": {"android": "https://dc.lft.to/lastmile_qr_scan", "ios": "https://dc.lft.to/lastmile_qr_scan"}}, {"bike_id": "26af6242f038f25bd9445e890638e514", "fusion_lon": 0.0, "name": "26af6242f038f25bd9445e890638e514", "lat": 38.89221783333333, "is_disabled": 0, "is_reserved": 0, "lon": -77.04689833333333, "type": "electric_scooter", "fusion_lat": 0.0, "rental_uris": {"android": "https://dc.lft.to/lastmile_qr_scan", "ios": "https://dc.lft.to/lastmile_qr_scan"}}, {"bike_id": "3d7579e97be15004cd3240a131e0ec62", "fusion_lon": 0.0, "name": "3d7579e97be15004cd3240a131e0ec62", "lat": 38.90719883333333, "is_disabled": 0, "is_reserved": 0, "lon": -77.02506116666666, "type": "electric_scooter", "fusion_lat": 0.0, "rental_uris": {"android": "https://dc.lft.to/lastmile_qr_scan", "ios": "https://dc.lft.to/lastmile_qr_scan"}}, {"bike_id": "c71eccf56c63c580c168d5f2de621c84", "fusion_lon": 0.0, "name": "c71eccf56c63c580c168d5f2de621c84", "lat": 38.884978333333336, "is_disabled": 0, "is_reserved": 0, "lon": -77.020912, "type": "electric_scooter", "fusion_lat": 0.0, "rental_uris": {"android": "https://dc.lft.to/lastmile_qr_scan", "ios": "https://dc.lft.to/lastmile_qr_scan"}}, {"bike_id": "4132b3a8424dde757352c67344e122a5", "fusion_lon": 0.0, "name": "4132b3a8424dde757352c67344e122a5", "lat": 38.931428833333335, "is_disabled": 0, "is_reserved": 0, "lon": -77.07850566666667, "type": "electric_scooter", "fusion_lat": 0.0, "rental_uris": {"android": "https://dc.lft.to/lastmile_qr_scan", "ios": "https://dc.lft.to/lastmile_qr_scan"}}, {"bike_id": "f55cebfa921c235ed2e5a87f07a0860c", "fusion_lon": 0.0, "name": "f55cebfa921c235ed2e5a87f07a0860c", "lat": 38.885259833333336, "is_disabled": 0, "is_reserved": 0, "lon": -76.92916716666667, "type": "electric_scooter", "fusion_lat": 0.0, "rental_uris": {"android": "https://dc.lft.to/lastmile_qr_scan", "ios": "https://dc.lft.to/lastmile_qr_scan"}}, {"bike_id": "7d1f21f759f60dc003e81f4cf3aa4167", "fusion_lon": 0.0, "name": "7d1f21f759f60dc003e81f4cf3aa4167", "lat": 38.89223783333333, "is_disabled": 0, "is_reserved": 0, "lon": -77.039853, "type": "electric_scooter", "fusion_lat": 0.0, "rental_uris": {"android": "https://dc.lft.to/lastmile_qr_scan", "ios": "https://dc.lft.to/lastmile_qr_scan"}}, {"bike_id": "47cd7fed2168df0c62914cc6c132c1a0", "fusion_lon": 0.0, "name": "47cd7fed2168df0c62914cc6c132c1a0", "lat": 38.89227316666667, "is_disabled": 0, "is_reserved": 0, "lon": -77.02598233333333, "type": "electric_scooter", "fusion_lat": 0.0, "rental_uris": {"android": "https://dc.lft.to/lastmile_qr_scan", "ios": "https://dc.lft.to/lastmile_qr_scan"}}, {"bike_id": "1e47be46e7cb775e1baa3d02c1775b4f", "fusion_lon": 0.0, "name": "1e47be46e7cb775e1baa3d02c1775b4f", "lat": 38.8927795, "is_disabled": 0, "is_reserved": 0, "lon": -77.05031633333333, "type": "electric_scooter", "fusion_lat": 0.0, "rental_uris": {"android": "https://dc.lft.to/lastmile_qr_scan", "ios": "https://dc.lft.to/lastmile_qr_scan"}}, {"bike_id": "5179f3d50541504fc4c00f1e692fc477", "fusion_lon": 0.0, "name": "5179f3d50541504fc4c00f1e692fc477", "lat": 38.92368716666667, "is_disabled": 0, "is_reserved": 0, "lon": -77.03065583333333, "type": "electric_scooter", "fusion_lat": 0.0, "rental_uris": {"android": "https://dc.lft.to/lastmile_qr_scan", "ios": "https://dc.lft.to/lastmile_qr_scan"}}, {"bike_id": "905465985a8224ed07532d7af57e1188", "fusion_lon": 0.0, "name": "905465985a8224ed07532d7af57e1188", "lat": 38.917430833333334, "is_disabled": 0, "is_reserved": 0, "lon": -77.02804633333334, "type": "electric_scooter", "fusion_lat": 0.0, "rental_uris": {"android": "https://dc.lft.to/lastmile_qr_scan", "ios": "https://dc.lft.to/lastmile_qr_scan"}}, {"bike_id": "ad2915801bc9033ffd095df1cc3f25bf", "fusion_lon": 0.0, "name": "ad2915801bc9033ffd095df1cc3f25bf", "lat": 38.907923, "is_disabled": 0, "is_reserved": 0, "lon": -77.04352833333333, "type": "electric_scooter", "fusion_lat": 0.0, "rental_uris": {"android": "https://dc.lft.to/lastmile_qr_scan", "ios": "https://dc.lft.to/lastmile_qr_scan"}}, {"bike_id": "bdc797d3f617d07eeacd5b9ca1c3c1da", "fusion_lon": 0.0, "name": "bdc797d3f617d07eeacd5b9ca1c3c1da", "lat": 38.89619016666666, "is_disabled": 0, "is_reserved": 0, "lon": -77.02605716666666, "type": "electric_scooter", "fusion_lat": 0.0, "rental_uris": {"android": "https://dc.lft.to/lastmile_qr_scan", "ios": "https://dc.lft.to/lastmile_qr_scan"}}, {"bike_id": "157069fa13f4d6ecee9abde610f547a5", "fusion_lon": 0.0, "name": "157069fa13f4d6ecee9abde610f547a5", "lat": 38.8999405, "is_disabled": 0, "is_reserved": 0, "lon": -77.0224035, "type": "electric_scooter", "fusion_lat": 0.0, "rental_uris": {"android": "https://dc.lft.to/lastmile_qr_scan", "ios": "https://dc.lft.to/lastmile_qr_scan"}}, {"bike_id": "425f226cc0936cdd2bcc179a35efaf6e", "fusion_lon": 0.0, "name": "425f226cc0936cdd2bcc179a35efaf6e", "lat": 38.931718833333335, "is_disabled": 0, "is_reserved": 0, "lon": -77.02815683333333, "type": "electric_scooter", "fusion_lat": 0.0, "rental_uris": {"android": "https://dc.lft.to/lastmile_qr_scan", "ios": "https://dc.lft.to/lastmile_qr_scan"}}, {"bike_id": "9fcdde3915682afeb3bbd2ccf6f9f6bb", "fusion_lon": 0.0, "name": "9fcdde3915682afeb3bbd2ccf6f9f6bb", "lat": 38.875802666666665, "is_disabled": 0, "is_reserved": 0, "lon": -77.23410783333334, "type": "electric_bike", "fusion_lat": 0.0, "rental_uris": {"android": "https://dc.lft.to/lastmile_qr_scan", "ios": "https://dc.lft.to/lastmile_qr_scan"}}, {"bike_id": "43a7ba9983d1fa774c51c61e12949abb", "fusion_lon": 0.0, "name": "43a7ba9983d1fa774c51c61e12949abb", "lat": 38.916144833333334, "is_disabled": 0, "is_reserved": 0, "lon": -77.031413, "type": "electric_scooter", "fusion_lat": 0.0, "rental_uris": {"android": "https://dc.lft.to/lastmile_qr_scan", "ios": "https://dc.lft.to/lastmile_qr_scan"}}, {"bike_id": "6ee5b8b086a6c7268baa76a4ffaa5755", "fusion_lon": 0.0, "name": "6ee5b8b086a6c7268baa76a4ffaa5755", "lat": 38.883033166666664, "is_disabled": 0, "is_reserved": 0, "lon": -77.01388916666667, "type": "electric_scooter", "fusion_lat": 0.0, "rental_uris": {"android": "https://dc.lft.to/lastmile_qr_scan", "ios": "https://dc.lft.to/lastmile_qr_scan"}}, {"bike_id": "d250caf0f3e04133c4fe5b4954197909", "fusion_lon": 0.0, "name": "d250caf0f3e04133c4fe5b4954197909", "lat": 38.8922005, "is_disabled": 0, "is_reserved": 0, "lon": -77.04305416666666, "type": "electric_scooter", "fusion_lat": 0.0, "rental_uris": {"android": "https://dc.lft.to/lastmile_qr_scan", "ios": "https://dc.lft.to/lastmile_qr_scan"}}, {"bike_id": "8003005f28c640b94111b1a1f49c349d", "fusion_lon": 0.0, "name": "8003005f28c640b94111b1a1f49c349d", "lat": 38.906788, "is_disabled": 0, "is_reserved": 0, "lon": -77.02389116666667, "type": "electric_scooter", "fusion_lat": 0.0, "rental_uris": {"android": "https://dc.lft.to/lastmile_qr_scan", "ios": "https://dc.lft.to/lastmile_qr_scan"}}, {"bike_id": "8075a3df9861bb274be4795cb8a354f7", "fusion_lon": 0.0, "name": "8075a3df9861bb274be4795cb8a354f7", "lat": 38.917398, "is_disabled": 0, "is_reserved": 0, "lon": -77.02118033333333, "type": "electric_scooter", "fusion_lat": 0.0, "rental_uris": {"android": "https://dc.lft.to/lastmile_qr_scan", "ios": "https://dc.lft.to/lastmile_qr_scan"}}, {"bike_id": "242c4b9c8c27634ec0b948d9cf1b5832", "fusion_lon": 0.0, "name": "242c4b9c8c27634ec0b948d9cf1b5832", "lat": 38.923208, "is_disabled": 0, "is_reserved": 0, "lon": -77.02966583333334, "type": "electric_scooter", "fusion_lat": 0.0, "rental_uris": {"android": "https://dc.lft.to/lastmile_qr_scan", "ios": "https://dc.lft.to/lastmile_qr_scan"}}, {"bike_id": "9561102253389d6ed6b3a7cd4922d647", "fusion_lon": 0.0, "name": "9561102253389d6ed6b3a7cd4922d647", "lat": 38.9725725, "is_disabled": 0, "is_reserved": 0, "lon": -76.99273666666667, "type": "electric_bike", "fusion_lat": 0.0, "rental_uris": {"android": "https://dc.lft.to/lastmile_qr_scan", "ios": "https://dc.lft.to/lastmile_qr_scan"}}, {"bike_id": "c2f51ac72e9e26cf4c5e8dd917d85bc4", "fusion_lon": 0.0, "name": "c2f51ac72e9e26cf4c5e8dd917d85bc4", "lat": 38.896823, "is_disabled": 0, "is_reserved": 0, "lon": -77.05111183333334, "type": "electric_scooter", "fusion_lat": 0.0, "rental_uris": {"android": "https://dc.lft.to/lastmile_qr_scan", "ios": "https://dc.lft.to/lastmile_qr_scan"}}, {"bike_id": "92c33aaea89243410d4e4b68ccf5f12a", "fusion_lon": 0.0, "name": "92c33aaea89243410d4e4b68ccf5f12a", "lat": 38.90670566666667, "is_disabled": 0, "is_reserved": 0, "lon": -77.07516816666667, "type": "electric_scooter", "fusion_lat": 0.0, "rental_uris": {"android": "https://dc.lft.to/lastmile_qr_scan", "ios": "https://dc.lft.to/lastmile_qr_scan"}}, {"bike_id": "b1e2a44efe0bfafd9e77d2133ac10b46", "fusion_lon": 0.0, "name": "b1e2a44efe0bfafd9e77d2133ac10b46", "lat": 38.8983055, "is_disabled": 0, "is_reserved": 0, "lon": -77.03188833333333, "type": "electric_scooter", "fusion_lat": 0.0, "rental_uris": {"android": "https://dc.lft.to/lastmile_qr_scan", "ios": "https://dc.lft.to/lastmile_qr_scan"}}, {"bike_id": "cdedf19938f8664fa2eed3c7e55dc10d", "fusion_lon": 0.0, "name": "cdedf19938f8664fa2eed3c7e55dc10d", "lat": 38.9224355, "is_disabled": 0, "is_reserved": 0, "lon": -77.03663966666667, "type": "electric_scooter", "fusion_lat": 0.0, "rental_uris": {"android": "https://dc.lft.to/lastmile_qr_scan", "ios": "https://dc.lft.to/lastmile_qr_scan"}}, {"bike_id": "af4a752dafea40ab0cc5d330ad084463", "fusion_lon": 0.0, "name": "af4a752dafea40ab0cc5d330ad084463", "lat": 38.89487333333334, "is_disabled": 0, "is_reserved": 0, "lon": -77.02677716666666, "type": "electric_scooter", "fusion_lat": 0.0, "rental_uris": {"android": "https://dc.lft.to/lastmile_qr_scan", "ios": "https://dc.lft.to/lastmile_qr_scan"}}, {"bike_id": "8118a47e76013744f760e6b396779fef", "fusion_lon": 0.0, "name": "8118a47e76013744f760e6b396779fef", "lat": 38.9166655, "is_disabled": 0, "is_reserved": 0, "lon": -77.027101, "type": "electric_scooter", "fusion_lat": 0.0, "rental_uris": {"android": "https://dc.lft.to/lastmile_qr_scan", "ios": "https://dc.lft.to/lastmile_qr_scan"}}, {"bike_id": "0fdc2339656944723b8808c63c6aeaee", "fusion_lon": 0.0, "name": "0fdc2339656944723b8808c63c6aeaee", "lat": 38.91054716666667, "is_disabled": 0, "is_reserved": 0, "lon": -77.04357633333333, "type": "electric_scooter", "fusion_lat": 0.0, "rental_uris": {"android": "https://dc.lft.to/lastmile_qr_scan", "ios": "https://dc.lft.to/lastmile_qr_scan"}}, {"bike_id": "490a2f0d0d8cd064645795852cb4b3e1", "fusion_lon": 0.0, "name": "490a2f0d0d8cd064645795852cb4b3e1", "lat": 38.8873845, "is_disabled": 0, "is_reserved": 0, "lon": -77.01530766666667, "type": "electric_scooter", "fusion_lat": 0.0, "rental_uris": {"android": "https://dc.lft.to/lastmile_qr_scan", "ios": "https://dc.lft.to/lastmile_qr_scan"}}, {"bike_id": "d4095fafd35053df06f48d9ac8a3d32e", "fusion_lon": 0.0, "name": "d4095fafd35053df06f48d9ac8a3d32e", "lat": 38.96480116666667, "is_disabled": 0, "is_reserved": 0, "lon": -77.01190316666667, "type": "electric_scooter", "fusion_lat": 0.0, "rental_uris": {"android": "https://dc.lft.to/lastmile_qr_scan", "ios": "https://dc.lft.to/lastmile_qr_scan"}}, {"bike_id": "d126f6371682550e06afc22ed1c0833e", "fusion_lon": 0.0, "name": "d126f6371682550e06afc22ed1c0833e", "lat": 38.922274, "is_disabled": 0, "is_reserved": 0, "lon": -77.04645883333333, "type": "electric_scooter", "fusion_lat": 0.0, "rental_uris": {"android": "https://dc.lft.to/lastmile_qr_scan", "ios": "https://dc.lft.to/lastmile_qr_scan"}}, {"bike_id": "1b21b6533cf88d830fc5c5221ee8f633", "fusion_lon": 0.0, "name": "1b21b6533cf88d830fc5c5221ee8f633", "lat": 38.855057, "is_disabled": 0, "is_reserved": 0, "lon": -77.12026033333333, "type": "electric_bike", "fusion_lat": 0.0, "rental_uris": {"android": "https://dc.lft.to/lastmile_qr_scan", "ios": "https://dc.lft.to/lastmile_qr_scan"}}, {"bike_id": "407fca24f893a0856ff16a8bb4dbafa6", "fusion_lon": 0.0, "name": "407fca24f893a0856ff16a8bb4dbafa6", "lat": 38.92049033333333, "is_disabled": 0, "is_reserved": 0, "lon": -77.02573616666666, "type": "electric_scooter", "fusion_lat": 0.0, "rental_uris": {"android": "https://dc.lft.to/lastmile_qr_scan", "ios": "https://dc.lft.to/lastmile_qr_scan"}}, {"bike_id": "123e9a76ae6585c2cda5b666e0befceb", "fusion_lon": 0.0, "name": "123e9a76ae6585c2cda5b666e0befceb", "lat": 38.8578565, "is_disabled": 0, "is_reserved": 0, "lon": -77.12018916666666, "type": "electric_bike", "fusion_lat": 0.0, "rental_uris": {"android": "https://dc.lft.to/lastmile_qr_scan", "ios": "https://dc.lft.to/lastmile_qr_scan"}}, {"bike_id": "198287f14fdc83cc24b033bc0764d4d4", "fusion_lon": 0.0, "name": "198287f14fdc83cc24b033bc0764d4d4", "lat": 38.95181483333333, "is_disabled": 0, "is_reserved": 0, "lon": -77.0272135, "type": "electric_scooter", "fusion_lat": 0.0, "rental_uris": {"android": "https://dc.lft.to/lastmile_qr_scan", "ios": "https://dc.lft.to/lastmile_qr_scan"}}, {"bike_id": "72b247624318898d21470a6c6e256918", "fusion_lon": 0.0, "name": "72b247624318898d21470a6c6e256918", "lat": 38.900580833333336, "is_disabled": 0, "is_reserved": 0, "lon": -77.016346, "type": "electric_scooter", "fusion_lat": 0.0, "rental_uris": {"android": "https://dc.lft.to/lastmile_qr_scan", "ios": "https://dc.lft.to/lastmile_qr_scan"}}, {"bike_id": "b4ee789c4ac5d3b64ca35e0114441f92", "fusion_lon": 0.0, "name": "b4ee789c4ac5d3b64ca35e0114441f92", "lat": 38.8921005, "is_disabled": 0, "is_reserved": 0, "lon": -76.95692416666667, "type": "electric_scooter", "fusion_lat": 0.0, "rental_uris": {"android": "https://dc.lft.to/lastmile_qr_scan", "ios": "https://dc.lft.to/lastmile_qr_scan"}}, {"bike_id": "808cc3bdf0784fecbbf44f2a1356eb4b", "fusion_lon": 0.0, "name": "808cc3bdf0784fecbbf44f2a1356eb4b", "lat": 38.99215733333333, "is_disabled": 0, "is_reserved": 0, "lon": -76.944532, "type": "electric_bike", "fusion_lat": 0.0, "rental_uris": {"android": "https://dc.lft.to/lastmile_qr_scan", "ios": "https://dc.lft.to/lastmile_qr_scan"}}, {"bike_id": "11ab35a95010c22026c1c154a79d2116", "fusion_lon": 0.0, "name": "11ab35a95010c22026c1c154a79d2116", "lat": 38.893492, "is_disabled": 0, "is_reserved": 0, "lon": -76.939684, "type": "electric_scooter", "fusion_lat": 0.0, "rental_uris": {"android": "https://dc.lft.to/lastmile_qr_scan", "ios": "https://dc.lft.to/lastmile_qr_scan"}}, {"bike_id": "04bc82854899310f4710272c5ed5ffbe", "fusion_lon": 0.0, "name": "04bc82854899310f4710272c5ed5ffbe", "lat": 38.8873585, "is_disabled": 0, "is_reserved": 0, "lon": -77.02578316666667, "type": "electric_scooter", "fusion_lat": 0.0, "rental_uris": {"android": "https://dc.lft.to/lastmile_qr_scan", "ios": "https://dc.lft.to/lastmile_qr_scan"}}, {"bike_id": "a4ec6f5970dd37491bcf74a42e64f4ef", "fusion_lon": 0.0, "name": "a4ec6f5970dd37491bcf74a42e64f4ef", "lat": 38.9154815, "is_disabled": 0, "is_reserved": 0, "lon": -77.0055305, "type": "electric_scooter", "fusion_lat": 0.0, "rental_uris": {"android": "https://dc.lft.to/lastmile_qr_scan", "ios": "https://dc.lft.to/lastmile_qr_scan"}}, {"bike_id": "46f413ab18167eb0c60f75f64ad8849c", "fusion_lon": 0.0, "name": "46f413ab18167eb0c60f75f64ad8849c", "lat": 38.93252433333333, "is_disabled": 0, "is_reserved": 0, "lon": -77.02843633333333, "type": "electric_scooter", "fusion_lat": 0.0, "rental_uris": {"android": "https://dc.lft.to/lastmile_qr_scan", "ios": "https://dc.lft.to/lastmile_qr_scan"}}, {"bike_id": "20a6bc0ce91bb2924423b3be27ae666d", "fusion_lon": 0.0, "name": "20a6bc0ce91bb2924423b3be27ae666d", "lat": 38.90491266666667, "is_disabled": 0, "is_reserved": 0, "lon": -77.036146, "type": "electric_scooter", "fusion_lat": 0.0, "rental_uris": {"android": "https://dc.lft.to/lastmile_qr_scan", "ios": "https://dc.lft.to/lastmile_qr_scan"}}, {"bike_id": "bbdd70d143d4b78d8ecca83eac85a1ec", "fusion_lon": 0.0, "name": "bbdd70d143d4b78d8ecca83eac85a1ec", "lat": 38.926879, "is_disabled": 0, "is_reserved": 0, "lon": -77.02304283333334, "type": "electric_scooter", "fusion_lat": 0.0, "rental_uris": {"android": "https://dc.lft.to/lastmile_qr_scan", "ios": "https://dc.lft.to/lastmile_qr_scan"}}, {"bike_id": "fb96e22b37ec09cc4cf77c7c753f5ea5", "fusion_lon": 0.0, "name": "fb96e22b37ec09cc4cf77c7c753f5ea5", "lat": 38.8986745, "is_disabled": 0, "is_reserved": 0, "lon": -76.94643433333333, "type": "electric_scooter", "fusion_lat": 0.0, "rental_uris": {"android": "https://dc.lft.to/lastmile_qr_scan", "ios": "https://dc.lft.to/lastmile_qr_scan"}}, {"bike_id": "78065f86499e3ab587dcb1bb08a1e84c", "fusion_lon": 0.0, "name": "78065f86499e3ab587dcb1bb08a1e84c", "lat": 38.92794816666667, "is_disabled": 0, "is_reserved": 0, "lon": -76.955582, "type": "electric_scooter", "fusion_lat": 0.0, "rental_uris": {"android": "https://dc.lft.to/lastmile_qr_scan", "ios": "https://dc.lft.to/lastmile_qr_scan"}}, {"bike_id": "0e2a5d2e4ee823771070097dadeddfe6", "fusion_lon": 0.0, "name": "0e2a5d2e4ee823771070097dadeddfe6", "lat": 38.92045983333333, "is_disabled": 0, "is_reserved": 0, "lon": -77.0798035, "type": "electric_scooter", "fusion_lat": 0.0, "rental_uris": {"android": "https://dc.lft.to/lastmile_qr_scan", "ios": "https://dc.lft.to/lastmile_qr_scan"}}, {"bike_id": "652a33eca0f226d6f58bbef7ce187552", "fusion_lon": 0.0, "name": "652a33eca0f226d6f58bbef7ce187552", "lat": 38.90158066666667, "is_disabled": 0, "is_reserved": 0, "lon": -76.976268, "type": "electric_scooter", "fusion_lat": 0.0, "rental_uris": {"android": "https://dc.lft.to/lastmile_qr_scan", "ios": "https://dc.lft.to/lastmile_qr_scan"}}, {"bike_id": "27d0697fad3f5af82f859e68826eea34", "fusion_lon": 0.0, "name": "27d0697fad3f5af82f859e68826eea34", "lat": 38.9154965, "is_disabled": 0, "is_reserved": 0, "lon": -77.03276766666667, "type": "electric_scooter", "fusion_lat": 0.0, "rental_uris": {"android": "https://dc.lft.to/lastmile_qr_scan", "ios": "https://dc.lft.to/lastmile_qr_scan"}}, {"bike_id": "4485253af0ab28617c81b7032de8f4a5", "fusion_lon": 0.0, "name": "4485253af0ab28617c81b7032de8f4a5", "lat": 38.902707, "is_disabled": 0, "is_reserved": 0, "lon": -77.0386945, "type": "electric_scooter", "fusion_lat": 0.0, "rental_uris": {"android": "https://dc.lft.to/lastmile_qr_scan", "ios": "https://dc.lft.to/lastmile_qr_scan"}}, {"bike_id": "ab7f683d6f54177a5ec3009f3e4ae475", "fusion_lon": 0.0, "name": "ab7f683d6f54177a5ec3009f3e4ae475", "lat": 38.892249166666666, "is_disabled": 0, "is_reserved": 0, "lon": -77.02413, "type": "electric_scooter", "fusion_lat": 0.0, "rental_uris": {"android": "https://dc.lft.to/lastmile_qr_scan", "ios": "https://dc.lft.to/lastmile_qr_scan"}}, {"bike_id": "584b71ca4f964a89d423553c97497f09", "fusion_lon": 0.0, "name": "584b71ca4f964a89d423553c97497f09", "lat": 38.92445016666667, "is_disabled": 0, "is_reserved": 0, "lon": -77.05249133333334, "type": "electric_scooter", "fusion_lat": 0.0, "rental_uris": {"android": "https://dc.lft.to/lastmile_qr_scan", "ios": "https://dc.lft.to/lastmile_qr_scan"}}, {"bike_id": "f56a7650d49ca3e2f0ecefd3b32ffe4d", "fusion_lon": 0.0, "name": "f56a7650d49ca3e2f0ecefd3b32ffe4d", "lat": 38.94919183333333, "is_disabled": 0, "is_reserved": 0, "lon": -77.018559, "type": "electric_scooter", "fusion_lat": 0.0, "rental_uris": {"android": "https://dc.lft.to/lastmile_qr_scan", "ios": "https://dc.lft.to/lastmile_qr_scan"}}, {"bike_id": "54b41f7fe7e040d26ef7951a46cb705f", "fusion_lon": 0.0, "name": "54b41f7fe7e040d26ef7951a46cb705f", "lat": 38.9143875, "is_disabled": 0, "is_reserved": 0, "lon": -77.02184483333333, "type": "electric_scooter", "fusion_lat": 0.0, "rental_uris": {"android": "https://dc.lft.to/lastmile_qr_scan", "ios": "https://dc.lft.to/lastmile_qr_scan"}}, {"bike_id": "2e4427bf29963f448513e5eb116286a1", "fusion_lon": 0.0, "name": "2e4427bf29963f448513e5eb116286a1", "lat": 38.88246016666667, "is_disabled": 0, "is_reserved": 0, "lon": -76.962593, "type": "electric_bike", "fusion_lat": 0.0, "rental_uris": {"android": "https://dc.lft.to/lastmile_qr_scan", "ios": "https://dc.lft.to/lastmile_qr_scan"}}, {"bike_id": "037042d3d52e82de51e37a9173282242", "fusion_lon": 0.0, "name": "037042d3d52e82de51e37a9173282242", "lat": 38.87570733333333, "is_disabled": 0, "is_reserved": 0, "lon": -77.00937583333334, "type": "electric_scooter", "fusion_lat": 0.0, "rental_uris": {"android": "https://dc.lft.to/lastmile_qr_scan", "ios": "https://dc.lft.to/lastmile_qr_scan"}}, {"bike_id": "20af43ccb7d4f1bc0b7d698e8f754be2", "fusion_lon": 0.0, "name": "20af43ccb7d4f1bc0b7d698e8f754be2", "lat": 38.878079, "is_disabled": 0, "is_reserved": 0, "lon": -77.00563866666667, "type": "electric_scooter", "fusion_lat": 0.0, "rental_uris": {"android": "https://dc.lft.to/lastmile_qr_scan", "ios": "https://dc.lft.to/lastmile_qr_scan"}}, {"bike_id": "379a7582e909804d72f077fd30be75d1", "fusion_lon": 0.0, "name": "379a7582e909804d72f077fd30be75d1", "lat": 38.90185316666667, "is_disabled": 0, "is_reserved": 0, "lon": -77.05007133333334, "type": "electric_scooter", "fusion_lat": 0.0, "rental_uris": {"android": "https://dc.lft.to/lastmile_qr_scan", "ios": "https://dc.lft.to/lastmile_qr_scan"}}, {"bike_id": "afeb1e3f1701f67c7d1ed527a0e1609c", "fusion_lon": 0.0, "name": "afeb1e3f1701f67c7d1ed527a0e1609c", "lat": 38.92224233333334, "is_disabled": 0, "is_reserved": 0, "lon": -77.04310416666667, "type": "electric_scooter", "fusion_lat": 0.0, "rental_uris": {"android": "https://dc.lft.to/lastmile_qr_scan", "ios": "https://dc.lft.to/lastmile_qr_scan"}}, {"bike_id": "fac328287f4f7cbefe37d50bbaf31f8e", "fusion_lon": 0.0, "name": "fac328287f4f7cbefe37d50bbaf31f8e", "lat": 38.916998166666666, "is_disabled": 0, "is_reserved": 0, "lon": -77.01167666666667, "type": "electric_scooter", "fusion_lat": 0.0, "rental_uris": {"android": "https://dc.lft.to/lastmile_qr_scan", "ios": "https://dc.lft.to/lastmile_qr_scan"}}, {"bike_id": "d4fb9d8f2d656a17f1cae5374e1d5b9a", "fusion_lon": 0.0, "name": "d4fb9d8f2d656a17f1cae5374e1d5b9a", "lat": 38.845071833333336, "is_disabled": 0, "is_reserved": 0, "lon": -76.99351033333333, "type": "electric_bike", "fusion_lat": 0.0, "rental_uris": {"android": "https://dc.lft.to/lastmile_qr_scan", "ios": "https://dc.lft.to/lastmile_qr_scan"}}, {"bike_id": "9f8a4e8092ea30adaee92ff4134c75eb", "fusion_lon": 0.0, "name": "9f8a4e8092ea30adaee92ff4134c75eb", "lat": 38.92484116666667, "is_disabled": 0, "is_reserved": 0, "lon": -77.02756166666667, "type": "electric_scooter", "fusion_lat": 0.0, "rental_uris": {"android": "https://dc.lft.to/lastmile_qr_scan", "ios": "https://dc.lft.to/lastmile_qr_scan"}}, {"bike_id": "0dd04964164a27176ecfbe3c85381139", "fusion_lon": 0.0, "name": "0dd04964164a27176ecfbe3c85381139", "lat": 38.902025333333334, "is_disabled": 0, "is_reserved": 0, "lon": -77.02750733333333, "type": "electric_scooter", "fusion_lat": 0.0, "rental_uris": {"android": "https://dc.lft.to/lastmile_qr_scan", "ios": "https://dc.lft.to/lastmile_qr_scan"}}, {"bike_id": "0c33b78894387efeb073e57750b552e7", "fusion_lon": 0.0, "name": "0c33b78894387efeb073e57750b552e7", "lat": 38.8975525, "is_disabled": 0, "is_reserved": 0, "lon": -77.03032133333333, "type": "electric_scooter", "fusion_lat": 0.0, "rental_uris": {"android": "https://dc.lft.to/lastmile_qr_scan", "ios": "https://dc.lft.to/lastmile_qr_scan"}}, {"bike_id": "e1e700c07efeaa81bf235e65500b9050", "fusion_lon": 0.0, "name": "e1e700c07efeaa81bf235e65500b9050", "lat": 38.959362, "is_disabled": 0, "is_reserved": 0, "lon": -77.03116516666667, "type": "electric_scooter", "fusion_lat": 0.0, "rental_uris": {"android": "https://dc.lft.to/lastmile_qr_scan", "ios": "https://dc.lft.to/lastmile_qr_scan"}}, {"bike_id": "da676819d9aff836e893a5e962f13202", "fusion_lon": 0.0, "name": "da676819d9aff836e893a5e962f13202", "lat": 38.912268166666664, "is_disabled": 0, "is_reserved": 0, "lon": -77.03800133333333, "type": "electric_scooter", "fusion_lat": 0.0, "rental_uris": {"android": "https://dc.lft.to/lastmile_qr_scan", "ios": "https://dc.lft.to/lastmile_qr_scan"}}, {"bike_id": "d87662151933d050e6e98795d3b655b3", "fusion_lon": 0.0, "name": "d87662151933d050e6e98795d3b655b3", "lat": 38.91825983333333, "is_disabled": 0, "is_reserved": 0, "lon": -77.04173133333333, "type": "electric_scooter", "fusion_lat": 0.0, "rental_uris": {"android": "https://dc.lft.to/lastmile_qr_scan", "ios": "https://dc.lft.to/lastmile_qr_scan"}}, {"bike_id": "ca9294c2e8dc5a8813286fc3d1800ff8", "fusion_lon": 0.0, "name": "ca9294c2e8dc5a8813286fc3d1800ff8", "lat": 38.91938, "is_disabled": 0, "is_reserved": 0, "lon": -77.0238145, "type": "electric_scooter", "fusion_lat": 0.0, "rental_uris": {"android": "https://dc.lft.to/lastmile_qr_scan", "ios": "https://dc.lft.to/lastmile_qr_scan"}}, {"bike_id": "1c668972dc757068dcd7a59a88380bdc", "fusion_lon": 0.0, "name": "1c668972dc757068dcd7a59a88380bdc", "lat": 38.90547083333333, "is_disabled": 0, "is_reserved": 0, "lon": -77.047499, "type": "electric_scooter", "fusion_lat": 0.0, "rental_uris": {"android": "https://dc.lft.to/lastmile_qr_scan", "ios": "https://dc.lft.to/lastmile_qr_scan"}}, {"bike_id": "ffe931e45df3f9fab8e2a178821ca291", "fusion_lon": 0.0, "name": "ffe931e45df3f9fab8e2a178821ca291", "lat": 38.90957933333333, "is_disabled": 0, "is_reserved": 0, "lon": -76.98433466666667, "type": "electric_bike", "fusion_lat": 0.0, "rental_uris": {"android": "https://dc.lft.to/lastmile_qr_scan", "ios": "https://dc.lft.to/lastmile_qr_scan"}}, {"bike_id": "1603530b4483f24f236cfea6a63f050a", "fusion_lon": 0.0, "name": "1603530b4483f24f236cfea6a63f050a", "lat": 38.8603355, "is_disabled": 0, "is_reserved": 0, "lon": -76.98373533333333, "type": "electric_scooter", "fusion_lat": 0.0, "rental_uris": {"android": "https://dc.lft.to/lastmile_qr_scan", "ios": "https://dc.lft.to/lastmile_qr_scan"}}, {"bike_id": "e8ae1d689d3821397005118ae1ab8e4a", "fusion_lon": 0.0, "name": "e8ae1d689d3821397005118ae1ab8e4a", "lat": 38.882692666666664, "is_disabled": 0, "is_reserved": 0, "lon": -77.0036585, "type": "electric_scooter", "fusion_lat": 0.0, "rental_uris": {"android": "https://dc.lft.to/lastmile_qr_scan", "ios": "https://dc.lft.to/lastmile_qr_scan"}}, {"bike_id": "51762d5ae600ac343ab9e4cbc806c05a", "fusion_lon": 0.0, "name": "51762d5ae600ac343ab9e4cbc806c05a", "lat": 38.922975666666666, "is_disabled": 0, "is_reserved": 0, "lon": -77.041466, "type": "electric_scooter", "fusion_lat": 0.0, "rental_uris": {"android": "https://dc.lft.to/lastmile_qr_scan", "ios": "https://dc.lft.to/lastmile_qr_scan"}}, {"bike_id": "41b974d9d593f9aaecf3d2b8d28f69a2", "fusion_lon": 0.0, "name": "41b974d9d593f9aaecf3d2b8d28f69a2", "lat": 38.8854095, "is_disabled": 0, "is_reserved": 0, "lon": -77.00047916666666, "type": "electric_scooter", "fusion_lat": 0.0, "rental_uris": {"android": "https://dc.lft.to/lastmile_qr_scan", "ios": "https://dc.lft.to/lastmile_qr_scan"}}, {"bike_id": "b47547aad36ee756f0e12368e9a5d831", "fusion_lon": 0.0, "name": "b47547aad36ee756f0e12368e9a5d831", "lat": 38.892259, "is_disabled": 0, "is_reserved": 0, "lon": -77.041839, "type": "electric_scooter", "fusion_lat": 0.0, "rental_uris": {"android": "https://dc.lft.to/lastmile_qr_scan", "ios": "https://dc.lft.to/lastmile_qr_scan"}}, {"bike_id": "7b87a63767c25492c9c2264ec0d5f6e6", "fusion_lon": 0.0, "name": "7b87a63767c25492c9c2264ec0d5f6e6", "lat": 38.92468266666667, "is_disabled": 0, "is_reserved": 0, "lon": -77.02215516666666, "type": "electric_scooter", "fusion_lat": 0.0, "rental_uris": {"android": "https://dc.lft.to/lastmile_qr_scan", "ios": "https://dc.lft.to/lastmile_qr_scan"}}, {"bike_id": "23b1c31882d41e6a4eab7f7272d85344", "fusion_lon": 0.0, "name": "23b1c31882d41e6a4eab7f7272d85344", "lat": 38.91121583333333, "is_disabled": 0, "is_reserved": 0, "lon": -77.081314, "type": "electric_scooter", "fusion_lat": 0.0, "rental_uris": {"android": "https://dc.lft.to/lastmile_qr_scan", "ios": "https://dc.lft.to/lastmile_qr_scan"}}, {"bike_id": "fcdc26b04357e165aefddfcb7a1abdf2", "fusion_lon": 0.0, "name": "fcdc26b04357e165aefddfcb7a1abdf2", "lat": 38.902704, "is_disabled": 0, "is_reserved": 0, "lon": -77.0531475, "type": "electric_scooter", "fusion_lat": 0.0, "rental_uris": {"android": "https://dc.lft.to/lastmile_qr_scan", "ios": "https://dc.lft.to/lastmile_qr_scan"}}, {"bike_id": "96b9148d5a751445e07cf594dbb5a7d8", "fusion_lon": 0.0, "name": "96b9148d5a751445e07cf594dbb5a7d8", "lat": 38.8873985, "is_disabled": 0, "is_reserved": 0, "lon": -77.01530133333333, "type": "electric_scooter", "fusion_lat": 0.0, "rental_uris": {"android": "https://dc.lft.to/lastmile_qr_scan", "ios": "https://dc.lft.to/lastmile_qr_scan"}}, {"bike_id": "1ae054a7e3cb3c05e1db17ae24f75479", "fusion_lon": 0.0, "name": "1ae054a7e3cb3c05e1db17ae24f75479", "lat": 38.866821333333334, "is_disabled": 0, "is_reserved": 0, "lon": -76.98573, "type": "electric_scooter", "fusion_lat": 0.0, "rental_uris": {"android": "https://dc.lft.to/lastmile_qr_scan", "ios": "https://dc.lft.to/lastmile_qr_scan"}}, {"bike_id": "aa7b2f96a0991b872b8921dfb7ef7e66", "fusion_lon": 0.0, "name": "aa7b2f96a0991b872b8921dfb7ef7e66", "lat": 38.88749516666667, "is_disabled": 0, "is_reserved": 0, "lon": -77.020242, "type": "electric_scooter", "fusion_lat": 0.0, "rental_uris": {"android": "https://dc.lft.to/lastmile_qr_scan", "ios": "https://dc.lft.to/lastmile_qr_scan"}}, {"bike_id": "48ba72b429cc54b0c26bc4465f2c4c96", "fusion_lon": 0.0, "name": "48ba72b429cc54b0c26bc4465f2c4c96", "lat": 38.936068, "is_disabled": 0, "is_reserved": 0, "lon": -77.058561, "type": "electric_scooter", "fusion_lat": 0.0, "rental_uris": {"android": "https://dc.lft.to/lastmile_qr_scan", "ios": "https://dc.lft.to/lastmile_qr_scan"}}, {"bike_id": "e7db35e3c1274828ee6ee683673e6468", "fusion_lon": 0.0, "name": "e7db35e3c1274828ee6ee683673e6468", "lat": 38.82794333333333, "is_disabled": 0, "is_reserved": 0, "lon": -77.124841, "type": "electric_bike", "fusion_lat": 0.0, "rental_uris": {"android": "https://dc.lft.to/lastmile_qr_scan", "ios": "https://dc.lft.to/lastmile_qr_scan"}}, {"bike_id": "4aaba7d1fa8dbf0a3100762d2d9836a0", "fusion_lon": 0.0, "name": "4aaba7d1fa8dbf0a3100762d2d9836a0", "lat": 38.892224666666664, "is_disabled": 0, "is_reserved": 0, "lon": -77.03985433333334, "type": "electric_scooter", "fusion_lat": 0.0, "rental_uris": {"android": "https://dc.lft.to/lastmile_qr_scan", "ios": "https://dc.lft.to/lastmile_qr_scan"}}, {"bike_id": "2312a11412a414e712ddf2636ac0e18c", "fusion_lon": 0.0, "name": "2312a11412a414e712ddf2636ac0e18c", "lat": 38.866314833333334, "is_disabled": 0, "is_reserved": 0, "lon": -76.98715016666667, "type": "electric_scooter", "fusion_lat": 0.0, "rental_uris": {"android": "https://dc.lft.to/lastmile_qr_scan", "ios": "https://dc.lft.to/lastmile_qr_scan"}}, {"bike_id": "39bdb82f25ca722722aa5e4ea1587553", "fusion_lon": 0.0, "name": "39bdb82f25ca722722aa5e4ea1587553", "lat": 38.920257166666666, "is_disabled": 0, "is_reserved": 0, "lon": -77.0314815, "type": "electric_scooter", "fusion_lat": 0.0, "rental_uris": {"android": "https://dc.lft.to/lastmile_qr_scan", "ios": "https://dc.lft.to/lastmile_qr_scan"}}, {"bike_id": "1b0e8855e3bc8fb5992a26fd7622d63c", "fusion_lon": 0.0, "name": "1b0e8855e3bc8fb5992a26fd7622d63c", "lat": 38.9024805, "is_disabled": 0, "is_reserved": 0, "lon": -77.028193, "type": "electric_scooter", "fusion_lat": 0.0, "rental_uris": {"android": "https://dc.lft.to/lastmile_qr_scan", "ios": "https://dc.lft.to/lastmile_qr_scan"}}, {"bike_id": "f1432c405c919df58301456f84f1266c", "fusion_lon": 0.0, "name": "f1432c405c919df58301456f84f1266c", "lat": 38.91189766666667, "is_disabled": 0, "is_reserved": 0, "lon": -77.0072865, "type": "electric_scooter", "fusion_lat": 0.0, "rental_uris": {"android": "https://dc.lft.to/lastmile_qr_scan", "ios": "https://dc.lft.to/lastmile_qr_scan"}}, {"bike_id": "fec4b660ba11646c9efbe6b99ae52696", "fusion_lon": 0.0, "name": "fec4b660ba11646c9efbe6b99ae52696", "lat": 38.87798766666667, "is_disabled": 0, "is_reserved": 0, "lon": -77.00119983333333, "type": "electric_scooter", "fusion_lat": 0.0, "rental_uris": {"android": "https://dc.lft.to/lastmile_qr_scan", "ios": "https://dc.lft.to/lastmile_qr_scan"}}, {"bike_id": "82e94279e2e1f4025034fa0740858493", "fusion_lon": 0.0, "name": "82e94279e2e1f4025034fa0740858493", "lat": 38.9182615, "is_disabled": 0, "is_reserved": 0, "lon": -77.041681, "type": "electric_scooter", "fusion_lat": 0.0, "rental_uris": {"android": "https://dc.lft.to/lastmile_qr_scan", "ios": "https://dc.lft.to/lastmile_qr_scan"}}, {"bike_id": "acd4460f88130f406a581b4506462274", "fusion_lon": 0.0, "name": "acd4460f88130f406a581b4506462274", "lat": 38.93513766666667, "is_disabled": 0, "is_reserved": 0, "lon": -77.05840233333333, "type": "electric_scooter", "fusion_lat": 0.0, "rental_uris": {"android": "https://dc.lft.to/lastmile_qr_scan", "ios": "https://dc.lft.to/lastmile_qr_scan"}}, {"bike_id": "112166ace1797b619a96689cb83e186b", "fusion_lon": 0.0, "name": "112166ace1797b619a96689cb83e186b", "lat": 38.887486333333335, "is_disabled": 0, "is_reserved": 0, "lon": -77.02121516666666, "type": "electric_scooter", "fusion_lat": 0.0, "rental_uris": {"android": "https://dc.lft.to/lastmile_qr_scan", "ios": "https://dc.lft.to/lastmile_qr_scan"}}, {"bike_id": "7161f17183eaa2b9552628e3a636b184", "fusion_lon": 0.0, "name": "7161f17183eaa2b9552628e3a636b184", "lat": 38.89844933333333, "is_disabled": 0, "is_reserved": 0, "lon": -77.02912533333334, "type": "electric_scooter", "fusion_lat": 0.0, "rental_uris": {"android": "https://dc.lft.to/lastmile_qr_scan", "ios": "https://dc.lft.to/lastmile_qr_scan"}}, {"bike_id": "c05e40e0f4671edef9d7d9021be32c10", "fusion_lon": 0.0, "name": "c05e40e0f4671edef9d7d9021be32c10", "lat": 38.88409683333333, "is_disabled": 0, "is_reserved": 0, "lon": -76.95412666666667, "type": "electric_bike", "fusion_lat": 0.0, "rental_uris": {"android": "https://dc.lft.to/lastmile_qr_scan", "ios": "https://dc.lft.to/lastmile_qr_scan"}}, {"bike_id": "d9b3be620830271dd7bdc8440d370a16", "fusion_lon": 0.0, "name": "d9b3be620830271dd7bdc8440d370a16", "lat": 38.906854333333335, "is_disabled": 0, "is_reserved": 0, "lon": -77.07178316666666, "type": "electric_scooter", "fusion_lat": 0.0, "rental_uris": {"android": "https://dc.lft.to/lastmile_qr_scan", "ios": "https://dc.lft.to/lastmile_qr_scan"}}, {"bike_id": "b390f8a28079a7940c0ec1513eb63d22", "fusion_lon": 0.0, "name": "b390f8a28079a7940c0ec1513eb63d22", "lat": 38.901423666666666, "is_disabled": 0, "is_reserved": 0, "lon": -77.06073666666667, "type": "electric_scooter", "fusion_lat": 0.0, "rental_uris": {"android": "https://dc.lft.to/lastmile_qr_scan", "ios": "https://dc.lft.to/lastmile_qr_scan"}}, {"bike_id": "8c4828aed68005179d05c5d6bf01ab20", "fusion_lon": 0.0, "name": "8c4828aed68005179d05c5d6bf01ab20", "lat": 38.900458666666665, "is_disabled": 0, "is_reserved": 0, "lon": -77.00073183333333, "type": "electric_scooter", "fusion_lat": 0.0, "rental_uris": {"android": "https://dc.lft.to/lastmile_qr_scan", "ios": "https://dc.lft.to/lastmile_qr_scan"}}, {"bike_id": "689ed2d9d4340985d92f2eb7347ff2b0", "fusion_lon": 0.0, "name": "689ed2d9d4340985d92f2eb7347ff2b0", "lat": 38.951821333333335, "is_disabled": 0, "is_reserved": 0, "lon": -77.02720916666667, "type": "electric_scooter", "fusion_lat": 0.0, "rental_uris": {"android": "https://dc.lft.to/lastmile_qr_scan", "ios": "https://dc.lft.to/lastmile_qr_scan"}}, {"bike_id": "2836212f806f2c7d6c3bce2caab884d2", "fusion_lon": 0.0, "name": "2836212f806f2c7d6c3bce2caab884d2", "lat": 38.902669333333336, "is_disabled": 0, "is_reserved": 0, "lon": -77.05328583333333, "type": "electric_scooter", "fusion_lat": 0.0, "rental_uris": {"android": "https://dc.lft.to/lastmile_qr_scan", "ios": "https://dc.lft.to/lastmile_qr_scan"}}, {"bike_id": "b70378974f3297150c548684b8699a61", "fusion_lon": 0.0, "name": "b70378974f3297150c548684b8699a61", "lat": 38.90767483333333, "is_disabled": 0, "is_reserved": 0, "lon": -77.03209683333333, "type": "electric_scooter", "fusion_lat": 0.0, "rental_uris": {"android": "https://dc.lft.to/lastmile_qr_scan", "ios": "https://dc.lft.to/lastmile_qr_scan"}}, {"bike_id": "fe5435454614d67077a64a9c96412d40", "fusion_lon": 0.0, "name": "fe5435454614d67077a64a9c96412d40", "lat": 38.9247295, "is_disabled": 0, "is_reserved": 0, "lon": -77.02554683333334, "type": "electric_scooter", "fusion_lat": 0.0, "rental_uris": {"android": "https://dc.lft.to/lastmile_qr_scan", "ios": "https://dc.lft.to/lastmile_qr_scan"}}, {"bike_id": "c3c3514b704602fae47e398cfd3b7535", "fusion_lon": 0.0, "name": "c3c3514b704602fae47e398cfd3b7535", "lat": 38.9213165, "is_disabled": 0, "is_reserved": 0, "lon": -77.03660366666666, "type": "electric_scooter", "fusion_lat": 0.0, "rental_uris": {"android": "https://dc.lft.to/lastmile_qr_scan", "ios": "https://dc.lft.to/lastmile_qr_scan"}}, {"bike_id": "8dceb9f373ae8005f02e40913cedc5cf", "fusion_lon": 0.0, "name": "8dceb9f373ae8005f02e40913cedc5cf", "lat": 38.917984833333335, "is_disabled": 0, "is_reserved": 0, "lon": -77.0344085, "type": "electric_scooter", "fusion_lat": 0.0, "rental_uris": {"android": "https://dc.lft.to/lastmile_qr_scan", "ios": "https://dc.lft.to/lastmile_qr_scan"}}, {"bike_id": "461f18590193088fd8e363f466e90f48", "fusion_lon": 0.0, "name": "461f18590193088fd8e363f466e90f48", "lat": 38.89670566666667, "is_disabled": 0, "is_reserved": 0, "lon": -76.9320965, "type": "electric_scooter", "fusion_lat": 0.0, "rental_uris": {"android": "https://dc.lft.to/lastmile_qr_scan", "ios": "https://dc.lft.to/lastmile_qr_scan"}}, {"bike_id": "4de9d0678456055ac6e784c8af3cccc9", "fusion_lon": 0.0, "name": "4de9d0678456055ac6e784c8af3cccc9", "lat": 38.9305635, "is_disabled": 0, "is_reserved": 0, "lon": -77.01864416666666, "type": "electric_scooter", "fusion_lat": 0.0, "rental_uris": {"android": "https://dc.lft.to/lastmile_qr_scan", "ios": "https://dc.lft.to/lastmile_qr_scan"}}, {"bike_id": "37454543249aec36214369498a9b64c4", "fusion_lon": 0.0, "name": "37454543249aec36214369498a9b64c4", "lat": 38.903511333333334, "is_disabled": 0, "is_reserved": 0, "lon": -76.97476, "type": "electric_scooter", "fusion_lat": 0.0, "rental_uris": {"android": "https://dc.lft.to/lastmile_qr_scan", "ios": "https://dc.lft.to/lastmile_qr_scan"}}, {"bike_id": "4735930597e4073278a5ef39f0b2b665", "fusion_lon": 0.0, "name": "4735930597e4073278a5ef39f0b2b665", "lat": 38.919599, "is_disabled": 0, "is_reserved": 0, "lon": -77.04170916666666, "type": "electric_scooter", "fusion_lat": 0.0, "rental_uris": {"android": "https://dc.lft.to/lastmile_qr_scan", "ios": "https://dc.lft.to/lastmile_qr_scan"}}, {"bike_id": "f1740f3680398185dc901818d8c96e60", "fusion_lon": 0.0, "name": "f1740f3680398185dc901818d8c96e60", "lat": 38.89766433333333, "is_disabled": 0, "is_reserved": 0, "lon": -77.0089735, "type": "electric_scooter", "fusion_lat": 0.0, "rental_uris": {"android": "https://dc.lft.to/lastmile_qr_scan", "ios": "https://dc.lft.to/lastmile_qr_scan"}}, {"bike_id": "717a74d1e3093841988778af488bc9ef", "fusion_lon": 0.0, "name": "717a74d1e3093841988778af488bc9ef", "lat": 38.883051333333334, "is_disabled": 0, "is_reserved": 0, "lon": -77.01393666666667, "type": "electric_scooter", "fusion_lat": 0.0, "rental_uris": {"android": "https://dc.lft.to/lastmile_qr_scan", "ios": "https://dc.lft.to/lastmile_qr_scan"}}, {"bike_id": "456e1ff52d75471733fb196ecd0cce20", "fusion_lon": 0.0, "name": "456e1ff52d75471733fb196ecd0cce20", "lat": 38.89624933333333, "is_disabled": 0, "is_reserved": 0, "lon": -77.0407055, "type": "electric_scooter", "fusion_lat": 0.0, "rental_uris": {"android": "https://dc.lft.to/lastmile_qr_scan", "ios": "https://dc.lft.to/lastmile_qr_scan"}}, {"bike_id": "e5a5843693b9b887490a0f7182e2c4a9", "fusion_lon": 0.0, "name": "e5a5843693b9b887490a0f7182e2c4a9", "lat": 38.93020716666667, "is_disabled": 0, "is_reserved": 0, "lon": -77.0379205, "type": "electric_scooter", "fusion_lat": 0.0, "rental_uris": {"android": "https://dc.lft.to/lastmile_qr_scan", "ios": "https://dc.lft.to/lastmile_qr_scan"}}, {"bike_id": "9a6b4857d38e51873e7a0c36f3fa0bf4", "fusion_lon": 0.0, "name": "9a6b4857d38e51873e7a0c36f3fa0bf4", "lat": 38.901428833333334, "is_disabled": 0, "is_reserved": 0, "lon": -77.06075933333334, "type": "electric_scooter", "fusion_lat": 0.0, "rental_uris": {"android": "https://dc.lft.to/lastmile_qr_scan", "ios": "https://dc.lft.to/lastmile_qr_scan"}}, {"bike_id": "a9b9ad5c10620f615541c1c30218dc7a", "fusion_lon": 0.0, "name": "a9b9ad5c10620f615541c1c30218dc7a", "lat": 38.892264, "is_disabled": 0, "is_reserved": 0, "lon": -77.04330666666667, "type": "electric_scooter", "fusion_lat": 0.0, "rental_uris": {"android": "https://dc.lft.to/lastmile_qr_scan", "ios": "https://dc.lft.to/lastmile_qr_scan"}}, {"bike_id": "aa33ea2bb995f804e66b8dcf7566dccb", "fusion_lon": 0.0, "name": "aa33ea2bb995f804e66b8dcf7566dccb", "lat": 38.911568833333334, "is_disabled": 0, "is_reserved": 0, "lon": -77.002441, "type": "electric_bike", "fusion_lat": 0.0, "rental_uris": {"android": "https://dc.lft.to/lastmile_qr_scan", "ios": "https://dc.lft.to/lastmile_qr_scan"}}, {"bike_id": "ffcb7b23ef31dfaa73ac9d6db1508d8e", "fusion_lon": 0.0, "name": "ffcb7b23ef31dfaa73ac9d6db1508d8e", "lat": 38.90304866666666, "is_disabled": 0, "is_reserved": 0, "lon": -77.0650475, "type": "electric_scooter", "fusion_lat": 0.0, "rental_uris": {"android": "https://dc.lft.to/lastmile_qr_scan", "ios": "https://dc.lft.to/lastmile_qr_scan"}}, {"bike_id": "764e1a6c9cbe25c7d40d4d42cc35ef0c", "fusion_lon": 0.0, "name": "764e1a6c9cbe25c7d40d4d42cc35ef0c", "lat": 38.9056075, "is_disabled": 0, "is_reserved": 0, "lon": -77.01312383333334, "type": "electric_scooter", "fusion_lat": 0.0, "rental_uris": {"android": "https://dc.lft.to/lastmile_qr_scan", "ios": "https://dc.lft.to/lastmile_qr_scan"}}, {"bike_id": "0ed005018765491e68a4458cd0ce5680", "fusion_lon": 0.0, "name": "0ed005018765491e68a4458cd0ce5680", "lat": 38.91799066666667, "is_disabled": 0, "is_reserved": 0, "lon": -77.03436916666666, "type": "electric_scooter", "fusion_lat": 0.0, "rental_uris": {"android": "https://dc.lft.to/lastmile_qr_scan", "ios": "https://dc.lft.to/lastmile_qr_scan"}},