{"data": {"bikes": [{"bike_id": "54af1eef02ec007aace3e84c8a32ef5e", "type": "electric_scooter", "is_disabled": 0, "lat": 38.915861166666666, "rental_uris": {"ios": "https://dc.lft.to/lastmile_qr_scan", "android": "https://dc.lft.to/lastmile_qr_scan"}, "is_reserved": 0, "fusion_lon": 0.0, "fusion_lat": 0.0, "lon": -77.011407, "name": "54af1eef02ec007aace3e84c8a32ef5e"}, {"bike_id": "a9a07018e326d8b180653b6da8e74fcd", "type": "electric_scooter", "is_disabled": 0, "lat": 38.93261116666667, "rental_uris": {"ios": "https://dc.lft.to/lastmile_qr_scan", "android": "https://dc.lft.to/lastmile_qr_scan"}, "is_reserved": 0, "fusion_lon": 0.0, "fusion_lat": 0.0, "lon": -77.039027, "name": "a9a07018e326d8b180653b6da8e74fcd"}, {"bike_id": "44bc2cf86feb3ae826d4fd7b57e53e7c", "type": "electric_scooter", "is_disabled": 0, "lat": 38.897530333333336, "rental_uris": {"ios": "https://dc.lft.to/lastmile_qr_scan", "android": "https://dc.lft.to/lastmile_qr_scan"}, "is_reserved": 0, "fusion_lon": 0.0, "fusion_lat": 0.0, "lon": -77.051391, "name": "44bc2cf86feb3ae826d4fd7b57e53e7c"}, {"bike_id": "b35aae52432efdb0bf419b252f2d9d59", "type": "electric_scooter", "is_disabled": 0, "lat": 38.93683016666667, "rental_uris": {"ios": "https://dc.lft.to/lastmile_qr_scan", "android": "https://dc.lft.to/lastmile_qr_scan"}, "is_reserved": 0, "fusion_lon": 0.0, "fusion_lat": 0.0, "lon": -77.06625683333333, "name": "b35aae52432efdb0bf419b252f2d9d59"}, {"bike_id": "312d94620e5f9fddb6b8a572e926ec2f", "type": "electric_scooter", "is_disabled": 0, "lat": 38.89293333333333, "rental_uris": {"ios": "https://dc.lft.to/lastmile_qr_scan", "android": "https://dc.lft.to/lastmile_qr_scan"}, "is_reserved": 0, "fusion_lon": 0.0, "fusion_lat": 0.0, "lon": -77.04873133333334, "name": "312d94620e5f9fddb6b8a572e926ec2f"}, {"bike_id": "af2a9440e52b85c5f6d8f8389d70f04b", "type": "electric_scooter", "is_disabled": 0, "lat": 38.91550383333333, "rental_uris": {"ios": "https://dc.lft.to/lastmile_qr_scan", "android": "https://dc.lft.to/lastmile_qr_scan"}, "is_reserved": 0, "fusion_lon": 0.0, "fusion_lat": 0.0, "lon": -77.0317345, "name": "af2a9440e52b85c5f6d8f8389d70f04b"}, {"bike_id": "480fc39e92e3e0d0bb44d637f0ef1282", "type": "electric_scooter", "is_disabled": 0, "lat": 38.90407916666667, "rental_uris": {"ios": "https://dc.lft.to/lastmile_qr_scan", "android": "https://dc.lft.to/lastmile_qr_scan"}, "is_reserved": 0, "fusion_lon": 0.0, "fusion_lat": 0.0, "lon": -77.02506633333333, "name": "480fc39e92e3e0d0bb44d637f0ef1282"}, {"bike_id": "dff6f820735cc2bd04b10758e3f363b6", "type": "electric_scooter", "is_disabled": 0, "lat": 38.911718, "rental_uris": {"ios": "https://dc.lft.to/lastmile_qr_scan", "android": "https://dc.lft.to/lastmile_qr_scan"}, "is_reserved": 0, "fusion_lon": 0.0, "fusion_lat": 0.0, "lon": -77.00212716666667, "name": "dff6f820735cc2bd04b10758e3f363b6"}, {"bike_id": "2c51da888d9784113406aa755fb91fb4", "type": "electric_scooter", "is_disabled": 0, "lat": 38.90889266666667, "rental_uris": {"ios": "https://dc.lft.to/lastmile_qr_scan", "android": "https://dc.lft.to/lastmile_qr_scan"}, "is_reserved": 0, "fusion_lon": 0.0, "fusion_lat": 0.0, "lon": -77.0449755, "name": "2c51da888d9784113406aa755fb91fb4"}, {"bike_id": "5e3909d780fd743ccece2ceb21ceb96b", "type": "electric_bike", "is_disabled": 0, "lat": 38.89694016666667, "rental_uris": {"ios": "https://dc.lft.to/lastmile_qr_scan", "android": "https://dc.lft.to/lastmile_qr_scan"}, "is_reserved": 0, "fusion_lon": 0.0, "fusion_lat": 0.0, "lon": -77.08644783333334, "name": "5e3909d780fd743ccece2ceb21ceb96b"}, {"bike_id": "d6d2eb803c954824706d5bb4dd40692d", "type": "electric_scooter", "is_disabled": 0, "lat": 38.922949333333335, "rental_uris": {"ios": "https://dc.lft.to/lastmile_qr_scan", "android": "https://dc.lft.to/lastmile_qr_scan"}, "is_reserved": 0, "fusion_lon": 0.0, "fusion_lat": 0.0, "lon": -77.07302383333334, "name": "d6d2eb803c954824706d5bb4dd40692d"}, {"bike_id": "a6965db7782fb4ec7c8a377093794fb4", "type": "electric_scooter", "is_disabled": 0, "lat": 38.905592666666664, "rental_uris": {"ios": "https://dc.lft.to/lastmile_qr_scan", "android": "https://dc.lft.to/lastmile_qr_scan"}, "is_reserved": 0, "fusion_lon": 0.0, "fusion_lat": 0.0, "lon": -77.04372716666667, "name": "a6965db7782fb4ec7c8a377093794fb4"}, {"bike_id": "6db9a0e5a30d2cbbf82264f9e3eff7b7", "type": "electric_scooter", "is_disabled": 0, "lat": 38.930949, "rental_uris": {"ios": "https://dc.lft.to/lastmile_qr_scan", "android": "https://dc.lft.to/lastmile_qr_scan"}, "is_reserved": 0, "fusion_lon": 0.0, "fusion_lat": 0.0, "lon": -77.03474416666667, "name": "6db9a0e5a30d2cbbf82264f9e3eff7b7"}, {"bike_id": "c999c7599f831e58e0e374443555358d", "type": "electric_scooter", "is_disabled": 0, "lat": 38.931468, "rental_uris": {"ios": "https://dc.lft.to/lastmile_qr_scan", "android": "https://dc.lft.to/lastmile_qr_scan"}, "is_reserved": 0, "fusion_lon": 0.0, "fusion_lat": 0.0, "lon": -77.0335115, "name": "c999c7599f831e58e0e374443555358d"}, {"bike_id": "5563650079446f7d1f9ff3dc50783d46", "type": "electric_scooter", "is_disabled": 0, "lat": 38.90954633333333, "rental_uris": {"ios": "https://dc.lft.to/lastmile_qr_scan", "android": "https://dc.lft.to/lastmile_qr_scan"}, "is_reserved": 0, "fusion_lon": 0.0, "fusion_lat": 0.0, "lon": -77.022857, "name": "5563650079446f7d1f9ff3dc50783d46"}, {"bike_id": "901649c9b73b28043a92469004b59b53", "type": "electric_bike", "is_disabled": 0, "lat": 38.978792166666665, "rental_uris": {"ios": "https://dc.lft.to/lastmile_qr_scan", "android": "https://dc.lft.to/lastmile_qr_scan"}, "is_reserved": 0, "fusion_lon": 0.0, "fusion_lat": 0.0, "lon": -77.06028033333334, "name": "901649c9b73b28043a92469004b59b53"}, {"bike_id": "4733adc2013bfe56439c40494a2a8dfc", "type": "electric_scooter", "is_disabled": 0, "lat": 38.90179966666667, "rental_uris": {"ios": "https://dc.lft.to/lastmile_qr_scan", "android": "https://dc.lft.to/lastmile_qr_scan"}, "is_reserved": 0, "fusion_lon": 0.0, "fusion_lat": 0.0, "lon": -77.01298166666666, "name": "4733adc2013bfe56439c40494a2a8dfc"}, {"bike_id": "4c571884449acf366c18a1273b010521", "type": "electric_scooter", "is_disabled": 0, "lat": 38.909637833333335, "rental_uris": {"ios": "https://dc.lft.to/lastmile_qr_scan", "android": "https://dc.lft.to/lastmile_qr_scan"}, "is_reserved": 0, "fusion_lon": 0.0, "fusion_lat": 0.0, "lon": -77.04792133333333, "name": "4c571884449acf366c18a1273b010521"}, {"bike_id": "5a91e2f08ca67ff03ce2f52883d2ce32", "type": "electric_scooter", "is_disabled": 0, "lat": 38.936185, "rental_uris": {"ios": "https://dc.lft.to/lastmile_qr_scan", "android": "https://dc.lft.to/lastmile_qr_scan"}, "is_reserved": 0, "fusion_lon": 0.0, "fusion_lat": 0.0, "lon": -76.9761125, "name": "5a91e2f08ca67ff03ce2f52883d2ce32"}, {"bike_id": "460ff1c16565d3c2f422a23b24c427bd", "type": "electric_scooter", "is_disabled": 0, "lat": 38.89478583333333, "rental_uris": {"ios": "https://dc.lft.to/lastmile_qr_scan", "android": "https://dc.lft.to/lastmile_qr_scan"}, "is_reserved": 0, "fusion_lon": 0.0, "fusion_lat": 0.0, "lon": -76.94856300000001, "name": "460ff1c16565d3c2f422a23b24c427bd"}, {"bike_id": "259926307e2c4bea3aec3336635c7fbe", "type": "electric_scooter", "is_disabled": 0, "lat": 38.87662733333333, "rental_uris": {"ios": "https://dc.lft.to/lastmile_qr_scan", "android": "https://dc.lft.to/lastmile_qr_scan"}, "is_reserved": 0, "fusion_lon": 0.0, "fusion_lat": 0.0, "lon": -77.0044685, "name": "259926307e2c4bea3aec3336635c7fbe"}, {"bike_id": "d60c3321b0ed4151f5ee17fddf68fcbf", "type": "electric_scooter", "is_disabled": 0, "lat": 38.908457, "rental_uris": {"ios": "https://dc.lft.to/lastmile_qr_scan", "android": "https://dc.lft.to/lastmile_qr_scan"}, "is_reserved": 0, "fusion_lon": 0.0, "fusion_lat": 0.0, "lon": -77.0271055, "name": "d60c3321b0ed4151f5ee17fddf68fcbf"}, {"bike_id": "bcddeaabb089118f1bbe18ea9f1c7190", "type": "electric_scooter", "is_disabled": 0, "lat": 38.92321116666667, "rental_uris": {"ios": "https://dc.lft.to/lastmile_qr_scan", "android": "https://dc.lft.to/lastmile_qr_scan"}, "is_reserved": 0, "fusion_lon": 0.0, "fusion_lat": 0.0, "lon": -77.0463875, "name": "bcddeaabb089118f1bbe18ea9f1c7190"}, {"bike_id": "b43b60eebb4a5189c5429f05078d97de", "type": "electric_scooter", "is_disabled": 0, "lat": 38.9139685, "rental_uris": {"ios": "https://dc.lft.to/lastmile_qr_scan", "android": "https://dc.lft.to/lastmile_qr_scan"}, "is_reserved": 0, "fusion_lon": 0.0, "fusion_lat": 0.0, "lon": -77.01793683333334, "name": "b43b60eebb4a5189c5429f05078d97de"}, {"bike_id": "8eda6b9900e249f97b995f3c50f17422", "type": "electric_scooter", "is_disabled": 0, "lat": 38.89539583333333, "rental_uris": {"ios": "https://dc.lft.to/lastmile_qr_scan", "android": "https://dc.lft.to/lastmile_qr_scan"}, "is_reserved": 0, "fusion_lon": 0.0, "fusion_lat": 0.0, "lon": -76.98862, "name": "8eda6b9900e249f97b995f3c50f17422"}, {"bike_id": "579e5bea0875ff68d2c7c8f3c363a73c", "type": "electric_scooter", "is_disabled": 0, "lat": 38.902654166666665, "rental_uris": {"ios": "https://dc.lft.to/lastmile_qr_scan", "android": "https://dc.lft.to/lastmile_qr_scan"}, "is_reserved": 0, "fusion_lon": 0.0, "fusion_lat": 0.0, "lon": -77.00254183333334, "name": "579e5bea0875ff68d2c7c8f3c363a73c"}, {"bike_id": "10baf28478e3bd30dc3f07ee163d4de2", "type": "electric_scooter", "is_disabled": 0, "lat": 38.902365833333334, "rental_uris": {"ios": "https://dc.lft.to/lastmile_qr_scan", "android": "https://dc.lft.to/lastmile_qr_scan"}, "is_reserved": 0, "fusion_lon": 0.0, "fusion_lat": 0.0, "lon": -77.047007, "name": "10baf28478e3bd30dc3f07ee163d4de2"}, {"bike_id": "9dc4e22dd493dcef8fbfb0a294c5a662", "type": "electric_scooter", "is_disabled": 0, "lat": 38.91105066666667, "rental_uris": {"ios": "https://dc.lft.to/lastmile_qr_scan", "android": "https://dc.lft.to/lastmile_qr_scan"}, "is_reserved": 0, "fusion_lon": 0.0, "fusion_lat": 0.0, "lon": -77.04897716666666, "name": "9dc4e22dd493dcef8fbfb0a294c5a662"}, {"bike_id": "3ff67561d17f47a3b0ffb5a9ba52f30a", "type": "electric_scooter", "is_disabled": 0, "lat": 38.84533616666667, "rental_uris": {"ios": "https://dc.lft.to/lastmile_qr_scan", "android": "https://dc.lft.to/lastmile_qr_scan"}, "is_reserved": 0, "fusion_lon": 0.0, "fusion_lat": 0.0, "lon": -76.9855065, "name": "3ff67561d17f47a3b0ffb5a9ba52f30a"}, {"bike_id": "b08fcb5881ceabc59f76c1728e00bbb8", "type": "electric_scooter", "is_disabled": 0, "lat": 38.907860166666666, "rental_uris": {"ios": "https://dc.lft.to/lastmile_qr_scan", "android": "https://dc.lft.to/lastmile_qr_scan"}, "is_reserved": 0, "fusion_lon": 0.0, "fusion_lat": 0.0, "lon": -77.03859283333334, "name": "b08fcb5881ceabc59f76c1728e00bbb8"}, {"bike_id": "4cf04a8e900ec790d51e36aed1e770e1", "type": "electric_bike", "is_disabled": 0, "lat": 38.8651145, "rental_uris": {"ios": "https://dc.lft.to/lastmile_qr_scan", "android": "https://dc.lft.to/lastmile_qr_scan"}, "is_reserved": 0, "fusion_lon": 0.0, "fusion_lat": 0.0, "lon": -76.97339883333333, "name": "4cf04a8e900ec790d51e36aed1e770e1"}, {"bike_id": "da19751de7931f2e745fe62441766fe9", "type": "electric_scooter", "is_disabled": 0, "lat": 38.938686, "rental_uris": {"ios": "https://dc.lft.to/lastmile_qr_scan", "android": "https://dc.lft.to/lastmile_qr_scan"}, "is_reserved": 0, "fusion_lon": 0.0, "fusion_lat": 0.0, "lon": -77.07787216666667, "name": "da19751de7931f2e745fe62441766fe9"}, {"bike_id": "7a2278aa61bf23c8000ea9f12f9ffec2", "type": "electric_scooter", "is_disabled": 0, "lat": 38.92223116666667, "rental_uris": {"ios": "https://dc.lft.to/lastmile_qr_scan", "android": "https://dc.lft.to/lastmile_qr_scan"}, "is_reserved": 0, "fusion_lon": 0.0, "fusion_lat": 0.0, "lon": -77.02374833333333, "name": "7a2278aa61bf23c8000ea9f12f9ffec2"}, {"bike_id": "4dc4a916fab41d782ec8662ed7a0b929", "type": "electric_scooter", "is_disabled": 0, "lat": 38.907196, "rental_uris": {"ios": "https://dc.lft.to/lastmile_qr_scan", "android": "https://dc.lft.to/lastmile_qr_scan"}, "is_reserved": 0, "fusion_lon": 0.0, "fusion_lat": 0.0, "lon": -77.02242483333333, "name": "4dc4a916fab41d782ec8662ed7a0b929"}, {"bike_id": "78d96aa542cf19c94d3eda95fcc7c94a", "type": "electric_scooter", "is_disabled": 0, "lat": 38.91132783333333, "rental_uris": {"ios": "https://dc.lft.to/lastmile_qr_scan", "android": "https://dc.lft.to/lastmile_qr_scan"}, "is_reserved": 0, "fusion_lon": 0.0, "fusion_lat": 0.0, "lon": -77.021967, "name": "78d96aa542cf19c94d3eda95fcc7c94a"}, {"bike_id": "2352c5f420c4ae77e86423c2e96dc9b4", "type": "electric_scooter", "is_disabled": 0, "lat": 38.843144333333335, "rental_uris": {"ios": "https://dc.lft.to/lastmile_qr_scan", "android": "https://dc.lft.to/lastmile_qr_scan"}, "is_reserved": 0, "fusion_lon": 0.0, "fusion_lat": 0.0, "lon": -76.99923833333334, "name": "2352c5f420c4ae77e86423c2e96dc9b4"}, {"bike_id": "f62c05977442fbefabb01073ad6e41bc", "type": "electric_scooter", "is_disabled": 0, "lat": 38.906619666666664, "rental_uris": {"ios": "https://dc.lft.to/lastmile_qr_scan", "android": "https://dc.lft.to/lastmile_qr_scan"}, "is_reserved": 0, "fusion_lon": 0.0, "fusion_lat": 0.0, "lon": -77.0612565, "name": "f62c05977442fbefabb01073ad6e41bc"}, {"bike_id": "b92682b19f4471b38a53cdcbd855124a", "type": "electric_scooter", "is_disabled": 0, "lat": 38.921788, "rental_uris": {"ios": "https://dc.lft.to/lastmile_qr_scan", "android": "https://dc.lft.to/lastmile_qr_scan"}, "is_reserved": 0, "fusion_lon": 0.0, "fusion_lat": 0.0, "lon": -76.99793416666667, "name": "b92682b19f4471b38a53cdcbd855124a"}, {"bike_id": "cb44142fe0f3cd0a6c04ddc76c6d75e6", "type": "electric_scooter", "is_disabled": 0, "lat": 38.85895266666667, "rental_uris": {"ios": "https://dc.lft.to/lastmile_qr_scan", "android": "https://dc.lft.to/lastmile_qr_scan"}, "is_reserved": 0, "fusion_lon": 0.0, "fusion_lat": 0.0, "lon": -76.99729416666666, "name": "cb44142fe0f3cd0a6c04ddc76c6d75e6"}, {"bike_id": "eda911752950c239994cddf9a78b1688", "type": "electric_scooter", "is_disabled": 0, "lat": 38.90954983333334, "rental_uris": {"ios": "https://dc.lft.to/lastmile_qr_scan", "android": "https://dc.lft.to/lastmile_qr_scan"}, "is_reserved": 0, "fusion_lon": 0.0, "fusion_lat": 0.0, "lon": -77.01429983333334, "name": "eda911752950c239994cddf9a78b1688"}, {"bike_id": "d41206fee52bdc67bd9a4833ee21f6eb", "type": "electric_bike", "is_disabled": 0, "lat": 38.863718, "rental_uris": {"ios": "https://dc.lft.to/lastmile_qr_scan", "android": "https://dc.lft.to/lastmile_qr_scan"}, "is_reserved": 0, "fusion_lon": 0.0, "fusion_lat": 0.0, "lon": -76.97006316666666, "name": "d41206fee52bdc67bd9a4833ee21f6eb"}, {"bike_id": "245b27b388b4c321c3c56aecbb636d6b", "type": "electric_scooter", "is_disabled": 0, "lat": 38.878131, "rental_uris": {"ios": "https://dc.lft.to/lastmile_qr_scan", "android": "https://dc.lft.to/lastmile_qr_scan"}, "is_reserved": 0, "fusion_lon": 0.0, "fusion_lat": 0.0, "lon": -76.9717405, "name": "245b27b388b4c321c3c56aecbb636d6b"}, {"bike_id": "6402255f456e1b83393eecd95a81373d", "type": "electric_scooter", "is_disabled": 0, "lat": 38.9205505, "rental_uris": {"ios": "https://dc.lft.to/lastmile_qr_scan", "android": "https://dc.lft.to/lastmile_qr_scan"}, "is_reserved": 0, "fusion_lon": 0.0, "fusion_lat": 0.0, "lon": -77.024361, "name": "6402255f456e1b83393eecd95a81373d"}, {"bike_id": "d316d9f390de7b4daacd262054dd1a17", "type": "electric_scooter", "is_disabled": 0, "lat": 38.8814595, "rental_uris": {"ios": "https://dc.lft.to/lastmile_qr_scan", "android": "https://dc.lft.to/lastmile_qr_scan"}, "is_reserved": 0, "fusion_lon": 0.0, "fusion_lat": 0.0, "lon": -77.0273985, "name": "d316d9f390de7b4daacd262054dd1a17"}, {"bike_id": "aa8120caf1eac6c8a03778df3da30b34", "type": "electric_scooter", "is_disabled": 0, "lat": 38.937703, "rental_uris": {"ios": "https://dc.lft.to/lastmile_qr_scan", "android": "https://dc.lft.to/lastmile_qr_scan"}, "is_reserved": 0, "fusion_lon": 0.0, "fusion_lat": 0.0, "lon": -77.01966783333333, "name": "aa8120caf1eac6c8a03778df3da30b34"}, {"bike_id": "8150a8ed20e263be8dc1db4262f02854", "type": "electric_scooter", "is_disabled": 0, "lat": 38.89985133333333, "rental_uris": {"ios": "https://dc.lft.to/lastmile_qr_scan", "android": "https://dc.lft.to/lastmile_qr_scan"}, "is_reserved": 0, "fusion_lon": 0.0, "fusion_lat": 0.0, "lon": -76.95002766666667, "name": "8150a8ed20e263be8dc1db4262f02854"}, {"bike_id": "8f2248a7bd96ee5bcab8a6d983be44fc", "type": "electric_bike", "is_disabled": 0, "lat": 38.85771233333333, "rental_uris": {"ios": "https://dc.lft.to/lastmile_qr_scan", "android": "https://dc.lft.to/lastmile_qr_scan"}, "is_reserved": 0, "fusion_lon": 0.0, "fusion_lat": 0.0, "lon": -76.987666, "name": "8f2248a7bd96ee5bcab8a6d983be44fc"}, {"bike_id": "76f30a57abcdaab9d8313cbf8034c6f8", "type": "electric_scooter", "is_disabled": 0, "lat": 38.9330585, "rental_uris": {"ios": "https://dc.lft.to/lastmile_qr_scan", "android": "https://dc.lft.to/lastmile_qr_scan"}, "is_reserved": 0, "fusion_lon": 0.0, "fusion_lat": 0.0, "lon": -77.032651, "name": "76f30a57abcdaab9d8313cbf8034c6f8"}, {"bike_id": "880f07e2a897ebede52b8a1bb3ffeb7d", "type": "electric_scooter", "is_disabled": 0, "lat": 38.913021, "rental_uris": {"ios": "https://dc.lft.to/lastmile_qr_scan", "android": "https://dc.lft.to/lastmile_qr_scan"}, "is_reserved": 0, "fusion_lon": 0.0, "fusion_lat": 0.0, "lon": -77.04559416666666, "name": "880f07e2a897ebede52b8a1bb3ffeb7d"}, {"bike_id": "c7196cc8b0bb6485e393b0a825b4a5dc", "type": "electric_scooter", "is_disabled": 0, "lat": 38.91418516666667, "rental_uris": {"ios": "https://dc.lft.to/lastmile_qr_scan", "android": "https://dc.lft.to/lastmile_qr_scan"}, "is_reserved": 0, "fusion_lon": 0.0, "fusion_lat": 0.0, "lon": -77.048066, "name": "c7196cc8b0bb6485e393b0a825b4a5dc"}, {"bike_id": "3509bc992fa4eb32219a2783019d444f", "type": "electric_bike", "is_disabled": 0, "lat": 38.9101455, "rental_uris": {"ios": "https://dc.lft.to/lastmile_qr_scan", "android": "https://dc.lft.to/lastmile_qr_scan"}, "is_reserved": 0, "fusion_lon": 0.0, "fusion_lat": 0.0, "lon": -77.227966, "name": "3509bc992fa4eb32219a2783019d444f"}, {"bike_id": "2c89041f6a76e4e08e3df4b12556cbdc", "type": "electric_scooter", "is_disabled": 0, "lat": 38.902381, "rental_uris": {"ios": "https://dc.lft.to/lastmile_qr_scan", "android": "https://dc.lft.to/lastmile_qr_scan"}, "is_reserved": 0, "fusion_lon": 0.0, "fusion_lat": 0.0, "lon": -77.04046033333333, "name": "2c89041f6a76e4e08e3df4b12556cbdc"}, {"bike_id": "f437204dc50f8cb5cf1eb5b2ef6d72a5", "type": "electric_scooter", "is_disabled": 0, "lat": 38.91029183333333, "rental_uris": {"ios": "https://dc.lft.to/lastmile_qr_scan", "android": "https://dc.lft.to/lastmile_qr_scan"}, "is_reserved": 0, "fusion_lon": 0.0, "fusion_lat": 0.0, "lon": -77.007565, "name": "f437204dc50f8cb5cf1eb5b2ef6d72a5"}, {"bike_id": "6411f5e4b44752578290d209baea87a0", "type": "electric_scooter", "is_disabled": 0, "lat": 38.917888833333336, "rental_uris": {"ios": "https://dc.lft.to/lastmile_qr_scan", "android": "https://dc.lft.to/lastmile_qr_scan"}, "is_reserved": 0, "fusion_lon": 0.0, "fusion_lat": 0.0, "lon": -77.02305316666667, "name": "6411f5e4b44752578290d209baea87a0"}, {"bike_id": "553f063d152ebd3bf8963cdf2836a603", "type": "electric_scooter", "is_disabled": 0, "lat": 38.96603416666667, "rental_uris": {"ios": "https://dc.lft.to/lastmile_qr_scan", "android": "https://dc.lft.to/lastmile_qr_scan"}, "is_reserved": 0, "fusion_lon": 0.0, "fusion_lat": 0.0, "lon": -77.019755, "name": "553f063d152ebd3bf8963cdf2836a603"}, {"bike_id": "795021c3e647c5f0075baab6f7082264", "type": "electric_scooter", "is_disabled": 0, "lat": 38.9095275, "rental_uris": {"ios": "https://dc.lft.to/lastmile_qr_scan", "android": "https://dc.lft.to/lastmile_qr_scan"}, "is_reserved": 0, "fusion_lon": 0.0, "fusion_lat": 0.0, "lon": -77.02717733333333, "name": "795021c3e647c5f0075baab6f7082264"}, {"bike_id": "561aab8fe33d17eb17ea57b56a3aaa89", "type": "electric_scooter", "is_disabled": 0, "lat": 38.8697725, "rental_uris": {"ios": "https://dc.lft.to/lastmile_qr_scan", "android": "https://dc.lft.to/lastmile_qr_scan"}, "is_reserved": 0, "fusion_lon": 0.0, "fusion_lat": 0.0, "lon": -76.98181183333334, "name": "561aab8fe33d17eb17ea57b56a3aaa89"}, {"bike_id": "612d01d97e222a64ec92c9cc75591db4", "type": "electric_scooter", "is_disabled": 0, "lat": 38.900196, "rental_uris": {"ios": "https://dc.lft.to/lastmile_qr_scan", "android": "https://dc.lft.to/lastmile_qr_scan"}, "is_reserved": 0, "fusion_lon": 0.0, "fusion_lat": 0.0, "lon": -77.00181683333334, "name": "612d01d97e222a64ec92c9cc75591db4"}, {"bike_id": "5ac3178f6ac66ccdfe14bfa79741566c", "type": "electric_scooter", "is_disabled": 0, "lat": 38.923708500000004, "rental_uris": {"ios": "https://dc.lft.to/lastmile_qr_scan", "android": "https://dc.lft.to/lastmile_qr_scan"}, "is_reserved": 0, "fusion_lon": 0.0, "fusion_lat": 0.0, "lon": -77.0305525, "name": "5ac3178f6ac66ccdfe14bfa79741566c"}, {"bike_id": "6f23fcbdf61aa83b0e4ddbf3b69d76c5", "type": "electric_scooter", "is_disabled": 0, "lat": 38.88219766666667, "rental_uris": {"ios": "https://dc.lft.to/lastmile_qr_scan", "android": "https://dc.lft.to/lastmile_qr_scan"}, "is_reserved": 0, "fusion_lon": 0.0, "fusion_lat": 0.0, "lon": -76.92662583333333, "name": "6f23fcbdf61aa83b0e4ddbf3b69d76c5"}, {"bike_id": "039f67d0046433f56c5164a932589234", "type": "electric_scooter", "is_disabled": 0, "lat": 38.947935666666666, "rental_uris": {"ios": "https://dc.lft.to/lastmile_qr_scan", "android": "https://dc.lft.to/lastmile_qr_scan"}, "is_reserved": 0, "fusion_lon": 0.0, "fusion_lat": 0.0, "lon": -77.02134033333333, "name": "039f67d0046433f56c5164a932589234"}, {"bike_id": "9198d0369c9141101879e91421eae458", "type": "electric_scooter", "is_disabled": 0, "lat": 38.934018, "rental_uris": {"ios": "https://dc.lft.to/lastmile_qr_scan", "android": "https://dc.lft.to/lastmile_qr_scan"}, "is_reserved": 0, "fusion_lon": 0.0, "fusion_lat": 0.0, "lon": -77.02212583333333, "name": "9198d0369c9141101879e91421eae458"}, {"bike_id": "68a26aa555b6ade22d8a782283d6020b", "type": "electric_bike", "is_disabled": 0, "lat": 38.880553666666664, "rental_uris": {"ios": "https://dc.lft.to/lastmile_qr_scan", "android": "https://dc.lft.to/lastmile_qr_scan"}, "is_reserved": 0, "fusion_lon": 0.0, "fusion_lat": 0.0, "lon": -76.9624065, "name": "68a26aa555b6ade22d8a782283d6020b"}, {"bike_id": "79d7b9da80a51713ebabb03653dac29b", "type": "electric_bike", "is_disabled": 0, "lat": 38.872768666666666, "rental_uris": {"ios": "https://dc.lft.to/lastmile_qr_scan", "android": "https://dc.lft.to/lastmile_qr_scan"}, "is_reserved": 0, "fusion_lon": 0.0, "fusion_lat": 0.0, "lon": -77.23314483333333, "name": "79d7b9da80a51713ebabb03653dac29b"}, {"bike_id": "b23138a90bfae0c52e31501ebdf070c7", "type": "electric_scooter", "is_disabled": 0, "lat": 38.93340083333333, "rental_uris": {"ios": "https://dc.lft.to/lastmile_qr_scan", "android": "https://dc.lft.to/lastmile_qr_scan"}, "is_reserved": 0, "fusion_lon": 0.0, "fusion_lat": 0.0, "lon": -77.02622116666667, "name": "b23138a90bfae0c52e31501ebdf070c7"}, {"bike_id": "5f4f3b902d19a537379cb1b3688df649", "type": "electric_scooter", "is_disabled": 0, "lat": 38.920529333333334, "rental_uris": {"ios": "https://dc.lft.to/lastmile_qr_scan", "android": "https://dc.lft.to/lastmile_qr_scan"}, "is_reserved": 0, "fusion_lon": 0.0, "fusion_lat": 0.0, "lon": -77.023497, "name": "5f4f3b902d19a537379cb1b3688df649"}, {"bike_id": "2e8b36fa4d42a5aab039e6cc6f102fc1", "type": "electric_scooter", "is_disabled": 0, "lat": 38.90771, "rental_uris": {"ios": "https://dc.lft.to/lastmile_qr_scan", "android": "https://dc.lft.to/lastmile_qr_scan"}, "is_reserved": 0, "fusion_lon": 0.0, "fusion_lat": 0.0, "lon": -77.02712483333333, "name": "2e8b36fa4d42a5aab039e6cc6f102fc1"}, {"bike_id": "b2f28e144b40dcd6d1bec2b9607d47a4", "type": "electric_scooter", "is_disabled": 0, "lat": 38.9159, "rental_uris": {"ios": "https://dc.lft.to/lastmile_qr_scan", "android": "https://dc.lft.to/lastmile_qr_scan"}, "is_reserved": 0, "fusion_lon": 0.0, "fusion_lat": 0.0, "lon": -77.00195983333333, "name": "b2f28e144b40dcd6d1bec2b9607d47a4"}, {"bike_id": "6aab3fabeab726839b0db32c61f8ee5e", "type": "electric_scooter", "is_disabled": 0, "lat": 38.917219833333334, "rental_uris": {"ios": "https://dc.lft.to/lastmile_qr_scan", "android": "https://dc.lft.to/lastmile_qr_scan"}, "is_reserved": 0, "fusion_lon": 0.0, "fusion_lat": 0.0, "lon": -77.02905666666666, "name": "6aab3fabeab726839b0db32c61f8ee5e"}, {"bike_id": "56df4ed742ab19cd47982975040ee456", "type": "electric_scooter", "is_disabled": 0, "lat": 38.8978475, "rental_uris": {"ios": "https://dc.lft.to/lastmile_qr_scan", "android": "https://dc.lft.to/lastmile_qr_scan"}, "is_reserved": 0, "fusion_lon": 0.0, "fusion_lat": 0.0, "lon": -77.05167866666666, "name": "56df4ed742ab19cd47982975040ee456"}, {"bike_id": "09e65d989a320e5a4f2ac29233cfeb57", "type": "electric_scooter", "is_disabled": 0, "lat": 38.919655166666665, "rental_uris": {"ios": "https://dc.lft.to/lastmile_qr_scan", "android": "https://dc.lft.to/lastmile_qr_scan"}, "is_reserved": 0, "fusion_lon": 0.0, "fusion_lat": 0.0, "lon": -77.01438466666667, "name": "09e65d989a320e5a4f2ac29233cfeb57"}, {"bike_id": "cf03ce35a24d48f50b1e91e45023746c", "type": "electric_scooter", "is_disabled": 0, "lat": 38.9012475, "rental_uris": {"ios": "https://dc.lft.to/lastmile_qr_scan", "android": "https://dc.lft.to/lastmile_qr_scan"}, "is_reserved": 0, "fusion_lon": 0.0, "fusion_lat": 0.0, "lon": -76.990684, "name": "cf03ce35a24d48f50b1e91e45023746c"}, {"bike_id": "113dfd7a1928d281b3b688f9ac00f611", "type": "electric_bike", "is_disabled": 0, "lat": 39.01477916666666, "rental_uris": {"ios": "https://dc.lft.to/lastmile_qr_scan", "android": "https://dc.lft.to/lastmile_qr_scan"}, "is_reserved": 0, "fusion_lon": 0.0, "fusion_lat": 0.0, "lon": -77.05490866666666, "name": "113dfd7a1928d281b3b688f9ac00f611"}, {"bike_id": "ff135dd0a5d4d07a7d36681dec1d77c3", "type": "electric_scooter", "is_disabled": 0, "lat": 38.908285666666664, "rental_uris": {"ios": "https://dc.lft.to/lastmile_qr_scan", "android": "https://dc.lft.to/lastmile_qr_scan"}, "is_reserved": 0, "fusion_lon": 0.0, "fusion_lat": 0.0, "lon": -77.04498966666667, "name": "ff135dd0a5d4d07a7d36681dec1d77c3"}, {"bike_id": "464297e89524e3eedbdc45cddbb8ec94", "type": "electric_scooter", "is_disabled": 0, "lat": 38.908093666666666, "rental_uris": {"ios": "https://dc.lft.to/lastmile_qr_scan", "android": "https://dc.lft.to/lastmile_qr_scan"}, "is_reserved": 0, "fusion_lon": 0.0, "fusion_lat": 0.0, "lon": -77.08412866666667, "name": "464297e89524e3eedbdc45cddbb8ec94"}, {"bike_id": "7546fb946c6c5f746c0ad6ddfb11440a", "type": "electric_scooter", "is_disabled": 0, "lat": 38.871742833333336, "rental_uris": {"ios": "https://dc.lft.to/lastmile_qr_scan", "android": "https://dc.lft.to/lastmile_qr_scan"}, "is_reserved": 0, "fusion_lon": 0.0, "fusion_lat": 0.0, "lon": -77.00611983333333, "name": "7546fb946c6c5f746c0ad6ddfb11440a"}, {"bike_id": "1fa8269e6c55649002812d90152adf31", "type": "electric_bike", "is_disabled": 0, "lat": 38.963061833333335, "rental_uris": {"ios": "https://dc.lft.to/lastmile_qr_scan", "android": "https://dc.lft.to/lastmile_qr_scan"}, "is_reserved": 0, "fusion_lon": 0.0, "fusion_lat": 0.0, "lon": -77.01111366666666, "name": "1fa8269e6c55649002812d90152adf31"}, {"bike_id": "bfae33ead595345668b49bf6d23f9eb7", "type": "electric_scooter", "is_disabled": 0, "lat": 38.915353833333334, "rental_uris": {"ios": "https://dc.lft.to/lastmile_qr_scan", "android": "https://dc.lft.to/lastmile_qr_scan"}, "is_reserved": 0, "fusion_lon": 0.0, "fusion_lat": 0.0, "lon": -77.03853333333333, "name": "bfae33ead595345668b49bf6d23f9eb7"}, {"bike_id": "76d32b43efcc074ce098efe36b44878f", "type": "electric_scooter", "is_disabled": 0, "lat": 38.874215666666665, "rental_uris": {"ios": "https://dc.lft.to/lastmile_qr_scan", "android": "https://dc.lft.to/lastmile_qr_scan"}, "is_reserved": 0, "fusion_lon": 0.0, "fusion_lat": 0.0, "lon": -76.96910266666667, "name": "76d32b43efcc074ce098efe36b44878f"}, {"bike_id": "f7b7cb694c6551bccf6541fca443e583", "type": "electric_bike", "is_disabled": 0, "lat": 38.95246916666667, "rental_uris": {"ios": "https://dc.lft.to/lastmile_qr_scan", "android": "https://dc.lft.to/lastmile_qr_scan"}, "is_reserved": 0, "fusion_lon": 0.0, "fusion_lat": 0.0, "lon": -76.97676266666667, "name": "f7b7cb694c6551bccf6541fca443e583"}, {"bike_id": "0bc5d2aa5a40538e68ce1267161bcc2b", "type": "electric_scooter", "is_disabled": 0, "lat": 38.924671333333336, "rental_uris": {"ios": "https://dc.lft.to/lastmile_qr_scan", "android": "https://dc.lft.to/lastmile_qr_scan"}, "is_reserved": 0, "fusion_lon": 0.0, "fusion_lat": 0.0, "lon": -77.02247066666666, "name": "0bc5d2aa5a40538e68ce1267161bcc2b"}, {"bike_id": "06885c7b43c3de54df2e7af604e1797c", "type": "electric_scooter", "is_disabled": 0, "lat": 38.9238625, "rental_uris": {"ios": "https://dc.lft.to/lastmile_qr_scan", "android": "https://dc.lft.to/lastmile_qr_scan"}, "is_reserved": 0, "fusion_lon": 0.0, "fusion_lat": 0.0, "lon": -77.05057016666666, "name": "06885c7b43c3de54df2e7af604e1797c"}, {"bike_id": "c86be3f266d28659f637e4c651ac997e", "type": "electric_bike", "is_disabled": 0, "lat": 38.9632135, "rental_uris": {"ios": "https://dc.lft.to/lastmile_qr_scan", "android": "https://dc.lft.to/lastmile_qr_scan"}, "is_reserved": 0, "fusion_lon": 0.0, "fusion_lat": 0.0, "lon": -76.97367016666666, "name": "c86be3f266d28659f637e4c651ac997e"}, {"bike_id": "356317f456e41e98dba84bbaa8b21867", "type": "electric_scooter", "is_disabled": 0, "lat": 38.922642, "rental_uris": {"ios": "https://dc.lft.to/lastmile_qr_scan", "android": "https://dc.lft.to/lastmile_qr_scan"}, "is_reserved": 0, "fusion_lon": 0.0, "fusion_lat": 0.0, "lon": -77.03396333333333, "name": "356317f456e41e98dba84bbaa8b21867"}, {"bike_id": "63456a43fb3c5e57627de8257216c3a5", "type": "electric_scooter", "is_disabled": 0, "lat": 38.917700833333335, "rental_uris": {"ios": "https://dc.lft.to/lastmile_qr_scan", "android": "https://dc.lft.to/lastmile_qr_scan"}, "is_reserved": 0, "fusion_lon": 0.0, "fusion_lat": 0.0, "lon": -77.0242195, "name": "63456a43fb3c5e57627de8257216c3a5"}, {"bike_id": "28fc6f33321a7b730c20c6987d9bc4fc", "type": "electric_bike", "is_disabled": 0, "lat": 38.941171, "rental_uris": {"ios": "https://dc.lft.to/lastmile_qr_scan", "android": "https://dc.lft.to/lastmile_qr_scan"}, "is_reserved": 0, "fusion_lon": 0.0, "fusion_lat": 0.0, "lon": -77.06196883333334, "name": "28fc6f33321a7b730c20c6987d9bc4fc"}, {"bike_id": "bfb99c35700ef2a783d8396c95b26827", "type": "electric_scooter", "is_disabled": 0, "lat": 38.9291325, "rental_uris": {"ios": "https://dc.lft.to/lastmile_qr_scan", "android": "https://dc.lft.to/lastmile_qr_scan"}, "is_reserved": 0, "fusion_lon": 0.0, "fusion_lat": 0.0, "lon": -77.032752, "name": "bfb99c35700ef2a783d8396c95b26827"}, {"bike_id": "5c879d61b486a4abf5b07a5bb7d2390b", "type": "electric_scooter", "is_disabled": 0, "lat": 38.917993833333334, "rental_uris": {"ios": "https://dc.lft.to/lastmile_qr_scan", "android": "https://dc.lft.to/lastmile_qr_scan"}, "is_reserved": 0, "fusion_lon": 0.0, "fusion_lat": 0.0, "lon": -77.03439316666666, "name": "5c879d61b486a4abf5b07a5bb7d2390b"}, {"bike_id": "4d69e865fcf6b06f6daed5f717f11919", "type": "electric_scooter", "is_disabled": 0, "lat": 38.90038966666667, "rental_uris": {"ios": "https://dc.lft.to/lastmile_qr_scan", "android": "https://dc.lft.to/lastmile_qr_scan"}, "is_reserved": 0, "fusion_lon": 0.0, "fusion_lat": 0.0, "lon": -77.03511766666666, "name": "4d69e865fcf6b06f6daed5f717f11919"}, {"bike_id": "62c8776eabf33efe43973334e42e657f", "type": "electric_scooter", "is_disabled": 0, "lat": 38.907227166666665, "rental_uris": {"ios": "https://dc.lft.to/lastmile_qr_scan", "android": "https://dc.lft.to/lastmile_qr_scan"}, "is_reserved": 0, "fusion_lon": 0.0, "fusion_lat": 0.0, "lon": -77.03432233333334, "name": "62c8776eabf33efe43973334e42e657f"}, {"bike_id": "e19f6b468139d7e64647efaf3a9c4e2b", "type": "electric_scooter", "is_disabled": 0, "lat": 38.89828683333333, "rental_uris": {"ios": "https://dc.lft.to/lastmile_qr_scan", "android": "https://dc.lft.to/lastmile_qr_scan"}, "is_reserved": 0, "fusion_lon": 0.0, "fusion_lat": 0.0, "lon": -77.045599, "name": "e19f6b468139d7e64647efaf3a9c4e2b"}, {"bike_id": "2d1e2b45ec64e730b8d4d5b6ecdc9969", "type": "electric_scooter", "is_disabled": 0, "lat": 38.892221166666666, "rental_uris": {"ios": "https://dc.lft.to/lastmile_qr_scan", "android": "https://dc.lft.to/lastmile_qr_scan"}, "is_reserved": 0, "fusion_lon": 0.0, "fusion_lat": 0.0, "lon": -77.039738, "name": "2d1e2b45ec64e730b8d4d5b6ecdc9969"}, {"bike_id": "8b35be7368d787bf326ea98cdac7de4b", "type": "electric_scooter", "is_disabled": 0, "lat": 38.90263, "rental_uris": {"ios": "https://dc.lft.to/lastmile_qr_scan", "android": "https://dc.lft.to/lastmile_qr_scan"}, "is_reserved": 0, "fusion_lon": 0.0, "fusion_lat": 0.0, "lon": -77.02668, "name": "8b35be7368d787bf326ea98cdac7de4b"}, {"bike_id": "f672da63492e4e9146b1375ceed556d3", "type": "electric_scooter", "is_disabled": 0, "lat": 38.910251, "rental_uris": {"ios": "https://dc.lft.to/lastmile_qr_scan", "android": "https://dc.lft.to/lastmile_qr_scan"}, "is_reserved": 0, "fusion_lon": 0.0, "fusion_lat": 0.0, "lon": -77.02818933333333, "name": "f672da63492e4e9146b1375ceed556d3"}, {"bike_id": "02d9cef0e2c97f5f683f83b42bf5720d", "type": "electric_scooter", "is_disabled": 0, "lat": 38.910768, "rental_uris": {"ios": "https://dc.lft.to/lastmile_qr_scan", "android": "https://dc.lft.to/lastmile_qr_scan"}, "is_reserved": 0, "fusion_lon": 0.0, "fusion_lat": 0.0, "lon": -77.02193516666667, "name": "02d9cef0e2c97f5f683f83b42bf5720d"}, {"bike_id": "ae4616927bb5963663984b26fc11374a", "type": "electric_scooter", "is_disabled": 0, "lat": 38.92517216666667, "rental_uris": {"ios": "https://dc.lft.to/lastmile_qr_scan", "android": "https://dc.lft.to/lastmile_qr_scan"}, "is_reserved": 0, "fusion_lon": 0.0, "fusion_lat": 0.0, "lon": -77.0225565, "name": "ae4616927bb5963663984b26fc11374a"}, {"bike_id": "f5f65b7f7f34726ff163025947f0bc55", "type": "electric_scooter", "is_disabled": 0, "lat": 38.921472333333334, "rental_uris": {"ios": "https://dc.lft.to/lastmile_qr_scan", "android": "https://dc.lft.to/lastmile_qr_scan"}, "is_reserved": 0, "fusion_lon": 0.0, "fusion_lat": 0.0, "lon": -77.038738, "name": "f5f65b7f7f34726ff163025947f0bc55"}, {"bike_id": "6323b20296b31e563b3512ffabaee32d", "type": "electric_scooter", "is_disabled": 0, "lat": 38.91164783333333, "rental_uris": {"ios": "https://dc.lft.to/lastmile_qr_scan", "android": "https://dc.lft.to/lastmile_qr_scan"}, "is_reserved": 0, "fusion_lon": 0.0, "fusion_lat": 0.0, "lon": -77.01623316666667, "name": "6323b20296b31e563b3512ffabaee32d"}, {"bike_id": "58e3897e4a002c2a9794ff39b3e31e49", "type": "electric_scooter", "is_disabled": 0, "lat": 38.91117066666666, "rental_uris": {"ios": "https://dc.lft.to/lastmile_qr_scan", "android": "https://dc.lft.to/lastmile_qr_scan"}, "is_reserved": 0, "fusion_lon": 0.0, "fusion_lat": 0.0, "lon": -77.04012116666667, "name": "58e3897e4a002c2a9794ff39b3e31e49"}, {"bike_id": "bcebed0d788cbbf368389f898c0fd2a8", "type": "electric_scooter", "is_disabled": 0, "lat": 38.912631, "rental_uris": {"ios": "https://dc.lft.to/lastmile_qr_scan", "android": "https://dc.lft.to/lastmile_qr_scan"}, "is_reserved": 0, "fusion_lon": 0.0, "fusion_lat": 0.0, "lon": -77.04703483333333, "name": "bcebed0d788cbbf368389f898c0fd2a8"}, {"bike_id": "ebd8651fce33dccd502d839102768f43", "type": "electric_scooter", "is_disabled": 0, "lat": 38.929333666666665, "rental_uris": {"ios": "https://dc.lft.to/lastmile_qr_scan", "android": "https://dc.lft.to/lastmile_qr_scan"}, "is_reserved": 0, "fusion_lon": 0.0, "fusion_lat": 0.0, "lon": -77.02325483333334, "name": "ebd8651fce33dccd502d839102768f43"}, {"bike_id": "eb23b6843987ffa7ebedbad7a4bc3c00", "type": "electric_bike", "is_disabled": 0, "lat": 38.87885266666667, "rental_uris": {"ios": "https://dc.lft.to/lastmile_qr_scan", "android": "https://dc.lft.to/lastmile_qr_scan"}, "is_reserved": 0, "fusion_lon": 0.0, "fusion_lat": 0.0, "lon": -77.09607933333334, "name": "eb23b6843987ffa7ebedbad7a4bc3c00"}, {"bike_id": "34428d137d6cd37c52f7ab831e34d718", "type": "electric_scooter", "is_disabled": 0, "lat": 38.96741133333333, "rental_uris": {"ios": "https://dc.lft.to/lastmile_qr_scan", "android": "https://dc.lft.to/lastmile_qr_scan"}, "is_reserved": 0, "fusion_lon": 0.0, "fusion_lat": 0.0, "lon": -77.055161, "name": "34428d137d6cd37c52f7ab831e34d718"}, {"bike_id": "4efcf057fe84286e0e76f2c3e65d7c50", "type": "electric_scooter", "is_disabled": 0, "lat": 38.92836166666667, "rental_uris": {"ios": "https://dc.lft.to/lastmile_qr_scan", "android": "https://dc.lft.to/lastmile_qr_scan"}, "is_reserved": 0, "fusion_lon": 0.0, "fusion_lat": 0.0, "lon": -77.02981233333334, "name": "4efcf057fe84286e0e76f2c3e65d7c50"}, {"bike_id": "16699a107582fa414b9d7c53c0f5e79c", "type": "electric_scooter", "is_disabled": 0, "lat": 38.91940816666666, "rental_uris": {"ios": "https://dc.lft.to/lastmile_qr_scan", "android": "https://dc.lft.to/lastmile_qr_scan"}, "is_reserved": 0, "fusion_lon": 0.0, "fusion_lat": 0.0, "lon": -77.045009, "name": "16699a107582fa414b9d7c53c0f5e79c"}, {"bike_id": "61d984f720779cf7fa1146630f903351", "type": "electric_scooter", "is_disabled": 0, "lat": 38.87788366666667, "rental_uris": {"ios": "https://dc.lft.to/lastmile_qr_scan", "android": "https://dc.lft.to/lastmile_qr_scan"}, "is_reserved": 0, "fusion_lon": 0.0, "fusion_lat": 0.0, "lon": -77.00116933333334, "name": "61d984f720779cf7fa1146630f903351"}, {"bike_id": "c6845cb4f7c67105cef90a676e66e623", "type": "electric_scooter", "is_disabled": 0, "lat": 38.9050425, "rental_uris": {"ios": "https://dc.lft.to/lastmile_qr_scan", "android": "https://dc.lft.to/lastmile_qr_scan"}, "is_reserved": 0, "fusion_lon": 0.0, "fusion_lat": 0.0, "lon": -76.999607, "name": "c6845cb4f7c67105cef90a676e66e623"}, {"bike_id": "bed45df181663b05b03b6b3c6acd6817", "type": "electric_bike", "is_disabled": 0, "lat": 38.9650245, "rental_uris": {"ios": "https://dc.lft.to/lastmile_qr_scan", "android": "https://dc.lft.to/lastmile_qr_scan"}, "is_reserved": 0, "fusion_lon": 0.0, "fusion_lat": 0.0, "lon": -77.02827583333334, "name": "bed45df181663b05b03b6b3c6acd6817"}, {"bike_id": "0edf5f698d386a0a09859b55edab3cde", "type": "electric_bike", "is_disabled": 0, "lat": 38.89564566666667, "rental_uris": {"ios": "https://dc.lft.to/lastmile_qr_scan", "android": "https://dc.lft.to/lastmile_qr_scan"}, "is_reserved": 0, "fusion_lon": 0.0, "fusion_lat": 0.0, "lon": -77.12735816666667, "name": "0edf5f698d386a0a09859b55edab3cde"}, {"bike_id": "1ee74413601c893d3c4d6cb1f8bddb9f", "type": "electric_scooter", "is_disabled": 0, "lat": 38.9227425, "rental_uris": {"ios": "https://dc.lft.to/lastmile_qr_scan", "android": "https://dc.lft.to/lastmile_qr_scan"}, "is_reserved": 0, "fusion_lon": 0.0, "fusion_lat": 0.0, "lon": -77.03661916666667, "name": "1ee74413601c893d3c4d6cb1f8bddb9f"}, {"bike_id": "49fbbb67e049d2afc67c6f15a335878d", "type": "electric_scooter", "is_disabled": 0, "lat": 38.9395235, "rental_uris": {"ios": "https://dc.lft.to/lastmile_qr_scan", "android": "https://dc.lft.to/lastmile_qr_scan"}, "is_reserved": 0, "fusion_lon": 0.0, "fusion_lat": 0.0, "lon": -77.07251216666667, "name": "49fbbb67e049d2afc67c6f15a335878d"}, {"bike_id": "c5328f0871614892e6034792aadfe223", "type": "electric_bike", "is_disabled": 0, "lat": 38.836078, "rental_uris": {"ios": "https://dc.lft.to/lastmile_qr_scan", "android": "https://dc.lft.to/lastmile_qr_scan"}, "is_reserved": 0, "fusion_lon": 0.0, "fusion_lat": 0.0, "lon": -77.00384633333333, "name": "c5328f0871614892e6034792aadfe223"}, {"bike_id": "81bebe983cf2a8d53a8a5661e567d3b2", "type": "electric_scooter", "is_disabled": 0, "lat": 38.9010565, "rental_uris": {"ios": "https://dc.lft.to/lastmile_qr_scan", "android": "https://dc.lft.to/lastmile_qr_scan"}, "is_reserved": 0, "fusion_lon": 0.0, "fusion_lat": 0.0, "lon": -77.03842533333334, "name": "81bebe983cf2a8d53a8a5661e567d3b2"}, {"bike_id": "851fe977c178f3314c531c8cc9d86663", "type": "electric_scooter", "is_disabled": 0, "lat": 38.8431235, "rental_uris": {"ios": "https://dc.lft.to/lastmile_qr_scan", "android": "https://dc.lft.to/lastmile_qr_scan"}, "is_reserved": 0, "fusion_lon": 0.0, "fusion_lat": 0.0, "lon": -76.999287, "name": "851fe977c178f3314c531c8cc9d86663"}, {"bike_id": "d15b7f3784fb925b2c5a90e971d3379b", "type": "electric_scooter", "is_disabled": 0, "lat": 38.91092733333333, "rental_uris": {"ios": "https://dc.lft.to/lastmile_qr_scan", "android": "https://dc.lft.to/lastmile_qr_scan"}, "is_reserved": 0, "fusion_lon": 0.0, "fusion_lat": 0.0, "lon": -77.0452605, "name": "d15b7f3784fb925b2c5a90e971d3379b"}, {"bike_id": "27c29a6fb16dfc5da2a755994ccd0a29", "type": "electric_scooter", "is_disabled": 0, "lat": 38.913312, "rental_uris": {"ios": "https://dc.lft.to/lastmile_qr_scan", "android": "https://dc.lft.to/lastmile_qr_scan"}, "is_reserved": 0, "fusion_lon": 0.0, "fusion_lat": 0.0, "lon": -77.039894, "name": "27c29a6fb16dfc5da2a755994ccd0a29"}, {"bike_id": "aa90b515a3ce94fe54f9def1311195a8", "type": "electric_scooter", "is_disabled": 0, "lat": 38.919835666666664, "rental_uris": {"ios": "https://dc.lft.to/lastmile_qr_scan", "android": "https://dc.lft.to/lastmile_qr_scan"}, "is_reserved": 0, "fusion_lon": 0.0, "fusion_lat": 0.0, "lon": -77.01793866666667, "name": "aa90b515a3ce94fe54f9def1311195a8"}, {"bike_id": "7df3dbcc9da614b966454d50f9f97e7f", "type": "electric_scooter", "is_disabled": 0, "lat": 38.914719833333336, "rental_uris": {"ios": "https://dc.lft.to/lastmile_qr_scan", "android": "https://dc.lft.to/lastmile_qr_scan"}, "is_reserved": 0, "fusion_lon": 0.0, "fusion_lat": 0.0, "lon": -77.00204466666666, "name": "7df3dbcc9da614b966454d50f9f97e7f"}, {"bike_id": "a585030635f59158f9ea7a26809bdb74", "type": "electric_scooter", "is_disabled": 0, "lat": 38.923624, "rental_uris": {"ios": "https://dc.lft.to/lastmile_qr_scan", "android": "https://dc.lft.to/lastmile_qr_scan"}, "is_reserved": 0, "fusion_lon": 0.0, "fusion_lat": 0.0, "lon": -77.051297, "name": "a585030635f59158f9ea7a26809bdb74"}, {"bike_id": "bfcad871eb230cef6d1e07a4f36635ad", "type": "electric_scooter", "is_disabled": 0, "lat": 38.915631833333336, "rental_uris": {"ios": "https://dc.lft.to/lastmile_qr_scan", "android": "https://dc.lft.to/lastmile_qr_scan"}, "is_reserved": 0, "fusion_lon": 0.0, "fusion_lat": 0.0, "lon": -77.03121766666666, "name": "bfcad871eb230cef6d1e07a4f36635ad"}, {"bike_id": "89d24cd903c1575b601064b7e89073e1", "type": "electric_scooter", "is_disabled": 0, "lat": 38.90570266666667, "rental_uris": {"ios": "https://dc.lft.to/lastmile_qr_scan", "android": "https://dc.lft.to/lastmile_qr_scan"}, "is_reserved": 0, "fusion_lon": 0.0, "fusion_lat": 0.0, "lon": -77.00594333333333, "name": "89d24cd903c1575b601064b7e89073e1"}, {"bike_id": "7a56750e3848eb9592574a20a0db84a6", "type": "electric_scooter", "is_disabled": 0, "lat": 38.88074116666667, "rental_uris": {"ios": "https://dc.lft.to/lastmile_qr_scan", "android": "https://dc.lft.to/lastmile_qr_scan"}, "is_reserved": 0, "fusion_lon": 0.0, "fusion_lat": 0.0, "lon": -76.93216766666667, "name": "7a56750e3848eb9592574a20a0db84a6"}, {"bike_id": "83784e0ae34a570ae94f1591cfafb274", "type": "electric_scooter", "is_disabled": 0, "lat": 38.915072, "rental_uris": {"ios": "https://dc.lft.to/lastmile_qr_scan", "android": "https://dc.lft.to/lastmile_qr_scan"}, "is_reserved": 0, "fusion_lon": 0.0, "fusion_lat": 0.0, "lon": -77.02186133333333, "name": "83784e0ae34a570ae94f1591cfafb274"}, {"bike_id": "b66c7e668f3798099fc3fe77427da8ec", "type": "electric_scooter", "is_disabled": 0, "lat": 38.927986833333335, "rental_uris": {"ios": "https://dc.lft.to/lastmile_qr_scan", "android": "https://dc.lft.to/lastmile_qr_scan"}, "is_reserved": 0, "fusion_lon": 0.0, "fusion_lat": 0.0, "lon": -77.02364966666667, "name": "b66c7e668f3798099fc3fe77427da8ec"}, {"bike_id": "4363a9c312ee0e3f7fdd3a67a1bc179c", "type": "electric_scooter", "is_disabled": 0, "lat": 38.92480283333333, "rental_uris": {"ios": "https://dc.lft.to/lastmile_qr_scan", "android": "https://dc.lft.to/lastmile_qr_scan"}, "is_reserved": 0, "fusion_lon": 0.0, "fusion_lat": 0.0, "lon": -77.05209516666666, "name": "4363a9c312ee0e3f7fdd3a67a1bc179c"}, {"bike_id": "ff1ed7e9d8219fe47054826250f786b9", "type": "electric_scooter", "is_disabled": 0, "lat": 38.916643, "rental_uris": {"ios": "https://dc.lft.to/lastmile_qr_scan", "android": "https://dc.lft.to/lastmile_qr_scan"}, "is_reserved": 0, "fusion_lon": 0.0, "fusion_lat": 0.0, "lon": -77.02890333333333, "name": "ff1ed7e9d8219fe47054826250f786b9"}, {"bike_id": "591e79fe52bfabd33a6083355cdb7fe9", "type": "electric_scooter", "is_disabled": 0, "lat": 38.88743133333333, "rental_uris": {"ios": "https://dc.lft.to/lastmile_qr_scan", "android": "https://dc.lft.to/lastmile_qr_scan"}, "is_reserved": 0, "fusion_lon": 0.0, "fusion_lat": 0.0, "lon": -76.99625883333333, "name": "591e79fe52bfabd33a6083355cdb7fe9"}, {"bike_id": "c6bea038802b8d54c29808535d9a3a1f", "type": "electric_scooter", "is_disabled": 0, "lat": 38.907920833333336, "rental_uris": {"ios": "https://dc.lft.to/lastmile_qr_scan", "android": "https://dc.lft.to/lastmile_qr_scan"}, "is_reserved": 0, "fusion_lon": 0.0, "fusion_lat": 0.0, "lon": -77.03870566666667, "name": "c6bea038802b8d54c29808535d9a3a1f"}, {"bike_id": "abda46c7cb36a4222e9caa1985c26d1b", "type": "electric_bike", "is_disabled": 0, "lat": 38.8798225, "rental_uris": {"ios": "https://dc.lft.to/lastmile_qr_scan", "android": "https://dc.lft.to/lastmile_qr_scan"}, "is_reserved": 0, "fusion_lon": 0.0, "fusion_lat": 0.0, "lon": -76.91597066666667, "name": "abda46c7cb36a4222e9caa1985c26d1b"}, {"bike_id": "e1d60e4280b5c6babce2ced756093fc3", "type": "electric_scooter", "is_disabled": 0, "lat": 38.88850216666667, "rental_uris": {"ios": "https://dc.lft.to/lastmile_qr_scan", "android": "https://dc.lft.to/lastmile_qr_scan"}, "is_reserved": 0, "fusion_lon": 0.0, "fusion_lat": 0.0, "lon": -77.00054233333333, "name": "e1d60e4280b5c6babce2ced756093fc3"}, {"bike_id": "7481f02706b1795760811bbb88a6fcfc", "type": "electric_scooter", "is_disabled": 0, "lat": 38.91861216666667, "rental_uris": {"ios": "https://dc.lft.to/lastmile_qr_scan", "android": "https://dc.lft.to/lastmile_qr_scan"}, "is_reserved": 0, "fusion_lon": 0.0, "fusion_lat": 0.0, "lon": -77.0476225, "name": "7481f02706b1795760811bbb88a6fcfc"}, {"bike_id": "5cc95dea439e47d11f247c8e060b7032", "type": "electric_scooter", "is_disabled": 0, "lat": 38.84433833333333, "rental_uris": {"ios": "https://dc.lft.to/lastmile_qr_scan", "android": "https://dc.lft.to/lastmile_qr_scan"}, "is_reserved": 0, "fusion_lon": 0.0, "fusion_lat": 0.0, "lon": -76.99870683333333, "name": "5cc95dea439e47d11f247c8e060b7032"}, {"bike_id": "139b79aa94e46f6dbe5ab83965ece0fe", "type": "electric_scooter", "is_disabled": 0, "lat": 38.90831033333333, "rental_uris": {"ios": "https://dc.lft.to/lastmile_qr_scan", "android": "https://dc.lft.to/lastmile_qr_scan"}, "is_reserved": 0, "fusion_lon": 0.0, "fusion_lat": 0.0, "lon": -77.01980533333334, "name": "139b79aa94e46f6dbe5ab83965ece0fe"}, {"bike_id": "9cb1e98475a055f931a3b3a9e2c3b146", "type": "electric_scooter", "is_disabled": 0, "lat": 38.93398883333333, "rental_uris": {"ios": "https://dc.lft.to/lastmile_qr_scan", "android": "https://dc.lft.to/lastmile_qr_scan"}, "is_reserved": 0, "fusion_lon": 0.0, "fusion_lat": 0.0, "lon": -77.03523933333334, "name": "9cb1e98475a055f931a3b3a9e2c3b146"}, {"bike_id": "5abc5839338cda6a3108b76cf404d754", "type": "electric_scooter", "is_disabled": 0, "lat": 38.9070425, "rental_uris": {"ios": "https://dc.lft.to/lastmile_qr_scan", "android": "https://dc.lft.to/lastmile_qr_scan"}, "is_reserved": 0, "fusion_lon": 0.0, "fusion_lat": 0.0, "lon": -77.0417565, "name": "5abc5839338cda6a3108b76cf404d754"}, {"bike_id": "6df893cf24acda4546cd541ba46d8841", "type": "electric_scooter", "is_disabled": 0, "lat": 38.917238166666664, "rental_uris": {"ios": "https://dc.lft.to/lastmile_qr_scan", "android": "https://dc.lft.to/lastmile_qr_scan"}, "is_reserved": 0, "fusion_lon": 0.0, "fusion_lat": 0.0, "lon": -77.0366465, "name": "6df893cf24acda4546cd541ba46d8841"}, {"bike_id": "40e2ce49946ae60434dd3061b76a54f8", "type": "electric_scooter", "is_disabled": 0, "lat": 38.938436, "rental_uris": {"ios": "https://dc.lft.to/lastmile_qr_scan", "android": "https://dc.lft.to/lastmile_qr_scan"}, "is_reserved": 0, "fusion_lon": 0.0, "fusion_lat": 0.0, "lon": -77.07230616666666, "name": "40e2ce49946ae60434dd3061b76a54f8"}, {"bike_id": "7c989acd20ed1ebdf67e97d170639903", "type": "electric_scooter", "is_disabled": 0, "lat": 38.9097815, "rental_uris": {"ios": "https://dc.lft.to/lastmile_qr_scan", "android": "https://dc.lft.to/lastmile_qr_scan"}, "is_reserved": 0, "fusion_lon": 0.0, "fusion_lat": 0.0, "lon": -77.0151015, "name": "7c989acd20ed1ebdf67e97d170639903"}, {"bike_id": "58e9cb6fce48d8ba739e3a1c926f3aaf", "type": "electric_scooter", "is_disabled": 0, "lat": 38.92497816666667, "rental_uris": {"ios": "https://dc.lft.to/lastmile_qr_scan", "android": "https://dc.lft.to/lastmile_qr_scan"}, "is_reserved": 0, "fusion_lon": 0.0, "fusion_lat": 0.0, "lon": -77.052091, "name": "58e9cb6fce48d8ba739e3a1c926f3aaf"}, {"bike_id": "f9b5526c4b021d008387ec5cb34bc115", "type": "electric_scooter", "is_disabled": 0, "lat": 38.9441275, "rental_uris": {"ios": "https://dc.lft.to/lastmile_qr_scan", "android": "https://dc.lft.to/lastmile_qr_scan"}, "is_reserved": 0, "fusion_lon": 0.0, "fusion_lat": 0.0, "lon": -77.00737833333334, "name": "f9b5526c4b021d008387ec5cb34bc115"}, {"bike_id": "35e0d8cc3cb80c241d750aef8fecf904", "type": "electric_scooter", "is_disabled": 0, "lat": 38.90947, "rental_uris": {"ios": "https://dc.lft.to/lastmile_qr_scan", "android": "https://dc.lft.to/lastmile_qr_scan"}, "is_reserved": 0, "fusion_lon": 0.0, "fusion_lat": 0.0, "lon": -77.05563766666667, "name": "35e0d8cc3cb80c241d750aef8fecf904"}, {"bike_id": "4629dbeff1fdf8841ee03a3fccb74c0b", "type": "electric_scooter", "is_disabled": 0, "lat": 38.911054666666665, "rental_uris": {"ios": "https://dc.lft.to/lastmile_qr_scan", "android": "https://dc.lft.to/lastmile_qr_scan"}, "is_reserved": 0, "fusion_lon": 0.0, "fusion_lat": 0.0, "lon": -77.01145666666666, "name": "4629dbeff1fdf8841ee03a3fccb74c0b"}, {"bike_id": "9c77052736f40364c8b31c0b54d73d42", "type": "electric_scooter", "is_disabled": 0, "lat": 38.912691833333334, "rental_uris": {"ios": "https://dc.lft.to/lastmile_qr_scan", "android": "https://dc.lft.to/lastmile_qr_scan"}, "is_reserved": 0, "fusion_lon": 0.0, "fusion_lat": 0.0, "lon": -77.0221175, "name": "9c77052736f40364c8b31c0b54d73d42"}, {"bike_id": "15b5215c009dfc67dd68acdc11d186b2", "type": "electric_scooter", "is_disabled": 0, "lat": 38.905522500000004, "rental_uris": {"ios": "https://dc.lft.to/lastmile_qr_scan", "android": "https://dc.lft.to/lastmile_qr_scan"}, "is_reserved": 0, "fusion_lon": 0.0, "fusion_lat": 0.0, "lon": -77.04627383333333, "name": "15b5215c009dfc67dd68acdc11d186b2"}, {"bike_id": "acd87603c33770f5a54dd6cb994a3cff", "type": "electric_scooter", "is_disabled": 0, "lat": 38.9222885, "rental_uris": {"ios": "https://dc.lft.to/lastmile_qr_scan", "android": "https://dc.lft.to/lastmile_qr_scan"}, "is_reserved": 0, "fusion_lon": 0.0, "fusion_lat": 0.0, "lon": -76.975319, "name": "acd87603c33770f5a54dd6cb994a3cff"}, {"bike_id": "3596aa73274a04925d0a11e3297e8bd2", "type": "electric_scooter", "is_disabled": 0, "lat": 38.89509616666667, "rental_uris": {"ios": "https://dc.lft.to/lastmile_qr_scan", "android": "https://dc.lft.to/lastmile_qr_scan"}, "is_reserved": 0, "fusion_lon": 0.0, "fusion_lat": 0.0, "lon": -77.043419, "name": "3596aa73274a04925d0a11e3297e8bd2"}, {"bike_id": "f3cebbdc84c650cfebb2396378e8283b", "type": "electric_bike", "is_disabled": 0, "lat": 39.051034333333334, "rental_uris": {"ios": "https://dc.lft.to/lastmile_qr_scan", "android": "https://dc.lft.to/lastmile_qr_scan"}, "is_reserved": 0, "fusion_lon": 0.0, "fusion_lat": 0.0, "lon": -77.11750483333333, "name": "f3cebbdc84c650cfebb2396378e8283b"}, {"bike_id": "88109fee107444c2673991d4f3f41c64", "type": "electric_scooter", "is_disabled": 0, "lat": 38.90352516666667, "rental_uris": {"ios": "https://dc.lft.to/lastmile_qr_scan", "android": "https://dc.lft.to/lastmile_qr_scan"}, "is_reserved": 0, "fusion_lon": 0.0, "fusion_lat": 0.0, "lon": -76.99220283333334, "name": "88109fee107444c2673991d4f3f41c64"}, {"bike_id": "015c9391a8ebbf67f0cfb12c29f96bcc", "type": "electric_bike", "is_disabled": 0, "lat": 38.96211816666667, "rental_uris": {"ios": "https://dc.lft.to/lastmile_qr_scan", "android": "https://dc.lft.to/lastmile_qr_scan"}, "is_reserved": 0, "fusion_lon": 0.0, "fusion_lat": 0.0, "lon": -77.02235633333333, "name": "015c9391a8ebbf67f0cfb12c29f96bcc"}, {"bike_id": "b2b92455018be6a2cf836420b4d323f0", "type": "electric_scooter", "is_disabled": 0, "lat": 38.911038166666664, "rental_uris": {"ios": "https://dc.lft.to/lastmile_qr_scan", "android": "https://dc.lft.to/lastmile_qr_scan"}, "is_reserved": 0, "fusion_lon": 0.0, "fusion_lat": 0.0, "lon": -77.02763283333333, "name": "b2b92455018be6a2cf836420b4d323f0"}, {"bike_id": "3df33bfc31824d70da310211712a9b2a", "type": "electric_scooter", "is_disabled": 0, "lat": 38.9331645, "rental_uris": {"ios": "https://dc.lft.to/lastmile_qr_scan", "android": "https://dc.lft.to/lastmile_qr_scan"}, "is_reserved": 0, "fusion_lon": 0.0, "fusion_lat": 0.0, "lon": -77.02748733333334, "name": "3df33bfc31824d70da310211712a9b2a"}, {"bike_id": "edee8fe7b60b92f93ebafaa75614a91d", "type": "electric_scooter", "is_disabled": 0, "lat": 38.9014275, "rental_uris": {"ios": "https://dc.lft.to/lastmile_qr_scan", "android": "https://dc.lft.to/lastmile_qr_scan"}, "is_reserved": 0, "fusion_lon": 0.0, "fusion_lat": 0.0, "lon": -76.9308485, "name": "edee8fe7b60b92f93ebafaa75614a91d"}, {"bike_id": "6e42b46134033d1ee32556b5e227830d", "type": "electric_scooter", "is_disabled": 0, "lat": 38.905986, "rental_uris": {"ios": "https://dc.lft.to/lastmile_qr_scan", "android": "https://dc.lft.to/lastmile_qr_scan"}, "is_reserved": 0, "fusion_lon": 0.0, "fusion_lat": 0.0, "lon": -77.04189933333333, "name": "6e42b46134033d1ee32556b5e227830d"}, {"bike_id": "b4bed6f1022583223d53a02301a6fcef", "type": "electric_scooter", "is_disabled": 0, "lat": 38.899153, "rental_uris": {"ios": "https://dc.lft.to/lastmile_qr_scan", "android": "https://dc.lft.to/lastmile_qr_scan"}, "is_reserved": 0, "fusion_lon": 0.0, "fusion_lat": 0.0, "lon": -76.9336795, "name": "b4bed6f1022583223d53a02301a6fcef"}, {"bike_id": "4bd7e8daf66fdeb2aead42869db918f0", "type": "electric_scooter", "is_disabled": 0, "lat": 38.90410216666667, "rental_uris": {"ios": "https://dc.lft.to/lastmile_qr_scan", "android": "https://dc.lft.to/lastmile_qr_scan"}, "is_reserved": 0, "fusion_lon": 0.0, "fusion_lat": 0.0, "lon": -76.97334616666667, "name": "4bd7e8daf66fdeb2aead42869db918f0"}, {"bike_id": "8cf371f4354d91850bcb2fd8abc862b5", "type": "electric_scooter", "is_disabled": 0, "lat": 38.930385333333334, "rental_uris": {"ios": "https://dc.lft.to/lastmile_qr_scan", "android": "https://dc.lft.to/lastmile_qr_scan"}, "is_reserved": 0, "fusion_lon": 0.0, "fusion_lat": 0.0, "lon": -77.03302983333333, "name": "8cf371f4354d91850bcb2fd8abc862b5"}, {"bike_id": "087269b028f5e9219e5e21ac095845b3", "type": "electric_scooter", "is_disabled": 0, "lat": 38.934593166666666, "rental_uris": {"ios": "https://dc.lft.to/lastmile_qr_scan", "android": "https://dc.lft.to/lastmile_qr_scan"}, "is_reserved": 0, "fusion_lon": 0.0, "fusion_lat": 0.0, "lon": -77.02244733333333, "name": "087269b028f5e9219e5e21ac095845b3"}, {"bike_id": "6d3ee92c44c7339cb37260152f5dc0c8", "type": "electric_scooter", "is_disabled": 0, "lat": 38.925988, "rental_uris": {"ios": "https://dc.lft.to/lastmile_qr_scan", "android": "https://dc.lft.to/lastmile_qr_scan"}, "is_reserved": 0, "fusion_lon": 0.0, "fusion_lat": 0.0, "lon": -77.03763966666666, "name": "6d3ee92c44c7339cb37260152f5dc0c8"}, {"bike_id": "1f7459de3fe3107f01cf3258610c71cd", "type": "electric_scooter", "is_disabled": 0, "lat": 38.907986333333334, "rental_uris": {"ios": "https://dc.lft.to/lastmile_qr_scan", "android": "https://dc.lft.to/lastmile_qr_scan"}, "is_reserved": 0, "fusion_lon": 0.0, "fusion_lat": 0.0, "lon": -77.0434835, "name": "1f7459de3fe3107f01cf3258610c71cd"}, {"bike_id": "92c73d5057c2528497523a9469d5665b", "type": "electric_scooter", "is_disabled": 0, "lat": 38.9259715, "rental_uris": {"ios": "https://dc.lft.to/lastmile_qr_scan", "android": "https://dc.lft.to/lastmile_qr_scan"}, "is_reserved": 0, "fusion_lon": 0.0, "fusion_lat": 0.0, "lon": -77.1024865, "name": "92c73d5057c2528497523a9469d5665b"}, {"bike_id": "444b7d79512ebeb00e9f2b63d34afacb", "type": "electric_scooter", "is_disabled": 0, "lat": 38.93187866666667, "rental_uris": {"ios": "https://dc.lft.to/lastmile_qr_scan", "android": "https://dc.lft.to/lastmile_qr_scan"}, "is_reserved": 0, "fusion_lon": 0.0, "fusion_lat": 0.0, "lon": -77.02541066666667, "name": "444b7d79512ebeb00e9f2b63d34afacb"}, {"bike_id": "9d18374c3452113abf1cd6ae62576437", "type": "electric_bike", "is_disabled": 0, "lat": 38.865172333333334, "rental_uris": {"ios": "https://dc.lft.to/lastmile_qr_scan", "android": "https://dc.lft.to/lastmile_qr_scan"}, "is_reserved": 0, "fusion_lon": 0.0, "fusion_lat": 0.0, "lon": -77.1293335, "name": "9d18374c3452113abf1cd6ae62576437"}, {"bike_id": "012d8a97015aaf107449c21197d2c66b", "type": "electric_scooter", "is_disabled": 0, "lat": 38.91949366666667, "rental_uris": {"ios": "https://dc.lft.to/lastmile_qr_scan", "android": "https://dc.lft.to/lastmile_qr_scan"}, "is_reserved": 0, "fusion_lon": 0.0, "fusion_lat": 0.0, "lon": -77.045114, "name": "012d8a97015aaf107449c21197d2c66b"}, {"bike_id": "1a9ce4724a7c65c885effdb06e7b85ae", "type": "electric_scooter", "is_disabled": 0, "lat": 38.90783583333333, "rental_uris": {"ios": "https://dc.lft.to/lastmile_qr_scan", "android": "https://dc.lft.to/lastmile_qr_scan"}, "is_reserved": 0, "fusion_lon": 0.0, "fusion_lat": 0.0, "lon": -77.0451035, "name": "1a9ce4724a7c65c885effdb06e7b85ae"}, {"bike_id": "46d912abb28be1d4949c857d05cd3859", "type": "electric_scooter", "is_disabled": 0, "lat": 38.891111333333335, "rental_uris": {"ios": "https://dc.lft.to/lastmile_qr_scan", "android": "https://dc.lft.to/lastmile_qr_scan"}, "is_reserved": 0, "fusion_lon": 0.0, "fusion_lat": 0.0, "lon": -77.01502633333334, "name": "46d912abb28be1d4949c857d05cd3859"}, {"bike_id": "91af0387245dd3294e28cf87caf845d8", "type": "electric_scooter", "is_disabled": 0, "lat": 38.87698966666667, "rental_uris": {"ios": "https://dc.lft.to/lastmile_qr_scan", "android": "https://dc.lft.to/lastmile_qr_scan"}, "is_reserved": 0, "fusion_lon": 0.0, "fusion_lat": 0.0, "lon": -77.005884, "name": "91af0387245dd3294e28cf87caf845d8"}, {"bike_id": "a1c579acc987f9ed7587b1e2d8e53e93", "type": "electric_bike", "is_disabled": 0, "lat": 38.80392966666667, "rental_uris": {"ios": "https://dc.lft.to/lastmile_qr_scan", "android": "https://dc.lft.to/lastmile_qr_scan"}, "is_reserved": 0, "fusion_lon": 0.0, "fusion_lat": 0.0, "lon": -77.05566533333334, "name": "a1c579acc987f9ed7587b1e2d8e53e93"}, {"bike_id": "d37f644bb4753d170cdb973f2e938fca", "type": "electric_scooter", "is_disabled": 0, "lat": 38.916633166666664, "rental_uris": {"ios": "https://dc.lft.to/lastmile_qr_scan", "android": "https://dc.lft.to/lastmile_qr_scan"}, "is_reserved": 0, "fusion_lon": 0.0, "fusion_lat": 0.0, "lon": -77.038524, "name": "d37f644bb4753d170cdb973f2e938fca"}, {"bike_id": "6e22a6e537cb9792725c36594c488cf4", "type": "electric_scooter", "is_disabled": 0, "lat": 38.908804, "rental_uris": {"ios": "https://dc.lft.to/lastmile_qr_scan", "android": "https://dc.lft.to/lastmile_qr_scan"}, "is_reserved": 0, "fusion_lon": 0.0, "fusion_lat": 0.0, "lon": -77.0025565, "name": "6e22a6e537cb9792725c36594c488cf4"}, {"bike_id": "5a5779f8bf28f5bab07c07665b2d9a5b", "type": "electric_scooter", "is_disabled": 0, "lat": 38.88441733333333, "rental_uris": {"ios": "https://dc.lft.to/lastmile_qr_scan", "android": "https://dc.lft.to/lastmile_qr_scan"}, "is_reserved": 0, "fusion_lon": 0.0, "fusion_lat": 0.0, "lon": -76.957608, "name": "5a5779f8bf28f5bab07c07665b2d9a5b"}, {"bike_id": "15d8eab912d7dbc92f828955bbb66197", "type": "electric_scooter", "is_disabled": 0, "lat": 38.9655855, "rental_uris": {"ios": "https://dc.lft.to/lastmile_qr_scan", "android": "https://dc.lft.to/lastmile_qr_scan"}, "is_reserved": 0, "fusion_lon": 0.0, "fusion_lat": 0.0, "lon": -77.02023916666667, "name": "15d8eab912d7dbc92f828955bbb66197"}, {"bike_id": "e0fd99a40792a56784f40e6007f45f6e", "type": "electric_scooter", "is_disabled": 0, "lat": 38.908185333333336, "rental_uris": {"ios": "https://dc.lft.to/lastmile_qr_scan", "android": "https://dc.lft.to/lastmile_qr_scan"}, "is_reserved": 0, "fusion_lon": 0.0, "fusion_lat": 0.0, "lon": -77.03340416666667, "name": "e0fd99a40792a56784f40e6007f45f6e"}, {"bike_id": "344e08d9beeb34826830dfa79d79528b", "type": "electric_scooter", "is_disabled": 0, "lat": 38.93036516666667, "rental_uris": {"ios": "https://dc.lft.to/lastmile_qr_scan", "android": "https://dc.lft.to/lastmile_qr_scan"}, "is_reserved": 0, "fusion_lon": 0.0, "fusion_lat": 0.0, "lon": -77.01832183333333, "name": "344e08d9beeb34826830dfa79d79528b"}, {"bike_id": "0580c735ecdb6452dfb380cf6be8d9a9", "type": "electric_scooter", "is_disabled": 0, "lat": 38.945986, "rental_uris": {"ios": "https://dc.lft.to/lastmile_qr_scan", "android": "https://dc.lft.to/lastmile_qr_scan"}, "is_reserved": 0, "fusion_lon": 0.0, "fusion_lat": 0.0, "lon": -77.08424966666666, "name": "0580c735ecdb6452dfb380cf6be8d9a9"}, {"bike_id": "46ba4529a9da09fc68a36c78c68ecb4c", "type": "electric_scooter", "is_disabled": 0, "lat": 38.901490333333335, "rental_uris": {"ios": "https://dc.lft.to/lastmile_qr_scan", "android": "https://dc.lft.to/lastmile_qr_scan"}, "is_reserved": 0, "fusion_lon": 0.0, "fusion_lat": 0.0, "lon": -77.02980783333334, "name": "46ba4529a9da09fc68a36c78c68ecb4c"}, {"bike_id": "9bd5198b2e72d0849bb4784909ca6009", "type": "electric_scooter", "is_disabled": 0, "lat": 38.88209916666667, "rental_uris": {"ios": "https://dc.lft.to/lastmile_qr_scan", "android": "https://dc.lft.to/lastmile_qr_scan"}, "is_reserved": 0, "fusion_lon": 0.0, "fusion_lat": 0.0, "lon": -77.02904083333334, "name": "9bd5198b2e72d0849bb4784909ca6009"}, {"bike_id": "fc53c5683dc608751f273034a37a6aa9", "type": "electric_scooter", "is_disabled": 0, "lat": 38.901940833333335, "rental_uris": {"ios": "https://dc.lft.to/lastmile_qr_scan", "android": "https://dc.lft.to/lastmile_qr_scan"}, "is_reserved": 0, "fusion_lon": 0.0, "fusion_lat": 0.0, "lon": -76.9968405, "name": "fc53c5683dc608751f273034a37a6aa9"}, {"bike_id": "0c03debd64ea09f340e020e9d2a3d3ee", "type": "electric_scooter", "is_disabled": 0, "lat": 38.89704833333333, "rental_uris": {"ios": "https://dc.lft.to/lastmile_qr_scan", "android": "https://dc.lft.to/lastmile_qr_scan"}, "is_reserved": 0, "fusion_lon": 0.0, "fusion_lat": 0.0, "lon": -76.930009, "name": "0c03debd64ea09f340e020e9d2a3d3ee"}, {"bike_id": "ecf2543be558aa895244a800741f4ec4", "type": "electric_scooter", "is_disabled": 0, "lat": 38.90284883333333, "rental_uris": {"ios": "https://dc.lft.to/lastmile_qr_scan", "android": "https://dc.lft.to/lastmile_qr_scan"}, "is_reserved": 0, "fusion_lon": 0.0, "fusion_lat": 0.0, "lon": -77.02269216666667, "name": "ecf2543be558aa895244a800741f4ec4"}, {"bike_id": "98d748fcfecb6e26a8c385e6c78f3f06", "type": "electric_scooter", "is_disabled": 0, "lat": 38.93082666666667, "rental_uris": {"ios": "https://dc.lft.to/lastmile_qr_scan", "android": "https://dc.lft.to/lastmile_qr_scan"}, "is_reserved": 0, "fusion_lon": 0.0, "fusion_lat": 0.0, "lon": -77.03651966666666, "name": "98d748fcfecb6e26a8c385e6c78f3f06"}, {"bike_id": "ec8027fce9f5c64ae9dc53b534eb20d8", "type": "electric_scooter", "is_disabled": 0, "lat": 38.921180166666666, "rental_uris": {"ios": "https://dc.lft.to/lastmile_qr_scan", "android": "https://dc.lft.to/lastmile_qr_scan"}, "is_reserved": 0, "fusion_lon": 0.0, "fusion_lat": 0.0, "lon": -77.01208033333333, "name": "ec8027fce9f5c64ae9dc53b534eb20d8"}, {"bike_id": "2406bf2e78c99af21bd680398ccb2bb8", "type": "electric_scooter", "is_disabled": 0, "lat": 38.87755133333334, "rental_uris": {"ios": "https://dc.lft.to/lastmile_qr_scan", "android": "https://dc.lft.to/lastmile_qr_scan"}, "is_reserved": 0, "fusion_lon": 0.0, "fusion_lat": 0.0, "lon": -76.98682316666667, "name": "2406bf2e78c99af21bd680398ccb2bb8"}, {"bike_id": "e437b877660be4ce3e5681c755ca6e42", "type": "electric_scooter", "is_disabled": 0, "lat": 38.9156365, "rental_uris": {"ios": "https://dc.lft.to/lastmile_qr_scan", "android": "https://dc.lft.to/lastmile_qr_scan"}, "is_reserved": 0, "fusion_lon": 0.0, "fusion_lat": 0.0, "lon": -77.00977466666667, "name": "e437b877660be4ce3e5681c755ca6e42"}, {"bike_id": "445b461f32fb216ddd84c0216964cae2", "type": "electric_scooter", "is_disabled": 0, "lat": 38.9167385, "rental_uris": {"ios": "https://dc.lft.to/lastmile_qr_scan", "android": "https://dc.lft.to/lastmile_qr_scan"}, "is_reserved": 0, "fusion_lon": 0.0, "fusion_lat": 0.0, "lon": -77.03683083333334, "name": "445b461f32fb216ddd84c0216964cae2"}, {"bike_id": "1bd0b0cb31f8ec4c534b6993cfed8d2f", "type": "electric_scooter", "is_disabled": 0, "lat": 38.9056865, "rental_uris": {"ios": "https://dc.lft.to/lastmile_qr_scan", "android": "https://dc.lft.to/lastmile_qr_scan"}, "is_reserved": 0, "fusion_lon": 0.0, "fusion_lat": 0.0, "lon": -76.97780866666666, "name": "1bd0b0cb31f8ec4c534b6993cfed8d2f"}, {"bike_id": "c2d2cd4acf25f483db77cf2d8b7863a0", "type": "electric_scooter", "is_disabled": 0, "lat": 38.902534, "rental_uris": {"ios": "https://dc.lft.to/lastmile_qr_scan", "android": "https://dc.lft.to/lastmile_qr_scan"}, "is_reserved": 0, "fusion_lon": 0.0, "fusion_lat": 0.0, "lon": -77.017627, "name": "c2d2cd4acf25f483db77cf2d8b7863a0"}, {"bike_id": "ab83ea1a8f9e4f0a36e92e59cc38c1b5", "type": "electric_bike", "is_disabled": 0, "lat": 39.050544, "rental_uris": {"ios": "https://dc.lft.to/lastmile_qr_scan", "android": "https://dc.lft.to/lastmile_qr_scan"}, "is_reserved": 0, "fusion_lon": 0.0, "fusion_lat": 0.0, "lon": -77.05145366666666, "name": "ab83ea1a8f9e4f0a36e92e59cc38c1b5"}, {"bike_id": "efb67d790083173d134e5f65ff8f7439", "type": "electric_scooter", "is_disabled": 0, "lat": 38.93988916666667, "rental_uris": {"ios": "https://dc.lft.to/lastmile_qr_scan", "android": "https://dc.lft.to/lastmile_qr_scan"}, "is_reserved": 0, "fusion_lon": 0.0, "fusion_lat": 0.0, "lon": -77.01693216666666, "name": "efb67d790083173d134e5f65ff8f7439"}, {"bike_id": "32f540d2801c151b8772ea5f35edebb5", "type": "electric_scooter", "is_disabled": 0, "lat": 38.91115533333333, "rental_uris": {"ios": "https://dc.lft.to/lastmile_qr_scan", "android": "https://dc.lft.to/lastmile_qr_scan"}, "is_reserved": 0, "fusion_lon": 0.0, "fusion_lat": 0.0, "lon": -77.03252583333334, "name": "32f540d2801c151b8772ea5f35edebb5"}, {"bike_id": "f6d422d34d214d31bdad072e3db974f6", "type": "electric_scooter", "is_disabled": 0, "lat": 38.916653833333335, "rental_uris": {"ios": "https://dc.lft.to/lastmile_qr_scan", "android": "https://dc.lft.to/lastmile_qr_scan"}, "is_reserved": 0, "fusion_lon": 0.0, "fusion_lat": 0.0, "lon": -77.038512, "name": "f6d422d34d214d31bdad072e3db974f6"}, {"bike_id": "0deca3d0db421a5de514e38abda81e5e", "type": "electric_bike", "is_disabled": 0, "lat": 38.83239416666667, "rental_uris": {"ios": "https://dc.lft.to/lastmile_qr_scan", "android": "https://dc.lft.to/lastmile_qr_scan"}, "is_reserved": 0, "fusion_lon": 0.0, "fusion_lat": 0.0, "lon": -76.946329, "name": "0deca3d0db421a5de514e38abda81e5e"}, {"bike_id": "06028418b999bf7cd3562193a4d3f802", "type": "electric_scooter", "is_disabled": 0, "lat": 38.919139666666666, "rental_uris": {"ios": "https://dc.lft.to/lastmile_qr_scan", "android": "https://dc.lft.to/lastmile_qr_scan"}, "is_reserved": 0, "fusion_lon": 0.0, "fusion_lat": 0.0, "lon": -77.03194433333333, "name": "06028418b999bf7cd3562193a4d3f802"}, {"bike_id": "8b804c5e16288a60d94dd72b9896af65", "type": "electric_scooter", "is_disabled": 0, "lat": 38.89569066666667, "rental_uris": {"ios": "https://dc.lft.to/lastmile_qr_scan", "android": "https://dc.lft.to/lastmile_qr_scan"}, "is_reserved": 0, "fusion_lon": 0.0, "fusion_lat": 0.0, "lon": -76.93027833333333, "name": "8b804c5e16288a60d94dd72b9896af65"}, {"bike_id": "a72900dbe953d8966df03e35893f2aa9", "type": "electric_scooter", "is_disabled": 0, "lat": 38.904097666666665, "rental_uris": {"ios": "https://dc.lft.to/lastmile_qr_scan", "android": "https://dc.lft.to/lastmile_qr_scan"}, "is_reserved": 0, "fusion_lon": 0.0, "fusion_lat": 0.0, "lon": -76.97333683333333, "name": "a72900dbe953d8966df03e35893f2aa9"}, {"bike_id": "ad00c908cb737d0242a2d13edf39bc20", "type": "electric_scooter", "is_disabled": 0, "lat": 38.90364833333334, "rental_uris": {"ios": "https://dc.lft.to/lastmile_qr_scan", "android": "https://dc.lft.to/lastmile_qr_scan"}, "is_reserved": 0, "fusion_lon": 0.0, "fusion_lat": 0.0, "lon": -77.00755183333334, "name": "ad00c908cb737d0242a2d13edf39bc20"}, {"bike_id": "5bc10fcf37704dc8cf8b71c687ab6fad", "type": "electric_scooter", "is_disabled": 0, "lat": 38.915975833333334, "rental_uris": {"ios": "https://dc.lft.to/lastmile_qr_scan", "android": "https://dc.lft.to/lastmile_qr_scan"}, "is_reserved": 0, "fusion_lon": 0.0, "fusion_lat": 0.0, "lon": -77.0239765, "name": "5bc10fcf37704dc8cf8b71c687ab6fad"}, {"bike_id": "38a46cc455deb4a29288b9b855f1876b", "type": "electric_scooter", "is_disabled": 0, "lat": 38.91106083333333, "rental_uris": {"ios": "https://dc.lft.to/lastmile_qr_scan", "android": "https://dc.lft.to/lastmile_qr_scan"}, "is_reserved": 0, "fusion_lon": 0.0, "fusion_lat": 0.0, "lon": -77.01145766666667, "name": "38a46cc455deb4a29288b9b855f1876b"}, {"bike_id": "426aa90322b2d80ed9a06aa5b40da0d3", "type": "electric_scooter", "is_disabled": 0, "lat": 38.916997, "rental_uris": {"ios": "https://dc.lft.to/lastmile_qr_scan", "android": "https://dc.lft.to/lastmile_qr_scan"}, "is_reserved": 0, "fusion_lon": 0.0, "fusion_lat": 0.0, "lon": -77.023877, "name": "426aa90322b2d80ed9a06aa5b40da0d3"}, {"bike_id": "12ffdedef3230fc1047e36d48c6c7e9e", "type": "electric_scooter", "is_disabled": 0, "lat": 38.904996833333335, "rental_uris": {"ios": "https://dc.lft.to/lastmile_qr_scan", "android": "https://dc.lft.to/lastmile_qr_scan"}, "is_reserved": 0, "fusion_lon": 0.0, "fusion_lat": 0.0, "lon": -77.0691125, "name": "12ffdedef3230fc1047e36d48c6c7e9e"}, {"bike_id": "7882a80bcdb1f8b407ddc6257fc77833", "type": "electric_scooter", "is_disabled": 0, "lat": 38.88265283333333, "rental_uris": {"ios": "https://dc.lft.to/lastmile_qr_scan", "android": "https://dc.lft.to/lastmile_qr_scan"}, "is_reserved": 0, "fusion_lon": 0.0, "fusion_lat": 0.0, "lon": -76.99359783333334, "name": "7882a80bcdb1f8b407ddc6257fc77833"}, {"bike_id": "3bd20b1846bbd521dfb2ce34e792ca0b", "type": "electric_scooter", "is_disabled": 0, "lat": 38.880376166666665, "rental_uris": {"ios": "https://dc.lft.to/lastmile_qr_scan", "android": "https://dc.lft.to/lastmile_qr_scan"}, "is_reserved": 0, "fusion_lon": 0.0, "fusion_lat": 0.0, "lon": -77.00539066666667, "name": "3bd20b1846bbd521dfb2ce34e792ca0b"}, {"bike_id": "ba8dfb3b8c7f9abf769168f799b800f9", "type": "electric_scooter", "is_disabled": 0, "lat": 38.9131765, "rental_uris": {"ios": "https://dc.lft.to/lastmile_qr_scan", "android": "https://dc.lft.to/lastmile_qr_scan"}, "is_reserved": 0, "fusion_lon": 0.0, "fusion_lat": 0.0, "lon": -77.036512, "name": "ba8dfb3b8c7f9abf769168f799b800f9"}, {"bike_id": "5bcea270f470c163d48c19e9e528fe9d", "type": "electric_scooter", "is_disabled": 0, "lat": 38.930657833333335, "rental_uris": {"ios": "https://dc.lft.to/lastmile_qr_scan", "android": "https://dc.lft.to/lastmile_qr_scan"}, "is_reserved": 0, "fusion_lon": 0.0, "fusion_lat": 0.0, "lon": -77.01990583333334, "name": "5bcea270f470c163d48c19e9e528fe9d"}, {"bike_id": "adb31511720773aab208b296fda25233", "type": "electric_scooter", "is_disabled": 0, "lat": 38.941999333333335, "rental_uris": {"ios": "https://dc.lft.to/lastmile_qr_scan", "android": "https://dc.lft.to/lastmile_qr_scan"}, "is_reserved": 0, "fusion_lon": 0.0, "fusion_lat": 0.0, "lon": -77.02585666666667, "name": "adb31511720773aab208b296fda25233"}, {"bike_id": "b7f943ee3353da326be4ef01c5e3cf2b", "type": "electric_scooter", "is_disabled": 0, "lat": 38.9014015, "rental_uris": {"ios": "https://dc.lft.to/lastmile_qr_scan", "android": "https://dc.lft.to/lastmile_qr_scan"}, "is_reserved": 0, "fusion_lon": 0.0, "fusion_lat": 0.0, "lon": -77.01830766666667, "name": "b7f943ee3353da326be4ef01c5e3cf2b"}, {"bike_id": "2b6bd7cb192c9d62daaa554fddbc601b", "type": "electric_scooter", "is_disabled": 0, "lat": 38.89229733333333, "rental_uris": {"ios": "https://dc.lft.to/lastmile_qr_scan", "android": "https://dc.lft.to/lastmile_qr_scan"}, "is_reserved": 0, "fusion_lon": 0.0, "fusion_lat": 0.0, "lon": -77.04998883333333, "name": "2b6bd7cb192c9d62daaa554fddbc601b"}, {"bike_id": "83b3d683787a83fd5f1f02a7541cf666", "type": "electric_scooter", "is_disabled": 0, "lat": 38.91503183333333, "rental_uris": {"ios": "https://dc.lft.to/lastmile_qr_scan", "android": "https://dc.lft.to/lastmile_qr_scan"}, "is_reserved": 0, "fusion_lon": 0.0, "fusion_lat": 0.0, "lon": -77.0177415, "name": "83b3d683787a83fd5f1f02a7541cf666"}, {"bike_id": "3d7db4fdf8b48be72e3f5e229eab1337", "type": "electric_scooter", "is_disabled": 0, "lat": 38.920629166666664, "rental_uris": {"ios": "https://dc.lft.to/lastmile_qr_scan", "android": "https://dc.lft.to/lastmile_qr_scan"}, "is_reserved": 0, "fusion_lon": 0.0, "fusion_lat": 0.0, "lon": -77.04244966666667, "name": "3d7db4fdf8b48be72e3f5e229eab1337"}, {"bike_id": "a9ff0514c8624c2b1139d043bcc6aecc", "type": "electric_scooter", "is_disabled": 0, "lat": 38.922434, "rental_uris": {"ios": "https://dc.lft.to/lastmile_qr_scan", "android": "https://dc.lft.to/lastmile_qr_scan"}, "is_reserved": 0, "fusion_lon": 0.0, "fusion_lat": 0.0, "lon": -77.0313635, "name": "a9ff0514c8624c2b1139d043bcc6aecc"}, {"bike_id": "0dcb6b230a32db281bf9aebdeac23662", "type": "electric_scooter", "is_disabled": 0, "lat": 38.9087355, "rental_uris": {"ios": "https://dc.lft.to/lastmile_qr_scan", "android": "https://dc.lft.to/lastmile_qr_scan"}, "is_reserved": 0, "fusion_lon": 0.0, "fusion_lat": 0.0, "lon": -77.022285, "name": "0dcb6b230a32db281bf9aebdeac23662"}, {"bike_id": "2c675fdd62b4caff8216007d70672672", "type": "electric_scooter", "is_disabled": 0, "lat": 38.928879333333335, "rental_uris": {"ios": "https://dc.lft.to/lastmile_qr_scan", "android": "https://dc.lft.to/lastmile_qr_scan"}, "is_reserved": 0, "fusion_lon": 0.0, "fusion_lat": 0.0, "lon": -77.054508, "name": "2c675fdd62b4caff8216007d70672672"}, {"bike_id": "b39d14f25b995586d22022104abd0f99", "type": "electric_scooter", "is_disabled": 0, "lat": 38.907946833333334, "rental_uris": {"ios": "https://dc.lft.to/lastmile_qr_scan", "android": "https://dc.lft.to/lastmile_qr_scan"}, "is_reserved": 0, "fusion_lon": 0.0, "fusion_lat": 0.0, "lon": -77.04809, "name": "b39d14f25b995586d22022104abd0f99"}, {"bike_id": "e620623669f7c8fea0e0dabb156ec8fb", "type": "electric_scooter", "is_disabled": 0, "lat": 38.90217033333333, "rental_uris": {"ios": "https://dc.lft.to/lastmile_qr_scan", "android": "https://dc.lft.to/lastmile_qr_scan"}, "is_reserved": 0, "fusion_lon": 0.0, "fusion_lat": 0.0, "lon": -77.0336225, "name": "e620623669f7c8fea0e0dabb156ec8fb"}, {"bike_id": "dce4c29968aa0d7b15440c468eac6331", "type": "electric_scooter", "is_disabled": 0, "lat": 38.9210365, "rental_uris": {"ios": "https://dc.lft.to/lastmile_qr_scan", "android": "https://dc.lft.to/lastmile_qr_scan"}, "is_reserved": 0, "fusion_lon": 0.0, "fusion_lat": 0.0, "lon": -77.07188, "name": "dce4c29968aa0d7b15440c468eac6331"}, {"bike_id": "4c26087afa414f4fce8275e5029f4189", "type": "electric_scooter", "is_disabled": 0, "lat": 38.88655716666667, "rental_uris": {"ios": "https://dc.lft.to/lastmile_qr_scan", "android": "https://dc.lft.to/lastmile_qr_scan"}, "is_reserved": 0, "fusion_lon": 0.0, "fusion_lat": 0.0, "lon": -77.02831666666667, "name": "4c26087afa414f4fce8275e5029f4189"}, {"bike_id": "49895100ac0fa85b2a9a0fff16c1c447", "type": "electric_scooter", "is_disabled": 0, "lat": 38.896433, "rental_uris": {"ios": "https://dc.lft.to/lastmile_qr_scan", "android": "https://dc.lft.to/lastmile_qr_scan"}, "is_reserved": 0, "fusion_lon": 0.0, "fusion_lat": 0.0, "lon": -77.07057116666667, "name": "49895100ac0fa85b2a9a0fff16c1c447"}, {"bike_id": "f70a7c4855d2c12ce97ca4f130f23648", "type": "electric_scooter", "is_disabled": 0, "lat": 38.917988333333334, "rental_uris": {"ios": "https://dc.lft.to/lastmile_qr_scan", "android": "https://dc.lft.to/lastmile_qr_scan"}, "is_reserved": 0, "fusion_lon": 0.0, "fusion_lat": 0.0, "lon": -77.03437683333334, "name": "f70a7c4855d2c12ce97ca4f130f23648"}, {"bike_id": "0572bcc0f1d15e982061f06b2f952774", "type": "electric_bike", "is_disabled": 0, "lat": 38.9315165, "rental_uris": {"ios": "https://dc.lft.to/lastmile_qr_scan", "android": "https://dc.lft.to/lastmile_qr_scan"}, "is_reserved": 0, "fusion_lon": 0.0, "fusion_lat": 0.0, "lon": -77.07853516666667, "name": "0572bcc0f1d15e982061f06b2f952774"}, {"bike_id": "4623512b16c75db2516c605aafc955b1", "type": "electric_scooter", "is_disabled": 0, "lat": 38.922879, "rental_uris": {"ios": "https://dc.lft.to/lastmile_qr_scan", "android": "https://dc.lft.to/lastmile_qr_scan"}, "is_reserved": 0, "fusion_lon": 0.0, "fusion_lat": 0.0, "lon": -77.044817, "name": "4623512b16c75db2516c605aafc955b1"}, {"bike_id": "5000b5bc2c3a6a211649fc18307066a8", "type": "electric_scooter", "is_disabled": 0, "lat": 38.866292333333334, "rental_uris": {"ios": "https://dc.lft.to/lastmile_qr_scan", "android": "https://dc.lft.to/lastmile_qr_scan"}, "is_reserved": 0, "fusion_lon": 0.0, "fusion_lat": 0.0, "lon": -76.98713316666667, "name": "5000b5bc2c3a6a211649fc18307066a8"}, {"bike_id": "2cba0cb57a17641a4e28f5725e56aa2d", "type": "electric_scooter", "is_disabled": 0, "lat": 38.887769166666665, "rental_uris": {"ios": "https://dc.lft.to/lastmile_qr_scan", "android": "https://dc.lft.to/lastmile_qr_scan"}, "is_reserved": 0, "fusion_lon": 0.0, "fusion_lat": 0.0, "lon": -76.95520883333333, "name": "2cba0cb57a17641a4e28f5725e56aa2d"}, {"bike_id": "1be28c1ee2b836962a1147ec751c4ac6", "type": "electric_scooter", "is_disabled": 0, "lat": 38.866455333333334, "rental_uris": {"ios": "https://dc.lft.to/lastmile_qr_scan", "android": "https://dc.lft.to/lastmile_qr_scan"}, "is_reserved": 0, "fusion_lon": 0.0, "fusion_lat": 0.0, "lon": -76.988244, "name": "1be28c1ee2b836962a1147ec751c4ac6"}, {"bike_id": "df89ffddcb522fe6e4a1a03706858f0a", "type": "electric_bike", "is_disabled": 0, "lat": 38.983669666666664, "rental_uris": {"ios": "https://dc.lft.to/lastmile_qr_scan", "android": "https://dc.lft.to/lastmile_qr_scan"}, "is_reserved": 0, "fusion_lon": 0.0, "fusion_lat": 0.0, "lon": -76.97214783333334, "name": "df89ffddcb522fe6e4a1a03706858f0a"}, {"bike_id": "e668ae7acb19d6276b97299c8708e71d", "type": "electric_scooter", "is_disabled": 0, "lat": 38.9274785, "rental_uris": {"ios": "https://dc.lft.to/lastmile_qr_scan", "android": "https://dc.lft.to/lastmile_qr_scan"}, "is_reserved": 0, "fusion_lon": 0.0, "fusion_lat": 0.0, "lon": -77.02527366666666, "name": "e668ae7acb19d6276b97299c8708e71d"}, {"bike_id": "bc7a4be450fd51c81c689c4e5bf184a3", "type": "electric_scooter", "is_disabled": 0, "lat": 38.8668205, "rental_uris": {"ios": "https://dc.lft.to/lastmile_qr_scan", "android": "https://dc.lft.to/lastmile_qr_scan"}, "is_reserved": 0, "fusion_lon": 0.0, "fusion_lat": 0.0, "lon": -76.98587183333333, "name": "bc7a4be450fd51c81c689c4e5bf184a3"}, {"bike_id": "e657ea3002245977fa98228fd53de2e0", "type": "electric_bike", "is_disabled": 0, "lat": 38.93775083333333, "rental_uris": {"ios": "https://dc.lft.to/lastmile_qr_scan", "android": "https://dc.lft.to/lastmile_qr_scan"}, "is_reserved": 0, "fusion_lon": 0.0, "fusion_lat": 0.0, "lon": -77.01880166666666, "name": "e657ea3002245977fa98228fd53de2e0"}, {"bike_id": "3049fab222a45261d6db4a904f2157de", "type": "electric_scooter", "is_disabled": 0, "lat": 38.89744, "rental_uris": {"ios": "https://dc.lft.to/lastmile_qr_scan", "android": "https://dc.lft.to/lastmile_qr_scan"}, "is_reserved": 0, "fusion_lon": 0.0, "fusion_lat": 0.0, "lon": -77.0460765, "name": "3049fab222a45261d6db4a904f2157de"}, {"bike_id": "d1ab5d6a35a4443643b8f9ef242b7f8a", "type": "electric_scooter", "is_disabled": 0, "lat": 38.944186333333334, "rental_uris": {"ios": "https://dc.lft.to/lastmile_qr_scan", "android": "https://dc.lft.to/lastmile_qr_scan"}, "is_reserved": 0, "fusion_lon": 0.0, "fusion_lat": 0.0, "lon": -77.0178085, "name": "d1ab5d6a35a4443643b8f9ef242b7f8a"}, {"bike_id": "4a92a301274d2d318031b28384e7ef53", "type": "electric_scooter", "is_disabled": 0, "lat": 38.93464216666667, "rental_uris": {"ios": "https://dc.lft.to/lastmile_qr_scan", "android": "https://dc.lft.to/lastmile_qr_scan"}, "is_reserved": 0, "fusion_lon": 0.0, "fusion_lat": 0.0, "lon": -77.02774966666667, "name": "4a92a301274d2d318031b28384e7ef53"}, {"bike_id": "393a42f3496969610047c1a6eabd244e", "type": "electric_scooter", "is_disabled": 0, "lat": 38.9095185, "rental_uris": {"ios": "https://dc.lft.to/lastmile_qr_scan", "android": "https://dc.lft.to/lastmile_qr_scan"}, "is_reserved": 0, "fusion_lon": 0.0, "fusion_lat": 0.0, "lon": -77.03237183333333, "name": "393a42f3496969610047c1a6eabd244e"}, {"bike_id": "30bb4d0886bca63b03a6610a9985a825", "type": "electric_scooter", "is_disabled": 0, "lat": 38.903817833333335, "rental_uris": {"ios": "https://dc.lft.to/lastmile_qr_scan", "android": "https://dc.lft.to/lastmile_qr_scan"}, "is_reserved": 0, "fusion_lon": 0.0, "fusion_lat": 0.0, "lon": -77.06864683333333, "name": "30bb4d0886bca63b03a6610a9985a825"}, {"bike_id": "7c15c8bec64cd23fca2cdfd49a95929b", "type": "electric_scooter", "is_disabled": 0, "lat": 38.904166833333335, "rental_uris": {"ios": "https://dc.lft.to/lastmile_qr_scan", "android": "https://dc.lft.to/lastmile_qr_scan"}, "is_reserved": 0, "fusion_lon": 0.0, "fusion_lat": 0.0, "lon": -77.05461616666666, "name": "7c15c8bec64cd23fca2cdfd49a95929b"}, {"bike_id": "673a797b923aefcc0690247e5beb115c", "type": "electric_scooter", "is_disabled": 0, "lat": 38.91274966666667, "rental_uris": {"ios": "https://dc.lft.to/lastmile_qr_scan", "android": "https://dc.lft.to/lastmile_qr_scan"}, "is_reserved": 0, "fusion_lon": 0.0, "fusion_lat": 0.0, "lon": -77.05158133333333, "name": "673a797b923aefcc0690247e5beb115c"}, {"bike_id": "49e0c6c92aacb2a358cc1f86695e4419", "type": "electric_scooter", "is_disabled": 0, "lat": 38.922672166666665, "rental_uris": {"ios": "https://dc.lft.to/lastmile_qr_scan", "android": "https://dc.lft.to/lastmile_qr_scan"}, "is_reserved": 0, "fusion_lon": 0.0, "fusion_lat": 0.0, "lon": -76.99130833333334, "name": "49e0c6c92aacb2a358cc1f86695e4419"}, {"bike_id": "59cddf9a8268f8f5b4a9893db385408a", "type": "electric_scooter", "is_disabled": 0, "lat": 38.91694416666667, "rental_uris": {"ios": "https://dc.lft.to/lastmile_qr_scan", "android": "https://dc.lft.to/lastmile_qr_scan"}, "is_reserved": 0, "fusion_lon": 0.0, "fusion_lat": 0.0, "lon": -77.03212766666667, "name": "59cddf9a8268f8f5b4a9893db385408a"}, {"bike_id": "0232fd0581812b3f86e23da74d997dda", "type": "electric_scooter", "is_disabled": 0, "lat": 38.92900616666667, "rental_uris": {"ios": "https://dc.lft.to/lastmile_qr_scan", "android": "https://dc.lft.to/lastmile_qr_scan"}, "is_reserved": 0, "fusion_lon": 0.0, "fusion_lat": 0.0, "lon": -77.03262916666667, "name": "0232fd0581812b3f86e23da74d997dda"}, {"bike_id": "e9ef9fd078751a407782ae538f827ffd", "type": "electric_scooter", "is_disabled": 0, "lat": 38.918698, "rental_uris": {"ios": "https://dc.lft.to/lastmile_qr_scan", "android": "https://dc.lft.to/lastmile_qr_scan"}, "is_reserved": 0, "fusion_lon": 0.0, "fusion_lat": 0.0, "lon": -77.01512816666667, "name": "e9ef9fd078751a407782ae538f827ffd"}, {"bike_id": "597071c83302150497fb9559f89b605c", "type": "electric_scooter", "is_disabled": 0, "lat": 38.88267166666667, "rental_uris": {"ios": "https://dc.lft.to/lastmile_qr_scan", "android": "https://dc.lft.to/lastmile_qr_scan"}, "is_reserved": 0, "fusion_lon": 0.0, "fusion_lat": 0.0, "lon": -76.992522, "name": "597071c83302150497fb9559f89b605c"}, {"bike_id": "68527e16296990eadbb19560e6ee6c7c", "type": "electric_scooter", "is_disabled": 0, "lat": 38.9432815, "rental_uris": {"ios": "https://dc.lft.to/lastmile_qr_scan", "android": "https://dc.lft.to/lastmile_qr_scan"}, "is_reserved": 0, "fusion_lon": 0.0, "fusion_lat": 0.0, "lon": -77.0148345, "name": "68527e16296990eadbb19560e6ee6c7c"}, {"bike_id": "8f57f150953132e904d6b4b584ebf22e", "type": "electric_scooter", "is_disabled": 0, "lat": 38.93148816666667, "rental_uris": {"ios": "https://dc.lft.to/lastmile_qr_scan", "android": "https://dc.lft.to/lastmile_qr_scan"}, "is_reserved": 0, "fusion_lon": 0.0, "fusion_lat": 0.0, "lon": -77.03347516666666, "name": "8f57f150953132e904d6b4b584ebf22e"}, {"bike_id": "b9d9905a2f62dc562f48a1c72fe5d28d", "type": "electric_scooter", "is_disabled": 0, "lat": 38.9216865, "rental_uris": {"ios": "https://dc.lft.to/lastmile_qr_scan", "android": "https://dc.lft.to/lastmile_qr_scan"}, "is_reserved": 0, "fusion_lon": 0.0, "fusion_lat": 0.0, "lon": -77.03324483333333, "name": "b9d9905a2f62dc562f48a1c72fe5d28d"}, {"bike_id": "d57325145060f7af8eddf377d14da29e", "type": "electric_scooter", "is_disabled": 0, "lat": 38.91137033333333, "rental_uris": {"ios": "https://dc.lft.to/lastmile_qr_scan", "android": "https://dc.lft.to/lastmile_qr_scan"}, "is_reserved": 0, "fusion_lon": 0.0, "fusion_lat": 0.0, "lon": -77.06540616666666, "name": "d57325145060f7af8eddf377d14da29e"}, {"bike_id": "2115ca2ca27023278fb194c87d633ecc", "type": "electric_scooter", "is_disabled": 0, "lat": 38.91911833333333, "rental_uris": {"ios": "https://dc.lft.to/lastmile_qr_scan", "android": "https://dc.lft.to/lastmile_qr_scan"}, "is_reserved": 0, "fusion_lon": 0.0, "fusion_lat": 0.0, "lon": -77.04473866666666, "name": "2115ca2ca27023278fb194c87d633ecc"}, {"bike_id": "269c49561697bd9394dea34a6589c618", "type": "electric_scooter", "is_disabled": 0, "lat": 38.914226, "rental_uris": {"ios": "https://dc.lft.to/lastmile_qr_scan", "android": "https://dc.lft.to/lastmile_qr_scan"}, "is_reserved": 0, "fusion_lon": 0.0, "fusion_lat": 0.0, "lon": -77.02203233333333, "name": "269c49561697bd9394dea34a6589c618"}, {"bike_id": "5668ca2ec24a259e5bb8fde3983d49ee", "type": "electric_scooter", "is_disabled": 0, "lat": 38.920549333333334, "rental_uris": {"ios": "https://dc.lft.to/lastmile_qr_scan", "android": "https://dc.lft.to/lastmile_qr_scan"}, "is_reserved": 0, "fusion_lon": 0.0, "fusion_lat": 0.0, "lon": -77.034753, "name": "5668ca2ec24a259e5bb8fde3983d49ee"}, {"bike_id": "4d969d3e6cade33705090a2e80fc533f", "type": "electric_scooter", "is_disabled": 0, "lat": 38.8966725, "rental_uris": {"ios": "https://dc.lft.to/lastmile_qr_scan", "android": "https://dc.lft.to/lastmile_qr_scan"}, "is_reserved": 0, "fusion_lon": 0.0, "fusion_lat": 0.0, "lon": -76.988163, "name": "4d969d3e6cade33705090a2e80fc533f"}, {"bike_id": "43882bf66c566a350bc948051e7c9e74", "type": "electric_scooter", "is_disabled": 0, "lat": 38.910510333333335, "rental_uris": {"ios": "https://dc.lft.to/lastmile_qr_scan", "android": "https://dc.lft.to/lastmile_qr_scan"}, "is_reserved": 0, "fusion_lon": 0.0, "fusion_lat": 0.0, "lon": -77.05286183333334, "name": "43882bf66c566a350bc948051e7c9e74"}, {"bike_id": "4072b3b895ef3977786cd9a322e220b4", "type": "electric_scooter", "is_disabled": 0, "lat": 38.90970266666667, "rental_uris": {"ios": "https://dc.lft.to/lastmile_qr_scan", "android": "https://dc.lft.to/lastmile_qr_scan"}, "is_reserved": 0, "fusion_lon": 0.0, "fusion_lat": 0.0, "lon": -77.03860933333333, "name": "4072b3b895ef3977786cd9a322e220b4"}, {"bike_id": "a7e028efac4ee25aa896c845b1cfdcfb", "type": "electric_scooter", "is_disabled": 0, "lat": 38.908195, "rental_uris": {"ios": "https://dc.lft.to/lastmile_qr_scan", "android": "https://dc.lft.to/lastmile_qr_scan"}, "is_reserved": 0, "fusion_lon": 0.0, "fusion_lat": 0.0, "lon": -77.036557, "name": "a7e028efac4ee25aa896c845b1cfdcfb"}, {"bike_id": "6499bfc9311543be89443d0fb09f268f", "type": "electric_scooter", "is_disabled": 0, "lat": 38.92413233333333, "rental_uris": {"ios": "https://dc.lft.to/lastmile_qr_scan", "android": "https://dc.lft.to/lastmile_qr_scan"}, "is_reserved": 0, "fusion_lon": 0.0, "fusion_lat": 0.0, "lon": -77.03634333333333, "name": "6499bfc9311543be89443d0fb09f268f"}, {"bike_id": "cb2cad33c570b6215f89250ae3f7f68b", "type": "electric_scooter", "is_disabled": 0, "lat": 38.891891333333334, "rental_uris": {"ios": "https://dc.lft.to/lastmile_qr_scan", "android": "https://dc.lft.to/lastmile_qr_scan"}, "is_reserved": 0, "fusion_lon": 0.0, "fusion_lat": 0.0, "lon": -77.0023055, "name": "cb2cad33c570b6215f89250ae3f7f68b"}, {"bike_id": "1cc665f89ddf4ee3be75fcc5b7d1182d", "type": "electric_scooter", "is_disabled": 0, "lat": 38.917125166666665, "rental_uris": {"ios": "https://dc.lft.to/lastmile_qr_scan", "android": "https://dc.lft.to/lastmile_qr_scan"}, "is_reserved": 0, "fusion_lon": 0.0, "fusion_lat": 0.0, "lon": -77.0461385, "name": "1cc665f89ddf4ee3be75fcc5b7d1182d"}, {"bike_id": "af7f892a850d4cbaa562559b3d3f3fc8", "type": "electric_scooter", "is_disabled": 0, "lat": 38.877841, "rental_uris": {"ios": "https://dc.lft.to/lastmile_qr_scan", "android": "https://dc.lft.to/lastmile_qr_scan"}, "is_reserved": 0, "fusion_lon": 0.0, "fusion_lat": 0.0, "lon": -77.017397, "name": "af7f892a850d4cbaa562559b3d3f3fc8"}, {"bike_id": "5db09c593214599c7147ffd9ee48553e", "type": "electric_scooter", "is_disabled": 0, "lat": 38.966022333333335, "rental_uris": {"ios": "https://dc.lft.to/lastmile_qr_scan", "android": "https://dc.lft.to/lastmile_qr_scan"}, "is_reserved": 0, "fusion_lon": 0.0, "fusion_lat": 0.0, "lon": -77.01977183333334, "name": "5db09c593214599c7147ffd9ee48553e"}, {"bike_id": "df12491e845fcd8646cfb3f2d40b5939", "type": "electric_bike", "is_disabled": 0, "lat": 38.807525, "rental_uris": {"ios": "https://dc.lft.to/lastmile_qr_scan", "android": "https://dc.lft.to/lastmile_qr_scan"}, "is_reserved": 0, "fusion_lon": 0.0, "fusion_lat": 0.0, "lon": -77.09452966666667, "name": "df12491e845fcd8646cfb3f2d40b5939"}, {"bike_id": "995be2fb3193e45953466479d91bafaa", "type": "electric_scooter", "is_disabled": 0, "lat": 38.8929915, "rental_uris": {"ios": "https://dc.lft.to/lastmile_qr_scan", "android": "https://dc.lft.to/lastmile_qr_scan"}, "is_reserved": 0, "fusion_lon": 0.0, "fusion_lat": 0.0, "lon": -77.02024433333334, "name": "995be2fb3193e45953466479d91bafaa"}, {"bike_id": "085b81297bff1c749dfb2aee47a3c687", "type": "electric_bike", "is_disabled": 0, "lat": 38.86484083333333, "rental_uris": {"ios": "https://dc.lft.to/lastmile_qr_scan", "android": "https://dc.lft.to/lastmile_qr_scan"}, "is_reserved": 0, "fusion_lon": 0.0, "fusion_lat": 0.0, "lon": -76.977441, "name": "085b81297bff1c749dfb2aee47a3c687"}, {"bike_id": "534130c74105f7b0ffe4890628a88b3a", "type": "electric_scooter", "is_disabled": 0, "lat": 38.917319, "rental_uris": {"ios": "https://dc.lft.to/lastmile_qr_scan", "android": "https://dc.lft.to/lastmile_qr_scan"}, "is_reserved": 0, "fusion_lon": 0.0, "fusion_lat": 0.0, "lon": -77.00818633333333, "name": "534130c74105f7b0ffe4890628a88b3a"}, {"bike_id": "7c146f9c0a1c446cfff7b71d8d1e550d", "type": "electric_scooter", "is_disabled": 0, "lat": 38.938974, "rental_uris": {"ios": "https://dc.lft.to/lastmile_qr_scan", "android": "https://dc.lft.to/lastmile_qr_scan"}, "is_reserved": 0, "fusion_lon": 0.0, "fusion_lat": 0.0, "lon": -77.03312566666666, "name": "7c146f9c0a1c446cfff7b71d8d1e550d"}, {"bike_id": "bd73cc65f447c43548086531edcd7797", "type": "electric_scooter", "is_disabled": 0, "lat": 38.91418016666667, "rental_uris": {"ios": "https://dc.lft.to/lastmile_qr_scan", "android": "https://dc.lft.to/lastmile_qr_scan"}, "is_reserved": 0, "fusion_lon": 0.0, "fusion_lat": 0.0, "lon": -77.039553, "name": "bd73cc65f447c43548086531edcd7797"}, {"bike_id": "48cedbeffa1291560355bc0365438fbe", "type": "electric_scooter", "is_disabled": 0, "lat": 38.92324, "rental_uris": {"ios": "https://dc.lft.to/lastmile_qr_scan", "android": "https://dc.lft.to/lastmile_qr_scan"}, "is_reserved": 0, "fusion_lon": 0.0, "fusion_lat": 0.0, "lon": -77.000586, "name": "48cedbeffa1291560355bc0365438fbe"}, {"bike_id": "4238f9dbe8e50725b7033421a9626219", "type": "electric_bike", "is_disabled": 0, "lat": 38.95967666666667, "rental_uris": {"ios": "https://dc.lft.to/lastmile_qr_scan", "android": "https://dc.lft.to/lastmile_qr_scan"}, "is_reserved": 0, "fusion_lon": 0.0, "fusion_lat": 0.0, "lon": -76.98159733333334, "name": "4238f9dbe8e50725b7033421a9626219"}, {"bike_id": "1f996c5db79c65bc5459f91527a5c86e", "type": "electric_scooter", "is_disabled": 0, "lat": 38.92485166666667, "rental_uris": {"ios": "https://dc.lft.to/lastmile_qr_scan", "android": "https://dc.lft.to/lastmile_qr_scan"}, "is_reserved": 0, "fusion_lon": 0.0, "fusion_lat": 0.0, "lon": -77.02961466666666, "name": "1f996c5db79c65bc5459f91527a5c86e"}, {"bike_id": "3487203bdc2939af6defd4b8248504e5", "type": "electric_scooter", "is_disabled": 0, "lat": 38.858103166666666, "rental_uris": {"ios": "https://dc.lft.to/lastmile_qr_scan", "android": "https://dc.lft.to/lastmile_qr_scan"}, "is_reserved": 0, "fusion_lon": 0.0, "fusion_lat": 0.0, "lon": -76.9892475, "name": "3487203bdc2939af6defd4b8248504e5"}, {"bike_id": "fa635e1877989b1ea2d82ad200cb43b1", "type": "electric_scooter", "is_disabled": 0, "lat": 38.917087333333335, "rental_uris": {"ios": "https://dc.lft.to/lastmile_qr_scan", "android": "https://dc.lft.to/lastmile_qr_scan"}, "is_reserved": 0, "fusion_lon": 0.0, "fusion_lat": 0.0, "lon": -77.02891016666666, "name": "fa635e1877989b1ea2d82ad200cb43b1"}, {"bike_id": "4639b8485dde1a4ab38f7324337aca96", "type": "electric_scooter", "is_disabled": 0, "lat": 38.94199616666667, "rental_uris": {"ios": "https://dc.lft.to/lastmile_qr_scan", "android": "https://dc.lft.to/lastmile_qr_scan"}, "is_reserved": 0, "fusion_lon": 0.0, "fusion_lat": 0.0, "lon": -77.025421, "name": "4639b8485dde1a4ab38f7324337aca96"}, {"bike_id": "32004338bef44b4325cd0036974fd43d", "type": "electric_scooter", "is_disabled": 0, "lat": 38.899719833333336, "rental_uris": {"ios": "https://dc.lft.to/lastmile_qr_scan", "android": "https://dc.lft.to/lastmile_qr_scan"}, "is_reserved": 0, "fusion_lon": 0.0, "fusion_lat": 0.0, "lon": -76.98305366666666, "name": "32004338bef44b4325cd0036974fd43d"}, {"bike_id": "2a05b563385cee4cbbeb09d3ac8ea7e0", "type": "electric_scooter", "is_disabled": 0, "lat": 38.907833333333336, "rental_uris": {"ios": "https://dc.lft.to/lastmile_qr_scan", "android": "https://dc.lft.to/lastmile_qr_scan"}, "is_reserved": 0, "fusion_lon": 0.0, "fusion_lat": 0.0, "lon": -76.994317, "name": "2a05b563385cee4cbbeb09d3ac8ea7e0"}, {"bike_id": "0e07b7ecb8bd1f74d901ffa264c514dd", "type": "electric_scooter", "is_disabled": 0, "lat": 38.866254833333336, "rental_uris": {"ios": "https://dc.lft.to/lastmile_qr_scan", "android": "https://dc.lft.to/lastmile_qr_scan"}, "is_reserved": 0, "fusion_lon": 0.0, "fusion_lat": 0.0, "lon": -76.98719466666667, "name": "0e07b7ecb8bd1f74d901ffa264c514dd"}, {"bike_id": "b5f3e3012c8dbf7f70a14f75efb62b33", "type": "electric_scooter", "is_disabled": 0, "lat": 38.894813166666665, "rental_uris": {"ios": "https://dc.lft.to/lastmile_qr_scan", "android": "https://dc.lft.to/lastmile_qr_scan"}, "is_reserved": 0, "fusion_lon": 0.0, "fusion_lat": 0.0, "lon": -76.98780933333333, "name": "b5f3e3012c8dbf7f70a14f75efb62b33"}, {"bike_id": "7328118328464231d30ebece89530328", "type": "electric_scooter", "is_disabled": 0, "lat": 38.870714666666665, "rental_uris": {"ios": "https://dc.lft.to/lastmile_qr_scan", "android": "https://dc.lft.to/lastmile_qr_scan"}, "is_reserved": 0, "fusion_lon": 0.0, "fusion_lat": 0.0, "lon": -76.98127583333333, "name": "7328118328464231d30ebece89530328"}, {"bike_id": "6339d33aca73c1b8299416d12f4ab487", "type": "electric_scooter", "is_disabled": 0, "lat": 38.939784333333336, "rental_uris": {"ios": "https://dc.lft.to/lastmile_qr_scan", "android": "https://dc.lft.to/lastmile_qr_scan"}, "is_reserved": 0, "fusion_lon": 0.0, "fusion_lat": 0.0, "lon": -77.028776, "name": "6339d33aca73c1b8299416d12f4ab487"}, {"bike_id": "ab73c46f9405718f3e106ec084ead9e7", "type": "electric_scooter", "is_disabled": 0, "lat": 38.90503983333333, "rental_uris": {"ios": "https://dc.lft.to/lastmile_qr_scan", "android": "https://dc.lft.to/lastmile_qr_scan"}, "is_reserved": 0, "fusion_lon": 0.0, "fusion_lat": 0.0, "lon": -77.06380533333333, "name": "ab73c46f9405718f3e106ec084ead9e7"}, {"bike_id": "ef34941128f6b1e1a9c9c3f689fc83e6", "type": "electric_scooter", "is_disabled": 0, "lat": 38.92771466666667, "rental_uris": {"ios": "https://dc.lft.to/lastmile_qr_scan", "android": "https://dc.lft.to/lastmile_qr_scan"}, "is_reserved": 0, "fusion_lon": 0.0, "fusion_lat": 0.0, "lon": -77.02923483333333, "name": "ef34941128f6b1e1a9c9c3f689fc83e6"}, {"bike_id": "f94ef4ccf477c827f0d2fa15a685e1c9", "type": "electric_scooter", "is_disabled": 0, "lat": 38.9052855, "rental_uris": {"ios": "https://dc.lft.to/lastmile_qr_scan", "android": "https://dc.lft.to/lastmile_qr_scan"}, "is_reserved": 0, "fusion_lon": 0.0, "fusion_lat": 0.0, "lon": -77.059038, "name": "f94ef4ccf477c827f0d2fa15a685e1c9"}, {"bike_id": "9f1107ee7bb6a7a7037f75ffa9f1cd89", "type": "electric_scooter", "is_disabled": 0, "lat": 38.907697, "rental_uris": {"ios": "https://dc.lft.to/lastmile_qr_scan", "android": "https://dc.lft.to/lastmile_qr_scan"}, "is_reserved": 0, "fusion_lon": 0.0, "fusion_lat": 0.0, "lon": -77.07170916666666, "name": "9f1107ee7bb6a7a7037f75ffa9f1cd89"}, {"bike_id": "3709d75929c3ce480617730a280b3e82", "type": "electric_scooter", "is_disabled": 0, "lat": 38.90953233333333, "rental_uris": {"ios": "https://dc.lft.to/lastmile_qr_scan", "android": "https://dc.lft.to/lastmile_qr_scan"}, "is_reserved": 0, "fusion_lon": 0.0, "fusion_lat": 0.0, "lon": -77.026048, "name": "3709d75929c3ce480617730a280b3e82"}, {"bike_id": "f99cb1e44afd5dd0dd69269ae15bede3", "type": "electric_scooter", "is_disabled": 0, "lat": 38.908091, "rental_uris": {"ios": "https://dc.lft.to/lastmile_qr_scan", "android": "https://dc.lft.to/lastmile_qr_scan"}, "is_reserved": 0, "fusion_lon": 0.0, "fusion_lat": 0.0, "lon": -77.02973133333333, "name": "f99cb1e44afd5dd0dd69269ae15bede3"}, {"bike_id": "6f9e7cfcc74474b0eed38eebfd7931b1", "type": "electric_scooter", "is_disabled": 0, "lat": 38.91271616666667, "rental_uris": {"ios": "https://dc.lft.to/lastmile_qr_scan", "android": "https://dc.lft.to/lastmile_qr_scan"}, "is_reserved": 0, "fusion_lon": 0.0, "fusion_lat": 0.0, "lon": -77.01883933333333, "name": "6f9e7cfcc74474b0eed38eebfd7931b1"}, {"bike_id": "e85bcbd1895bc7715ec9cdc539bf4afe", "type": "electric_scooter", "is_disabled": 0, "lat": 38.89882816666667, "rental_uris": {"ios": "https://dc.lft.to/lastmile_qr_scan", "android": "https://dc.lft.to/lastmile_qr_scan"}, "is_reserved": 0, "fusion_lon": 0.0, "fusion_lat": 0.0, "lon": -76.93179133333334, "name": "e85bcbd1895bc7715ec9cdc539bf4afe"}, {"bike_id": "10935db2eeb68272f83ae343aaf00d12", "type": "electric_scooter", "is_disabled": 0, "lat": 38.927581833333335, "rental_uris": {"ios": "https://dc.lft.to/lastmile_qr_scan", "android": "https://dc.lft.to/lastmile_qr_scan"}, "is_reserved": 0, "fusion_lon": 0.0, "fusion_lat": 0.0, "lon": -77.02841183333334, "name": "10935db2eeb68272f83ae343aaf00d12"}, {"bike_id": "d98396d5261238789742f99cd200a2ee", "type": "electric_bike", "is_disabled": 0, "lat": 38.86618333333333, "rental_uris": {"ios": "https://dc.lft.to/lastmile_qr_scan", "android": "https://dc.lft.to/lastmile_qr_scan"}, "is_reserved": 0, "fusion_lon": 0.0, "fusion_lat": 0.0, "lon": -76.94567333333333, "name": "d98396d5261238789742f99cd200a2ee"}, {"bike_id": "e143871ed6f80eb6bf3107c567b688d8", "type": "electric_scooter", "is_disabled": 0, "lat": 38.89789416666667, "rental_uris": {"ios": "https://dc.lft.to/lastmile_qr_scan", "android": "https://dc.lft.to/lastmile_qr_scan"},