{"data": {"bikes": [{"name": "e4da7687cdfe897532619a0a5b9435c6", "fusion_lon": 0.0, "lat": 38.90787916666667, "is_reserved": 0, "type": "electric_scooter", "bike_id": "e4da7687cdfe897532619a0a5b9435c6", "is_disabled": 0, "rental_uris": {"android": "https://dc.lft.to/lastmile_qr_scan", "ios": "https://dc.lft.to/lastmile_qr_scan"}, "lon": -77.02384633333334, "fusion_lat": 0.0}, {"name": "c5f98495934cd6ef01482998f6f9d9f1", "fusion_lon": 0.0, "lat": 38.93084916666667, "is_reserved": 0, "type": "electric_scooter", "bike_id": "c5f98495934cd6ef01482998f6f9d9f1", "is_disabled": 0, "rental_uris": {"android": "https://dc.lft.to/lastmile_qr_scan", "ios": "https://dc.lft.to/lastmile_qr_scan"}, "lon": -76.99615283333333, "fusion_lat": 0.0}, {"name": "b45c2fbde662014809fb2454a39fd374", "fusion_lon": 0.0, "lat": 38.91690916666667, "is_reserved": 0, "type": "electric_scooter", "bike_id": "b45c2fbde662014809fb2454a39fd374", "is_disabled": 0, "rental_uris": {"android": "https://dc.lft.to/lastmile_qr_scan", "ios": "https://dc.lft.to/lastmile_qr_scan"}, "lon": -77.031448, "fusion_lat": 0.0}, {"name": "c451833a107eb35186f9048900d5f9d6", "fusion_lon": 0.0, "lat": 38.92321966666667, "is_reserved": 0, "type": "electric_scooter", "bike_id": "c451833a107eb35186f9048900d5f9d6", "is_disabled": 0, "rental_uris": {"android": "https://dc.lft.to/lastmile_qr_scan", "ios": "https://dc.lft.to/lastmile_qr_scan"}, "lon": -77.04111583333334, "fusion_lat": 0.0}, {"name": "0fc324be18953439e57a1321d256d346", "fusion_lon": 0.0, "lat": 38.86466083333333, "is_reserved": 0, "type": "electric_scooter", "bike_id": "0fc324be18953439e57a1321d256d346", "is_disabled": 0, "rental_uris": {"android": "https://dc.lft.to/lastmile_qr_scan", "ios": "https://dc.lft.to/lastmile_qr_scan"}, "lon": -76.977242, "fusion_lat": 0.0}, {"name": "e8506923b51153e9f8673ad9af5634bd", "fusion_lon": 0.0, "lat": 38.91183766666666, "is_reserved": 0, "type": "electric_scooter", "bike_id": "e8506923b51153e9f8673ad9af5634bd", "is_disabled": 0, "rental_uris": {"android": "https://dc.lft.to/lastmile_qr_scan", "ios": "https://dc.lft.to/lastmile_qr_scan"}, "lon": -77.010106, "fusion_lat": 0.0}, {"name": "1a2c220124895283868fa754531ca3c8", "fusion_lon": 0.0, "lat": 38.96958683333333, "is_reserved": 0, "type": "electric_bike", "bike_id": "1a2c220124895283868fa754531ca3c8", "is_disabled": 0, "rental_uris": {"android": "https://dc.lft.to/lastmile_qr_scan", "ios": "https://dc.lft.to/lastmile_qr_scan"}, "lon": -76.95748683333333, "fusion_lat": 0.0}, {"name": "2219b09d32221aa5b14b7177659034df", "fusion_lon": 0.0, "lat": 38.91108633333333, "is_reserved": 0, "type": "electric_bike", "bike_id": "2219b09d32221aa5b14b7177659034df", "is_disabled": 0, "rental_uris": {"android": "https://dc.lft.to/lastmile_qr_scan", "ios": "https://dc.lft.to/lastmile_qr_scan"}, "lon": -77.01497816666667, "fusion_lat": 0.0}, {"name": "d5e4601615da986c9855b16723fb46c9", "fusion_lon": 0.0, "lat": 38.93169183333333, "is_reserved": 0, "type": "electric_bike", "bike_id": "d5e4601615da986c9855b16723fb46c9", "is_disabled": 0, "rental_uris": {"android": "https://dc.lft.to/lastmile_qr_scan", "ios": "https://dc.lft.to/lastmile_qr_scan"}, "lon": -76.9762775, "fusion_lat": 0.0}, {"name": "5791da2477c52f51899a4e92b2bd4163", "fusion_lon": 0.0, "lat": 38.935332833333334, "is_reserved": 0, "type": "electric_scooter", "bike_id": "5791da2477c52f51899a4e92b2bd4163", "is_disabled": 0, "rental_uris": {"android": "https://dc.lft.to/lastmile_qr_scan", "ios": "https://dc.lft.to/lastmile_qr_scan"}, "lon": -77.02348333333333, "fusion_lat": 0.0}, {"name": "16d16f9cd8e156f78939e0ee562bb47b", "fusion_lon": 0.0, "lat": 38.92862983333333, "is_reserved": 0, "type": "electric_scooter", "bike_id": "16d16f9cd8e156f78939e0ee562bb47b", "is_disabled": 0, "rental_uris": {"android": "https://dc.lft.to/lastmile_qr_scan", "ios": "https://dc.lft.to/lastmile_qr_scan"}, "lon": -77.02798183333333, "fusion_lat": 0.0}, {"name": "f30352ced59a223ff9e0e5a645a3ef8f", "fusion_lon": 0.0, "lat": 38.921825, "is_reserved": 0, "type": "electric_scooter", "bike_id": "f30352ced59a223ff9e0e5a645a3ef8f", "is_disabled": 0, "rental_uris": {"android": "https://dc.lft.to/lastmile_qr_scan", "ios": "https://dc.lft.to/lastmile_qr_scan"}, "lon": -77.02636416666667, "fusion_lat": 0.0}, {"name": "ed8cb72d0ac3cc34b3ad1ac6f9e6cd04", "fusion_lon": 0.0, "lat": 38.9168605, "is_reserved": 0, "type": "electric_scooter", "bike_id": "ed8cb72d0ac3cc34b3ad1ac6f9e6cd04", "is_disabled": 0, "rental_uris": {"android": "https://dc.lft.to/lastmile_qr_scan", "ios": "https://dc.lft.to/lastmile_qr_scan"}, "lon": -77.026962, "fusion_lat": 0.0}, {"name": "9d923743b60dcc2e89217c9188dea219", "fusion_lon": 0.0, "lat": 38.93548, "is_reserved": 0, "type": "electric_scooter", "bike_id": "9d923743b60dcc2e89217c9188dea219", "is_disabled": 0, "rental_uris": {"android": "https://dc.lft.to/lastmile_qr_scan", "ios": "https://dc.lft.to/lastmile_qr_scan"}, "lon": -77.0585205, "fusion_lat": 0.0}, {"name": "42eb851b8a52a92a34610ac702e205cf", "fusion_lon": 0.0, "lat": 38.915710833333335, "is_reserved": 0, "type": "electric_scooter", "bike_id": "42eb851b8a52a92a34610ac702e205cf", "is_disabled": 0, "rental_uris": {"android": "https://dc.lft.to/lastmile_qr_scan", "ios": "https://dc.lft.to/lastmile_qr_scan"}, "lon": -77.02283, "fusion_lat": 0.0}, {"name": "04220aa798cb509b82b21cda3f04f358", "fusion_lon": 0.0, "lat": 38.893598833333336, "is_reserved": 0, "type": "electric_scooter", "bike_id": "04220aa798cb509b82b21cda3f04f358", "is_disabled": 0, "rental_uris": {"android": "https://dc.lft.to/lastmile_qr_scan", "ios": "https://dc.lft.to/lastmile_qr_scan"}, "lon": -76.94933366666666, "fusion_lat": 0.0}, {"name": "6e796071aee51c6f42ab1e6a72b461cc", "fusion_lon": 0.0, "lat": 38.9050465, "is_reserved": 0, "type": "electric_scooter", "bike_id": "6e796071aee51c6f42ab1e6a72b461cc", "is_disabled": 0, "rental_uris": {"android": "https://dc.lft.to/lastmile_qr_scan", "ios": "https://dc.lft.to/lastmile_qr_scan"}, "lon": -77.0294725, "fusion_lat": 0.0}, {"name": "82f793f99918a7c4f1ddab380e2bab8e", "fusion_lon": 0.0, "lat": 39.03438766666667, "is_reserved": 0, "type": "electric_bike", "bike_id": "82f793f99918a7c4f1ddab380e2bab8e", "is_disabled": 0, "rental_uris": {"android": "https://dc.lft.to/lastmile_qr_scan", "ios": "https://dc.lft.to/lastmile_qr_scan"}, "lon": -77.04232966666666, "fusion_lat": 0.0}, {"name": "fd2dd89ef470cc6d0076be1ded3ebca7", "fusion_lon": 0.0, "lat": 38.926598166666665, "is_reserved": 0, "type": "electric_scooter", "bike_id": "fd2dd89ef470cc6d0076be1ded3ebca7", "is_disabled": 0, "rental_uris": {"android": "https://dc.lft.to/lastmile_qr_scan", "ios": "https://dc.lft.to/lastmile_qr_scan"}, "lon": -77.00863683333333, "fusion_lat": 0.0}, {"name": "b4c8761c0a2912dc23867c4a7af47d9f", "fusion_lon": 0.0, "lat": 38.91405133333333, "is_reserved": 0, "type": "electric_scooter", "bike_id": "b4c8761c0a2912dc23867c4a7af47d9f", "is_disabled": 0, "rental_uris": {"android": "https://dc.lft.to/lastmile_qr_scan", "ios": "https://dc.lft.to/lastmile_qr_scan"}, "lon": -77.03221933333333, "fusion_lat": 0.0}, {"name": "dc8faa03da60edeff683b3e2db6f72d9", "fusion_lon": 0.0, "lat": 38.88134633333333, "is_reserved": 0, "type": "electric_scooter", "bike_id": "dc8faa03da60edeff683b3e2db6f72d9", "is_disabled": 0, "rental_uris": {"android": "https://dc.lft.to/lastmile_qr_scan", "ios": "https://dc.lft.to/lastmile_qr_scan"}, "lon": -76.99569133333334, "fusion_lat": 0.0}, {"name": "9c69309e0e98cb1eb24229d4d09ce581", "fusion_lon": 0.0, "lat": 39.05494733333333, "is_reserved": 0, "type": "electric_bike", "bike_id": "9c69309e0e98cb1eb24229d4d09ce581", "is_disabled": 0, "rental_uris": {"android": "https://dc.lft.to/lastmile_qr_scan", "ios": "https://dc.lft.to/lastmile_qr_scan"}, "lon": -77.117876, "fusion_lat": 0.0}, {"name": "2f6df9df8d94b5de4d1c8df9f6b9056a", "fusion_lon": 0.0, "lat": 38.879696, "is_reserved": 0, "type": "electric_bike", "bike_id": "2f6df9df8d94b5de4d1c8df9f6b9056a", "is_disabled": 0, "rental_uris": {"android": "https://dc.lft.to/lastmile_qr_scan", "ios": "https://dc.lft.to/lastmile_qr_scan"}, "lon": -76.91602416666667, "fusion_lat": 0.0}, {"name": "18a766f912f12222cb9bd25322f43c5e", "fusion_lon": 0.0, "lat": 38.924094833333335, "is_reserved": 0, "type": "electric_scooter", "bike_id": "18a766f912f12222cb9bd25322f43c5e", "is_disabled": 0, "rental_uris": {"android": "https://dc.lft.to/lastmile_qr_scan", "ios": "https://dc.lft.to/lastmile_qr_scan"}, "lon": -77.02265166666666, "fusion_lat": 0.0}, {"name": "70c7e6370359f38abe909ac60a65a9f8", "fusion_lon": 0.0, "lat": 38.904834666666666, "is_reserved": 0, "type": "electric_scooter", "bike_id": "70c7e6370359f38abe909ac60a65a9f8", "is_disabled": 0, "rental_uris": {"android": "https://dc.lft.to/lastmile_qr_scan", "ios": "https://dc.lft.to/lastmile_qr_scan"}, "lon": -77.02690133333333, "fusion_lat": 0.0}, {"name": "7e3b783d10caa3cbac65f254fa09450d", "fusion_lon": 0.0, "lat": 38.900330333333336, "is_reserved": 0, "type": "electric_scooter", "bike_id": "7e3b783d10caa3cbac65f254fa09450d", "is_disabled": 0, "rental_uris": {"android": "https://dc.lft.to/lastmile_qr_scan", "ios": "https://dc.lft.to/lastmile_qr_scan"}, "lon": -76.99342066666667, "fusion_lat": 0.0}, {"name": "85c31c6ceb9b12a14cb2fc6f6f9c9f81", "fusion_lon": 0.0, "lat": 38.884602, "is_reserved": 0, "type": "electric_scooter", "bike_id": "85c31c6ceb9b12a14cb2fc6f6f9c9f81", "is_disabled": 0, "rental_uris": {"android": "https://dc.lft.to/lastmile_qr_scan", "ios": "https://dc.lft.to/lastmile_qr_scan"}, "lon": -76.9573885, "fusion_lat": 0.0}, {"name": "d8a43c6ded3402986967ace5752fc803", "fusion_lon": 0.0, "lat": 38.9277155, "is_reserved": 0, "type": "electric_scooter", "bike_id": "d8a43c6ded3402986967ace5752fc803", "is_disabled": 0, "rental_uris": {"android": "https://dc.lft.to/lastmile_qr_scan", "ios": "https://dc.lft.to/lastmile_qr_scan"}, "lon": -77.02710166666667, "fusion_lat": 0.0}, {"name": "8aa492a5cc9dc571a10cef893c4a835a", "fusion_lon": 0.0, "lat": 38.907071333333334, "is_reserved": 0, "type": "electric_scooter", "bike_id": "8aa492a5cc9dc571a10cef893c4a835a", "is_disabled": 0, "rental_uris": {"android": "https://dc.lft.to/lastmile_qr_scan", "ios": "https://dc.lft.to/lastmile_qr_scan"}, "lon": -77.0759715, "fusion_lat": 0.0}, {"name": "dbcaeb720f85617b643a8e16af00a4a5", "fusion_lon": 0.0, "lat": 38.91986833333333, "is_reserved": 0, "type": "electric_scooter", "bike_id": "dbcaeb720f85617b643a8e16af00a4a5", "is_disabled": 0, "rental_uris": {"android": "https://dc.lft.to/lastmile_qr_scan", "ios": "https://dc.lft.to/lastmile_qr_scan"}, "lon": -77.04161183333333, "fusion_lat": 0.0}, {"name": "d21294c222f92e62ef587748da2ab8b9", "fusion_lon": 0.0, "lat": 38.882495166666665, "is_reserved": 0, "type": "electric_scooter", "bike_id": "d21294c222f92e62ef587748da2ab8b9", "is_disabled": 0, "rental_uris": {"android": "https://dc.lft.to/lastmile_qr_scan", "ios": "https://dc.lft.to/lastmile_qr_scan"}, "lon": -76.99117683333333, "fusion_lat": 0.0}, {"name": "b038de7c3c5bbd9dac9e98ded2415952", "fusion_lon": 0.0, "lat": 38.907978, "is_reserved": 0, "type": "electric_scooter", "bike_id": "b038de7c3c5bbd9dac9e98ded2415952", "is_disabled": 0, "rental_uris": {"android": "https://dc.lft.to/lastmile_qr_scan", "ios": "https://dc.lft.to/lastmile_qr_scan"}, "lon": -77.03416566666667, "fusion_lat": 0.0}, {"name": "267b779a789afcfbe83d673f224a74f8", "fusion_lon": 0.0, "lat": 38.918717, "is_reserved": 0, "type": "electric_scooter", "bike_id": "267b779a789afcfbe83d673f224a74f8", "is_disabled": 0, "rental_uris": {"android": "https://dc.lft.to/lastmile_qr_scan", "ios": "https://dc.lft.to/lastmile_qr_scan"}, "lon": -77.0475875, "fusion_lat": 0.0}, {"name": "4d529babf74a686a2267070e4f6d0309", "fusion_lon": 0.0, "lat": 38.925554, "is_reserved": 0, "type": "electric_scooter", "bike_id": "4d529babf74a686a2267070e4f6d0309", "is_disabled": 0, "rental_uris": {"android": "https://dc.lft.to/lastmile_qr_scan", "ios": "https://dc.lft.to/lastmile_qr_scan"}, "lon": -77.0378145, "fusion_lat": 0.0}, {"name": "19370d73c78be797d850c754463e9036", "fusion_lon": 0.0, "lat": 38.89610666666667, "is_reserved": 0, "type": "electric_scooter", "bike_id": "19370d73c78be797d850c754463e9036", "is_disabled": 0, "rental_uris": {"android": "https://dc.lft.to/lastmile_qr_scan", "ios": "https://dc.lft.to/lastmile_qr_scan"}, "lon": -77.04555266666667, "fusion_lat": 0.0}, {"name": "2571274c1334c2a04c0c6d27f9fb87bf", "fusion_lon": 0.0, "lat": 38.9209035, "is_reserved": 0, "type": "electric_scooter", "bike_id": "2571274c1334c2a04c0c6d27f9fb87bf", "is_disabled": 0, "rental_uris": {"android": "https://dc.lft.to/lastmile_qr_scan", "ios": "https://dc.lft.to/lastmile_qr_scan"}, "lon": -77.02284366666666, "fusion_lat": 0.0}, {"name": "fdbdba7d626e25513b9dc84191222525", "fusion_lon": 0.0, "lat": 38.90373566666667, "is_reserved": 0, "type": "electric_scooter", "bike_id": "fdbdba7d626e25513b9dc84191222525", "is_disabled": 0, "rental_uris": {"android": "https://dc.lft.to/lastmile_qr_scan", "ios": "https://dc.lft.to/lastmile_qr_scan"}, "lon": -77.03995333333333, "fusion_lat": 0.0}, {"name": "2d726280bc95fc334715fae5153ea049", "fusion_lon": 0.0, "lat": 38.91551466666667, "is_reserved": 0, "type": "electric_scooter", "bike_id": "2d726280bc95fc334715fae5153ea049", "is_disabled": 0, "rental_uris": {"android": "https://dc.lft.to/lastmile_qr_scan", "ios": "https://dc.lft.to/lastmile_qr_scan"}, "lon": -77.04173166666666, "fusion_lat": 0.0}, {"name": "bcf88567074763223fd300d6079c0dc9", "fusion_lon": 0.0, "lat": 38.885954166666664, "is_reserved": 0, "type": "electric_scooter", "bike_id": "bcf88567074763223fd300d6079c0dc9", "is_disabled": 0, "rental_uris": {"android": "https://dc.lft.to/lastmile_qr_scan", "ios": "https://dc.lft.to/lastmile_qr_scan"}, "lon": -76.99088883333333, "fusion_lat": 0.0}, {"name": "f516390fe7607bff97d5a8f8aeeb8802", "fusion_lon": 0.0, "lat": 38.90409783333333, "is_reserved": 0, "type": "electric_scooter", "bike_id": "f516390fe7607bff97d5a8f8aeeb8802", "is_disabled": 0, "rental_uris": {"android": "https://dc.lft.to/lastmile_qr_scan", "ios": "https://dc.lft.to/lastmile_qr_scan"}, "lon": -76.97332116666666, "fusion_lat": 0.0}, {"name": "12ac191cf48caec164733ac3c6e0ad2b", "fusion_lon": 0.0, "lat": 38.906332166666665, "is_reserved": 0, "type": "electric_scooter", "bike_id": "12ac191cf48caec164733ac3c6e0ad2b", "is_disabled": 0, "rental_uris": {"android": "https://dc.lft.to/lastmile_qr_scan", "ios": "https://dc.lft.to/lastmile_qr_scan"}, "lon": -77.04142633333333, "fusion_lat": 0.0}, {"name": "a4c7a4400bc1dad13a1eba3933d978f0", "fusion_lon": 0.0, "lat": 38.90725066666667, "is_reserved": 0, "type": "electric_scooter", "bike_id": "a4c7a4400bc1dad13a1eba3933d978f0", "is_disabled": 0, "rental_uris": {"android": "https://dc.lft.to/lastmile_qr_scan", "ios": "https://dc.lft.to/lastmile_qr_scan"}, "lon": -77.04509866666666, "fusion_lat": 0.0}, {"name": "b7701f859dcada7a41fac36e298cfc0b", "fusion_lon": 0.0, "lat": 38.957339166666664, "is_reserved": 0, "type": "electric_scooter", "bike_id": "b7701f859dcada7a41fac36e298cfc0b", "is_disabled": 0, "rental_uris": {"android": "https://dc.lft.to/lastmile_qr_scan", "ios": "https://dc.lft.to/lastmile_qr_scan"}, "lon": -77.02399133333333, "fusion_lat": 0.0}, {"name": "d7f6edf371757991c8497fe825a5c840", "fusion_lon": 0.0, "lat": 38.93376666666666, "is_reserved": 0, "type": "electric_scooter", "bike_id": "d7f6edf371757991c8497fe825a5c840", "is_disabled": 0, "rental_uris": {"android": "https://dc.lft.to/lastmile_qr_scan", "ios": "https://dc.lft.to/lastmile_qr_scan"}, "lon": -77.03257166666667, "fusion_lat": 0.0}, {"name": "709496e1a991febc009d1919cd6d06ea", "fusion_lon": 0.0, "lat": 38.902669, "is_reserved": 0, "type": "electric_scooter", "bike_id": "709496e1a991febc009d1919cd6d06ea", "is_disabled": 0, "rental_uris": {"android": "https://dc.lft.to/lastmile_qr_scan", "ios": "https://dc.lft.to/lastmile_qr_scan"}, "lon": -77.0175475, "fusion_lat": 0.0}, {"name": "64918f4908fca60278e9797b0e39719d", "fusion_lon": 0.0, "lat": 38.901438166666665, "is_reserved": 0, "type": "electric_scooter", "bike_id": "64918f4908fca60278e9797b0e39719d", "is_disabled": 0, "rental_uris": {"android": "https://dc.lft.to/lastmile_qr_scan", "ios": "https://dc.lft.to/lastmile_qr_scan"}, "lon": -77.0249205, "fusion_lat": 0.0}, {"name": "0bbba8cf9da41dd5b1332e21875572c4", "fusion_lon": 0.0, "lat": 38.9209545, "is_reserved": 0, "type": "electric_scooter", "bike_id": "0bbba8cf9da41dd5b1332e21875572c4", "is_disabled": 0, "rental_uris": {"android": "https://dc.lft.to/lastmile_qr_scan", "ios": "https://dc.lft.to/lastmile_qr_scan"}, "lon": -77.0241485, "fusion_lat": 0.0}, {"name": "299ad5650b390e9a2cb0770b56586443", "fusion_lon": 0.0, "lat": 38.923902166666664, "is_reserved": 0, "type": "electric_scooter", "bike_id": "299ad5650b390e9a2cb0770b56586443", "is_disabled": 0, "rental_uris": {"android": "https://dc.lft.to/lastmile_qr_scan", "ios": "https://dc.lft.to/lastmile_qr_scan"}, "lon": -77.0365305, "fusion_lat": 0.0}, {"name": "16c18ccd004946d500d6da525c64daca", "fusion_lon": 0.0, "lat": 38.924545, "is_reserved": 0, "type": "electric_scooter", "bike_id": "16c18ccd004946d500d6da525c64daca", "is_disabled": 0, "rental_uris": {"android": "https://dc.lft.to/lastmile_qr_scan", "ios": "https://dc.lft.to/lastmile_qr_scan"}, "lon": -77.04113833333334, "fusion_lat": 0.0}, {"name": "bf7f730a710a1612219350abcc8603fa", "fusion_lon": 0.0, "lat": 38.87204716666667, "is_reserved": 0, "type": "electric_scooter", "bike_id": "bf7f730a710a1612219350abcc8603fa", "is_disabled": 0, "rental_uris": {"android": "https://dc.lft.to/lastmile_qr_scan", "ios": "https://dc.lft.to/lastmile_qr_scan"}, "lon": -77.01641016666666, "fusion_lat": 0.0}, {"name": "11dd75555999e434794ba184048985e2", "fusion_lon": 0.0, "lat": 38.90011333333333, "is_reserved": 0, "type": "electric_scooter", "bike_id": "11dd75555999e434794ba184048985e2", "is_disabled": 0, "rental_uris": {"android": "https://dc.lft.to/lastmile_qr_scan", "ios": "https://dc.lft.to/lastmile_qr_scan"}, "lon": -77.00673, "fusion_lat": 0.0}, {"name": "bce52bf0f9a34eb3ff7f7c1b3addfca5", "fusion_lon": 0.0, "lat": 38.919120166666666, "is_reserved": 0, "type": "electric_scooter", "bike_id": "bce52bf0f9a34eb3ff7f7c1b3addfca5", "is_disabled": 0, "rental_uris": {"android": "https://dc.lft.to/lastmile_qr_scan", "ios": "https://dc.lft.to/lastmile_qr_scan"}, "lon": -77.02610966666667, "fusion_lat": 0.0}, {"name": "333fdc446237f6960e6b7749fade6567", "fusion_lon": 0.0, "lat": 38.88264933333333, "is_reserved": 0, "type": "electric_scooter", "bike_id": "333fdc446237f6960e6b7749fade6567", "is_disabled": 0, "rental_uris": {"android": "https://dc.lft.to/lastmile_qr_scan", "ios": "https://dc.lft.to/lastmile_qr_scan"}, "lon": -77.00859083333333, "fusion_lat": 0.0}, {"name": "997490842f6bde4ddf9ebafa1e1d0cdf", "fusion_lon": 0.0, "lat": 38.92343666666667, "is_reserved": 0, "type": "electric_scooter", "bike_id": "997490842f6bde4ddf9ebafa1e1d0cdf", "is_disabled": 0, "rental_uris": {"android": "https://dc.lft.to/lastmile_qr_scan", "ios": "https://dc.lft.to/lastmile_qr_scan"}, "lon": -77.050774, "fusion_lat": 0.0}, {"name": "900d233129d2c5138d7ee3fe443064d6", "fusion_lon": 0.0, "lat": 38.92317083333333, "is_reserved": 0, "type": "electric_scooter", "bike_id": "900d233129d2c5138d7ee3fe443064d6", "is_disabled": 0, "rental_uris": {"android": "https://dc.lft.to/lastmile_qr_scan", "ios": "https://dc.lft.to/lastmile_qr_scan"}, "lon": -77.04175633333334, "fusion_lat": 0.0}, {"name": "8e0cf66b6dc722018413bdb608c9ca94", "fusion_lon": 0.0, "lat": 38.91776683333333, "is_reserved": 0, "type": "electric_scooter", "bike_id": "8e0cf66b6dc722018413bdb608c9ca94", "is_disabled": 0, "rental_uris": {"android": "https://dc.lft.to/lastmile_qr_scan", "ios": "https://dc.lft.to/lastmile_qr_scan"}, "lon": -77.017876, "fusion_lat": 0.0}, {"name": "3d18c2e6d688ec1ba634741ee1703d2a", "fusion_lon": 0.0, "lat": 38.9111475, "is_reserved": 0, "type": "electric_scooter", "bike_id": "3d18c2e6d688ec1ba634741ee1703d2a", "is_disabled": 0, "rental_uris": {"android": "https://dc.lft.to/lastmile_qr_scan", "ios": "https://dc.lft.to/lastmile_qr_scan"}, "lon": -77.048044, "fusion_lat": 0.0}, {"name": "adbbb83b733c14d10b08a6103f0eecd2", "fusion_lon": 0.0, "lat": 38.916929833333334, "is_reserved": 0, "type": "electric_scooter", "bike_id": "adbbb83b733c14d10b08a6103f0eecd2", "is_disabled": 0, "rental_uris": {"android": "https://dc.lft.to/lastmile_qr_scan", "ios": "https://dc.lft.to/lastmile_qr_scan"}, "lon": -77.02353083333334, "fusion_lat": 0.0}, {"name": "c59197e1543d6aad4799e3a621af2399", "fusion_lon": 0.0, "lat": 38.888744333333335, "is_reserved": 0, "type": "electric_scooter", "bike_id": "c59197e1543d6aad4799e3a621af2399", "is_disabled": 0, "rental_uris": {"android": "https://dc.lft.to/lastmile_qr_scan", "ios": "https://dc.lft.to/lastmile_qr_scan"}, "lon": -76.990303, "fusion_lat": 0.0}, {"name": "4d92be22146c0e6c26fe909cb07fb6f9", "fusion_lon": 0.0, "lat": 38.91964133333333, "is_reserved": 0, "type": "electric_scooter", "bike_id": "4d92be22146c0e6c26fe909cb07fb6f9", "is_disabled": 0, "rental_uris": {"android": "https://dc.lft.to/lastmile_qr_scan", "ios": "https://dc.lft.to/lastmile_qr_scan"}, "lon": -77.038527, "fusion_lat": 0.0}, {"name": "ca14dfb3544aaac0439c3e5df7f5f775", "fusion_lon": 0.0, "lat": 39.01366633333333, "is_reserved": 0, "type": "electric_bike", "bike_id": "ca14dfb3544aaac0439c3e5df7f5f775", "is_disabled": 0, "rental_uris": {"android": "https://dc.lft.to/lastmile_qr_scan", "ios": "https://dc.lft.to/lastmile_qr_scan"}, "lon": -76.92130516666667, "fusion_lat": 0.0}, {"name": "1917cfcb631195dcfd102a7d27ed94e2", "fusion_lon": 0.0, "lat": 38.90083833333333, "is_reserved": 0, "type": "electric_scooter", "bike_id": "1917cfcb631195dcfd102a7d27ed94e2", "is_disabled": 0, "rental_uris": {"android": "https://dc.lft.to/lastmile_qr_scan", "ios": "https://dc.lft.to/lastmile_qr_scan"}, "lon": -77.0474815, "fusion_lat": 0.0}, {"name": "1ffef43a59c4c1f98d59fb28e469ac3d", "fusion_lon": 0.0, "lat": 38.919262, "is_reserved": 0, "type": "electric_bike", "bike_id": "1ffef43a59c4c1f98d59fb28e469ac3d", "is_disabled": 0, "rental_uris": {"android": "https://dc.lft.to/lastmile_qr_scan", "ios": "https://dc.lft.to/lastmile_qr_scan"}, "lon": -77.0738065, "fusion_lat": 0.0}, {"name": "7e7bce90fe36bfb4531223a79dc12ef2", "fusion_lon": 0.0, "lat": 38.930872, "is_reserved": 0, "type": "electric_scooter", "bike_id": "7e7bce90fe36bfb4531223a79dc12ef2", "is_disabled": 0, "rental_uris": {"android": "https://dc.lft.to/lastmile_qr_scan", "ios": "https://dc.lft.to/lastmile_qr_scan"}, "lon": -77.02532716666667, "fusion_lat": 0.0}, {"name": "f9f47c899234d19362b295f72f8989e7", "fusion_lon": 0.0, "lat": 38.900309666666665, "is_reserved": 0, "type": "electric_scooter", "bike_id": "f9f47c899234d19362b295f72f8989e7", "is_disabled": 0, "rental_uris": {"android": "https://dc.lft.to/lastmile_qr_scan", "ios": "https://dc.lft.to/lastmile_qr_scan"}, "lon": -77.002073, "fusion_lat": 0.0}, {"name": "142f96c12889100e7b4301289bf35eda", "fusion_lon": 0.0, "lat": 38.892200333333335, "is_reserved": 0, "type": "electric_scooter", "bike_id": "142f96c12889100e7b4301289bf35eda", "is_disabled": 0, "rental_uris": {"android": "https://dc.lft.to/lastmile_qr_scan", "ios": "https://dc.lft.to/lastmile_qr_scan"}, "lon": -77.04801616666667, "fusion_lat": 0.0}, {"name": "236fd64b3689e197020b2f818cbcc7fb", "fusion_lon": 0.0, "lat": 38.916102333333335, "is_reserved": 0, "type": "electric_scooter", "bike_id": "236fd64b3689e197020b2f818cbcc7fb", "is_disabled": 0, "rental_uris": {"android": "https://dc.lft.to/lastmile_qr_scan", "ios": "https://dc.lft.to/lastmile_qr_scan"}, "lon": -77.00060416666666, "fusion_lat": 0.0}, {"name": "715a2ee399c0a721423173712f9c6b76", "fusion_lon": 0.0, "lat": 38.9428095, "is_reserved": 0, "type": "electric_bike", "bike_id": "715a2ee399c0a721423173712f9c6b76", "is_disabled": 0, "rental_uris": {"android": "https://dc.lft.to/lastmile_qr_scan", "ios": "https://dc.lft.to/lastmile_qr_scan"}, "lon": -76.98783, "fusion_lat": 0.0}, {"name": "ddee0942950192101e058591cb32e2b8", "fusion_lon": 0.0, "lat": 38.87451566666667, "is_reserved": 0, "type": "electric_scooter", "bike_id": "ddee0942950192101e058591cb32e2b8", "is_disabled": 0, "rental_uris": {"android": "https://dc.lft.to/lastmile_qr_scan", "ios": "https://dc.lft.to/lastmile_qr_scan"}, "lon": -77.00292, "fusion_lat": 0.0}, {"name": "a52c30b79cf79fd47f0b19d11d569b28", "fusion_lon": 0.0, "lat": 38.89876133333333, "is_reserved": 0, "type": "electric_scooter", "bike_id": "a52c30b79cf79fd47f0b19d11d569b28", "is_disabled": 0, "rental_uris": {"android": "https://dc.lft.to/lastmile_qr_scan", "ios": "https://dc.lft.to/lastmile_qr_scan"}, "lon": -76.9318215, "fusion_lat": 0.0}, {"name": "a2ebc8961f5b2375b7711a1d58bba323", "fusion_lon": 0.0, "lat": 38.92092666666667, "is_reserved": 0, "type": "electric_scooter", "bike_id": "a2ebc8961f5b2375b7711a1d58bba323", "is_disabled": 0, "rental_uris": {"android": "https://dc.lft.to/lastmile_qr_scan", "ios": "https://dc.lft.to/lastmile_qr_scan"}, "lon": -77.02413783333333, "fusion_lat": 0.0}, {"name": "c328cf16648f61e7d1fe30d1959e820c", "fusion_lon": 0.0, "lat": 38.90214483333333, "is_reserved": 0, "type": "electric_scooter", "bike_id": "c328cf16648f61e7d1fe30d1959e820c", "is_disabled": 0, "rental_uris": {"android": "https://dc.lft.to/lastmile_qr_scan", "ios": "https://dc.lft.to/lastmile_qr_scan"}, "lon": -77.02153266666667, "fusion_lat": 0.0}, {"name": "33c0b86fa1a51287647fbc80c9af247b", "fusion_lon": 0.0, "lat": 38.924517, "is_reserved": 0, "type": "electric_bike", "bike_id": "33c0b86fa1a51287647fbc80c9af247b", "is_disabled": 0, "rental_uris": {"android": "https://dc.lft.to/lastmile_qr_scan", "ios": "https://dc.lft.to/lastmile_qr_scan"}, "lon": -77.225764, "fusion_lat": 0.0}, {"name": "b208125bba69de6e4c4705bc024cf270", "fusion_lon": 0.0, "lat": 38.88137666666667, "is_reserved": 0, "type": "electric_scooter", "bike_id": "b208125bba69de6e4c4705bc024cf270", "is_disabled": 0, "rental_uris": {"android": "https://dc.lft.to/lastmile_qr_scan", "ios": "https://dc.lft.to/lastmile_qr_scan"}, "lon": -77.01335283333333, "fusion_lat": 0.0}, {"name": "1eba67cd1f7d53dd0c1fa9cb490bd959", "fusion_lon": 0.0, "lat": 38.90063933333333, "is_reserved": 0, "type": "electric_scooter", "bike_id": "1eba67cd1f7d53dd0c1fa9cb490bd959", "is_disabled": 0, "rental_uris": {"android": "https://dc.lft.to/lastmile_qr_scan", "ios": "https://dc.lft.to/lastmile_qr_scan"}, "lon": -77.0310285, "fusion_lat": 0.0}, {"name": "bae9013887eefe6d8f73feb68e8c1875", "fusion_lon": 0.0, "lat": 38.878963666666664, "is_reserved": 0, "type": "electric_scooter", "bike_id": "bae9013887eefe6d8f73feb68e8c1875", "is_disabled": 0, "rental_uris": {"android": "https://dc.lft.to/lastmile_qr_scan", "ios": "https://dc.lft.to/lastmile_qr_scan"}, "lon": -77.02299066666667, "fusion_lat": 0.0}, {"name": "9c70969008b31e084365461125ef268d", "fusion_lon": 0.0, "lat": 38.913208833333336, "is_reserved": 0, "type": "electric_scooter", "bike_id": "9c70969008b31e084365461125ef268d", "is_disabled": 0, "rental_uris": {"android": "https://dc.lft.to/lastmile_qr_scan", "ios": "https://dc.lft.to/lastmile_qr_scan"}, "lon": -76.9849065, "fusion_lat": 0.0}, {"name": "4348253716dc50953cfe1c3804cc3bb7", "fusion_lon": 0.0, "lat": 38.8378925, "is_reserved": 0, "type": "electric_bike", "bike_id": "4348253716dc50953cfe1c3804cc3bb7", "is_disabled": 0, "rental_uris": {"android": "https://dc.lft.to/lastmile_qr_scan", "ios": "https://dc.lft.to/lastmile_qr_scan"}, "lon": -76.9975345, "fusion_lat": 0.0}, {"name": "c802f0a56c0ce2c4e8d23e5e6ca43f0c", "fusion_lon": 0.0, "lat": 38.9101495, "is_reserved": 0, "type": "electric_bike", "bike_id": "c802f0a56c0ce2c4e8d23e5e6ca43f0c", "is_disabled": 0, "rental_uris": {"android": "https://dc.lft.to/lastmile_qr_scan", "ios": "https://dc.lft.to/lastmile_qr_scan"}, "lon": -77.2279865, "fusion_lat": 0.0}, {"name": "7b10fb18416c611d7953ded6c1733f72", "fusion_lon": 0.0, "lat": 38.923118833333334, "is_reserved": 0, "type": "electric_scooter", "bike_id": "7b10fb18416c611d7953ded6c1733f72", "is_disabled": 0, "rental_uris": {"android": "https://dc.lft.to/lastmile_qr_scan", "ios": "https://dc.lft.to/lastmile_qr_scan"}, "lon": -77.02748083333333, "fusion_lat": 0.0}, {"name": "0b067dcbf6f16483f80169f4d5e571da", "fusion_lon": 0.0, "lat": 38.87610183333334, "is_reserved": 0, "type": "electric_scooter", "bike_id": "0b067dcbf6f16483f80169f4d5e571da", "is_disabled": 0, "rental_uris": {"android": "https://dc.lft.to/lastmile_qr_scan", "ios": "https://dc.lft.to/lastmile_qr_scan"}, "lon": -77.00066866666667, "fusion_lat": 0.0}, {"name": "49bed7ca0d9f69f0f53d866464c93d09", "fusion_lon": 0.0, "lat": 38.942056, "is_reserved": 0, "type": "electric_scooter", "bike_id": "49bed7ca0d9f69f0f53d866464c93d09", "is_disabled": 0, "rental_uris": {"android": "https://dc.lft.to/lastmile_qr_scan", "ios": "https://dc.lft.to/lastmile_qr_scan"}, "lon": -77.02507616666666, "fusion_lat": 0.0}, {"name": "ccb928811441110b6e0ab644e1ea25b9", "fusion_lon": 0.0, "lat": 38.89842, "is_reserved": 0, "type": "electric_scooter", "bike_id": "ccb928811441110b6e0ab644e1ea25b9", "is_disabled": 0, "rental_uris": {"android": "https://dc.lft.to/lastmile_qr_scan", "ios": "https://dc.lft.to/lastmile_qr_scan"}, "lon": -77.0332315, "fusion_lat": 0.0}, {"name": "53cd4b6dc6aee73e1fb4b555fc448318", "fusion_lon": 0.0, "lat": 38.87278366666666, "is_reserved": 0, "type": "electric_bike", "bike_id": "53cd4b6dc6aee73e1fb4b555fc448318", "is_disabled": 0, "rental_uris": {"android": "https://dc.lft.to/lastmile_qr_scan", "ios": "https://dc.lft.to/lastmile_qr_scan"}, "lon": -77.23315516666666, "fusion_lat": 0.0}, {"name": "fb98a03dcd0ad45b6a7535db287be3cd", "fusion_lon": 0.0, "lat": 38.8635485, "is_reserved": 0, "type": "electric_scooter", "bike_id": "fb98a03dcd0ad45b6a7535db287be3cd", "is_disabled": 0, "rental_uris": {"android": "https://dc.lft.to/lastmile_qr_scan", "ios": "https://dc.lft.to/lastmile_qr_scan"}, "lon": -76.98701283333334, "fusion_lat": 0.0}, {"name": "ef329c833d34967e544120a7f763e08d", "fusion_lon": 0.0, "lat": 38.90030816666667, "is_reserved": 0, "type": "electric_scooter", "bike_id": "ef329c833d34967e544120a7f763e08d", "is_disabled": 0, "rental_uris": {"android": "https://dc.lft.to/lastmile_qr_scan", "ios": "https://dc.lft.to/lastmile_qr_scan"}, "lon": -77.01186216666666, "fusion_lat": 0.0}, {"name": "dfd2f21f17927b12c42f6e7d55c20692", "fusion_lon": 0.0, "lat": 38.90389233333333, "is_reserved": 0, "type": "electric_scooter", "bike_id": "dfd2f21f17927b12c42f6e7d55c20692", "is_disabled": 0, "rental_uris": {"android": "https://dc.lft.to/lastmile_qr_scan", "ios": "https://dc.lft.to/lastmile_qr_scan"}, "lon": -77.03833866666666, "fusion_lat": 0.0}, {"name": "82d0fe66c61ffbc5cb49dc5f21854037", "fusion_lon": 0.0, "lat": 38.915192833333336, "is_reserved": 0, "type": "electric_scooter", "bike_id": "82d0fe66c61ffbc5cb49dc5f21854037", "is_disabled": 0, "rental_uris": {"android": "https://dc.lft.to/lastmile_qr_scan", "ios": "https://dc.lft.to/lastmile_qr_scan"}, "lon": -77.03170883333334, "fusion_lat": 0.0}, {"name": "fe533a2848afa426f8af75493a9c8e3c", "fusion_lon": 0.0, "lat": 38.8805965, "is_reserved": 0, "type": "electric_bike", "bike_id": "fe533a2848afa426f8af75493a9c8e3c", "is_disabled": 0, "rental_uris": {"android": "https://dc.lft.to/lastmile_qr_scan", "ios": "https://dc.lft.to/lastmile_qr_scan"}, "lon": -76.96236716666667, "fusion_lat": 0.0}, {"name": "d1a6ea627641f5fa799ca7993a8226ba", "fusion_lon": 0.0, "lat": 38.90602883333333, "is_reserved": 0, "type": "electric_scooter", "bike_id": "d1a6ea627641f5fa799ca7993a8226ba", "is_disabled": 0, "rental_uris": {"android": "https://dc.lft.to/lastmile_qr_scan", "ios": "https://dc.lft.to/lastmile_qr_scan"}, "lon": -77.05690233333333, "fusion_lat": 0.0}, {"name": "ba4e66c27a5d12e6adfb322b9862705a", "fusion_lon": 0.0, "lat": 38.86953666666667, "is_reserved": 0, "type": "electric_scooter", "bike_id": "ba4e66c27a5d12e6adfb322b9862705a", "is_disabled": 0, "rental_uris": {"android": "https://dc.lft.to/lastmile_qr_scan", "ios": "https://dc.lft.to/lastmile_qr_scan"}, "lon": -76.98174116666667, "fusion_lat": 0.0}, {"name": "486925e8d87281656b88fab52d8d9605", "fusion_lon": 0.0, "lat": 38.89322766666667, "is_reserved": 0, "type": "electric_scooter", "bike_id": "486925e8d87281656b88fab52d8d9605", "is_disabled": 0, "rental_uris": {"android": "https://dc.lft.to/lastmile_qr_scan", "ios": "https://dc.lft.to/lastmile_qr_scan"}, "lon": -77.04872216666666, "fusion_lat": 0.0}, {"name": "d7a669c579cc818ffe84fdb31690cc24", "fusion_lon": 0.0, "lat": 38.92400283333333, "is_reserved": 0, "type": "electric_scooter", "bike_id": "d7a669c579cc818ffe84fdb31690cc24", "is_disabled": 0, "rental_uris": {"android": "https://dc.lft.to/lastmile_qr_scan", "ios": "https://dc.lft.to/lastmile_qr_scan"}, "lon": -77.02145283333333, "fusion_lat": 0.0}, {"name": "beefb1e05152bf254591f3759a8875a0", "fusion_lon": 0.0, "lat": 38.91623233333333, "is_reserved": 0, "type": "electric_scooter", "bike_id": "beefb1e05152bf254591f3759a8875a0", "is_disabled": 0, "rental_uris": {"android": "https://dc.lft.to/lastmile_qr_scan", "ios": "https://dc.lft.to/lastmile_qr_scan"}, "lon": -77.0484825, "fusion_lat": 0.0}, {"name": "2c7d5d1df7f6092238a712793d4375a8", "fusion_lon": 0.0, "lat": 38.9221505, "is_reserved": 0, "type": "electric_scooter", "bike_id": "2c7d5d1df7f6092238a712793d4375a8", "is_disabled": 0, "rental_uris": {"android": "https://dc.lft.to/lastmile_qr_scan", "ios": "https://dc.lft.to/lastmile_qr_scan"}, "lon": -77.03657866666667, "fusion_lat": 0.0}, {"name": "e231027c37f0098b2235af86b50f2a14", "fusion_lon": 0.0, "lat": 38.91262433333333, "is_reserved": 0, "type": "electric_scooter", "bike_id": "e231027c37f0098b2235af86b50f2a14", "is_disabled": 0, "rental_uris": {"android": "https://dc.lft.to/lastmile_qr_scan", "ios": "https://dc.lft.to/lastmile_qr_scan"}, "lon": -77.03799583333333, "fusion_lat": 0.0}, {"name": "be49fff54ea6fcbb80013adde40add2a", "fusion_lon": 0.0, "lat": 38.91532483333334, "is_reserved": 0, "type": "electric_scooter", "bike_id": "be49fff54ea6fcbb80013adde40add2a", "is_disabled": 0, "rental_uris": {"android": "https://dc.lft.to/lastmile_qr_scan", "ios": "https://dc.lft.to/lastmile_qr_scan"}, "lon": -76.970008, "fusion_lat": 0.0}, {"name": "554dd38661218ac3505e92337faf7414", "fusion_lon": 0.0, "lat": 38.91014716666667, "is_reserved": 0, "type": "electric_scooter", "bike_id": "554dd38661218ac3505e92337faf7414", "is_disabled": 0, "rental_uris": {"android": "https://dc.lft.to/lastmile_qr_scan", "ios": "https://dc.lft.to/lastmile_qr_scan"}, "lon": -77.00916383333333, "fusion_lat": 0.0}, {"name": "c611bf019607f123f0e641ee75c47424", "fusion_lon": 0.0, "lat": 38.90367466666667, "is_reserved": 0, "type": "electric_scooter", "bike_id": "c611bf019607f123f0e641ee75c47424", "is_disabled": 0, "rental_uris": {"android": "https://dc.lft.to/lastmile_qr_scan", "ios": "https://dc.lft.to/lastmile_qr_scan"}, "lon": -76.99708283333334, "fusion_lat": 0.0}, {"name": "8670309d1efcccf29e6a1252746dd7ac", "fusion_lon": 0.0, "lat": 38.905119166666665, "is_reserved": 0, "type": "electric_bike", "bike_id": "8670309d1efcccf29e6a1252746dd7ac", "is_disabled": 0, "rental_uris": {"android": "https://dc.lft.to/lastmile_qr_scan", "ios": "https://dc.lft.to/lastmile_qr_scan"}, "lon": -77.06015266666667, "fusion_lat": 0.0}, {"name": "9c99bc8d19c0b698991dd5ffc1f2e2ff", "fusion_lon": 0.0, "lat": 38.92162166666667, "is_reserved": 0, "type": "electric_scooter", "bike_id": "9c99bc8d19c0b698991dd5ffc1f2e2ff", "is_disabled": 0, "rental_uris": {"android": "https://dc.lft.to/lastmile_qr_scan", "ios": "https://dc.lft.to/lastmile_qr_scan"}, "lon": -77.0325765, "fusion_lat": 0.0}, {"name": "163bf8987187e6bd66c4f0f86b0503f0", "fusion_lon": 0.0, "lat": 38.893590833333334, "is_reserved": 0, "type": "electric_scooter", "bike_id": "163bf8987187e6bd66c4f0f86b0503f0", "is_disabled": 0, "rental_uris": {"android": "https://dc.lft.to/lastmile_qr_scan", "ios": "https://dc.lft.to/lastmile_qr_scan"}, "lon": -76.949345, "fusion_lat": 0.0}, {"name": "4516263b4d0644fae96e19ef7b436cfd", "fusion_lon": 0.0, "lat": 38.90008316666667, "is_reserved": 0, "type": "electric_scooter", "bike_id": "4516263b4d0644fae96e19ef7b436cfd", "is_disabled": 0, "rental_uris": {"android": "https://dc.lft.to/lastmile_qr_scan", "ios": "https://dc.lft.to/lastmile_qr_scan"}, "lon": -76.997254, "fusion_lat": 0.0}, {"name": "d55c6f058b774e093a552e448331b176", "fusion_lon": 0.0, "lat": 38.90898116666666, "is_reserved": 0, "type": "electric_scooter", "bike_id": "d55c6f058b774e093a552e448331b176", "is_disabled": 0, "rental_uris": {"android": "https://dc.lft.to/lastmile_qr_scan", "ios": "https://dc.lft.to/lastmile_qr_scan"}, "lon": -77.03837983333334, "fusion_lat": 0.0}, {"name": "0b360fdee7f69a93571c7eabcb7e16bf", "fusion_lon": 0.0, "lat": 38.86056033333333, "is_reserved": 0, "type": "electric_scooter", "bike_id": "0b360fdee7f69a93571c7eabcb7e16bf", "is_disabled": 0, "rental_uris": {"android": "https://dc.lft.to/lastmile_qr_scan", "ios": "https://dc.lft.to/lastmile_qr_scan"}, "lon": -76.984949, "fusion_lat": 0.0}, {"name": "f9713f847187a6ecf4e9a1f851f7ba86", "fusion_lon": 0.0, "lat": 39.043078666666666, "is_reserved": 0, "type": "electric_bike", "bike_id": "f9713f847187a6ecf4e9a1f851f7ba86", "is_disabled": 0, "rental_uris": {"android": "https://dc.lft.to/lastmile_qr_scan", "ios": "https://dc.lft.to/lastmile_qr_scan"}, "lon": -77.0515255, "fusion_lat": 0.0}, {"name": "a4b0029db0d7f4241cfbe4b7da93591f", "fusion_lon": 0.0, "lat": 38.900073166666665, "is_reserved": 0, "type": "electric_scooter", "bike_id": "a4b0029db0d7f4241cfbe4b7da93591f", "is_disabled": 0, "rental_uris": {"android": "https://dc.lft.to/lastmile_qr_scan", "ios": "https://dc.lft.to/lastmile_qr_scan"}, "lon": -76.99620433333334, "fusion_lat": 0.0}, {"name": "593c8c04d913677fc27fa8a0966776b6", "fusion_lon": 0.0, "lat": 38.917167666666664, "is_reserved": 0, "type": "electric_scooter", "bike_id": "593c8c04d913677fc27fa8a0966776b6", "is_disabled": 0, "rental_uris": {"android": "https://dc.lft.to/lastmile_qr_scan", "ios": "https://dc.lft.to/lastmile_qr_scan"}, "lon": -77.03858733333334, "fusion_lat": 0.0}, {"name": "d470f2d219de644facf7063ee31d4c28", "fusion_lon": 0.0, "lat": 38.92000816666667, "is_reserved": 0, "type": "electric_scooter", "bike_id": "d470f2d219de644facf7063ee31d4c28", "is_disabled": 0, "rental_uris": {"android": "https://dc.lft.to/lastmile_qr_scan", "ios": "https://dc.lft.to/lastmile_qr_scan"}, "lon": -77.0416535, "fusion_lat": 0.0}, {"name": "49490aabbc3bf7e908e73b0415d72d55", "fusion_lon": 0.0, "lat": 38.892206, "is_reserved": 0, "type": "electric_scooter", "bike_id": "49490aabbc3bf7e908e73b0415d72d55", "is_disabled": 0, "rental_uris": {"android": "https://dc.lft.to/lastmile_qr_scan", "ios": "https://dc.lft.to/lastmile_qr_scan"}, "lon": -77.04684516666667, "fusion_lat": 0.0}, {"name": "c624f9ed5c7c21e2c6c0ba7a9f993cde", "fusion_lon": 0.0, "lat": 38.9086725, "is_reserved": 0, "type": "electric_scooter", "bike_id": "c624f9ed5c7c21e2c6c0ba7a9f993cde", "is_disabled": 0, "rental_uris": {"android": "https://dc.lft.to/lastmile_qr_scan", "ios": "https://dc.lft.to/lastmile_qr_scan"}, "lon": -77.0241235, "fusion_lat": 0.0}, {"name": "6267d499dea8dda0fd25ed7f71ae7f8d", "fusion_lon": 0.0, "lat": 38.906667166666665, "is_reserved": 0, "type": "electric_scooter", "bike_id": "6267d499dea8dda0fd25ed7f71ae7f8d", "is_disabled": 0, "rental_uris": {"android": "https://dc.lft.to/lastmile_qr_scan", "ios": "https://dc.lft.to/lastmile_qr_scan"}, "lon": -77.07117183333334, "fusion_lat": 0.0}, {"name": "ddf5dd919c2ba8ffbcbe91639c865d54", "fusion_lon": 0.0, "lat": 38.924330499999996, "is_reserved": 0, "type": "electric_scooter", "bike_id": "ddf5dd919c2ba8ffbcbe91639c865d54", "is_disabled": 0, "rental_uris": {"android": "https://dc.lft.to/lastmile_qr_scan", "ios": "https://dc.lft.to/lastmile_qr_scan"}, "lon": -77.04245883333333, "fusion_lat": 0.0}, {"name": "2f5e9a28a27ed6a9c94b6e99523c90c8", "fusion_lon": 0.0, "lat": 38.876060833333334, "is_reserved": 0, "type": "electric_scooter", "bike_id": "2f5e9a28a27ed6a9c94b6e99523c90c8", "is_disabled": 0, "rental_uris": {"android": "https://dc.lft.to/lastmile_qr_scan", "ios": "https://dc.lft.to/lastmile_qr_scan"}, "lon": -77.000782, "fusion_lat": 0.0}, {"name": "7892ede3f1e255890a1e14212b1aa85f", "fusion_lon": 0.0, "lat": 38.92463566666667, "is_reserved": 0, "type": "electric_scooter", "bike_id": "7892ede3f1e255890a1e14212b1aa85f", "is_disabled": 0, "rental_uris": {"android": "https://dc.lft.to/lastmile_qr_scan", "ios": "https://dc.lft.to/lastmile_qr_scan"}, "lon": -77.08156583333333, "fusion_lat": 0.0}, {"name": "7158b8706915464c43e8a22fcbe18efb", "fusion_lon": 0.0, "lat": 38.925397833333335, "is_reserved": 0, "type": "electric_scooter", "bike_id": "7158b8706915464c43e8a22fcbe18efb", "is_disabled": 0, "rental_uris": {"android": "https://dc.lft.to/lastmile_qr_scan", "ios": "https://dc.lft.to/lastmile_qr_scan"}, "lon": -76.97212083333334, "fusion_lat": 0.0}, {"name": "73a12a56ba2a2bd0e903926e3e7c904d", "fusion_lon": 0.0, "lat": 38.900127499999996, "is_reserved": 0, "type": "electric_scooter", "bike_id": "73a12a56ba2a2bd0e903926e3e7c904d", "is_disabled": 0, "rental_uris": {"android": "https://dc.lft.to/lastmile_qr_scan", "ios": "https://dc.lft.to/lastmile_qr_scan"}, "lon": -76.93027266666667, "fusion_lat": 0.0}, {"name": "496db668e3a5ebf8268519672ee58054", "fusion_lon": 0.0, "lat": 38.901533, "is_reserved": 0, "type": "electric_bike", "bike_id": "496db668e3a5ebf8268519672ee58054", "is_disabled": 0, "rental_uris": {"android": "https://dc.lft.to/lastmile_qr_scan", "ios": "https://dc.lft.to/lastmile_qr_scan"}, "lon": -77.02298616666667, "fusion_lat": 0.0}, {"name": "ad638305bab8bf6f0d9e7d2bac4edc12", "fusion_lon": 0.0, "lat": 38.91552983333333, "is_reserved": 0, "type": "electric_scooter", "bike_id": "ad638305bab8bf6f0d9e7d2bac4edc12", "is_disabled": 0, "rental_uris": {"android": "https://dc.lft.to/lastmile_qr_scan", "ios": "https://dc.lft.to/lastmile_qr_scan"}, "lon": -77.053129, "fusion_lat": 0.0}, {"name": "2aac9aa9b9391fc5a0299715fbc20ee9", "fusion_lon": 0.0, "lat": 38.926067333333336, "is_reserved": 0, "type": "electric_scooter", "bike_id": "2aac9aa9b9391fc5a0299715fbc20ee9", "is_disabled": 0, "rental_uris": {"android": "https://dc.lft.to/lastmile_qr_scan", "ios": "https://dc.lft.to/lastmile_qr_scan"}, "lon": -77.02408183333333, "fusion_lat": 0.0}, {"name": "b5ca0962935cfb8caab96cc1f6302bbc", "fusion_lon": 0.0, "lat": 38.9202865, "is_reserved": 0, "type": "electric_scooter", "bike_id": "b5ca0962935cfb8caab96cc1f6302bbc", "is_disabled": 0, "rental_uris": {"android": "https://dc.lft.to/lastmile_qr_scan", "ios": "https://dc.lft.to/lastmile_qr_scan"}, "lon": -77.0111265, "fusion_lat": 0.0}, {"name": "b6aee87fd16bbcdd577a4ff084199196", "fusion_lon": 0.0, "lat": 38.93386666666667, "is_reserved": 0, "type": "electric_scooter", "bike_id": "b6aee87fd16bbcdd577a4ff084199196", "is_disabled": 0, "rental_uris": {"android": "https://dc.lft.to/lastmile_qr_scan", "ios": "https://dc.lft.to/lastmile_qr_scan"}, "lon": -77.023275, "fusion_lat": 0.0}, {"name": "4b8d0be9aaa04dea3b40b77e6bfb135b", "fusion_lon": 0.0, "lat": 38.92760716666667, "is_reserved": 0, "type": "electric_scooter", "bike_id": "4b8d0be9aaa04dea3b40b77e6bfb135b", "is_disabled": 0, "rental_uris": {"android": "https://dc.lft.to/lastmile_qr_scan", "ios": "https://dc.lft.to/lastmile_qr_scan"}, "lon": -77.02776083333333, "fusion_lat": 0.0}, {"name": "c9cddfdb520620dedc98037289d9da02", "fusion_lon": 0.0, "lat": 38.904757000000004, "is_reserved": 0, "type": "electric_bike", "bike_id": "c9cddfdb520620dedc98037289d9da02", "is_disabled": 0, "rental_uris": {"android": "https://dc.lft.to/lastmile_qr_scan", "ios": "https://dc.lft.to/lastmile_qr_scan"}, "lon": -76.9732485, "fusion_lat": 0.0}, {"name": "92c8fdc8800ddc63ee67cf3bafc57b35", "fusion_lon": 0.0, "lat": 38.8793145, "is_reserved": 0, "type": "electric_scooter", "bike_id": "92c8fdc8800ddc63ee67cf3bafc57b35", "is_disabled": 0, "rental_uris": {"android": "https://dc.lft.to/lastmile_qr_scan", "ios": "https://dc.lft.to/lastmile_qr_scan"}, "lon": -77.00518933333333, "fusion_lat": 0.0}, {"name": "f710da226f6855b6ffd4f8a5822d953f", "fusion_lon": 0.0, "lat": 38.90377066666667, "is_reserved": 0, "type": "electric_scooter", "bike_id": "f710da226f6855b6ffd4f8a5822d953f", "is_disabled": 0, "rental_uris": {"android": "https://dc.lft.to/lastmile_qr_scan", "ios": "https://dc.lft.to/lastmile_qr_scan"}, "lon": -77.04480783333334, "fusion_lat": 0.0}, {"name": "3c5074f108f227da0ceef7f363419ddf", "fusion_lon": 0.0, "lat": 38.886608333333335, "is_reserved": 0, "type": "electric_scooter", "bike_id": "3c5074f108f227da0ceef7f363419ddf", "is_disabled": 0, "rental_uris": {"android": "https://dc.lft.to/lastmile_qr_scan", "ios": "https://dc.lft.to/lastmile_qr_scan"}, "lon": -76.999847, "fusion_lat": 0.0}, {"name": "029cd445941872e2001abc02f8b9d121", "fusion_lon": 0.0, "lat": 38.8382835, "is_reserved": 0, "type": "electric_bike", "bike_id": "029cd445941872e2001abc02f8b9d121", "is_disabled": 0, "rental_uris": {"android": "https://dc.lft.to/lastmile_qr_scan", "ios": "https://dc.lft.to/lastmile_qr_scan"}, "lon": -77.07911366666667, "fusion_lat": 0.0}, {"name": "6ebf66860bdc2e1910caaec0b5f38be4", "fusion_lon": 0.0, "lat": 38.907935, "is_reserved": 0, "type": "electric_scooter", "bike_id": "6ebf66860bdc2e1910caaec0b5f38be4", "is_disabled": 0, "rental_uris": {"android": "https://dc.lft.to/lastmile_qr_scan", "ios": "https://dc.lft.to/lastmile_qr_scan"}, "lon": -77.03861183333333, "fusion_lat": 0.0}, {"name": "a9abe28473c1697b373d6db21401e893", "fusion_lon": 0.0, "lat": 38.948303333333335, "is_reserved": 0, "type": "electric_bike", "bike_id": "a9abe28473c1697b373d6db21401e893", "is_disabled": 0, "rental_uris": {"android": "https://dc.lft.to/lastmile_qr_scan", "ios": "https://dc.lft.to/lastmile_qr_scan"}, "lon": -77.033734, "fusion_lat": 0.0}, {"name": "376fae6ca507b029b6cd60cd1ee7ff51", "fusion_lon": 0.0, "lat": 38.92462033333334, "is_reserved": 0, "type": "electric_scooter", "bike_id": "376fae6ca507b029b6cd60cd1ee7ff51", "is_disabled": 0, "rental_uris": {"android": "https://dc.lft.to/lastmile_qr_scan", "ios": "https://dc.lft.to/lastmile_qr_scan"}, "lon": -77.0270805, "fusion_lat": 0.0}, {"name": "7ee6ece587c5b6b99042f6176f8c25fd", "fusion_lon": 0.0, "lat": 38.92454133333333, "is_reserved": 0, "type": "electric_scooter", "bike_id": "7ee6ece587c5b6b99042f6176f8c25fd", "is_disabled": 0, "rental_uris": {"android": "https://dc.lft.to/lastmile_qr_scan", "ios": "https://dc.lft.to/lastmile_qr_scan"}, "lon": -77.03971333333334, "fusion_lat": 0.0}, {"name": "08efe7a67a5412623b719597b98afafe", "fusion_lon": 0.0, "lat": 38.875538, "is_reserved": 0, "type": "electric_scooter", "bike_id": "08efe7a67a5412623b719597b98afafe", "is_disabled": 0, "rental_uris": {"android": "https://dc.lft.to/lastmile_qr_scan", "ios": "https://dc.lft.to/lastmile_qr_scan"}, "lon": -77.005602, "fusion_lat": 0.0}, {"name": "668062612b2ac701cc0704c52343371a", "fusion_lon": 0.0, "lat": 38.9037775, "is_reserved": 0, "type": "electric_scooter", "bike_id": "668062612b2ac701cc0704c52343371a", "is_disabled": 0, "rental_uris": {"android": "https://dc.lft.to/lastmile_qr_scan", "ios": "https://dc.lft.to/lastmile_qr_scan"}, "lon": -77.03630683333333, "fusion_lat": 0.0}, {"name": "84917bda3ad0c820cbd2f8140309bda7", "fusion_lon": 0.0, "lat": 38.884043, "is_reserved": 0, "type": "electric_scooter", "bike_id": "84917bda3ad0c820cbd2f8140309bda7", "is_disabled": 0, "rental_uris": {"android": "https://dc.lft.to/lastmile_qr_scan", "ios": "https://dc.lft.to/lastmile_qr_scan"}, "lon": -76.95392016666666, "fusion_lat": 0.0}, {"name": "b66fd566298ec9d6fcffdd18f4592db2", "fusion_lon": 0.0, "lat": 38.90835666666667, "is_reserved": 0, "type": "electric_bike", "bike_id": "b66fd566298ec9d6fcffdd18f4592db2", "is_disabled": 0, "rental_uris": {"android": "https://dc.lft.to/lastmile_qr_scan", "ios": "https://dc.lft.to/lastmile_qr_scan"}, "lon": -76.93304566666667, "fusion_lat": 0.0}, {"name": "b5d24a2232aee11e0c7d71932fad1b24", "fusion_lon": 0.0, "lat": 38.94038416666667, "is_reserved": 0, "type": "electric_scooter", "bike_id": "b5d24a2232aee11e0c7d71932fad1b24", "is_disabled": 0, "rental_uris": {"android": "https://dc.lft.to/lastmile_qr_scan", "ios": "https://dc.lft.to/lastmile_qr_scan"}, "lon": -77.02901833333334, "fusion_lat": 0.0}, {"name": "219572d3a512c497f4461b1f86655cca", "fusion_lon": 0.0, "lat": 38.91076433333333, "is_reserved": 0, "type": "electric_scooter", "bike_id": "219572d3a512c497f4461b1f86655cca", "is_disabled": 0, "rental_uris": {"android": "https://dc.lft.to/lastmile_qr_scan", "ios": "https://dc.lft.to/lastmile_qr_scan"}, "lon": -77.0384025, "fusion_lat": 0.0}, {"name": "8250817860435b4303c652456117cc59", "fusion_lon": 0.0, "lat": 38.87015516666666, "is_reserved": 0, "type": "electric_bike", "bike_id": "8250817860435b4303c652456117cc59", "is_disabled": 0, "rental_uris": {"android": "https://dc.lft.to/lastmile_qr_scan", "ios": "https://dc.lft.to/lastmile_qr_scan"}, "lon": -77.2298315, "fusion_lat": 0.0}, {"name": "d510537ec409277d86bcde7da4a65c1d", "fusion_lon": 0.0, "lat": 38.90544516666667, "is_reserved": 0, "type": "electric_scooter", "bike_id": "d510537ec409277d86bcde7da4a65c1d", "is_disabled": 0, "rental_uris": {"android": "https://dc.lft.to/lastmile_qr_scan", "ios": "https://dc.lft.to/lastmile_qr_scan"}, "lon": -77.04464033333333, "fusion_lat": 0.0}, {"name": "b12e894bb5374b51d0a4f08a27098b5d", "fusion_lon": 0.0, "lat": 38.90247516666667, "is_reserved": 0, "type": "electric_scooter", "bike_id": "b12e894bb5374b51d0a4f08a27098b5d", "is_disabled": 0, "rental_uris": {"android": "https://dc.lft.to/lastmile_qr_scan", "ios": "https://dc.lft.to/lastmile_qr_scan"}, "lon": -77.01768383333334, "fusion_lat": 0.0}, {"name": "06bdb747e7ed0049b7c1538368ae0883", "fusion_lon": 0.0, "lat": 38.935229666666665, "is_reserved": 0, "type": "electric_scooter", "bike_id": "06bdb747e7ed0049b7c1538368ae0883", "is_disabled": 0, "rental_uris": {"android": "https://dc.lft.to/lastmile_qr_scan", "ios": "https://dc.lft.to/lastmile_qr_scan"}, "lon": -77.03260933333334, "fusion_lat": 0.0}, {"name": "0d0fed2d7a28be1f4f003d1802c26b73", "fusion_lon": 0.0, "lat": 39.02439116666667, "is_reserved": 0, "type": "electric_bike", "bike_id": "0d0fed2d7a28be1f4f003d1802c26b73", "is_disabled": 0, "rental_uris": {"android": "https://dc.lft.to/lastmile_qr_scan", "ios": "https://dc.lft.to/lastmile_qr_scan"}, "lon": -77.13093366666666, "fusion_lat": 0.0}, {"name": "0d266e0622c2ea209f59cf0a2c8c3ae0", "fusion_lon": 0.0, "lat": 38.90549716666666, "is_reserved": 0, "type": "electric_scooter", "bike_id": "0d266e0622c2ea209f59cf0a2c8c3ae0", "is_disabled": 0, "rental_uris": {"android": "https://dc.lft.to/lastmile_qr_scan", "ios": "https://dc.lft.to/lastmile_qr_scan"}, "lon": -77.0465385, "fusion_lat": 0.0}, {"name": "3ac8dfc42bfa36437a411da73c0714c1", "fusion_lon": 0.0, "lat": 38.92235933333333, "is_reserved": 0, "type": "electric_scooter", "bike_id": "3ac8dfc42bfa36437a411da73c0714c1", "is_disabled": 0, "rental_uris": {"android": "https://dc.lft.to/lastmile_qr_scan", "ios": "https://dc.lft.to/lastmile_qr_scan"}, "lon": -77.0233165, "fusion_lat": 0.0}, {"name": "5695d1b2ed66490971a4b19c72707a13", "fusion_lon": 0.0, "lat": 38.9142825, "is_reserved": 0, "type": "electric_scooter", "bike_id": "5695d1b2ed66490971a4b19c72707a13", "is_disabled": 0, "rental_uris": {"android": "https://dc.lft.to/lastmile_qr_scan", "ios": "https://dc.lft.to/lastmile_qr_scan"}, "lon": -77.044958, "fusion_lat": 0.0}, {"name": "3a9dabdc8a1d406eebfe855d69f40717", "fusion_lon": 0.0, "lat": 38.9198145, "is_reserved": 0, "type": "electric_scooter", "bike_id": "3a9dabdc8a1d406eebfe855d69f40717", "is_disabled": 0, "rental_uris": {"android": "https://dc.lft.to/lastmile_qr_scan", "ios": "https://dc.lft.to/lastmile_qr_scan"}, "lon": -77.03219716666666, "fusion_lat": 0.0}, {"name": "f96e2d2dca1cb0480fd6ca7e82ebfad0", "fusion_lon": 0.0, "lat": 38.91705416666667, "is_reserved": 0, "type": "electric_scooter", "bike_id": "f96e2d2dca1cb0480fd6ca7e82ebfad0", "is_disabled": 0, "rental_uris": {"android": "https://dc.lft.to/lastmile_qr_scan", "ios": "https://dc.lft.to/lastmile_qr_scan"}, "lon": -77.03473616666666, "fusion_lat": 0.0}, {"name": "ca58c83cee4929b2a9fe39d901239c54", "fusion_lon": 0.0, "lat": 38.864074333333335, "is_reserved": 0, "type": "electric_scooter", "bike_id": "ca58c83cee4929b2a9fe39d901239c54", "is_disabled": 0, "rental_uris": {"android": "https://dc.lft.to/lastmile_qr_scan", "ios": "https://dc.lft.to/lastmile_qr_scan"}, "lon": -76.97423833333333, "fusion_lat": 0.0}, {"name": "732678a85f5056014992e793caff0bfb", "fusion_lon": 0.0, "lat": 38.947833333333335, "is_reserved": 0, "type": "electric_bike", "bike_id": "732678a85f5056014992e793caff0bfb", "is_disabled": 0, "rental_uris": {"android": "https://dc.lft.to/lastmile_qr_scan", "ios": "https://dc.lft.to/lastmile_qr_scan"}, "lon": -76.972094, "fusion_lat": 0.0}, {"name": "8226f7ae860fd19dae7e9271eaf7ff83", "fusion_lon": 0.0, "lat": 38.887662, "is_reserved": 0, "type": "electric_scooter", "bike_id": "8226f7ae860fd19dae7e9271eaf7ff83", "is_disabled": 0, "rental_uris": {"android": "https://dc.lft.to/lastmile_qr_scan", "ios": "https://dc.lft.to/lastmile_qr_scan"}, "lon": -76.95590516666667, "fusion_lat": 0.0}, {"name": "cbf77b1fc297fd1a7e846f3e4fd85ad6", "fusion_lon": 0.0, "lat": 38.9231785, "is_reserved": 0, "type": "electric_scooter", "bike_id": "cbf77b1fc297fd1a7e846f3e4fd85ad6", "is_disabled": 0, "rental_uris": {"android": "https://dc.lft.to/lastmile_qr_scan", "ios": "https://dc.lft.to/lastmile_qr_scan"}, "lon": -77.02104183333333, "fusion_lat": 0.0}, {"name": "cb84eb6a03ac42f1a2a11080d81eec6f", "fusion_lon": 0.0, "lat": 38.93671166666667, "is_reserved": 0, "type": "electric_scooter", "bike_id": "cb84eb6a03ac42f1a2a11080d81eec6f", "is_disabled": 0, "rental_uris": {"android": "https://dc.lft.to/lastmile_qr_scan", "ios": "https://dc.lft.to/lastmile_qr_scan"}, "lon": -77.03277133333333, "fusion_lat": 0.0}, {"name": "2f23a732af995ea5ba9595861c238997", "fusion_lon": 0.0, "lat": 38.90058116666667, "is_reserved": 0, "type": "electric_scooter", "bike_id": "2f23a732af995ea5ba9595861c238997", "is_disabled": 0, "rental_uris": {"android": "https://dc.lft.to/lastmile_qr_scan", "ios": "https://dc.lft.to/lastmile_qr_scan"}, "lon": -76.934682, "fusion_lat": 0.0}, {"name": "7988e1ccff52fe4e594f8727abbab732", "fusion_lon": 0.0, "lat": 38.930116, "is_reserved": 0, "type": "electric_scooter", "bike_id": "7988e1ccff52fe4e594f8727abbab732", "is_disabled": 0, "rental_uris": {"android": "https://dc.lft.to/lastmile_qr_scan", "ios": "https://dc.lft.to/lastmile_qr_scan"}, "lon": -77.01430433333333, "fusion_lat": 0.0}, {"name": "6e32a348504096c6449f92fb735dc011", "fusion_lon": 0.0, "lat": 38.85690266666667, "is_reserved": 0, "type": "electric_scooter", "bike_id": "6e32a348504096c6449f92fb735dc011", "is_disabled": 0, "rental_uris": {"android": "https://dc.lft.to/lastmile_qr_scan", "ios": "https://dc.lft.to/lastmile_qr_scan"}, "lon": -76.9894695, "fusion_lat": 0.0}, {"name": "5951d259144418cd4923b8e5d5879c7e", "fusion_lon": 0.0, "lat": 39.05788583333333, "is_reserved": 0, "type": "electric_bike", "bike_id": "5951d259144418cd4923b8e5d5879c7e", "is_disabled": 0, "rental_uris": {"android": "https://dc.lft.to/lastmile_qr_scan", "ios": "https://dc.lft.to/lastmile_qr_scan"}, "lon": -77.15018133333334, "fusion_lat": 0.0}, {"name": "f55e1f97d1e80314f75b115acd7ce006", "fusion_lon": 0.0, "lat": 38.92065516666667, "is_reserved": 0, "type": "electric_scooter", "bike_id": "f55e1f97d1e80314f75b115acd7ce006", "is_disabled": 0, "rental_uris": {"android": "https://dc.lft.to/lastmile_qr_scan", "ios": "https://dc.lft.to/lastmile_qr_scan"}, "lon": -77.0241605, "fusion_lat": 0.0}, {"name": "5242e7b0c365065195fc484916828fd2", "fusion_lon": 0.0, "lat": 38.84423916666667, "is_reserved": 0, "type": "electric_scooter", "bike_id": "5242e7b0c365065195fc484916828fd2", "is_disabled": 0, "rental_uris": {"android": "https://dc.lft.to/lastmile_qr_scan", "ios": "https://dc.lft.to/lastmile_qr_scan"}, "lon": -76.99779666666667, "fusion_lat": 0.0}, {"name": "d62c2fd26b48ebb72b4fa4af462456fb", "fusion_lon": 0.0, "lat": 38.908838833333334, "is_reserved": 0, "type": "electric_scooter", "bike_id": "d62c2fd26b48ebb72b4fa4af462456fb", "is_disabled": 0, "rental_uris": {"android": "https://dc.lft.to/lastmile_qr_scan", "ios": "https://dc.lft.to/lastmile_qr_scan"}, "lon": -77.07265616666666, "fusion_lat": 0.0}, {"name": "1f8dc7be4ac89b11c14c03d0349deb92", "fusion_lon": 0.0, "lat": 38.837327333333334, "is_reserved": 0, "type": "electric_bike", "bike_id": "1f8dc7be4ac89b11c14c03d0349deb92", "is_disabled": 0, "rental_uris": {"android": "https://dc.lft.to/lastmile_qr_scan", "ios": "https://dc.lft.to/lastmile_qr_scan"}, "lon": -77.09550366666667, "fusion_lat": 0.0}, {"name": "36a48236bc695fd0779112dacc6afc30", "fusion_lon": 0.0, "lat": 38.902756333333336, "is_reserved": 0, "type": "electric_scooter", "bike_id": "36a48236bc695fd0779112dacc6afc30", "is_disabled": 0, "rental_uris": {"android": "https://dc.lft.to/lastmile_qr_scan", "ios": "https://dc.lft.to/lastmile_qr_scan"}, "lon": -77.0579875, "fusion_lat": 0.0}, {"name": "0dcdb6b944e41d0746124974f8d8412c", "fusion_lon": 0.0, "lat": 38.9096785, "is_reserved": 0, "type": "electric_scooter", "bike_id": "0dcdb6b944e41d0746124974f8d8412c", "is_disabled": 0, "rental_uris": {"android": "https://dc.lft.to/lastmile_qr_scan", "ios": "https://dc.lft.to/lastmile_qr_scan"}, "lon": -77.04798816666667, "fusion_lat": 0.0}, {"name": "de4ba042350f7bd335099e4d0165045e", "fusion_lon": 0.0, "lat": 38.921316166666664, "is_reserved": 0, "type": "electric_scooter", "bike_id": "de4ba042350f7bd335099e4d0165045e", "is_disabled": 0, "rental_uris": {"android": "https://dc.lft.to/lastmile_qr_scan", "ios": "https://dc.lft.to/lastmile_qr_scan"}, "lon": -77.04423416666667, "fusion_lat": 0.0}, {"name": "79fb6d9e2dbca78ffe3e1531854bdd29", "fusion_lon": 0.0, "lat": 38.869501666666665, "is_reserved": 0, "type": "electric_scooter", "bike_id": "79fb6d9e2dbca78ffe3e1531854bdd29", "is_disabled": 0, "rental_uris": {"android": "https://dc.lft.to/lastmile_qr_scan", "ios": "https://dc.lft.to/lastmile_qr_scan"}, "lon": -76.98164383333334, "fusion_lat": 0.0}, {"name": "7533809eea7ce00df1856f9695a272a4", "fusion_lon": 0.0, "lat": 38.906555, "is_reserved": 0, "type": "electric_scooter", "bike_id": "7533809eea7ce00df1856f9695a272a4", "is_disabled": 0, "rental_uris": {"android": "https://dc.lft.to/lastmile_qr_scan", "ios": "https://dc.lft.to/lastmile_qr_scan"}, "lon": -77.03848066666667, "fusion_lat": 0.0}, {"name": "229f90a040c6bbbd5736cb2857a7cad3", "fusion_lon": 0.0, "lat": 38.90754866666666, "is_reserved": 0, "type": "electric_scooter", "bike_id": "229f90a040c6bbbd5736cb2857a7cad3", "is_disabled": 0, "rental_uris": {"android": "https://dc.lft.to/lastmile_qr_scan", "ios": "https://dc.lft.to/lastmile_qr_scan"}, "lon": -77.04335316666666, "fusion_lat": 0.0}, {"name": "f9060db855c8541d99e5e254a521e135", "fusion_lon": 0.0, "lat": 38.89741083333333, "is_reserved": 0, "type": "electric_scooter", "bike_id": "f9060db855c8541d99e5e254a521e135", "is_disabled": 0, "rental_uris": {"android": "https://dc.lft.to/lastmile_qr_scan", "ios": "https://dc.lft.to/lastmile_qr_scan"}, "lon": -77.007656, "fusion_lat": 0.0}, {"name": "bb43cf14b666f08a190cad010e2e2cec", "fusion_lon": 0.0, "lat": 38.90003, "is_reserved": 0, "type": "electric_scooter", "bike_id": "bb43cf14b666f08a190cad010e2e2cec", "is_disabled": 0, "rental_uris": {"android": "https://dc.lft.to/lastmile_qr_scan", "ios": "https://dc.lft.to/lastmile_qr_scan"}, "lon": -77.001362, "fusion_lat": 0.0}, {"name": "8344cf3b553b34b09b9b7a556a69ae65", "fusion_lon": 0.0, "lat": 38.904382166666664, "is_reserved": 0, "type": "electric_scooter", "bike_id": "8344cf3b553b34b09b9b7a556a69ae65", "is_disabled": 0, "rental_uris": {"android": "https://dc.lft.to/lastmile_qr_scan", "ios": "https://dc.lft.to/lastmile_qr_scan"}, "lon": -77.04352616666667, "fusion_lat": 0.0}, {"name": "1071db551ec674cadce6badad721f168", "fusion_lon": 0.0, "lat": 38.8971275, "is_reserved": 0, "type": "electric_scooter", "bike_id": "1071db551ec674cadce6badad721f168", "is_disabled": 0, "rental_uris": {"android": "https://dc.lft.to/lastmile_qr_scan", "ios": "https://dc.lft.to/lastmile_qr_scan"}, "lon": -77.02145366666667, "fusion_lat": 0.0}, {"name": "b5595f280c272ab61a8ba5eec4bf92b4", "fusion_lon": 0.0, "lat": 38.89963183333333, "is_reserved": 0, "type": "electric_scooter", "bike_id": "b5595f280c272ab61a8ba5eec4bf92b4", "is_disabled": 0, "rental_uris": {"android": "https://dc.lft.to/lastmile_qr_scan", "ios": "https://dc.lft.to/lastmile_qr_scan"}, "lon": -77.047911, "fusion_lat": 0.0}, {"name": "067bb62761e18583b9bd8c8fc75f2f4b", "fusion_lon": 0.0, "lat": 38.90141233333333, "is_reserved": 0, "type": "electric_scooter", "bike_id": "067bb62761e18583b9bd8c8fc75f2f4b", "is_disabled": 0, "rental_uris": {"android": "https://dc.lft.to/lastmile_qr_scan", "ios": "https://dc.lft.to/lastmile_qr_scan"}, "lon": -77.01979483333334, "fusion_lat": 0.0}, {"name": "232609e7129ffe45ead2ad690d644385", "fusion_lon": 0.0, "lat": 38.913867333333336, "is_reserved": 0, "type": "electric_scooter", "bike_id": "232609e7129ffe45ead2ad690d644385", "is_disabled": 0, "rental_uris": {"android": "https://dc.lft.to/lastmile_qr_scan", "ios": "https://dc.lft.to/lastmile_qr_scan"}, "lon": -77.03929233333334, "fusion_lat": 0.0}, {"name": "fbcc1a384cb77d3cd8e6a4f86fff0d2b", "fusion_lon": 0.0, "lat": 38.93070683333333, "is_reserved": 0, "type": "electric_scooter", "bike_id": "fbcc1a384cb77d3cd8e6a4f86fff0d2b", "is_disabled": 0, "rental_uris": {"android": "https://dc.lft.to/lastmile_qr_scan", "ios": "https://dc.lft.to/lastmile_qr_scan"}, "lon": -77.02188033333333, "fusion_lat": 0.0}, {"name": "acb3508e71d7d7042da50028990c4f86", "fusion_lon": 0.0, "lat": 38.922524833333334, "is_reserved": 0, "type": "electric_scooter", "bike_id": "acb3508e71d7d7042da50028990c4f86", "is_disabled": 0, "rental_uris": {"android": "https://dc.lft.to/lastmile_qr_scan", "ios": "https://dc.lft.to/lastmile_qr_scan"}, "lon": -77.02974833333333, "fusion_lat": 0.0}, {"name": "f820494904a36e3330f17c35ac235c0d", "fusion_lon": 0.0, "lat": 38.87936033333333, "is_reserved": 0, "type": "electric_scooter", "bike_id": "f820494904a36e3330f17c35ac235c0d", "is_disabled": 0, "rental_uris": {"android": "https://dc.lft.to/lastmile_qr_scan", "ios": "https://dc.lft.to/lastmile_qr_scan"}, "lon": -77.00923816666666, "fusion_lat": 0.0}, {"name": "ca92cfa9755985819dc14311ef196d34", "fusion_lon": 0.0, "lat": 38.9021665, "is_reserved": 0, "type": "electric_scooter", "bike_id": "ca92cfa9755985819dc14311ef196d34", "is_disabled": 0, "rental_uris": {"android": "https://dc.lft.to/lastmile_qr_scan", "ios": "https://dc.lft.to/lastmile_qr_scan"}, "lon": -77.02435683333333, "fusion_lat": 0.0}, {"name": "59dc450fdac931c28311cf8a4f9b8eef", "fusion_lon": 0.0, "lat": 38.952275, "is_reserved": 0, "type": "electric_scooter", "bike_id": "59dc450fdac931c28311cf8a4f9b8eef", "is_disabled": 0, "rental_uris": {"android": "https://dc.lft.to/lastmile_qr_scan", "ios": "https://dc.lft.to/lastmile_qr_scan"}, "lon": -77.01420933333333, "fusion_lat": 0.0}, {"name": "4f8d501320fb5d65d4c091c879845398", "fusion_lon": 0.0, "lat": 38.914783666666665, "is_reserved": 0, "type": "electric_scooter", "bike_id": "4f8d501320fb5d65d4c091c879845398", "is_disabled": 0, "rental_uris": {"android": "https://dc.lft.to/lastmile_qr_scan", "ios": "https://dc.lft.to/lastmile_qr_scan"}, "lon": -77.025345, "fusion_lat": 0.0}, {"name": "bae62e27dcbb10fa027f5c18327293ba", "fusion_lon": 0.0, "lat": 38.93072333333333, "is_reserved": 0, "type": "electric_scooter", "bike_id": "bae62e27dcbb10fa027f5c18327293ba", "is_disabled": 0, "rental_uris": {"android": "https://dc.lft.to/lastmile_qr_scan", "ios": "https://dc.lft.to/lastmile_qr_scan"}, "lon": -77.02160933333333, "fusion_lat": 0.0}, {"name": "9fb8324d6f847c32a2289d02561803b3", "fusion_lon": 0.0, "lat": 38.92073666666667, "is_reserved": 0, "type": "electric_scooter", "bike_id": "9fb8324d6f847c32a2289d02561803b3", "is_disabled": 0, "rental_uris": {"android": "https://dc.lft.to/lastmile_qr_scan", "ios": "https://dc.lft.to/lastmile_qr_scan"}, "lon": -77.02411283333333, "fusion_lat": 0.0}, {"name": "92a3008bba93c9088926c2a2094e7a0a", "fusion_lon": 0.0, "lat": 38.908393833333335, "is_reserved": 0, "type": "electric_scooter", "bike_id": "92a3008bba93c9088926c2a2094e7a0a", "is_disabled": 0, "rental_uris": {"android": "https://dc.lft.to/lastmile_qr_scan", "ios": "https://dc.lft.to/lastmile_qr_scan"}, "lon": -77.009216, "fusion_lat": 0.0}, {"name": "cd73c1de83109349001ef315a4aaaab4", "fusion_lon": 0.0, "lat": 38.88721, "is_reserved": 0, "type": "electric_scooter", "bike_id": "cd73c1de83109349001ef315a4aaaab4", "is_disabled": 0, "rental_uris": {"android": "https://dc.lft.to/lastmile_qr_scan", "ios": "https://dc.lft.to/lastmile_qr_scan"}, "lon": -77.01770116666667, "fusion_lat": 0.0}, {"name": "3b954af3e04447bd30b5f3e9d47e1ac2", "fusion_lon": 0.0, "lat": 38.87630266666667, "is_reserved": 0, "type": "electric_scooter", "bike_id": "3b954af3e04447bd30b5f3e9d47e1ac2", "is_disabled": 0, "rental_uris": {"android": "https://dc.lft.to/lastmile_qr_scan", "ios": "https://dc.lft.to/lastmile_qr_scan"}, "lon": -77.00562966666666, "fusion_lat": 0.0}, {"name": "f1c0b8562639e8c80527b19421ad87ba", "fusion_lon": 0.0, "lat": 38.90639483333333, "is_reserved": 0, "type": "electric_scooter", "bike_id": "f1c0b8562639e8c80527b19421ad87ba", "is_disabled": 0, "rental_uris": {"android": "https://dc.lft.to/lastmile_qr_scan", "ios": "https://dc.lft.to/lastmile_qr_scan"}, "lon": -77.03412383333334, "fusion_lat": 0.0}, {"name": "e3ad55a6c72fa8ba37d540121abc62f3", "fusion_lon": 0.0, "lat": 38.93217833333333, "is_reserved": 0, "type": "electric_scooter", "bike_id": "e3ad55a6c72fa8ba37d540121abc62f3", "is_disabled": 0, "rental_uris": {"android": "https://dc.lft.to/lastmile_qr_scan", "ios": "https://dc.lft.to/lastmile_qr_scan"}, "lon": -77.03345483333334, "fusion_lat": 0.0}, {"name": "7e3d52fd64624d37788bb07f39806ba5", "fusion_lon": 0.0, "lat": 38.8983685, "is_reserved": 0, "type": "electric_scooter", "bike_id": "7e3d52fd64624d37788bb07f39806ba5", "is_disabled": 0, "rental_uris": {"android": "https://dc.lft.to/lastmile_qr_scan", "ios": "https://dc.lft.to/lastmile_qr_scan"}, "lon": -77.0333685, "fusion_lat": 0.0}, {"name": "3117cbd0ddc12e2201342111b7cf6d72", "fusion_lon": 0.0, "lat": 38.91920966666667, "is_reserved": 0, "type": "electric_scooter", "bike_id": "3117cbd0ddc12e2201342111b7cf6d72", "is_disabled": 0, "rental_uris": {"android": "https://dc.lft.to/lastmile_qr_scan", "ios": "https://dc.lft.to/lastmile_qr_scan"}, "lon": -77.02508383333333, "fusion_lat": 0.0}, {"name": "0aa3b91f65a1f967cdd0761ac78c2f18", "fusion_lon": 0.0, "lat": 38.866978, "is_reserved": 0, "type": "electric_scooter", "bike_id": "0aa3b91f65a1f967cdd0761ac78c2f18", "is_disabled": 0, "rental_uris": {"android": "https://dc.lft.to/lastmile_qr_scan", "ios": "https://dc.lft.to/lastmile_qr_scan"}, "lon": -76.98709783333334, "fusion_lat": 0.0}, {"name": "e3a0002b02173bb9305b11ae7c1631d2", "fusion_lon": 0.0, "lat": 38.957086, "is_reserved": 0, "type": "electric_scooter", "bike_id": "e3a0002b02173bb9305b11ae7c1631d2", "is_disabled": 0, "rental_uris": {"android": "https://dc.lft.to/lastmile_qr_scan", "ios": "https://dc.lft.to/lastmile_qr_scan"}, "lon": -77.023984, "fusion_lat": 0.0}, {"name": "5a4861eb91d6101acbd6b44b9ec8d740", "fusion_lon": 0.0, "lat": 38.904085333333335, "is_reserved": 0, "type": "electric_scooter", "bike_id": "5a4861eb91d6101acbd6b44b9ec8d740", "is_disabled": 0, "rental_uris": {"android": "https://dc.lft.to/lastmile_qr_scan", "ios": "https://dc.lft.to/lastmile_qr_scan"}, "lon": -77.02508966666667, "fusion_lat": 0.0}, {"name": "0139e9b2d4b36214a5b223900077ee0c", "fusion_lon": 0.0, "lat": 38.901435666666664, "is_reserved": 0, "type": "electric_scooter", "bike_id": "0139e9b2d4b36214a5b223900077ee0c", "is_disabled": 0, "rental_uris": {"android": "https://dc.lft.to/lastmile_qr_scan", "ios": "https://dc.lft.to/lastmile_qr_scan"}, "lon": -77.05083183333333, "fusion_lat": 0.0}, {"name": "73607541f1f7ddb8b4642dc76e6f7309", "fusion_lon": 0.0, "lat": 38.885084, "is_reserved": 0, "type": "electric_scooter", "bike_id": "73607541f1f7ddb8b4642dc76e6f7309", "is_disabled": 0, "rental_uris": {"android": "https://dc.lft.to/lastmile_qr_scan", "ios": "https://dc.lft.to/lastmile_qr_scan"}, "lon": -76.99831683333333, "fusion_lat": 0.0}, {"name": "db823022e70a44e42c5a8c495149ef6b", "fusion_lon": 0.0, "lat": 38.908432833333336, "is_reserved": 0, "type": "electric_scooter", "bike_id": "db823022e70a44e42c5a8c495149ef6b", "is_disabled": 0, "rental_uris": {"android": "https://dc.lft.to/lastmile_qr_scan", "ios": "https://dc.lft.to/lastmile_qr_scan"}, "lon": -77.036598, "fusion_lat": 0.0}, {"name": "f41be46314b5bf3d28e900e59f4d5bbb", "fusion_lon": 0.0, "lat": 38.930825666666664, "is_reserved": 0, "type": "electric_scooter", "bike_id": "f41be46314b5bf3d28e900e59f4d5bbb", "is_disabled": 0, "rental_uris": {"android": "https://dc.lft.to/lastmile_qr_scan", "ios": "https://dc.lft.to/lastmile_qr_scan"}, "lon": -77.02560683333333, "fusion_lat": 0.0}, {"name": "0658e35df3779ba2eacec9ff3f838084", "fusion_lon": 0.0, "lat": 38.89867366666667, "is_reserved": 0, "type": "electric_scooter", "bike_id": "0658e35df3779ba2eacec9ff3f838084", "is_disabled": 0, "rental_uris": {"android": "https://dc.lft.to/lastmile_qr_scan", "ios": "https://dc.lft.to/lastmile_qr_scan"}, "lon": -76.94660316666666, "fusion_lat": 0.0}, {"name": "55e2dc65cf721e99960a3370b59f75fc", "fusion_lon": 0.0, "lat": 38.943393, "is_reserved": 0, "type": "electric_scooter", "bike_id": "55e2dc65cf721e99960a3370b59f75fc", "is_disabled": 0, "rental_uris": {"android": "https://dc.lft.to/lastmile_qr_scan", "ios": "https://dc.lft.to/lastmile_qr_scan"}, "lon": -77.061336, "fusion_lat": 0.0}, {"name": "f8febcc4425641b20abe34e2af68b5a7", "fusion_lon": 0.0, "lat": 38.872102166666664, "is_reserved": 0, "type": "electric_scooter", "bike_id": "f8febcc4425641b20abe34e2af68b5a7", "is_disabled": 0, "rental_uris": {"android": "https://dc.lft.to/lastmile_qr_scan", "ios": "https://dc.lft.to/lastmile_qr_scan"}, "lon": -76.97829383333334, "fusion_lat": 0.0}, {"name": "29e7e46510dc63aed8cb0396c30581d0", "fusion_lon": 0.0, "lat": 38.94201116666667, "is_reserved": 0, "type": "electric_scooter", "bike_id": "29e7e46510dc63aed8cb0396c30581d0", "is_disabled": 0, "rental_uris": {"android": "https://dc.lft.to/lastmile_qr_scan", "ios": "https://dc.lft.to/lastmile_qr_scan"}, "lon": -77.02511716666666, "fusion_lat": 0.0}, {"name": "990772ba52de8b5585206e2a4d1b5c9b", "fusion_lon": 0.0, "lat": 38.8983575, "is_reserved": 0, "type": "electric_scooter", "bike_id": "990772ba52de8b5585206e2a4d1b5c9b", "is_disabled": 0, "rental_uris": {"android": "https://dc.lft.to/lastmile_qr_scan", "ios": "https://dc.lft.to/lastmile_qr_scan"}, "lon": -77.03336983333334, "fusion_lat": 0.0}, {"name": "6218fa3d45c0de4b6aed1613a4de10f3", "fusion_lon": 0.0, "lat": 38.9155785, "is_reserved": 0, "type": "electric_scooter", "bike_id": "6218fa3d45c0de4b6aed1613a4de10f3", "is_disabled": 0, "rental_uris": {"android": "https://dc.lft.to/lastmile_qr_scan", "ios": "https://dc.lft.to/lastmile_qr_scan"}, "lon": -77.03863633333333, "fusion_lat": 0.0}, {"name": "f81866fc0fdf60bbb6ee405dfde827d3", "fusion_lon": 0.0, "lat": 38.902669833333334, "is_reserved": 0, "type": "electric_scooter", "bike_id": "f81866fc0fdf60bbb6ee405dfde827d3", "is_disabled": 0, "rental_uris": {"android": "https://dc.lft.to/lastmile_qr_scan", "ios": "https://dc.lft.to/lastmile_qr_scan"}, "lon": -77.00323716666666, "fusion_lat": 0.0}, {"name": "4ff6da5c243f6c87a9b99d08b02f4a1a", "fusion_lon": 0.0, "lat": 38.892220333333334, "is_reserved": 0, "type": "electric_scooter", "bike_id": "4ff6da5c243f6c87a9b99d08b02f4a1a", "is_disabled": 0, "rental_uris": {"android": "https://dc.lft.to/lastmile_qr_scan", "ios": "https://dc.lft.to/lastmile_qr_scan"}, "lon": -77.04858883333333, "fusion_lat": 0.0}, {"name": "442d990c2057ecfc5d1c6bf91f1d36e3", "fusion_lon": 0.0, "lat": 38.87613566666667, "is_reserved": 0, "type": "electric_scooter", "bike_id": "442d990c2057ecfc5d1c6bf91f1d36e3", "is_disabled": 0, "rental_uris": {"android": "https://dc.lft.to/lastmile_qr_scan", "ios": "https://dc.lft.to/lastmile_qr_scan"}, "lon": -77.002452, "fusion_lat": 0.0}, {"name": "39916f5eb7bd1038529739dec31873e1", "fusion_lon": 0.0, "lat": 38.92723816666667, "is_reserved": 0, "type": "electric_scooter", "bike_id": "39916f5eb7bd1038529739dec31873e1", "is_disabled": 0, "rental_uris": {"android": "https://dc.lft.to/lastmile_qr_scan", "ios": "https://dc.lft.to/lastmile_qr_scan"}, "lon": -77.02303666666667, "fusion_lat": 0.0}, {"name": "141faa3bcda0e63eaf152c16dd54abcb", "fusion_lon": 0.0, "lat": 38.897314, "is_reserved": 0, "type": "electric_scooter", "bike_id": "141faa3bcda0e63eaf152c16dd54abcb", "is_disabled": 0, "rental_uris": {"android": "https://dc.lft.to/lastmile_qr_scan", "ios": "https://dc.lft.to/lastmile_qr_scan"}, "lon": -77.05516133333333, "fusion_lat": 0.0}, {"name": "51688762033a848ae2bc3c53e8f2f895", "fusion_lon": 0.0, "lat": 38.902266833333336, "is_reserved": 0, "type": "electric_scooter", "bike_id": "51688762033a848ae2bc3c53e8f2f895", "is_disabled": 0, "rental_uris": {"android": "https://dc.lft.to/lastmile_qr_scan", "ios": "https://dc.lft.to/lastmile_qr_scan"}, "lon": -77.028531, "fusion_lat": 0.0}, {"name": "a545cd63af1f99d0d5f2088d4ecfdbcb", "fusion_lon": 0.0, "lat": 38.8784795, "is_reserved": 0, "type": "electric_scooter", "bike_id": "a545cd63af1f99d0d5f2088d4ecfdbcb", "is_disabled": 0, "rental_uris": {"android": "https://dc.lft.to/lastmile_qr_scan", "ios": "https://dc.lft.to/lastmile_qr_scan"}, "lon": -77.00813516666666, "fusion_lat": 0.0}, {"name": "89b5ec0858b69f2ae6d00f925d6e41ae", "fusion_lon": 0.0, "lat": 38.909361833333335, "is_reserved": 0, "type": "electric_scooter", "bike_id": "89b5ec0858b69f2ae6d00f925d6e41ae", "is_disabled": 0, "rental_uris": {"android": "https://dc.lft.to/lastmile_qr_scan", "ios": "https://dc.lft.to/lastmile_qr_scan"}, "lon": -77.0268685, "fusion_lat": 0.0}, {"name": "a2a12792f4875ae45010297f79bc2777", "fusion_lon": 0.0, "lat": 38.91274266666667, "is_reserved": 0, "type": "electric_scooter", "bike_id": "a2a12792f4875ae45010297f79bc2777", "is_disabled": 0, "rental_uris": {"android": "https://dc.lft.to/lastmile_qr_scan", "ios": "https://dc.lft.to/lastmile_qr_scan"}, "lon": -77.04495233333333, "fusion_lat": 0.0}, {"name": "076fe2b7c1031de4ede11208ce7e3684", "fusion_lon": 0.0, "lat": 38.93544416666667, "is_reserved": 0, "type": "electric_scooter", "bike_id": "076fe2b7c1031de4ede11208ce7e3684", "is_disabled": 0, "rental_uris": {"android": "https://dc.lft.to/lastmile_qr_scan", "ios": "https://dc.lft.to/lastmile_qr_scan"}, "lon": -77.0585165, "fusion_lat": 0.0}, {"name": "1ac1e198416f0d7c3f6f76c4799a2b15", "fusion_lon": 0.0, "lat": 39.039889, "is_reserved": 0, "type": "electric_bike", "bike_id": "1ac1e198416f0d7c3f6f76c4799a2b15", "is_disabled": 0, "rental_uris": {"android": "https://dc.lft.to/lastmile_qr_scan", "ios": "https://dc.lft.to/lastmile_qr_scan"}, "lon": -76.99926583333334, "fusion_lat": 0.0}, {"name": "938004d07a4e3efb0e76d50cce28074b", "fusion_lon": 0.0, "lat": 38.903395833333335, "is_reserved": 0, "type": "electric_scooter", "bike_id": "938004d07a4e3efb0e76d50cce28074b", "is_disabled": 0, "rental_uris": {"android": "https://dc.lft.to/lastmile_qr_scan", "ios": "https://dc.lft.to/lastmile_qr_scan"}, "lon": -77.02716983333333, "fusion_lat": 0.0}, {"name": "8927d49f82df0151e972241ae3fdb472", "fusion_lon": 0.0, "lat": 38.937645333333336, "is_reserved": 0, "type": "electric_scooter", "bike_id": "8927d49f82df0151e972241ae3fdb472", "is_disabled": 0, "rental_uris": {"android": "https://dc.lft.to/lastmile_qr_scan", "ios": "https://dc.lft.to/lastmile_qr_scan"}, "lon": -77.02512616666667, "fusion_lat": 0.0}, {"name": "649fc038eb3d7aa676fa814e6873c001", "fusion_lon": 0.0, "lat": 38.96144616666667, "is_reserved": 0, "type": "electric_scooter", "bike_id": "649fc038eb3d7aa676fa814e6873c001", "is_disabled": 0, "rental_uris": {"android": "https://dc.lft.to/lastmile_qr_scan", "ios": "https://dc.lft.to/lastmile_qr_scan"}, "lon": -77.0323935, "fusion_lat": 0.0}, {"name": "95279fb19aa54f792b7eb5325a08acb9", "fusion_lon": 0.0, "lat": 38.905106, "is_reserved": 0, "type": "electric_scooter", "bike_id": "95279fb19aa54f792b7eb5325a08acb9", "is_disabled": 0, "rental_uris": {"android": "https://dc.lft.to/lastmile_qr_scan", "ios": "https://dc.lft.to/lastmile_qr_scan"}, "lon": -77.0069675, "fusion_lat": 0.0}, {"name": "1fd2e1c3bcf49304f401f866413a553a", "fusion_lon": 0.0, "lat": 38.910349833333335, "is_reserved": 0, "type": "electric_scooter", "bike_id": "1fd2e1c3bcf49304f401f866413a553a", "is_disabled": 0, "rental_uris": {"android": "https://dc.lft.to/lastmile_qr_scan", "ios": "https://dc.lft.to/lastmile_qr_scan"}, "lon": -77.01328016666666, "fusion_lat": 0.0}, {"name": "bb97d18af61fe6cfb41a6c126e775fab", "fusion_lon": 0.0, "lat": 38.90496366666667, "is_reserved": 0, "type": "electric_scooter", "bike_id": "bb97d18af61fe6cfb41a6c126e775fab", "is_disabled": 0, "rental_uris": {"android": "https://dc.lft.to/lastmile_qr_scan", "ios": "https://dc.lft.to/lastmile_qr_scan"}, "lon": -77.02585033333334, "fusion_lat": 0.0}, {"name": "7f783d98ae6a360ac90d28b078e2fba3", "fusion_lon": 0.0, "lat": 38.9051315, "is_reserved": 0, "type": "electric_scooter", "bike_id": "7f783d98ae6a360ac90d28b078e2fba3", "is_disabled": 0, "rental_uris": {"android": "https://dc.lft.to/lastmile_qr_scan", "ios": "https://dc.lft.to/lastmile_qr_scan"}, "lon": -77.00134566666667, "fusion_lat": 0.0}, {"name": "ffac3270f3dfd1a501938bf3ec2bad04", "fusion_lon": 0.0, "lat": 38.92356233333334, "is_reserved": 0, "type": "electric_scooter", "bike_id": "ffac3270f3dfd1a501938bf3ec2bad04", "is_disabled": 0, "rental_uris": {"android": "https://dc.lft.to/lastmile_qr_scan", "ios": "https://dc.lft.to/lastmile_qr_scan"}, "lon": -77.0416225, "fusion_lat": 0.0}, {"name": "9e14f738b6dca069b408ee6dbffff90e", "fusion_lon": 0.0, "lat": 38.9035, "is_reserved": 0, "type": "electric_scooter", "bike_id": "9e14f738b6dca069b408ee6dbffff90e", "is_disabled": 0, "rental_uris": {"android": "https://dc.lft.to/lastmile_qr_scan", "ios": "https://dc.lft.to/lastmile_qr_scan"}, "lon": -77.02568666666667, "fusion_lat": 0.0}, {"name": "c7e29af501338490affde15429a3823a", "fusion_lon": 0.0, "lat": 38.89776116666667, "is_reserved": 0, "type": "electric_scooter", "bike_id": "c7e29af501338490affde15429a3823a", "is_disabled": 0, "rental_uris": {"android": "https://dc.lft.to/lastmile_qr_scan", "ios": "https://dc.lft.to/lastmile_qr_scan"}, "lon": -77.05154383333333, "fusion_lat": 0.0}, {"name": "0faa76d3458d9099ba15a88031315449", "fusion_lon": 0.0, "lat": 38.876839333333336, "is_reserved": 0, "type": "electric_scooter", "bike_id": "0faa76d3458d9099ba15a88031315449", "is_disabled": 0, "rental_uris": {"android": "https://dc.lft.to/lastmile_qr_scan", "ios": "https://dc.lft.to/lastmile_qr_scan"}, "lon": -76.99826833333333, "fusion_lat": 0.0}, {"name": "63ae03fd9a92d70fad5023c071bc5e4b", "fusion_lon": 0.0, "lat": 38.93433916666667, "is_reserved": 0, "type": "electric_scooter", "bike_id": "63ae03fd9a92d70fad5023c071bc5e4b", "is_disabled": 0, "rental_uris": {"android": "https://dc.lft.to/lastmile_qr_scan", "ios": "https://dc.lft.to/lastmile_qr_scan"}, "lon": -77.0454335, "fusion_lat": 0.0}, {"name": "f104315ef3a7fedda74a63617dfbbcf6", "fusion_lon": 0.0, "lat": 38.942021, "is_reserved": 0, "type": "electric_scooter", "bike_id": "f104315ef3a7fedda74a63617dfbbcf6", "is_disabled": 0, "rental_uris": {"android": "https://dc.lft.to/lastmile_qr_scan", "ios": "https://dc.lft.to/lastmile_qr_scan"}, "lon": -77.0251435, "fusion_lat": 0.0}, {"name": "9c96bbbfa01b155174aafce892a9b96b", "fusion_lon": 0.0, "lat": 38.9127845, "is_reserved": 0, "type": "electric_scooter", "bike_id": "9c96bbbfa01b155174aafce892a9b96b", "is_disabled": 0, "rental_uris": {"android": "https://dc.lft.to/lastmile_qr_scan", "ios": "https://dc.lft.to/lastmile_qr_scan"}, "lon": -77.0449685, "fusion_lat": 0.0}, {"name": "e1232353a80e93c04a722798a06fa970", "fusion_lon": 0.0, "lat": 38.902973, "is_reserved": 0, "type": "electric_scooter", "bike_id": "e1232353a80e93c04a722798a06fa970", "is_disabled": 0, "rental_uris": {"android": "https://dc.lft.to/lastmile_qr_scan", "ios": "https://dc.lft.to/lastmile_qr_scan"}, "lon": -77.02223833333333, "fusion_lat": 0.0}, {"name": "bbdec11c081602a87ac287629b836b22", "fusion_lon": 0.0, "lat": 38.90426333333333, "is_reserved": 0, "type": "electric_scooter", "bike_id": "bbdec11c081602a87ac287629b836b22", "is_disabled": 0, "rental_uris": {"android": "https://dc.lft.to/lastmile_qr_scan", "ios": "https://dc.lft.to/lastmile_qr_scan"}, "lon": -77.04352983333334, "fusion_lat": 0.0}, {"name": "b75258c81c037e64707e1630b3b7ba09", "fusion_lon": 0.0, "lat": 38.94990466666667, "is_reserved": 0, "type": "electric_scooter", "bike_id": "b75258c81c037e64707e1630b3b7ba09", "is_disabled": 0, "rental_uris": {"android": "https://dc.lft.to/lastmile_qr_scan", "ios": "https://dc.lft.to/lastmile_qr_scan"}, "lon": -77.03330983333333, "fusion_lat": 0.0}, {"name": "f8b59a9283567d2e6440331a6fa3e919", "fusion_lon": 0.0, "lat": 38.9237835, "is_reserved": 0, "type": "electric_scooter", "bike_id": "f8b59a9283567d2e6440331a6fa3e919", "is_disabled": 0, "rental_uris": {"android": "https://dc.lft.to/lastmile_qr_scan", "ios": "https://dc.lft.to/lastmile_qr_scan"}, "lon": -77.020543, "fusion_lat": 0.0}, {"name": "8bba945236224d98bd11302a202036e0", "fusion_lon": 0.0, "lat": 38.8664255, "is_reserved": 0, "type": "electric_scooter", "bike_id": "8bba945236224d98bd11302a202036e0", "is_disabled": 0, "rental_uris": {"android": "https://dc.lft.to/lastmile_qr_scan", "ios": "https://dc.lft.to/lastmile_qr_scan"}, "lon": -76.9826025, "fusion_lat": 0.0}, {"name": "3d591b9b7fb813558ca2d2ad6a7d9985", "fusion_lon": 0.0, "lat": 38.90178816666667, "is_reserved": 0, "type": "electric_scooter", "bike_id": "3d591b9b7fb813558ca2d2ad6a7d9985", "is_disabled": 0, "rental_uris": {"android": "https://dc.lft.to/lastmile_qr_scan", "ios": "https://dc.lft.to/lastmile_qr_scan"}, "lon": -76.988132, "fusion_lat": 0.0}, {"name": "5aca9eabad2eb38194ba4ff2b094dc68", "fusion_lon": 0.0, "lat": 38.90597966666667, "is_reserved": 0, "type": "electric_scooter", "bike_id": "5aca9eabad2eb38194ba4ff2b094dc68", "is_disabled": 0, "rental_uris": {"android": "https://dc.lft.to/lastmile_qr_scan", "ios": "https://dc.lft.to/lastmile_qr_scan"}, "lon": -77.04119333333334, "fusion_lat": 0.0}, {"name": "1b94b4b55352f68d33c3794b9b4a09e8", "fusion_lon": 0.0, "lat": 38.91643283333333, "is_reserved": 0, "type": "electric_scooter", "bike_id": "1b94b4b55352f68d33c3794b9b4a09e8", "is_disabled": 0, "rental_uris": {"android": "https://dc.lft.to/lastmile_qr_scan", "ios": "https://dc.lft.to/lastmile_qr_scan"}, "lon": -77.02272816666667, "fusion_lat": 0.0}, {"name": "1f2425c13740229b690601b710446eaf", "fusion_lon": 0.0, "lat": 38.92239883333333, "is_reserved": 0, "type": "electric_scooter", "bike_id": "1f2425c13740229b690601b710446eaf", "is_disabled": 0, "rental_uris": {"android": "https://dc.lft.to/lastmile_qr_scan", "ios": "https://dc.lft.to/lastmile_qr_scan"}, "lon": -77.02233833333334, "fusion_lat": 0.0}, {"name": "a7c08430ce304bf50732a62b2f82a566", "fusion_lon": 0.0, "lat": 38.9023045, "is_reserved": 0, "type": "electric_scooter", "bike_id": "a7c08430ce304bf50732a62b2f82a566", "is_disabled": 0, "rental_uris": {"android": "https://dc.lft.to/lastmile_qr_scan", "ios": "https://dc.lft.to/lastmile_qr_scan"}, "lon": -77.02372983333333, "fusion_lat": 0.0}, {"name": "c491d12bbfb238f2830178b3b2133e9c", "fusion_lon": 0.0, "lat": 38.95248383333333, "is_reserved": 0, "type": "electric_bike", "bike_id": "c491d12bbfb238f2830178b3b2133e9c", "is_disabled": 0, "rental_uris": {"android": "https://dc.lft.to/lastmile_qr_scan", "ios": "https://dc.lft.to/lastmile_qr_scan"}, "lon": -76.97672733333333, "fusion_lat": 0.0}, {"name": "fff4a53a6943f5187db8235454c686a5", "fusion_lon": 0.0, "lat": 38.9270085, "is_reserved": 0, "type": "electric_scooter", "bike_id": "fff4a53a6943f5187db8235454c686a5", "is_disabled": 0, "rental_uris": {"android": "https://dc.lft.to/lastmile_qr_scan", "ios": "https://dc.lft.to/lastmile_qr_scan"}, "lon": -77.02065866666666, "fusion_lat": 0.0}, {"name": "05d96de45fffa18d3453f3e0f1f75f33", "fusion_lon": 0.0, "lat": 38.90634566666667, "is_reserved": 0, "type": "electric_scooter", "bike_id": "05d96de45fffa18d3453f3e0f1f75f33", "is_disabled": 0, "rental_uris": {"android": "https://dc.lft.to/lastmile_qr_scan", "ios": "https://dc.lft.to/lastmile_qr_scan"}, "lon": -77.00988666666667, "fusion_lat": 0.0}, {"name": "23fcc8ea061df3251070de09a74ae941", "fusion_lon": 0.0, "lat": 38.92893266666667, "is_reserved": 0, "type": "electric_bike", "bike_id": "23fcc8ea061df3251070de09a74ae941", "is_disabled": 0, "rental_uris": {"android": "https://dc.lft.to/lastmile_qr_scan", "ios": "https://dc.lft.to/lastmile_qr_scan"}, "lon": -77.08391816666666, "fusion_lat": 0.0}, {"name": "99af8ca281a908d1d143ea52765729d6", "fusion_lon": 0.0, "lat": 38.90051066666667, "is_reserved": 0, "type": "electric_scooter", "bike_id": "99af8ca281a908d1d143ea52765729d6", "is_disabled": 0, "rental_uris": {"android": "https://dc.lft.to/lastmile_qr_scan", "ios": "https://dc.lft.to/lastmile_qr_scan"}, "lon": -76.98828416666667, "fusion_lat": 0.0}, {"name": "52a97fb0ff9e0e66c9c8f9e4e8d228b2", "fusion_lon": 0.0, "lat": 38.9460195, "is_reserved": 0, "type": "electric_bike", "bike_id": "52a97fb0ff9e0e66c9c8f9e4e8d228b2", "is_disabled": 0, "rental_uris": {"android": "https://dc.lft.to/lastmile_qr_scan", "ios": "https://dc.lft.to/lastmile_qr_scan"}, "lon": -77.007094, "fusion_lat": 0.0}, {"name": "e1301545d8fbcdf3f65e5e24327de519", "fusion_lon": 0.0, "lat": 38.8940385, "is_reserved": 0, "type": "electric_scooter", "bike_id": "e1301545d8fbcdf3f65e5e24327de519", "is_disabled": 0, "rental_uris": {"android": "https://dc.lft.to/lastmile_qr_scan", "ios": "https://dc.lft.to/lastmile_qr_scan"}, "lon": -77.01955283333334, "fusion_lat": 0.0}, {"name": "590c633edbd365aa2f8613fba54cb477", "fusion_lon": 0.0, "lat": 38.91883516666667, "is_reserved": 0, "type": "electric_scooter", "bike_id": "590c633edbd365aa2f8613fba54cb477", "is_disabled": 0, "rental_uris": {"android": "https://dc.lft.to/lastmile_qr_scan", "ios": "https://dc.lft.to/lastmile_qr_scan"}, "lon": -77.04827866666666, "fusion_lat": 0.0}, {"name": "bb9c9217c3eb57df07813fe73354f4e7", "fusion_lon": 0.0, "lat": 38.904463, "is_reserved": 0, "type": "electric_scooter", "bike_id": "bb9c9217c3eb57df07813fe73354f4e7", "is_disabled": 0, "rental_uris": {"android": "https://dc.lft.to/lastmile_qr_scan", "ios": "https://dc.lft.to/lastmile_qr_scan"}, "lon": -77.06282433333334, "fusion_lat": 0.0}, {"name": "84dd8892ffdca0319a044206179f212f", "fusion_lon": 0.0, "lat": 38.89302083333333, "is_reserved": 0, "type": "electric_scooter", "bike_id": "84dd8892ffdca0319a044206179f212f", "is_disabled": 0, "rental_uris": {"android": "https://dc.lft.to/lastmile_qr_scan", "ios": "https://dc.lft.to/lastmile_qr_scan"}, "lon": -76.9397705, "fusion_lat": 0.0}, {"name": "3842b3d4618c8eb175538ec7b65c01e3", "fusion_lon": 0.0, "lat": 38.9342125, "is_reserved": 0, "type": "electric_scooter", "bike_id": "3842b3d4618c8eb175538ec7b65c01e3", "is_disabled": 0, "rental_uris": {"android": "https://dc.lft.to/lastmile_qr_scan", "ios": "https://dc.lft.to/lastmile_qr_scan"}, "lon": -77.042477, "fusion_lat": 0.0}, {"name": "c4a2af0bb0fe133fbe82e491f3422306", "fusion_lon": 0.0, "lat": 38.92848083333333, "is_reserved": 0, "type": "electric_scooter", "bike_id": "c4a2af0bb0fe133fbe82e491f3422306", "is_disabled": 0, "rental_uris": {"android": "https://dc.lft.to/lastmile_qr_scan", "ios": "https://dc.lft.to/lastmile_qr_scan"}, "lon": -77.03302633333334, "fusion_lat": 0.0}, {"name": "a5bc308a0f3ac9a5b6411b66d6ae9b62", "fusion_lon": 0.0, "lat": 38.901376666666664, "is_reserved": 0, "type": "electric_scooter", "bike_id": "a5bc308a0f3ac9a5b6411b66d6ae9b62", "is_disabled": 0, "rental_uris": {"android": "https://dc.lft.to/lastmile_qr_scan", "ios": "https://dc.lft.to/lastmile_qr_scan"}, "lon": -77.01306216666667, "fusion_lat": 0.0}, {"name": "a6a3502386f73f7e463de3896cb816b2", "fusion_lon": 0.0, "lat": 38.9340845, "is_reserved": 0, "type": "electric_bike", "bike_id": "a6a3502386f73f7e463de3896cb816b2", "is_disabled": 0, "rental_uris": {"android": "https://dc.lft.to/lastmile_qr_scan", "ios": "https://dc.lft.to/lastmile_qr_scan"}, "lon": -77.02899066666667, "fusion_lat": 0.0}, {"name": "f58a488a2790f96bd6d35b0405ff159e", "fusion_lon": 0.0, "lat": 38.92879466666667, "is_reserved": 0, "type": "electric_scooter", "bike_id": "f58a488a2790f96bd6d35b0405ff159e", "is_disabled": 0, "rental_uris": {"android": "https://dc.lft.to/lastmile_qr_scan", "ios": "https://dc.lft.to/lastmile_qr_scan"}, "lon": -77.04044033333334, "fusion_lat": 0.0}, {"name": "ca04de44a356af067c2c33842216b68e", "fusion_lon": 0.0, "lat": 38.928641666666664, "is_reserved": 0, "type": "electric_scooter", "bike_id": "ca04de44a356af067c2c33842216b68e", "is_disabled": 0, "rental_uris": {"android": "https://dc.lft.to/lastmile_qr_scan", "ios": "https://dc.lft.to/lastmile_qr_scan"}, "lon": -77.03184716666667, "fusion_lat": 0.0}, {"name": "b26603cf910dbc26171670dcadd842dd", "fusion_lon": 0.0, "lat": 38.93454783333333, "is_reserved": 0, "type": "electric_scooter", "bike_id": "b26603cf910dbc26171670dcadd842dd", "is_disabled": 0, "rental_uris": {"android": "https://dc.lft.to/lastmile_qr_scan", "ios": "https://dc.lft.to/lastmile_qr_scan"}, "lon": -77.027231, "fusion_lat": 0.0}, {"name": "4e38de5455abab785af7694aad82a254", "fusion_lon": 0.0, "lat": 38.85065016666667, "is_reserved": 0, "type": "electric_scooter", "bike_id": "4e38de5455abab785af7694aad82a254", "is_disabled": 0, "rental_uris": {"android": "https://dc.lft.to/lastmile_qr_scan", "ios": "https://dc.lft.to/lastmile_qr_scan"}, "lon": -76.97004216666667, "fusion_lat": 0.0}, {"name": "23dd7d9301e853757f5ce6e6191443b0", "fusion_lon": 0.0, "lat": 38.88083783333333, "is_reserved": 0, "type": "electric_scooter", "bike_id": "23dd7d9301e853757f5ce6e6191443b0", "is_disabled": 0, "rental_uris": {"android": "https://dc.lft.to/lastmile_qr_scan", "ios": "https://dc.lft.to/lastmile_qr_scan"}, "lon": -76.98495483333333, "fusion_lat": 0.0}, {"name": "e080b6cdb7762deb06a5c672925d334b", "fusion_lon": 0.0, "lat": 38.916644833333336, "is_reserved": 0, "type": "electric_scooter", "bike_id": "e080b6cdb7762deb06a5c672925d334b", "is_disabled": 0, "rental_uris": {"android": "https://dc.lft.to/lastmile_qr_scan", "ios": "https://dc.lft.to/lastmile_qr_scan"}, "lon": -77.02971633333334, "fusion_lat": 0.0}, {"name": "104cc4301daf10936cbe1ed7fa07c9c1", "fusion_lon": 0.0, "lat": 38.900253166666666, "is_reserved": 0, "type": "electric_scooter", "bike_id": "104cc4301daf10936cbe1ed7fa07c9c1", "is_disabled": 0, "rental_uris": {"android": "https://dc.lft.to/lastmile_qr_scan", "ios": "https://dc.lft.to/lastmile_qr_scan"}, "lon": -76.99896466666667, "fusion_lat": 0.0}, {"name": "932559c394c4cf4c172667b9725b17f6", "fusion_lon": 0.0, "lat": 38.9166755, "is_reserved": 0, "type": "electric_scooter", "bike_id": "932559c394c4cf4c172667b9725b17f6", "is_disabled": 0, "rental_uris": {"android": "https://dc.lft.to/lastmile_qr_scan", "ios": "https://dc.lft.to/lastmile_qr_scan"}, "lon": -77.02970683333334, "fusion_lat": 0.0}, {"name": "76d8c56dc8b63047a271e0b10f64e7c4", "fusion_lon": 0.0, "lat": 38.893207333333336, "is_reserved": 0, "type": "electric_scooter", "bike_id": "76d8c56dc8b63047a271e0b10f64e7c4", "is_disabled": 0, "rental_uris": {"android": "https://dc.lft.to/lastmile_qr_scan", "ios": "https://dc.lft.to/lastmile_qr_scan"}, "lon": -77.04872, "fusion_lat": 0.0}, {"name": "9d9df926fc92f4ed19b9e1750fa4e67e", "fusion_lon": 0.0, "lat": 38.9515325, "is_reserved": 0, "type": "electric_scooter", "bike_id": "9d9df926fc92f4ed19b9e1750fa4e67e", "is_disabled": 0, "rental_uris": {"android": "https://dc.lft.to/lastmile_qr_scan", "ios": "https://dc.lft.to/lastmile_qr_scan"}, "lon": -77.018622, "fusion_lat": 0.0}, {"name": "492f36aa26dfa1e96156a697b57ff873", "fusion_lon": 0.0, "lat": 38.92331933333333, "is_reserved": 0, "type": "electric_scooter", "bike_id": "492f36aa26dfa1e96156a697b57ff873", "is_disabled": 0, "rental_uris": {"android": "https://dc.lft.to/lastmile_qr_scan", "ios": "https://dc.lft.to/lastmile_qr_scan"}, "lon": -77.05680283333334, "fusion_lat": 0.0}, {"name": "742b182955ef158feced1ceaefbb12d0", "fusion_lon": 0.0, "lat": 38.926413833333335, "is_reserved": 0, "type": "electric_scooter", "bike_id": "742b182955ef158feced1ceaefbb12d0", "is_disabled": 0, "rental_uris": {"android": "https://dc.lft.to/lastmile_qr_scan", "ios": "https://dc.lft.to/lastmile_qr_scan"}, "lon": -77.04133733333333, "fusion_lat": 0.0}, {"name": "0927e65ca525d7de08052eb7f63a5d01", "fusion_lon": 0.0, "lat": 38.9020945, "is_reserved": 0, "type": "electric_scooter", "bike_id": "0927e65ca525d7de08052eb7f63a5d01", "is_disabled": 0, "rental_uris": {"android": "https://dc.lft.to/lastmile_qr_scan", "ios": "https://dc.lft.to/lastmile_qr_scan"}, "lon": -77.02364683333333, "fusion_lat": 0.0}, {"name": "7e07dc397bd823ce702cac4d1ec28506", "fusion_lon": 0.0, "lat": 38.905384, "is_reserved": 0, "type": "electric_scooter", "bike_id": "7e07dc397bd823ce702cac4d1ec28506", "is_disabled": 0, "rental_uris": {"android": "https://dc.lft.to/lastmile_qr_scan", "ios": "https://dc.lft.to/lastmile_qr_scan"}, "lon": -77.0452365, "fusion_lat": 0.0}, {"name": "77bfdf820accd83fb379d970dd8ad7e3", "fusion_lon": 0.0, "lat": 38.90217633333334, "is_reserved": 0, "type": "electric_scooter", "bike_id": "77bfdf820accd83fb379d970dd8ad7e3", "is_disabled": 0, "rental_uris": {"android": "https://dc.lft.to/lastmile_qr_scan", "ios": "https://dc.lft.to/lastmile_qr_scan"}, "lon": -77.02371833333333, "fusion_lat": 0.0}, {"name": "e3aafd6700cb7a3661a8668a74012411", "fusion_lon": 0.0, "lat": 38.93320933333333, "is_reserved": 0, "type": "electric_scooter", "bike_id": "e3aafd6700cb7a3661a8668a74012411", "is_disabled": 0, "rental_uris": {"android": "https://dc.lft.to/lastmile_qr_scan", "ios": "https://dc.lft.to/lastmile_qr_scan"}, "lon": -77.03430666666667, "fusion_lat": 0.0}, {"name": "c81e9f3d68f827b418c6771c9ad43636", "fusion_lon": 0.0, "lat": 38.92035166666667, "is_reserved": 0, "type": "electric_scooter", "bike_id": "c81e9f3d68f827b418c6771c9ad43636", "is_disabled": 0, "rental_uris": {"android": "https://dc.lft.to/lastmile_qr_scan", "ios": "https://dc.lft.to/lastmile_qr_scan"}, "lon": -77.02578516666667, "fusion_lat": 0.0}, {"name": "d4e5ef3c8643aceed9bcfc6332103762", "fusion_lon": 0.0, "lat": 38.89612866666667, "is_reserved": 0, "type": "electric_scooter", "bike_id": "d4e5ef3c8643aceed9bcfc6332103762", "is_disabled": 0, "rental_uris": {"android": "https://dc.lft.to/lastmile_qr_scan", "ios": "https://dc.lft.to/lastmile_qr_scan"}, "lon": -77.04467283333334, "fusion_lat": 0.0}, {"name": "ffa1d1192b9060795977c8ffa79cafa8", "fusion_lon": 0.0, "lat": 38.91559433333333, "is_reserved": 0, "type": "electric_scooter", "bike_id": "ffa1d1192b9060795977c8ffa79cafa8", "is_disabled": 0, "rental_uris": {"android": "https://dc.lft.to/lastmile_qr_scan", "ios": "https://dc.lft.to/lastmile_qr_scan"}, "lon": -77.02053966666666, "fusion_lat": 0.0}, {"name": "a9ea7916b52d31ccde0c63ea4fac98e3", "fusion_lon": 0.0, "lat": 38.934025, "is_reserved": 0, "type": "electric_scooter", "bike_id": "a9ea7916b52d31ccde0c63ea4fac98e3", "is_disabled": 0, "rental_uris": {"android": "https://dc.lft.to/lastmile_qr_scan", "ios": "https://dc.lft.to/lastmile_qr_scan"}, "lon": -77.03986266666666, "fusion_lat": 0.0}, {"name": "9e3807c3344f2a11c9f57d3b08ebe5d9", "fusion_lon": 0.0, "lat": 38.9272235, "is_reserved": 0, "type": "electric_scooter", "bike_id": "9e3807c3344f2a11c9f57d3b08ebe5d9", "is_disabled": 0, "rental_uris": {"android": "https://dc.lft.to/lastmile_qr_scan", "ios": "https://dc.lft.to/lastmile_qr_scan"}, "lon": -77.0227775, "fusion_lat": 0.0}, {"name": "9ab88fa246d8bb2afe0be155ff3ecc20", "fusion_lon": 0.0, "lat": 38.9245645, "is_reserved": 0, "type": "electric_scooter", "bike_id": "9ab88fa246d8bb2afe0be155ff3ecc20", "is_disabled": 0, "rental_uris": {"android": "https://dc.lft.to/lastmile_qr_scan", "ios": "https://dc.lft.to/lastmile_qr_scan"}, "lon": -77.07818033333334, "fusion_lat": 0.0}, {"name": "67bffda583c618680417dd33fe2eeab7", "fusion_lon": 0.0, "lat": 38.929680166666664, "is_reserved": 0, "type": "electric_bike", "bike_id": "67bffda583c618680417dd33fe2eeab7", "is_disabled": 0, "rental_uris": {"android": "https://dc.lft.to/lastmile_qr_scan", "ios": "https://dc.lft.to/lastmile_qr_scan"}, "lon": -77.18564316666667, "fusion_lat": 0.0}, {"name": "de762e726f50eff2735371fe375de0f7", "fusion_lon": 0.0, "lat": 38.924115666666665, "is_reserved": 0, "type": "electric_scooter", "bike_id": "de762e726f50eff2735371fe375de0f7", "is_disabled": 0, "rental_uris": {"android": "https://dc.lft.to/lastmile_qr_scan", "ios": "https://dc.lft.to/lastmile_qr_scan"}, "lon": -77.03630283333334, "fusion_lat": 0.0}, {"name": "7ef31c45b1a4423a297f16b684256f32", "fusion_lon": 0.0, "lat": 38.88609683333333, "is_reserved": 0, "type": "electric_scooter", "bike_id": "7ef31c45b1a4423a297f16b684256f32", "is_disabled": 0, "rental_uris": {"android": "https://dc.lft.to/lastmile_qr_scan", "ios": "https://dc.lft.to/lastmile_qr_scan"}, "lon": -76.99510433333333, "fusion_lat": 0.0}, {"name": "f4c7872b2f8b4a2039f4b5718ce60e73", "fusion_lon": 0.0, "lat": 38.902691, "is_reserved": 0, "type": "electric_scooter", "bike_id": "f4c7872b2f8b4a2039f4b5718ce60e73", "is_disabled": 0, "rental_uris": {"android": "https://dc.lft.to/lastmile_qr_scan", "ios": "https://dc.lft.to/lastmile_qr_scan"}, "lon": -77.05790933333333, "fusion_lat": 0.0}, {"name": "284d927a27b733cc60deef760af7ed0a", "fusion_lon": 0.0, "lat": 38.93183716666667, "is_reserved": 0, "type": "electric_scooter", "bike_id": "284d927a27b733cc60deef760af7ed0a", "is_disabled": 0, "rental_uris": {"android": "https://dc.lft.to/lastmile_qr_scan", "ios": "https://dc.lft.to/lastmile_qr_scan"}, "lon": -77.036591, "fusion_lat": 0.0}, {"name": "8c30aff25a938ed4d1736f9a0f9bd7c5", "fusion_lon": 0.0, "lat": 38.90499616666666, "is_reserved": 0, "type": "electric_scooter", "bike_id": "8c30aff25a938ed4d1736f9a0f9bd7c5", "is_disabled": 0, "rental_uris": {"android": "https://dc.lft.to/lastmile_qr_scan", "ios": "https://dc.lft.to/lastmile_qr_scan"}, "lon": -77.020006, "fusion_lat": 0.0}, {"name": "fe7862c7cd2be46d738f63a69106604a", "fusion_lon": 0.0, "lat": 38.9422155, "is_reserved": 0, "type": "electric_bike", "bike_id": "fe7862c7cd2be46d738f63a69106604a", "is_disabled": 0, "rental_uris": {"android": "https://dc.lft.to/lastmile_qr_scan", "ios": "https://dc.lft.to/lastmile_qr_scan"}, "lon": -76.96612, "fusion_lat": 0.0}, {"name": "f3f0905cbb4a00dc53473cb41a49ff99", "fusion_lon": 0.0, "lat": 39.055026, "is_reserved": 0, "type": "electric_bike", "bike_id": "f3f0905cbb4a00dc53473cb41a49ff99", "is_disabled": 0, "rental_uris": {"android": "https://dc.lft.to/lastmile_qr_scan", "ios": "https://dc.lft.to/lastmile_qr_scan"}, "lon": -77.0464335, "fusion_lat": 0.0}, {"name": "6fe7db475b7732f15d0a5fec8747896c", "fusion_lon": 0.0, "lat": 38.914041166666664, "is_reserved": 0, "type": "electric_scooter", "bike_id": "6fe7db475b7732f15d0a5fec8747896c", "is_disabled": 0, "rental_uris": {"android": "https://dc.lft.to/lastmile_qr_scan", "ios": "https://dc.lft.to/lastmile_qr_scan"}, "lon": -77.0369685, "fusion_lat": 0.0},