{"data": {"bikes": [{"is_disabled": 0, "rental_uris": {"android": "https://dc.lft.to/lastmile_qr_scan", "ios": "https://dc.lft.to/lastmile_qr_scan"}, "is_reserved": 0, "name": "5ae895f5ce3f6ea886447210b2d8cc93", "lon": -77.03261716666667, "type": "electric_scooter", "bike_id": "5ae895f5ce3f6ea886447210b2d8cc93", "fusion_lon": 0.0, "lat": 38.93523883333334, "fusion_lat": 0.0}, {"is_disabled": 0, "rental_uris": {"android": "https://dc.lft.to/lastmile_qr_scan", "ios": "https://dc.lft.to/lastmile_qr_scan"}, "is_reserved": 0, "name": "26e1187e11d4f3ea51f4d55d685cd754", "lon": -76.989496, "type": "electric_scooter", "bike_id": "26e1187e11d4f3ea51f4d55d685cd754", "fusion_lon": 0.0, "lat": 38.844019, "fusion_lat": 0.0}, {"is_disabled": 0, "rental_uris": {"android": "https://dc.lft.to/lastmile_qr_scan", "ios": "https://dc.lft.to/lastmile_qr_scan"}, "is_reserved": 0, "name": "e77318b76e1de8bf563707f182a84da7", "lon": -77.02212, "type": "electric_scooter", "bike_id": "e77318b76e1de8bf563707f182a84da7", "fusion_lon": 0.0, "lat": 38.92103783333334, "fusion_lat": 0.0}, {"is_disabled": 0, "rental_uris": {"android": "https://dc.lft.to/lastmile_qr_scan", "ios": "https://dc.lft.to/lastmile_qr_scan"}, "is_reserved": 0, "name": "2a5d914b1c307ce4c979c02205cf1357", "lon": -77.01644083333333, "type": "electric_scooter", "bike_id": "2a5d914b1c307ce4c979c02205cf1357", "fusion_lon": 0.0, "lat": 38.88116216666667, "fusion_lat": 0.0}, {"is_disabled": 0, "rental_uris": {"android": "https://dc.lft.to/lastmile_qr_scan", "ios": "https://dc.lft.to/lastmile_qr_scan"}, "is_reserved": 0, "name": "0e6e16d43e2dad7f99768afa2d57d653", "lon": -77.0402835, "type": "electric_scooter", "bike_id": "0e6e16d43e2dad7f99768afa2d57d653", "fusion_lon": 0.0, "lat": 38.907276333333336, "fusion_lat": 0.0}, {"is_disabled": 0, "rental_uris": {"android": "https://dc.lft.to/lastmile_qr_scan", "ios": "https://dc.lft.to/lastmile_qr_scan"}, "is_reserved": 0, "name": "7c6caa7d57e642e4e4f5bab879d1e1a8", "lon": -77.032111, "type": "electric_scooter", "bike_id": "7c6caa7d57e642e4e4f5bab879d1e1a8", "fusion_lon": 0.0, "lat": 38.925850833333335, "fusion_lat": 0.0}, {"is_disabled": 0, "rental_uris": {"android": "https://dc.lft.to/lastmile_qr_scan", "ios": "https://dc.lft.to/lastmile_qr_scan"}, "is_reserved": 0, "name": "05bb2c25236228cc6ad824687a6f481a", "lon": -77.04174766666667, "type": "electric_scooter", "bike_id": "05bb2c25236228cc6ad824687a6f481a", "fusion_lon": 0.0, "lat": 38.91551916666667, "fusion_lat": 0.0}, {"is_disabled": 0, "rental_uris": {"android": "https://dc.lft.to/lastmile_qr_scan", "ios": "https://dc.lft.to/lastmile_qr_scan"}, "is_reserved": 0, "name": "4dbc54df9f82192478e27bfdb07e552d", "lon": -77.0909925, "type": "electric_scooter", "bike_id": "4dbc54df9f82192478e27bfdb07e552d", "fusion_lon": 0.0, "lat": 38.956384166666666, "fusion_lat": 0.0}, {"is_disabled": 0, "rental_uris": {"android": "https://dc.lft.to/lastmile_qr_scan", "ios": "https://dc.lft.to/lastmile_qr_scan"}, "is_reserved": 0, "name": "8addad9ba10e31f87d7549bb477d3f5c", "lon": -77.00933866666666, "type": "electric_scooter", "bike_id": "8addad9ba10e31f87d7549bb477d3f5c", "fusion_lon": 0.0, "lat": 38.871153166666666, "fusion_lat": 0.0}, {"is_disabled": 0, "rental_uris": {"android": "https://dc.lft.to/lastmile_qr_scan", "ios": "https://dc.lft.to/lastmile_qr_scan"}, "is_reserved": 0, "name": "f0a86810187841e7800a51d6d78ddfe8", "lon": -76.97236583333333, "type": "electric_scooter", "bike_id": "f0a86810187841e7800a51d6d78ddfe8", "fusion_lon": 0.0, "lat": 38.8546195, "fusion_lat": 0.0}, {"is_disabled": 0, "rental_uris": {"android": "https://dc.lft.to/lastmile_qr_scan", "ios": "https://dc.lft.to/lastmile_qr_scan"}, "is_reserved": 0, "name": "3019ba8ef2a66436f6eebd3648917e6c", "lon": -77.01138016666667, "type": "electric_scooter", "bike_id": "3019ba8ef2a66436f6eebd3648917e6c", "fusion_lon": 0.0, "lat": 38.9096295, "fusion_lat": 0.0}, {"is_disabled": 0, "rental_uris": {"android": "https://dc.lft.to/lastmile_qr_scan", "ios": "https://dc.lft.to/lastmile_qr_scan"}, "is_reserved": 0, "name": "4569b1d1b1fe1d6aef7d9774ba0d28fa", "lon": -77.114297, "type": "electric_bike", "bike_id": "4569b1d1b1fe1d6aef7d9774ba0d28fa", "fusion_lon": 0.0, "lat": 38.85248416666667, "fusion_lat": 0.0}, {"is_disabled": 0, "rental_uris": {"android": "https://dc.lft.to/lastmile_qr_scan", "ios": "https://dc.lft.to/lastmile_qr_scan"}, "is_reserved": 0, "name": "81e4fedae1f246912bf3cecf0c7c9d3c", "lon": -77.02378933333334, "type": "electric_scooter", "bike_id": "81e4fedae1f246912bf3cecf0c7c9d3c", "fusion_lon": 0.0, "lat": 38.902142, "fusion_lat": 0.0}, {"is_disabled": 0, "rental_uris": {"android": "https://dc.lft.to/lastmile_qr_scan", "ios": "https://dc.lft.to/lastmile_qr_scan"}, "is_reserved": 0, "name": "a035babe23936d8852af41668f6e2df5", "lon": -77.0093125, "type": "electric_scooter", "bike_id": "a035babe23936d8852af41668f6e2df5", "fusion_lon": 0.0, "lat": 38.898412666666665, "fusion_lat": 0.0}, {"is_disabled": 0, "rental_uris": {"android": "https://dc.lft.to/lastmile_qr_scan", "ios": "https://dc.lft.to/lastmile_qr_scan"}, "is_reserved": 0, "name": "a6e29f36c8c19fbfb4d56f8d9bf5616a", "lon": -77.03853883333333, "type": "electric_scooter", "bike_id": "a6e29f36c8c19fbfb4d56f8d9bf5616a", "fusion_lon": 0.0, "lat": 38.91839083333333, "fusion_lat": 0.0}, {"is_disabled": 0, "rental_uris": {"android": "https://dc.lft.to/lastmile_qr_scan", "ios": "https://dc.lft.to/lastmile_qr_scan"}, "is_reserved": 0, "name": "834928c2d915b9adeaf4762a56aebc36", "lon": -77.00331783333333, "type": "electric_scooter", "bike_id": "834928c2d915b9adeaf4762a56aebc36", "fusion_lon": 0.0, "lat": 38.892180833333335, "fusion_lat": 0.0}, {"is_disabled": 0, "rental_uris": {"android": "https://dc.lft.to/lastmile_qr_scan", "ios": "https://dc.lft.to/lastmile_qr_scan"}, "is_reserved": 0, "name": "234b84c8b08660cba77e50d59b721dbf", "lon": -77.005714, "type": "electric_scooter", "bike_id": "234b84c8b08660cba77e50d59b721dbf", "fusion_lon": 0.0, "lat": 38.885034, "fusion_lat": 0.0}, {"is_disabled": 0, "rental_uris": {"android": "https://dc.lft.to/lastmile_qr_scan", "ios": "https://dc.lft.to/lastmile_qr_scan"}, "is_reserved": 0, "name": "6d254fce838f1f3300aeaa867b707cb1", "lon": -77.043739, "type": "electric_scooter", "bike_id": "6d254fce838f1f3300aeaa867b707cb1", "fusion_lon": 0.0, "lat": 38.925695, "fusion_lat": 0.0}, {"is_disabled": 0, "rental_uris": {"android": "https://dc.lft.to/lastmile_qr_scan", "ios": "https://dc.lft.to/lastmile_qr_scan"}, "is_reserved": 0, "name": "2c76555a4afe747d68d02ae599344127", "lon": -76.9315035, "type": "electric_scooter", "bike_id": "2c76555a4afe747d68d02ae599344127", "fusion_lon": 0.0, "lat": 38.898499, "fusion_lat": 0.0}, {"is_disabled": 0, "rental_uris": {"android": "https://dc.lft.to/lastmile_qr_scan", "ios": "https://dc.lft.to/lastmile_qr_scan"}, "is_reserved": 0, "name": "849d32f69e0dfd6126d52bb6ec446e5d", "lon": -77.02212, "type": "electric_scooter", "bike_id": "849d32f69e0dfd6126d52bb6ec446e5d", "fusion_lon": 0.0, "lat": 38.8874355, "fusion_lat": 0.0}, {"is_disabled": 0, "rental_uris": {"android": "https://dc.lft.to/lastmile_qr_scan", "ios": "https://dc.lft.to/lastmile_qr_scan"}, "is_reserved": 0, "name": "bb358adff33b5bdf3347530e9f48352f", "lon": -76.98083583333333, "type": "electric_scooter", "bike_id": "bb358adff33b5bdf3347530e9f48352f", "fusion_lon": 0.0, "lat": 38.87010866666667, "fusion_lat": 0.0}, {"is_disabled": 0, "rental_uris": {"android": "https://dc.lft.to/lastmile_qr_scan", "ios": "https://dc.lft.to/lastmile_qr_scan"}, "is_reserved": 0, "name": "5b908dc5ead5102be517a084436d8379", "lon": -77.02935483333333, "type": "electric_scooter", "bike_id": "5b908dc5ead5102be517a084436d8379", "fusion_lon": 0.0, "lat": 38.89829616666667, "fusion_lat": 0.0}, {"is_disabled": 0, "rental_uris": {"android": "https://dc.lft.to/lastmile_qr_scan", "ios": "https://dc.lft.to/lastmile_qr_scan"}, "is_reserved": 0, "name": "b4fc7789a2fff882b03bcf3bb3299296", "lon": -76.98357666666666, "type": "electric_scooter", "bike_id": "b4fc7789a2fff882b03bcf3bb3299296", "fusion_lon": 0.0, "lat": 38.891674, "fusion_lat": 0.0}, {"is_disabled": 0, "rental_uris": {"android": "https://dc.lft.to/lastmile_qr_scan", "ios": "https://dc.lft.to/lastmile_qr_scan"}, "is_reserved": 0, "name": "c5438f47380be99545acc5d86e5bb14b", "lon": -76.98727783333334, "type": "electric_scooter", "bike_id": "c5438f47380be99545acc5d86e5bb14b", "fusion_lon": 0.0, "lat": 38.867061166666666, "fusion_lat": 0.0}, {"is_disabled": 0, "rental_uris": {"android": "https://dc.lft.to/lastmile_qr_scan", "ios": "https://dc.lft.to/lastmile_qr_scan"}, "is_reserved": 0, "name": "25d32222f06641be0d8e04e05318879f", "lon": -77.022487, "type": "electric_scooter", "bike_id": "25d32222f06641be0d8e04e05318879f", "fusion_lon": 0.0, "lat": 38.91636583333333, "fusion_lat": 0.0}, {"is_disabled": 0, "rental_uris": {"android": "https://dc.lft.to/lastmile_qr_scan", "ios": "https://dc.lft.to/lastmile_qr_scan"}, "is_reserved": 0, "name": "1044fa05b2999cc376f56eae0f4006a0", "lon": -77.03998216666666, "type": "electric_scooter", "bike_id": "1044fa05b2999cc376f56eae0f4006a0", "fusion_lon": 0.0, "lat": 38.91805766666667, "fusion_lat": 0.0}, {"is_disabled": 0, "rental_uris": {"android": "https://dc.lft.to/lastmile_qr_scan", "ios": "https://dc.lft.to/lastmile_qr_scan"}, "is_reserved": 0, "name": "dafa16094f3244a46da76dd27d71e907", "lon": -77.036534, "type": "electric_scooter", "bike_id": "dafa16094f3244a46da76dd27d71e907", "fusion_lon": 0.0, "lat": 38.9185915, "fusion_lat": 0.0}, {"is_disabled": 0, "rental_uris": {"android": "https://dc.lft.to/lastmile_qr_scan", "ios": "https://dc.lft.to/lastmile_qr_scan"}, "is_reserved": 0, "name": "7253517d1bd886d3e320476af241c10c", "lon": -77.03184616666667, "type": "electric_scooter", "bike_id": "7253517d1bd886d3e320476af241c10c", "fusion_lon": 0.0, "lat": 38.903243333333336, "fusion_lat": 0.0}, {"is_disabled": 0, "rental_uris": {"android": "https://dc.lft.to/lastmile_qr_scan", "ios": "https://dc.lft.to/lastmile_qr_scan"}, "is_reserved": 0, "name": "854b1f6c73b9a982622528da980a389c", "lon": -77.066652, "type": "electric_scooter", "bike_id": "854b1f6c73b9a982622528da980a389c", "fusion_lon": 0.0, "lat": 38.949546, "fusion_lat": 0.0}, {"is_disabled": 0, "rental_uris": {"android": "https://dc.lft.to/lastmile_qr_scan", "ios": "https://dc.lft.to/lastmile_qr_scan"}, "is_reserved": 0, "name": "67417b0203ccf6e13641ff957a84a9dc", "lon": -77.04460333333333, "type": "electric_scooter", "bike_id": "67417b0203ccf6e13641ff957a84a9dc", "fusion_lon": 0.0, "lat": 38.90286433333333, "fusion_lat": 0.0}, {"is_disabled": 0, "rental_uris": {"android": "https://dc.lft.to/lastmile_qr_scan", "ios": "https://dc.lft.to/lastmile_qr_scan"}, "is_reserved": 0, "name": "a845bba91bcdf7bba8721a2ba10cf26f", "lon": -77.02506516666666, "type": "electric_scooter", "bike_id": "a845bba91bcdf7bba8721a2ba10cf26f", "fusion_lon": 0.0, "lat": 38.93871466666667, "fusion_lat": 0.0}, {"is_disabled": 0, "rental_uris": {"android": "https://dc.lft.to/lastmile_qr_scan", "ios": "https://dc.lft.to/lastmile_qr_scan"}, "is_reserved": 0, "name": "c27a05ba2f9b682696b3d98deafe7ec9", "lon": -77.05021016666667, "type": "electric_scooter", "bike_id": "c27a05ba2f9b682696b3d98deafe7ec9", "fusion_lon": 0.0, "lat": 38.90617916666667, "fusion_lat": 0.0}, {"is_disabled": 0, "rental_uris": {"android": "https://dc.lft.to/lastmile_qr_scan", "ios": "https://dc.lft.to/lastmile_qr_scan"}, "is_reserved": 0, "name": "bc145d502e74d39b2041cf6610b36329", "lon": -77.02877633333334, "type": "electric_scooter", "bike_id": "bc145d502e74d39b2041cf6610b36329", "fusion_lon": 0.0, "lat": 38.92236533333333, "fusion_lat": 0.0}, {"is_disabled": 0, "rental_uris": {"android": "https://dc.lft.to/lastmile_qr_scan", "ios": "https://dc.lft.to/lastmile_qr_scan"}, "is_reserved": 0, "name": "4c17b9704c10a5ef22494ccfd918d666", "lon": -77.05095916666667, "type": "electric_scooter", "bike_id": "4c17b9704c10a5ef22494ccfd918d666", "fusion_lon": 0.0, "lat": 38.92342933333333, "fusion_lat": 0.0}, {"is_disabled": 0, "rental_uris": {"android": "https://dc.lft.to/lastmile_qr_scan", "ios": "https://dc.lft.to/lastmile_qr_scan"}, "is_reserved": 0, "name": "037b9934745b9457813978fa30d8c2da", "lon": -76.98092416666667, "type": "electric_scooter", "bike_id": "037b9934745b9457813978fa30d8c2da", "fusion_lon": 0.0, "lat": 38.85719733333333, "fusion_lat": 0.0}, {"is_disabled": 0, "rental_uris": {"android": "https://dc.lft.to/lastmile_qr_scan", "ios": "https://dc.lft.to/lastmile_qr_scan"}, "is_reserved": 0, "name": "7b545eb79a46df89af394ad69039f19c", "lon": -77.030597, "type": "electric_scooter", "bike_id": "7b545eb79a46df89af394ad69039f19c", "fusion_lon": 0.0, "lat": 38.90971483333333, "fusion_lat": 0.0}, {"is_disabled": 0, "rental_uris": {"android": "https://dc.lft.to/lastmile_qr_scan", "ios": "https://dc.lft.to/lastmile_qr_scan"}, "is_reserved": 0, "name": "260f057a692661f4097bef32095ed6b9", "lon": -77.18298966666667, "type": "electric_bike", "bike_id": "260f057a692661f4097bef32095ed6b9", "fusion_lon": 0.0, "lat": 38.8834305, "fusion_lat": 0.0}, {"is_disabled": 0, "rental_uris": {"android": "https://dc.lft.to/lastmile_qr_scan", "ios": "https://dc.lft.to/lastmile_qr_scan"}, "is_reserved": 0, "name": "55ea18adcbd95160df604e801dd178eb", "lon": -77.01582883333333, "type": "electric_bike", "bike_id": "55ea18adcbd95160df604e801dd178eb", "fusion_lon": 0.0, "lat": 39.046374166666666, "fusion_lat": 0.0}, {"is_disabled": 0, "rental_uris": {"android": "https://dc.lft.to/lastmile_qr_scan", "ios": "https://dc.lft.to/lastmile_qr_scan"}, "is_reserved": 0, "name": "f7fbeca0253546cf0aaca9c6d933d5d8", "lon": -77.0454665, "type": "electric_scooter", "bike_id": "f7fbeca0253546cf0aaca9c6d933d5d8", "fusion_lon": 0.0, "lat": 38.901400833333334, "fusion_lat": 0.0}, {"is_disabled": 0, "rental_uris": {"android": "https://dc.lft.to/lastmile_qr_scan", "ios": "https://dc.lft.to/lastmile_qr_scan"}, "is_reserved": 0, "name": "365b63ad67e39a8921ed8545e27dd352", "lon": -76.96918966666667, "type": "electric_scooter", "bike_id": "365b63ad67e39a8921ed8545e27dd352", "fusion_lon": 0.0, "lat": 38.855294666666666, "fusion_lat": 0.0}, {"is_disabled": 0, "rental_uris": {"android": "https://dc.lft.to/lastmile_qr_scan", "ios": "https://dc.lft.to/lastmile_qr_scan"}, "is_reserved": 0, "name": "9cff7eede23175eb0121f212d5d971ad", "lon": -77.03294833333334, "type": "electric_scooter", "bike_id": "9cff7eede23175eb0121f212d5d971ad", "fusion_lon": 0.0, "lat": 38.928946333333336, "fusion_lat": 0.0}, {"is_disabled": 0, "rental_uris": {"android": "https://dc.lft.to/lastmile_qr_scan", "ios": "https://dc.lft.to/lastmile_qr_scan"}, "is_reserved": 0, "name": "e6ed4e4674ffffcaee96d909671f65ab", "lon": -76.93115283333333, "type": "electric_scooter", "bike_id": "e6ed4e4674ffffcaee96d909671f65ab", "fusion_lon": 0.0, "lat": 38.8801315, "fusion_lat": 0.0}, {"is_disabled": 0, "rental_uris": {"android": "https://dc.lft.to/lastmile_qr_scan", "ios": "https://dc.lft.to/lastmile_qr_scan"}, "is_reserved": 0, "name": "2e15787f602a8fd1d31b0cc022daef67", "lon": -77.0247195, "type": "electric_scooter", "bike_id": "2e15787f602a8fd1d31b0cc022daef67", "fusion_lon": 0.0, "lat": 38.93914916666667, "fusion_lat": 0.0}, {"is_disabled": 0, "rental_uris": {"android": "https://dc.lft.to/lastmile_qr_scan", "ios": "https://dc.lft.to/lastmile_qr_scan"}, "is_reserved": 0, "name": "bd755b6e5338e628fa5b7aa213628873", "lon": -76.98521416666667, "type": "electric_scooter", "bike_id": "bd755b6e5338e628fa5b7aa213628873", "fusion_lon": 0.0, "lat": 38.8600305, "fusion_lat": 0.0}, {"is_disabled": 0, "rental_uris": {"android": "https://dc.lft.to/lastmile_qr_scan", "ios": "https://dc.lft.to/lastmile_qr_scan"}, "is_reserved": 0, "name": "ac9ec69a11b7eea2c8628832d36410d0", "lon": -77.059298, "type": "electric_scooter", "bike_id": "ac9ec69a11b7eea2c8628832d36410d0", "fusion_lon": 0.0, "lat": 38.936692, "fusion_lat": 0.0}, {"is_disabled": 0, "rental_uris": {"android": "https://dc.lft.to/lastmile_qr_scan", "ios": "https://dc.lft.to/lastmile_qr_scan"}, "is_reserved": 0, "name": "b69f733ec94f17f0a3c219ac22ced69c", "lon": -77.03259766666666, "type": "electric_scooter", "bike_id": "b69f733ec94f17f0a3c219ac22ced69c", "fusion_lon": 0.0, "lat": 38.9369265, "fusion_lat": 0.0}, {"is_disabled": 0, "rental_uris": {"android": "https://dc.lft.to/lastmile_qr_scan", "ios": "https://dc.lft.to/lastmile_qr_scan"}, "is_reserved": 0, "name": "3f128a65f4c91b4e362f4649642939cf", "lon": -77.0428265, "type": "electric_scooter", "bike_id": "3f128a65f4c91b4e362f4649642939cf", "fusion_lon": 0.0, "lat": 38.91108633333333, "fusion_lat": 0.0}, {"is_disabled": 0, "rental_uris": {"android": "https://dc.lft.to/lastmile_qr_scan", "ios": "https://dc.lft.to/lastmile_qr_scan"}, "is_reserved": 0, "name": "9f79c3568f90beda1cee4e8d256a3882", "lon": -77.02828766666667, "type": "electric_scooter", "bike_id": "9f79c3568f90beda1cee4e8d256a3882", "fusion_lon": 0.0, "lat": 38.895359, "fusion_lat": 0.0}, {"is_disabled": 0, "rental_uris": {"android": "https://dc.lft.to/lastmile_qr_scan", "ios": "https://dc.lft.to/lastmile_qr_scan"}, "is_reserved": 0, "name": "fd6735b1ad9de027aca76b3e375e42a8", "lon": -77.031735, "type": "electric_scooter", "bike_id": "fd6735b1ad9de027aca76b3e375e42a8", "fusion_lon": 0.0, "lat": 38.9192695, "fusion_lat": 0.0}, {"is_disabled": 0, "rental_uris": {"android": "https://dc.lft.to/lastmile_qr_scan", "ios": "https://dc.lft.to/lastmile_qr_scan"}, "is_reserved": 0, "name": "6aa92ffcfedbc2acf326851d95b98227", "lon": -77.01121566666667, "type": "electric_scooter", "bike_id": "6aa92ffcfedbc2acf326851d95b98227", "fusion_lon": 0.0, "lat": 38.90356416666667, "fusion_lat": 0.0}, {"is_disabled": 0, "rental_uris": {"android": "https://dc.lft.to/lastmile_qr_scan", "ios": "https://dc.lft.to/lastmile_qr_scan"}, "is_reserved": 0, "name": "be61b1738a53f0db0c2e0e32c2e47d8b", "lon": -76.99957983333333, "type": "electric_scooter", "bike_id": "be61b1738a53f0db0c2e0e32c2e47d8b", "fusion_lon": 0.0, "lat": 38.8428675, "fusion_lat": 0.0}, {"is_disabled": 0, "rental_uris": {"android": "https://dc.lft.to/lastmile_qr_scan", "ios": "https://dc.lft.to/lastmile_qr_scan"}, "is_reserved": 0, "name": "9a000486da1ccfd3365ae5c120c64453", "lon": -77.016169, "type": "electric_scooter", "bike_id": "9a000486da1ccfd3365ae5c120c64453", "fusion_lon": 0.0, "lat": 38.872392166666664, "fusion_lat": 0.0}, {"is_disabled": 0, "rental_uris": {"android": "https://dc.lft.to/lastmile_qr_scan", "ios": "https://dc.lft.to/lastmile_qr_scan"}, "is_reserved": 0, "name": "027d267258388276cec46b6baeb3113c", "lon": -77.05005666666666, "type": "electric_scooter", "bike_id": "027d267258388276cec46b6baeb3113c", "fusion_lon": 0.0, "lat": 38.892304333333335, "fusion_lat": 0.0}, {"is_disabled": 0, "rental_uris": {"android": "https://dc.lft.to/lastmile_qr_scan", "ios": "https://dc.lft.to/lastmile_qr_scan"}, "is_reserved": 0, "name": "5e524bf6786e3634176d51fbde597d4b", "lon": -77.03144033333334, "type": "electric_scooter", "bike_id": "5e524bf6786e3634176d51fbde597d4b", "fusion_lon": 0.0, "lat": 38.916316, "fusion_lat": 0.0}, {"is_disabled": 0, "rental_uris": {"android": "https://dc.lft.to/lastmile_qr_scan", "ios": "https://dc.lft.to/lastmile_qr_scan"}, "is_reserved": 0, "name": "7de0c5b00c2d34c5a8f89b98f89a2875", "lon": -76.989675, "type": "electric_scooter", "bike_id": "7de0c5b00c2d34c5a8f89b98f89a2875", "fusion_lon": 0.0, "lat": 38.90247766666667, "fusion_lat": 0.0}, {"is_disabled": 0, "rental_uris": {"android": "https://dc.lft.to/lastmile_qr_scan", "ios": "https://dc.lft.to/lastmile_qr_scan"}, "is_reserved": 0, "name": "2893f83027a61812b945415cf104e241", "lon": -77.03654483333334, "type": "electric_scooter", "bike_id": "2893f83027a61812b945415cf104e241", "fusion_lon": 0.0, "lat": 38.9028455, "fusion_lat": 0.0}, {"is_disabled": 0, "rental_uris": {"android": "https://dc.lft.to/lastmile_qr_scan", "ios": "https://dc.lft.to/lastmile_qr_scan"}, "is_reserved": 0, "name": "04fd31f3129f8c843f5619b45bac8179", "lon": -76.94953933333333, "type": "electric_bike", "bike_id": "04fd31f3129f8c843f5619b45bac8179", "fusion_lon": 0.0, "lat": 38.93504633333333, "fusion_lat": 0.0}, {"is_disabled": 0, "rental_uris": {"android": "https://dc.lft.to/lastmile_qr_scan", "ios": "https://dc.lft.to/lastmile_qr_scan"}, "is_reserved": 0, "name": "f886edfc4784087a9f6319210bd0c71a", "lon": -77.03400333333333, "type": "electric_scooter", "bike_id": "f886edfc4784087a9f6319210bd0c71a", "fusion_lon": 0.0, "lat": 38.91966033333333, "fusion_lat": 0.0}, {"is_disabled": 0, "rental_uris": {"android": "https://dc.lft.to/lastmile_qr_scan", "ios": "https://dc.lft.to/lastmile_qr_scan"}, "is_reserved": 0, "name": "b5285a40c33c416f8d28cdb2b9330551", "lon": -77.04663483333333, "type": "electric_scooter", "bike_id": "b5285a40c33c416f8d28cdb2b9330551", "fusion_lon": 0.0, "lat": 38.907376, "fusion_lat": 0.0}, {"is_disabled": 0, "rental_uris": {"android": "https://dc.lft.to/lastmile_qr_scan", "ios": "https://dc.lft.to/lastmile_qr_scan"}, "is_reserved": 0, "name": "8a3d5cf9afc2f9360606851321879cdc", "lon": -77.06125266666666, "type": "electric_scooter", "bike_id": "8a3d5cf9afc2f9360606851321879cdc", "fusion_lon": 0.0, "lat": 38.943653, "fusion_lat": 0.0}, {"is_disabled": 0, "rental_uris": {"android": "https://dc.lft.to/lastmile_qr_scan", "ios": "https://dc.lft.to/lastmile_qr_scan"}, "is_reserved": 0, "name": "762b40ca4ed5403e87c2e9e0d7f73a5d", "lon": -77.0177345, "type": "electric_scooter", "bike_id": "762b40ca4ed5403e87c2e9e0d7f73a5d", "fusion_lon": 0.0, "lat": 38.903721, "fusion_lat": 0.0}, {"is_disabled": 0, "rental_uris": {"android": "https://dc.lft.to/lastmile_qr_scan", "ios": "https://dc.lft.to/lastmile_qr_scan"}, "is_reserved": 0, "name": "415e388a6182774550b0d4563ffe6b83", "lon": -77.02402483333333, "type": "electric_scooter", "bike_id": "415e388a6182774550b0d4563ffe6b83", "fusion_lon": 0.0, "lat": 38.91680483333333, "fusion_lat": 0.0}, {"is_disabled": 0, "rental_uris": {"android": "https://dc.lft.to/lastmile_qr_scan", "ios": "https://dc.lft.to/lastmile_qr_scan"}, "is_reserved": 0, "name": "c4516877f65a8530d92f50be09f2c2ef", "lon": -77.07901583333333, "type": "electric_bike", "bike_id": "c4516877f65a8530d92f50be09f2c2ef", "fusion_lon": 0.0, "lat": 38.839329166666666, "fusion_lat": 0.0}, {"is_disabled": 0, "rental_uris": {"android": "https://dc.lft.to/lastmile_qr_scan", "ios": "https://dc.lft.to/lastmile_qr_scan"}, "is_reserved": 0, "name": "a7f11dc935f3b04435b3680cfb903920", "lon": -77.02933133333333, "type": "electric_scooter", "bike_id": "a7f11dc935f3b04435b3680cfb903920", "fusion_lon": 0.0, "lat": 38.898286, "fusion_lat": 0.0}, {"is_disabled": 0, "rental_uris": {"android": "https://dc.lft.to/lastmile_qr_scan", "ios": "https://dc.lft.to/lastmile_qr_scan"}, "is_reserved": 0, "name": "a40ee833ac9325298f7701cb3739ebe6", "lon": -76.991662, "type": "electric_bike", "bike_id": "a40ee833ac9325298f7701cb3739ebe6", "fusion_lon": 0.0, "lat": 38.97260333333333, "fusion_lat": 0.0}, {"is_disabled": 0, "rental_uris": {"android": "https://dc.lft.to/lastmile_qr_scan", "ios": "https://dc.lft.to/lastmile_qr_scan"}, "is_reserved": 0, "name": "383732cf422d08e0d6a38a3ce42960a6", "lon": -77.061702, "type": "electric_bike", "bike_id": "383732cf422d08e0d6a38a3ce42960a6", "fusion_lon": 0.0, "lat": 38.81272416666667, "fusion_lat": 0.0}, {"is_disabled": 0, "rental_uris": {"android": "https://dc.lft.to/lastmile_qr_scan", "ios": "https://dc.lft.to/lastmile_qr_scan"}, "is_reserved": 0, "name": "85979d3c82b9ab70df310fa08a9fae73", "lon": -77.0162885, "type": "electric_scooter", "bike_id": "85979d3c82b9ab70df310fa08a9fae73", "fusion_lon": 0.0, "lat": 38.898674166666666, "fusion_lat": 0.0}, {"is_disabled": 0, "rental_uris": {"android": "https://dc.lft.to/lastmile_qr_scan", "ios": "https://dc.lft.to/lastmile_qr_scan"}, "is_reserved": 0, "name": "5c474763c25ac972758b9752b84ae849", "lon": -77.0100975, "type": "electric_scooter", "bike_id": "5c474763c25ac972758b9752b84ae849", "fusion_lon": 0.0, "lat": 38.87969783333333, "fusion_lat": 0.0}, {"is_disabled": 0, "rental_uris": {"android": "https://dc.lft.to/lastmile_qr_scan", "ios": "https://dc.lft.to/lastmile_qr_scan"}, "is_reserved": 0, "name": "ea917fef4d1bae8a8562779a51bb9e87", "lon": -77.03644383333334, "type": "electric_scooter", "bike_id": "ea917fef4d1bae8a8562779a51bb9e87", "fusion_lon": 0.0, "lat": 38.91815533333333, "fusion_lat": 0.0}, {"is_disabled": 0, "rental_uris": {"android": "https://dc.lft.to/lastmile_qr_scan", "ios": "https://dc.lft.to/lastmile_qr_scan"}, "is_reserved": 0, "name": "644bff95bed384132288952d036e8fe4", "lon": -76.99483666666667, "type": "electric_scooter", "bike_id": "644bff95bed384132288952d036e8fe4", "fusion_lon": 0.0, "lat": 38.932293333333334, "fusion_lat": 0.0}, {"is_disabled": 0, "rental_uris": {"android": "https://dc.lft.to/lastmile_qr_scan", "ios": "https://dc.lft.to/lastmile_qr_scan"}, "is_reserved": 0, "name": "14e5e95c50a4ce0d7be6fe9705ad6e6c", "lon": -77.03441166666667, "type": "electric_scooter", "bike_id": "14e5e95c50a4ce0d7be6fe9705ad6e6c", "fusion_lon": 0.0, "lat": 38.93437616666667, "fusion_lat": 0.0}, {"is_disabled": 0, "rental_uris": {"android": "https://dc.lft.to/lastmile_qr_scan", "ios": "https://dc.lft.to/lastmile_qr_scan"}, "is_reserved": 0, "name": "508c317a434fa3cbca9d97e05d20990b", "lon": -77.03348783333334, "type": "electric_scooter", "bike_id": "508c317a434fa3cbca9d97e05d20990b", "fusion_lon": 0.0, "lat": 38.93787483333333, "fusion_lat": 0.0}, {"is_disabled": 0, "rental_uris": {"android": "https://dc.lft.to/lastmile_qr_scan", "ios": "https://dc.lft.to/lastmile_qr_scan"}, "is_reserved": 0, "name": "095e2b596327587293e2a50f0d854ad3", "lon": -77.0176755, "type": "electric_scooter", "bike_id": "095e2b596327587293e2a50f0d854ad3", "fusion_lon": 0.0, "lat": 38.91906866666667, "fusion_lat": 0.0}, {"is_disabled": 0, "rental_uris": {"android": "https://dc.lft.to/lastmile_qr_scan", "ios": "https://dc.lft.to/lastmile_qr_scan"}, "is_reserved": 0, "name": "88e22d6c82a930f2dca84acc71f161d6", "lon": -77.03875516666666, "type": "electric_scooter", "bike_id": "88e22d6c82a930f2dca84acc71f161d6", "fusion_lon": 0.0, "lat": 38.91267, "fusion_lat": 0.0}, {"is_disabled": 0, "rental_uris": {"android": "https://dc.lft.to/lastmile_qr_scan", "ios": "https://dc.lft.to/lastmile_qr_scan"}, "is_reserved": 0, "name": "ab2df66d51baf78497cfe17d0f75a78a", "lon": -77.0349035, "type": "electric_scooter", "bike_id": "ab2df66d51baf78497cfe17d0f75a78a", "fusion_lon": 0.0, "lat": 38.921503, "fusion_lat": 0.0}, {"is_disabled": 0, "rental_uris": {"android": "https://dc.lft.to/lastmile_qr_scan", "ios": "https://dc.lft.to/lastmile_qr_scan"}, "is_reserved": 0, "name": "236925808aa7310006a41dade2be7258", "lon": -77.0469645, "type": "electric_scooter", "bike_id": "236925808aa7310006a41dade2be7258", "fusion_lon": 0.0, "lat": 38.91570333333333, "fusion_lat": 0.0}, {"is_disabled": 0, "rental_uris": {"android": "https://dc.lft.to/lastmile_qr_scan", "ios": "https://dc.lft.to/lastmile_qr_scan"}, "is_reserved": 0, "name": "30bb7eaec8e986ac19610cc2024b05c3", "lon": -77.04663116666667, "type": "electric_scooter", "bike_id": "30bb7eaec8e986ac19610cc2024b05c3", "fusion_lon": 0.0, "lat": 38.907375, "fusion_lat": 0.0}, {"is_disabled": 0, "rental_uris": {"android": "https://dc.lft.to/lastmile_qr_scan", "ios": "https://dc.lft.to/lastmile_qr_scan"}, "is_reserved": 0, "name": "b4dbd7fc1f566ec9d567564f64efcaa3", "lon": -77.00360116666667, "type": "electric_scooter", "bike_id": "b4dbd7fc1f566ec9d567564f64efcaa3", "fusion_lon": 0.0, "lat": 38.894985166666665, "fusion_lat": 0.0}, {"is_disabled": 0, "rental_uris": {"android": "https://dc.lft.to/lastmile_qr_scan", "ios": "https://dc.lft.to/lastmile_qr_scan"}, "is_reserved": 0, "name": "c244ee6482aab14d097bbe58bd6ec409", "lon": -77.06110183333334, "type": "electric_scooter", "bike_id": "c244ee6482aab14d097bbe58bd6ec409", "fusion_lon": 0.0, "lat": 38.9436795, "fusion_lat": 0.0}, {"is_disabled": 0, "rental_uris": {"android": "https://dc.lft.to/lastmile_qr_scan", "ios": "https://dc.lft.to/lastmile_qr_scan"}, "is_reserved": 0, "name": "a58e4aa89dd5e2d5930535886e166ac1", "lon": -77.052054, "type": "electric_scooter", "bike_id": "a58e4aa89dd5e2d5930535886e166ac1", "fusion_lon": 0.0, "lat": 38.92439566666667, "fusion_lat": 0.0}, {"is_disabled": 0, "rental_uris": {"android": "https://dc.lft.to/lastmile_qr_scan", "ios": "https://dc.lft.to/lastmile_qr_scan"}, "is_reserved": 0, "name": "b600cd31e02b45fd143c58e4950cc30f", "lon": -76.9567505, "type": "electric_scooter", "bike_id": "b600cd31e02b45fd143c58e4950cc30f", "fusion_lon": 0.0, "lat": 38.887662666666664, "fusion_lat": 0.0}, {"is_disabled": 0, "rental_uris": {"android": "https://dc.lft.to/lastmile_qr_scan", "ios": "https://dc.lft.to/lastmile_qr_scan"}, "is_reserved": 0, "name": "ede9b274429ce078bc758c001759f9e2", "lon": -77.03862133333334, "type": "electric_scooter", "bike_id": "ede9b274429ce078bc758c001759f9e2", "fusion_lon": 0.0, "lat": 38.90783833333333, "fusion_lat": 0.0}, {"is_disabled": 0, "rental_uris": {"android": "https://dc.lft.to/lastmile_qr_scan", "ios": "https://dc.lft.to/lastmile_qr_scan"}, "is_reserved": 0, "name": "8d993e21c7af7f08c74e7e39a35265c9", "lon": -77.04146516666667, "type": "electric_scooter", "bike_id": "8d993e21c7af7f08c74e7e39a35265c9", "fusion_lon": 0.0, "lat": 38.912702333333336, "fusion_lat": 0.0}, {"is_disabled": 0, "rental_uris": {"android": "https://dc.lft.to/lastmile_qr_scan", "ios": "https://dc.lft.to/lastmile_qr_scan"}, "is_reserved": 0, "name": "0a4e14560a5c6ee367b278528a790701", "lon": -76.98159216666667, "type": "electric_bike", "bike_id": "0a4e14560a5c6ee367b278528a790701", "fusion_lon": 0.0, "lat": 38.95958066666667, "fusion_lat": 0.0}, {"is_disabled": 0, "rental_uris": {"android": "https://dc.lft.to/lastmile_qr_scan", "ios": "https://dc.lft.to/lastmile_qr_scan"}, "is_reserved": 0, "name": "1ae633a7375dbb6018a91d15494eec54", "lon": -77.0467775, "type": "electric_scooter", "bike_id": "1ae633a7375dbb6018a91d15494eec54", "fusion_lon": 0.0, "lat": 38.89221516666667, "fusion_lat": 0.0}, {"is_disabled": 0, "rental_uris": {"android": "https://dc.lft.to/lastmile_qr_scan", "ios": "https://dc.lft.to/lastmile_qr_scan"}, "is_reserved": 0, "name": "208506ab5cad930ed6b1110a829fd5ed", "lon": -77.02788083333333, "type": "electric_scooter", "bike_id": "208506ab5cad930ed6b1110a829fd5ed", "fusion_lon": 0.0, "lat": 38.96130333333333, "fusion_lat": 0.0}, {"is_disabled": 0, "rental_uris": {"android": "https://dc.lft.to/lastmile_qr_scan", "ios": "https://dc.lft.to/lastmile_qr_scan"}, "is_reserved": 0, "name": "d8ec26d52d1cab89da03a5242bb3d728", "lon": -77.04057883333333, "type": "electric_scooter", "bike_id": "d8ec26d52d1cab89da03a5242bb3d728", "fusion_lon": 0.0, "lat": 38.9104095, "fusion_lat": 0.0}, {"is_disabled": 0, "rental_uris": {"android": "https://dc.lft.to/lastmile_qr_scan", "ios": "https://dc.lft.to/lastmile_qr_scan"}, "is_reserved": 0, "name": "f28855ef958a1c2b3d816bc4e139ffe4", "lon": -77.02806366666667, "type": "electric_scooter", "bike_id": "f28855ef958a1c2b3d816bc4e139ffe4", "fusion_lon": 0.0, "lat": 38.93078666666667, "fusion_lat": 0.0}, {"is_disabled": 0, "rental_uris": {"android": "https://dc.lft.to/lastmile_qr_scan", "ios": "https://dc.lft.to/lastmile_qr_scan"}, "is_reserved": 0, "name": "b510b5eca0570493a1465ac13139e2ca", "lon": -76.99197466666666, "type": "electric_scooter", "bike_id": "b510b5eca0570493a1465ac13139e2ca", "fusion_lon": 0.0, "lat": 38.925824166666665, "fusion_lat": 0.0}, {"is_disabled": 0, "rental_uris": {"android": "https://dc.lft.to/lastmile_qr_scan", "ios": "https://dc.lft.to/lastmile_qr_scan"}, "is_reserved": 0, "name": "12453095f4f696ba67175a31c022f4b8", "lon": -77.05703983333333, "type": "electric_scooter", "bike_id": "12453095f4f696ba67175a31c022f4b8", "fusion_lon": 0.0, "lat": 38.926211333333335, "fusion_lat": 0.0}, {"is_disabled": 0, "rental_uris": {"android": "https://dc.lft.to/lastmile_qr_scan", "ios": "https://dc.lft.to/lastmile_qr_scan"}, "is_reserved": 0, "name": "8984cd2a90cec546d04bcd276f0310c1", "lon": -76.933595, "type": "electric_scooter", "bike_id": "8984cd2a90cec546d04bcd276f0310c1", "fusion_lon": 0.0, "lat": 38.899029, "fusion_lat": 0.0}, {"is_disabled": 0, "rental_uris": {"android": "https://dc.lft.to/lastmile_qr_scan", "ios": "https://dc.lft.to/lastmile_qr_scan"}, "is_reserved": 0, "name": "2eb6edf2d2c0ff86b9b92d30ea9ea568", "lon": -77.00578283333333, "type": "electric_scooter", "bike_id": "2eb6edf2d2c0ff86b9b92d30ea9ea568", "fusion_lon": 0.0, "lat": 38.9020795, "fusion_lat": 0.0}, {"is_disabled": 0, "rental_uris": {"android": "https://dc.lft.to/lastmile_qr_scan", "ios": "https://dc.lft.to/lastmile_qr_scan"}, "is_reserved": 0, "name": "eaa961f7f00915b26a3fbaf9a6a0de4f", "lon": -77.023972, "type": "electric_scooter", "bike_id": "eaa961f7f00915b26a3fbaf9a6a0de4f", "fusion_lon": 0.0, "lat": 38.90574216666667, "fusion_lat": 0.0}, {"is_disabled": 0, "rental_uris": {"android": "https://dc.lft.to/lastmile_qr_scan", "ios": "https://dc.lft.to/lastmile_qr_scan"}, "is_reserved": 0, "name": "8bc3ab1d574bfcec2837416e8230b90b", "lon": -77.00692116666667, "type": "electric_scooter", "bike_id": "8bc3ab1d574bfcec2837416e8230b90b", "fusion_lon": 0.0, "lat": 38.90009966666667, "fusion_lat": 0.0}, {"is_disabled": 0, "rental_uris": {"android": "https://dc.lft.to/lastmile_qr_scan", "ios": "https://dc.lft.to/lastmile_qr_scan"}, "is_reserved": 0, "name": "7c1440726b816b2f3a9ff9c924b4c756", "lon": -77.03230516666666, "type": "electric_scooter", "bike_id": "7c1440726b816b2f3a9ff9c924b4c756", "fusion_lon": 0.0, "lat": 38.90010566666667, "fusion_lat": 0.0}, {"is_disabled": 0, "rental_uris": {"android": "https://dc.lft.to/lastmile_qr_scan", "ios": "https://dc.lft.to/lastmile_qr_scan"}, "is_reserved": 0, "name": "b37d7899203e075b27e938259e4bf424", "lon": -76.94895933333333, "type": "electric_scooter", "bike_id": "b37d7899203e075b27e938259e4bf424", "fusion_lon": 0.0, "lat": 38.89527133333333, "fusion_lat": 0.0}, {"is_disabled": 0, "rental_uris": {"android": "https://dc.lft.to/lastmile_qr_scan", "ios": "https://dc.lft.to/lastmile_qr_scan"}, "is_reserved": 0, "name": "be7758688d059f193f07e794f433248b", "lon": -77.04394066666667, "type": "electric_scooter", "bike_id": "be7758688d059f193f07e794f433248b", "fusion_lon": 0.0, "lat": 38.90578633333333, "fusion_lat": 0.0}, {"is_disabled": 0, "rental_uris": {"android": "https://dc.lft.to/lastmile_qr_scan", "ios": "https://dc.lft.to/lastmile_qr_scan"}, "is_reserved": 0, "name": "5d3384cbb7828ca09fbcbaa14cfe667f", "lon": -76.97384666666666, "type": "electric_scooter", "bike_id": "5d3384cbb7828ca09fbcbaa14cfe667f", "fusion_lon": 0.0, "lat": 38.88369133333333, "fusion_lat": 0.0}, {"is_disabled": 0, "rental_uris": {"android": "https://dc.lft.to/lastmile_qr_scan", "ios": "https://dc.lft.to/lastmile_qr_scan"}, "is_reserved": 0, "name": "e905b0a9a7bff59b71d575be90b809e2", "lon": -77.043289, "type": "electric_scooter", "bike_id": "e905b0a9a7bff59b71d575be90b809e2", "fusion_lon": 0.0, "lat": 38.90686016666667, "fusion_lat": 0.0}, {"is_disabled": 0, "rental_uris": {"android": "https://dc.lft.to/lastmile_qr_scan", "ios": "https://dc.lft.to/lastmile_qr_scan"}, "is_reserved": 0, "name": "89dabe8286d6fc622a8457c892966c68", "lon": -76.99959166666666, "type": "electric_scooter", "bike_id": "89dabe8286d6fc622a8457c892966c68", "fusion_lon": 0.0, "lat": 38.84287583333333, "fusion_lat": 0.0}, {"is_disabled": 0, "rental_uris": {"android": "https://dc.lft.to/lastmile_qr_scan", "ios": "https://dc.lft.to/lastmile_qr_scan"}, "is_reserved": 0, "name": "b651989b2cfe4b75386a813d9e034f4d", "lon": -76.947812, "type": "electric_scooter", "bike_id": "b651989b2cfe4b75386a813d9e034f4d", "fusion_lon": 0.0, "lat": 38.88459816666666, "fusion_lat": 0.0}, {"is_disabled": 0, "rental_uris": {"android": "https://dc.lft.to/lastmile_qr_scan", "ios": "https://dc.lft.to/lastmile_qr_scan"}, "is_reserved": 0, "name": "5905f0dd6b705de46f53313aa050467f", "lon": -77.05940783333334, "type": "electric_scooter", "bike_id": "5905f0dd6b705de46f53313aa050467f", "fusion_lon": 0.0, "lat": 38.936767, "fusion_lat": 0.0}, {"is_disabled": 0, "rental_uris": {"android": "https://dc.lft.to/lastmile_qr_scan", "ios": "https://dc.lft.to/lastmile_qr_scan"}, "is_reserved": 0, "name": "4b81ade398876fceb73d38b1708e7f58", "lon": -77.01758583333333, "type": "electric_scooter", "bike_id": "4b81ade398876fceb73d38b1708e7f58", "fusion_lon": 0.0, "lat": 38.9210805, "fusion_lat": 0.0}, {"is_disabled": 0, "rental_uris": {"android": "https://dc.lft.to/lastmile_qr_scan", "ios": "https://dc.lft.to/lastmile_qr_scan"}, "is_reserved": 0, "name": "31c91a60dae7075228468fbd1e59358b", "lon": -77.0707815, "type": "electric_scooter", "bike_id": "31c91a60dae7075228468fbd1e59358b", "fusion_lon": 0.0, "lat": 38.9390925, "fusion_lat": 0.0}, {"is_disabled": 0, "rental_uris": {"android": "https://dc.lft.to/lastmile_qr_scan", "ios": "https://dc.lft.to/lastmile_qr_scan"}, "is_reserved": 0, "name": "8dc6f49dbfbf4b7ac21952ba51305ba9", "lon": -77.00790816666667, "type": "electric_scooter", "bike_id": "8dc6f49dbfbf4b7ac21952ba51305ba9", "fusion_lon": 0.0, "lat": 38.89722166666667, "fusion_lat": 0.0}, {"is_disabled": 0, "rental_uris": {"android": "https://dc.lft.to/lastmile_qr_scan", "ios": "https://dc.lft.to/lastmile_qr_scan"}, "is_reserved": 0, "name": "39971e2396509cf8a9aea46aec9d126d", "lon": -76.9961085, "type": "electric_scooter", "bike_id": "39971e2396509cf8a9aea46aec9d126d", "fusion_lon": 0.0, "lat": 38.864665, "fusion_lat": 0.0}, {"is_disabled": 0, "rental_uris": {"android": "https://dc.lft.to/lastmile_qr_scan", "ios": "https://dc.lft.to/lastmile_qr_scan"}, "is_reserved": 0, "name": "7903e0b9d83240620a25f9b9c8fcd367", "lon": -77.03189066666667, "type": "electric_scooter", "bike_id": "7903e0b9d83240620a25f9b9c8fcd367", "fusion_lon": 0.0, "lat": 38.920950500000004, "fusion_lat": 0.0}, {"is_disabled": 0, "rental_uris": {"android": "https://dc.lft.to/lastmile_qr_scan", "ios": "https://dc.lft.to/lastmile_qr_scan"}, "is_reserved": 0, "name": "a8530828b660379682c17c5f8b7d09ee", "lon": -77.03626766666666, "type": "electric_scooter", "bike_id": "a8530828b660379682c17c5f8b7d09ee", "fusion_lon": 0.0, "lat": 38.936846833333334, "fusion_lat": 0.0}, {"is_disabled": 0, "rental_uris": {"android": "https://dc.lft.to/lastmile_qr_scan", "ios": "https://dc.lft.to/lastmile_qr_scan"}, "is_reserved": 0, "name": "ab8560fba84285097761167d2c0484c3", "lon": -77.00342866666666, "type": "electric_scooter", "bike_id": "ab8560fba84285097761167d2c0484c3", "fusion_lon": 0.0, "lat": 38.88985433333333, "fusion_lat": 0.0}, {"is_disabled": 0, "rental_uris": {"android": "https://dc.lft.to/lastmile_qr_scan", "ios": "https://dc.lft.to/lastmile_qr_scan"}, "is_reserved": 0, "name": "d687982e232d821aee772f463b5df5df", "lon": -77.04814883333333, "type": "electric_scooter", "bike_id": "d687982e232d821aee772f463b5df5df", "fusion_lon": 0.0, "lat": 38.897279166666664, "fusion_lat": 0.0}, {"is_disabled": 0, "rental_uris": {"android": "https://dc.lft.to/lastmile_qr_scan", "ios": "https://dc.lft.to/lastmile_qr_scan"}, "is_reserved": 0, "name": "67e414e9a064590b5706e59c2386dafa", "lon": -76.98114466666667, "type": "electric_scooter", "bike_id": "67e414e9a064590b5706e59c2386dafa", "fusion_lon": 0.0, "lat": 38.89608483333333, "fusion_lat": 0.0}, {"is_disabled": 0, "rental_uris": {"android": "https://dc.lft.to/lastmile_qr_scan", "ios": "https://dc.lft.to/lastmile_qr_scan"}, "is_reserved": 0, "name": "679e174e621482aa2b9965b3464e908c", "lon": -77.01391533333333, "type": "electric_scooter", "bike_id": "679e174e621482aa2b9965b3464e908c", "fusion_lon": 0.0, "lat": 38.880332833333334, "fusion_lat": 0.0}, {"is_disabled": 0, "rental_uris": {"android": "https://dc.lft.to/lastmile_qr_scan", "ios": "https://dc.lft.to/lastmile_qr_scan"}, "is_reserved": 0, "name": "94b0300dbc6d1d4f76e2395728389709", "lon": -77.03199566666666, "type": "electric_scooter", "bike_id": "94b0300dbc6d1d4f76e2395728389709", "fusion_lon": 0.0, "lat": 38.91012416666667, "fusion_lat": 0.0}, {"is_disabled": 0, "rental_uris": {"android": "https://dc.lft.to/lastmile_qr_scan", "ios": "https://dc.lft.to/lastmile_qr_scan"}, "is_reserved": 0, "name": "15dfa92e5cc9af3a9a8e71c103e26a6c", "lon": -77.04673816666667, "type": "electric_scooter", "bike_id": "15dfa92e5cc9af3a9a8e71c103e26a6c", "fusion_lon": 0.0, "lat": 38.9039495, "fusion_lat": 0.0}, {"is_disabled": 0, "rental_uris": {"android": "https://dc.lft.to/lastmile_qr_scan", "ios": "https://dc.lft.to/lastmile_qr_scan"}, "is_reserved": 0, "name": "9e3d1b72f8428cc7c4b40cf865915291", "lon": -77.02204266666666, "type": "electric_scooter", "bike_id": "9e3d1b72f8428cc7c4b40cf865915291", "fusion_lon": 0.0, "lat": 38.9014685, "fusion_lat": 0.0}, {"is_disabled": 0, "rental_uris": {"android": "https://dc.lft.to/lastmile_qr_scan", "ios": "https://dc.lft.to/lastmile_qr_scan"}, "is_reserved": 0, "name": "90d11aa9e9f586575da2c2a1c1a893de", "lon": -77.02802116666666, "type": "electric_scooter", "bike_id": "90d11aa9e9f586575da2c2a1c1a893de", "fusion_lon": 0.0, "lat": 38.90742266666667, "fusion_lat": 0.0}, {"is_disabled": 0, "rental_uris": {"android": "https://dc.lft.to/lastmile_qr_scan", "ios": "https://dc.lft.to/lastmile_qr_scan"}, "is_reserved": 0, "name": "6158ecebe7c22a33d5f84cf15c93bc0b", "lon": -77.016776, "type": "electric_scooter", "bike_id": "6158ecebe7c22a33d5f84cf15c93bc0b", "fusion_lon": 0.0, "lat": 38.88330033333333, "fusion_lat": 0.0}, {"is_disabled": 0, "rental_uris": {"android": "https://dc.lft.to/lastmile_qr_scan", "ios": "https://dc.lft.to/lastmile_qr_scan"}, "is_reserved": 0, "name": "df1fb73c87645f81560c05b939565622", "lon": -77.03853066666667, "type": "electric_scooter", "bike_id": "df1fb73c87645f81560c05b939565622", "fusion_lon": 0.0, "lat": 38.918338, "fusion_lat": 0.0}, {"is_disabled": 0, "rental_uris": {"android": "https://dc.lft.to/lastmile_qr_scan", "ios": "https://dc.lft.to/lastmile_qr_scan"}, "is_reserved": 0, "name": "efde0fb2a292112f94dc74ea1fdaa312", "lon": -77.02584866666666, "type": "electric_scooter", "bike_id": "efde0fb2a292112f94dc74ea1fdaa312", "fusion_lon": 0.0, "lat": 38.92036866666667, "fusion_lat": 0.0}, {"is_disabled": 0, "rental_uris": {"android": "https://dc.lft.to/lastmile_qr_scan", "ios": "https://dc.lft.to/lastmile_qr_scan"}, "is_reserved": 0, "name": "a73765b8988ada3bc29cf7508c1993c9", "lon": -77.052124, "type": "electric_scooter", "bike_id": "a73765b8988ada3bc29cf7508c1993c9", "fusion_lon": 0.0, "lat": 38.9247865, "fusion_lat": 0.0}, {"is_disabled": 0, "rental_uris": {"android": "https://dc.lft.to/lastmile_qr_scan", "ios": "https://dc.lft.to/lastmile_qr_scan"}, "is_reserved": 0, "name": "804153c6e0520511d03d55e61efa241a", "lon": -77.02228566666666, "type": "electric_scooter", "bike_id": "804153c6e0520511d03d55e61efa241a", "fusion_lon": 0.0, "lat": 38.92333433333334, "fusion_lat": 0.0}, {"is_disabled": 0, "rental_uris": {"android": "https://dc.lft.to/lastmile_qr_scan", "ios": "https://dc.lft.to/lastmile_qr_scan"}, "is_reserved": 0, "name": "50b2538a70b7d57177686f44a6f490ec", "lon": -76.998579, "type": "electric_scooter", "bike_id": "50b2538a70b7d57177686f44a6f490ec", "fusion_lon": 0.0, "lat": 38.90878216666667, "fusion_lat": 0.0}, {"is_disabled": 0, "rental_uris": {"android": "https://dc.lft.to/lastmile_qr_scan", "ios": "https://dc.lft.to/lastmile_qr_scan"}, "is_reserved": 0, "name": "e37d76cacfcbed0e5b464243daf177e0", "lon": -77.038577, "type": "electric_scooter", "bike_id": "e37d76cacfcbed0e5b464243daf177e0", "fusion_lon": 0.0, "lat": 38.93203316666666, "fusion_lat": 0.0}, {"is_disabled": 0, "rental_uris": {"android": "https://dc.lft.to/lastmile_qr_scan", "ios": "https://dc.lft.to/lastmile_qr_scan"}, "is_reserved": 0, "name": "c0399281d157ea4e7a797af69bf07ea0", "lon": -77.04243466666667, "type": "electric_scooter", "bike_id": "c0399281d157ea4e7a797af69bf07ea0", "fusion_lon": 0.0, "lat": 38.90787916666667, "fusion_lat": 0.0}, {"is_disabled": 0, "rental_uris": {"android": "https://dc.lft.to/lastmile_qr_scan", "ios": "https://dc.lft.to/lastmile_qr_scan"}, "is_reserved": 0, "name": "9d9859e784af91b85ec2746eee647bbf", "lon": -76.9463295, "type": "electric_scooter", "bike_id": "9d9859e784af91b85ec2746eee647bbf", "fusion_lon": 0.0, "lat": 38.898355333333335, "fusion_lat": 0.0}, {"is_disabled": 0, "rental_uris": {"android": "https://dc.lft.to/lastmile_qr_scan", "ios": "https://dc.lft.to/lastmile_qr_scan"}, "is_reserved": 0, "name": "f42f091d37e2f8441b332344b4bd35db", "lon": -77.02571733333333, "type": "electric_scooter", "bike_id": "f42f091d37e2f8441b332344b4bd35db", "fusion_lon": 0.0, "lat": 38.953586333333334, "fusion_lat": 0.0}, {"is_disabled": 0, "rental_uris": {"android": "https://dc.lft.to/lastmile_qr_scan", "ios": "https://dc.lft.to/lastmile_qr_scan"}, "is_reserved": 0, "name": "998154806c4fd95aaa9f31c54e67efc6", "lon": -77.05941433333334, "type": "electric_scooter", "bike_id": "998154806c4fd95aaa9f31c54e67efc6", "fusion_lon": 0.0, "lat": 38.936781, "fusion_lat": 0.0}, {"is_disabled": 0, "rental_uris": {"android": "https://dc.lft.to/lastmile_qr_scan", "ios": "https://dc.lft.to/lastmile_qr_scan"}, "is_reserved": 0, "name": "70fd0e502c9b672b7796fb62b64ba0b6", "lon": -77.00308416666667, "type": "electric_scooter", "bike_id": "70fd0e502c9b672b7796fb62b64ba0b6", "fusion_lon": 0.0, "lat": 38.8922835, "fusion_lat": 0.0}, {"is_disabled": 0, "rental_uris": {"android": "https://dc.lft.to/lastmile_qr_scan", "ios": "https://dc.lft.to/lastmile_qr_scan"}, "is_reserved": 0, "name": "e4f45900fd0a7bb40eb06db188da2b4e", "lon": -77.02939316666667, "type": "electric_scooter", "bike_id": "e4f45900fd0a7bb40eb06db188da2b4e", "fusion_lon": 0.0, "lat": 38.898339166666666, "fusion_lat": 0.0}, {"is_disabled": 0, "rental_uris": {"android": "https://dc.lft.to/lastmile_qr_scan", "ios": "https://dc.lft.to/lastmile_qr_scan"}, "is_reserved": 0, "name": "bb57834e854818b2221348936c439ce3", "lon": -77.0120295, "type": "electric_scooter", "bike_id": "bb57834e854818b2221348936c439ce3", "fusion_lon": 0.0, "lat": 38.89676983333333, "fusion_lat": 0.0}, {"is_disabled": 0, "rental_uris": {"android": "https://dc.lft.to/lastmile_qr_scan", "ios": "https://dc.lft.to/lastmile_qr_scan"}, "is_reserved": 0, "name": "bf6d1eba29ac515b64ae7be1c311c79d", "lon": -77.04558766666666, "type": "electric_scooter", "bike_id": "bf6d1eba29ac515b64ae7be1c311c79d", "fusion_lon": 0.0, "lat": 38.91318966666667, "fusion_lat": 0.0}, {"is_disabled": 0, "rental_uris": {"android": "https://dc.lft.to/lastmile_qr_scan", "ios": "https://dc.lft.to/lastmile_qr_scan"}, "is_reserved": 0, "name": "7a0402522d9a3d229036441d5287986c", "lon": -77.045219, "type": "electric_scooter", "bike_id": "7a0402522d9a3d229036441d5287986c", "fusion_lon": 0.0, "lat": 38.9038475, "fusion_lat": 0.0}, {"is_disabled": 0, "rental_uris": {"android": "https://dc.lft.to/lastmile_qr_scan", "ios": "https://dc.lft.to/lastmile_qr_scan"}, "is_reserved": 0, "name": "ad4dc67805535d8e2c6c0a7839ba6764", "lon": -77.033511, "type": "electric_scooter", "bike_id": "ad4dc67805535d8e2c6c0a7839ba6764", "fusion_lon": 0.0, "lat": 38.898415666666665, "fusion_lat": 0.0}, {"is_disabled": 0, "rental_uris": {"android": "https://dc.lft.to/lastmile_qr_scan", "ios": "https://dc.lft.to/lastmile_qr_scan"}, "is_reserved": 0, "name": "79a8eb0a5f8faf78d7410c13f814b8e1", "lon": -77.03444566666667, "type": "electric_scooter", "bike_id": "79a8eb0a5f8faf78d7410c13f814b8e1", "fusion_lon": 0.0, "lat": 38.902660166666664, "fusion_lat": 0.0}, {"is_disabled": 0, "rental_uris": {"android": "https://dc.lft.to/lastmile_qr_scan", "ios": "https://dc.lft.to/lastmile_qr_scan"}, "is_reserved": 0, "name": "3ea83584dcf4e1874f96f8361af080a5", "lon": -76.97950366666667, "type": "electric_scooter", "bike_id": "3ea83584dcf4e1874f96f8361af080a5", "fusion_lon": 0.0, "lat": 38.90503283333334, "fusion_lat": 0.0}, {"is_disabled": 0, "rental_uris": {"android": "https://dc.lft.to/lastmile_qr_scan", "ios": "https://dc.lft.to/lastmile_qr_scan"}, "is_reserved": 0, "name": "13f43481df385161d7d11142a9739578", "lon": -77.02010566666667, "type": "electric_scooter", "bike_id": "13f43481df385161d7d11142a9739578", "fusion_lon": 0.0, "lat": 38.924286333333335, "fusion_lat": 0.0}, {"is_disabled": 0, "rental_uris": {"android": "https://dc.lft.to/lastmile_qr_scan", "ios": "https://dc.lft.to/lastmile_qr_scan"}, "is_reserved": 0, "name": "92ffb85d651eb41f213a41dcb5571e40", "lon": -77.04418666666666, "type": "electric_scooter", "bike_id": "92ffb85d651eb41f213a41dcb5571e40", "fusion_lon": 0.0, "lat": 38.90376233333333, "fusion_lat": 0.0}, {"is_disabled": 0, "rental_uris": {"android": "https://dc.lft.to/lastmile_qr_scan", "ios": "https://dc.lft.to/lastmile_qr_scan"}, "is_reserved": 0, "name": "9bc7450a0a66b5105953de7279a2d5f2", "lon": -77.02162, "type": "electric_scooter", "bike_id": "9bc7450a0a66b5105953de7279a2d5f2", "fusion_lon": 0.0, "lat": 38.8941755, "fusion_lat": 0.0}, {"is_disabled": 0, "rental_uris": {"android": "https://dc.lft.to/lastmile_qr_scan", "ios": "https://dc.lft.to/lastmile_qr_scan"}, "is_reserved": 0, "name": "246af8ec700fd9f48bdfecd1b94dd8ba", "lon": -77.00568633333333, "type": "electric_scooter", "bike_id": "246af8ec700fd9f48bdfecd1b94dd8ba", "fusion_lon": 0.0, "lat": 38.8850715, "fusion_lat": 0.0}, {"is_disabled": 0, "rental_uris": {"android": "https://dc.lft.to/lastmile_qr_scan", "ios": "https://dc.lft.to/lastmile_qr_scan"}, "is_reserved": 0, "name": "53c7e1e56b670e272472aba4eec7d279", "lon": -77.03181433333333, "type": "electric_scooter", "bike_id": "53c7e1e56b670e272472aba4eec7d279", "fusion_lon": 0.0, "lat": 38.919170333333334, "fusion_lat": 0.0}, {"is_disabled": 0, "rental_uris": {"android": "https://dc.lft.to/lastmile_qr_scan", "ios": "https://dc.lft.to/lastmile_qr_scan"}, "is_reserved": 0, "name": "52f0d49a40d5fb9ae777e9b358276b8d", "lon": -77.04576166666666, "type": "electric_scooter", "bike_id": "52f0d49a40d5fb9ae777e9b358276b8d", "fusion_lon": 0.0, "lat": 38.92423383333333, "fusion_lat": 0.0}, {"is_disabled": 0, "rental_uris": {"android": "https://dc.lft.to/lastmile_qr_scan", "ios": "https://dc.lft.to/lastmile_qr_scan"}, "is_reserved": 0, "name": "84eca38814e5f1b13de0788e1a856721", "lon": -77.02386766666666, "type": "electric_scooter", "bike_id": "84eca38814e5f1b13de0788e1a856721", "fusion_lon": 0.0, "lat": 38.927995833333334, "fusion_lat": 0.0}, {"is_disabled": 0, "rental_uris": {"android": "https://dc.lft.to/lastmile_qr_scan", "ios": "https://dc.lft.to/lastmile_qr_scan"}, "is_reserved": 0, "name": "af5c5882f41494b7406be2a0d1739cb3", "lon": -77.02693333333333, "type": "electric_scooter", "bike_id": "af5c5882f41494b7406be2a0d1739cb3", "fusion_lon": 0.0, "lat": 38.897305833333334, "fusion_lat": 0.0}, {"is_disabled": 0, "rental_uris": {"android": "https://dc.lft.to/lastmile_qr_scan", "ios": "https://dc.lft.to/lastmile_qr_scan"}, "is_reserved": 0, "name": "b13059be26c157909dd1c955e7403b37", "lon": -77.03698366666667, "type": "electric_scooter", "bike_id": "b13059be26c157909dd1c955e7403b37", "fusion_lon": 0.0, "lat": 38.9264755, "fusion_lat": 0.0}, {"is_disabled": 0, "rental_uris": {"android": "https://dc.lft.to/lastmile_qr_scan", "ios": "https://dc.lft.to/lastmile_qr_scan"}, "is_reserved": 0, "name": "39dc3c7287f976b97387958fdc0d2872", "lon": -77.0367605, "type": "electric_scooter", "bike_id": "39dc3c7287f976b97387958fdc0d2872", "fusion_lon": 0.0, "lat": 38.918110166666665, "fusion_lat": 0.0}, {"is_disabled": 0, "rental_uris": {"android": "https://dc.lft.to/lastmile_qr_scan", "ios": "https://dc.lft.to/lastmile_qr_scan"}, "is_reserved": 0, "name": "bfaeac38183a83f5501b158485555e07", "lon": -77.033654, "type": "electric_scooter", "bike_id": "bfaeac38183a83f5501b158485555e07", "fusion_lon": 0.0, "lat": 38.92151066666667, "fusion_lat": 0.0}, {"is_disabled": 0, "rental_uris": {"android": "https://dc.lft.to/lastmile_qr_scan", "ios": "https://dc.lft.to/lastmile_qr_scan"}, "is_reserved": 0, "name": "7ec2268ec725bd309353cf6d61cc77cf", "lon": -77.0151455, "type": "electric_scooter", "bike_id": "7ec2268ec725bd309353cf6d61cc77cf", "fusion_lon": 0.0, "lat": 38.91021416666667, "fusion_lat": 0.0}, {"is_disabled": 0, "rental_uris": {"android": "https://dc.lft.to/lastmile_qr_scan", "ios": "https://dc.lft.to/lastmile_qr_scan"}, "is_reserved": 0, "name": "d3d1140c8a1ff3353cbbd688dd969b72", "lon": -77.02836333333333, "type": "electric_scooter", "bike_id": "d3d1140c8a1ff3353cbbd688dd969b72", "fusion_lon": 0.0, "lat": 38.9257245, "fusion_lat": 0.0}, {"is_disabled": 0, "rental_uris": {"android": "https://dc.lft.to/lastmile_qr_scan", "ios": "https://dc.lft.to/lastmile_qr_scan"}, "is_reserved": 0, "name": "1e356185df3632168da5e155e48f3268", "lon": -77.031098, "type": "electric_scooter", "bike_id": "1e356185df3632168da5e155e48f3268", "fusion_lon": 0.0, "lat": 38.920187166666665, "fusion_lat": 0.0}, {"is_disabled": 0, "rental_uris": {"android": "https://dc.lft.to/lastmile_qr_scan", "ios": "https://dc.lft.to/lastmile_qr_scan"}, "is_reserved": 0, "name": "6b3da6344278227f422d94978bd68802", "lon": -77.04133566666667, "type": "electric_bike", "bike_id": "6b3da6344278227f422d94978bd68802", "fusion_lon": 0.0, "lat": 38.944006, "fusion_lat": 0.0}, {"is_disabled": 0, "rental_uris": {"android": "https://dc.lft.to/lastmile_qr_scan", "ios": "https://dc.lft.to/lastmile_qr_scan"}, "is_reserved": 0, "name": "20c068b961d64ee108d2cd079f69ba4b", "lon": -77.03860233333333, "type": "electric_scooter", "bike_id": "20c068b961d64ee108d2cd079f69ba4b", "fusion_lon": 0.0, "lat": 38.91471466666667, "fusion_lat": 0.0}, {"is_disabled": 0, "rental_uris": {"android": "https://dc.lft.to/lastmile_qr_scan", "ios": "https://dc.lft.to/lastmile_qr_scan"}, "is_reserved": 0, "name": "6b6ac2418b82d10bf2c8f7b39d425af0", "lon": -77.00885483333333, "type": "electric_scooter", "bike_id": "6b6ac2418b82d10bf2c8f7b39d425af0", "fusion_lon": 0.0, "lat": 38.90580683333334, "fusion_lat": 0.0}, {"is_disabled": 0, "rental_uris": {"android": "https://dc.lft.to/lastmile_qr_scan", "ios": "https://dc.lft.to/lastmile_qr_scan"}, "is_reserved": 0, "name": "efab954ee2cb2be9f5ea58a4535d2f84", "lon": -77.03308783333334, "type": "electric_scooter", "bike_id": "efab954ee2cb2be9f5ea58a4535d2f84", "fusion_lon": 0.0, "lat": 38.918176833333334, "fusion_lat": 0.0}, {"is_disabled": 0, "rental_uris": {"android": "https://dc.lft.to/lastmile_qr_scan", "ios": "https://dc.lft.to/lastmile_qr_scan"}, "is_reserved": 0, "name": "5a9e6c3acd3fa4af7e7abe582e565d00", "lon": -77.0505035, "type": "electric_scooter", "bike_id": "5a9e6c3acd3fa4af7e7abe582e565d00", "fusion_lon": 0.0, "lat": 38.9166885, "fusion_lat": 0.0}, {"is_disabled": 0, "rental_uris": {"android": "https://dc.lft.to/lastmile_qr_scan", "ios": "https://dc.lft.to/lastmile_qr_scan"}, "is_reserved": 0, "name": "cb8836ca5b59431ff421aaa397b2f39f", "lon": -77.04112883333333, "type": "electric_scooter", "bike_id": "cb8836ca5b59431ff421aaa397b2f39f", "fusion_lon": 0.0, "lat": 38.899163, "fusion_lat": 0.0}, {"is_disabled": 0, "rental_uris": {"android": "https://dc.lft.to/lastmile_qr_scan", "ios": "https://dc.lft.to/lastmile_qr_scan"}, "is_reserved": 0, "name": "e299684af9f97f451e935ef392a2186f", "lon": -76.94635566666666, "type": "electric_scooter", "bike_id": "e299684af9f97f451e935ef392a2186f", "fusion_lon": 0.0, "lat": 38.898464, "fusion_lat": 0.0}, {"is_disabled": 0, "rental_uris": {"android": "https://dc.lft.to/lastmile_qr_scan", "ios": "https://dc.lft.to/lastmile_qr_scan"}, "is_reserved": 0, "name": "6a50fef120295d99cccb16117418504e", "lon": -76.98989933333333, "type": "electric_scooter", "bike_id": "6a50fef120295d99cccb16117418504e", "fusion_lon": 0.0, "lat": 38.8642985, "fusion_lat": 0.0}, {"is_disabled": 0, "rental_uris": {"android": "https://dc.lft.to/lastmile_qr_scan", "ios": "https://dc.lft.to/lastmile_qr_scan"}, "is_reserved": 0, "name": "222f69110917cb0aaa5d7c764a368d16", "lon": -77.026985, "type": "electric_scooter", "bike_id": "222f69110917cb0aaa5d7c764a368d16", "fusion_lon": 0.0, "lat": 38.93632816666667, "fusion_lat": 0.0}, {"is_disabled": 0, "rental_uris": {"android": "https://dc.lft.to/lastmile_qr_scan", "ios": "https://dc.lft.to/lastmile_qr_scan"}, "is_reserved": 0, "name": "1916e4a0273844e26c64d10076066451", "lon": -77.04996116666666, "type": "electric_scooter", "bike_id": "1916e4a0273844e26c64d10076066451", "fusion_lon": 0.0, "lat": 38.8972785, "fusion_lat": 0.0}, {"is_disabled": 0, "rental_uris": {"android": "https://dc.lft.to/lastmile_qr_scan", "ios": "https://dc.lft.to/lastmile_qr_scan"}, "is_reserved": 0, "name": "0093fef027a3c8a89886a5693fec2816", "lon": -77.04420633333334, "type": "electric_scooter", "bike_id": "0093fef027a3c8a89886a5693fec2816", "fusion_lon": 0.0, "lat": 38.89405816666667, "fusion_lat": 0.0}, {"is_disabled": 0, "rental_uris": {"android": "https://dc.lft.to/lastmile_qr_scan", "ios": "https://dc.lft.to/lastmile_qr_scan"}, "is_reserved": 0, "name": "87170424e8cec2ecb32bd3c24da59b52", "lon": -77.04359566666666, "type": "electric_scooter", "bike_id": "87170424e8cec2ecb32bd3c24da59b52", "fusion_lon": 0.0, "lat": 38.9047855, "fusion_lat": 0.0}, {"is_disabled": 0, "rental_uris": {"android": "https://dc.lft.to/lastmile_qr_scan", "ios": "https://dc.lft.to/lastmile_qr_scan"}, "is_reserved": 0, "name": "decca9bfa529d0b0d8b645807e0fdf9c", "lon": -77.03184416666667, "type": "electric_scooter", "bike_id": "decca9bfa529d0b0d8b645807e0fdf9c", "fusion_lon": 0.0, "lat": 38.89369966666667, "fusion_lat": 0.0}, {"is_disabled": 0, "rental_uris": {"android": "https://dc.lft.to/lastmile_qr_scan", "ios": "https://dc.lft.to/lastmile_qr_scan"}, "is_reserved": 0, "name": "c6540d76e9981b9b85a8efe591d82bc8", "lon": -77.047059, "type": "electric_scooter", "bike_id": "c6540d76e9981b9b85a8efe591d82bc8", "fusion_lon": 0.0, "lat": 38.905909, "fusion_lat": 0.0}, {"is_disabled": 0, "rental_uris": {"android": "https://dc.lft.to/lastmile_qr_scan", "ios": "https://dc.lft.to/lastmile_qr_scan"}, "is_reserved": 0, "name": "a3a1fc80f8364caa86b4b2db973bbe35", "lon": -77.04997383333334, "type": "electric_bike", "bike_id": "a3a1fc80f8364caa86b4b2db973bbe35", "fusion_lon": 0.0, "lat": 38.9013005, "fusion_lat": 0.0}, {"is_disabled": 0, "rental_uris": {"android": "https://dc.lft.to/lastmile_qr_scan", "ios": "https://dc.lft.to/lastmile_qr_scan"}, "is_reserved": 0, "name": "a9b9ee9257f27205e879238349be5bd6", "lon": -77.038322, "type": "electric_scooter", "bike_id": "a9b9ee9257f27205e879238349be5bd6", "fusion_lon": 0.0, "lat": 38.911123, "fusion_lat": 0.0}, {"is_disabled": 0, "rental_uris": {"android": "https://dc.lft.to/lastmile_qr_scan", "ios": "https://dc.lft.to/lastmile_qr_scan"}, "is_reserved": 0, "name": "785dece7737d1cadc8165d0bd8bd59e8", "lon": -77.0384925, "type": "electric_scooter", "bike_id": "785dece7737d1cadc8165d0bd8bd59e8", "fusion_lon": 0.0, "lat": 38.921681166666666, "fusion_lat": 0.0}, {"is_disabled": 0, "rental_uris": {"android": "https://dc.lft.to/lastmile_qr_scan", "ios": "https://dc.lft.to/lastmile_qr_scan"}, "is_reserved": 0, "name": "57498dfb4262cfd8a3072c136f08d063", "lon": -77.0418445, "type": "electric_scooter", "bike_id": "57498dfb4262cfd8a3072c136f08d063", "fusion_lon": 0.0, "lat": 38.91407433333333, "fusion_lat": 0.0}, {"is_disabled": 0, "rental_uris": {"android": "https://dc.lft.to/lastmile_qr_scan", "ios": "https://dc.lft.to/lastmile_qr_scan"}, "is_reserved": 0, "name": "291d6f461b956eb4a9de7c8f5c4140f4", "lon": -77.02412933333333, "type": "electric_scooter", "bike_id": "291d6f461b956eb4a9de7c8f5c4140f4", "fusion_lon": 0.0, "lat": 38.91259066666667, "fusion_lat": 0.0}, {"is_disabled": 0, "rental_uris": {"android": "https://dc.lft.to/lastmile_qr_scan", "ios": "https://dc.lft.to/lastmile_qr_scan"}, "is_reserved": 0, "name": "fab3a862a848dd524366602e7cb31e20", "lon": -77.04347483333333, "type": "electric_scooter", "bike_id": "fab3a862a848dd524366602e7cb31e20", "fusion_lon": 0.0, "lat": 38.90839966666667, "fusion_lat": 0.0}, {"is_disabled": 0, "rental_uris": {"android": "https://dc.lft.to/lastmile_qr_scan", "ios": "https://dc.lft.to/lastmile_qr_scan"}, "is_reserved": 0, "name": "34c996774ffa374c6c1d2b95155fb837", "lon": -77.028075, "type": "electric_bike", "bike_id": "34c996774ffa374c6c1d2b95155fb837", "fusion_lon": 0.0, "lat": 38.993833, "fusion_lat": 0.0}, {"is_disabled": 0, "rental_uris": {"android": "https://dc.lft.to/lastmile_qr_scan", "ios": "https://dc.lft.to/lastmile_qr_scan"}, "is_reserved": 0, "name": "f89be7dbd7bb41ccb325fc44e4a2c958", "lon": -76.9960945, "type": "electric_scooter", "bike_id": "f89be7dbd7bb41ccb325fc44e4a2c958", "fusion_lon": 0.0, "lat": 38.90033116666667, "fusion_lat": 0.0}, {"is_disabled": 0, "rental_uris": {"android": "https://dc.lft.to/lastmile_qr_scan", "ios": "https://dc.lft.to/lastmile_qr_scan"}, "is_reserved": 0, "name": "6ebad624c7086cc7b6ce60d3aef40bfd", "lon": -77.0419375, "type": "electric_scooter", "bike_id": "6ebad624c7086cc7b6ce60d3aef40bfd", "fusion_lon": 0.0, "lat": 38.926223, "fusion_lat": 0.0}, {"is_disabled": 0, "rental_uris": {"android": "https://dc.lft.to/lastmile_qr_scan", "ios": "https://dc.lft.to/lastmile_qr_scan"}, "is_reserved": 0, "name": "a7c4fb071969fa0eee23fac3559fdf3e", "lon": -77.00331083333333, "type": "electric_scooter", "bike_id": "a7c4fb071969fa0eee23fac3559fdf3e", "fusion_lon": 0.0, "lat": 38.893604333333336, "fusion_lat": 0.0}, {"is_disabled": 0, "rental_uris": {"android": "https://dc.lft.to/lastmile_qr_scan", "ios": "https://dc.lft.to/lastmile_qr_scan"}, "is_reserved": 0, "name": "40420e63c030771c5e43e519bfeabee4", "lon": -77.043872, "type": "electric_scooter", "bike_id": "40420e63c030771c5e43e519bfeabee4", "fusion_lon": 0.0, "lat": 38.92272766666667, "fusion_lat": 0.0}, {"is_disabled": 0, "rental_uris": {"android": "https://dc.lft.to/lastmile_qr_scan", "ios": "https://dc.lft.to/lastmile_qr_scan"}, "is_reserved": 0, "name": "8902bb960c747976bba402f468762208", "lon": -77.02261483333334, "type": "electric_scooter", "bike_id": "8902bb960c747976bba402f468762208", "fusion_lon": 0.0, "lat": 38.927411666666664, "fusion_lat": 0.0}, {"is_disabled": 0, "rental_uris": {"android": "https://dc.lft.to/lastmile_qr_scan", "ios": "https://dc.lft.to/lastmile_qr_scan"}, "is_reserved": 0, "name": "df92f085bdd19807dd32919cb6271262", "lon": -77.00230866666666, "type": "electric_bike", "bike_id": "df92f085bdd19807dd32919cb6271262", "fusion_lon": 0.0, "lat": 38.957502, "fusion_lat": 0.0}, {"is_disabled": 0, "rental_uris": {"android": "https://dc.lft.to/lastmile_qr_scan", "ios": "https://dc.lft.to/lastmile_qr_scan"}, "is_reserved": 0, "name": "28d1c291177441de5db10db7662136ea", "lon": -77.041493, "type": "electric_scooter", "bike_id": "28d1c291177441de5db10db7662136ea", "fusion_lon": 0.0, "lat": 38.9103015, "fusion_lat": 0.0}, {"is_disabled": 0, "rental_uris": {"android": "https://dc.lft.to/lastmile_qr_scan", "ios": "https://dc.lft.to/lastmile_qr_scan"}, "is_reserved": 0, "name": "cd568be507d5cc9baf3703be03216df2", "lon": -77.04334283333333, "type": "electric_scooter", "bike_id": "cd568be507d5cc9baf3703be03216df2", "fusion_lon": 0.0, "lat": 38.91695416666666, "fusion_lat": 0.0}, {"is_disabled": 0, "rental_uris": {"android": "https://dc.lft.to/lastmile_qr_scan", "ios": "https://dc.lft.to/lastmile_qr_scan"}, "is_reserved": 0, "name": "4b6f90da19054cc6d9989d32d8532c17", "lon": -77.04892633333333, "type": "electric_scooter", "bike_id": "4b6f90da19054cc6d9989d32d8532c17", "fusion_lon": 0.0, "lat": 38.892506166666664, "fusion_lat": 0.0}, {"is_disabled": 0, "rental_uris": {"android": "https://dc.lft.to/lastmile_qr_scan", "ios": "https://dc.lft.to/lastmile_qr_scan"}, "is_reserved": 0, "name": "a6ba90703dcafee633bdbcf339479465", "lon": -76.984271, "type": "electric_bike", "bike_id": "a6ba90703dcafee633bdbcf339479465", "fusion_lon": 0.0, "lat": 38.85510383333333, "fusion_lat": 0.0}, {"is_disabled": 0, "rental_uris": {"android": "https://dc.lft.to/lastmile_qr_scan", "ios": "https://dc.lft.to/lastmile_qr_scan"}, "is_reserved": 0, "name": "115852ee6b24774a43c8b7611316a115", "lon": -76.98713416666666, "type": "electric_scooter", "bike_id": "115852ee6b24774a43c8b7611316a115", "fusion_lon": 0.0, "lat": 38.86701266666667, "fusion_lat": 0.0}, {"is_disabled": 0, "rental_uris": {"android": "https://dc.lft.to/lastmile_qr_scan", "ios": "https://dc.lft.to/lastmile_qr_scan"}, "is_reserved": 0, "name": "f57bafeaf9a677444d26ec2f915dac6a", "lon": -77.06183483333334, "type": "electric_scooter", "bike_id": "f57bafeaf9a677444d26ec2f915dac6a", "fusion_lon": 0.0, "lat": 38.90682616666667, "fusion_lat": 0.0}, {"is_disabled": 0, "rental_uris": {"android": "https://dc.lft.to/lastmile_qr_scan", "ios": "https://dc.lft.to/lastmile_qr_scan"}, "is_reserved": 0, "name": "04e8ade868126def52f0dcef9634b5a6", "lon": -77.0215515, "type": "electric_scooter", "bike_id": "04e8ade868126def52f0dcef9634b5a6", "fusion_lon": 0.0, "lat": 38.9260305, "fusion_lat": 0.0}, {"is_disabled": 0, "rental_uris": {"android": "https://dc.lft.to/lastmile_qr_scan", "ios": "https://dc.lft.to/lastmile_qr_scan"}, "is_reserved": 0, "name": "1081363dc572c42fb6675aff015f2aef", "lon": -77.03211266666666, "type": "electric_scooter", "bike_id": "1081363dc572c42fb6675aff015f2aef", "fusion_lon": 0.0, "lat": 38.9258355, "fusion_lat": 0.0}, {"is_disabled": 0, "rental_uris": {"android": "https://dc.lft.to/lastmile_qr_scan", "ios": "https://dc.lft.to/lastmile_qr_scan"}, "is_reserved": 0, "name": "ccdb07a15580eeae9a2acf84ce9a0361", "lon": -76.99567433333333, "type": "electric_bike", "bike_id": "ccdb07a15580eeae9a2acf84ce9a0361", "fusion_lon": 0.0, "lat": 39.00787783333333, "fusion_lat": 0.0}, {"is_disabled": 0, "rental_uris": {"android": "https://dc.lft.to/lastmile_qr_scan", "ios": "https://dc.lft.to/lastmile_qr_scan"}, "is_reserved": 0, "name": "98549725259d95f78057bf07df5b8ad3", "lon": -76.98713316666667, "type": "electric_scooter", "bike_id": "98549725259d95f78057bf07df5b8ad3", "fusion_lon": 0.0, "lat": 38.867004333333334, "fusion_lat": 0.0}, {"is_disabled": 0, "rental_uris": {"android": "https://dc.lft.to/lastmile_qr_scan", "ios": "https://dc.lft.to/lastmile_qr_scan"}, "is_reserved": 0, "name": "e4f6aca7db7cdf2922e2a591aacafcb9", "lon": -77.03659783333333, "type": "electric_scooter", "bike_id": "e4f6aca7db7cdf2922e2a591aacafcb9", "fusion_lon": 0.0, "lat": 38.917330166666666, "fusion_lat": 0.0}, {"is_disabled": 0, "rental_uris": {"android": "https://dc.lft.to/lastmile_qr_scan", "ios": "https://dc.lft.to/lastmile_qr_scan"}, "is_reserved": 0, "name": "adc6f2ddb703c2cb3d9f51c175f1092d", "lon": -76.98869433333333, "type": "electric_scooter", "bike_id": "adc6f2ddb703c2cb3d9f51c175f1092d", "fusion_lon": 0.0, "lat": 38.89208633333333, "fusion_lat": 0.0}, {"is_disabled": 0, "rental_uris": {"android": "https://dc.lft.to/lastmile_qr_scan", "ios": "https://dc.lft.to/lastmile_qr_scan"}, "is_reserved": 0, "name": "59d3add5384206fdb3f1b09b637878f7", "lon": -77.04659616666666, "type": "electric_scooter", "bike_id": "59d3add5384206fdb3f1b09b637878f7", "fusion_lon": 0.0, "lat": 38.9101835, "fusion_lat": 0.0}, {"is_disabled": 0, "rental_uris": {"android": "https://dc.lft.to/lastmile_qr_scan", "ios": "https://dc.lft.to/lastmile_qr_scan"}, "is_reserved": 0, "name": "5294e41962835cbd9fb696e32ab7092d", "lon": -77.09560266666666, "type": "electric_bike", "bike_id": "5294e41962835cbd9fb696e32ab7092d", "fusion_lon": 0.0, "lat": 38.9170305, "fusion_lat": 0.0}, {"is_disabled": 0, "rental_uris": {"android": "https://dc.lft.to/lastmile_qr_scan", "ios": "https://dc.lft.to/lastmile_qr_scan"}, "is_reserved": 0, "name": "2aa89d5a6d44356e40bb573b8b2d04d0", "lon": -77.03168533333333, "type": "electric_scooter", "bike_id": "2aa89d5a6d44356e40bb573b8b2d04d0", "fusion_lon": 0.0, "lat": 38.91910683333333, "fusion_lat": 0.0}, {"is_disabled": 0, "rental_uris": {"android": "https://dc.lft.to/lastmile_qr_scan", "ios": "https://dc.lft.to/lastmile_qr_scan"}, "is_reserved": 0, "name": "46788fe06f4cda9d26770679f51db761", "lon": -77.0435215, "type": "electric_scooter", "bike_id": "46788fe06f4cda9d26770679f51db761", "fusion_lon": 0.0, "lat": 38.901449666666664, "fusion_lat": 0.0}, {"is_disabled": 0, "rental_uris": {"android": "https://dc.lft.to/lastmile_qr_scan", "ios": "https://dc.lft.to/lastmile_qr_scan"}, "is_reserved": 0, "name": "ece1f8dc1ce7826ef62c39ddc3c35e94", "lon": -77.03432916666667, "type": "electric_scooter", "bike_id": "ece1f8dc1ce7826ef62c39ddc3c35e94", "fusion_lon": 0.0, "lat": 38.907335, "fusion_lat": 0.0}, {"is_disabled": 0, "rental_uris": {"android": "https://dc.lft.to/lastmile_qr_scan", "ios": "https://dc.lft.to/lastmile_qr_scan"}, "is_reserved": 0, "name": "0906896b70fa146d9f1887e8bc45801a", "lon": -77.040959, "type": "electric_scooter", "bike_id": "0906896b70fa146d9f1887e8bc45801a", "fusion_lon": 0.0, "lat": 38.89851633333333, "fusion_lat": 0.0}, {"is_disabled": 0, "rental_uris": {"android": "https://dc.lft.to/lastmile_qr_scan", "ios": "https://dc.lft.to/lastmile_qr_scan"}, "is_reserved": 0, "name": "0f5a42a0692cfd1f086fb1a849df95dd", "lon": -77.02666416666666, "type": "electric_scooter", "bike_id": "0f5a42a0692cfd1f086fb1a849df95dd", "fusion_lon": 0.0, "lat": 38.8961905, "fusion_lat": 0.0}, {"is_disabled": 0, "rental_uris": {"android": "https://dc.lft.to/lastmile_qr_scan", "ios": "https://dc.lft.to/lastmile_qr_scan"}, "is_reserved": 0, "name": "079e32f5f53433cfbf97b18b95867b0c", "lon": -77.01157066666667, "type": "electric_scooter", "bike_id": "079e32f5f53433cfbf97b18b95867b0c", "fusion_lon": 0.0, "lat": 38.897399166666666, "fusion_lat": 0.0}, {"is_disabled": 0, "rental_uris": {"android": "https://dc.lft.to/lastmile_qr_scan", "ios": "https://dc.lft.to/lastmile_qr_scan"}, "is_reserved": 0, "name": "69922d9d3ad8ad40ce76336ca99dd11f", "lon": -77.047578, "type": "electric_scooter", "bike_id": "69922d9d3ad8ad40ce76336ca99dd11f", "fusion_lon": 0.0, "lat": 38.90722433333333, "fusion_lat": 0.0}, {"is_disabled": 0, "rental_uris": {"android": "https://dc.lft.to/lastmile_qr_scan", "ios": "https://dc.lft.to/lastmile_qr_scan"}, "is_reserved": 0, "name": "ee78b14212661c53f5c0a63c2fa18965", "lon": -77.03449016666667, "type": "electric_scooter", "bike_id": "ee78b14212661c53f5c0a63c2fa18965", "fusion_lon": 0.0, "lat": 38.90252566666667, "fusion_lat": 0.0}, {"is_disabled": 0, "rental_uris": {"android": "https://dc.lft.to/lastmile_qr_scan", "ios": "https://dc.lft.to/lastmile_qr_scan"}, "is_reserved": 0, "name": "1e3d4a3ea85f453bac5ad8ff70bbbaa1", "lon": -76.98728133333333, "type": "electric_scooter", "bike_id": "1e3d4a3ea85f453bac5ad8ff70bbbaa1", "fusion_lon": 0.0, "lat": 38.86710516666667, "fusion_lat": 0.0}, {"is_disabled": 0, "rental_uris": {"android": "https://dc.lft.to/lastmile_qr_scan", "ios": "https://dc.lft.to/lastmile_qr_scan"}, "is_reserved": 0, "name": "a83f70633e15512a6f4024d919c7af5f", "lon": -77.03190883333333, "type": "electric_scooter", "bike_id": "a83f70633e15512a6f4024d919c7af5f", "fusion_lon": 0.0, "lat": 38.917936, "fusion_lat": 0.0}, {"is_disabled": 0, "rental_uris": {"android": "https://dc.lft.to/lastmile_qr_scan", "ios": "https://dc.lft.to/lastmile_qr_scan"}, "is_reserved": 0, "name": "c75def45bbc778a5dad19b9bf9c1dc7a", "lon": -77.019798, "type": "electric_scooter", "bike_id": "c75def45bbc778a5dad19b9bf9c1dc7a", "fusion_lon": 0.0, "lat": 38.8779925, "fusion_lat": 0.0}, {"is_disabled": 0, "rental_uris": {"android": "https://dc.lft.to/lastmile_qr_scan", "ios": "https://dc.lft.to/lastmile_qr_scan"}, "is_reserved": 0, "name": "0e2391699daff67a7c980f2e86fb79c8", "lon": -77.03201516666667, "type": "electric_scooter", "bike_id": "0e2391699daff67a7c980f2e86fb79c8", "fusion_lon": 0.0, "lat": 38.907474, "fusion_lat": 0.0}, {"is_disabled": 0, "rental_uris": {"android": "https://dc.lft.to/lastmile_qr_scan", "ios": "https://dc.lft.to/lastmile_qr_scan"}, "is_reserved": 0, "name": "780d34f1aee515ebebda43b36ad96087", "lon": -77.02346733333333, "type": "electric_scooter", "bike_id": "780d34f1aee515ebebda43b36ad96087", "fusion_lon": 0.0, "lat": 38.922661833333336, "fusion_lat": 0.0}, {"is_disabled": 0, "rental_uris": {"android": "https://dc.lft.to/lastmile_qr_scan", "ios": "https://dc.lft.to/lastmile_qr_scan"}, "is_reserved": 0, "name": "b76e6be6c7233369440e8f89502405e2", "lon": -77.03843866666666, "type": "electric_scooter", "bike_id": "b76e6be6c7233369440e8f89502405e2", "fusion_lon": 0.0, "lat": 38.9265105, "fusion_lat": 0.0}, {"is_disabled": 0, "rental_uris": {"android": "https://dc.lft.to/lastmile_qr_scan", "ios": "https://dc.lft.to/lastmile_qr_scan"}, "is_reserved": 0, "name": "77eefb42713a101fdbdc2e4fd8a4c2ba", "lon": -77.0240035, "type": "electric_scooter", "bike_id": "77eefb42713a101fdbdc2e4fd8a4c2ba", "fusion_lon": 0.0, "lat": 38.931043, "fusion_lat": 0.0}, {"is_disabled": 0, "rental_uris": {"android": "https://dc.lft.to/lastmile_qr_scan", "ios": "https://dc.lft.to/lastmile_qr_scan"}, "is_reserved": 0, "name": "19bb441a1bffa52d31b064bb214b2d82", "lon": -77.0281665, "type": "electric_scooter", "bike_id": "19bb441a1bffa52d31b064bb214b2d82", "fusion_lon": 0.0, "lat": 38.93171683333333, "fusion_lat": 0.0}, {"is_disabled": 0, "rental_uris": {"android": "https://dc.lft.to/lastmile_qr_scan", "ios": "https://dc.lft.to/lastmile_qr_scan"}, "is_reserved": 0, "name": "1e6615f9bf61b5f0a57c778af494201f", "lon": -76.95206083333333, "type": "electric_bike", "bike_id": "1e6615f9bf61b5f0a57c778af494201f", "fusion_lon": 0.0, "lat": 38.9367095, "fusion_lat": 0.0}, {"is_disabled": 0, "rental_uris": {"android": "https://dc.lft.to/lastmile_qr_scan", "ios": "https://dc.lft.to/lastmile_qr_scan"}, "is_reserved": 0, "name": "45ccb1e66423ba8e1527772f0bac0a61", "lon": -77.023898, "type": "electric_scooter", "bike_id": "45ccb1e66423ba8e1527772f0bac0a61", "fusion_lon": 0.0, "lat": 38.9167415, "fusion_lat": 0.0}, {"is_disabled": 0, "rental_uris": {"android": "https://dc.lft.to/lastmile_qr_scan", "ios": "https://dc.lft.to/lastmile_qr_scan"}, "is_reserved": 0, "name": "a1ff11f2c19ce77eb6fe690832b20706", "lon": -77.003361, "type": "electric_scooter", "bike_id": "a1ff11f2c19ce77eb6fe690832b20706", "fusion_lon": 0.0, "lat": 38.893545833333334, "fusion_lat": 0.0}, {"is_disabled": 0, "rental_uris": {"android": "https://dc.lft.to/lastmile_qr_scan", "ios": "https://dc.lft.to/lastmile_qr_scan"}, "is_reserved": 0, "name": "5f7c939d43386e661aac3f6a84361f49", "lon": -77.04346266666667, "type": "electric_scooter", "bike_id": "5f7c939d43386e661aac3f6a84361f49", "fusion_lon": 0.0, "lat": 38.89818833333333, "fusion_lat": 0.0}, {"is_disabled": 0, "rental_uris": {"android": "https://dc.lft.to/lastmile_qr_scan", "ios": "https://dc.lft.to/lastmile_qr_scan"}, "is_reserved": 0, "name": "53d7f78e4e62f6f0f136cf7c7aaa70ea", "lon": -77.01019266666667, "type": "electric_scooter", "bike_id": "53d7f78e4e62f6f0f136cf7c7aaa70ea", "fusion_lon": 0.0, "lat": 38.90625416666666, "fusion_lat": 0.0}, {"is_disabled": 0, "rental_uris": {"android": "https://dc.lft.to/lastmile_qr_scan", "ios": "https://dc.lft.to/lastmile_qr_scan"}, "is_reserved": 0, "name": "63135b74c051a38994aace99566807a8", "lon": -77.02547833333334, "type": "electric_scooter", "bike_id": "63135b74c051a38994aace99566807a8", "fusion_lon": 0.0, "lat": 38.91633366666667, "fusion_lat": 0.0}, {"is_disabled": 0, "rental_uris": {"android": "https://dc.lft.to/lastmile_qr_scan", "ios": "https://dc.lft.to/lastmile_qr_scan"}, "is_reserved": 0, "name": "a3e420b5f79393dc0101302215962842", "lon": -77.0234965, "type": "electric_scooter", "bike_id": "a3e420b5f79393dc0101302215962842", "fusion_lon": 0.0, "lat": 38.942943666666665, "fusion_lat": 0.0}, {"is_disabled": 0, "rental_uris": {"android": "https://dc.lft.to/lastmile_qr_scan", "ios": "https://dc.lft.to/lastmile_qr_scan"}, "is_reserved": 0, "name": "46e98e9ef9c6e251662537bcd73da5ef", "lon": -77.046733, "type": "electric_scooter", "bike_id": "46e98e9ef9c6e251662537bcd73da5ef", "fusion_lon": 0.0, "lat": 38.91577183333333, "fusion_lat": 0.0}, {"is_disabled": 0, "rental_uris": {"android": "https://dc.lft.to/lastmile_qr_scan", "ios": "https://dc.lft.to/lastmile_qr_scan"}, "is_reserved": 0, "name": "b5d78e4a5fd4c6c4233f0081d7d9064d", "lon": -77.05914483333333, "type": "electric_scooter", "bike_id": "b5d78e4a5fd4c6c4233f0081d7d9064d", "fusion_lon": 0.0, "lat": 38.90541483333333, "fusion_lat": 0.0}, {"is_disabled": 0, "rental_uris": {"android": "https://dc.lft.to/lastmile_qr_scan", "ios": "https://dc.lft.to/lastmile_qr_scan"}, "is_reserved": 0, "name": "d5dc8bd7cd14106f96072c3f1daf37a9", "lon": -76.98094583333334, "type": "electric_bike", "bike_id": "d5dc8bd7cd14106f96072c3f1daf37a9", "fusion_lon": 0.0, "lat": 38.857221833333334, "fusion_lat": 0.0}, {"is_disabled": 0, "rental_uris": {"android": "https://dc.lft.to/lastmile_qr_scan", "ios": "https://dc.lft.to/lastmile_qr_scan"}, "is_reserved": 0, "name": "82fee9adddc56dc58c99eb962e721be5", "lon": -77.19549216666667, "type": "electric_bike", "bike_id": "82fee9adddc56dc58c99eb962e721be5", "fusion_lon": 0.0, "lat": 39.115053833333334, "fusion_lat": 0.0}, {"is_disabled": 0, "rental_uris": {"android": "https://dc.lft.to/lastmile_qr_scan", "ios": "https://dc.lft.to/lastmile_qr_scan"}, "is_reserved": 0, "name": "e5d27804faded0ce32d2b3552977e81b", "lon": -77.04979883333333, "type": "electric_bike", "bike_id": "e5d27804faded0ce32d2b3552977e81b", "fusion_lon": 0.0, "lat": 38.99244866666667, "fusion_lat": 0.0}, {"is_disabled": 0, "rental_uris": {"android": "https://dc.lft.to/lastmile_qr_scan", "ios": "https://dc.lft.to/lastmile_qr_scan"}, "is_reserved": 0, "name": "e60d7dc6ce3ac77886bbc7902a588ce2", "lon": -77.01754383333333, "type": "electric_scooter", "bike_id": "e60d7dc6ce3ac77886bbc7902a588ce2", "fusion_lon": 0.0, "lat": 38.885904833333335, "fusion_lat": 0.0}, {"is_disabled": 0, "rental_uris": {"android": "https://dc.lft.to/lastmile_qr_scan", "ios": "https://dc.lft.to/lastmile_qr_scan"}, "is_reserved": 0, "name": "c301004a0d41c4cdd3f149538495b49a", "lon": -76.990563, "type": "electric_scooter", "bike_id": "c301004a0d41c4cdd3f149538495b49a", "fusion_lon": 0.0, "lat": 38.858972666666666, "fusion_lat": 0.0}, {"is_disabled": 0, "rental_uris": {"android": "https://dc.lft.to/lastmile_qr_scan", "ios": "https://dc.lft.to/lastmile_qr_scan"}, "is_reserved": 0, "name": "d2fa2a586265dc2741d65663e8317cc7", "lon": -76.95463116666667, "type": "electric_bike", "bike_id": "d2fa2a586265dc2741d65663e8317cc7", "fusion_lon": 0.0, "lat": 38.93568, "fusion_lat": 0.0}, {"is_disabled": 0, "rental_uris": {"android": "https://dc.lft.to/lastmile_qr_scan", "ios": "https://dc.lft.to/lastmile_qr_scan"}, "is_reserved": 0, "name": "ddf02b728d0807d0ff25cf2b91a8e8fb", "lon": -77.03867666666666, "type": "electric_scooter", "bike_id": "ddf02b728d0807d0ff25cf2b91a8e8fb", "fusion_lon": 0.0, "lat": 38.90278983333333, "fusion_lat": 0.0}, {"is_disabled": 0, "rental_uris": {"android": "https://dc.lft.to/lastmile_qr_scan", "ios": "https://dc.lft.to/lastmile_qr_scan"}, "is_reserved": 0, "name": "5ee69ed15b9ac7186015644d3ef45412", "lon": -76.98305916666666, "type": "electric_scooter", "bike_id": "5ee69ed15b9ac7186015644d3ef45412", "fusion_lon": 0.0, "lat": 38.86896866666667, "fusion_lat": 0.0}, {"is_disabled": 0, "rental_uris": {"android": "https://dc.lft.to/lastmile_qr_scan", "ios": "https://dc.lft.to/lastmile_qr_scan"}, "is_reserved": 0, "name": "0ddeddacef3179a783355c619fa22c45", "lon": -77.026701, "type": "electric_scooter", "bike_id": "0ddeddacef3179a783355c619fa22c45", "fusion_lon": 0.0, "lat": 38.91270516666667, "fusion_lat": 0.0}, {"is_disabled": 0, "rental_uris": {"android": "https://dc.lft.to/lastmile_qr_scan", "ios": "https://dc.lft.to/lastmile_qr_scan"}, "is_reserved": 0, "name": "49d79f60f70036084907515194d42b6a", "lon": -77.00498316666666, "type": "electric_scooter", "bike_id": "49d79f60f70036084907515194d42b6a", "fusion_lon": 0.0, "lat": 38.8968765, "fusion_lat": 0.0}, {"is_disabled": 0, "rental_uris": {"android": "https://dc.lft.to/lastmile_qr_scan", "ios": "https://dc.lft.to/lastmile_qr_scan"}, "is_reserved": 0, "name": "5a1f056a237ba711f20f7a2a63e9eeef", "lon": -77.0385065, "type": "electric_scooter", "bike_id": "5a1f056a237ba711f20f7a2a63e9eeef", "fusion_lon": 0.0, "lat": 38.916237, "fusion_lat": 0.0}, {"is_disabled": 0, "rental_uris": {"android": "https://dc.lft.to/lastmile_qr_scan", "ios": "https://dc.lft.to/lastmile_qr_scan"}, "is_reserved": 0, "name": "f1b9cd929c9c031725065174d39c6556", "lon": -77.04428133333333, "type": "electric_scooter", "bike_id": "f1b9cd929c9c031725065174d39c6556", "fusion_lon": 0.0, "lat": 38.91262833333333, "fusion_lat": 0.0}, {"is_disabled": 0, "rental_uris": {"android": "https://dc.lft.to/lastmile_qr_scan", "ios": "https://dc.lft.to/lastmile_qr_scan"}, "is_reserved": 0, "name": "5bbdf967ac176de8d2f6b0e0fe2f7af0", "lon": -77.063799, "type": "electric_scooter", "bike_id": "5bbdf967ac176de8d2f6b0e0fe2f7af0", "fusion_lon": 0.0, "lat": 38.905233833333334, "fusion_lat": 0.0}, {"is_disabled": 0, "rental_uris": {"android": "https://dc.lft.to/lastmile_qr_scan", "ios": "https://dc.lft.to/lastmile_qr_scan"}, "is_reserved": 0, "name": "6b91280fefbc3d77d6ff0cc73d7e568f", "lon": -77.01408616666667, "type": "electric_scooter", "bike_id": "6b91280fefbc3d77d6ff0cc73d7e568f", "fusion_lon": 0.0, "lat": 38.91401066666667, "fusion_lat": 0.0}, {"is_disabled": 0, "rental_uris": {"android": "https://dc.lft.to/lastmile_qr_scan", "ios": "https://dc.lft.to/lastmile_qr_scan"}, "is_reserved": 0, "name": "9979106bdfc9da95304fc7ae7d5dae58", "lon": -76.90538283333333, "type": "electric_bike", "bike_id": "9979106bdfc9da95304fc7ae7d5dae58", "fusion_lon": 0.0, "lat": 38.897349, "fusion_lat": 0.0}, {"is_disabled": 0, "rental_uris": {"android": "https://dc.lft.to/lastmile_qr_scan", "ios": "https://dc.lft.to/lastmile_qr_scan"}, "is_reserved": 0, "name": "4ea76107dd38f30165b85b84284f022f", "lon": -77.04110516666667, "type": "electric_scooter", "bike_id": "4ea76107dd38f30165b85b84284f022f", "fusion_lon": 0.0, "lat": 38.91687816666666, "fusion_lat": 0.0}, {"is_disabled": 0, "rental_uris": {"android": "https://dc.lft.to/lastmile_qr_scan", "ios": "https://dc.lft.to/lastmile_qr_scan"}, "is_reserved": 0, "name": "5c6c46b7cc80c72e29b5b08d4e44a3cd", "lon": -77.0728065, "type": "electric_scooter", "bike_id": "5c6c46b7cc80c72e29b5b08d4e44a3cd", "fusion_lon": 0.0, "lat": 38.934732833333335, "fusion_lat": 0.0}, {"is_disabled": 0, "rental_uris": {"android": "https://dc.lft.to/lastmile_qr_scan", "ios": "https://dc.lft.to/lastmile_qr_scan"}, "is_reserved": 0, "name": "c5c5b2fc419327ff379972a4d5d1536b", "lon": -77.01533883333333, "type": "electric_scooter", "bike_id": "c5c5b2fc419327ff379972a4d5d1536b", "fusion_lon": 0.0, "lat": 38.8874065, "fusion_lat": 0.0}, {"is_disabled": 0, "rental_uris": {"android": "https://dc.lft.to/lastmile_qr_scan", "ios": "https://dc.lft.to/lastmile_qr_scan"}, "is_reserved": 0, "name": "9800a27baf6685e28c746275fc035cd4", "lon": -77.05003466666666, "type": "electric_scooter", "bike_id": "9800a27baf6685e28c746275fc035cd4", "fusion_lon": 0.0, "lat": 38.905280833333336, "fusion_lat": 0.0}, {"is_disabled": 0, "rental_uris": {"android": "https://dc.lft.to/lastmile_qr_scan", "ios": "https://dc.lft.to/lastmile_qr_scan"}, "is_reserved": 0, "name": "c394e2cf44ec80242cda0cb912982944", "lon": -77.02833683333333, "type": "electric_scooter", "bike_id": "c394e2cf44ec80242cda0cb912982944", "fusion_lon": 0.0, "lat": 38.93239466666667, "fusion_lat": 0.0}, {"is_disabled": 0, "rental_uris": {"android": "https://dc.lft.to/lastmile_qr_scan", "ios": "https://dc.lft.to/lastmile_qr_scan"}, "is_reserved": 0, "name": "c00c76abe11941cd9f2955caf033f22a", "lon": -77.0137535, "type": "electric_scooter", "bike_id": "c00c76abe11941cd9f2955caf033f22a", "fusion_lon": 0.0, "lat": 38.88640766666666, "fusion_lat": 0.0}, {"is_disabled": 0, "rental_uris": {"android": "https://dc.lft.to/lastmile_qr_scan", "ios": "https://dc.lft.to/lastmile_qr_scan"}, "is_reserved": 0, "name": "bbf4e306e2937fe3ccb3f5917644a870", "lon": -77.00346266666666, "type": "electric_scooter", "bike_id": "bbf4e306e2937fe3ccb3f5917644a870", "fusion_lon": 0.0, "lat": 38.886703, "fusion_lat": 0.0}, {"is_disabled": 0, "rental_uris": {"android": "https://dc.lft.to/lastmile_qr_scan", "ios": "https://dc.lft.to/lastmile_qr_scan"}, "is_reserved": 0, "name": "01bbe63bfc2954439b7b3f3513e48f87", "lon": -77.04216383333333, "type": "electric_scooter", "bike_id": "01bbe63bfc2954439b7b3f3513e48f87", "fusion_lon": 0.0, "lat": 38.91418933333333, "fusion_lat": 0.0}, {"is_disabled": 0, "rental_uris": {"android": "https://dc.lft.to/lastmile_qr_scan", "ios": "https://dc.lft.to/lastmile_qr_scan"}, "is_reserved": 0, "name": "aed57f5bd591c733fcfdcd6efbb70e58", "lon": -77.01361216666666, "type": "electric_scooter", "bike_id": "aed57f5bd591c733fcfdcd6efbb70e58", "fusion_lon": 0.0, "lat": 38.92882266666667, "fusion_lat": 0.0}, {"is_disabled": 0, "rental_uris": {"android": "https://dc.lft.to/lastmile_qr_scan", "ios": "https://dc.lft.to/lastmile_qr_scan"}, "is_reserved": 0, "name": "33a0a449bbef3a711f6844fb955da77c", "lon": -77.06702033333333, "type": "electric_scooter", "bike_id": "33a0a449bbef3a711f6844fb955da77c", "fusion_lon": 0.0, "lat": 38.95592333333333, "fusion_lat": 0.0}, {"is_disabled": 0, "rental_uris": {"android": "https://dc.lft.to/lastmile_qr_scan", "ios": "https://dc.lft.to/lastmile_qr_scan"}, "is_reserved": 0, "name": "aee3fe9ee5f3e9f23a42475979109090", "lon": -76.9888615, "type": "electric_scooter", "bike_id": "aee3fe9ee5f3e9f23a42475979109090", "fusion_lon": 0.0, "lat": 38.8667055, "fusion_lat": 0.0}, {"is_disabled": 0, "rental_uris": {"android": "https://dc.lft.to/lastmile_qr_scan", "ios": "https://dc.lft.to/lastmile_qr_scan"}, "is_reserved": 0, "name": "8feebc470c8c7fbd9dea0c4c5880e301", "lon": -76.92762033333334, "type": "electric_bike", "bike_id": "8feebc470c8c7fbd9dea0c4c5880e301", "fusion_lon": 0.0, "lat": 38.960328, "fusion_lat": 0.0}, {"is_disabled": 0, "rental_uris": {"android": "https://dc.lft.to/lastmile_qr_scan", "ios": "https://dc.lft.to/lastmile_qr_scan"}, "is_reserved": 0, "name": "3297cd36f6a6175e03a19db5cb33e958", "lon": -77.02685583333333, "type": "electric_scooter", "bike_id": "3297cd36f6a6175e03a19db5cb33e958", "fusion_lon": 0.0, "lat": 38.895254666666666, "fusion_lat": 0.0}, {"is_disabled": 0, "rental_uris": {"android": "https://dc.lft.to/lastmile_qr_scan", "ios": "https://dc.lft.to/lastmile_qr_scan"}, "is_reserved": 0, "name": "6960793e834c12d93662594187bad3ef", "lon": -77.00405133333334, "type": "electric_scooter", "bike_id": "6960793e834c12d93662594187bad3ef", "fusion_lon": 0.0, "lat": 38.879382666666665, "fusion_lat": 0.0}, {"is_disabled": 0, "rental_uris": {"android": "https://dc.lft.to/lastmile_qr_scan", "ios": "https://dc.lft.to/lastmile_qr_scan"}, "is_reserved": 0, "name": "c8c52db8e4d6ff7c48def42bea4f0bf5", "lon": -77.02117166666666, "type": "electric_scooter", "bike_id": "c8c52db8e4d6ff7c48def42bea4f0bf5", "fusion_lon": 0.0, "lat": 38.9173665, "fusion_lat": 0.0}, {"is_disabled": 0, "rental_uris": {"android": "https://dc.lft.to/lastmile_qr_scan", "ios": "https://dc.lft.to/lastmile_qr_scan"}, "is_reserved": 0, "name": "8830002d1b6d59227fef2767ef011cd3", "lon": -77.0521905, "type": "electric_scooter", "bike_id": "8830002d1b6d59227fef2767ef011cd3", "fusion_lon": 0.0, "lat": 38.8980745, "fusion_lat": 0.0}, {"is_disabled": 0, "rental_uris": {"android": "https://dc.lft.to/lastmile_qr_scan", "ios": "https://dc.lft.to/lastmile_qr_scan"}, "is_reserved": 0, "name": "c60e46a3ef81bdd5999718efdbd690b2", "lon": -77.06383683333334, "type": "electric_bike", "bike_id": "c60e46a3ef81bdd5999718efdbd690b2", "fusion_lon": 0.0, "lat": 39.01737933333333, "fusion_lat": 0.0}, {"is_disabled": 0, "rental_uris": {"android": "https://dc.lft.to/lastmile_qr_scan", "ios": "https://dc.lft.to/lastmile_qr_scan"}, "is_reserved": 0, "name": "3eb530d29805a1c50b0d4fecd1ed2081", "lon": -76.960925, "type": "electric_bike", "bike_id": "3eb530d29805a1c50b0d4fecd1ed2081", "fusion_lon": 0.0, "lat": 38.918592333333336, "fusion_lat": 0.0}, {"is_disabled": 0, "rental_uris": {"android": "https://dc.lft.to/lastmile_qr_scan", "ios": "https://dc.lft.to/lastmile_qr_scan"}, "is_reserved": 0, "name": "b8b8505b6ee3efebfbbac4fc51f17b2e", "lon": -77.03321866666667, "type": "electric_scooter", "bike_id": "b8b8505b6ee3efebfbbac4fc51f17b2e", "fusion_lon": 0.0, "lat": 38.8983585, "fusion_lat": 0.0}, {"is_disabled": 0, "rental_uris": {"android": "https://dc.lft.to/lastmile_qr_scan", "ios": "https://dc.lft.to/lastmile_qr_scan"}, "is_reserved": 0, "name": "5ce6f57c0613adc2ab1eb3e01d2df9f2", "lon": -77.026685, "type": "electric_scooter", "bike_id": "5ce6f57c0613adc2ab1eb3e01d2df9f2", "fusion_lon": 0.0, "lat": 38.912691, "fusion_lat": 0.0}, {"is_disabled": 0, "rental_uris": {"android": "https://dc.lft.to/lastmile_qr_scan", "ios": "https://dc.lft.to/lastmile_qr_scan"}, "is_reserved": 0, "name": "46bb84c36a905b4d3f9f28975178e083", "lon": -77.00846683333333, "type": "electric_scooter", "bike_id": "46bb84c36a905b4d3f9f28975178e083", "fusion_lon": 0.0, "lat": 38.88503216666667, "fusion_lat": 0.0}, {"is_disabled": 0, "rental_uris": {"android": "https://dc.lft.to/lastmile_qr_scan", "ios": "https://dc.lft.to/lastmile_qr_scan"}, "is_reserved": 0, "name": "1e628f129f4bdf5a4f6a5d5646faf040", "lon": -77.010293, "type": "electric_scooter", "bike_id": "1e628f129f4bdf5a4f6a5d5646faf040", "fusion_lon": 0.0, "lat": 38.86665466666667, "fusion_lat": 0.0}, {"is_disabled": 0, "rental_uris": {"android": "https://dc.lft.to/lastmile_qr_scan", "ios": "https://dc.lft.to/lastmile_qr_scan"}, "is_reserved": 0, "name": "f57b2927f6f469dd47d6fb51835ce3ee", "lon": -77.002146, "type": "electric_bike", "bike_id": "f57b2927f6f469dd47d6fb51835ce3ee", "fusion_lon": 0.0, "lat": 38.81942333333333, "fusion_lat": 0.0}, {"is_disabled": 0, "rental_uris": {"android": "https://dc.lft.to/lastmile_qr_scan", "ios": "https://dc.lft.to/lastmile_qr_scan"}, "is_reserved": 0, "name": "7cdd56a2056057cb1ce2adb05d8416da", "lon": -77.02952183333333, "type": "electric_scooter", "bike_id": "7cdd56a2056057cb1ce2adb05d8416da", "fusion_lon": 0.0, "lat": 38.91710066666667, "fusion_lat": 0.0}, {"is_disabled": 0, "rental_uris": {"android": "https://dc.lft.to/lastmile_qr_scan", "ios": "https://dc.lft.to/lastmile_qr_scan"}, "is_reserved": 0, "name": "b5e63c54512e357aad1ba56d4ada5f96", "lon": -77.03145783333333, "type": "electric_scooter", "bike_id": "b5e63c54512e357aad1ba56d4ada5f96", "fusion_lon": 0.0, "lat": 38.909712166666665, "fusion_lat": 0.0}, {"is_disabled": 0, "rental_uris": {"android": "https://dc.lft.to/lastmile_qr_scan", "ios": "https://dc.lft.to/lastmile_qr_scan"}, "is_reserved": 0, "name": "2b356efe441a1c30187585d6b922ddd9", "lon": -77.00580666666667, "type": "electric_bike", "bike_id": "2b356efe441a1c30187585d6b922ddd9", "fusion_lon": 0.0, "lat": 38.8369255, "fusion_lat": 0.0}, {"is_disabled": 0, "rental_uris": {"android": "https://dc.lft.to/lastmile_qr_scan", "ios": "https://dc.lft.to/lastmile_qr_scan"}, "is_reserved": 0, "name": "ee7f71254aba1ac78aaa755cf666131f", "lon": -77.02544533333334, "type": "electric_scooter", "bike_id": "ee7f71254aba1ac78aaa755cf666131f", "fusion_lon": 0.0, "lat": 38.92405, "fusion_lat": 0.0}, {"is_disabled": 0, "rental_uris": {"android": "https://dc.lft.to/lastmile_qr_scan", "ios": "https://dc.lft.to/lastmile_qr_scan"}, "is_reserved": 0, "name": "a5b7114ac1a4ae526ae502750320ca02", "lon": -77.0253245, "type": "electric_scooter", "bike_id": "a5b7114ac1a4ae526ae502750320ca02", "fusion_lon": 0.0, "lat": 38.9757825, "fusion_lat": 0.0}, {"is_disabled": 0, "rental_uris": {"android": "https://dc.lft.to/lastmile_qr_scan", "ios": "https://dc.lft.to/lastmile_qr_scan"}, "is_reserved": 0, "name": "e4f831a773d688d0ad765ec2b8cdb6b3", "lon": -77.038292, "type": "electric_scooter", "bike_id": "e4f831a773d688d0ad765ec2b8cdb6b3", "fusion_lon": 0.0, "lat": 38.911117, "fusion_lat": 0.0}, {"is_disabled": 0, "rental_uris": {"android": "https://dc.lft.to/lastmile_qr_scan", "ios": "https://dc.lft.to/lastmile_qr_scan"}, "is_reserved": 0, "name": "685bbefb24bbea22110f179efb6f0da7", "lon": -76.93383183333333, "type": "electric_scooter", "bike_id": "685bbefb24bbea22110f179efb6f0da7", "fusion_lon": 0.0, "lat": 38.89912833333333, "fusion_lat": 0.0}, {"is_disabled": 0, "rental_uris": {"android": "https://dc.lft.to/lastmile_qr_scan", "ios": "https://dc.lft.to/lastmile_qr_scan"}, "is_reserved": 0, "name": "f98a2b91dd1eee09d65326985de4995e", "lon": -76.961752, "type": "electric_bike", "bike_id": "f98a2b91dd1eee09d65326985de4995e", "fusion_lon": 0.0, "lat": 38.918619, "fusion_lat": 0.0}, {"is_disabled": 0, "rental_uris": {"android": "https://dc.lft.to/lastmile_qr_scan", "ios": "https://dc.lft.to/lastmile_qr_scan"}, "is_reserved": 0, "name": "dea4553beb4fe73bb692e4f947a43b9c", "lon": -77.04172383333334, "type": "electric_scooter", "bike_id": "dea4553beb4fe73bb692e4f947a43b9c", "fusion_lon": 0.0, "lat": 38.91734966666667, "fusion_lat": 0.0}, {"is_disabled": 0, "rental_uris": {"android": "https://dc.lft.to/lastmile_qr_scan", "ios": "https://dc.lft.to/lastmile_qr_scan"}, "is_reserved": 0, "name": "d0ace8245ea45100697accdec4138912", "lon": -77.01175816666667, "type": "electric_scooter", "bike_id": "d0ace8245ea45100697accdec4138912", "fusion_lon": 0.0, "lat": 38.870805, "fusion_lat": 0.0}, {"is_disabled": 0, "rental_uris": {"android": "https://dc.lft.to/lastmile_qr_scan", "ios": "https://dc.lft.to/lastmile_qr_scan"}, "is_reserved": 0, "name": "ac83ecc280d96f65d43a0614b971ad00", "lon": -77.02489716666666, "type": "electric_scooter", "bike_id": "ac83ecc280d96f65d43a0614b971ad00", "fusion_lon": 0.0, "lat": 38.90253516666667, "fusion_lat": 0.0}, {"is_disabled": 0, "rental_uris": {"android": "https://dc.lft.to/lastmile_qr_scan", "ios": "https://dc.lft.to/lastmile_qr_scan"}, "is_reserved": 0, "name": "f18ad141b4912053ccfe3e12cd0194e5", "lon": -77.00196683333333, "type": "electric_scooter", "bike_id": "f18ad141b4912053ccfe3e12cd0194e5", "fusion_lon": 0.0, "lat": 38.9163735, "fusion_lat": 0.0}, {"is_disabled": 0, "rental_uris": {"android": "https://dc.lft.to/lastmile_qr_scan", "ios": "https://dc.lft.to/lastmile_qr_scan"}, "is_reserved": 0, "name": "26ce72260853e27ab84ed9dc14258f5f", "lon": -77.035891, "type": "electric_scooter", "bike_id": "26ce72260853e27ab84ed9dc14258f5f", "fusion_lon": 0.0, "lat": 38.9076345, "fusion_lat": 0.0}, {"is_disabled": 0, "rental_uris": {"android": "https://dc.lft.to/lastmile_qr_scan", "ios": "https://dc.lft.to/lastmile_qr_scan"}, "is_reserved": 0, "name": "44fb4b412ee66356266ffd2a5c85bec2", "lon": -77.03090583333334, "type": "electric_scooter", "bike_id": "44fb4b412ee66356266ffd2a5c85bec2", "fusion_lon": 0.0, "lat": 38.935433333333336, "fusion_lat": 0.0}, {"is_disabled": 0, "rental_uris": {"android": "https://dc.lft.to/lastmile_qr_scan", "ios": "https://dc.lft.to/lastmile_qr_scan"}, "is_reserved": 0, "name": "2186abbb017b23f59d1f9bd9fb62b621", "lon": -76.92932966666666, "type": "electric_bike", "bike_id": "2186abbb017b23f59d1f9bd9fb62b621", "fusion_lon": 0.0, "lat": 38.90292083333333, "fusion_lat": 0.0}, {"is_disabled": 0, "rental_uris": {"android": "https://dc.lft.to/lastmile_qr_scan", "ios": "https://dc.lft.to/lastmile_qr_scan"}, "is_reserved": 0, "name": "ce1dee736ecc38413b3cdf8e16e76490", "lon": -77.02642833333333, "type": "electric_scooter", "bike_id": "ce1dee736ecc38413b3cdf8e16e76490", "fusion_lon": 0.0, "lat": 38.8975945, "fusion_lat": 0.0}, {"is_disabled": 0, "rental_uris": {"android": "https://dc.lft.to/lastmile_qr_scan", "ios": "https://dc.lft.to/lastmile_qr_scan"}, "is_reserved": 0, "name": "c94b2f10ab948fb721e2351d4faf103a", "lon": -77.014327, "type": "electric_scooter", "bike_id": "c94b2f10ab948fb721e2351d4faf103a", "fusion_lon": 0.0, "lat": 38.89941616666667, "fusion_lat": 0.0}, {"is_disabled": 0, "rental_uris": {"android": "https://dc.lft.to/lastmile_qr_scan", "ios": "https://dc.lft.to/lastmile_qr_scan"}, "is_reserved": 0, "name": "6113e123e51ea7b8b576bf4aa9cc64a9", "lon": -77.03194883333333, "type": "electric_scooter", "bike_id": "6113e123e51ea7b8b576bf4aa9cc64a9", "fusion_lon": 0.0, "lat": 38.91797533333333, "fusion_lat": 0.0}, {"is_disabled": 0, "rental_uris": {"android": "https://dc.lft.to/lastmile_qr_scan", "ios": "https://dc.lft.to/lastmile_qr_scan"}, "is_reserved": 0, "name": "4ae2eec7e9ee790863323a6899e97d8d", "lon": -77.02808566666667, "type": "electric_scooter", "bike_id": "4ae2eec7e9ee790863323a6899e97d8d", "fusion_lon": 0.0, "lat": 38.89798416666667, "fusion_lat": 0.0}, {"is_disabled": 0, "rental_uris": {"android": "https://dc.lft.to/lastmile_qr_scan", "ios": "https://dc.lft.to/lastmile_qr_scan"}, "is_reserved": 0, "name": "fa85ca20a473594ef7dbe9f3037ddea0", "lon": -77.02931016666666, "type": "electric_scooter", "bike_id": "fa85ca20a473594ef7dbe9f3037ddea0", "fusion_lon": 0.0, "lat": 38.8821905, "fusion_lat": 0.0}, {"is_disabled": 0, "rental_uris": {"android": "https://dc.lft.to/lastmile_qr_scan", "ios": "https://dc.lft.to/lastmile_qr_scan"}, "is_reserved": 0, "name": "734ec368b0e655dbd4713ef6e37357a8", "lon": -77.05330533333333, "type": "electric_scooter", "bike_id": "734ec368b0e655dbd4713ef6e37357a8", "fusion_lon": 0.0, "lat": 38.92315833333333, "fusion_lat": 0.0}, {"is_disabled": 0, "rental_uris": {"android": "https://dc.lft.to/lastmile_qr_scan", "ios": "https://dc.lft.to/lastmile_qr_scan"}, "is_reserved": 0, "name": "eb03679fae97519f193b69cd3bffd813", "lon": -77.02567516666667, "type": "electric_scooter", "bike_id": "eb03679fae97519f193b69cd3bffd813", "fusion_lon": 0.0, "lat": 38.884676, "fusion_lat": 0.0}, {"is_disabled": 0, "rental_uris": {"android": "https://dc.lft.to/lastmile_qr_scan", "ios": "https://dc.lft.to/lastmile_qr_scan"}, "is_reserved": 0, "name": "d99fedf728d994936e7b9fe73db26fee", "lon": -77.04187666666667, "type": "electric_scooter", "bike_id": "d99fedf728d994936e7b9fe73db26fee", "fusion_lon": 0.0, "lat": 38.898699, "fusion_lat": 0.0}, {"is_disabled": 0, "rental_uris": {"android": "https://dc.lft.to/lastmile_qr_scan", "ios": "https://dc.lft.to/lastmile_qr_scan"}, "is_reserved": 0, "name": "fd2c171c81b83fc271a1e88cf4d4454b", "lon": -77.02691266666666, "type": "electric_scooter", "bike_id": "fd2c171c81b83fc271a1e88cf4d4454b", "fusion_lon": 0.0, "lat": 38.911341166666666, "fusion_lat": 0.0}, {"is_disabled": 0, "rental_uris": {"android": "https://dc.lft.to/lastmile_qr_scan", "ios": "https://dc.lft.to/lastmile_qr_scan"}, "is_reserved": 0, "name": "cd070a7eb4870bd0a5d3e1204886a838", "lon": -77.0086045, "type": "electric_bike", "bike_id": "cd070a7eb4870bd0a5d3e1204886a838", "fusion_lon": 0.0, "lat": 38.82731583333333, "fusion_lat": 0.0}, {"is_disabled": 0, "rental_uris": {"android": "https://dc.lft.to/lastmile_qr_scan", "ios": "https://dc.lft.to/lastmile_qr_scan"}, "is_reserved": 0, "name": "adc414e66b2ab9f9c34fcebbd11ebcaa", "lon": -77.02950466666667, "type": "electric_scooter", "bike_id": "adc414e66b2ab9f9c34fcebbd11ebcaa", "fusion_lon": 0.0, "lat": 38.9170275, "fusion_lat": 0.0}, {"is_disabled": 0, "rental_uris": {"android": "https://dc.lft.to/lastmile_qr_scan", "ios": "https://dc.lft.to/lastmile_qr_scan"}, "is_reserved": 0, "name": "54cf095d1a64abfec1a73ee6e9a9e2b9", "lon": -76.994984, "type": "electric_scooter", "bike_id": "54cf095d1a64abfec1a73ee6e9a9e2b9", "fusion_lon": 0.0, "lat": 38.86246366666666, "fusion_lat": 0.0}, {"is_disabled": 0, "rental_uris": {"android": "https://dc.lft.to/lastmile_qr_scan", "ios": "https://dc.lft.to/lastmile_qr_scan"}, "is_reserved": 0, "name": "a597c994d2a769bb3e50607c30e586a9", "lon": -77.041939, "type": "electric_scooter", "bike_id": "a597c994d2a769bb3e50607c30e586a9", "fusion_lon": 0.0, "lat": 38.916714166666665, "fusion_lat": 0.0}, {"is_disabled": 0, "rental_uris": {"android": "https://dc.lft.to/lastmile_qr_scan", "ios": "https://dc.lft.to/lastmile_qr_scan"}, "is_reserved": 0, "name": "3213235e36d5cc4e42e787c6143ec773", "lon": -77.02515383333333, "type": "electric_scooter", "bike_id": "3213235e36d5cc4e42e787c6143ec773", "fusion_lon": 0.0, "lat": 38.9010445, "fusion_lat": 0.0}, {"is_disabled": 0, "rental_uris": {"android": "https://dc.lft.to/lastmile_qr_scan", "ios": "https://dc.lft.to/lastmile_qr_scan"},