{"data": {"bikes": [{"fusion_lat": 0.0, "name": "9e905007c1fcdda45f8c2574b3210c5f", "is_disabled": 0, "rental_uris": {"android": "https://dc.lft.to/lastmile_qr_scan", "ios": "https://dc.lft.to/lastmile_qr_scan"}, "fusion_lon": 0.0, "lat": 38.894709, "bike_id": "9e905007c1fcdda45f8c2574b3210c5f", "type": "electric_scooter", "is_reserved": 0, "lon": -77.0216955}, {"fusion_lat": 0.0, "name": "6d72c89bc781d11f81d39e3d81ff8bc6", "is_disabled": 0, "rental_uris": {"android": "https://dc.lft.to/lastmile_qr_scan", "ios": "https://dc.lft.to/lastmile_qr_scan"}, "fusion_lon": 0.0, "lat": 38.883233833333335, "bike_id": "6d72c89bc781d11f81d39e3d81ff8bc6", "type": "electric_scooter", "is_reserved": 0, "lon": -77.01938116666666}, {"fusion_lat": 0.0, "name": "3d1967d5953cef52b412487dfa6b6c37", "is_disabled": 0, "rental_uris": {"android": "https://dc.lft.to/lastmile_qr_scan", "ios": "https://dc.lft.to/lastmile_qr_scan"}, "fusion_lon": 0.0, "lat": 38.81939716666667, "bike_id": "3d1967d5953cef52b412487dfa6b6c37", "type": "electric_bike", "is_reserved": 0, "lon": -77.00201033333333}, {"fusion_lat": 0.0, "name": "ed0ad74797a089b4a22e298c94365031", "is_disabled": 0, "rental_uris": {"android": "https://dc.lft.to/lastmile_qr_scan", "ios": "https://dc.lft.to/lastmile_qr_scan"}, "fusion_lon": 0.0, "lat": 38.9001955, "bike_id": "ed0ad74797a089b4a22e298c94365031", "type": "electric_scooter", "is_reserved": 0, "lon": -77.001822}, {"fusion_lat": 0.0, "name": "7f108cffdfc77c970cb53994d9a15d17", "is_disabled": 0, "rental_uris": {"android": "https://dc.lft.to/lastmile_qr_scan", "ios": "https://dc.lft.to/lastmile_qr_scan"}, "fusion_lon": 0.0, "lat": 38.909531, "bike_id": "7f108cffdfc77c970cb53994d9a15d17", "type": "electric_scooter", "is_reserved": 0, "lon": -76.98537133333333}, {"fusion_lat": 0.0, "name": "3839577f25f644990f46ccdd800e4d9a", "is_disabled": 0, "rental_uris": {"android": "https://dc.lft.to/lastmile_qr_scan", "ios": "https://dc.lft.to/lastmile_qr_scan"}, "fusion_lon": 0.0, "lat": 38.904619333333336, "bike_id": "3839577f25f644990f46ccdd800e4d9a", "type": "electric_scooter", "is_reserved": 0, "lon": -77.029451}, {"fusion_lat": 0.0, "name": "91c200d5421473c3499ec449af9f2261", "is_disabled": 0, "rental_uris": {"android": "https://dc.lft.to/lastmile_qr_scan", "ios": "https://dc.lft.to/lastmile_qr_scan"}, "fusion_lon": 0.0, "lat": 38.8412895, "bike_id": "91c200d5421473c3499ec449af9f2261", "type": "electric_bike", "is_reserved": 0, "lon": -77.06305533333334}, {"fusion_lat": 0.0, "name": "b38ba1da9eb6bb0cad9cbfc4986dfe17", "is_disabled": 0, "rental_uris": {"android": "https://dc.lft.to/lastmile_qr_scan", "ios": "https://dc.lft.to/lastmile_qr_scan"}, "fusion_lon": 0.0, "lat": 38.863488, "bike_id": "b38ba1da9eb6bb0cad9cbfc4986dfe17", "type": "electric_bike", "is_reserved": 0, "lon": -77.07723016666667}, {"fusion_lat": 0.0, "name": "3818c0af4d44a47eceb21edd34a7b933", "is_disabled": 0, "rental_uris": {"android": "https://dc.lft.to/lastmile_qr_scan", "ios": "https://dc.lft.to/lastmile_qr_scan"}, "fusion_lon": 0.0, "lat": 38.888326, "bike_id": "3818c0af4d44a47eceb21edd34a7b933", "type": "electric_scooter", "is_reserved": 0, "lon": -77.04845366666666}, {"fusion_lat": 0.0, "name": "14419f525790da6c0eb81914beb2a1ae", "is_disabled": 0, "rental_uris": {"android": "https://dc.lft.to/lastmile_qr_scan", "ios": "https://dc.lft.to/lastmile_qr_scan"}, "fusion_lon": 0.0, "lat": 38.93153066666667, "bike_id": "14419f525790da6c0eb81914beb2a1ae", "type": "electric_scooter", "is_reserved": 0, "lon": -77.03970483333333}, {"fusion_lat": 0.0, "name": "b6d3d5e69f8788e60932137bcb174707", "is_disabled": 0, "rental_uris": {"android": "https://dc.lft.to/lastmile_qr_scan", "ios": "https://dc.lft.to/lastmile_qr_scan"}, "fusion_lon": 0.0, "lat": 38.90723633333333, "bike_id": "b6d3d5e69f8788e60932137bcb174707", "type": "electric_scooter", "is_reserved": 0, "lon": -77.02538883333334}, {"fusion_lat": 0.0, "name": "fcd6cb265ba5dc802c12329a6930f186", "is_disabled": 0, "rental_uris": {"android": "https://dc.lft.to/lastmile_qr_scan", "ios": "https://dc.lft.to/lastmile_qr_scan"}, "fusion_lon": 0.0, "lat": 38.93752883333333, "bike_id": "fcd6cb265ba5dc802c12329a6930f186", "type": "electric_scooter", "is_reserved": 0, "lon": -77.025284}, {"fusion_lat": 0.0, "name": "9f9a4ef579b3d13c2f87b6f8ce345271", "is_disabled": 0, "rental_uris": {"android": "https://dc.lft.to/lastmile_qr_scan", "ios": "https://dc.lft.to/lastmile_qr_scan"}, "fusion_lon": 0.0, "lat": 38.89227233333333, "bike_id": "9f9a4ef579b3d13c2f87b6f8ce345271", "type": "electric_scooter", "is_reserved": 0, "lon": -77.00299083333333}, {"fusion_lat": 0.0, "name": "0b73823c15b63e83ea855ade599f5c20", "is_disabled": 0, "rental_uris": {"android": "https://dc.lft.to/lastmile_qr_scan", "ios": "https://dc.lft.to/lastmile_qr_scan"}, "fusion_lon": 0.0, "lat": 38.91488783333333, "bike_id": "0b73823c15b63e83ea855ade599f5c20", "type": "electric_scooter", "is_reserved": 0, "lon": -77.04280666666666}, {"fusion_lat": 0.0, "name": "fc6305e9e8125eafcedd5e79c1fdc32f", "is_disabled": 0, "rental_uris": {"android": "https://dc.lft.to/lastmile_qr_scan", "ios": "https://dc.lft.to/lastmile_qr_scan"}, "fusion_lon": 0.0, "lat": 39.0360575, "bike_id": "fc6305e9e8125eafcedd5e79c1fdc32f", "type": "electric_bike", "is_reserved": 0, "lon": -77.05539583333334}, {"fusion_lat": 0.0, "name": "ff781d42e0ed19942297d65f770d1669", "is_disabled": 0, "rental_uris": {"android": "https://dc.lft.to/lastmile_qr_scan", "ios": "https://dc.lft.to/lastmile_qr_scan"}, "fusion_lon": 0.0, "lat": 38.91036416666667, "bike_id": "ff781d42e0ed19942297d65f770d1669", "type": "electric_scooter", "is_reserved": 0, "lon": -77.03830433333333}, {"fusion_lat": 0.0, "name": "1358ca25b526031b4bd1cbd06de6e34c", "is_disabled": 0, "rental_uris": {"android": "https://dc.lft.to/lastmile_qr_scan", "ios": "https://dc.lft.to/lastmile_qr_scan"}, "fusion_lon": 0.0, "lat": 38.923611, "bike_id": "1358ca25b526031b4bd1cbd06de6e34c", "type": "electric_scooter", "is_reserved": 0, "lon": -77.0431855}, {"fusion_lat": 0.0, "name": "49d5c28e18a74ea283bbbda2f9a64315", "is_disabled": 0, "rental_uris": {"android": "https://dc.lft.to/lastmile_qr_scan", "ios": "https://dc.lft.to/lastmile_qr_scan"}, "fusion_lon": 0.0, "lat": 38.91031, "bike_id": "49d5c28e18a74ea283bbbda2f9a64315", "type": "electric_scooter", "is_reserved": 0, "lon": -77.03337083333334}, {"fusion_lat": 0.0, "name": "6093d1e22edf0cfc6cbb025ed384f3de", "is_disabled": 0, "rental_uris": {"android": "https://dc.lft.to/lastmile_qr_scan", "ios": "https://dc.lft.to/lastmile_qr_scan"}, "fusion_lon": 0.0, "lat": 38.926457166666665, "bike_id": "6093d1e22edf0cfc6cbb025ed384f3de", "type": "electric_scooter", "is_reserved": 0, "lon": -77.03853866666667}, {"fusion_lat": 0.0, "name": "7800a1b8ec9674a7233717c56301f8a0", "is_disabled": 0, "rental_uris": {"android": "https://dc.lft.to/lastmile_qr_scan", "ios": "https://dc.lft.to/lastmile_qr_scan"}, "fusion_lon": 0.0, "lat": 38.8919465, "bike_id": "7800a1b8ec9674a7233717c56301f8a0", "type": "electric_scooter", "is_reserved": 0, "lon": -77.02228916666667}, {"fusion_lat": 0.0, "name": "105174261625e708150f791db6e71e09", "is_disabled": 0, "rental_uris": {"android": "https://dc.lft.to/lastmile_qr_scan", "ios": "https://dc.lft.to/lastmile_qr_scan"}, "fusion_lon": 0.0, "lat": 38.916436833333336, "bike_id": "105174261625e708150f791db6e71e09", "type": "electric_scooter", "is_reserved": 0, "lon": -77.04797166666667}, {"fusion_lat": 0.0, "name": "2af50e0191d28860d40f7add2436cb4a", "is_disabled": 0, "rental_uris": {"android": "https://dc.lft.to/lastmile_qr_scan", "ios": "https://dc.lft.to/lastmile_qr_scan"}, "fusion_lon": 0.0, "lat": 38.89992766666667, "bike_id": "2af50e0191d28860d40f7add2436cb4a", "type": "electric_scooter", "is_reserved": 0, "lon": -77.05497566666666}, {"fusion_lat": 0.0, "name": "8e6511b84176196f3a45da8c0c35c95a", "is_disabled": 0, "rental_uris": {"android": "https://dc.lft.to/lastmile_qr_scan", "ios": "https://dc.lft.to/lastmile_qr_scan"}, "fusion_lon": 0.0, "lat": 38.907935333333334, "bike_id": "8e6511b84176196f3a45da8c0c35c95a", "type": "electric_scooter", "is_reserved": 0, "lon": -77.0433495}, {"fusion_lat": 0.0, "name": "650634867f1b6de1dd4d8635175ba05a", "is_disabled": 0, "rental_uris": {"android": "https://dc.lft.to/lastmile_qr_scan", "ios": "https://dc.lft.to/lastmile_qr_scan"}, "fusion_lon": 0.0, "lat": 38.90868833333333, "bike_id": "650634867f1b6de1dd4d8635175ba05a", "type": "electric_scooter", "is_reserved": 0, "lon": -77.009188}, {"fusion_lat": 0.0, "name": "dba958c9b5404e1fa394f18951bd5256", "is_disabled": 0, "rental_uris": {"android": "https://dc.lft.to/lastmile_qr_scan", "ios": "https://dc.lft.to/lastmile_qr_scan"}, "fusion_lon": 0.0, "lat": 38.9224045, "bike_id": "dba958c9b5404e1fa394f18951bd5256", "type": "electric_scooter", "is_reserved": 0, "lon": -76.98398033333334}, {"fusion_lat": 0.0, "name": "2cf029669a885b2d628f1b25f8e6ffe6", "is_disabled": 0, "rental_uris": {"android": "https://dc.lft.to/lastmile_qr_scan", "ios": "https://dc.lft.to/lastmile_qr_scan"}, "fusion_lon": 0.0, "lat": 38.935863833333336, "bike_id": "2cf029669a885b2d628f1b25f8e6ffe6", "type": "electric_scooter", "is_reserved": 0, "lon": -77.02843316666667}, {"fusion_lat": 0.0, "name": "7f3103a4c75ab28d556ecfa9072d5190", "is_disabled": 0, "rental_uris": {"android": "https://dc.lft.to/lastmile_qr_scan", "ios": "https://dc.lft.to/lastmile_qr_scan"}, "fusion_lon": 0.0, "lat": 38.9148425, "bike_id": "7f3103a4c75ab28d556ecfa9072d5190", "type": "electric_scooter", "is_reserved": 0, "lon": -77.0123045}, {"fusion_lat": 0.0, "name": "1f3ec4b59213f1ecb60e025c3830693d", "is_disabled": 0, "rental_uris": {"android": "https://dc.lft.to/lastmile_qr_scan", "ios": "https://dc.lft.to/lastmile_qr_scan"}, "fusion_lon": 0.0, "lat": 38.89745816666667, "bike_id": "1f3ec4b59213f1ecb60e025c3830693d", "type": "electric_scooter", "is_reserved": 0, "lon": -77.04629266666667}, {"fusion_lat": 0.0, "name": "8d2decb4a0612e1f341ce794eb587107", "is_disabled": 0, "rental_uris": {"android": "https://dc.lft.to/lastmile_qr_scan", "ios": "https://dc.lft.to/lastmile_qr_scan"}, "fusion_lon": 0.0, "lat": 38.91958533333333, "bike_id": "8d2decb4a0612e1f341ce794eb587107", "type": "electric_bike", "is_reserved": 0, "lon": -77.1010305}, {"fusion_lat": 0.0, "name": "cc85ae3e83e17df3a48ac98d3e1c4d25", "is_disabled": 0, "rental_uris": {"android": "https://dc.lft.to/lastmile_qr_scan", "ios": "https://dc.lft.to/lastmile_qr_scan"}, "fusion_lon": 0.0, "lat": 38.906762666666665, "bike_id": "cc85ae3e83e17df3a48ac98d3e1c4d25", "type": "electric_scooter", "is_reserved": 0, "lon": -77.02708683333333}, {"fusion_lat": 0.0, "name": "62d1b836855328548f7c7dc110fea5ba", "is_disabled": 0, "rental_uris": {"android": "https://dc.lft.to/lastmile_qr_scan", "ios": "https://dc.lft.to/lastmile_qr_scan"}, "fusion_lon": 0.0, "lat": 38.92128683333333, "bike_id": "62d1b836855328548f7c7dc110fea5ba", "type": "electric_scooter", "is_reserved": 0, "lon": -77.01800616666667}, {"fusion_lat": 0.0, "name": "4a6c9546b3c19dc909299f5f4e3564bd", "is_disabled": 0, "rental_uris": {"android": "https://dc.lft.to/lastmile_qr_scan", "ios": "https://dc.lft.to/lastmile_qr_scan"}, "fusion_lon": 0.0, "lat": 38.87657866666667, "bike_id": "4a6c9546b3c19dc909299f5f4e3564bd", "type": "electric_scooter", "is_reserved": 0, "lon": -77.001237}, {"fusion_lat": 0.0, "name": "6e329d24dfe47277e79c0361f337ad03", "is_disabled": 0, "rental_uris": {"android": "https://dc.lft.to/lastmile_qr_scan", "ios": "https://dc.lft.to/lastmile_qr_scan"}, "fusion_lon": 0.0, "lat": 38.907599166666664, "bike_id": "6e329d24dfe47277e79c0361f337ad03", "type": "electric_scooter", "is_reserved": 0, "lon": -76.9992415}, {"fusion_lat": 0.0, "name": "07bb8f6f9b7dcb9d9bc9b78f4cd89adf", "is_disabled": 0, "rental_uris": {"android": "https://dc.lft.to/lastmile_qr_scan", "ios": "https://dc.lft.to/lastmile_qr_scan"}, "fusion_lon": 0.0, "lat": 38.92046966666667, "bike_id": "07bb8f6f9b7dcb9d9bc9b78f4cd89adf", "type": "electric_scooter", "is_reserved": 0, "lon": -77.02357866666667}, {"fusion_lat": 0.0, "name": "3cdd2eb229804eb76fbe0bf008aea45f", "is_disabled": 0, "rental_uris": {"android": "https://dc.lft.to/lastmile_qr_scan", "ios": "https://dc.lft.to/lastmile_qr_scan"}, "fusion_lon": 0.0, "lat": 38.86138783333333, "bike_id": "3cdd2eb229804eb76fbe0bf008aea45f", "type": "electric_bike", "is_reserved": 0, "lon": -76.9716775}, {"fusion_lat": 0.0, "name": "50041fc2c4506122f85bc827e074aecf", "is_disabled": 0, "rental_uris": {"android": "https://dc.lft.to/lastmile_qr_scan", "ios": "https://dc.lft.to/lastmile_qr_scan"}, "fusion_lon": 0.0, "lat": 38.911745, "bike_id": "50041fc2c4506122f85bc827e074aecf", "type": "electric_scooter", "is_reserved": 0, "lon": -77.068623}, {"fusion_lat": 0.0, "name": "f3ccce9a857ce2243828625e0d368a6c", "is_disabled": 0, "rental_uris": {"android": "https://dc.lft.to/lastmile_qr_scan", "ios": "https://dc.lft.to/lastmile_qr_scan"}, "fusion_lon": 0.0, "lat": 38.892482666666666, "bike_id": "f3ccce9a857ce2243828625e0d368a6c", "type": "electric_scooter", "is_reserved": 0, "lon": -77.03953266666667}, {"fusion_lat": 0.0, "name": "6bff8fb6b48818c02e0056a171acfd0b", "is_disabled": 0, "rental_uris": {"android": "https://dc.lft.to/lastmile_qr_scan", "ios": "https://dc.lft.to/lastmile_qr_scan"}, "fusion_lon": 0.0, "lat": 38.942271166666664, "bike_id": "6bff8fb6b48818c02e0056a171acfd0b", "type": "electric_scooter", "is_reserved": 0, "lon": -77.01413416666666}, {"fusion_lat": 0.0, "name": "f58851eb6cd0d48e142652e8799da388", "is_disabled": 0, "rental_uris": {"android": "https://dc.lft.to/lastmile_qr_scan", "ios": "https://dc.lft.to/lastmile_qr_scan"}, "fusion_lon": 0.0, "lat": 38.934618666666665, "bike_id": "f58851eb6cd0d48e142652e8799da388", "type": "electric_scooter", "is_reserved": 0, "lon": -77.0224415}, {"fusion_lat": 0.0, "name": "2eb0b370367f79426adc52bfc9fe8fb5", "is_disabled": 0, "rental_uris": {"android": "https://dc.lft.to/lastmile_qr_scan", "ios": "https://dc.lft.to/lastmile_qr_scan"}, "fusion_lon": 0.0, "lat": 38.90453616666667, "bike_id": "2eb0b370367f79426adc52bfc9fe8fb5", "type": "electric_scooter", "is_reserved": 0, "lon": -76.9826105}, {"fusion_lat": 0.0, "name": "f9397ac64f8501b8fbd82948a0036297", "is_disabled": 0, "rental_uris": {"android": "https://dc.lft.to/lastmile_qr_scan", "ios": "https://dc.lft.to/lastmile_qr_scan"}, "fusion_lon": 0.0, "lat": 38.918614833333336, "bike_id": "f9397ac64f8501b8fbd82948a0036297", "type": "electric_scooter", "is_reserved": 0, "lon": -77.0459255}, {"fusion_lat": 0.0, "name": "a723221411d8646bb98b63a39cf4d31d", "is_disabled": 0, "rental_uris": {"android": "https://dc.lft.to/lastmile_qr_scan", "ios": "https://dc.lft.to/lastmile_qr_scan"}, "fusion_lon": 0.0, "lat": 38.92699116666667, "bike_id": "a723221411d8646bb98b63a39cf4d31d", "type": "electric_scooter", "is_reserved": 0, "lon": -77.02126766666666}, {"fusion_lat": 0.0, "name": "e7b4e19aaf1aade3aea2b0b9e18e614b", "is_disabled": 0, "rental_uris": {"android": "https://dc.lft.to/lastmile_qr_scan", "ios": "https://dc.lft.to/lastmile_qr_scan"}, "fusion_lon": 0.0, "lat": 38.89309466666667, "bike_id": "e7b4e19aaf1aade3aea2b0b9e18e614b", "type": "electric_scooter", "is_reserved": 0, "lon": -77.055825}, {"fusion_lat": 0.0, "name": "ed5fb28ba3e24a1b11e81cc6d69a78c9", "is_disabled": 0, "rental_uris": {"android": "https://dc.lft.to/lastmile_qr_scan", "ios": "https://dc.lft.to/lastmile_qr_scan"}, "fusion_lon": 0.0, "lat": 38.94978416666667, "bike_id": "ed5fb28ba3e24a1b11e81cc6d69a78c9", "type": "electric_scooter", "is_reserved": 0, "lon": -77.02697083333334}, {"fusion_lat": 0.0, "name": "325c6bf4442fc3aa1ae358b009e3d5f7", "is_disabled": 0, "rental_uris": {"android": "https://dc.lft.to/lastmile_qr_scan", "ios": "https://dc.lft.to/lastmile_qr_scan"}, "fusion_lon": 0.0, "lat": 38.90250316666667, "bike_id": "325c6bf4442fc3aa1ae358b009e3d5f7", "type": "electric_scooter", "is_reserved": 0, "lon": -77.01852133333334}, {"fusion_lat": 0.0, "name": "8209a663d9d8d99dc72274ef15298bef", "is_disabled": 0, "rental_uris": {"android": "https://dc.lft.to/lastmile_qr_scan", "ios": "https://dc.lft.to/lastmile_qr_scan"}, "fusion_lon": 0.0, "lat": 38.92540266666666, "bike_id": "8209a663d9d8d99dc72274ef15298bef", "type": "electric_scooter", "is_reserved": 0, "lon": -77.05121166666666}, {"fusion_lat": 0.0, "name": "db23a620ff3fd01a05305de245630f1a", "is_disabled": 0, "rental_uris": {"android": "https://dc.lft.to/lastmile_qr_scan", "ios": "https://dc.lft.to/lastmile_qr_scan"}, "fusion_lon": 0.0, "lat": 38.91696233333333, "bike_id": "db23a620ff3fd01a05305de245630f1a", "type": "electric_scooter", "is_reserved": 0, "lon": -77.02892366666667}, {"fusion_lat": 0.0, "name": "8dece8419e1429bbce05c861b81a5b8f", "is_disabled": 0, "rental_uris": {"android": "https://dc.lft.to/lastmile_qr_scan", "ios": "https://dc.lft.to/lastmile_qr_scan"}, "fusion_lon": 0.0, "lat": 38.92896616666667, "bike_id": "8dece8419e1429bbce05c861b81a5b8f", "type": "electric_scooter", "is_reserved": 0, "lon": -77.05453116666666}, {"fusion_lat": 0.0, "name": "46adf084805fa1de52022e4c6dc7d966", "is_disabled": 0, "rental_uris": {"android": "https://dc.lft.to/lastmile_qr_scan", "ios": "https://dc.lft.to/lastmile_qr_scan"}, "fusion_lon": 0.0, "lat": 38.8875545, "bike_id": "46adf084805fa1de52022e4c6dc7d966", "type": "electric_scooter", "is_reserved": 0, "lon": -77.0025485}, {"fusion_lat": 0.0, "name": "44e440876844f5996c0a5f295ef458b0", "is_disabled": 0, "rental_uris": {"android": "https://dc.lft.to/lastmile_qr_scan", "ios": "https://dc.lft.to/lastmile_qr_scan"}, "fusion_lon": 0.0, "lat": 38.84131633333333, "bike_id": "44e440876844f5996c0a5f295ef458b0", "type": "electric_bike", "is_reserved": 0, "lon": -76.94759733333333}, {"fusion_lat": 0.0, "name": "f2023e16e579b5c12a1e002b911fc8ba", "is_disabled": 0, "rental_uris": {"android": "https://dc.lft.to/lastmile_qr_scan", "ios": "https://dc.lft.to/lastmile_qr_scan"}, "fusion_lon": 0.0, "lat": 38.92434766666667, "bike_id": "f2023e16e579b5c12a1e002b911fc8ba", "type": "electric_scooter", "is_reserved": 0, "lon": -77.00066066666666}, {"fusion_lat": 0.0, "name": "22eb6b33c43b2e2e6777e86543d6f31b", "is_disabled": 0, "rental_uris": {"android": "https://dc.lft.to/lastmile_qr_scan", "ios": "https://dc.lft.to/lastmile_qr_scan"}, "fusion_lon": 0.0, "lat": 38.931887833333334, "bike_id": "22eb6b33c43b2e2e6777e86543d6f31b", "type": "electric_scooter", "is_reserved": 0, "lon": -77.04297266666667}, {"fusion_lat": 0.0, "name": "93c48d62b0f4e0a0d145794b30b29831", "is_disabled": 0, "rental_uris": {"android": "https://dc.lft.to/lastmile_qr_scan", "ios": "https://dc.lft.to/lastmile_qr_scan"}, "fusion_lon": 0.0, "lat": 38.876316333333335, "bike_id": "93c48d62b0f4e0a0d145794b30b29831", "type": "electric_scooter", "is_reserved": 0, "lon": -77.01652633333333}, {"fusion_lat": 0.0, "name": "3b29e8746e17ac671597b4acf4d74e38", "is_disabled": 0, "rental_uris": {"android": "https://dc.lft.to/lastmile_qr_scan", "ios": "https://dc.lft.to/lastmile_qr_scan"}, "fusion_lon": 0.0, "lat": 38.90571933333333, "bike_id": "3b29e8746e17ac671597b4acf4d74e38", "type": "electric_scooter", "is_reserved": 0, "lon": -77.062495}, {"fusion_lat": 0.0, "name": "803c700ac3d592c2c0dbd9aead7a219f", "is_disabled": 0, "rental_uris": {"android": "https://dc.lft.to/lastmile_qr_scan", "ios": "https://dc.lft.to/lastmile_qr_scan"}, "fusion_lon": 0.0, "lat": 38.887244833333334, "bike_id": "803c700ac3d592c2c0dbd9aead7a219f", "type": "electric_scooter", "is_reserved": 0, "lon": -76.98355516666666}, {"fusion_lat": 0.0, "name": "fbf2685cd2a00ccc4d96d153aad2ea40", "is_disabled": 0, "rental_uris": {"android": "https://dc.lft.to/lastmile_qr_scan", "ios": "https://dc.lft.to/lastmile_qr_scan"}, "fusion_lon": 0.0, "lat": 38.884488833333336, "bike_id": "fbf2685cd2a00ccc4d96d153aad2ea40", "type": "electric_scooter", "is_reserved": 0, "lon": -77.02469266666667}, {"fusion_lat": 0.0, "name": "7643270c290a8a34168a932302ee3c12", "is_disabled": 0, "rental_uris": {"android": "https://dc.lft.to/lastmile_qr_scan", "ios": "https://dc.lft.to/lastmile_qr_scan"}, "fusion_lon": 0.0, "lat": 38.92394433333333, "bike_id": "7643270c290a8a34168a932302ee3c12", "type": "electric_scooter", "is_reserved": 0, "lon": -77.03647166666667}, {"fusion_lat": 0.0, "name": "93d96ba8caa481b5028dd97495d69b32", "is_disabled": 0, "rental_uris": {"android": "https://dc.lft.to/lastmile_qr_scan", "ios": "https://dc.lft.to/lastmile_qr_scan"}, "fusion_lon": 0.0, "lat": 38.83233933333333, "bike_id": "93d96ba8caa481b5028dd97495d69b32", "type": "electric_bike", "is_reserved": 0, "lon": -76.9462035}, {"fusion_lat": 0.0, "name": "f855820e494156f5d1a83a02215d1800", "is_disabled": 0, "rental_uris": {"android": "https://dc.lft.to/lastmile_qr_scan", "ios": "https://dc.lft.to/lastmile_qr_scan"}, "fusion_lon": 0.0, "lat": 38.922549, "bike_id": "f855820e494156f5d1a83a02215d1800", "type": "electric_scooter", "is_reserved": 0, "lon": -77.050819}, {"fusion_lat": 0.0, "name": "63372dfb820ee250551b135e722e7170", "is_disabled": 0, "rental_uris": {"android": "https://dc.lft.to/lastmile_qr_scan", "ios": "https://dc.lft.to/lastmile_qr_scan"}, "fusion_lon": 0.0, "lat": 38.93397083333333, "bike_id": "63372dfb820ee250551b135e722e7170", "type": "electric_scooter", "is_reserved": 0, "lon": -77.02843133333333}, {"fusion_lat": 0.0, "name": "ddf13680118fd496c58357ce9822e34d", "is_disabled": 0, "rental_uris": {"android": "https://dc.lft.to/lastmile_qr_scan", "ios": "https://dc.lft.to/lastmile_qr_scan"}, "fusion_lon": 0.0, "lat": 38.916102, "bike_id": "ddf13680118fd496c58357ce9822e34d", "type": "electric_scooter", "is_reserved": 0, "lon": -77.01728183333333}, {"fusion_lat": 0.0, "name": "ec90de97df11639be91e19d46a14c312", "is_disabled": 0, "rental_uris": {"android": "https://dc.lft.to/lastmile_qr_scan", "ios": "https://dc.lft.to/lastmile_qr_scan"}, "fusion_lon": 0.0, "lat": 38.9043075, "bike_id": "ec90de97df11639be91e19d46a14c312", "type": "electric_scooter", "is_reserved": 0, "lon": -77.02558833333333}, {"fusion_lat": 0.0, "name": "8560ff4ee4ea4433cc269be2d628078e", "is_disabled": 0, "rental_uris": {"android": "https://dc.lft.to/lastmile_qr_scan", "ios": "https://dc.lft.to/lastmile_qr_scan"}, "fusion_lon": 0.0, "lat": 38.89545066666667, "bike_id": "8560ff4ee4ea4433cc269be2d628078e", "type": "electric_scooter", "is_reserved": 0, "lon": -77.01111233333333}, {"fusion_lat": 0.0, "name": "7b8a05e8005be2f104f374d70c7c4cb1", "is_disabled": 0, "rental_uris": {"android": "https://dc.lft.to/lastmile_qr_scan", "ios": "https://dc.lft.to/lastmile_qr_scan"}, "fusion_lon": 0.0, "lat": 38.94086516666667, "bike_id": "7b8a05e8005be2f104f374d70c7c4cb1", "type": "electric_scooter", "is_reserved": 0, "lon": -77.061758}, {"fusion_lat": 0.0, "name": "b8ef4882f730a5c4b96191272c3d97ad", "is_disabled": 0, "rental_uris": {"android": "https://dc.lft.to/lastmile_qr_scan", "ios": "https://dc.lft.to/lastmile_qr_scan"}, "fusion_lon": 0.0, "lat": 38.85768383333333, "bike_id": "b8ef4882f730a5c4b96191272c3d97ad", "type": "electric_bike", "is_reserved": 0, "lon": -76.98763383333333}, {"fusion_lat": 0.0, "name": "6c4e024ba73b052559cb634a26d7e231", "is_disabled": 0, "rental_uris": {"android": "https://dc.lft.to/lastmile_qr_scan", "ios": "https://dc.lft.to/lastmile_qr_scan"}, "fusion_lon": 0.0, "lat": 38.91118983333333, "bike_id": "6c4e024ba73b052559cb634a26d7e231", "type": "electric_scooter", "is_reserved": 0, "lon": -77.03734633333333}, {"fusion_lat": 0.0, "name": "7b8a8dbd34d9446cb741ab1ba3c3265a", "is_disabled": 0, "rental_uris": {"android": "https://dc.lft.to/lastmile_qr_scan", "ios": "https://dc.lft.to/lastmile_qr_scan"}, "fusion_lon": 0.0, "lat": 38.938241166666664, "bike_id": "7b8a8dbd34d9446cb741ab1ba3c3265a", "type": "electric_scooter", "is_reserved": 0, "lon": -77.06153233333333}, {"fusion_lat": 0.0, "name": "869a92a7dc5450e415167e85eb7706ad", "is_disabled": 0, "rental_uris": {"android": "https://dc.lft.to/lastmile_qr_scan", "ios": "https://dc.lft.to/lastmile_qr_scan"}, "fusion_lon": 0.0, "lat": 38.88393933333333, "bike_id": "869a92a7dc5450e415167e85eb7706ad", "type": "electric_scooter", "is_reserved": 0, "lon": -76.93040383333333}, {"fusion_lat": 0.0, "name": "18d4700e14e775d5b21e627a4d42a8ab", "is_disabled": 0, "rental_uris": {"android": "https://dc.lft.to/lastmile_qr_scan", "ios": "https://dc.lft.to/lastmile_qr_scan"}, "fusion_lon": 0.0, "lat": 38.89727466666667, "bike_id": "18d4700e14e775d5b21e627a4d42a8ab", "type": "electric_scooter", "is_reserved": 0, "lon": -77.02728733333333}, {"fusion_lat": 0.0, "name": "f77feca8b640da9029a51c71844143c3", "is_disabled": 0, "rental_uris": {"android": "https://dc.lft.to/lastmile_qr_scan", "ios": "https://dc.lft.to/lastmile_qr_scan"}, "fusion_lon": 0.0, "lat": 38.902143833333334, "bike_id": "f77feca8b640da9029a51c71844143c3", "type": "electric_scooter", "is_reserved": 0, "lon": -76.99502216666667}, {"fusion_lat": 0.0, "name": "ed6bf6bf8b5f5e08b6283670e8232744", "is_disabled": 0, "rental_uris": {"android": "https://dc.lft.to/lastmile_qr_scan", "ios": "https://dc.lft.to/lastmile_qr_scan"}, "fusion_lon": 0.0, "lat": 38.938587166666665, "bike_id": "ed6bf6bf8b5f5e08b6283670e8232744", "type": "electric_scooter", "is_reserved": 0, "lon": -77.024537}, {"fusion_lat": 0.0, "name": "f6a676130f888f1fa175f3a24b1af3d7", "is_disabled": 0, "rental_uris": {"android": "https://dc.lft.to/lastmile_qr_scan", "ios": "https://dc.lft.to/lastmile_qr_scan"}, "fusion_lon": 0.0, "lat": 38.905001166666665, "bike_id": "f6a676130f888f1fa175f3a24b1af3d7", "type": "electric_scooter", "is_reserved": 0, "lon": -76.99678816666666}, {"fusion_lat": 0.0, "name": "69f9380eaa132553665beaea9cc80620", "is_disabled": 0, "rental_uris": {"android": "https://dc.lft.to/lastmile_qr_scan", "ios": "https://dc.lft.to/lastmile_qr_scan"}, "fusion_lon": 0.0, "lat": 38.90235716666667, "bike_id": "69f9380eaa132553665beaea9cc80620", "type": "electric_scooter", "is_reserved": 0, "lon": -77.02301983333334}, {"fusion_lat": 0.0, "name": "ae7087c38972c768f045675f87bfb6d2", "is_disabled": 0, "rental_uris": {"android": "https://dc.lft.to/lastmile_qr_scan", "ios": "https://dc.lft.to/lastmile_qr_scan"}, "fusion_lon": 0.0, "lat": 38.94057566666667, "bike_id": "ae7087c38972c768f045675f87bfb6d2", "type": "electric_bike", "is_reserved": 0, "lon": -76.9946785}, {"fusion_lat": 0.0, "name": "428d46e2df643ee6de4bc4389174f24e", "is_disabled": 0, "rental_uris": {"android": "https://dc.lft.to/lastmile_qr_scan", "ios": "https://dc.lft.to/lastmile_qr_scan"}, "fusion_lon": 0.0, "lat": 38.874701333333334, "bike_id": "428d46e2df643ee6de4bc4389174f24e", "type": "electric_scooter", "is_reserved": 0, "lon": -77.0169985}, {"fusion_lat": 0.0, "name": "8dfaaa38e50bbd16dd0c218e198690e2", "is_disabled": 0, "rental_uris": {"android": "https://dc.lft.to/lastmile_qr_scan", "ios": "https://dc.lft.to/lastmile_qr_scan"}, "fusion_lon": 0.0, "lat": 38.927329, "bike_id": "8dfaaa38e50bbd16dd0c218e198690e2", "type": "electric_scooter", "is_reserved": 0, "lon": -77.02705833333333}, {"fusion_lat": 0.0, "name": "520a8304d875592d675e439304c1518a", "is_disabled": 0, "rental_uris": {"android": "https://dc.lft.to/lastmile_qr_scan", "ios": "https://dc.lft.to/lastmile_qr_scan"}, "fusion_lon": 0.0, "lat": 38.898790166666664, "bike_id": "520a8304d875592d675e439304c1518a", "type": "electric_scooter", "is_reserved": 0, "lon": -77.02614433333333}, {"fusion_lat": 0.0, "name": "17e22b7ca2f13a0d52179f99608b1478", "is_disabled": 0, "rental_uris": {"android": "https://dc.lft.to/lastmile_qr_scan", "ios": "https://dc.lft.to/lastmile_qr_scan"}, "fusion_lon": 0.0, "lat": 38.86515383333333, "bike_id": "17e22b7ca2f13a0d52179f99608b1478", "type": "electric_bike", "is_reserved": 0, "lon": -77.12937383333333}, {"fusion_lat": 0.0, "name": "c6a8d6632267db433f473e5580b2ca03", "is_disabled": 0, "rental_uris": {"android": "https://dc.lft.to/lastmile_qr_scan", "ios": "https://dc.lft.to/lastmile_qr_scan"}, "fusion_lon": 0.0, "lat": 38.93262, "bike_id": "c6a8d6632267db433f473e5580b2ca03", "type": "electric_scooter", "is_reserved": 0, "lon": -77.03847516666667}, {"fusion_lat": 0.0, "name": "61b4c06fd8344cc261f4a0058f5faf0d", "is_disabled": 0, "rental_uris": {"android": "https://dc.lft.to/lastmile_qr_scan", "ios": "https://dc.lft.to/lastmile_qr_scan"}, "fusion_lon": 0.0, "lat": 38.9381745, "bike_id": "61b4c06fd8344cc261f4a0058f5faf0d", "type": "electric_scooter", "is_reserved": 0, "lon": -77.06019233333333}, {"fusion_lat": 0.0, "name": "bf49f02dafa74f529634561d2ba2726f", "is_disabled": 0, "rental_uris": {"android": "https://dc.lft.to/lastmile_qr_scan", "ios": "https://dc.lft.to/lastmile_qr_scan"}, "fusion_lon": 0.0, "lat": 38.922354, "bike_id": "bf49f02dafa74f529634561d2ba2726f", "type": "electric_scooter", "is_reserved": 0, "lon": -77.04249866666666}, {"fusion_lat": 0.0, "name": "35a7e9fdffb7e0683fac9c9be4da8867", "is_disabled": 0, "rental_uris": {"android": "https://dc.lft.to/lastmile_qr_scan", "ios": "https://dc.lft.to/lastmile_qr_scan"}, "fusion_lon": 0.0, "lat": 38.9233535, "bike_id": "35a7e9fdffb7e0683fac9c9be4da8867", "type": "electric_scooter", "is_reserved": 0, "lon": -77.05620483333334}, {"fusion_lat": 0.0, "name": "66506d619348a9db50b0807525db0d96", "is_disabled": 0, "rental_uris": {"android": "https://dc.lft.to/lastmile_qr_scan", "ios": "https://dc.lft.to/lastmile_qr_scan"}, "fusion_lon": 0.0, "lat": 38.930995833333334, "bike_id": "66506d619348a9db50b0807525db0d96", "type": "electric_scooter", "is_reserved": 0, "lon": -77.02542433333333}, {"fusion_lat": 0.0, "name": "cf193a934491c94821eb354039aa7ded", "is_disabled": 0, "rental_uris": {"android": "https://dc.lft.to/lastmile_qr_scan", "ios": "https://dc.lft.to/lastmile_qr_scan"}, "fusion_lon": 0.0, "lat": 38.90787, "bike_id": "cf193a934491c94821eb354039aa7ded", "type": "electric_scooter", "is_reserved": 0, "lon": -77.07430766666667}, {"fusion_lat": 0.0, "name": "7fb99ebaa7204f47576d50f0f42a310c", "is_disabled": 0, "rental_uris": {"android": "https://dc.lft.to/lastmile_qr_scan", "ios": "https://dc.lft.to/lastmile_qr_scan"}, "fusion_lon": 0.0, "lat": 38.91117216666667, "bike_id": "7fb99ebaa7204f47576d50f0f42a310c", "type": "electric_scooter", "is_reserved": 0, "lon": -76.99767533333333}, {"fusion_lat": 0.0, "name": "a6e1dc7514fdc6d68dfaa68fe71d5ce8", "is_disabled": 0, "rental_uris": {"android": "https://dc.lft.to/lastmile_qr_scan", "ios": "https://dc.lft.to/lastmile_qr_scan"}, "fusion_lon": 0.0, "lat": 38.922927333333334, "bike_id": "a6e1dc7514fdc6d68dfaa68fe71d5ce8", "type": "electric_scooter", "is_reserved": 0, "lon": -77.036771}, {"fusion_lat": 0.0, "name": "5ed91ef09def77797d4d0a07996a5871", "is_disabled": 0, "rental_uris": {"android": "https://dc.lft.to/lastmile_qr_scan", "ios": "https://dc.lft.to/lastmile_qr_scan"}, "fusion_lon": 0.0, "lat": 38.91596833333333, "bike_id": "5ed91ef09def77797d4d0a07996a5871", "type": "electric_scooter", "is_reserved": 0, "lon": -77.01115066666667}, {"fusion_lat": 0.0, "name": "7ed16277613a902c009640ce88a3f58e", "is_disabled": 0, "rental_uris": {"android": "https://dc.lft.to/lastmile_qr_scan", "ios": "https://dc.lft.to/lastmile_qr_scan"}, "fusion_lon": 0.0, "lat": 38.884914333333334, "bike_id": "7ed16277613a902c009640ce88a3f58e", "type": "electric_scooter", "is_reserved": 0, "lon": -77.01084083333333}, {"fusion_lat": 0.0, "name": "f3be64b0f708f3cacc6a22f7e3ee2de9", "is_disabled": 0, "rental_uris": {"android": "https://dc.lft.to/lastmile_qr_scan", "ios": "https://dc.lft.to/lastmile_qr_scan"}, "fusion_lon": 0.0, "lat": 38.888494333333334, "bike_id": "f3be64b0f708f3cacc6a22f7e3ee2de9", "type": "electric_scooter", "is_reserved": 0, "lon": -76.926779}, {"fusion_lat": 0.0, "name": "1876edee71c778c7e349b6b2f279bcc0", "is_disabled": 0, "rental_uris": {"android": "https://dc.lft.to/lastmile_qr_scan", "ios": "https://dc.lft.to/lastmile_qr_scan"}, "fusion_lon": 0.0, "lat": 38.921404833333334, "bike_id": "1876edee71c778c7e349b6b2f279bcc0", "type": "electric_scooter", "is_reserved": 0, "lon": -77.04573633333334}, {"fusion_lat": 0.0, "name": "55b64f6ad6a3170292addd7d13221a27", "is_disabled": 0, "rental_uris": {"android": "https://dc.lft.to/lastmile_qr_scan", "ios": "https://dc.lft.to/lastmile_qr_scan"}, "fusion_lon": 0.0, "lat": 38.913295, "bike_id": "55b64f6ad6a3170292addd7d13221a27", "type": "electric_scooter", "is_reserved": 0, "lon": -77.021398}, {"fusion_lat": 0.0, "name": "992a5a97cddd6e6e5e59699409bcc57a", "is_disabled": 0, "rental_uris": {"android": "https://dc.lft.to/lastmile_qr_scan", "ios": "https://dc.lft.to/lastmile_qr_scan"}, "fusion_lon": 0.0, "lat": 38.89732216666667, "bike_id": "992a5a97cddd6e6e5e59699409bcc57a", "type": "electric_scooter", "is_reserved": 0, "lon": -77.0225315}, {"fusion_lat": 0.0, "name": "53de7332e6b1eae1ece6fb673265771a", "is_disabled": 0, "rental_uris": {"android": "https://dc.lft.to/lastmile_qr_scan", "ios": "https://dc.lft.to/lastmile_qr_scan"}, "fusion_lon": 0.0, "lat": 38.896044, "bike_id": "53de7332e6b1eae1ece6fb673265771a", "type": "electric_scooter", "is_reserved": 0, "lon": -77.04973616666666}, {"fusion_lat": 0.0, "name": "85fe4b3c67bf453432f07159bafaccd8", "is_disabled": 0, "rental_uris": {"android": "https://dc.lft.to/lastmile_qr_scan", "ios": "https://dc.lft.to/lastmile_qr_scan"}, "fusion_lon": 0.0, "lat": 38.92485666666666, "bike_id": "85fe4b3c67bf453432f07159bafaccd8", "type": "electric_bike", "is_reserved": 0, "lon": -77.23345366666666}, {"fusion_lat": 0.0, "name": "928457de1d3ecf7c421868f1531ebfbf", "is_disabled": 0, "rental_uris": {"android": "https://dc.lft.to/lastmile_qr_scan", "ios": "https://dc.lft.to/lastmile_qr_scan"}, "fusion_lon": 0.0, "lat": 38.90744333333333, "bike_id": "928457de1d3ecf7c421868f1531ebfbf", "type": "electric_scooter", "is_reserved": 0, "lon": -77.00099933333334}, {"fusion_lat": 0.0, "name": "212c66d14cf65c5e1b24ecb332f029f1", "is_disabled": 0, "rental_uris": {"android": "https://dc.lft.to/lastmile_qr_scan", "ios": "https://dc.lft.to/lastmile_qr_scan"}, "fusion_lon": 0.0, "lat": 38.9045275, "bike_id": "212c66d14cf65c5e1b24ecb332f029f1", "type": "electric_scooter", "is_reserved": 0, "lon": -77.05037966666667}, {"fusion_lat": 0.0, "name": "64306e90679a9e5cfaa274616bfa436a", "is_disabled": 0, "rental_uris": {"android": "https://dc.lft.to/lastmile_qr_scan", "ios": "https://dc.lft.to/lastmile_qr_scan"}, "fusion_lon": 0.0, "lat": 38.90307166666667, "bike_id": "64306e90679a9e5cfaa274616bfa436a", "type": "electric_scooter", "is_reserved": 0, "lon": -76.97502266666666}, {"fusion_lat": 0.0, "name": "62ff4474be3d2d79ffcc6eb4f1ca93e9", "is_disabled": 0, "rental_uris": {"android": "https://dc.lft.to/lastmile_qr_scan", "ios": "https://dc.lft.to/lastmile_qr_scan"}, "fusion_lon": 0.0, "lat": 38.915276, "bike_id": "62ff4474be3d2d79ffcc6eb4f1ca93e9", "type": "electric_scooter", "is_reserved": 0, "lon": -77.07276}, {"fusion_lat": 0.0, "name": "ae7ca2576bbac0cbe267b51005905483", "is_disabled": 0, "rental_uris": {"android": "https://dc.lft.to/lastmile_qr_scan", "ios": "https://dc.lft.to/lastmile_qr_scan"}, "fusion_lon": 0.0, "lat": 38.9051075, "bike_id": "ae7ca2576bbac0cbe267b51005905483", "type": "electric_scooter", "is_reserved": 0, "lon": -77.064334}, {"fusion_lat": 0.0, "name": "a6456eb58900025ba05df7af3c9c357c", "is_disabled": 0, "rental_uris": {"android": "https://dc.lft.to/lastmile_qr_scan", "ios": "https://dc.lft.to/lastmile_qr_scan"}, "fusion_lon": 0.0, "lat": 38.93262033333333, "bike_id": "a6456eb58900025ba05df7af3c9c357c", "type": "electric_scooter", "is_reserved": 0, "lon": -77.01916066666666}, {"fusion_lat": 0.0, "name": "ca90ea779a21bbbcd88e602060cdebc2", "is_disabled": 0, "rental_uris": {"android": "https://dc.lft.to/lastmile_qr_scan", "ios": "https://dc.lft.to/lastmile_qr_scan"}, "fusion_lon": 0.0, "lat": 38.92109216666667, "bike_id": "ca90ea779a21bbbcd88e602060cdebc2", "type": "electric_scooter", "is_reserved": 0, "lon": -77.01789516666666}, {"fusion_lat": 0.0, "name": "c31ddba162033eaf1ae2c5e119a57d96", "is_disabled": 0, "rental_uris": {"android": "https://dc.lft.to/lastmile_qr_scan", "ios": "https://dc.lft.to/lastmile_qr_scan"}, "fusion_lon": 0.0, "lat": 38.896696166666665, "bike_id": "c31ddba162033eaf1ae2c5e119a57d96", "type": "electric_scooter", "is_reserved": 0, "lon": -76.9321185}, {"fusion_lat": 0.0, "name": "31aa3fdbd52e7ca6afd16838002d6676", "is_disabled": 0, "rental_uris": {"android": "https://dc.lft.to/lastmile_qr_scan", "ios": "https://dc.lft.to/lastmile_qr_scan"}, "fusion_lon": 0.0, "lat": 38.9396665, "bike_id": "31aa3fdbd52e7ca6afd16838002d6676", "type": "electric_scooter", "is_reserved": 0, "lon": -77.03279283333333}, {"fusion_lat": 0.0, "name": "e44ada4ab699387b65db001ec6435a1d", "is_disabled": 0, "rental_uris": {"android": "https://dc.lft.to/lastmile_qr_scan", "ios": "https://dc.lft.to/lastmile_qr_scan"}, "fusion_lon": 0.0, "lat": 38.90934683333333, "bike_id": "e44ada4ab699387b65db001ec6435a1d", "type": "electric_scooter", "is_reserved": 0, "lon": -77.0626075}, {"fusion_lat": 0.0, "name": "5d8ac6320c9efc3ddf1eff1412435daa", "is_disabled": 0, "rental_uris": {"android": "https://dc.lft.to/lastmile_qr_scan", "ios": "https://dc.lft.to/lastmile_qr_scan"}, "fusion_lon": 0.0, "lat": 38.93486083333333, "bike_id": "5d8ac6320c9efc3ddf1eff1412435daa", "type": "electric_scooter", "is_reserved": 0, "lon": -77.04531133333333}, {"fusion_lat": 0.0, "name": "a4f7985976c403c6309552c0638f52f3", "is_disabled": 0, "rental_uris": {"android": "https://dc.lft.to/lastmile_qr_scan", "ios": "https://dc.lft.to/lastmile_qr_scan"}, "fusion_lon": 0.0, "lat": 38.9365655, "bike_id": "a4f7985976c403c6309552c0638f52f3", "type": "electric_scooter", "is_reserved": 0, "lon": -77.0365625}, {"fusion_lat": 0.0, "name": "71ab0162884816b0d71588ad9f6b2434", "is_disabled": 0, "rental_uris": {"android": "https://dc.lft.to/lastmile_qr_scan", "ios": "https://dc.lft.to/lastmile_qr_scan"}, "fusion_lon": 0.0, "lat": 38.90975483333333, "bike_id": "71ab0162884816b0d71588ad9f6b2434", "type": "electric_scooter", "is_reserved": 0, "lon": -77.00886466666667}, {"fusion_lat": 0.0, "name": "538cb68e08f4ab9c5754cd4f356be4c9", "is_disabled": 0, "rental_uris": {"android": "https://dc.lft.to/lastmile_qr_scan", "ios": "https://dc.lft.to/lastmile_qr_scan"}, "fusion_lon": 0.0, "lat": 38.927490666666664, "bike_id": "538cb68e08f4ab9c5754cd4f356be4c9", "type": "electric_scooter", "is_reserved": 0, "lon": -77.02537283333334}, {"fusion_lat": 0.0, "name": "8e7a8816a855f4fc999c5267b482c513", "is_disabled": 0, "rental_uris": {"android": "https://dc.lft.to/lastmile_qr_scan", "ios": "https://dc.lft.to/lastmile_qr_scan"}, "fusion_lon": 0.0, "lat": 38.8876905, "bike_id": "8e7a8816a855f4fc999c5267b482c513", "type": "electric_scooter", "is_reserved": 0, "lon": -76.97747583333333}, {"fusion_lat": 0.0, "name": "7aa030c583155878f77ead96e5b4e753", "is_disabled": 0, "rental_uris": {"android": "https://dc.lft.to/lastmile_qr_scan", "ios": "https://dc.lft.to/lastmile_qr_scan"}, "fusion_lon": 0.0, "lat": 38.85462316666667, "bike_id": "7aa030c583155878f77ead96e5b4e753", "type": "electric_scooter", "is_reserved": 0, "lon": -76.97231366666666}, {"fusion_lat": 0.0, "name": "af38e84e99a598578760b1dbaa5e8ffa", "is_disabled": 0, "rental_uris": {"android": "https://dc.lft.to/lastmile_qr_scan", "ios": "https://dc.lft.to/lastmile_qr_scan"}, "fusion_lon": 0.0, "lat": 38.892493333333334, "bike_id": "af38e84e99a598578760b1dbaa5e8ffa", "type": "electric_scooter", "is_reserved": 0, "lon": -77.0334085}, {"fusion_lat": 0.0, "name": "8b92279c75a49051d0a98f2faaea359a", "is_disabled": 0, "rental_uris": {"android": "https://dc.lft.to/lastmile_qr_scan", "ios": "https://dc.lft.to/lastmile_qr_scan"}, "fusion_lon": 0.0, "lat": 38.93630483333333, "bike_id": "8b92279c75a49051d0a98f2faaea359a", "type": "electric_scooter", "is_reserved": 0, "lon": -77.036616}, {"fusion_lat": 0.0, "name": "d22954f0f9f355f56398889e8f6d513c", "is_disabled": 0, "rental_uris": {"android": "https://dc.lft.to/lastmile_qr_scan", "ios": "https://dc.lft.to/lastmile_qr_scan"}, "fusion_lon": 0.0, "lat": 38.9006995, "bike_id": "d22954f0f9f355f56398889e8f6d513c", "type": "electric_scooter", "is_reserved": 0, "lon": -77.02619216666666}, {"fusion_lat": 0.0, "name": "2d7143aae15eeaf06e1bfcb82e7faada", "is_disabled": 0, "rental_uris": {"android": "https://dc.lft.to/lastmile_qr_scan", "ios": "https://dc.lft.to/lastmile_qr_scan"}, "fusion_lon": 0.0, "lat": 38.92727083333333, "bike_id": "2d7143aae15eeaf06e1bfcb82e7faada", "type": "electric_scooter", "is_reserved": 0, "lon": -77.02305766666667}, {"fusion_lat": 0.0, "name": "07b11742e9c4a8e6138c6c2e123d8aaf", "is_disabled": 0, "rental_uris": {"android": "https://dc.lft.to/lastmile_qr_scan", "ios": "https://dc.lft.to/lastmile_qr_scan"}, "fusion_lon": 0.0, "lat": 38.879269, "bike_id": "07b11742e9c4a8e6138c6c2e123d8aaf", "type": "electric_scooter", "is_reserved": 0, "lon": -77.00844266666667}, {"fusion_lat": 0.0, "name": "259919a9b88e4363c5905b7540d3feb6", "is_disabled": 0, "rental_uris": {"android": "https://dc.lft.to/lastmile_qr_scan", "ios": "https://dc.lft.to/lastmile_qr_scan"}, "fusion_lon": 0.0, "lat": 38.89233616666667, "bike_id": "259919a9b88e4363c5905b7540d3feb6", "type": "electric_scooter", "is_reserved": 0, "lon": -77.01713816666667}, {"fusion_lat": 0.0, "name": "701d5fcdd15192d85fe0120ce0f24d95", "is_disabled": 0, "rental_uris": {"android": "https://dc.lft.to/lastmile_qr_scan", "ios": "https://dc.lft.to/lastmile_qr_scan"}, "fusion_lon": 0.0, "lat": 38.921552, "bike_id": "701d5fcdd15192d85fe0120ce0f24d95", "type": "electric_scooter", "is_reserved": 0, "lon": -77.03376016666667}, {"fusion_lat": 0.0, "name": "978ab0c270355f6c5ddcaa8ef221d35a", "is_disabled": 0, "rental_uris": {"android": "https://dc.lft.to/lastmile_qr_scan", "ios": "https://dc.lft.to/lastmile_qr_scan"}, "fusion_lon": 0.0, "lat": 38.92851666666667, "bike_id": "978ab0c270355f6c5ddcaa8ef221d35a", "type": "electric_scooter", "is_reserved": 0, "lon": -77.02437166666667}, {"fusion_lat": 0.0, "name": "f1d80479e2b6d3a9c9687f912bd213fc", "is_disabled": 0, "rental_uris": {"android": "https://dc.lft.to/lastmile_qr_scan", "ios": "https://dc.lft.to/lastmile_qr_scan"}, "fusion_lon": 0.0, "lat": 38.907314666666664, "bike_id": "f1d80479e2b6d3a9c9687f912bd213fc", "type": "electric_scooter", "is_reserved": 0, "lon": -77.00050683333333}, {"fusion_lat": 0.0, "name": "bc7563190e0d9cd1d51218dfd4e53997", "is_disabled": 0, "rental_uris": {"android": "https://dc.lft.to/lastmile_qr_scan", "ios": "https://dc.lft.to/lastmile_qr_scan"}, "fusion_lon": 0.0, "lat": 38.8974, "bike_id": "bc7563190e0d9cd1d51218dfd4e53997", "type": "electric_scooter", "is_reserved": 0, "lon": -77.01960283333334}, {"fusion_lat": 0.0, "name": "0b92f8906423850b42db57674aab2a8a", "is_disabled": 0, "rental_uris": {"android": "https://dc.lft.to/lastmile_qr_scan", "ios": "https://dc.lft.to/lastmile_qr_scan"}, "fusion_lon": 0.0, "lat": 38.9341105, "bike_id": "0b92f8906423850b42db57674aab2a8a", "type": "electric_scooter", "is_reserved": 0, "lon": -77.04274233333334}, {"fusion_lat": 0.0, "name": "a28ea19edaab326e0ba175d9d8480738", "is_disabled": 0, "rental_uris": {"android": "https://dc.lft.to/lastmile_qr_scan", "ios": "https://dc.lft.to/lastmile_qr_scan"}, "fusion_lon": 0.0, "lat": 38.8972905, "bike_id": "a28ea19edaab326e0ba175d9d8480738", "type": "electric_scooter", "is_reserved": 0, "lon": -77.021529}, {"fusion_lat": 0.0, "name": "6e8b8c35f632eb7b90d5867f4d20a96b", "is_disabled": 0, "rental_uris": {"android": "https://dc.lft.to/lastmile_qr_scan", "ios": "https://dc.lft.to/lastmile_qr_scan"}, "fusion_lon": 0.0, "lat": 38.92421083333333, "bike_id": "6e8b8c35f632eb7b90d5867f4d20a96b", "type": "electric_scooter", "is_reserved": 0, "lon": -77.019538}, {"fusion_lat": 0.0, "name": "59e66aafdc461e2eaf1c4e8d66cba24a", "is_disabled": 0, "rental_uris": {"android": "https://dc.lft.to/lastmile_qr_scan", "ios": "https://dc.lft.to/lastmile_qr_scan"}, "fusion_lon": 0.0, "lat": 38.913222166666664, "bike_id": "59e66aafdc461e2eaf1c4e8d66cba24a", "type": "electric_scooter", "is_reserved": 0, "lon": -77.02135016666666}, {"fusion_lat": 0.0, "name": "319d9f71a6941047b454607d9856ef0a", "is_disabled": 0, "rental_uris": {"android": "https://dc.lft.to/lastmile_qr_scan", "ios": "https://dc.lft.to/lastmile_qr_scan"}, "fusion_lon": 0.0, "lat": 38.96204266666667, "bike_id": "319d9f71a6941047b454607d9856ef0a", "type": "electric_bike", "is_reserved": 0, "lon": -77.02778133333334}, {"fusion_lat": 0.0, "name": "c564b89b6224f4be687f860ed466727a", "is_disabled": 0, "rental_uris": {"android": "https://dc.lft.to/lastmile_qr_scan", "ios": "https://dc.lft.to/lastmile_qr_scan"}, "fusion_lon": 0.0, "lat": 38.938803166666666, "bike_id": "c564b89b6224f4be687f860ed466727a", "type": "electric_scooter", "is_reserved": 0, "lon": -77.02462266666667}, {"fusion_lat": 0.0, "name": "8af214b7ec68a1b44bd0e1a26606ced2", "is_disabled": 0, "rental_uris": {"android": "https://dc.lft.to/lastmile_qr_scan", "ios": "https://dc.lft.to/lastmile_qr_scan"}, "fusion_lon": 0.0, "lat": 38.933551, "bike_id": "8af214b7ec68a1b44bd0e1a26606ced2", "type": "electric_scooter", "is_reserved": 0, "lon": -77.02434433333333}, {"fusion_lat": 0.0, "name": "a5bc010927a9ec8e9abb8e03f1dddd9b", "is_disabled": 0, "rental_uris": {"android": "https://dc.lft.to/lastmile_qr_scan", "ios": "https://dc.lft.to/lastmile_qr_scan"}, "fusion_lon": 0.0, "lat": 38.9031775, "bike_id": "a5bc010927a9ec8e9abb8e03f1dddd9b", "type": "electric_scooter", "is_reserved": 0, "lon": -76.981441}, {"fusion_lat": 0.0, "name": "553be35d73760a393449223a9a781995", "is_disabled": 0, "rental_uris": {"android": "https://dc.lft.to/lastmile_qr_scan", "ios": "https://dc.lft.to/lastmile_qr_scan"}, "fusion_lon": 0.0, "lat": 38.9156735, "bike_id": "553be35d73760a393449223a9a781995", "type": "electric_scooter", "is_reserved": 0, "lon": -77.03165366666667}, {"fusion_lat": 0.0, "name": "5b4e0a8052a0eb61a2ceaa0bbb5669a3", "is_disabled": 0, "rental_uris": {"android": "https://dc.lft.to/lastmile_qr_scan", "ios": "https://dc.lft.to/lastmile_qr_scan"}, "fusion_lon": 0.0, "lat": 38.879654, "bike_id": "5b4e0a8052a0eb61a2ceaa0bbb5669a3", "type": "electric_bike", "is_reserved": 0, "lon": -76.91613083333333}, {"fusion_lat": 0.0, "name": "e8611e89758d8fdf603dc5d782ae6752", "is_disabled": 0, "rental_uris": {"android": "https://dc.lft.to/lastmile_qr_scan", "ios": "https://dc.lft.to/lastmile_qr_scan"}, "fusion_lon": 0.0, "lat": 38.916001, "bike_id": "e8611e89758d8fdf603dc5d782ae6752", "type": "electric_scooter", "is_reserved": 0, "lon": -77.04907466666667}, {"fusion_lat": 0.0, "name": "00308e6655e4a372238dc345f08afbf0", "is_disabled": 0, "rental_uris": {"android": "https://dc.lft.to/lastmile_qr_scan", "ios": "https://dc.lft.to/lastmile_qr_scan"}, "fusion_lon": 0.0, "lat": 38.907199, "bike_id": "00308e6655e4a372238dc345f08afbf0", "type": "electric_scooter", "is_reserved": 0, "lon": -77.02980333333333}, {"fusion_lat": 0.0, "name": "eca0f3f58563eb8d3a81b6c495ba8693", "is_disabled": 0, "rental_uris": {"android": "https://dc.lft.to/lastmile_qr_scan", "ios": "https://dc.lft.to/lastmile_qr_scan"}, "fusion_lon": 0.0, "lat": 38.920098333333335, "bike_id": "eca0f3f58563eb8d3a81b6c495ba8693", "type": "electric_scooter", "is_reserved": 0, "lon": -77.07126066666666}, {"fusion_lat": 0.0, "name": "4afedb3bd030bdb4b1298f6fb8c6328c", "is_disabled": 0, "rental_uris": {"android": "https://dc.lft.to/lastmile_qr_scan", "ios": "https://dc.lft.to/lastmile_qr_scan"}, "fusion_lon": 0.0, "lat": 38.926201, "bike_id": "4afedb3bd030bdb4b1298f6fb8c6328c", "type": "electric_scooter", "is_reserved": 0, "lon": -77.04321183333333}, {"fusion_lat": 0.0, "name": "ee89ff15aa3234ca90ce8d30e60741cb", "is_disabled": 0, "rental_uris": {"android": "https://dc.lft.to/lastmile_qr_scan", "ios": "https://dc.lft.to/lastmile_qr_scan"}, "fusion_lon": 0.0, "lat": 38.931143166666665, "bike_id": "ee89ff15aa3234ca90ce8d30e60741cb", "type": "electric_scooter", "is_reserved": 0, "lon": -77.02094366666667}, {"fusion_lat": 0.0, "name": "f005ceeb5210767c5817cb55f3fb4169", "is_disabled": 0, "rental_uris": {"android": "https://dc.lft.to/lastmile_qr_scan", "ios": "https://dc.lft.to/lastmile_qr_scan"}, "fusion_lon": 0.0, "lat": 38.9666665, "bike_id": "f005ceeb5210767c5817cb55f3fb4169", "type": "electric_bike", "is_reserved": 0, "lon": -76.97446783333334}, {"fusion_lat": 0.0, "name": "bc6f73e77f687cf0ca644cde724deb75", "is_disabled": 0, "rental_uris": {"android": "https://dc.lft.to/lastmile_qr_scan", "ios": "https://dc.lft.to/lastmile_qr_scan"}, "fusion_lon": 0.0, "lat": 38.900265833333336, "bike_id": "bc6f73e77f687cf0ca644cde724deb75", "type": "electric_scooter", "is_reserved": 0, "lon": -77.00032116666667}, {"fusion_lat": 0.0, "name": "5a2818fd8da81cf3f168d59337dee7c8", "is_disabled": 0, "rental_uris": {"android": "https://dc.lft.to/lastmile_qr_scan", "ios": "https://dc.lft.to/lastmile_qr_scan"}, "fusion_lon": 0.0, "lat": 38.84087366666667, "bike_id": "5a2818fd8da81cf3f168d59337dee7c8", "type": "electric_bike", "is_reserved": 0, "lon": -76.970288}, {"fusion_lat": 0.0, "name": "81d3d3b8b0df2a9ace334e5e2c636249", "is_disabled": 0, "rental_uris": {"android": "https://dc.lft.to/lastmile_qr_scan", "ios": "https://dc.lft.to/lastmile_qr_scan"}, "fusion_lon": 0.0, "lat": 38.9384365, "bike_id": "81d3d3b8b0df2a9ace334e5e2c636249", "type": "electric_scooter", "is_reserved": 0, "lon": -77.062444}, {"fusion_lat": 0.0, "name": "fca56150a22329a9f53bbd1a37aa47ab", "is_disabled": 0, "rental_uris": {"android": "https://dc.lft.to/lastmile_qr_scan", "ios": "https://dc.lft.to/lastmile_qr_scan"}, "fusion_lon": 0.0, "lat": 38.929813333333335, "bike_id": "fca56150a22329a9f53bbd1a37aa47ab", "type": "electric_scooter", "is_reserved": 0, "lon": -77.03229866666666}, {"fusion_lat": 0.0, "name": "273e42e52f20c0be961b42d6c01753de", "is_disabled": 0, "rental_uris": {"android": "https://dc.lft.to/lastmile_qr_scan", "ios": "https://dc.lft.to/lastmile_qr_scan"}, "fusion_lon": 0.0, "lat": 38.890391666666666, "bike_id": "273e42e52f20c0be961b42d6c01753de", "type": "electric_bike", "is_reserved": 0, "lon": -77.08642283333333}, {"fusion_lat": 0.0, "name": "9a1f5449efd7fdfb5b48a4b828b74683", "is_disabled": 0, "rental_uris": {"android": "https://dc.lft.to/lastmile_qr_scan", "ios": "https://dc.lft.to/lastmile_qr_scan"}, "fusion_lon": 0.0, "lat": 38.93098633333334, "bike_id": "9a1f5449efd7fdfb5b48a4b828b74683", "type": "electric_scooter", "is_reserved": 0, "lon": -77.02663333333334}, {"fusion_lat": 0.0, "name": "ad3c29b66297d47b47aef0707474f5b2", "is_disabled": 0, "rental_uris": {"android": "https://dc.lft.to/lastmile_qr_scan", "ios": "https://dc.lft.to/lastmile_qr_scan"}, "fusion_lon": 0.0, "lat": 38.94836316666667, "bike_id": "ad3c29b66297d47b47aef0707474f5b2", "type": "electric_scooter", "is_reserved": 0, "lon": -77.02569166666666}, {"fusion_lat": 0.0, "name": "3c08d9ea14dea303eb9fbb84ca04c9d4", "is_disabled": 0, "rental_uris": {"android": "https://dc.lft.to/lastmile_qr_scan", "ios": "https://dc.lft.to/lastmile_qr_scan"}, "fusion_lon": 0.0, "lat": 38.904117666666664, "bike_id": "3c08d9ea14dea303eb9fbb84ca04c9d4", "type": "electric_scooter", "is_reserved": 0, "lon": -77.0318075}, {"fusion_lat": 0.0, "name": "d3bbcd22de58a9307a50ad58aab3ad8a", "is_disabled": 0, "rental_uris": {"android": "https://dc.lft.to/lastmile_qr_scan", "ios": "https://dc.lft.to/lastmile_qr_scan"}, "fusion_lon": 0.0, "lat": 38.93189366666667, "bike_id": "d3bbcd22de58a9307a50ad58aab3ad8a", "type": "electric_scooter", "is_reserved": 0, "lon": -77.04296733333334}, {"fusion_lat": 0.0, "name": "5520ded9d207e2759eb9ca70ecf37cb4", "is_disabled": 0, "rental_uris": {"android": "https://dc.lft.to/lastmile_qr_scan", "ios": "https://dc.lft.to/lastmile_qr_scan"}, "fusion_lon": 0.0, "lat": 38.9110425, "bike_id": "5520ded9d207e2759eb9ca70ecf37cb4", "type": "electric_scooter", "is_reserved": 0, "lon": -77.01146333333334}, {"fusion_lat": 0.0, "name": "d905f7a07b3241da55c89d8d73998c82", "is_disabled": 0, "rental_uris": {"android": "https://dc.lft.to/lastmile_qr_scan", "ios": "https://dc.lft.to/lastmile_qr_scan"}, "fusion_lon": 0.0, "lat": 38.957114833333335, "bike_id": "d905f7a07b3241da55c89d8d73998c82", "type": "electric_scooter", "is_reserved": 0, "lon": -77.02394383333333}, {"fusion_lat": 0.0, "name": "9b01a2d0f1db1ca24f3f530e5c6d5db0", "is_disabled": 0, "rental_uris": {"android": "https://dc.lft.to/lastmile_qr_scan", "ios": "https://dc.lft.to/lastmile_qr_scan"}, "fusion_lon": 0.0, "lat": 38.92067516666667, "bike_id": "9b01a2d0f1db1ca24f3f530e5c6d5db0", "type": "electric_scooter", "is_reserved": 0, "lon": -77.03206416666667}, {"fusion_lat": 0.0, "name": "574face1df5904a2d2994dcded14c7e9", "is_disabled": 0, "rental_uris": {"android": "https://dc.lft.to/lastmile_qr_scan", "ios": "https://dc.lft.to/lastmile_qr_scan"}, "fusion_lon": 0.0, "lat": 38.884598, "bike_id": "574face1df5904a2d2994dcded14c7e9", "type": "electric_scooter", "is_reserved": 0, "lon": -76.99824883333334}, {"fusion_lat": 0.0, "name": "05505353e55c4e4706b322647f6de440", "is_disabled": 0, "rental_uris": {"android": "https://dc.lft.to/lastmile_qr_scan", "ios": "https://dc.lft.to/lastmile_qr_scan"}, "fusion_lon": 0.0, "lat": 38.92996433333333, "bike_id": "05505353e55c4e4706b322647f6de440", "type": "electric_scooter", "is_reserved": 0, "lon": -77.03231633333333}, {"fusion_lat": 0.0, "name": "c65a8e5a0bb9cc5fb3570e813adda282", "is_disabled": 0, "rental_uris": {"android": "https://dc.lft.to/lastmile_qr_scan", "ios": "https://dc.lft.to/lastmile_qr_scan"}, "fusion_lon": 0.0, "lat": 38.88474316666667, "bike_id": "c65a8e5a0bb9cc5fb3570e813adda282", "type": "electric_scooter", "is_reserved": 0, "lon": -76.929724}, {"fusion_lat": 0.0, "name": "fdbd8d34af28a7c59131dbe3faefa62d", "is_disabled": 0, "rental_uris": {"android": "https://dc.lft.to/lastmile_qr_scan", "ios": "https://dc.lft.to/lastmile_qr_scan"}, "fusion_lon": 0.0, "lat": 38.9470425, "bike_id": "fdbd8d34af28a7c59131dbe3faefa62d", "type": "electric_scooter", "is_reserved": 0, "lon": -77.019401}, {"fusion_lat": 0.0, "name": "06d5ad2c9059a753813eb66a62219791", "is_disabled": 0, "rental_uris": {"android": "https://dc.lft.to/lastmile_qr_scan", "ios": "https://dc.lft.to/lastmile_qr_scan"}, "fusion_lon": 0.0, "lat": 38.924435, "bike_id": "06d5ad2c9059a753813eb66a62219791", "type": "electric_scooter", "is_reserved": 0, "lon": -77.03354833333333}, {"fusion_lat": 0.0, "name": "f1b7dce6a632d04eb1c18710f7c4a489", "is_disabled": 0, "rental_uris": {"android": "https://dc.lft.to/lastmile_qr_scan", "ios": "https://dc.lft.to/lastmile_qr_scan"}, "fusion_lon": 0.0, "lat": 38.9357965, "bike_id": "f1b7dce6a632d04eb1c18710f7c4a489", "type": "electric_scooter", "is_reserved": 0, "lon": -77.0235785}, {"fusion_lat": 0.0, "name": "b9a2315f98f07d7122246731216ecdd4", "is_disabled": 0, "rental_uris": {"android": "https://dc.lft.to/lastmile_qr_scan", "ios": "https://dc.lft.to/lastmile_qr_scan"}, "fusion_lon": 0.0, "lat": 38.946743166666664, "bike_id": "b9a2315f98f07d7122246731216ecdd4", "type": "electric_scooter", "is_reserved": 0, "lon": -77.030909}, {"fusion_lat": 0.0, "name": "b2cab98da41c839ea117b8e3a11627bb", "is_disabled": 0, "rental_uris": {"android": "https://dc.lft.to/lastmile_qr_scan", "ios": "https://dc.lft.to/lastmile_qr_scan"}, "fusion_lon": 0.0, "lat": 38.903930333333335, "bike_id": "b2cab98da41c839ea117b8e3a11627bb", "type": "electric_scooter", "is_reserved": 0, "lon": -77.0499845}, {"fusion_lat": 0.0, "name": "a09185c8773e3e4805176dd4416a238b", "is_disabled": 0, "rental_uris": {"android": "https://dc.lft.to/lastmile_qr_scan", "ios": "https://dc.lft.to/lastmile_qr_scan"}, "fusion_lon": 0.0, "lat": 38.939307666666664, "bike_id": "a09185c8773e3e4805176dd4416a238b", "type": "electric_scooter", "is_reserved": 0, "lon": -77.07477583333333}, {"fusion_lat": 0.0, "name": "d7ad7e0c52a4ff14e9bc76577d681709", "is_disabled": 0, "rental_uris": {"android": "https://dc.lft.to/lastmile_qr_scan", "ios": "https://dc.lft.to/lastmile_qr_scan"}, "fusion_lon": 0.0, "lat": 38.802946666666664, "bike_id": "d7ad7e0c52a4ff14e9bc76577d681709", "type": "electric_bike", "is_reserved": 0, "lon": -77.05938266666666}, {"fusion_lat": 0.0, "name": "8311eb7ef66114a7f1bf1072f5bd3450", "is_disabled": 0, "rental_uris": {"android": "https://dc.lft.to/lastmile_qr_scan", "ios": "https://dc.lft.to/lastmile_qr_scan"}, "fusion_lon": 0.0, "lat": 38.96128016666667, "bike_id": "8311eb7ef66114a7f1bf1072f5bd3450", "type": "electric_bike", "is_reserved": 0, "lon": -77.03270316666666}, {"fusion_lat": 0.0, "name": "12498d2fa351ed8d1a86f3120cc713e8", "is_disabled": 0, "rental_uris": {"android": "https://dc.lft.to/lastmile_qr_scan", "ios": "https://dc.lft.to/lastmile_qr_scan"}, "fusion_lon": 0.0, "lat": 38.89684366666667, "bike_id": "12498d2fa351ed8d1a86f3120cc713e8", "type": "electric_scooter", "is_reserved": 0, "lon": -76.93713}, {"fusion_lat": 0.0, "name": "0d222ee2346907170bb2cac7f4a4f438", "is_disabled": 0, "rental_uris": {"android": "https://dc.lft.to/lastmile_qr_scan", "ios": "https://dc.lft.to/lastmile_qr_scan"}, "fusion_lon": 0.0, "lat": 38.927366, "bike_id": "0d222ee2346907170bb2cac7f4a4f438", "type": "electric_scooter", "is_reserved": 0, "lon": -77.0420885}, {"fusion_lat": 0.0, "name": "6da0854b9d8df1205ca02c142691a7c9", "is_disabled": 0, "rental_uris": {"android": "https://dc.lft.to/lastmile_qr_scan", "ios": "https://dc.lft.to/lastmile_qr_scan"}, "fusion_lon": 0.0, "lat": 38.904259333333336, "bike_id": "6da0854b9d8df1205ca02c142691a7c9", "type": "electric_scooter", "is_reserved": 0, "lon": -77.043194}, {"fusion_lat": 0.0, "name": "35c9a0e3f27c72160f7e76b315db46ba", "is_disabled": 0, "rental_uris": {"android": "https://dc.lft.to/lastmile_qr_scan", "ios": "https://dc.lft.to/lastmile_qr_scan"}, "fusion_lon": 0.0, "lat": 38.927097333333336, "bike_id": "35c9a0e3f27c72160f7e76b315db46ba", "type": "electric_scooter", "is_reserved": 0, "lon": -77.03761216666666}, {"fusion_lat": 0.0, "name": "d41d92abfbda2a00e8f5091b8542eba4", "is_disabled": 0, "rental_uris": {"android": "https://dc.lft.to/lastmile_qr_scan", "ios": "https://dc.lft.to/lastmile_qr_scan"}, "fusion_lon": 0.0, "lat": 38.906151333333334, "bike_id": "d41d92abfbda2a00e8f5091b8542eba4", "type": "electric_scooter", "is_reserved": 0, "lon": -77.02407083333334}, {"fusion_lat": 0.0, "name": "2899d065e7a43aab85c7c603480da220", "is_disabled": 0, "rental_uris": {"android": "https://dc.lft.to/lastmile_qr_scan", "ios": "https://dc.lft.to/lastmile_qr_scan"}, "fusion_lon": 0.0, "lat": 38.90617966666667, "bike_id": "2899d065e7a43aab85c7c603480da220", "type": "electric_scooter", "is_reserved": 0, "lon": -77.00917983333333}, {"fusion_lat": 0.0, "name": "2cf8626a4b089dfa09c67eb6c2a757b5", "is_disabled": 0, "rental_uris": {"android": "https://dc.lft.to/lastmile_qr_scan", "ios": "https://dc.lft.to/lastmile_qr_scan"}, "fusion_lon": 0.0, "lat": 38.884553, "bike_id": "2cf8626a4b089dfa09c67eb6c2a757b5", "type": "electric_scooter", "is_reserved": 0, "lon": -76.9984085}, {"fusion_lat": 0.0, "name": "1bce80345d72ac244df1d4756bc04587", "is_disabled": 0, "rental_uris": {"android": "https://dc.lft.to/lastmile_qr_scan", "ios": "https://dc.lft.to/lastmile_qr_scan"}, "fusion_lon": 0.0, "lat": 38.9234185, "bike_id": "1bce80345d72ac244df1d4756bc04587", "type": "electric_scooter", "is_reserved": 0, "lon": -77.05624683333333}, {"fusion_lat": 0.0, "name": "f22983f4980bd0f2299c79a8dceaa2e0", "is_disabled": 0, "rental_uris": {"android": "https://dc.lft.to/lastmile_qr_scan", "ios": "https://dc.lft.to/lastmile_qr_scan"}, "fusion_lon": 0.0, "lat": 38.9002895, "bike_id": "f22983f4980bd0f2299c79a8dceaa2e0", "type": "electric_scooter", "is_reserved": 0, "lon": -77.01200633333333}, {"fusion_lat": 0.0, "name": "e191502945f93812ccdec317962e6038", "is_disabled": 0, "rental_uris": {"android": "https://dc.lft.to/lastmile_qr_scan", "ios": "https://dc.lft.to/lastmile_qr_scan"}, "fusion_lon": 0.0, "lat": 38.922512833333336, "bike_id": "e191502945f93812ccdec317962e6038", "type": "electric_scooter", "is_reserved": 0, "lon": -77.03384266666667}, {"fusion_lat": 0.0, "name": "c0d134b9f73d455f433657eefe3962fa", "is_disabled": 0, "rental_uris": {"android": "https://dc.lft.to/lastmile_qr_scan", "ios": "https://dc.lft.to/lastmile_qr_scan"}, "fusion_lon": 0.0, "lat": 38.899955, "bike_id": "c0d134b9f73d455f433657eefe3962fa", "type": "electric_scooter", "is_reserved": 0, "lon": -77.02501983333333}, {"fusion_lat": 0.0, "name": "a8c7b7729103c9fb12449a7fecb5e892", "is_disabled": 0, "rental_uris": {"android": "https://dc.lft.to/lastmile_qr_scan", "ios": "https://dc.lft.to/lastmile_qr_scan"}, "fusion_lon": 0.0, "lat": 38.90581366666667, "bike_id": "a8c7b7729103c9fb12449a7fecb5e892", "type": "electric_scooter", "is_reserved": 0, "lon": -77.00885816666667}, {"fusion_lat": 0.0, "name": "01c383f95dda98d04834feef29298434", "is_disabled": 0, "rental_uris": {"android": "https://dc.lft.to/lastmile_qr_scan", "ios": "https://dc.lft.to/lastmile_qr_scan"}, "fusion_lon": 0.0, "lat": 38.904089666666664, "bike_id": "01c383f95dda98d04834feef29298434", "type": "electric_scooter", "is_reserved": 0, "lon": -76.97328566666667}, {"fusion_lat": 0.0, "name": "34b12cae7f701005edaf7a3d68988d9c", "is_disabled": 0, "rental_uris": {"android": "https://dc.lft.to/lastmile_qr_scan", "ios": "https://dc.lft.to/lastmile_qr_scan"}, "fusion_lon": 0.0, "lat": 38.897562, "bike_id": "34b12cae7f701005edaf7a3d68988d9c", "type": "electric_scooter", "is_reserved": 0, "lon": -77.05155433333333}, {"fusion_lat": 0.0, "name": "438ebbf26d514a8893c17d0a7b2d0b53", "is_disabled": 0, "rental_uris": {"android": "https://dc.lft.to/lastmile_qr_scan", "ios": "https://dc.lft.to/lastmile_qr_scan"}, "fusion_lon": 0.0, "lat": 38.897396666666666, "bike_id": "438ebbf26d514a8893c17d0a7b2d0b53", "type": "electric_scooter", "is_reserved": 0, "lon": -77.0455495}, {"fusion_lat": 0.0, "name": "9458f2ad5cd8bcbaa43941a47679382f", "is_disabled": 0, "rental_uris": {"android": "https://dc.lft.to/lastmile_qr_scan", "ios": "https://dc.lft.to/lastmile_qr_scan"}, "fusion_lon": 0.0, "lat": 38.88442716666667, "bike_id": "9458f2ad5cd8bcbaa43941a47679382f", "type": "electric_scooter", "is_reserved": 0, "lon": -77.003452}, {"fusion_lat": 0.0, "name": "2636ab9db4881bc9ddaff32a9ff2ae77", "is_disabled": 0, "rental_uris": {"android": "https://dc.lft.to/lastmile_qr_scan", "ios": "https://dc.lft.to/lastmile_qr_scan"}, "fusion_lon": 0.0, "lat": 38.83405666666667, "bike_id": "2636ab9db4881bc9ddaff32a9ff2ae77", "type": "electric_bike", "is_reserved": 0, "lon": -77.00335133333333}, {"fusion_lat": 0.0, "name": "24b207eaf9f60f20828164da194b1a54", "is_disabled": 0, "rental_uris": {"android": "https://dc.lft.to/lastmile_qr_scan", "ios": "https://dc.lft.to/lastmile_qr_scan"}, "fusion_lon": 0.0, "lat": 38.915578833333335, "bike_id": "24b207eaf9f60f20828164da194b1a54", "type": "electric_scooter", "is_reserved": 0, "lon": -77.03817033333333}, {"fusion_lat": 0.0, "name": "3c01462230d57fb3e4a4c6f71e1ccc47", "is_disabled": 0, "rental_uris": {"android": "https://dc.lft.to/lastmile_qr_scan", "ios": "https://dc.lft.to/lastmile_qr_scan"}, "fusion_lon": 0.0, "lat": 38.87764166666667, "bike_id": "3c01462230d57fb3e4a4c6f71e1ccc47", "type": "electric_scooter", "is_reserved": 0, "lon": -76.99385033333333}, {"fusion_lat": 0.0, "name": "716df7b5ba723ad9cbac8777e3dbe0c7", "is_disabled": 0, "rental_uris": {"android": "https://dc.lft.to/lastmile_qr_scan", "ios": "https://dc.lft.to/lastmile_qr_scan"}, "fusion_lon": 0.0, "lat": 38.935730166666666, "bike_id": "716df7b5ba723ad9cbac8777e3dbe0c7", "type": "electric_scooter", "is_reserved": 0, "lon": -77.0192375}, {"fusion_lat": 0.0, "name": "d366c62494cd6d4f58333942e14f8f8e", "is_disabled": 0, "rental_uris": {"android": "https://dc.lft.to/lastmile_qr_scan", "ios": "https://dc.lft.to/lastmile_qr_scan"}, "fusion_lon": 0.0, "lat": 38.915015333333336, "bike_id": "d366c62494cd6d4f58333942e14f8f8e", "type": "electric_scooter", "is_reserved": 0, "lon": -76.98366583333333}, {"fusion_lat": 0.0, "name": "5bf0989f58ee464a7d57c437e4662012", "is_disabled": 0, "rental_uris": {"android": "https://dc.lft.to/lastmile_qr_scan", "ios": "https://dc.lft.to/lastmile_qr_scan"}, "fusion_lon": 0.0, "lat": 38.9340315, "bike_id": "5bf0989f58ee464a7d57c437e4662012", "type": "electric_scooter", "is_reserved": 0, "lon": -77.0574325}, {"fusion_lat": 0.0, "name": "e99d073875a480a609da9a1bf624e042", "is_disabled": 0, "rental_uris": {"android": "https://dc.lft.to/lastmile_qr_scan", "ios": "https://dc.lft.to/lastmile_qr_scan"}, "fusion_lon": 0.0, "lat": 38.90557616666667, "bike_id": "e99d073875a480a609da9a1bf624e042", "type": "electric_scooter", "is_reserved": 0, "lon": -76.9979225}, {"fusion_lat": 0.0, "name": "babae5e2eecbb16e2a281fc746621b78", "is_disabled": 0, "rental_uris": {"android": "https://dc.lft.to/lastmile_qr_scan", "ios": "https://dc.lft.to/lastmile_qr_scan"}, "fusion_lon": 0.0, "lat": 38.90789183333333, "bike_id": "babae5e2eecbb16e2a281fc746621b78", "type": "electric_scooter", "is_reserved": 0, "lon": -76.9942275}, {"fusion_lat": 0.0, "name": "674ea80552f59d6a883b5ea686ecd269", "is_disabled": 0, "rental_uris": {"android": "https://dc.lft.to/lastmile_qr_scan", "ios": "https://dc.lft.to/lastmile_qr_scan"}, "fusion_lon": 0.0, "lat": 38.90562533333333, "bike_id": "674ea80552f59d6a883b5ea686ecd269", "type": "electric_scooter", "is_reserved": 0, "lon": -76.98197666666667}, {"fusion_lat": 0.0, "name": "3f6bd78d8b756508bb032b8b8c03ad1f", "is_disabled": 0, "rental_uris": {"android": "https://dc.lft.to/lastmile_qr_scan", "ios": "https://dc.lft.to/lastmile_qr_scan"}, "fusion_lon": 0.0, "lat": 38.8882395, "bike_id": "3f6bd78d8b756508bb032b8b8c03ad1f", "type": "electric_scooter", "is_reserved": 0, "lon": -76.9866375}, {"fusion_lat": 0.0, "name": "a1447aec241f997420d8086674671c41", "is_disabled": 0, "rental_uris": {"android": "https://dc.lft.to/lastmile_qr_scan", "ios": "https://dc.lft.to/lastmile_qr_scan"}, "fusion_lon": 0.0, "lat": 38.90550616666667, "bike_id": "a1447aec241f997420d8086674671c41", "type": "electric_scooter", "is_reserved": 0, "lon": -77.06513816666667}, {"fusion_lat": 0.0, "name": "d8d5f79d82fcd8f5c3e3c87dc9b2d0a3", "is_disabled": 0, "rental_uris": {"android": "https://dc.lft.to/lastmile_qr_scan", "ios": "https://dc.lft.to/lastmile_qr_scan"}, "fusion_lon": 0.0, "lat": 38.922545, "bike_id": "d8d5f79d82fcd8f5c3e3c87dc9b2d0a3", "type": "electric_scooter", "is_reserved": 0, "lon": -77.07451516666667}, {"fusion_lat": 0.0, "name": "b97bbe11a688ee4ceeb012b96dd1c92e", "is_disabled": 0, "rental_uris": {"android": "https://dc.lft.to/lastmile_qr_scan", "ios": "https://dc.lft.to/lastmile_qr_scan"}, "fusion_lon": 0.0, "lat": 38.900907, "bike_id": "b97bbe11a688ee4ceeb012b96dd1c92e", "type": "electric_scooter", "is_reserved": 0, "lon": -76.9833235}, {"fusion_lat": 0.0, "name": "e9d362e262594bacd4fc0cf3c18a021d", "is_disabled": 0, "rental_uris": {"android": "https://dc.lft.to/lastmile_qr_scan", "ios": "https://dc.lft.to/lastmile_qr_scan"}, "fusion_lon": 0.0, "lat": 38.92894616666667, "bike_id": "e9d362e262594bacd4fc0cf3c18a021d", "type": "electric_bike", "is_reserved": 0, "lon": -77.23178333333334}, {"fusion_lat": 0.0, "name": "1c1d5bcdee14011bad05fc88e3168ef2", "is_disabled": 0, "rental_uris": {"android": "https://dc.lft.to/lastmile_qr_scan", "ios": "https://dc.lft.to/lastmile_qr_scan"}, "fusion_lon": 0.0, "lat": 38.910345666666664, "bike_id": "1c1d5bcdee14011bad05fc88e3168ef2", "type": "electric_scooter", "is_reserved": 0, "lon": -77.008301}, {"fusion_lat": 0.0, "name": "3431bdb3919b1d369e7dd9b7918379fc", "is_disabled": 0, "rental_uris": {"android": "https://dc.lft.to/lastmile_qr_scan", "ios": "https://dc.lft.to/lastmile_qr_scan"}, "fusion_lon": 0.0, "lat": 38.952919, "bike_id": "3431bdb3919b1d369e7dd9b7918379fc", "type": "electric_scooter", "is_reserved": 0, "lon": -77.06879283333333}, {"fusion_lat": 0.0, "name": "838e34a281ae6e4ba8078645dd18eabf", "is_disabled": 0, "rental_uris": {"android": "https://dc.lft.to/lastmile_qr_scan", "ios": "https://dc.lft.to/lastmile_qr_scan"}, "fusion_lon": 0.0, "lat": 38.925377833333336, "bike_id": "838e34a281ae6e4ba8078645dd18eabf", "type": "electric_scooter", "is_reserved": 0, "lon": -77.03828233333333}, {"fusion_lat": 0.0, "name": "0b33fd502d4b2efba459af5cc001c6ba", "is_disabled": 0, "rental_uris": {"android": "https://dc.lft.to/lastmile_qr_scan", "ios": "https://dc.lft.to/lastmile_qr_scan"}, "fusion_lon": 0.0, "lat": 38.938714833333336, "bike_id": "0b33fd502d4b2efba459af5cc001c6ba", "type": "electric_scooter", "is_reserved": 0, "lon": -77.02472316666666}, {"fusion_lat": 0.0, "name": "e0bf82485993b55720f50c9228204dca", "is_disabled": 0, "rental_uris": {"android": "https://dc.lft.to/lastmile_qr_scan", "ios": "https://dc.lft.to/lastmile_qr_scan"}, "fusion_lon": 0.0, "lat": 38.89793616666667, "bike_id": "e0bf82485993b55720f50c9228204dca", "type": "electric_scooter", "is_reserved": 0, "lon": -77.01192933333333}, {"fusion_lat": 0.0, "name": "53b59f31a5e955994dfa7da45f2492a3", "is_disabled": 0, "rental_uris": {"android": "https://dc.lft.to/lastmile_qr_scan", "ios": "https://dc.lft.to/lastmile_qr_scan"}, "fusion_lon": 0.0, "lat": 38.928668, "bike_id": "53b59f31a5e955994dfa7da45f2492a3", "type": "electric_scooter", "is_reserved": 0, "lon": -77.05647616666667}, {"fusion_lat": 0.0, "name": "6c4341ef581ebb7ab969c07a55811ad1", "is_disabled": 0, "rental_uris": {"android": "https://dc.lft.to/lastmile_qr_scan", "ios": "https://dc.lft.to/lastmile_qr_scan"}, "fusion_lon": 0.0, "lat": 38.897417833333336, "bike_id": "6c4341ef581ebb7ab969c07a55811ad1", "type": "electric_scooter", "is_reserved": 0, "lon": -77.01960633333333}, {"fusion_lat": 0.0, "name": "0f7840566c6390056a1424bec4d4b46e", "is_disabled": 0, "rental_uris": {"android": "https://dc.lft.to/lastmile_qr_scan", "ios": "https://dc.lft.to/lastmile_qr_scan"}, "fusion_lon": 0.0, "lat": 38.914053, "bike_id": "0f7840566c6390056a1424bec4d4b46e", "type": "electric_scooter", "is_reserved": 0, "lon": -77.03216233333333}, {"fusion_lat": 0.0, "name": "afd67c761b97be1894dcf4b0ed68de31", "is_disabled": 0, "rental_uris": {"android": "https://dc.lft.to/lastmile_qr_scan", "ios": "https://dc.lft.to/lastmile_qr_scan"}, "fusion_lon": 0.0, "lat": 38.88451083333333, "bike_id": "afd67c761b97be1894dcf4b0ed68de31", "type": "electric_scooter", "is_reserved": 0, "lon": -76.99390516666666}, {"fusion_lat": 0.0, "name": "4f5e0a5cc05098b98c9e336d817771f7", "is_disabled": 0, "rental_uris": {"android": "https://dc.lft.to/lastmile_qr_scan", "ios": "https://dc.lft.to/lastmile_qr_scan"}, "fusion_lon": 0.0, "lat": 38.91121483333333, "bike_id": "4f5e0a5cc05098b98c9e336d817771f7", "type": "electric_scooter", "is_reserved": 0, "lon": -77.02078783333333}, {"fusion_lat": 0.0, "name": "5459947e191f141ff11ce1c72fddc1c5", "is_disabled": 0, "rental_uris": {"android": "https://dc.lft.to/lastmile_qr_scan", "ios": "https://dc.lft.to/lastmile_qr_scan"}, "fusion_lon": 0.0, "lat": 38.806705, "bike_id": "5459947e191f141ff11ce1c72fddc1c5", "type": "electric_bike", "is_reserved": 0, "lon": -77.06916333333334}, {"fusion_lat": 0.0, "name": "d1c7998371ef5c1b80f70f1bd7f4de8c", "is_disabled": 0, "rental_uris": {"android": "https://dc.lft.to/lastmile_qr_scan", "ios": "https://dc.lft.to/lastmile_qr_scan"}, "fusion_lon": 0.0, "lat": 38.90865766666667, "bike_id": "d1c7998371ef5c1b80f70f1bd7f4de8c", "type": "electric_scooter", "is_reserved": 0, "lon": -77.04739483333333}, {"fusion_lat": 0.0, "name": "e366a40c5a2857b51e13711eb3b472fc", "is_disabled": 0, "rental_uris": {"android": "https://dc.lft.to/lastmile_qr_scan", "ios": "https://dc.lft.to/lastmile_qr_scan"}, "fusion_lon": 0.0, "lat": 38.907253, "bike_id": "e366a40c5a2857b51e13711eb3b472fc", "type": "electric_scooter", "is_reserved": 0, "lon": -77.05048283333333}, {"fusion_lat": 0.0, "name": "56bc137014e331d0f7894bb227d7dee8", "is_disabled": 0, "rental_uris": {"android": "https://dc.lft.to/lastmile_qr_scan", "ios": "https://dc.lft.to/lastmile_qr_scan"}, "fusion_lon": 0.0, "lat": 38.92456266666667, "bike_id": "56bc137014e331d0f7894bb227d7dee8", "type": "electric_scooter", "is_reserved": 0, "lon": -76.9990995}, {"fusion_lat": 0.0, "name": "2199abcb2b7c8e06b966abb81d1eca26", "is_disabled": 0, "rental_uris": {"android": "https://dc.lft.to/lastmile_qr_scan", "ios": "https://dc.lft.to/lastmile_qr_scan"}, "fusion_lon": 0.0, "lat": 38.892201166666666, "bike_id": "2199abcb2b7c8e06b966abb81d1eca26", "type": "electric_scooter", "is_reserved": 0, "lon": -77.02364166666666}, {"fusion_lat": 0.0, "name": "cfb00d91a3d7f8b8951bcf2ccf812ec8", "is_disabled": 0, "rental_uris": {"android": "https://dc.lft.to/lastmile_qr_scan", "ios": "https://dc.lft.to/lastmile_qr_scan"}, "fusion_lon": 0.0, "lat": 38.918159833333334, "bike_id": "cfb00d91a3d7f8b8951bcf2ccf812ec8", "type": "electric_scooter", "is_reserved": 0, "lon": -77.003703}, {"fusion_lat": 0.0, "name": "ccbc685fea22faf48a5fec51bfc74eef", "is_disabled": 0, "rental_uris": {"android": "https://dc.lft.to/lastmile_qr_scan", "ios": "https://dc.lft.to/lastmile_qr_scan"}, "fusion_lon": 0.0, "lat": 38.925836833333335, "bike_id": "ccbc685fea22faf48a5fec51bfc74eef", "type": "electric_scooter", "is_reserved": 0, "lon": -77.027287}, {"fusion_lat": 0.0, "name": "08a9cb7922b2000e4f86b019707d8b6f", "is_disabled": 0, "rental_uris": {"android": "https://dc.lft.to/lastmile_qr_scan", "ios": "https://dc.lft.to/lastmile_qr_scan"}, "fusion_lon": 0.0, "lat": 38.901852166666664, "bike_id": "08a9cb7922b2000e4f86b019707d8b6f", "type": "electric_scooter", "is_reserved": 0, "lon": -77.0589685}, {"fusion_lat": 0.0, "name": "11e844152e76d7989f9ae82d114132da", "is_disabled": 0, "rental_uris": {"android": "https://dc.lft.to/lastmile_qr_scan", "ios": "https://dc.lft.to/lastmile_qr_scan"}, "fusion_lon": 0.0, "lat": 38.915495666666665, "bike_id": "11e844152e76d7989f9ae82d114132da", "type": "electric_scooter", "is_reserved": 0, "lon": -77.03239266666667}, {"fusion_lat": 0.0, "name": "e2423a2755175a120d28c77c00d068a9", "is_disabled": 0, "rental_uris": {"android": "https://dc.lft.to/lastmile_qr_scan", "ios": "https://dc.lft.to/lastmile_qr_scan"}, "fusion_lon": 0.0, "lat": 38.9237445, "bike_id": "e2423a2755175a120d28c77c00d068a9", "type": "electric_scooter", "is_reserved": 0, "lon": -77.08152133333333}, {"fusion_lat": 0.0, "name": "f4497f65667ac85085aef102fc0ced6f", "is_disabled": 0, "rental_uris": {"android": "https://dc.lft.to/lastmile_qr_scan", "ios": "https://dc.lft.to/lastmile_qr_scan"}, "fusion_lon": 0.0, "lat": 38.96133483333333, "bike_id": "f4497f65667ac85085aef102fc0ced6f", "type": "electric_scooter", "is_reserved": 0, "lon": -77.02790116666667}, {"fusion_lat": 0.0, "name": "561a04d318df88b43e20f3628dfb594d", "is_disabled": 0, "rental_uris": {"android": "https://dc.lft.to/lastmile_qr_scan", "ios": "https://dc.lft.to/lastmile_qr_scan"}, "fusion_lon": 0.0, "lat": 38.9206395, "bike_id": "561a04d318df88b43e20f3628dfb594d", "type": "electric_scooter", "is_reserved": 0, "lon": -77.02705933333333}, {"fusion_lat": 0.0, "name": "e24d703ecea4a9f519dc5b355dabd34d", "is_disabled": 0, "rental_uris": {"android": "https://dc.lft.to/lastmile_qr_scan", "ios": "https://dc.lft.to/lastmile_qr_scan"}, "fusion_lon": 0.0, "lat": 38.922932833333334, "bike_id": "e24d703ecea4a9f519dc5b355dabd34d", "type": "electric_scooter", "is_reserved": 0, "lon": -76.99414416666667}, {"fusion_lat": 0.0, "name": "0fd1541b71f869293c3eae578b22bc31", "is_disabled": 0, "rental_uris": {"android": "https://dc.lft.to/lastmile_qr_scan", "ios": "https://dc.lft.to/lastmile_qr_scan"}, "fusion_lon": 0.0, "lat": 38.87687, "bike_id": "0fd1541b71f869293c3eae578b22bc31", "type": "electric_scooter", "is_reserved": 0, "lon": -77.017554}, {"fusion_lat": 0.0, "name": "e05ed64cbcfe7156c82534d1f0cfc268", "is_disabled": 0, "rental_uris": {"android": "https://dc.lft.to/lastmile_qr_scan", "ios": "https://dc.lft.to/lastmile_qr_scan"}, "fusion_lon": 0.0, "lat": 38.88963916666667, "bike_id": "e05ed64cbcfe7156c82534d1f0cfc268", "type": "electric_scooter", "is_reserved": 0, "lon": -77.01502483333333}, {"fusion_lat": 0.0, "name": "b2b335d8a2425ebeddd383f9febb15b7", "is_disabled": 0, "rental_uris": {"android": "https://dc.lft.to/lastmile_qr_scan", "ios": "https://dc.lft.to/lastmile_qr_scan"}, "fusion_lon": 0.0, "lat": 38.890105166666665, "bike_id": "b2b335d8a2425ebeddd383f9febb15b7", "type": "electric_scooter", "is_reserved": 0, "lon": -76.93739283333333}, {"fusion_lat": 0.0, "name": "b2d5e860671ffa9971a2eaef45b42abe", "is_disabled": 0, "rental_uris": {"android": "https://dc.lft.to/lastmile_qr_scan", "ios": "https://dc.lft.to/lastmile_qr_scan"}, "fusion_lon": 0.0, "lat": 38.88469516666667, "bike_id": "b2d5e860671ffa9971a2eaef45b42abe", "type": "electric_scooter", "is_reserved": 0, "lon": -77.02433516666666}, {"fusion_lat": 0.0, "name": "2a4f60c1fbc427b244a4011af0288080", "is_disabled": 0, "rental_uris": {"android": "https://dc.lft.to/lastmile_qr_scan", "ios": "https://dc.lft.to/lastmile_qr_scan"}, "fusion_lon": 0.0, "lat": 38.913449, "bike_id": "2a4f60c1fbc427b244a4011af0288080", "type": "electric_scooter", "is_reserved": 0, "lon": -77.00342816666667}, {"fusion_lat": 0.0, "name": "d929e19358da8bcb3f9b06df9b603cd8", "is_disabled": 0, "rental_uris": {"android": "https://dc.lft.to/lastmile_qr_scan", "ios": "https://dc.lft.to/lastmile_qr_scan"}, "fusion_lon": 0.0, "lat": 38.92457683333333, "bike_id": "d929e19358da8bcb3f9b06df9b603cd8", "type": "electric_scooter", "is_reserved": 0, "lon": -77.02407016666666}, {"fusion_lat": 0.0, "name": "5f04bb3665c42d8bd676a17bfc0f69f4", "is_disabled": 0, "rental_uris": {"android": "https://dc.lft.to/lastmile_qr_scan", "ios": "https://dc.lft.to/lastmile_qr_scan"}, "fusion_lon": 0.0, "lat": 38.903799166666666, "bike_id": "5f04bb3665c42d8bd676a17bfc0f69f4", "type": "electric_scooter", "is_reserved": 0, "lon": -76.98482333333334}, {"fusion_lat": 0.0, "name": "9acb1ab6dd01fd3b831bb3946bab822e", "is_disabled": 0, "rental_uris": {"android": "https://dc.lft.to/lastmile_qr_scan", "ios": "https://dc.lft.to/lastmile_qr_scan"}, "fusion_lon": 0.0, "lat": 38.92994066666667, "bike_id": "9acb1ab6dd01fd3b831bb3946bab822e", "type": "electric_scooter", "is_reserved": 0, "lon": -77.03234083333334}, {"fusion_lat": 0.0, "name": "6f0598153f2020daeefae2ab0a22d5d5", "is_disabled": 0, "rental_uris": {"android": "https://dc.lft.to/lastmile_qr_scan", "ios": "https://dc.lft.to/lastmile_qr_scan"}, "fusion_lon": 0.0, "lat": 38.880386666666666, "bike_id": "6f0598153f2020daeefae2ab0a22d5d5", "type": "electric_scooter", "is_reserved": 0, "lon": -77.01330433333334}, {"fusion_lat": 0.0, "name": "ad577856b02aa114a5189bcd684a0f5b", "is_disabled": 0, "rental_uris": {"android": "https://dc.lft.to/lastmile_qr_scan", "ios": "https://dc.lft.to/lastmile_qr_scan"}, "fusion_lon": 0.0, "lat": 38.9662205, "bike_id": "ad577856b02aa114a5189bcd684a0f5b", "type": "electric_bike", "is_reserved": 0, "lon": -77.0342085}, {"fusion_lat": 0.0, "name": "8b4f9521012a980dbe1d16a5f40d7fae", "is_disabled": 0, "rental_uris": {"android": "https://dc.lft.to/lastmile_qr_scan", "ios": "https://dc.lft.to/lastmile_qr_scan"}, "fusion_lon": 0.0, "lat": 38.87667966666667, "bike_id": "8b4f9521012a980dbe1d16a5f40d7fae", "type": "electric_bike", "is_reserved": 0, "lon": -77.020865}, {"fusion_lat": 0.0, "name": "b058fc65fb40bd4e83598608f59dc836", "is_disabled": 0, "rental_uris": {"android": "https://dc.lft.to/lastmile_qr_scan", "ios": "https://dc.lft.to/lastmile_qr_scan"}, "fusion_lon": 0.0, "lat": 38.91209, "bike_id": "b058fc65fb40bd4e83598608f59dc836", "type": "electric_scooter", "is_reserved": 0, "lon": -77.021761}, {"fusion_lat": 0.0, "name": "f79aec6779cc7c893e3145097f364958", "is_disabled": 0, "rental_uris": {"android": "https://dc.lft.to/lastmile_qr_scan", "ios": "https://dc.lft.to/lastmile_qr_scan"}, "fusion_lon": 0.0, "lat": 38.90253533333333, "bike_id": "f79aec6779cc7c893e3145097f364958", "type": "electric_scooter", "is_reserved": 0, "lon": -77.02870233333333}, {"fusion_lat": 0.0, "name": "1790b1968a675e22e6da8a711d8125c4", "is_disabled": 0, "rental_uris": {"android": "https://dc.lft.to/lastmile_qr_scan", "ios": "https://dc.lft.to/lastmile_qr_scan"}, "fusion_lon": 0.0, "lat": 38.87678833333333, "bike_id": "1790b1968a675e22e6da8a711d8125c4", "type": "electric_bike", "is_reserved": 0, "lon": -77.014428}, {"fusion_lat": 0.0, "name": "b4138a4f18dcf91d57b2c2832da84bb0", "is_disabled": 0, "rental_uris": {"android": "https://dc.lft.to/lastmile_qr_scan", "ios": "https://dc.lft.to/lastmile_qr_scan"}, "fusion_lon": 0.0, "lat": 38.903837833333334, "bike_id": "b4138a4f18dcf91d57b2c2832da84bb0", "type": "electric_scooter", "is_reserved": 0, "lon": -77.06716666666667}, {"fusion_lat": 0.0, "name": "df24cbdc6db7adecb8a868cdb490aa84", "is_disabled": 0, "rental_uris": {"android": "https://dc.lft.to/lastmile_qr_scan", "ios": "https://dc.lft.to/lastmile_qr_scan"}, "fusion_lon": 0.0, "lat": 38.883118333333336, "bike_id": "df24cbdc6db7adecb8a868cdb490aa84", "type": "electric_scooter", "is_reserved": 0, "lon": -77.01361383333334}, {"fusion_lat": 0.0, "name": "3295d2447867a148c6ab9fd7be148149", "is_disabled": 0, "rental_uris": {"android": "https://dc.lft.to/lastmile_qr_scan", "ios": "https://dc.lft.to/lastmile_qr_scan"}, "fusion_lon": 0.0, "lat": 38.903181333333336, "bike_id": "3295d2447867a148c6ab9fd7be148149", "type": "electric_scooter", "is_reserved": 0, "lon": -77.053427}, {"fusion_lat": 0.0, "name": "31fe4905fa4c30db5b2bdbbf6e203e82", "is_disabled": 0, "rental_uris": {"android": "https://dc.lft.to/lastmile_qr_scan", "ios": "https://dc.lft.to/lastmile_qr_scan"}, "fusion_lon": 0.0, "lat": 38.9026655, "bike_id": "31fe4905fa4c30db5b2bdbbf6e203e82", "type": "electric_bike", "is_reserved": 0, "lon": -77.0024485}, {"fusion_lat": 0.0, "name": "28020a33237b5a4a27a09578b4138d52", "is_disabled": 0, "rental_uris": {"android": "https://dc.lft.to/lastmile_qr_scan", "ios": "https://dc.lft.to/lastmile_qr_scan"}, "fusion_lon": 0.0, "lat": 38.9221885, "bike_id": "28020a33237b5a4a27a09578b4138d52", "type": "electric_scooter", "is_reserved": 0, "lon": -77.03512616666667}, {"fusion_lat": 0.0, "name": "b590994741a27924788df6be15696715", "is_disabled": 0, "rental_uris": {"android": "https://dc.lft.to/lastmile_qr_scan", "ios": "https://dc.lft.to/lastmile_qr_scan"}, "fusion_lon": 0.0, "lat": 38.897396666666666, "bike_id": "b590994741a27924788df6be15696715", "type": "electric_scooter", "is_reserved": 0, "lon": -77.02151616666667}, {"fusion_lat": 0.0, "name": "cf2adbb5a98bf9cc7ad02631caba1d34", "is_disabled": 0, "rental_uris": {"android": "https://dc.lft.to/lastmile_qr_scan", "ios": "https://dc.lft.to/lastmile_qr_scan"}, "fusion_lon": 0.0, "lat": 38.883989666666665, "bike_id": "cf2adbb5a98bf9cc7ad02631caba1d34", "type": "electric_scooter", "is_reserved": 0, "lon": -76.93041333333333}, {"fusion_lat": 0.0, "name": "91ff90ab20c2620631e062a1e1d5a8b0", "is_disabled": 0, "rental_uris": {"android": "https://dc.lft.to/lastmile_qr_scan", "ios": "https://dc.lft.to/lastmile_qr_scan"}, "fusion_lon": 0.0, "lat": 38.90980616666667, "bike_id": "91ff90ab20c2620631e062a1e1d5a8b0", "type": "electric_scooter", "is_reserved": 0, "lon": -77.05477066666667}, {"fusion_lat": 0.0, "name": "21eeb71d09a8c4deaac32f345a37b63c", "is_disabled": 0, "rental_uris": {"android": "https://dc.lft.to/lastmile_qr_scan", "ios": "https://dc.lft.to/lastmile_qr_scan"}, "fusion_lon": 0.0, "lat": 38.807548833333335, "bike_id": "21eeb71d09a8c4deaac32f345a37b63c", "type": "electric_bike", "is_reserved": 0, "lon": -77.094545}, {"fusion_lat": 0.0, "name": "30a8c04cee3e7526e2feb13e2e310c37", "is_disabled": 0, "rental_uris": {"android": "https://dc.lft.to/lastmile_qr_scan", "ios": "https://dc.lft.to/lastmile_qr_scan"}, "fusion_lon": 0.0, "lat": 38.8924515, "bike_id": "30a8c04cee3e7526e2feb13e2e310c37", "type": "electric_scooter", "is_reserved": 0, "lon": -77.0334215}, {"fusion_lat": 0.0, "name": "3e485b817e4d95a1695df4697919644d", "is_disabled": 0, "rental_uris": {"android": "https://dc.lft.to/lastmile_qr_scan", "ios": "https://dc.lft.to/lastmile_qr_scan"}, "fusion_lon": 0.0, "lat": 38.925327333333335, "bike_id": "3e485b817e4d95a1695df4697919644d", "type": "electric_scooter", "is_reserved": 0, "lon": -77.00753016666667}, {"fusion_lat": 0.0, "name": "c291d9bba6d28d06626bfcd374eb7f26", "is_disabled": 0, "rental_uris": {"android": "https://dc.lft.to/lastmile_qr_scan", "ios": "https://dc.lft.to/lastmile_qr_scan"}, "fusion_lon": 0.0, "lat": 38.92681183333333, "bike_id": "c291d9bba6d28d06626bfcd374eb7f26", "type": "electric_scooter", "is_reserved": 0, "lon": -77.03083966666667}, {"fusion_lat": 0.0, "name": "0ea8ee5cb9e1d06fbc19488a2cbb484a", "is_disabled": 0, "rental_uris": {"android": "https://dc.lft.to/lastmile_qr_scan", "ios": "https://dc.lft.to/lastmile_qr_scan"}, "fusion_lon": 0.0, "lat": 38.899590833333335, "bike_id": "0ea8ee5cb9e1d06fbc19488a2cbb484a", "type": "electric_scooter", "is_reserved": 0, "lon": -77.03329183333334}, {"fusion_lat": 0.0, "name": "2f51eba8337a6b352355dc2e301d32a1", "is_disabled": 0, "rental_uris": {"android": "https://dc.lft.to/lastmile_qr_scan", "ios": "https://dc.lft.to/lastmile_qr_scan"}, "fusion_lon": 0.0, "lat": 38.907241, "bike_id": "2f51eba8337a6b352355dc2e301d32a1", "type": "electric_scooter", "is_reserved": 0, "lon": -77.04755616666667}, {"fusion_lat": 0.0, "name": "bb98033c7d5e314353d1861f3abdd35e", "is_disabled": 0, "rental_uris": {"android": "https://dc.lft.to/lastmile_qr_scan", "ios": "https://dc.lft.to/lastmile_qr_scan"}, "fusion_lon": 0.0, "lat": 38.90028083333333, "bike_id": "bb98033c7d5e314353d1861f3abdd35e", "type": "electric_scooter", "is_reserved": 0, "lon": -77.01117183333334}, {"fusion_lat": 0.0, "name": "21fe5696c7b60176bd5419819862c7b7", "is_disabled": 0, "rental_uris": {"android": "https://dc.lft.to/lastmile_qr_scan", "ios": "https://dc.lft.to/lastmile_qr_scan"}, "fusion_lon": 0.0, "lat": 38.90342416666667, "bike_id": "21fe5696c7b60176bd5419819862c7b7", "type": "electric_scooter", "is_reserved": 0, "lon": -76.93366533333334}, {"fusion_lat": 0.0, "name": "1cc80db1ba48847e54a4fe3a97049f7a", "is_disabled": 0, "rental_uris": {"android": "https://dc.lft.to/lastmile_qr_scan", "ios": "https://dc.lft.to/lastmile_qr_scan"}, "fusion_lon": 0.0, "lat": 38.8830275, "bike_id": "1cc80db1ba48847e54a4fe3a97049f7a", "type": "electric_scooter", "is_reserved": 0, "lon": -76.948582}, {"fusion_lat": 0.0, "name": "397cf4e66a94ca089d524beb8a74e3fd", "is_disabled": 0, "rental_uris": {"android": "https://dc.lft.to/lastmile_qr_scan", "ios": "https://dc.lft.to/lastmile_qr_scan"}, "fusion_lon": 0.0, "lat": 38.81913566666667, "bike_id": "397cf4e66a94ca089d524beb8a74e3fd", "type": "electric_bike", "is_reserved": 0, "lon": -77.04790116666666}, {"fusion_lat": 0.0, "name": "ae3bebcc0061c1e14cb0baabf40bd517", "is_disabled": 0, "rental_uris": {"android": "https://dc.lft.to/lastmile_qr_scan", "ios": "https://dc.lft.to/lastmile_qr_scan"}, "fusion_lon": 0.0, "lat": 38.928654, "bike_id": "ae3bebcc0061c1e14cb0baabf40bd517", "type": "electric_scooter", "is_reserved": 0, "lon": -77.03403433333334}, {"fusion_lat": 0.0, "name": "2dc52ac68813717329fa2f21f9e44455", "is_disabled": 0, "rental_uris": {"android": "https://dc.lft.to/lastmile_qr_scan", "ios": "https://dc.lft.to/lastmile_qr_scan"}, "fusion_lon": 0.0, "lat": 38.86626716666667, "bike_id": "2dc52ac68813717329fa2f21f9e44455", "type": "electric_scooter", "is_reserved": 0, "lon": -76.9871575}, {"fusion_lat": 0.0, "name": "c57a5e53746519dca58a1a063aa8af47", "is_disabled": 0, "rental_uris": {"android": "https://dc.lft.to/lastmile_qr_scan", "ios": "https://dc.lft.to/lastmile_qr_scan"}, "fusion_lon": 0.0, "lat": 38.9241455, "bike_id": "c57a5e53746519dca58a1a063aa8af47", "type": "electric_scooter", "is_reserved": 0, "lon": -77.02006016666667}, {"fusion_lat": 0.0, "name": "42b184bd0ba424cb5fcf9f69e8089453", "is_disabled": 0, "rental_uris": {"android": "https://dc.lft.to/lastmile_qr_scan", "ios": "https://dc.lft.to/lastmile_qr_scan"}, "fusion_lon": 0.0, "lat": 38.891848833333334, "bike_id": "42b184bd0ba424cb5fcf9f69e8089453", "type": "electric_scooter", "is_reserved": 0, "lon": -76.99941916666667}, {"fusion_lat": 0.0, "name": "f571945e2085b6adc743e4e5bc5e0a7c", "is_disabled": 0, "rental_uris": {"android": "https://dc.lft.to/lastmile_qr_scan", "ios": "https://dc.lft.to/lastmile_qr_scan"}, "fusion_lon": 0.0, "lat": 38.920278, "bike_id": "f571945e2085b6adc743e4e5bc5e0a7c", "type": "electric_scooter", "is_reserved": 0, "lon": -77.01760233333333}, {"fusion_lat": 0.0, "name": "d29be6442faebf1d1ac789b5762709f8", "is_disabled": 0, "rental_uris": {"android": "https://dc.lft.to/lastmile_qr_scan", "ios": "https://dc.lft.to/lastmile_qr_scan"}, "fusion_lon": 0.0, "lat": 38.91684083333333, "bike_id": "d29be6442faebf1d1ac789b5762709f8", "type": "electric_scooter", "is_reserved": 0, "lon": -77.02816566666667}, {"fusion_lat": 0.0, "name": "662293357fc2f552b1cd8a528754ad10", "is_disabled": 0, "rental_uris": {"android": "https://dc.lft.to/lastmile_qr_scan", "ios": "https://dc.lft.to/lastmile_qr_scan"}, "fusion_lon": 0.0, "lat": 38.902717333333335, "bike_id": "662293357fc2f552b1cd8a528754ad10", "type": "electric_scooter", "is_reserved": 0, "lon": -77.0438515}, {"fusion_lat": 0.0, "name": "b128d7ba2652faca10ef48ac772c20ed", "is_disabled": 0, "rental_uris": {"android": "https://dc.lft.to/lastmile_qr_scan", "ios": "https://dc.lft.to/lastmile_qr_scan"}, "fusion_lon": 0.0, "lat": 38.931493, "bike_id": "b128d7ba2652faca10ef48ac772c20ed", "type": "electric_scooter", "is_reserved": 0, "lon": -77.07848183333333}, {"fusion_lat": 0.0, "name": "3ac94695f1ff23dcd32314d5003941a6", "is_disabled": 0, "rental_uris": {"android": "https://dc.lft.to/lastmile_qr_scan", "ios": "https://dc.lft.to/lastmile_qr_scan"}, "fusion_lon": 0.0, "lat": 38.90721083333333, "bike_id": "3ac94695f1ff23dcd32314d5003941a6", "type": "electric_scooter", "is_reserved": 0, "lon": -77.04816516666666}, {"fusion_lat": 0.0, "name": "9b96a9268d413539b64d6794cf720f94", "is_disabled": 0, "rental_uris": {"android": "https://dc.lft.to/lastmile_qr_scan", "ios": "https://dc.lft.to/lastmile_qr_scan"}, "fusion_lon": 0.0, "lat": 38.95952066666667, "bike_id": "9b96a9268d413539b64d6794cf720f94", "type": "electric_bike", "is_reserved": 0, "lon": -77.03058616666667}, {"fusion_lat": 0.0, "name": "3b9db2e2e089dc6bf73fbbcd210c685e", "is_disabled": 0, "rental_uris": {"android": "https://dc.lft.to/lastmile_qr_scan", "ios": "https://dc.lft.to/lastmile_qr_scan"}, "fusion_lon": 0.0, "lat": 38.9225945, "bike_id": "3b9db2e2e089dc6bf73fbbcd210c685e", "type": "electric_scooter", "is_reserved": 0, "lon": -77.07482016666667}, {"fusion_lat": 0.0, "name": "d78448f8f962d06d99636ee238118b45", "is_disabled": 0, "rental_uris": {"android": "https://dc.lft.to/lastmile_qr_scan", "ios": "https://dc.lft.to/lastmile_qr_scan"}, "fusion_lon": 0.0, "lat": 38.961336, "bike_id": "d78448f8f962d06d99636ee238118b45", "type": "electric_bike", "is_reserved": 0, "lon": -77.08493116666666}, {"fusion_lat": 0.0, "name": "9ab56646ee4b2b83cb50695bdbbf2be5", "is_disabled": 0, "rental_uris": {"android": "https://dc.lft.to/lastmile_qr_scan", "ios": "https://dc.lft.to/lastmile_qr_scan"}, "fusion_lon": 0.0, "lat": 38.91934083333334, "bike_id": "9ab56646ee4b2b83cb50695bdbbf2be5", "type": "electric_scooter", "is_reserved": 0, "lon": -77.02512766666666}, {"fusion_lat": 0.0, "name": "967c01483c55c600ec990a39270b4d3a", "is_disabled": 0, "rental_uris": {"android": "https://dc.lft.to/lastmile_qr_scan", "ios": "https://dc.lft.to/lastmile_qr_scan"}, "fusion_lon": 0.0, "lat": 38.903752833333336, "bike_id": "967c01483c55c600ec990a39270b4d3a", "type": "electric_scooter", "is_reserved": 0, "lon": -77.03526633333334}, {"fusion_lat": 0.0, "name": "4605669389bba837811813ceb6f3f7b0", "is_disabled": 0, "rental_uris": {"android": "https://dc.lft.to/lastmile_qr_scan", "ios": "https://dc.lft.to/lastmile_qr_scan"}, "fusion_lon": 0.0, "lat": 38.913243666666666, "bike_id": "4605669389bba837811813ceb6f3f7b0", "type": "electric_scooter", "is_reserved": 0, "lon": -77.03150483333333}, {"fusion_lat": 0.0, "name": "a5bae4990d1bb567cb2642e3e636a36e", "is_disabled": 0, "rental_uris": {"android": "https://dc.lft.to/lastmile_qr_scan", "ios": "https://dc.lft.to/lastmile_qr_scan"}, "fusion_lon": 0.0, "lat": 38.8662245, "bike_id": "a5bae4990d1bb567cb2642e3e636a36e", "type": "electric_bike", "is_reserved": 0, "lon": -76.94566533333334}, {"fusion_lat": 0.0, "name": "bbcaf34d9df775dd88baaa126abb0918", "is_disabled": 0, "rental_uris": {"android": "https://dc.lft.to/lastmile_qr_scan", "ios": "https://dc.lft.to/lastmile_qr_scan"}, "fusion_lon": 0.0, "lat": 38.93260766666667, "bike_id": "bbcaf34d9df775dd88baaa126abb0918", "type": "electric_scooter", "is_reserved": 0, "lon": -77.0400945}, {"fusion_lat": 0.0, "name": "2652070f5a7a6219425a54dafffb8726", "is_disabled": 0, "rental_uris": {"android": "https://dc.lft.to/lastmile_qr_scan", "ios": "https://dc.lft.to/lastmile_qr_scan"}, "fusion_lon": 0.0, "lat": 38.91179183333333, "bike_id": "2652070f5a7a6219425a54dafffb8726", "type": "electric_scooter", "is_reserved": 0, "lon": -77.04540133333333}, {"fusion_lat": 0.0, "name": "2e5b6f590c08e67ace0d7f8366c5dc66", "is_disabled": 0, "rental_uris": {"android": "https://dc.lft.to/lastmile_qr_scan", "ios": "https://dc.lft.to/lastmile_qr_scan"}, "fusion_lon": 0.0, "lat": 38.91408333333333, "bike_id": "2e5b6f590c08e67ace0d7f8366c5dc66", "type": "electric_scooter", "is_reserved": 0, "lon": -77.04566166666666}, {"fusion_lat": 0.0, "name": "c4534ed10c6c09cbd2829ea1d32e79e6", "is_disabled": 0, "rental_uris": {"android": "https://dc.lft.to/lastmile_qr_scan", "ios": "https://dc.lft.to/lastmile_qr_scan"}, "fusion_lon": 0.0, "lat": 38.892244833333336, "bike_id": "c4534ed10c6c09cbd2829ea1d32e79e6", "type": "electric_scooter", "is_reserved": 0, "lon": -77.01493366666666}, {"fusion_lat": 0.0, "name": "ffa86a3d233b9b4a400eaa6e677ac8b6", "is_disabled": 0, "rental_uris": {"android": "https://dc.lft.to/lastmile_qr_scan", "ios": "https://dc.lft.to/lastmile_qr_scan"}, "fusion_lon": 0.0, "lat": 38.925417833333334, "bike_id": "ffa86a3d233b9b4a400eaa6e677ac8b6", "type": "electric_scooter", "is_reserved": 0, "lon": -77.05117033333333}, {"fusion_lat": 0.0, "name": "b5b779c9806ecc2651165eab54949e1a", "is_disabled": 0, "rental_uris": {"android": "https://dc.lft.to/lastmile_qr_scan", "ios": "https://dc.lft.to/lastmile_qr_scan"}, "fusion_lon": 0.0, "lat": 38.95729883333333, "bike_id": "b5b779c9806ecc2651165eab54949e1a", "type": "electric_scooter", "is_reserved": 0, "lon": -77.02400083333333}, {"fusion_lat": 0.0, "name": "efac685701cffa622c6c1c342c586abc", "is_disabled": 0, "rental_uris": {"android": "https://dc.lft.to/lastmile_qr_scan", "ios": "https://dc.lft.to/lastmile_qr_scan"}, "fusion_lon": 0.0, "lat": 38.875591166666666, "bike_id": "efac685701cffa622c6c1c342c586abc", "type": "electric_scooter", "is_reserved": 0, "lon": -77.00735116666667}, {"fusion_lat": 0.0, "name": "606e5a579ac685e936f8db83fc4eb33c", "is_disabled": 0, "rental_uris": {"android": "https://dc.lft.to/lastmile_qr_scan", "ios": "https://dc.lft.to/lastmile_qr_scan"}, "fusion_lon": 0.0, "lat": 38.94506416666667, "bike_id": "606e5a579ac685e936f8db83fc4eb33c", "type": "electric_bike", "is_reserved": 0, "lon": -77.00669283333333}, {"fusion_lat": 0.0, "name": "661b0906f9eb975bacbb76d5c5b40184", "is_disabled": 0, "rental_uris": {"android": "https://dc.lft.to/lastmile_qr_scan", "ios": "https://dc.lft.to/lastmile_qr_scan"}, "fusion_lon": 0.0, "lat": 38.90647116666667, "bike_id": "661b0906f9eb975bacbb76d5c5b40184", "type": "electric_scooter", "is_reserved": 0, "lon": -77.0295455}, {"fusion_lat": 0.0, "name": "897aa0bd0a86c685d0862eca0545e36c", "is_disabled": 0, "rental_uris": {"android": "https://dc.lft.to/lastmile_qr_scan", "ios": "https://dc.lft.to/lastmile_qr_scan"}, "fusion_lon": 0.0, "lat": 38.926827, "bike_id": "897aa0bd0a86c685d0862eca0545e36c", "type": "electric_scooter", "is_reserved": 0, "lon": -77.0225245}, {"fusion_lat": 0.0, "name": "dd8277be246b570dca9464c52994c903", "is_disabled": 0, "rental_uris": {"android": "https://dc.lft.to/lastmile_qr_scan", "ios": "https://dc.lft.to/lastmile_qr_scan"}, "fusion_lon": 0.0, "lat": 38.8952205, "bike_id": "dd8277be246b570dca9464c52994c903", "type": "electric_scooter", "is_reserved": 0, "lon": -76.980835}, {"fusion_lat": 0.0, "name": "e3661a629ecaccf6b371514c17d5f61a", "is_disabled": 0, "rental_uris": {"android": "https://dc.lft.to/lastmile_qr_scan", "ios": "https://dc.lft.to/lastmile_qr_scan"}, "fusion_lon": 0.0, "lat": 38.93551583333333, "bike_id": "e3661a629ecaccf6b371514c17d5f61a", "type": "electric_scooter", "is_reserved": 0, "lon": -77.02226183333333}, {"fusion_lat": 0.0, "name": "254913916069f37028902367311d1d1b", "is_disabled": 0, "rental_uris": {"android": "https://dc.lft.to/lastmile_qr_scan", "ios": "https://dc.lft.to/lastmile_qr_scan"}, "fusion_lon": 0.0, "lat": 38.953461833333336, "bike_id": "254913916069f37028902367311d1d1b", "type": "electric_scooter", "is_reserved": 0, "lon": -77.07948633333334}, {"fusion_lat": 0.0, "name": "b404a6aa7be00dd3e40a80c110284e71", "is_disabled": 0, "rental_uris": {"android": "https://dc.lft.to/lastmile_qr_scan", "ios": "https://dc.lft.to/lastmile_qr_scan"}, "fusion_lon": 0.0, "lat": 38.95922916666667, "bike_id": "b404a6aa7be00dd3e40a80c110284e71", "type": "electric_scooter", "is_reserved": 0, "lon": -77.08476016666667}, {"fusion_lat": 0.0, "name": "9cffc37f7297e23886ede3ab25e1ecae", "is_disabled": 0, "rental_uris": {"android": "https://dc.lft.to/lastmile_qr_scan", "ios": "https://dc.lft.to/lastmile_qr_scan"}, "fusion_lon": 0.0, "lat": 38.9111415, "bike_id": "9cffc37f7297e23886ede3ab25e1ecae", "type": "electric_scooter", "is_reserved": 0, "lon": -76.99767183333333}, {"fusion_lat": 0.0, "name": "d393a1cce47d59ef50c9ef74c563649b", "is_disabled": 0, "rental_uris": {"android": "https://dc.lft.to/lastmile_qr_scan", "ios": "https://dc.lft.to/lastmile_qr_scan"}, "fusion_lon": 0.0, "lat": 38.90805433333333, "bike_id": "d393a1cce47d59ef50c9ef74c563649b", "type": "electric_bike", "is_reserved": 0, "lon": -77.0188565}, {"fusion_lat": 0.0, "name": "80ec1308dae488dc90c89b3f373643ae", "is_disabled": 0, "rental_uris": {"android": "https://dc.lft.to/lastmile_qr_scan", "ios": "https://dc.lft.to/lastmile_qr_scan"}, "fusion_lon": 0.0, "lat": 38.9306395, "bike_id": "80ec1308dae488dc90c89b3f373643ae", "type": "electric_scooter", "is_reserved": 0, "lon": -77.03939266666667}, {"fusion_lat": 0.0, "name": "cf7b9c04440c4e1a7ed9de6ed1d9f0cc", "is_disabled": 0, "rental_uris": {"android": "https://dc.lft.to/lastmile_qr_scan", "ios": "https://dc.lft.to/lastmile_qr_scan"}, "fusion_lon": 0.0, "lat": 38.94978616666667, "bike_id": "cf7b9c04440c4e1a7ed9de6ed1d9f0cc", "type": "electric_scooter", "is_reserved": 0, "lon": -77.0269695}, {"fusion_lat": 0.0, "name": "82f06aa37821d88880e976e7aba142c4", "is_disabled": 0, "rental_uris": {"android": "https://dc.lft.to/lastmile_qr_scan", "ios": "https://dc.lft.to/lastmile_qr_scan"}, "fusion_lon": 0.0, "lat": 38.91651983333333, "bike_id": "82f06aa37821d88880e976e7aba142c4", "type": "electric_bike", "is_reserved": 0, "lon": -76.9822445}, {"fusion_lat": 0.0, "name": "1254154c1488969d77ac688ebfe4763c", "is_disabled": 0, "rental_uris": {"android": "https://dc.lft.to/lastmile_qr_scan", "ios": "https://dc.lft.to/lastmile_qr_scan"}, "fusion_lon": 0.0, "lat": 38.868509833333334, "bike_id": "1254154c1488969d77ac688ebfe4763c", "type": "electric_scooter", "is_reserved": 0, "lon": -76.988286}, {"fusion_lat": 0.0, "name": "20883a57090d65a203d7ac0f3e0cbac8", "is_disabled": 0, "rental_uris": {"android": "https://dc.lft.to/lastmile_qr_scan", "ios": "https://dc.lft.to/lastmile_qr_scan"}, "fusion_lon": 0.0, "lat": 38.949773, "bike_id": "20883a57090d65a203d7ac0f3e0cbac8", "type": "electric_scooter", "is_reserved": 0, "lon": -77.026986}, {"fusion_lat": 0.0, "name": "9235a5f0772af8d17d5e0de00d4fef13", "is_disabled": 0, "rental_uris": {"android": "https://dc.lft.to/lastmile_qr_scan", "ios": "https://dc.lft.to/lastmile_qr_scan"}, "fusion_lon": 0.0, "lat": 38.895647, "bike_id": "9235a5f0772af8d17d5e0de00d4fef13", "type": "electric_bike", "is_reserved": 0, "lon": -77.127363},