{"data": {"bikes": [{"lat": 38.895489, "is_disabled": 0, "type": "electric_scooter", "fusion_lon": 0.0, "rental_uris": {"android": "https://dc.lft.to/lastmile_qr_scan", "ios": "https://dc.lft.to/lastmile_qr_scan"}, "fusion_lat": 0.0, "is_reserved": 0, "bike_id": "0b7f70712777f465b3fe30cf8d8617a0", "name": "0b7f70712777f465b3fe30cf8d8617a0", "lon": -77.05663783333334}, {"lat": 38.92333333333333, "is_disabled": 0, "type": "electric_scooter", "fusion_lon": 0.0, "rental_uris": {"android": "https://dc.lft.to/lastmile_qr_scan", "ios": "https://dc.lft.to/lastmile_qr_scan"}, "fusion_lat": 0.0, "is_reserved": 0, "bike_id": "55d35ac87ae027d63c53bbf7edae0441", "name": "55d35ac87ae027d63c53bbf7edae0441", "lon": -77.02964016666667}, {"lat": 38.8860985, "is_disabled": 0, "type": "electric_scooter", "fusion_lon": 0.0, "rental_uris": {"android": "https://dc.lft.to/lastmile_qr_scan", "ios": "https://dc.lft.to/lastmile_qr_scan"}, "fusion_lat": 0.0, "is_reserved": 0, "bike_id": "1e34e6d0e4cf8093552b1c3da9131ea4", "name": "1e34e6d0e4cf8093552b1c3da9131ea4", "lon": -76.99483016666667}, {"lat": 38.88767716666667, "is_disabled": 0, "type": "electric_scooter", "fusion_lon": 0.0, "rental_uris": {"android": "https://dc.lft.to/lastmile_qr_scan", "ios": "https://dc.lft.to/lastmile_qr_scan"}, "fusion_lat": 0.0, "is_reserved": 0, "bike_id": "81878dc679339040112269cfda9e327d", "name": "81878dc679339040112269cfda9e327d", "lon": -77.024734}, {"lat": 38.8238045, "is_disabled": 0, "type": "electric_bike", "fusion_lon": 0.0, "rental_uris": {"android": "https://dc.lft.to/lastmile_qr_scan", "ios": "https://dc.lft.to/lastmile_qr_scan"}, "fusion_lat": 0.0, "is_reserved": 0, "bike_id": "f5da6fddf0ada3784dba609987efefb6", "name": "f5da6fddf0ada3784dba609987efefb6", "lon": -77.002298}, {"lat": 38.926969166666666, "is_disabled": 0, "type": "electric_scooter", "fusion_lon": 0.0, "rental_uris": {"android": "https://dc.lft.to/lastmile_qr_scan", "ios": "https://dc.lft.to/lastmile_qr_scan"}, "fusion_lat": 0.0, "is_reserved": 0, "bike_id": "54bce7f966669100ab4aff464ceb437f", "name": "54bce7f966669100ab4aff464ceb437f", "lon": -77.03643666666666}, {"lat": 38.925937833333336, "is_disabled": 0, "type": "electric_scooter", "fusion_lon": 0.0, "rental_uris": {"android": "https://dc.lft.to/lastmile_qr_scan", "ios": "https://dc.lft.to/lastmile_qr_scan"}, "fusion_lat": 0.0, "is_reserved": 0, "bike_id": "ff4a016a306f191bbc418c448c3b5901", "name": "ff4a016a306f191bbc418c448c3b5901", "lon": -77.02490966666667}, {"lat": 38.892231, "is_disabled": 0, "type": "electric_scooter", "fusion_lon": 0.0, "rental_uris": {"android": "https://dc.lft.to/lastmile_qr_scan", "ios": "https://dc.lft.to/lastmile_qr_scan"}, "fusion_lat": 0.0, "is_reserved": 0, "bike_id": "dc209791249b15b22ca6b815af6af3ab", "name": "dc209791249b15b22ca6b815af6af3ab", "lon": -77.04311183333333}, {"lat": 38.952087, "is_disabled": 0, "type": "electric_bike", "fusion_lon": 0.0, "rental_uris": {"android": "https://dc.lft.to/lastmile_qr_scan", "ios": "https://dc.lft.to/lastmile_qr_scan"}, "fusion_lat": 0.0, "is_reserved": 0, "bike_id": "f53140e96b286aa2e6c6bf7fee3f1241", "name": "f53140e96b286aa2e6c6bf7fee3f1241", "lon": -77.01142416666667}, {"lat": 38.9003295, "is_disabled": 0, "type": "electric_scooter", "fusion_lon": 0.0, "rental_uris": {"android": "https://dc.lft.to/lastmile_qr_scan", "ios": "https://dc.lft.to/lastmile_qr_scan"}, "fusion_lat": 0.0, "is_reserved": 0, "bike_id": "9967e991e5660066138b56f10dbbb1b7", "name": "9967e991e5660066138b56f10dbbb1b7", "lon": -77.01214383333334}, {"lat": 38.88501566666667, "is_disabled": 0, "type": "electric_scooter", "fusion_lon": 0.0, "rental_uris": {"android": "https://dc.lft.to/lastmile_qr_scan", "ios": "https://dc.lft.to/lastmile_qr_scan"}, "fusion_lat": 0.0, "is_reserved": 0, "bike_id": "1db4250e58b40950d92c37eb99a9ae56", "name": "1db4250e58b40950d92c37eb99a9ae56", "lon": -77.0160275}, {"lat": 38.9282835, "is_disabled": 0, "type": "electric_scooter", "fusion_lon": 0.0, "rental_uris": {"android": "https://dc.lft.to/lastmile_qr_scan", "ios": "https://dc.lft.to/lastmile_qr_scan"}, "fusion_lat": 0.0, "is_reserved": 0, "bike_id": "aefbd4df950c9e4f3dbe67d5e9ed476e", "name": "aefbd4df950c9e4f3dbe67d5e9ed476e", "lon": -77.02744983333334}, {"lat": 38.93982833333333, "is_disabled": 0, "type": "electric_scooter", "fusion_lon": 0.0, "rental_uris": {"android": "https://dc.lft.to/lastmile_qr_scan", "ios": "https://dc.lft.to/lastmile_qr_scan"}, "fusion_lat": 0.0, "is_reserved": 0, "bike_id": "3ed3510a77973cbf79324ae2e9f23124", "name": "3ed3510a77973cbf79324ae2e9f23124", "lon": -77.02936633333333}, {"lat": 38.93974433333333, "is_disabled": 0, "type": "electric_bike", "fusion_lon": 0.0, "rental_uris": {"android": "https://dc.lft.to/lastmile_qr_scan", "ios": "https://dc.lft.to/lastmile_qr_scan"}, "fusion_lat": 0.0, "is_reserved": 0, "bike_id": "0e7c5ed3ce4a4013f3a5a92d5dd7af06", "name": "0e7c5ed3ce4a4013f3a5a92d5dd7af06", "lon": -76.98618833333333}, {"lat": 38.885972333333335, "is_disabled": 0, "type": "electric_scooter", "fusion_lon": 0.0, "rental_uris": {"android": "https://dc.lft.to/lastmile_qr_scan", "ios": "https://dc.lft.to/lastmile_qr_scan"}, "fusion_lat": 0.0, "is_reserved": 0, "bike_id": "ce2a42946e911d0d9519e2e5750413ff", "name": "ce2a42946e911d0d9519e2e5750413ff", "lon": -76.99146666666667}, {"lat": 38.857519833333335, "is_disabled": 0, "type": "electric_scooter", "fusion_lon": 0.0, "rental_uris": {"android": "https://dc.lft.to/lastmile_qr_scan", "ios": "https://dc.lft.to/lastmile_qr_scan"}, "fusion_lat": 0.0, "is_reserved": 0, "bike_id": "68b38d7da16a63cef98e759bc5d8a178", "name": "68b38d7da16a63cef98e759bc5d8a178", "lon": -76.993075}, {"lat": 38.91675816666667, "is_disabled": 0, "type": "electric_scooter", "fusion_lon": 0.0, "rental_uris": {"android": "https://dc.lft.to/lastmile_qr_scan", "ios": "https://dc.lft.to/lastmile_qr_scan"}, "fusion_lat": 0.0, "is_reserved": 0, "bike_id": "7b67d0ed005f7a094ef69cd51ebc1a64", "name": "7b67d0ed005f7a094ef69cd51ebc1a64", "lon": -77.02962233333334}, {"lat": 38.92476766666667, "is_disabled": 0, "type": "electric_scooter", "fusion_lon": 0.0, "rental_uris": {"android": "https://dc.lft.to/lastmile_qr_scan", "ios": "https://dc.lft.to/lastmile_qr_scan"}, "fusion_lat": 0.0, "is_reserved": 0, "bike_id": "99e129122dbf38e5f9384201997dcca1", "name": "99e129122dbf38e5f9384201997dcca1", "lon": -77.02222833333333}, {"lat": 38.921041333333335, "is_disabled": 0, "type": "electric_scooter", "fusion_lon": 0.0, "rental_uris": {"android": "https://dc.lft.to/lastmile_qr_scan", "ios": "https://dc.lft.to/lastmile_qr_scan"}, "fusion_lat": 0.0, "is_reserved": 0, "bike_id": "7a50fe5ced309561d317934d3e9c056e", "name": "7a50fe5ced309561d317934d3e9c056e", "lon": -77.03247466666667}, {"lat": 38.95159016666667, "is_disabled": 0, "type": "electric_bike", "fusion_lon": 0.0, "rental_uris": {"android": "https://dc.lft.to/lastmile_qr_scan", "ios": "https://dc.lft.to/lastmile_qr_scan"}, "fusion_lat": 0.0, "is_reserved": 0, "bike_id": "198eddd9a24ebcd2f3d86df13dad2fe9", "name": "198eddd9a24ebcd2f3d86df13dad2fe9", "lon": -77.06765483333334}, {"lat": 38.9324465, "is_disabled": 0, "type": "electric_scooter", "fusion_lon": 0.0, "rental_uris": {"android": "https://dc.lft.to/lastmile_qr_scan", "ios": "https://dc.lft.to/lastmile_qr_scan"}, "fusion_lat": 0.0, "is_reserved": 0, "bike_id": "196e46e5d9283420740c52e97b6d56a7", "name": "196e46e5d9283420740c52e97b6d56a7", "lon": -77.03854083333333}, {"lat": 38.9094685, "is_disabled": 0, "type": "electric_scooter", "fusion_lon": 0.0, "rental_uris": {"android": "https://dc.lft.to/lastmile_qr_scan", "ios": "https://dc.lft.to/lastmile_qr_scan"}, "fusion_lat": 0.0, "is_reserved": 0, "bike_id": "8e0efae61ab85de1ad5197842b31e2d1", "name": "8e0efae61ab85de1ad5197842b31e2d1", "lon": -77.04423833333334}, {"lat": 38.91861383333333, "is_disabled": 0, "type": "electric_scooter", "fusion_lon": 0.0, "rental_uris": {"android": "https://dc.lft.to/lastmile_qr_scan", "ios": "https://dc.lft.to/lastmile_qr_scan"}, "fusion_lat": 0.0, "is_reserved": 0, "bike_id": "ca31b13e61d481e4ba5a195a978d6700", "name": "ca31b13e61d481e4ba5a195a978d6700", "lon": -77.04176683333333}, {"lat": 38.904527, "is_disabled": 0, "type": "electric_scooter", "fusion_lon": 0.0, "rental_uris": {"android": "https://dc.lft.to/lastmile_qr_scan", "ios": "https://dc.lft.to/lastmile_qr_scan"}, "fusion_lat": 0.0, "is_reserved": 0, "bike_id": "6a83b6aee014a08e3ade29f973c2af76", "name": "6a83b6aee014a08e3ade29f973c2af76", "lon": -77.0397825}, {"lat": 38.9386585, "is_disabled": 0, "type": "electric_scooter", "fusion_lon": 0.0, "rental_uris": {"android": "https://dc.lft.to/lastmile_qr_scan", "ios": "https://dc.lft.to/lastmile_qr_scan"}, "fusion_lat": 0.0, "is_reserved": 0, "bike_id": "1a2e06224101ef196765fc48f334d03e", "name": "1a2e06224101ef196765fc48f334d03e", "lon": -77.02564733333334}, {"lat": 38.92364516666667, "is_disabled": 0, "type": "electric_scooter", "fusion_lon": 0.0, "rental_uris": {"android": "https://dc.lft.to/lastmile_qr_scan", "ios": "https://dc.lft.to/lastmile_qr_scan"}, "fusion_lat": 0.0, "is_reserved": 0, "bike_id": "0d02df0554ddc16b0c16e1a2051dff0c", "name": "0d02df0554ddc16b0c16e1a2051dff0c", "lon": -77.05117266666667}, {"lat": 38.9020995, "is_disabled": 0, "type": "electric_scooter", "fusion_lon": 0.0, "rental_uris": {"android": "https://dc.lft.to/lastmile_qr_scan", "ios": "https://dc.lft.to/lastmile_qr_scan"}, "fusion_lat": 0.0, "is_reserved": 0, "bike_id": "0d5b455caf07bc2be3c6292457dba310", "name": "0d5b455caf07bc2be3c6292457dba310", "lon": -77.0457255}, {"lat": 39.0243325, "is_disabled": 0, "type": "electric_bike", "fusion_lon": 0.0, "rental_uris": {"android": "https://dc.lft.to/lastmile_qr_scan", "ios": "https://dc.lft.to/lastmile_qr_scan"}, "fusion_lat": 0.0, "is_reserved": 0, "bike_id": "f23b8cd7d129dc5bff0f1e576b8bb595", "name": "f23b8cd7d129dc5bff0f1e576b8bb595", "lon": -77.131044}, {"lat": 38.93910483333333, "is_disabled": 0, "type": "electric_scooter", "fusion_lon": 0.0, "rental_uris": {"android": "https://dc.lft.to/lastmile_qr_scan", "ios": "https://dc.lft.to/lastmile_qr_scan"}, "fusion_lat": 0.0, "is_reserved": 0, "bike_id": "d6ca3c2674c6bc93e8fe38d1ec7259ca", "name": "d6ca3c2674c6bc93e8fe38d1ec7259ca", "lon": -77.02480933333334}, {"lat": 38.93184633333333, "is_disabled": 0, "type": "electric_scooter", "fusion_lon": 0.0, "rental_uris": {"android": "https://dc.lft.to/lastmile_qr_scan", "ios": "https://dc.lft.to/lastmile_qr_scan"}, "fusion_lat": 0.0, "is_reserved": 0, "bike_id": "1ceb8dc96ddf7b946feb428143325b74", "name": "1ceb8dc96ddf7b946feb428143325b74", "lon": -77.03845266666667}, {"lat": 38.924624333333334, "is_disabled": 0, "type": "electric_scooter", "fusion_lon": 0.0, "rental_uris": {"android": "https://dc.lft.to/lastmile_qr_scan", "ios": "https://dc.lft.to/lastmile_qr_scan"}, "fusion_lat": 0.0, "is_reserved": 0, "bike_id": "3a9f998b325674c685f0abdece21bfd3", "name": "3a9f998b325674c685f0abdece21bfd3", "lon": -77.0523815}, {"lat": 38.904654, "is_disabled": 0, "type": "electric_scooter", "fusion_lon": 0.0, "rental_uris": {"android": "https://dc.lft.to/lastmile_qr_scan", "ios": "https://dc.lft.to/lastmile_qr_scan"}, "fusion_lat": 0.0, "is_reserved": 0, "bike_id": "a5a347161d3c340f5728796d2004c28e", "name": "a5a347161d3c340f5728796d2004c28e", "lon": -77.03883933333333}, {"lat": 38.892287333333336, "is_disabled": 0, "type": "electric_scooter", "fusion_lon": 0.0, "rental_uris": {"android": "https://dc.lft.to/lastmile_qr_scan", "ios": "https://dc.lft.to/lastmile_qr_scan"}, "fusion_lat": 0.0, "is_reserved": 0, "bike_id": "3687153f022662aa96f7b5ceb713dc18", "name": "3687153f022662aa96f7b5ceb713dc18", "lon": -77.0318605}, {"lat": 38.890243166666664, "is_disabled": 0, "type": "electric_scooter", "fusion_lon": 0.0, "rental_uris": {"android": "https://dc.lft.to/lastmile_qr_scan", "ios": "https://dc.lft.to/lastmile_qr_scan"}, "fusion_lat": 0.0, "is_reserved": 0, "bike_id": "7e95526b5e69877f7e48f6daede9f697", "name": "7e95526b5e69877f7e48f6daede9f697", "lon": -76.937275}, {"lat": 38.92734166666666, "is_disabled": 0, "type": "electric_scooter", "fusion_lon": 0.0, "rental_uris": {"android": "https://dc.lft.to/lastmile_qr_scan", "ios": "https://dc.lft.to/lastmile_qr_scan"}, "fusion_lat": 0.0, "is_reserved": 0, "bike_id": "a1ab0e215938b160e129ed8f1c1e9a1b", "name": "a1ab0e215938b160e129ed8f1c1e9a1b", "lon": -77.0734}, {"lat": 38.89650283333334, "is_disabled": 0, "type": "electric_scooter", "fusion_lon": 0.0, "rental_uris": {"android": "https://dc.lft.to/lastmile_qr_scan", "ios": "https://dc.lft.to/lastmile_qr_scan"}, "fusion_lat": 0.0, "is_reserved": 0, "bike_id": "b989e1e079e4579eb85ad3c87b3ead75", "name": "b989e1e079e4579eb85ad3c87b3ead75", "lon": -77.00923316666666}, {"lat": 38.922563, "is_disabled": 0, "type": "electric_scooter", "fusion_lon": 0.0, "rental_uris": {"android": "https://dc.lft.to/lastmile_qr_scan", "ios": "https://dc.lft.to/lastmile_qr_scan"}, "fusion_lat": 0.0, "is_reserved": 0, "bike_id": "9f85a9bb9fdba20e3c2c4670bf446726", "name": "9f85a9bb9fdba20e3c2c4670bf446726", "lon": -77.01945183333333}, {"lat": 38.86701883333333, "is_disabled": 0, "type": "electric_scooter", "fusion_lon": 0.0, "rental_uris": {"android": "https://dc.lft.to/lastmile_qr_scan", "ios": "https://dc.lft.to/lastmile_qr_scan"}, "fusion_lat": 0.0, "is_reserved": 0, "bike_id": "06a4033f37fc55cdd3e1bb09418273ec", "name": "06a4033f37fc55cdd3e1bb09418273ec", "lon": -76.98711366666667}, {"lat": 38.86244416666667, "is_disabled": 0, "type": "electric_scooter", "fusion_lon": 0.0, "rental_uris": {"android": "https://dc.lft.to/lastmile_qr_scan", "ios": "https://dc.lft.to/lastmile_qr_scan"}, "fusion_lat": 0.0, "is_reserved": 0, "bike_id": "a6d47222e6277e49494e4d1c92f25560", "name": "a6d47222e6277e49494e4d1c92f25560", "lon": -76.9949925}, {"lat": 38.880493666666666, "is_disabled": 0, "type": "electric_bike", "fusion_lon": 0.0, "rental_uris": {"android": "https://dc.lft.to/lastmile_qr_scan", "ios": "https://dc.lft.to/lastmile_qr_scan"}, "fusion_lat": 0.0, "is_reserved": 0, "bike_id": "19abca8a7824457bd2a19fcf92834758", "name": "19abca8a7824457bd2a19fcf92834758", "lon": -77.01125283333333}, {"lat": 38.92251916666667, "is_disabled": 0, "type": "electric_scooter", "fusion_lon": 0.0, "rental_uris": {"android": "https://dc.lft.to/lastmile_qr_scan", "ios": "https://dc.lft.to/lastmile_qr_scan"}, "fusion_lat": 0.0, "is_reserved": 0, "bike_id": "8a6b552117911a188af02fb0a8251363", "name": "8a6b552117911a188af02fb0a8251363", "lon": -77.02963683333333}, {"lat": 38.905064833333334, "is_disabled": 0, "type": "electric_scooter", "fusion_lon": 0.0, "rental_uris": {"android": "https://dc.lft.to/lastmile_qr_scan", "ios": "https://dc.lft.to/lastmile_qr_scan"}, "fusion_lat": 0.0, "is_reserved": 0, "bike_id": "d640f209c26a716cc9de32e7fc1f40b4", "name": "d640f209c26a716cc9de32e7fc1f40b4", "lon": -77.0612235}, {"lat": 38.92113766666667, "is_disabled": 0, "type": "electric_scooter", "fusion_lon": 0.0, "rental_uris": {"android": "https://dc.lft.to/lastmile_qr_scan", "ios": "https://dc.lft.to/lastmile_qr_scan"}, "fusion_lat": 0.0, "is_reserved": 0, "bike_id": "9ddcf867380f23b819ff281d62e61ec5", "name": "9ddcf867380f23b819ff281d62e61ec5", "lon": -77.0438105}, {"lat": 38.917184, "is_disabled": 0, "type": "electric_scooter", "fusion_lon": 0.0, "rental_uris": {"android": "https://dc.lft.to/lastmile_qr_scan", "ios": "https://dc.lft.to/lastmile_qr_scan"}, "fusion_lat": 0.0, "is_reserved": 0, "bike_id": "28bd5052c667dd32698a88c1c5b21366", "name": "28bd5052c667dd32698a88c1c5b21366", "lon": -77.02410916666666}, {"lat": 38.862647333333335, "is_disabled": 0, "type": "electric_bike", "fusion_lon": 0.0, "rental_uris": {"android": "https://dc.lft.to/lastmile_qr_scan", "ios": "https://dc.lft.to/lastmile_qr_scan"}, "fusion_lat": 0.0, "is_reserved": 0, "bike_id": "a5416e13742f26d1d133d8c1aa6c01f1", "name": "a5416e13742f26d1d133d8c1aa6c01f1", "lon": -76.9835295}, {"lat": 38.919892, "is_disabled": 0, "type": "electric_scooter", "fusion_lon": 0.0, "rental_uris": {"android": "https://dc.lft.to/lastmile_qr_scan", "ios": "https://dc.lft.to/lastmile_qr_scan"}, "fusion_lat": 0.0, "is_reserved": 0, "bike_id": "8e3ad737c1006b35565a6f359f02dba3", "name": "8e3ad737c1006b35565a6f359f02dba3", "lon": -77.04168633333333}, {"lat": 38.929013833333336, "is_disabled": 0, "type": "electric_scooter", "fusion_lon": 0.0, "rental_uris": {"android": "https://dc.lft.to/lastmile_qr_scan", "ios": "https://dc.lft.to/lastmile_qr_scan"}, "fusion_lat": 0.0, "is_reserved": 0, "bike_id": "fb8bbba3800309ec1c5b45cde8c2ab4f", "name": "fb8bbba3800309ec1c5b45cde8c2ab4f", "lon": -77.0041545}, {"lat": 38.89341483333333, "is_disabled": 0, "type": "electric_scooter", "fusion_lon": 0.0, "rental_uris": {"android": "https://dc.lft.to/lastmile_qr_scan", "ios": "https://dc.lft.to/lastmile_qr_scan"}, "fusion_lat": 0.0, "is_reserved": 0, "bike_id": "f8263b6ca74202d0cb7bf19ea86acba5", "name": "f8263b6ca74202d0cb7bf19ea86acba5", "lon": -77.021693}, {"lat": 38.89220616666667, "is_disabled": 0, "type": "electric_scooter", "fusion_lon": 0.0, "rental_uris": {"android": "https://dc.lft.to/lastmile_qr_scan", "ios": "https://dc.lft.to/lastmile_qr_scan"}, "fusion_lat": 0.0, "is_reserved": 0, "bike_id": "690c38539d1f7252b677827eb7c2c4da", "name": "690c38539d1f7252b677827eb7c2c4da", "lon": -77.0263435}, {"lat": 38.922586, "is_disabled": 0, "type": "electric_scooter", "fusion_lon": 0.0, "rental_uris": {"android": "https://dc.lft.to/lastmile_qr_scan", "ios": "https://dc.lft.to/lastmile_qr_scan"}, "fusion_lat": 0.0, "is_reserved": 0, "bike_id": "e091386bbd5d51446142d109a5182edf", "name": "e091386bbd5d51446142d109a5182edf", "lon": -77.02985433333333}, {"lat": 38.941365833333336, "is_disabled": 0, "type": "electric_scooter", "fusion_lon": 0.0, "rental_uris": {"android": "https://dc.lft.to/lastmile_qr_scan", "ios": "https://dc.lft.to/lastmile_qr_scan"}, "fusion_lat": 0.0, "is_reserved": 0, "bike_id": "9915d6bf00ea68b6419135260caa7b30", "name": "9915d6bf00ea68b6419135260caa7b30", "lon": -77.05454383333333}, {"lat": 38.892466666666664, "is_disabled": 0, "type": "electric_scooter", "fusion_lon": 0.0, "rental_uris": {"android": "https://dc.lft.to/lastmile_qr_scan", "ios": "https://dc.lft.to/lastmile_qr_scan"}, "fusion_lat": 0.0, "is_reserved": 0, "bike_id": "46de4248090f6dc86b9d45c81b8ff296", "name": "46de4248090f6dc86b9d45c81b8ff296", "lon": -77.022066}, {"lat": 38.89514066666667, "is_disabled": 0, "type": "electric_scooter", "fusion_lon": 0.0, "rental_uris": {"android": "https://dc.lft.to/lastmile_qr_scan", "ios": "https://dc.lft.to/lastmile_qr_scan"}, "fusion_lat": 0.0, "is_reserved": 0, "bike_id": "30883993524c816c4c925d9b33974115", "name": "30883993524c816c4c925d9b33974115", "lon": -76.94885066666667}, {"lat": 38.905841833333334, "is_disabled": 0, "type": "electric_scooter", "fusion_lon": 0.0, "rental_uris": {"android": "https://dc.lft.to/lastmile_qr_scan", "ios": "https://dc.lft.to/lastmile_qr_scan"}, "fusion_lat": 0.0, "is_reserved": 0, "bike_id": "8f43c1a702cc9ea60a6cdcf94a6ba33c", "name": "8f43c1a702cc9ea60a6cdcf94a6ba33c", "lon": -77.062908}, {"lat": 38.917915, "is_disabled": 0, "type": "electric_scooter", "fusion_lon": 0.0, "rental_uris": {"android": "https://dc.lft.to/lastmile_qr_scan", "ios": "https://dc.lft.to/lastmile_qr_scan"}, "fusion_lat": 0.0, "is_reserved": 0, "bike_id": "f5a1f35234efcda20a9652d20fbc6c51", "name": "f5a1f35234efcda20a9652d20fbc6c51", "lon": -77.03208366666667}, {"lat": 38.93111066666667, "is_disabled": 0, "type": "electric_scooter", "fusion_lon": 0.0, "rental_uris": {"android": "https://dc.lft.to/lastmile_qr_scan", "ios": "https://dc.lft.to/lastmile_qr_scan"}, "fusion_lat": 0.0, "is_reserved": 0, "bike_id": "347869a1179995ba7c4f1d21bab35b75", "name": "347869a1179995ba7c4f1d21bab35b75", "lon": -77.03790383333333}, {"lat": 38.907313333333335, "is_disabled": 0, "type": "electric_scooter", "fusion_lon": 0.0, "rental_uris": {"android": "https://dc.lft.to/lastmile_qr_scan", "ios": "https://dc.lft.to/lastmile_qr_scan"}, "fusion_lat": 0.0, "is_reserved": 0, "bike_id": "99a06a47d98679d95e40569ab346dc61", "name": "99a06a47d98679d95e40569ab346dc61", "lon": -76.986957}, {"lat": 38.87468233333333, "is_disabled": 0, "type": "electric_scooter", "fusion_lon": 0.0, "rental_uris": {"android": "https://dc.lft.to/lastmile_qr_scan", "ios": "https://dc.lft.to/lastmile_qr_scan"}, "fusion_lat": 0.0, "is_reserved": 0, "bike_id": "4be4d5aa279325526a5239c43bd9ddbf", "name": "4be4d5aa279325526a5239c43bd9ddbf", "lon": -77.00467416666666}, {"lat": 38.901145666666665, "is_disabled": 0, "type": "electric_scooter", "fusion_lon": 0.0, "rental_uris": {"android": "https://dc.lft.to/lastmile_qr_scan", "ios": "https://dc.lft.to/lastmile_qr_scan"}, "fusion_lat": 0.0, "is_reserved": 0, "bike_id": "3e9d9b02d6a5b1d22ba48ff3813615a5", "name": "3e9d9b02d6a5b1d22ba48ff3813615a5", "lon": -77.03193016666667}, {"lat": 38.9111995, "is_disabled": 0, "type": "electric_scooter", "fusion_lon": 0.0, "rental_uris": {"android": "https://dc.lft.to/lastmile_qr_scan", "ios": "https://dc.lft.to/lastmile_qr_scan"}, "fusion_lat": 0.0, "is_reserved": 0, "bike_id": "97ae6998137adbe54f6669323fbf70cb", "name": "97ae6998137adbe54f6669323fbf70cb", "lon": -77.03192383333334}, {"lat": 38.8920005, "is_disabled": 0, "type": "electric_scooter", "fusion_lon": 0.0, "rental_uris": {"android": "https://dc.lft.to/lastmile_qr_scan", "ios": "https://dc.lft.to/lastmile_qr_scan"}, "fusion_lat": 0.0, "is_reserved": 0, "bike_id": "9125e8f78a93468962cdba842d021a35", "name": "9125e8f78a93468962cdba842d021a35", "lon": -76.93304033333334}, {"lat": 38.89239333333333, "is_disabled": 0, "type": "electric_scooter", "fusion_lon": 0.0, "rental_uris": {"android": "https://dc.lft.to/lastmile_qr_scan", "ios": "https://dc.lft.to/lastmile_qr_scan"}, "fusion_lat": 0.0, "is_reserved": 0, "bike_id": "b2e0a488599172ac46f6cb277b5ee2e5", "name": "b2e0a488599172ac46f6cb277b5ee2e5", "lon": -77.04360633333333}, {"lat": 38.923736166666664, "is_disabled": 0, "type": "electric_scooter", "fusion_lon": 0.0, "rental_uris": {"android": "https://dc.lft.to/lastmile_qr_scan", "ios": "https://dc.lft.to/lastmile_qr_scan"}, "fusion_lat": 0.0, "is_reserved": 0, "bike_id": "cc4269e92381308e108aa4f1e910b8f5", "name": "cc4269e92381308e108aa4f1e910b8f5", "lon": -77.01914133333334}, {"lat": 38.95401916666667, "is_disabled": 0, "type": "electric_scooter", "fusion_lon": 0.0, "rental_uris": {"android": "https://dc.lft.to/lastmile_qr_scan", "ios": "https://dc.lft.to/lastmile_qr_scan"}, "fusion_lat": 0.0, "is_reserved": 0, "bike_id": "8d54dfeb614dffce71d7ac9f9b1df034", "name": "8d54dfeb614dffce71d7ac9f9b1df034", "lon": -77.02781}, {"lat": 38.961190333333334, "is_disabled": 0, "type": "electric_bike", "fusion_lon": 0.0, "rental_uris": {"android": "https://dc.lft.to/lastmile_qr_scan", "ios": "https://dc.lft.to/lastmile_qr_scan"}, "fusion_lat": 0.0, "is_reserved": 0, "bike_id": "439e3aa2797428162474480eb682d828", "name": "439e3aa2797428162474480eb682d828", "lon": -77.085158}, {"lat": 38.91556966666667, "is_disabled": 0, "type": "electric_scooter", "fusion_lon": 0.0, "rental_uris": {"android": "https://dc.lft.to/lastmile_qr_scan", "ios": "https://dc.lft.to/lastmile_qr_scan"}, "fusion_lat": 0.0, "is_reserved": 0, "bike_id": "bd90f201669c72dad4130633bc4901c8", "name": "bd90f201669c72dad4130633bc4901c8", "lon": -77.02048566666667}, {"lat": 39.04306, "is_disabled": 0, "type": "electric_bike", "fusion_lon": 0.0, "rental_uris": {"android": "https://dc.lft.to/lastmile_qr_scan", "ios": "https://dc.lft.to/lastmile_qr_scan"}, "fusion_lat": 0.0, "is_reserved": 0, "bike_id": "6144489a2e932c60cf8681b6912eeede", "name": "6144489a2e932c60cf8681b6912eeede", "lon": -77.05159366666666}, {"lat": 38.91706716666667, "is_disabled": 0, "type": "electric_scooter", "fusion_lon": 0.0, "rental_uris": {"android": "https://dc.lft.to/lastmile_qr_scan", "ios": "https://dc.lft.to/lastmile_qr_scan"}, "fusion_lat": 0.0, "is_reserved": 0, "bike_id": "1572748a8fe484c8fd7607e71c0d0a8a", "name": "1572748a8fe484c8fd7607e71c0d0a8a", "lon": -77.02451633333334}, {"lat": 38.9122725, "is_disabled": 0, "type": "electric_scooter", "fusion_lon": 0.0, "rental_uris": {"android": "https://dc.lft.to/lastmile_qr_scan", "ios": "https://dc.lft.to/lastmile_qr_scan"}, "fusion_lat": 0.0, "is_reserved": 0, "bike_id": "78ae293e3451de7ad859a9ae8245d85a", "name": "78ae293e3451de7ad859a9ae8245d85a", "lon": -77.03205566666666}, {"lat": 38.866853, "is_disabled": 0, "type": "electric_bike", "fusion_lon": 0.0, "rental_uris": {"android": "https://dc.lft.to/lastmile_qr_scan", "ios": "https://dc.lft.to/lastmile_qr_scan"}, "fusion_lat": 0.0, "is_reserved": 0, "bike_id": "45b4f38ccfe7e03b5a99aa98301923e6", "name": "45b4f38ccfe7e03b5a99aa98301923e6", "lon": -76.989479}, {"lat": 38.919674666666666, "is_disabled": 0, "type": "electric_scooter", "fusion_lon": 0.0, "rental_uris": {"android": "https://dc.lft.to/lastmile_qr_scan", "ios": "https://dc.lft.to/lastmile_qr_scan"}, "fusion_lat": 0.0, "is_reserved": 0, "bike_id": "aab1801cfc061a2b5f176bd06d18a3e1", "name": "aab1801cfc061a2b5f176bd06d18a3e1", "lon": -77.0448665}, {"lat": 38.84997233333333, "is_disabled": 0, "type": "electric_scooter", "fusion_lon": 0.0, "rental_uris": {"android": "https://dc.lft.to/lastmile_qr_scan", "ios": "https://dc.lft.to/lastmile_qr_scan"}, "fusion_lat": 0.0, "is_reserved": 0, "bike_id": "5ed2bf645f3930f54041980f597f997e", "name": "5ed2bf645f3930f54041980f597f997e", "lon": -76.98347783333334}, {"lat": 38.93197833333333, "is_disabled": 0, "type": "electric_scooter", "fusion_lon": 0.0, "rental_uris": {"android": "https://dc.lft.to/lastmile_qr_scan", "ios": "https://dc.lft.to/lastmile_qr_scan"}, "fusion_lat": 0.0, "is_reserved": 0, "bike_id": "a2f469be6b95c4ecc156fa10aaf695e9", "name": "a2f469be6b95c4ecc156fa10aaf695e9", "lon": -77.0239245}, {"lat": 38.913079, "is_disabled": 0, "type": "electric_scooter", "fusion_lon": 0.0, "rental_uris": {"android": "https://dc.lft.to/lastmile_qr_scan", "ios": "https://dc.lft.to/lastmile_qr_scan"}, "fusion_lat": 0.0, "is_reserved": 0, "bike_id": "763bff834d57750d1bb54a0c42abc424", "name": "763bff834d57750d1bb54a0c42abc424", "lon": -77.03854283333334}, {"lat": 38.8922795, "is_disabled": 0, "type": "electric_scooter", "fusion_lon": 0.0, "rental_uris": {"android": "https://dc.lft.to/lastmile_qr_scan", "ios": "https://dc.lft.to/lastmile_qr_scan"}, "fusion_lat": 0.0, "is_reserved": 0, "bike_id": "07be94f240d7097fdfa668e7781538e1", "name": "07be94f240d7097fdfa668e7781538e1", "lon": -77.04898183333333}, {"lat": 38.926862, "is_disabled": 0, "type": "electric_scooter", "fusion_lon": 0.0, "rental_uris": {"android": "https://dc.lft.to/lastmile_qr_scan", "ios": "https://dc.lft.to/lastmile_qr_scan"}, "fusion_lat": 0.0, "is_reserved": 0, "bike_id": "09a2649097b309274ba02bd08ffe53cc", "name": "09a2649097b309274ba02bd08ffe53cc", "lon": -77.02254783333333}, {"lat": 38.921447666666666, "is_disabled": 0, "type": "electric_scooter", "fusion_lon": 0.0, "rental_uris": {"android": "https://dc.lft.to/lastmile_qr_scan", "ios": "https://dc.lft.to/lastmile_qr_scan"}, "fusion_lat": 0.0, "is_reserved": 0, "bike_id": "1eb67360b2e780d893985097aebac071", "name": "1eb67360b2e780d893985097aebac071", "lon": -77.018669}, {"lat": 38.90871583333333, "is_disabled": 0, "type": "electric_scooter", "fusion_lon": 0.0, "rental_uris": {"android": "https://dc.lft.to/lastmile_qr_scan", "ios": "https://dc.lft.to/lastmile_qr_scan"}, "fusion_lat": 0.0, "is_reserved": 0, "bike_id": "fc5d8c536013facdeea5a9dcd4d3d9a2", "name": "fc5d8c536013facdeea5a9dcd4d3d9a2", "lon": -76.99827366666666}, {"lat": 38.90767366666667, "is_disabled": 0, "type": "electric_scooter", "fusion_lon": 0.0, "rental_uris": {"android": "https://dc.lft.to/lastmile_qr_scan", "ios": "https://dc.lft.to/lastmile_qr_scan"}, "fusion_lat": 0.0, "is_reserved": 0, "bike_id": "d29cac9fc411ce6d86940d3be5376059", "name": "d29cac9fc411ce6d86940d3be5376059", "lon": -77.0731395}, {"lat": 38.8904965, "is_disabled": 0, "type": "electric_scooter", "fusion_lon": 0.0, "rental_uris": {"android": "https://dc.lft.to/lastmile_qr_scan", "ios": "https://dc.lft.to/lastmile_qr_scan"}, "fusion_lat": 0.0, "is_reserved": 0, "bike_id": "ee8743560cc618b7a0859f95fa35ffc0", "name": "ee8743560cc618b7a0859f95fa35ffc0", "lon": -76.9376035}, {"lat": 38.866857333333336, "is_disabled": 0, "type": "electric_scooter", "fusion_lon": 0.0, "rental_uris": {"android": "https://dc.lft.to/lastmile_qr_scan", "ios": "https://dc.lft.to/lastmile_qr_scan"}, "fusion_lat": 0.0, "is_reserved": 0, "bike_id": "393cfa109b1687d964ccf2ac6e334cfe", "name": "393cfa109b1687d964ccf2ac6e334cfe", "lon": -76.9859605}, {"lat": 38.887177333333334, "is_disabled": 0, "type": "electric_scooter", "fusion_lon": 0.0, "rental_uris": {"android": "https://dc.lft.to/lastmile_qr_scan", "ios": "https://dc.lft.to/lastmile_qr_scan"}, "fusion_lat": 0.0, "is_reserved": 0, "bike_id": "30509e2a402fe645bde319c57c4e3087", "name": "30509e2a402fe645bde319c57c4e3087", "lon": -76.98353066666667}, {"lat": 38.918056166666666, "is_disabled": 0, "type": "electric_scooter", "fusion_lon": 0.0, "rental_uris": {"android": "https://dc.lft.to/lastmile_qr_scan", "ios": "https://dc.lft.to/lastmile_qr_scan"}, "fusion_lat": 0.0, "is_reserved": 0, "bike_id": "5c5d9ee8cb493cf5d3110fa025c87958", "name": "5c5d9ee8cb493cf5d3110fa025c87958", "lon": -77.03182266666667}, {"lat": 38.927454833333336, "is_disabled": 0, "type": "electric_scooter", "fusion_lon": 0.0, "rental_uris": {"android": "https://dc.lft.to/lastmile_qr_scan", "ios": "https://dc.lft.to/lastmile_qr_scan"}, "fusion_lat": 0.0, "is_reserved": 0, "bike_id": "7a305b7156c3e058ec3151452c65195e", "name": "7a305b7156c3e058ec3151452c65195e", "lon": -77.0226335}, {"lat": 38.8930865, "is_disabled": 0, "type": "electric_scooter", "fusion_lon": 0.0, "rental_uris": {"android": "https://dc.lft.to/lastmile_qr_scan", "ios": "https://dc.lft.to/lastmile_qr_scan"}, "fusion_lat": 0.0, "is_reserved": 0, "bike_id": "ecbf67cd436c6ef4036c3b0bb9a7a175", "name": "ecbf67cd436c6ef4036c3b0bb9a7a175", "lon": -76.92922316666667}, {"lat": 38.92661616666667, "is_disabled": 0, "type": "electric_scooter", "fusion_lon": 0.0, "rental_uris": {"android": "https://dc.lft.to/lastmile_qr_scan", "ios": "https://dc.lft.to/lastmile_qr_scan"}, "fusion_lat": 0.0, "is_reserved": 0, "bike_id": "ea7b36bbe1cd541a9fcd18e73827a5a8", "name": "ea7b36bbe1cd541a9fcd18e73827a5a8", "lon": -77.02276466666666}, {"lat": 38.81204683333333, "is_disabled": 0, "type": "electric_bike", "fusion_lon": 0.0, "rental_uris": {"android": "https://dc.lft.to/lastmile_qr_scan", "ios": "https://dc.lft.to/lastmile_qr_scan"}, "fusion_lat": 0.0, "is_reserved": 0, "bike_id": "0d350147e210f293264817776133289e", "name": "0d350147e210f293264817776133289e", "lon": -77.10842333333333}, {"lat": 38.913528666666664, "is_disabled": 0, "type": "electric_scooter", "fusion_lon": 0.0, "rental_uris": {"android": "https://dc.lft.to/lastmile_qr_scan", "ios": "https://dc.lft.to/lastmile_qr_scan"}, "fusion_lat": 0.0, "is_reserved": 0, "bike_id": "7b18bf6af15b87217f0b50548e872c2d", "name": "7b18bf6af15b87217f0b50548e872c2d", "lon": -77.03333633333334}, {"lat": 38.9092985, "is_disabled": 0, "type": "electric_scooter", "fusion_lon": 0.0, "rental_uris": {"android": "https://dc.lft.to/lastmile_qr_scan", "ios": "https://dc.lft.to/lastmile_qr_scan"}, "fusion_lat": 0.0, "is_reserved": 0, "bike_id": "2245ed8e7f01388481db87b4679983a8", "name": "2245ed8e7f01388481db87b4679983a8", "lon": -76.985692}, {"lat": 38.8980515, "is_disabled": 0, "type": "electric_scooter", "fusion_lon": 0.0, "rental_uris": {"android": "https://dc.lft.to/lastmile_qr_scan", "ios": "https://dc.lft.to/lastmile_qr_scan"}, "fusion_lat": 0.0, "is_reserved": 0, "bike_id": "e6e1cdbb6e9a932e9b7bc0283526b3ba", "name": "e6e1cdbb6e9a932e9b7bc0283526b3ba", "lon": -77.03295433333334}, {"lat": 38.916855166666664, "is_disabled": 0, "type": "electric_scooter", "fusion_lon": 0.0, "rental_uris": {"android": "https://dc.lft.to/lastmile_qr_scan", "ios": "https://dc.lft.to/lastmile_qr_scan"}, "fusion_lat": 0.0, "is_reserved": 0, "bike_id": "0f42389b640fd873a76e2e97f1d64d8f", "name": "0f42389b640fd873a76e2e97f1d64d8f", "lon": -77.0280205}, {"lat": 38.8954965, "is_disabled": 0, "type": "electric_scooter", "fusion_lon": 0.0, "rental_uris": {"android": "https://dc.lft.to/lastmile_qr_scan", "ios": "https://dc.lft.to/lastmile_qr_scan"}, "fusion_lat": 0.0, "is_reserved": 0, "bike_id": "d593466bfce74ead590072c1abb9a426", "name": "d593466bfce74ead590072c1abb9a426", "lon": -77.00933283333333}, {"lat": 38.87220683333334, "is_disabled": 0, "type": "electric_scooter", "fusion_lon": 0.0, "rental_uris": {"android": "https://dc.lft.to/lastmile_qr_scan", "ios": "https://dc.lft.to/lastmile_qr_scan"}, "fusion_lat": 0.0, "is_reserved": 0, "bike_id": "1915ca949ab34b723411fed35e826d43", "name": "1915ca949ab34b723411fed35e826d43", "lon": -77.0057615}, {"lat": 38.89959316666667, "is_disabled": 0, "type": "electric_scooter", "fusion_lon": 0.0, "rental_uris": {"android": "https://dc.lft.to/lastmile_qr_scan", "ios": "https://dc.lft.to/lastmile_qr_scan"}, "fusion_lat": 0.0, "is_reserved": 0, "bike_id": "daa3cad5dcb01c8d2c451da824cb6a27", "name": "daa3cad5dcb01c8d2c451da824cb6a27", "lon": -77.04783533333334}, {"lat": 38.865055166666664, "is_disabled": 0, "type": "electric_scooter", "fusion_lon": 0.0, "rental_uris": {"android": "https://dc.lft.to/lastmile_qr_scan", "ios": "https://dc.lft.to/lastmile_qr_scan"}, "fusion_lat": 0.0, "is_reserved": 0, "bike_id": "07f847057c43c6d27dd5872e55424c8f", "name": "07f847057c43c6d27dd5872e55424c8f", "lon": -76.99005283333334}, {"lat": 38.892441166666664, "is_disabled": 0, "type": "electric_scooter", "fusion_lon": 0.0, "rental_uris": {"android": "https://dc.lft.to/lastmile_qr_scan", "ios": "https://dc.lft.to/lastmile_qr_scan"}, "fusion_lat": 0.0, "is_reserved": 0, "bike_id": "04f9b475f82adacc5324cfdd667ff5c8", "name": "04f9b475f82adacc5324cfdd667ff5c8", "lon": -77.0395795}, {"lat": 38.901553666666665, "is_disabled": 0, "type": "electric_scooter", "fusion_lon": 0.0, "rental_uris": {"android": "https://dc.lft.to/lastmile_qr_scan", "ios": "https://dc.lft.to/lastmile_qr_scan"}, "fusion_lat": 0.0, "is_reserved": 0, "bike_id": "49f406eb4ae594466fdac4e37fbbfe1e", "name": "49f406eb4ae594466fdac4e37fbbfe1e", "lon": -77.0284995}, {"lat": 38.8984245, "is_disabled": 0, "type": "electric_scooter", "fusion_lon": 0.0, "rental_uris": {"android": "https://dc.lft.to/lastmile_qr_scan", "ios": "https://dc.lft.to/lastmile_qr_scan"}, "fusion_lat": 0.0, "is_reserved": 0, "bike_id": "b37ddaddddace72b408cf5bdd6eef9f9", "name": "b37ddaddddace72b408cf5bdd6eef9f9", "lon": -77.02848816666666}, {"lat": 38.91349316666667, "is_disabled": 0, "type": "electric_scooter", "fusion_lon": 0.0, "rental_uris": {"android": "https://dc.lft.to/lastmile_qr_scan", "ios": "https://dc.lft.to/lastmile_qr_scan"}, "fusion_lat": 0.0, "is_reserved": 0, "bike_id": "d36f5d152fe976de7aa4eb9e76fff9c5", "name": "d36f5d152fe976de7aa4eb9e76fff9c5", "lon": -77.043529}, {"lat": 38.86699983333333, "is_disabled": 0, "type": "electric_scooter", "fusion_lon": 0.0, "rental_uris": {"android": "https://dc.lft.to/lastmile_qr_scan", "ios": "https://dc.lft.to/lastmile_qr_scan"}, "fusion_lat": 0.0, "is_reserved": 0, "bike_id": "7e611b0afae5deea889205156f1b2724", "name": "7e611b0afae5deea889205156f1b2724", "lon": -76.9871445}, {"lat": 38.909104, "is_disabled": 0, "type": "electric_scooter", "fusion_lon": 0.0, "rental_uris": {"android": "https://dc.lft.to/lastmile_qr_scan", "ios": "https://dc.lft.to/lastmile_qr_scan"}, "fusion_lat": 0.0, "is_reserved": 0, "bike_id": "ff534206ef9104ee4034761f51be340e", "name": "ff534206ef9104ee4034761f51be340e", "lon": -77.07277933333333}, {"lat": 38.91813783333333, "is_disabled": 0, "type": "electric_scooter", "fusion_lon": 0.0, "rental_uris": {"android": "https://dc.lft.to/lastmile_qr_scan", "ios": "https://dc.lft.to/lastmile_qr_scan"}, "fusion_lat": 0.0, "is_reserved": 0, "bike_id": "6720a1e56f8a32bbf83daaf8d3983ca8", "name": "6720a1e56f8a32bbf83daaf8d3983ca8", "lon": -77.03143166666666}, {"lat": 38.89726366666667, "is_disabled": 0, "type": "electric_scooter", "fusion_lon": 0.0, "rental_uris": {"android": "https://dc.lft.to/lastmile_qr_scan", "ios": "https://dc.lft.to/lastmile_qr_scan"}, "fusion_lat": 0.0, "is_reserved": 0, "bike_id": "7a0490fe7251982201178a05e146aff0", "name": "7a0490fe7251982201178a05e146aff0", "lon": -77.04364516666666}, {"lat": 38.8191095, "is_disabled": 0, "type": "electric_bike", "fusion_lon": 0.0, "rental_uris": {"android": "https://dc.lft.to/lastmile_qr_scan", "ios": "https://dc.lft.to/lastmile_qr_scan"}, "fusion_lat": 0.0, "is_reserved": 0, "bike_id": "83180241d98c25bb51fe05d837dc8ff6", "name": "83180241d98c25bb51fe05d837dc8ff6", "lon": -76.99909633333333}, {"lat": 38.871837, "is_disabled": 0, "type": "electric_scooter", "fusion_lon": 0.0, "rental_uris": {"android": "https://dc.lft.to/lastmile_qr_scan", "ios": "https://dc.lft.to/lastmile_qr_scan"}, "fusion_lat": 0.0, "is_reserved": 0, "bike_id": "90be8f5c167b69b879a66a1725d5c432", "name": "90be8f5c167b69b879a66a1725d5c432", "lon": -77.00604233333334}, {"lat": 38.984635, "is_disabled": 0, "type": "electric_scooter", "fusion_lon": 0.0, "rental_uris": {"android": "https://dc.lft.to/lastmile_qr_scan", "ios": "https://dc.lft.to/lastmile_qr_scan"}, "fusion_lat": 0.0, "is_reserved": 0, "bike_id": "222a74cb1ca8963541670fae426ba7f3", "name": "222a74cb1ca8963541670fae426ba7f3", "lon": -77.02678433333334}, {"lat": 38.923468166666666, "is_disabled": 0, "type": "electric_scooter", "fusion_lon": 0.0, "rental_uris": {"android": "https://dc.lft.to/lastmile_qr_scan", "ios": "https://dc.lft.to/lastmile_qr_scan"}, "fusion_lat": 0.0, "is_reserved": 0, "bike_id": "ef189fdf204a9d241261964f21d2b2ee", "name": "ef189fdf204a9d241261964f21d2b2ee", "lon": -77.03514183333333}, {"lat": 38.905402333333335, "is_disabled": 0, "type": "electric_scooter", "fusion_lon": 0.0, "rental_uris": {"android": "https://dc.lft.to/lastmile_qr_scan", "ios": "https://dc.lft.to/lastmile_qr_scan"}, "fusion_lat": 0.0, "is_reserved": 0, "bike_id": "d93bf34cccffec0854a98e5a98d42f40", "name": "d93bf34cccffec0854a98e5a98d42f40", "lon": -77.059104}, {"lat": 38.87996116666667, "is_disabled": 0, "type": "electric_bike", "fusion_lon": 0.0, "rental_uris": {"android": "https://dc.lft.to/lastmile_qr_scan", "ios": "https://dc.lft.to/lastmile_qr_scan"}, "fusion_lat": 0.0, "is_reserved": 0, "bike_id": "67d192398459036a2e9de276de44283c", "name": "67d192398459036a2e9de276de44283c", "lon": -76.98464933333334}, {"lat": 38.92865666666667, "is_disabled": 0, "type": "electric_scooter", "fusion_lon": 0.0, "rental_uris": {"android": "https://dc.lft.to/lastmile_qr_scan", "ios": "https://dc.lft.to/lastmile_qr_scan"}, "fusion_lat": 0.0, "is_reserved": 0, "bike_id": "33f80a3178285775c263085d8a8cf30a", "name": "33f80a3178285775c263085d8a8cf30a", "lon": -77.01417133333334}, {"lat": 38.900197166666665, "is_disabled": 0, "type": "electric_scooter", "fusion_lon": 0.0, "rental_uris": {"android": "https://dc.lft.to/lastmile_qr_scan", "ios": "https://dc.lft.to/lastmile_qr_scan"}, "fusion_lat": 0.0, "is_reserved": 0, "bike_id": "53df4fe9fb4cfb660d98ceb0ea24efc2", "name": "53df4fe9fb4cfb660d98ceb0ea24efc2", "lon": -77.04025533333333}, {"lat": 38.879054833333335, "is_disabled": 0, "type": "electric_bike", "fusion_lon": 0.0, "rental_uris": {"android": "https://dc.lft.to/lastmile_qr_scan", "ios": "https://dc.lft.to/lastmile_qr_scan"}, "fusion_lat": 0.0, "is_reserved": 0, "bike_id": "0db3fe03295adb6c10e6e4ef2ba072a9", "name": "0db3fe03295adb6c10e6e4ef2ba072a9", "lon": -77.00782933333333}, {"lat": 38.918294333333336, "is_disabled": 0, "type": "electric_scooter", "fusion_lon": 0.0, "rental_uris": {"android": "https://dc.lft.to/lastmile_qr_scan", "ios": "https://dc.lft.to/lastmile_qr_scan"}, "fusion_lat": 0.0, "is_reserved": 0, "bike_id": "9dbb2eb0d7dee0e64dcbe8a054c22636", "name": "9dbb2eb0d7dee0e64dcbe8a054c22636", "lon": -77.0393915}, {"lat": 38.92318266666667, "is_disabled": 0, "type": "electric_scooter", "fusion_lon": 0.0, "rental_uris": {"android": "https://dc.lft.to/lastmile_qr_scan", "ios": "https://dc.lft.to/lastmile_qr_scan"}, "fusion_lat": 0.0, "is_reserved": 0, "bike_id": "f472ffd8baa41ae68fec010eae529dce", "name": "f472ffd8baa41ae68fec010eae529dce", "lon": -77.03805516666667}, {"lat": 38.920615833333336, "is_disabled": 0, "type": "electric_scooter", "fusion_lon": 0.0, "rental_uris": {"android": "https://dc.lft.to/lastmile_qr_scan", "ios": "https://dc.lft.to/lastmile_qr_scan"}, "fusion_lat": 0.0, "is_reserved": 0, "bike_id": "6aac5316828894ac4d0a592f920b6570", "name": "6aac5316828894ac4d0a592f920b6570", "lon": -77.032342}, {"lat": 38.914782, "is_disabled": 0, "type": "electric_scooter", "fusion_lon": 0.0, "rental_uris": {"android": "https://dc.lft.to/lastmile_qr_scan", "ios": "https://dc.lft.to/lastmile_qr_scan"}, "fusion_lat": 0.0, "is_reserved": 0, "bike_id": "6840253cf55c43dbdd1aaa8907d0e68c", "name": "6840253cf55c43dbdd1aaa8907d0e68c", "lon": -77.02583216666666}, {"lat": 38.90839233333333, "is_disabled": 0, "type": "electric_scooter", "fusion_lon": 0.0, "rental_uris": {"android": "https://dc.lft.to/lastmile_qr_scan", "ios": "https://dc.lft.to/lastmile_qr_scan"}, "fusion_lat": 0.0, "is_reserved": 0, "bike_id": "8971764cfdc7719f1515adaa12984828", "name": "8971764cfdc7719f1515adaa12984828", "lon": -76.99713383333334}, {"lat": 38.939862833333336, "is_disabled": 0, "type": "electric_scooter", "fusion_lon": 0.0, "rental_uris": {"android": "https://dc.lft.to/lastmile_qr_scan", "ios": "https://dc.lft.to/lastmile_qr_scan"}, "fusion_lat": 0.0, "is_reserved": 0, "bike_id": "cc6b0e14d087347db006e1a8e9340221", "name": "cc6b0e14d087347db006e1a8e9340221", "lon": -77.03014266666666}, {"lat": 38.91492316666667, "is_disabled": 0, "type": "electric_scooter", "fusion_lon": 0.0, "rental_uris": {"android": "https://dc.lft.to/lastmile_qr_scan", "ios": "https://dc.lft.to/lastmile_qr_scan"}, "fusion_lat": 0.0, "is_reserved": 0, "bike_id": "2037341a0f03451a6b58555d714f34b5", "name": "2037341a0f03451a6b58555d714f34b5", "lon": -77.03238283333333}, {"lat": 38.89226683333333, "is_disabled": 0, "type": "electric_scooter", "fusion_lon": 0.0, "rental_uris": {"android": "https://dc.lft.to/lastmile_qr_scan", "ios": "https://dc.lft.to/lastmile_qr_scan"}, "fusion_lat": 0.0, "is_reserved": 0, "bike_id": "94a3478a23aa6d28683779c029b7b867", "name": "94a3478a23aa6d28683779c029b7b867", "lon": -77.04335566666667}, {"lat": 38.89627083333333, "is_disabled": 0, "type": "electric_scooter", "fusion_lon": 0.0, "rental_uris": {"android": "https://dc.lft.to/lastmile_qr_scan", "ios": "https://dc.lft.to/lastmile_qr_scan"}, "fusion_lat": 0.0, "is_reserved": 0, "bike_id": "6bff1757013a55a924788386f7612e9f", "name": "6bff1757013a55a924788386f7612e9f", "lon": -77.01221266666667}, {"lat": 38.88917716666667, "is_disabled": 0, "type": "electric_scooter", "fusion_lon": 0.0, "rental_uris": {"android": "https://dc.lft.to/lastmile_qr_scan", "ios": "https://dc.lft.to/lastmile_qr_scan"}, "fusion_lat": 0.0, "is_reserved": 0, "bike_id": "b357210ba85c03face10930d966f8a42", "name": "b357210ba85c03face10930d966f8a42", "lon": -76.99133516666667}, {"lat": 38.85806683333333, "is_disabled": 0, "type": "electric_scooter", "fusion_lon": 0.0, "rental_uris": {"android": "https://dc.lft.to/lastmile_qr_scan", "ios": "https://dc.lft.to/lastmile_qr_scan"}, "fusion_lat": 0.0, "is_reserved": 0, "bike_id": "55376826ee81436f5af7f8b0253b124a", "name": "55376826ee81436f5af7f8b0253b124a", "lon": -76.99149133333333}, {"lat": 38.923618166666664, "is_disabled": 0, "type": "electric_scooter", "fusion_lon": 0.0, "rental_uris": {"android": "https://dc.lft.to/lastmile_qr_scan", "ios": "https://dc.lft.to/lastmile_qr_scan"}, "fusion_lat": 0.0, "is_reserved": 0, "bike_id": "2425e4c35e0c788c38c0aa10a4e06f4a", "name": "2425e4c35e0c788c38c0aa10a4e06f4a", "lon": -77.0505905}, {"lat": 38.90872266666667, "is_disabled": 0, "type": "electric_scooter", "fusion_lon": 0.0, "rental_uris": {"android": "https://dc.lft.to/lastmile_qr_scan", "ios": "https://dc.lft.to/lastmile_qr_scan"}, "fusion_lat": 0.0, "is_reserved": 0, "bike_id": "046538e7add909e97bdd8e11fcb8e232", "name": "046538e7add909e97bdd8e11fcb8e232", "lon": -77.04319}, {"lat": 38.91077266666667, "is_disabled": 0, "type": "electric_scooter", "fusion_lon": 0.0, "rental_uris": {"android": "https://dc.lft.to/lastmile_qr_scan", "ios": "https://dc.lft.to/lastmile_qr_scan"}, "fusion_lat": 0.0, "is_reserved": 0, "bike_id": "52e40ffbc23222df3beb7c818a232cf2", "name": "52e40ffbc23222df3beb7c818a232cf2", "lon": -77.02205666666667}, {"lat": 38.916615, "is_disabled": 0, "type": "electric_scooter", "fusion_lon": 0.0, "rental_uris": {"android": "https://dc.lft.to/lastmile_qr_scan", "ios": "https://dc.lft.to/lastmile_qr_scan"}, "fusion_lat": 0.0, "is_reserved": 0, "bike_id": "676c26ed5eb184dae9825176f6ff2a1f", "name": "676c26ed5eb184dae9825176f6ff2a1f", "lon": -77.04188583333334}, {"lat": 38.936121166666666, "is_disabled": 0, "type": "electric_scooter", "fusion_lon": 0.0, "rental_uris": {"android": "https://dc.lft.to/lastmile_qr_scan", "ios": "https://dc.lft.to/lastmile_qr_scan"}, "fusion_lat": 0.0, "is_reserved": 0, "bike_id": "c776ab4cdca3a32f0da56e3ef0a602c3", "name": "c776ab4cdca3a32f0da56e3ef0a602c3", "lon": -77.05897016666667}, {"lat": 38.874592, "is_disabled": 0, "type": "electric_scooter", "fusion_lon": 0.0, "rental_uris": {"android": "https://dc.lft.to/lastmile_qr_scan", "ios": "https://dc.lft.to/lastmile_qr_scan"}, "fusion_lat": 0.0, "is_reserved": 0, "bike_id": "d54caf485b85debbe920443ca18a0358", "name": "d54caf485b85debbe920443ca18a0358", "lon": -77.005412}, {"lat": 38.8929775, "is_disabled": 0, "type": "electric_scooter", "fusion_lon": 0.0, "rental_uris": {"android": "https://dc.lft.to/lastmile_qr_scan", "ios": "https://dc.lft.to/lastmile_qr_scan"}, "fusion_lat": 0.0, "is_reserved": 0, "bike_id": "68d7909e2ed826bc51c1bbc51d761c8f", "name": "68d7909e2ed826bc51c1bbc51d761c8f", "lon": -77.012408}, {"lat": 38.91553483333333, "is_disabled": 0, "type": "electric_scooter", "fusion_lon": 0.0, "rental_uris": {"android": "https://dc.lft.to/lastmile_qr_scan", "ios": "https://dc.lft.to/lastmile_qr_scan"}, "fusion_lat": 0.0, "is_reserved": 0, "bike_id": "3dba8533194f9aa2ea07445aad422ab1", "name": "3dba8533194f9aa2ea07445aad422ab1", "lon": -77.007016}, {"lat": 38.863731333333334, "is_disabled": 0, "type": "electric_scooter", "fusion_lon": 0.0, "rental_uris": {"android": "https://dc.lft.to/lastmile_qr_scan", "ios": "https://dc.lft.to/lastmile_qr_scan"}, "fusion_lat": 0.0, "is_reserved": 0, "bike_id": "2106dfaab44e7dc8d0004279e3b1b142", "name": "2106dfaab44e7dc8d0004279e3b1b142", "lon": -76.99060916666667}, {"lat": 38.89609866666667, "is_disabled": 0, "type": "electric_scooter", "fusion_lon": 0.0, "rental_uris": {"android": "https://dc.lft.to/lastmile_qr_scan", "ios": "https://dc.lft.to/lastmile_qr_scan"}, "fusion_lat": 0.0, "is_reserved": 0, "bike_id": "92d6d100beb01e641881e5dde67fd51a", "name": "92d6d100beb01e641881e5dde67fd51a", "lon": -77.0455815}, {"lat": 38.887060166666664, "is_disabled": 0, "type": "electric_scooter", "fusion_lon": 0.0, "rental_uris": {"android": "https://dc.lft.to/lastmile_qr_scan", "ios": "https://dc.lft.to/lastmile_qr_scan"}, "fusion_lat": 0.0, "is_reserved": 0, "bike_id": "2e2c4189f4b66dc70062aaedc54a5e35", "name": "2e2c4189f4b66dc70062aaedc54a5e35", "lon": -77.01368016666666}, {"lat": 38.86657, "is_disabled": 0, "type": "electric_scooter", "fusion_lon": 0.0, "rental_uris": {"android": "https://dc.lft.to/lastmile_qr_scan", "ios": "https://dc.lft.to/lastmile_qr_scan"}, "fusion_lat": 0.0, "is_reserved": 0, "bike_id": "aa95b0fa1061cdd8463d91b5c4f311c1", "name": "aa95b0fa1061cdd8463d91b5c4f311c1", "lon": -76.98539233333334}, {"lat": 38.93982233333333, "is_disabled": 0, "type": "electric_scooter", "fusion_lon": 0.0, "rental_uris": {"android": "https://dc.lft.to/lastmile_qr_scan", "ios": "https://dc.lft.to/lastmile_qr_scan"}, "fusion_lat": 0.0, "is_reserved": 0, "bike_id": "f5e84608c014fa87e74d6cf89a8f8f72", "name": "f5e84608c014fa87e74d6cf89a8f8f72", "lon": -77.03264866666666}, {"lat": 38.89876616666667, "is_disabled": 0, "type": "electric_scooter", "fusion_lon": 0.0, "rental_uris": {"android": "https://dc.lft.to/lastmile_qr_scan", "ios": "https://dc.lft.to/lastmile_qr_scan"}, "fusion_lat": 0.0, "is_reserved": 0, "bike_id": "a2482db47a2902e9a9e6e56481461ff7", "name": "a2482db47a2902e9a9e6e56481461ff7", "lon": -77.021946}, {"lat": 38.9562805, "is_disabled": 0, "type": "electric_scooter", "fusion_lon": 0.0, "rental_uris": {"android": "https://dc.lft.to/lastmile_qr_scan", "ios": "https://dc.lft.to/lastmile_qr_scan"}, "fusion_lat": 0.0, "is_reserved": 0, "bike_id": "3f704b71b86c3476a4649e31af0af0db", "name": "3f704b71b86c3476a4649e31af0af0db", "lon": -77.03300383333334}, {"lat": 38.9181925, "is_disabled": 0, "type": "electric_scooter", "fusion_lon": 0.0, "rental_uris": {"android": "https://dc.lft.to/lastmile_qr_scan", "ios": "https://dc.lft.to/lastmile_qr_scan"}, "fusion_lat": 0.0, "is_reserved": 0, "bike_id": "b3ad7e1bd865e61e42e1f5cb8e84f37a", "name": "b3ad7e1bd865e61e42e1f5cb8e84f37a", "lon": -77.025323}, {"lat": 38.91912283333333, "is_disabled": 0, "type": "electric_scooter", "fusion_lon": 0.0, "rental_uris": {"android": "https://dc.lft.to/lastmile_qr_scan", "ios": "https://dc.lft.to/lastmile_qr_scan"}, "fusion_lat": 0.0, "is_reserved": 0, "bike_id": "5ead11f23b1bf1a01e2c71071854729b", "name": "5ead11f23b1bf1a01e2c71071854729b", "lon": -77.03439916666666}, {"lat": 38.86661083333333, "is_disabled": 0, "type": "electric_scooter", "fusion_lon": 0.0, "rental_uris": {"android": "https://dc.lft.to/lastmile_qr_scan", "ios": "https://dc.lft.to/lastmile_qr_scan"}, "fusion_lat": 0.0, "is_reserved": 0, "bike_id": "8004eb20419c8e3b52bc6ed6e90ed4df", "name": "8004eb20419c8e3b52bc6ed6e90ed4df", "lon": -76.98503666666667}, {"lat": 38.89227316666667, "is_disabled": 0, "type": "electric_scooter", "fusion_lon": 0.0, "rental_uris": {"android": "https://dc.lft.to/lastmile_qr_scan", "ios": "https://dc.lft.to/lastmile_qr_scan"}, "fusion_lat": 0.0, "is_reserved": 0, "bike_id": "8dd325ee38e1468b7ed862eff3d4e4f2", "name": "8dd325ee38e1468b7ed862eff3d4e4f2", "lon": -77.03220483333334}, {"lat": 38.86523483333333, "is_disabled": 0, "type": "electric_bike", "fusion_lon": 0.0, "rental_uris": {"android": "https://dc.lft.to/lastmile_qr_scan", "ios": "https://dc.lft.to/lastmile_qr_scan"}, "fusion_lat": 0.0, "is_reserved": 0, "bike_id": "f72e65dd3bd63f4bbdb169565f66c33e", "name": "f72e65dd3bd63f4bbdb169565f66c33e", "lon": -76.97340766666667}, {"lat": 38.9170995, "is_disabled": 0, "type": "electric_scooter", "fusion_lon": 0.0, "rental_uris": {"android": "https://dc.lft.to/lastmile_qr_scan", "ios": "https://dc.lft.to/lastmile_qr_scan"}, "fusion_lat": 0.0, "is_reserved": 0, "bike_id": "6f81c29e9cdd3ea89f2699931067f402", "name": "6f81c29e9cdd3ea89f2699931067f402", "lon": -77.03072583333334}, {"lat": 38.89222383333333, "is_disabled": 0, "type": "electric_scooter", "fusion_lon": 0.0, "rental_uris": {"android": "https://dc.lft.to/lastmile_qr_scan", "ios": "https://dc.lft.to/lastmile_qr_scan"}, "fusion_lat": 0.0, "is_reserved": 0, "bike_id": "4ceaeae813a91a0c973e72c32df94011", "name": "4ceaeae813a91a0c973e72c32df94011", "lon": -77.03167783333333}, {"lat": 38.89753266666666, "is_disabled": 0, "type": "electric_scooter", "fusion_lon": 0.0, "rental_uris": {"android": "https://dc.lft.to/lastmile_qr_scan", "ios": "https://dc.lft.to/lastmile_qr_scan"}, "fusion_lat": 0.0, "is_reserved": 0, "bike_id": "05b2c7c01f023cfe88ca60fb9cc3d0d3", "name": "05b2c7c01f023cfe88ca60fb9cc3d0d3", "lon": -76.989755}, {"lat": 38.94988266666667, "is_disabled": 0, "type": "electric_scooter", "fusion_lon": 0.0, "rental_uris": {"android": "https://dc.lft.to/lastmile_qr_scan", "ios": "https://dc.lft.to/lastmile_qr_scan"}, "fusion_lat": 0.0, "is_reserved": 0, "bike_id": "6db7446057c2a965b6b589f09374d47d", "name": "6db7446057c2a965b6b589f09374d47d", "lon": -77.0270405}, {"lat": 38.898025, "is_disabled": 0, "type": "electric_scooter", "fusion_lon": 0.0, "rental_uris": {"android": "https://dc.lft.to/lastmile_qr_scan", "ios": "https://dc.lft.to/lastmile_qr_scan"}, "fusion_lat": 0.0, "is_reserved": 0, "bike_id": "d28caada775257b2add78d9a707cd51a", "name": "d28caada775257b2add78d9a707cd51a", "lon": -76.99166383333333}, {"lat": 38.906341166666664, "is_disabled": 0, "type": "electric_scooter", "fusion_lon": 0.0, "rental_uris": {"android": "https://dc.lft.to/lastmile_qr_scan", "ios": "https://dc.lft.to/lastmile_qr_scan"}, "fusion_lat": 0.0, "is_reserved": 0, "bike_id": "1f99fd5612e541e090f76b3b9abf6e9c", "name": "1f99fd5612e541e090f76b3b9abf6e9c", "lon": -77.00999683333333}, {"lat": 38.904598166666666, "is_disabled": 0, "type": "electric_scooter", "fusion_lon": 0.0, "rental_uris": {"android": "https://dc.lft.to/lastmile_qr_scan", "ios": "https://dc.lft.to/lastmile_qr_scan"}, "fusion_lat": 0.0, "is_reserved": 0, "bike_id": "d10443809e3e94b4d8fc95de5c65d300", "name": "d10443809e3e94b4d8fc95de5c65d300", "lon": -77.060065}, {"lat": 38.9290365, "is_disabled": 0, "type": "electric_scooter", "fusion_lon": 0.0, "rental_uris": {"android": "https://dc.lft.to/lastmile_qr_scan", "ios": "https://dc.lft.to/lastmile_qr_scan"}, "fusion_lat": 0.0, "is_reserved": 0, "bike_id": "ad29286140dbcdd3c7f6cdb2bd7d6ea9", "name": "ad29286140dbcdd3c7f6cdb2bd7d6ea9", "lon": -77.032553}, {"lat": 38.97507566666667, "is_disabled": 0, "type": "electric_scooter", "fusion_lon": 0.0, "rental_uris": {"android": "https://dc.lft.to/lastmile_qr_scan", "ios": "https://dc.lft.to/lastmile_qr_scan"}, "fusion_lat": 0.0, "is_reserved": 0, "bike_id": "1822d7381f727a01ed42e254c6d05213", "name": "1822d7381f727a01ed42e254c6d05213", "lon": -77.0168035}, {"lat": 38.90536383333333, "is_disabled": 0, "type": "electric_scooter", "fusion_lon": 0.0, "rental_uris": {"android": "https://dc.lft.to/lastmile_qr_scan", "ios": "https://dc.lft.to/lastmile_qr_scan"}, "fusion_lat": 0.0, "is_reserved": 0, "bike_id": "71af6191807b310b1ef94b402c9ffb49", "name": "71af6191807b310b1ef94b402c9ffb49", "lon": -77.05907816666667}, {"lat": 38.87446833333333, "is_disabled": 0, "type": "electric_bike", "fusion_lon": 0.0, "rental_uris": {"android": "https://dc.lft.to/lastmile_qr_scan", "ios": "https://dc.lft.to/lastmile_qr_scan"}, "fusion_lat": 0.0, "is_reserved": 0, "bike_id": "7c656d9925de239453ac39d0eac7e9a3", "name": "7c656d9925de239453ac39d0eac7e9a3", "lon": -77.00072466666667}, {"lat": 38.9308315, "is_disabled": 0, "type": "electric_scooter", "fusion_lon": 0.0, "rental_uris": {"android": "https://dc.lft.to/lastmile_qr_scan", "ios": "https://dc.lft.to/lastmile_qr_scan"}, "fusion_lat": 0.0, "is_reserved": 0, "bike_id": "3d4e1835a5dd4be3456a1419864e4824", "name": "3d4e1835a5dd4be3456a1419864e4824", "lon": -77.03761666666666}, {"lat": 38.892268666666666, "is_disabled": 0, "type": "electric_scooter", "fusion_lon": 0.0, "rental_uris": {"android": "https://dc.lft.to/lastmile_qr_scan", "ios": "https://dc.lft.to/lastmile_qr_scan"}, "fusion_lat": 0.0, "is_reserved": 0, "bike_id": "6e807383318681d848445567d6477639", "name": "6e807383318681d848445567d6477639", "lon": -77.03139933333334}, {"lat": 38.88753616666666, "is_disabled": 0, "type": "electric_scooter", "fusion_lon": 0.0, "rental_uris": {"android": "https://dc.lft.to/lastmile_qr_scan", "ios": "https://dc.lft.to/lastmile_qr_scan"}, "fusion_lat": 0.0, "is_reserved": 0, "bike_id": "92e30ac5add5409068499adf97fce654", "name": "92e30ac5add5409068499adf97fce654", "lon": -77.02742766666667}, {"lat": 38.886897, "is_disabled": 0, "type": "electric_scooter", "fusion_lon": 0.0, "rental_uris": {"android": "https://dc.lft.to/lastmile_qr_scan", "ios": "https://dc.lft.to/lastmile_qr_scan"}, "fusion_lat": 0.0, "is_reserved": 0, "bike_id": "acbe387ef58eb61fe4334e5b24bdfc59", "name": "acbe387ef58eb61fe4334e5b24bdfc59", "lon": -76.9546765}, {"lat": 38.93083133333333, "is_disabled": 0, "type": "electric_scooter", "fusion_lon": 0.0, "rental_uris": {"android": "https://dc.lft.to/lastmile_qr_scan", "ios": "https://dc.lft.to/lastmile_qr_scan"}, "fusion_lat": 0.0, "is_reserved": 0, "bike_id": "fd27908b20470ea0d35b60ebbf3c7f52", "name": "fd27908b20470ea0d35b60ebbf3c7f52", "lon": -77.0280915}, {"lat": 38.93632933333333, "is_disabled": 0, "type": "electric_scooter", "fusion_lon": 0.0, "rental_uris": {"android": "https://dc.lft.to/lastmile_qr_scan", "ios": "https://dc.lft.to/lastmile_qr_scan"}, "fusion_lat": 0.0, "is_reserved": 0, "bike_id": "3d5050339511452da89a06afb26c6c79", "name": "3d5050339511452da89a06afb26c6c79", "lon": -77.03658266666666}, {"lat": 38.86507316666667, "is_disabled": 0, "type": "electric_scooter", "fusion_lon": 0.0, "rental_uris": {"android": "https://dc.lft.to/lastmile_qr_scan", "ios": "https://dc.lft.to/lastmile_qr_scan"}, "fusion_lat": 0.0, "is_reserved": 0, "bike_id": "f38e394c24d6b1964bb846c5055048f2", "name": "f38e394c24d6b1964bb846c5055048f2", "lon": -76.99005916666667}, {"lat": 38.90556483333334, "is_disabled": 0, "type": "electric_scooter", "fusion_lon": 0.0, "rental_uris": {"android": "https://dc.lft.to/lastmile_qr_scan", "ios": "https://dc.lft.to/lastmile_qr_scan"}, "fusion_lat": 0.0, "is_reserved": 0, "bike_id": "d46ff602b9496aedd163dd9248eb79e7", "name": "d46ff602b9496aedd163dd9248eb79e7", "lon": -76.991185}, {"lat": 38.939153166666664, "is_disabled": 0, "type": "electric_scooter", "fusion_lon": 0.0, "rental_uris": {"android": "https://dc.lft.to/lastmile_qr_scan", "ios": "https://dc.lft.to/lastmile_qr_scan"}, "fusion_lat": 0.0, "is_reserved": 0, "bike_id": "7993f90738d37f5ebd4d424e2408b0da", "name": "7993f90738d37f5ebd4d424e2408b0da", "lon": -77.024903}, {"lat": 38.910762, "is_disabled": 0, "type": "electric_scooter", "fusion_lon": 0.0, "rental_uris": {"android": "https://dc.lft.to/lastmile_qr_scan", "ios": "https://dc.lft.to/lastmile_qr_scan"}, "fusion_lat": 0.0, "is_reserved": 0, "bike_id": "aa4fbff996c5416a73b08b0b22c6cd68", "name": "aa4fbff996c5416a73b08b0b22c6cd68", "lon": -77.02739883333334}, {"lat": 38.874526833333334, "is_disabled": 0, "type": "electric_scooter", "fusion_lon": 0.0, "rental_uris": {"android": "https://dc.lft.to/lastmile_qr_scan", "ios": "https://dc.lft.to/lastmile_qr_scan"}, "fusion_lat": 0.0, "is_reserved": 0, "bike_id": "9aad7754d485696e71e1aeab11d4669d", "name": "9aad7754d485696e71e1aeab11d4669d", "lon": -77.00122433333334}, {"lat": 38.899029, "is_disabled": 0, "type": "electric_scooter", "fusion_lon": 0.0, "rental_uris": {"android": "https://dc.lft.to/lastmile_qr_scan", "ios": "https://dc.lft.to/lastmile_qr_scan"}, "fusion_lat": 0.0, "is_reserved": 0, "bike_id": "88a9da6eeb8d1211ca7af3a6ac793882", "name": "88a9da6eeb8d1211ca7af3a6ac793882", "lon": -77.03928216666667}, {"lat": 38.89220383333333, "is_disabled": 0, "type": "electric_scooter", "fusion_lon": 0.0, "rental_uris": {"android": "https://dc.lft.to/lastmile_qr_scan", "ios": "https://dc.lft.to/lastmile_qr_scan"}, "fusion_lat": 0.0, "is_reserved": 0, "bike_id": "ef60f75d9514541017629437d863e03b", "name": "ef60f75d9514541017629437d863e03b", "lon": -77.04474016666667}, {"lat": 38.87632683333333, "is_disabled": 0, "type": "electric_scooter", "fusion_lon": 0.0, "rental_uris": {"android": "https://dc.lft.to/lastmile_qr_scan", "ios": "https://dc.lft.to/lastmile_qr_scan"}, "fusion_lat": 0.0, "is_reserved": 0, "bike_id": "7c6d1575989600f8cc24a39118d6373e", "name": "7c6d1575989600f8cc24a39118d6373e", "lon": -77.009426}, {"lat": 38.888703166666666, "is_disabled": 0, "type": "electric_scooter", "fusion_lon": 0.0, "rental_uris": {"android": "https://dc.lft.to/lastmile_qr_scan", "ios": "https://dc.lft.to/lastmile_qr_scan"}, "fusion_lat": 0.0, "is_reserved": 0, "bike_id": "61ee65c76ae7d404b243ba3d919bf7a0", "name": "61ee65c76ae7d404b243ba3d919bf7a0", "lon": -77.03998733333333}, {"lat": 38.88811533333333, "is_disabled": 0, "type": "electric_bike", "fusion_lon": 0.0, "rental_uris": {"android": "https://dc.lft.to/lastmile_qr_scan", "ios": "https://dc.lft.to/lastmile_qr_scan"}, "fusion_lat": 0.0, "is_reserved": 0, "bike_id": "b2fc1f60df444f46ff4fc239c489690c", "name": "b2fc1f60df444f46ff4fc239c489690c", "lon": -77.03845966666667}, {"lat": 38.90137033333333, "is_disabled": 0, "type": "electric_scooter", "fusion_lon": 0.0, "rental_uris": {"android": "https://dc.lft.to/lastmile_qr_scan", "ios": "https://dc.lft.to/lastmile_qr_scan"}, "fusion_lat": 0.0, "is_reserved": 0, "bike_id": "a27e2286e244e2019a862db60b73c14f", "name": "a27e2286e244e2019a862db60b73c14f", "lon": -77.03307983333333}, {"lat": 38.9247675, "is_disabled": 0, "type": "electric_scooter", "fusion_lon": 0.0, "rental_uris": {"android": "https://dc.lft.to/lastmile_qr_scan", "ios": "https://dc.lft.to/lastmile_qr_scan"}, "fusion_lat": 0.0, "is_reserved": 0, "bike_id": "08eb3882e4e77e4064b8f504b8322b02", "name": "08eb3882e4e77e4064b8f504b8322b02", "lon": -77.02275833333333}, {"lat": 38.90001683333333, "is_disabled": 0, "type": "electric_scooter", "fusion_lon": 0.0, "rental_uris": {"android": "https://dc.lft.to/lastmile_qr_scan", "ios": "https://dc.lft.to/lastmile_qr_scan"}, "fusion_lat": 0.0, "is_reserved": 0, "bike_id": "82c3391978d16776d51fd7301e59ba57", "name": "82c3391978d16776d51fd7301e59ba57", "lon": -76.951985}, {"lat": 38.892422, "is_disabled": 0, "type": "electric_scooter", "fusion_lon": 0.0, "rental_uris": {"android": "https://dc.lft.to/lastmile_qr_scan", "ios": "https://dc.lft.to/lastmile_qr_scan"}, "fusion_lat": 0.0, "is_reserved": 0, "bike_id": "8d323197c8b85b72d09035b56dc3f463", "name": "8d323197c8b85b72d09035b56dc3f463", "lon": -77.04163716666666}, {"lat": 38.87748883333333, "is_disabled": 0, "type": "electric_scooter", "fusion_lon": 0.0, "rental_uris": {"android": "https://dc.lft.to/lastmile_qr_scan", "ios": "https://dc.lft.to/lastmile_qr_scan"}, "fusion_lat": 0.0, "is_reserved": 0, "bike_id": "09193a961220d2e9845f7e40236055db", "name": "09193a961220d2e9845f7e40236055db", "lon": -77.0074265}, {"lat": 38.93048533333334, "is_disabled": 0, "type": "electric_scooter", "fusion_lon": 0.0, "rental_uris": {"android": "https://dc.lft.to/lastmile_qr_scan", "ios": "https://dc.lft.to/lastmile_qr_scan"}, "fusion_lat": 0.0, "is_reserved": 0, "bike_id": "55f4cfde328b12ff05b62ce598d9d3a6", "name": "55f4cfde328b12ff05b62ce598d9d3a6", "lon": -77.0362845}, {"lat": 38.91131766666667, "is_disabled": 0, "type": "electric_scooter", "fusion_lon": 0.0, "rental_uris": {"android": "https://dc.lft.to/lastmile_qr_scan", "ios": "https://dc.lft.to/lastmile_qr_scan"}, "fusion_lat": 0.0, "is_reserved": 0, "bike_id": "c20c04a34452bb1eb68822601e1fc850", "name": "c20c04a34452bb1eb68822601e1fc850", "lon": -77.031892}, {"lat": 38.911922833333335, "is_disabled": 0, "type": "electric_scooter", "fusion_lon": 0.0, "rental_uris": {"android": "https://dc.lft.to/lastmile_qr_scan", "ios": "https://dc.lft.to/lastmile_qr_scan"}, "fusion_lat": 0.0, "is_reserved": 0, "bike_id": "ee440bcacc2c26402860f0f6d9ebf82d", "name": "ee440bcacc2c26402860f0f6d9ebf82d", "lon": -77.038363}, {"lat": 38.90079016666667, "is_disabled": 0, "type": "electric_scooter", "fusion_lon": 0.0, "rental_uris": {"android": "https://dc.lft.to/lastmile_qr_scan", "ios": "https://dc.lft.to/lastmile_qr_scan"}, "fusion_lat": 0.0, "is_reserved": 0, "bike_id": "1a70c70bebebfcd913531fa518188c6f", "name": "1a70c70bebebfcd913531fa518188c6f", "lon": -77.04938466666667}, {"lat": 38.95605466666667, "is_disabled": 0, "type": "electric_bike", "fusion_lon": 0.0, "rental_uris": {"android": "https://dc.lft.to/lastmile_qr_scan", "ios": "https://dc.lft.to/lastmile_qr_scan"}, "fusion_lat": 0.0, "is_reserved": 0, "bike_id": "d5176a5586dcb1aae6faa297caf0c22a", "name": "d5176a5586dcb1aae6faa297caf0c22a", "lon": -76.9647445}, {"lat": 38.9191415, "is_disabled": 0, "type": "electric_scooter", "fusion_lon": 0.0, "rental_uris": {"android": "https://dc.lft.to/lastmile_qr_scan", "ios": "https://dc.lft.to/lastmile_qr_scan"}, "fusion_lat": 0.0, "is_reserved": 0, "bike_id": "d752c8418683dc6ffee561004d9df62e", "name": "d752c8418683dc6ffee561004d9df62e", "lon": -77.02611166666667}, {"lat": 38.909738, "is_disabled": 0, "type": "electric_scooter", "fusion_lon": 0.0, "rental_uris": {"android": "https://dc.lft.to/lastmile_qr_scan", "ios": "https://dc.lft.to/lastmile_qr_scan"}, "fusion_lat": 0.0, "is_reserved": 0, "bike_id": "2fc75f0589437e269ee4d579ab658286", "name": "2fc75f0589437e269ee4d579ab658286", "lon": -77.02082633333333}, {"lat": 38.876502, "is_disabled": 0, "type": "electric_scooter", "fusion_lon": 0.0, "rental_uris": {"android": "https://dc.lft.to/lastmile_qr_scan", "ios": "https://dc.lft.to/lastmile_qr_scan"}, "fusion_lat": 0.0, "is_reserved": 0, "bike_id": "786581ab1289a2e75a1489d3fe7c7b17", "name": "786581ab1289a2e75a1489d3fe7c7b17", "lon": -77.00817433333333}, {"lat": 38.91799316666667, "is_disabled": 0, "type": "electric_scooter", "fusion_lon": 0.0, "rental_uris": {"android": "https://dc.lft.to/lastmile_qr_scan", "ios": "https://dc.lft.to/lastmile_qr_scan"}, "fusion_lat": 0.0, "is_reserved": 0, "bike_id": "8ebbe3f0135df55c11c1fc0ae5a9ff05", "name": "8ebbe3f0135df55c11c1fc0ae5a9ff05", "lon": -77.045415}, {"lat": 38.911050833333334, "is_disabled": 0, "type": "electric_scooter", "fusion_lon": 0.0, "rental_uris": {"android": "https://dc.lft.to/lastmile_qr_scan", "ios": "https://dc.lft.to/lastmile_qr_scan"}, "fusion_lat": 0.0, "is_reserved": 0, "bike_id": "ff26ee857840713703e71cb8b6aea728", "name": "ff26ee857840713703e71cb8b6aea728", "lon": -77.033227}, {"lat": 38.92145033333333, "is_disabled": 0, "type": "electric_scooter", "fusion_lon": 0.0, "rental_uris": {"android": "https://dc.lft.to/lastmile_qr_scan", "ios": "https://dc.lft.to/lastmile_qr_scan"}, "fusion_lat": 0.0, "is_reserved": 0, "bike_id": "6f4c18ccb2d057df76753eb4ca830956", "name": "6f4c18ccb2d057df76753eb4ca830956", "lon": -77.01786016666667}, {"lat": 38.958284666666664, "is_disabled": 0, "type": "electric_scooter", "fusion_lon": 0.0, "rental_uris": {"android": "https://dc.lft.to/lastmile_qr_scan", "ios": "https://dc.lft.to/lastmile_qr_scan"}, "fusion_lat": 0.0, "is_reserved": 0, "bike_id": "3359ecd84b9b281b843237d7bbb4e51a", "name": "3359ecd84b9b281b843237d7bbb4e51a", "lon": -77.01517766666667}, {"lat": 38.95500716666667, "is_disabled": 0, "type": "electric_bike", "fusion_lon": 0.0, "rental_uris": {"android": "https://dc.lft.to/lastmile_qr_scan", "ios": "https://dc.lft.to/lastmile_qr_scan"}, "fusion_lat": 0.0, "is_reserved": 0, "bike_id": "29eaec59bd48970f17bbf34475498498", "name": "29eaec59bd48970f17bbf34475498498", "lon": -76.99384066666667}, {"lat": 38.92429283333333, "is_disabled": 0, "type": "electric_scooter", "fusion_lon": 0.0, "rental_uris": {"android": "https://dc.lft.to/lastmile_qr_scan", "ios": "https://dc.lft.to/lastmile_qr_scan"}, "fusion_lat": 0.0, "is_reserved": 0, "bike_id": "e360e628ed4780a18ad4b1a6d122098b", "name": "e360e628ed4780a18ad4b1a6d122098b", "lon": -77.05185516666667}, {"lat": 39.0423325, "is_disabled": 0, "type": "electric_bike", "fusion_lon": 0.0, "rental_uris": {"android": "https://dc.lft.to/lastmile_qr_scan", "ios": "https://dc.lft.to/lastmile_qr_scan"}, "fusion_lat": 0.0, "is_reserved": 0, "bike_id": "3994bfa302be7627a226f96006b8113d", "name": "3994bfa302be7627a226f96006b8113d", "lon": -77.030755}, {"lat": 38.876462833333335, "is_disabled": 0, "type": "electric_scooter", "fusion_lon": 0.0, "rental_uris": {"android": "https://dc.lft.to/lastmile_qr_scan", "ios": "https://dc.lft.to/lastmile_qr_scan"}, "fusion_lat": 0.0, "is_reserved": 0, "bike_id": "3d70056150decc187af8b0399e88f3fb", "name": "3d70056150decc187af8b0399e88f3fb", "lon": -76.96507816666667}, {"lat": 38.89749066666667, "is_disabled": 0, "type": "electric_scooter", "fusion_lon": 0.0, "rental_uris": {"android": "https://dc.lft.to/lastmile_qr_scan", "ios": "https://dc.lft.to/lastmile_qr_scan"}, "fusion_lat": 0.0, "is_reserved": 0, "bike_id": "b3e6efda4343e2498ffa743651b10138", "name": "b3e6efda4343e2498ffa743651b10138", "lon": -77.01359316666667}, {"lat": 38.89222766666666, "is_disabled": 0, "type": "electric_scooter", "fusion_lon": 0.0, "rental_uris": {"android": "https://dc.lft.to/lastmile_qr_scan", "ios": "https://dc.lft.to/lastmile_qr_scan"}, "fusion_lat": 0.0, "is_reserved": 0, "bike_id": "c33899bcdc8cfdb8a54affe57f2d6ded", "name": "c33899bcdc8cfdb8a54affe57f2d6ded", "lon": -77.04308316666666}, {"lat": 38.9011585, "is_disabled": 0, "type": "electric_scooter", "fusion_lon": 0.0, "rental_uris": {"android": "https://dc.lft.to/lastmile_qr_scan", "ios": "https://dc.lft.to/lastmile_qr_scan"}, "fusion_lat": 0.0, "is_reserved": 0, "bike_id": "c9563b6513292315349f53b0bfafdacf", "name": "c9563b6513292315349f53b0bfafdacf", "lon": -77.0290525}, {"lat": 38.900656, "is_disabled": 0, "type": "electric_scooter", "fusion_lon": 0.0, "rental_uris": {"android": "https://dc.lft.to/lastmile_qr_scan", "ios": "https://dc.lft.to/lastmile_qr_scan"}, "fusion_lat": 0.0, "is_reserved": 0, "bike_id": "bb3820e1c24fe86c17385825c1e92276", "name": "bb3820e1c24fe86c17385825c1e92276", "lon": -77.0453385}, {"lat": 38.921505, "is_disabled": 0, "type": "electric_scooter", "fusion_lon": 0.0, "rental_uris": {"android": "https://dc.lft.to/lastmile_qr_scan", "ios": "https://dc.lft.to/lastmile_qr_scan"}, "fusion_lat": 0.0, "is_reserved": 0, "bike_id": "bd9796fd9e8a1b67c9a55d0d2f9c3e0a", "name": "bd9796fd9e8a1b67c9a55d0d2f9c3e0a", "lon": -77.03194466666666}, {"lat": 38.90283616666667, "is_disabled": 0, "type": "electric_scooter", "fusion_lon": 0.0, "rental_uris": {"android": "https://dc.lft.to/lastmile_qr_scan", "ios": "https://dc.lft.to/lastmile_qr_scan"}, "fusion_lat": 0.0, "is_reserved": 0, "bike_id": "e13ca4cbfa1c7174d6db6f1fda9036cb", "name": "e13ca4cbfa1c7174d6db6f1fda9036cb", "lon": -77.03665816666667}, {"lat": 38.925648, "is_disabled": 0, "type": "electric_scooter", "fusion_lon": 0.0, "rental_uris": {"android": "https://dc.lft.to/lastmile_qr_scan", "ios": "https://dc.lft.to/lastmile_qr_scan"}, "fusion_lat": 0.0, "is_reserved": 0, "bike_id": "b0e7e9b82550386700c59973dea25bbc", "name": "b0e7e9b82550386700c59973dea25bbc", "lon": -77.02259616666667}, {"lat": 38.91821183333333, "is_disabled": 0, "type": "electric_scooter", "fusion_lon": 0.0, "rental_uris": {"android": "https://dc.lft.to/lastmile_qr_scan", "ios": "https://dc.lft.to/lastmile_qr_scan"}, "fusion_lat": 0.0, "is_reserved": 0, "bike_id": "f935a1bf6e20eda9fdce672a6319ea11", "name": "f935a1bf6e20eda9fdce672a6319ea11", "lon": -77.041791}, {"lat": 38.887449833333335, "is_disabled": 0, "type": "electric_scooter", "fusion_lon": 0.0, "rental_uris": {"android": "https://dc.lft.to/lastmile_qr_scan", "ios": "https://dc.lft.to/lastmile_qr_scan"}, "fusion_lat": 0.0, "is_reserved": 0, "bike_id": "9552bbff574470d58b9c95aae1f71a14", "name": "9552bbff574470d58b9c95aae1f71a14", "lon": -77.02734466666666}, {"lat": 38.87483833333334, "is_disabled": 0, "type": "electric_scooter", "fusion_lon": 0.0, "rental_uris": {"android": "https://dc.lft.to/lastmile_qr_scan", "ios": "https://dc.lft.to/lastmile_qr_scan"}, "fusion_lat": 0.0, "is_reserved": 0, "bike_id": "d0c882cc290d8b657a7c24bab41111fd", "name": "d0c882cc290d8b657a7c24bab41111fd", "lon": -77.00889183333334}, {"lat": 38.908999, "is_disabled": 0, "type": "electric_scooter", "fusion_lon": 0.0, "rental_uris": {"android": "https://dc.lft.to/lastmile_qr_scan", "ios": "https://dc.lft.to/lastmile_qr_scan"}, "fusion_lat": 0.0, "is_reserved": 0, "bike_id": "f0ccbce7834fa4946d454453bb8d0025", "name": "f0ccbce7834fa4946d454453bb8d0025", "lon": -77.01885666666666}, {"lat": 38.86503583333333, "is_disabled": 0, "type": "electric_scooter", "fusion_lon": 0.0, "rental_uris": {"android": "https://dc.lft.to/lastmile_qr_scan", "ios": "https://dc.lft.to/lastmile_qr_scan"}, "fusion_lat": 0.0, "is_reserved": 0, "bike_id": "2afe3e91e8b945a3802f3f78d720bf5b", "name": "2afe3e91e8b945a3802f3f78d720bf5b", "lon": -76.99002716666666}, {"lat": 38.92919333333333, "is_disabled": 0, "type": "electric_scooter", "fusion_lon": 0.0, "rental_uris": {"android": "https://dc.lft.to/lastmile_qr_scan", "ios": "https://dc.lft.to/lastmile_qr_scan"}, "fusion_lat": 0.0, "is_reserved": 0, "bike_id": "333dfc616c8e9f55c24e4b2c72fcc073", "name": "333dfc616c8e9f55c24e4b2c72fcc073", "lon": -77.0375545}, {"lat": 38.954235833333335, "is_disabled": 0, "type": "electric_bike", "fusion_lon": 0.0, "rental_uris": {"android": "https://dc.lft.to/lastmile_qr_scan", "ios": "https://dc.lft.to/lastmile_qr_scan"}, "fusion_lat": 0.0, "is_reserved": 0, "bike_id": "224ef1ec92b83d1c57a51eee9f8e2155", "name": "224ef1ec92b83d1c57a51eee9f8e2155", "lon": -76.93277983333333}, {"lat": 38.939145833333335, "is_disabled": 0, "type": "electric_scooter", "fusion_lon": 0.0, "rental_uris": {"android": "https://dc.lft.to/lastmile_qr_scan", "ios": "https://dc.lft.to/lastmile_qr_scan"}, "fusion_lat": 0.0, "is_reserved": 0, "bike_id": "7bb8ccb9500a074e9ab80a446975d6a6", "name": "7bb8ccb9500a074e9ab80a446975d6a6", "lon": -77.02485216666666}, {"lat": 38.865836, "is_disabled": 0, "type": "electric_bike", "fusion_lon": 0.0, "rental_uris": {"android": "https://dc.lft.to/lastmile_qr_scan", "ios": "https://dc.lft.to/lastmile_qr_scan"}, "fusion_lat": 0.0, "is_reserved": 0, "bike_id": "a7017f1a89dbbc2ec9ce2f33f699fc3a", "name": "a7017f1a89dbbc2ec9ce2f33f699fc3a", "lon": -77.047606}, {"lat": 38.9005995, "is_disabled": 0, "type": "electric_scooter", "fusion_lon": 0.0, "rental_uris": {"android": "https://dc.lft.to/lastmile_qr_scan", "ios": "https://dc.lft.to/lastmile_qr_scan"}, "fusion_lat": 0.0, "is_reserved": 0, "bike_id": "55d544f4e063b5f0b02e861c81322755", "name": "55d544f4e063b5f0b02e861c81322755", "lon": -77.0495135}, {"lat": 38.93962783333333, "is_disabled": 0, "type": "electric_scooter", "fusion_lon": 0.0, "rental_uris": {"android": "https://dc.lft.to/lastmile_qr_scan", "ios": "https://dc.lft.to/lastmile_qr_scan"}, "fusion_lat": 0.0, "is_reserved": 0, "bike_id": "3fb19492d3567dabf92773a340153879", "name": "3fb19492d3567dabf92773a340153879", "lon": -77.07249016666667}, {"lat": 38.922314166666666, "is_disabled": 0, "type": "electric_scooter", "fusion_lon": 0.0, "rental_uris": {"android": "https://dc.lft.to/lastmile_qr_scan", "ios": "https://dc.lft.to/lastmile_qr_scan"}, "fusion_lat": 0.0, "is_reserved": 0, "bike_id": "a096b47d8e2d27f38f5ecd32260d638f", "name": "a096b47d8e2d27f38f5ecd32260d638f", "lon": -77.03352633333333}, {"lat": 38.876389833333334, "is_disabled": 0, "type": "electric_scooter", "fusion_lon": 0.0, "rental_uris": {"android": "https://dc.lft.to/lastmile_qr_scan", "ios": "https://dc.lft.to/lastmile_qr_scan"}, "fusion_lat": 0.0, "is_reserved": 0, "bike_id": "3369c9b2ff7544543888d6f6fce1e2cf", "name": "3369c9b2ff7544543888d6f6fce1e2cf", "lon": -77.00909633333333}, {"lat": 38.919072666666665, "is_disabled": 0, "type": "electric_scooter", "fusion_lon": 0.0, "rental_uris": {"android": "https://dc.lft.to/lastmile_qr_scan", "ios": "https://dc.lft.to/lastmile_qr_scan"}, "fusion_lat": 0.0, "is_reserved": 0, "bike_id": "1cdfdd0a36dc7c5b1aebb05265fa9a76", "name": "1cdfdd0a36dc7c5b1aebb05265fa9a76", "lon": -77.02397416666666}, {"lat": 38.9024395, "is_disabled": 0, "type": "electric_scooter", "fusion_lon": 0.0, "rental_uris": {"android": "https://dc.lft.to/lastmile_qr_scan", "ios": "https://dc.lft.to/lastmile_qr_scan"}, "fusion_lat": 0.0, "is_reserved": 0, "bike_id": "cb13fd4b9eb4fa94fe32a57b3adca911", "name": "cb13fd4b9eb4fa94fe32a57b3adca911", "lon": -76.98969133333334}, {"lat": 38.903893833333335, "is_disabled": 0, "type": "electric_scooter", "fusion_lon": 0.0, "rental_uris": {"android": "https://dc.lft.to/lastmile_qr_scan", "ios": "https://dc.lft.to/lastmile_qr_scan"}, "fusion_lat": 0.0, "is_reserved": 0, "bike_id": "89e92f45daaed792c5a3fb804398c4c7", "name": "89e92f45daaed792c5a3fb804398c4c7", "lon": -77.06263983333334}, {"lat": 38.9108375, "is_disabled": 0, "type": "electric_scooter", "fusion_lon": 0.0, "rental_uris": {"android": "https://dc.lft.to/lastmile_qr_scan", "ios": "https://dc.lft.to/lastmile_qr_scan"}, "fusion_lat": 0.0, "is_reserved": 0, "bike_id": "a0a43330efef8e7e07c19121369bf0dc", "name": "a0a43330efef8e7e07c19121369bf0dc", "lon": -77.03719316666667}, {"lat": 38.895192, "is_disabled": 0, "type": "electric_scooter", "fusion_lon": 0.0, "rental_uris": {"android": "https://dc.lft.to/lastmile_qr_scan", "ios": "https://dc.lft.to/lastmile_qr_scan"}, "fusion_lat": 0.0, "is_reserved": 0, "bike_id": "0059ea1bf50c45b1e6c45b087105d5ac", "name": "0059ea1bf50c45b1e6c45b087105d5ac", "lon": -77.026725}, {"lat": 38.900174166666666, "is_disabled": 0, "type": "electric_scooter", "fusion_lon": 0.0, "rental_uris": {"android": "https://dc.lft.to/lastmile_qr_scan", "ios": "https://dc.lft.to/lastmile_qr_scan"}, "fusion_lat": 0.0, "is_reserved": 0, "bike_id": "c69effd12a9070482455d62e26e4a580", "name": "c69effd12a9070482455d62e26e4a580", "lon": -76.98437683333333}, {"lat": 38.892232, "is_disabled": 0, "type": "electric_scooter", "fusion_lon": 0.0, "rental_uris": {"android": "https://dc.lft.to/lastmile_qr_scan", "ios": "https://dc.lft.to/lastmile_qr_scan"}, "fusion_lat": 0.0, "is_reserved": 0, "bike_id": "8577a5325df2824f3359271269371e8f", "name": "8577a5325df2824f3359271269371e8f", "lon": -77.03186}, {"lat": 38.89345816666667, "is_disabled": 0, "type": "electric_scooter", "fusion_lon": 0.0, "rental_uris": {"android": "https://dc.lft.to/lastmile_qr_scan", "ios": "https://dc.lft.to/lastmile_qr_scan"}, "fusion_lat": 0.0, "is_reserved": 0, "bike_id": "a836c5571573dbeac845dba15a50a8a4", "name": "a836c5571573dbeac845dba15a50a8a4", "lon": -77.01175283333333}, {"lat": 38.917444333333336, "is_disabled": 0, "type": "electric_scooter", "fusion_lon": 0.0, "rental_uris": {"android": "https://dc.lft.to/lastmile_qr_scan", "ios": "https://dc.lft.to/lastmile_qr_scan"}, "fusion_lat": 0.0, "is_reserved": 0, "bike_id": "a38c577f8eeef4d910fc1a9e99b73b4b", "name": "a38c577f8eeef4d910fc1a9e99b73b4b", "lon": -77.03193816666666}, {"lat": 38.91974333333334, "is_disabled": 0, "type": "electric_scooter", "fusion_lon": 0.0, "rental_uris": {"android": "https://dc.lft.to/lastmile_qr_scan", "ios": "https://dc.lft.to/lastmile_qr_scan"}, "fusion_lat": 0.0, "is_reserved": 0, "bike_id": "024bdb255a3add4188ad948f8a396c07", "name": "024bdb255a3add4188ad948f8a396c07", "lon": -77.0238365}, {"lat": 38.91278466666667, "is_disabled": 0, "type": "electric_scooter", "fusion_lon": 0.0, "rental_uris": {"android": "https://dc.lft.to/lastmile_qr_scan", "ios": "https://dc.lft.to/lastmile_qr_scan"}, "fusion_lat": 0.0, "is_reserved": 0, "bike_id": "9fe3c17aba0421e7076c2f59082ba210", "name": "9fe3c17aba0421e7076c2f59082ba210", "lon": -77.031788}, {"lat": 38.9679495, "is_disabled": 0, "type": "electric_bike", "fusion_lon": 0.0, "rental_uris": {"android": "https://dc.lft.to/lastmile_qr_scan", "ios": "https://dc.lft.to/lastmile_qr_scan"}, "fusion_lat": 0.0, "is_reserved": 0, "bike_id": "753c808bfc7609e2c49a4f2b518af411", "name": "753c808bfc7609e2c49a4f2b518af411", "lon": -77.00034366666667}, {"lat": 38.9087535, "is_disabled": 0, "type": "electric_scooter", "fusion_lon": 0.0, "rental_uris": {"android": "https://dc.lft.to/lastmile_qr_scan", "ios": "https://dc.lft.to/lastmile_qr_scan"}, "fusion_lat": 0.0, "is_reserved": 0, "bike_id": "9584cb3e9d97d1120f1409855f7057a2", "name": "9584cb3e9d97d1120f1409855f7057a2", "lon": -76.99801016666666}, {"lat": 38.918064, "is_disabled": 0, "type": "electric_scooter", "fusion_lon": 0.0, "rental_uris": {"android": "https://dc.lft.to/lastmile_qr_scan", "ios": "https://dc.lft.to/lastmile_qr_scan"}, "fusion_lat": 0.0, "is_reserved": 0, "bike_id": "ad1462db96795ffc13a4412147e97c08", "name": "ad1462db96795ffc13a4412147e97c08", "lon": -77.02498616666666}, {"lat": 38.94096666666667, "is_disabled": 0, "type": "electric_bike", "fusion_lon": 0.0, "rental_uris": {"android": "https://dc.lft.to/lastmile_qr_scan", "ios": "https://dc.lft.to/lastmile_qr_scan"}, "fusion_lat": 0.0, "is_reserved": 0, "bike_id": "399f61fedc9f9b66973ef3bb9f13225d", "name": "399f61fedc9f9b66973ef3bb9f13225d", "lon": -77.03280533333333}, {"lat": 38.892514, "is_disabled": 0, "type": "electric_scooter", "fusion_lon": 0.0, "rental_uris": {"android": "https://dc.lft.to/lastmile_qr_scan", "ios": "https://dc.lft.to/lastmile_qr_scan"}, "fusion_lat": 0.0, "is_reserved": 0, "bike_id": "98c9f586c9619c89363ddecb22579d39", "name": "98c9f586c9619c89363ddecb22579d39", "lon": -76.988395}, {"lat": 38.8804115, "is_disabled": 0, "type": "electric_scooter", "fusion_lon": 0.0, "rental_uris": {"android": "https://dc.lft.to/lastmile_qr_scan", "ios": "https://dc.lft.to/lastmile_qr_scan"}, "fusion_lat": 0.0, "is_reserved": 0, "bike_id": "b550ed761d11d06396de44d9ce93cb2d", "name": "b550ed761d11d06396de44d9ce93cb2d", "lon": -77.003626}, {"lat": 38.875757, "is_disabled": 0, "type": "electric_scooter", "fusion_lon": 0.0, "rental_uris": {"android": "https://dc.lft.to/lastmile_qr_scan", "ios": "https://dc.lft.to/lastmile_qr_scan"}, "fusion_lat": 0.0, "is_reserved": 0, "bike_id": "bff062d7e2d116ed51671c64abe6c121", "name": "bff062d7e2d116ed51671c64abe6c121", "lon": -77.00610766666667}, {"lat": 38.919817333333334, "is_disabled": 0, "type": "electric_scooter", "fusion_lon": 0.0, "rental_uris": {"android": "https://dc.lft.to/lastmile_qr_scan", "ios": "https://dc.lft.to/lastmile_qr_scan"}, "fusion_lat": 0.0, "is_reserved": 0, "bike_id": "7a08e78df67b9058fcb675514db90ea2", "name": "7a08e78df67b9058fcb675514db90ea2", "lon": -77.0379885}, {"lat": 38.91897066666667, "is_disabled": 0, "type": "electric_scooter", "fusion_lon": 0.0, "rental_uris": {"android": "https://dc.lft.to/lastmile_qr_scan", "ios": "https://dc.lft.to/lastmile_qr_scan"}, "fusion_lat": 0.0, "is_reserved": 0, "bike_id": "f5a7f6684b1e1f3141aadb7d9a65dba2", "name": "f5a7f6684b1e1f3141aadb7d9a65dba2", "lon": -77.01795416666667}, {"lat": 38.9036085, "is_disabled": 0, "type": "electric_scooter", "fusion_lon": 0.0, "rental_uris": {"android": "https://dc.lft.to/lastmile_qr_scan", "ios": "https://dc.lft.to/lastmile_qr_scan"}, "fusion_lat": 0.0, "is_reserved": 0, "bike_id": "464c1affbc77737b16069c1023d1682f", "name": "464c1affbc77737b16069c1023d1682f", "lon": -77.04008166666667}, {"lat": 38.921489333333334, "is_disabled": 0, "type": "electric_scooter", "fusion_lon": 0.0, "rental_uris": {"android": "https://dc.lft.to/lastmile_qr_scan", "ios": "https://dc.lft.to/lastmile_qr_scan"}, "fusion_lat": 0.0, "is_reserved": 0, "bike_id": "2eead0eb8fe12311f13df00c0ba03e43", "name": "2eead0eb8fe12311f13df00c0ba03e43", "lon": -77.033563}, {"lat": 39.054953833333336, "is_disabled": 0, "type": "electric_bike", "fusion_lon": 0.0, "rental_uris": {"android": "https://dc.lft.to/lastmile_qr_scan", "ios": "https://dc.lft.to/lastmile_qr_scan"}, "fusion_lat": 0.0, "is_reserved": 0, "bike_id": "c5dddf353ac753612ffb27b83089086d", "name": "c5dddf353ac753612ffb27b83089086d", "lon": -77.11791866666667}, {"lat": 38.8833725, "is_disabled": 0, "type": "electric_bike", "fusion_lon": 0.0, "rental_uris": {"android": "https://dc.lft.to/lastmile_qr_scan", "ios": "https://dc.lft.to/lastmile_qr_scan"}, "fusion_lat": 0.0, "is_reserved": 0, "bike_id": "e8925aafaa4b455699673bec3c6cbde8", "name": "e8925aafaa4b455699673bec3c6cbde8", "lon": -77.06563733333333}, {"lat": 38.911138666666666, "is_disabled": 0, "type": "electric_scooter", "fusion_lon": 0.0, "rental_uris": {"android": "https://dc.lft.to/lastmile_qr_scan", "ios": "https://dc.lft.to/lastmile_qr_scan"}, "fusion_lat": 0.0, "is_reserved": 0, "bike_id": "ae5d743950918abb6ec3e1e27d5d237b", "name": "ae5d743950918abb6ec3e1e27d5d237b", "lon": -77.01909233333333}, {"lat": 38.90069583333333, "is_disabled": 0, "type": "electric_scooter", "fusion_lon": 0.0, "rental_uris": {"android": "https://dc.lft.to/lastmile_qr_scan", "ios": "https://dc.lft.to/lastmile_qr_scan"}, "fusion_lat": 0.0, "is_reserved": 0, "bike_id": "77c92a9fdf24f2b8108d25e7983670e2", "name": "77c92a9fdf24f2b8108d25e7983670e2", "lon": -77.045371}, {"lat": 38.84313433333333, "is_disabled": 0, "type": "electric_scooter", "fusion_lon": 0.0, "rental_uris": {"android": "https://dc.lft.to/lastmile_qr_scan", "ios": "https://dc.lft.to/lastmile_qr_scan"}, "fusion_lat": 0.0, "is_reserved": 0, "bike_id": "86e1f08f0062acf77fbba65e5d24dce3", "name": "86e1f08f0062acf77fbba65e5d24dce3", "lon": -76.99929216666666}, {"lat": 38.922773666666664, "is_disabled": 0, "type": "electric_scooter", "fusion_lon": 0.0, "rental_uris": {"android": "https://dc.lft.to/lastmile_qr_scan", "ios": "https://dc.lft.to/lastmile_qr_scan"}, "fusion_lat": 0.0, "is_reserved": 0, "bike_id": "7fa5c9ec05bd7c192570539bffc24e71", "name": "7fa5c9ec05bd7c192570539bffc24e71", "lon": -77.03640683333333}, {"lat": 38.93271383333333, "is_disabled": 0, "type": "electric_scooter", "fusion_lon": 0.0, "rental_uris": {"android": "https://dc.lft.to/lastmile_qr_scan", "ios": "https://dc.lft.to/lastmile_qr_scan"}, "fusion_lat": 0.0, "is_reserved": 0, "bike_id": "5e46c1b2eaf785e012caa2867b7ee3c7", "name": "5e46c1b2eaf785e012caa2867b7ee3c7", "lon": -77.02649183333334}, {"lat": 38.906414, "is_disabled": 0, "type": "electric_scooter", "fusion_lon": 0.0, "rental_uris": {"android": "https://dc.lft.to/lastmile_qr_scan", "ios": "https://dc.lft.to/lastmile_qr_scan"}, "fusion_lat": 0.0, "is_reserved": 0, "bike_id": "693dde8621fd38b211d3a3b9419a7213", "name": "693dde8621fd38b211d3a3b9419a7213", "lon": -77.051492}, {"lat": 38.902397666666666, "is_disabled": 0, "type": "electric_scooter", "fusion_lon": 0.0, "rental_uris": {"android": "https://dc.lft.to/lastmile_qr_scan", "ios": "https://dc.lft.to/lastmile_qr_scan"}, "fusion_lat": 0.0, "is_reserved": 0, "bike_id": "822d64f8a6bde6a58b15468b72132d37", "name": "822d64f8a6bde6a58b15468b72132d37", "lon": -77.03952683333333}, {"lat": 38.907537166666664, "is_disabled": 0, "type": "electric_scooter", "fusion_lon": 0.0, "rental_uris": {"android": "https://dc.lft.to/lastmile_qr_scan", "ios": "https://dc.lft.to/lastmile_qr_scan"}, "fusion_lat": 0.0, "is_reserved": 0, "bike_id": "0399e5c3cb9d62a4db752d3ae2c4bc60", "name": "0399e5c3cb9d62a4db752d3ae2c4bc60", "lon": -77.04236033333333}, {"lat": 38.915873500000004, "is_disabled": 0, "type": "electric_scooter", "fusion_lon": 0.0, "rental_uris": {"android": "https://dc.lft.to/lastmile_qr_scan", "ios": "https://dc.lft.to/lastmile_qr_scan"}, "fusion_lat": 0.0, "is_reserved": 0, "bike_id": "5d253214c079822630fcfb00ac9438a7", "name": "5d253214c079822630fcfb00ac9438a7", "lon": -77.035109}, {"lat": 38.87396616666667, "is_disabled": 0, "type": "electric_scooter", "fusion_lon": 0.0, "rental_uris": {"android": "https://dc.lft.to/lastmile_qr_scan", "ios": "https://dc.lft.to/lastmile_qr_scan"}, "fusion_lat": 0.0, "is_reserved": 0, "bike_id": "b1f31fcaa0fcbe95cd0513ddc2b49969", "name": "b1f31fcaa0fcbe95cd0513ddc2b49969", "lon": -77.00015583333334}, {"lat": 38.928581, "is_disabled": 0, "type": "electric_scooter", "fusion_lon": 0.0, "rental_uris": {"android": "https://dc.lft.to/lastmile_qr_scan", "ios": "https://dc.lft.to/lastmile_qr_scan"}, "fusion_lat": 0.0, "is_reserved": 0, "bike_id": "7fee835074b6e6fd73aeae953715ca31", "name": "7fee835074b6e6fd73aeae953715ca31", "lon": -77.03094483333334}, {"lat": 38.924858, "is_disabled": 0, "type": "electric_scooter", "fusion_lon": 0.0, "rental_uris": {"android": "https://dc.lft.to/lastmile_qr_scan", "ios": "https://dc.lft.to/lastmile_qr_scan"}, "fusion_lat": 0.0, "is_reserved": 0, "bike_id": "2522251a0b2f78b72878e13898e7635b", "name": "2522251a0b2f78b72878e13898e7635b", "lon": -77.02140816666666}, {"lat": 38.920261833333335, "is_disabled": 0, "type": "electric_scooter", "fusion_lon": 0.0, "rental_uris": {"android": "https://dc.lft.to/lastmile_qr_scan", "ios": "https://dc.lft.to/lastmile_qr_scan"}, "fusion_lat": 0.0, "is_reserved": 0, "bike_id": "901dff1dec2cb8c77934b9c0a9806a60", "name": "901dff1dec2cb8c77934b9c0a9806a60", "lon": -77.01115166666666}, {"lat": 38.9154415, "is_disabled": 0, "type": "electric_scooter", "fusion_lon": 0.0, "rental_uris": {"android": "https://dc.lft.to/lastmile_qr_scan", "ios": "https://dc.lft.to/lastmile_qr_scan"}, "fusion_lat": 0.0, "is_reserved": 0, "bike_id": "b393950887eed5064181978f7b4b2fdc", "name": "b393950887eed5064181978f7b4b2fdc", "lon": -77.01274916666667}, {"lat": 38.90286666666667, "is_disabled": 0, "type": "electric_scooter", "fusion_lon": 0.0, "rental_uris": {"android": "https://dc.lft.to/lastmile_qr_scan", "ios": "https://dc.lft.to/lastmile_qr_scan"}, "fusion_lat": 0.0, "is_reserved": 0, "bike_id": "7efcf7ada1d440af0a7b1f08f6295134", "name": "7efcf7ada1d440af0a7b1f08f6295134", "lon": -77.03664866666666}, {"lat": 38.91480583333333, "is_disabled": 0, "type": "electric_scooter", "fusion_lon": 0.0, "rental_uris": {"android": "https://dc.lft.to/lastmile_qr_scan", "ios": "https://dc.lft.to/lastmile_qr_scan"}, "fusion_lat": 0.0, "is_reserved": 0, "bike_id": "baceef62e5bd886a62144d7e9871ed7b", "name": "baceef62e5bd886a62144d7e9871ed7b", "lon": -77.02578816666667}, {"lat": 38.956309166666664, "is_disabled": 0, "type": "electric_scooter", "fusion_lon": 0.0, "rental_uris": {"android": "https://dc.lft.to/lastmile_qr_scan", "ios": "https://dc.lft.to/lastmile_qr_scan"}, "fusion_lat": 0.0, "is_reserved": 0, "bike_id": "3bca813ab9a60d488eb7963e0f758b67", "name": "3bca813ab9a60d488eb7963e0f758b67", "lon": -77.032977}, {"lat": 38.87442716666666, "is_disabled": 0, "type": "electric_scooter", "fusion_lon": 0.0, "rental_uris": {"android": "https://dc.lft.to/lastmile_qr_scan", "ios": "https://dc.lft.to/lastmile_qr_scan"}, "fusion_lat": 0.0, "is_reserved": 0, "bike_id": "ced91b816076ce14aed535b924b55adc", "name": "ced91b816076ce14aed535b924b55adc", "lon": -77.0003785}, {"lat": 38.93309133333333, "is_disabled": 0, "type": "electric_scooter", "fusion_lon": 0.0, "rental_uris": {"android": "https://dc.lft.to/lastmile_qr_scan", "ios": "https://dc.lft.to/lastmile_qr_scan"}, "fusion_lat": 0.0, "is_reserved": 0, "bike_id": "7948d0981d26a68e76a10fdfcfa94cce", "name": "7948d0981d26a68e76a10fdfcfa94cce", "lon": -77.03086216666667}, {"lat": 38.929445333333334, "is_disabled": 0, "type": "electric_bike", "fusion_lon": 0.0, "rental_uris": {"android": "https://dc.lft.to/lastmile_qr_scan", "ios": "https://dc.lft.to/lastmile_qr_scan"}, "fusion_lat": 0.0, "is_reserved": 0, "bike_id": "f99f4c56dc6e6dc9f3d15ea655199564", "name": "f99f4c56dc6e6dc9f3d15ea655199564", "lon": -77.02780966666667}, {"lat": 38.939827666666666, "is_disabled": 0, "type": "electric_scooter", "fusion_lon": 0.0, "rental_uris": {"android": "https://dc.lft.to/lastmile_qr_scan", "ios": "https://dc.lft.to/lastmile_qr_scan"}, "fusion_lat": 0.0, "is_reserved": 0, "bike_id": "9369be348e02affa7ed0c5fb7c12c529", "name": "9369be348e02affa7ed0c5fb7c12c529", "lon": -77.03265316666666}, {"lat": 38.90126433333333, "is_disabled": 0, "type": "electric_scooter", "fusion_lon": 0.0, "rental_uris": {"android": "https://dc.lft.to/lastmile_qr_scan", "ios": "https://dc.lft.to/lastmile_qr_scan"}, "fusion_lat": 0.0, "is_reserved": 0, "bike_id": "de69f2213ebbc98b29bf2f01585bbd6d", "name": "de69f2213ebbc98b29bf2f01585bbd6d", "lon": -77.04332666666667}, {"lat": 38.87142683333333, "is_disabled": 0, "type": "electric_scooter", "fusion_lon": 0.0, "rental_uris": {"android": "https://dc.lft.to/lastmile_qr_scan", "ios": "https://dc.lft.to/lastmile_qr_scan"}, "fusion_lat": 0.0, "is_reserved": 0, "bike_id": "9c0da492dc948696b1dc6e666aac02c8", "name": "9c0da492dc948696b1dc6e666aac02c8", "lon": -76.99332066666666}, {"lat": 38.93084533333333, "is_disabled": 0, "type": "electric_scooter", "fusion_lon": 0.0, "rental_uris": {"android": "https://dc.lft.to/lastmile_qr_scan", "ios": "https://dc.lft.to/lastmile_qr_scan"}, "fusion_lat": 0.0, "is_reserved": 0, "bike_id": "5fab74d0082173c7e13dcf16df5ca073", "name": "5fab74d0082173c7e13dcf16df5ca073", "lon": -77.027924}, {"lat": 38.9181675, "is_disabled": 0, "type": "electric_scooter", "fusion_lon": 0.0, "rental_uris": {"android": "https://dc.lft.to/lastmile_qr_scan", "ios": "https://dc.lft.to/lastmile_qr_scan"}, "fusion_lat": 0.0, "is_reserved": 0, "bike_id": "ecc5a24a4cefddd1913b6be86a7144bb", "name": "ecc5a24a4cefddd1913b6be86a7144bb", "lon": -77.02555966666667}, {"lat": 38.94109, "is_disabled": 0, "type": "electric_scooter", "fusion_lon": 0.0, "rental_uris": {"android": "https://dc.lft.to/lastmile_qr_scan", "ios": "https://dc.lft.to/lastmile_qr_scan"}, "fusion_lat": 0.0, "is_reserved": 0, "bike_id": "e634d56a12a6543ef971407cc079478f", "name": "e634d56a12a6543ef971407cc079478f", "lon": -77.06194916666666}, {"lat": 38.93346, "is_disabled": 0, "type": "electric_scooter", "fusion_lon": 0.0, "rental_uris": {"android": "https://dc.lft.to/lastmile_qr_scan", "ios": "https://dc.lft.to/lastmile_qr_scan"}, "fusion_lat": 0.0, "is_reserved": 0, "bike_id": "a1b3d0c51c782bc82a5cd96dd347671a", "name": "a1b3d0c51c782bc82a5cd96dd347671a", "lon": -77.0570925}, {"lat": 38.91349783333333, "is_disabled": 0, "type": "electric_scooter", "fusion_lon": 0.0, "rental_uris": {"android": "https://dc.lft.to/lastmile_qr_scan", "ios": "https://dc.lft.to/lastmile_qr_scan"}, "fusion_lat": 0.0, "is_reserved": 0, "bike_id": "94f07b349f6bb110c75768d25bf28f5b", "name": "94f07b349f6bb110c75768d25bf28f5b", "lon": -77.031863}, {"lat": 38.87838933333333, "is_disabled": 0, "type": "electric_bike", "fusion_lon": 0.0, "rental_uris": {"android": "https://dc.lft.to/lastmile_qr_scan", "ios": "https://dc.lft.to/lastmile_qr_scan"}, "fusion_lat": 0.0, "is_reserved": 0, "bike_id": "e74d8123d5c731eca7757af5df21be60", "name": "e74d8123d5c731eca7757af5df21be60", "lon": -76.98377583333334}, {"lat": 38.9338535, "is_disabled": 0, "type": "electric_scooter", "fusion_lon": 0.0, "rental_uris": {"android": "https://dc.lft.to/lastmile_qr_scan", "ios": "https://dc.lft.to/lastmile_qr_scan"}, "fusion_lat": 0.0, "is_reserved": 0, "bike_id": "9ce3781e5e07e2e3fcef929d7e8997be", "name": "9ce3781e5e07e2e3fcef929d7e8997be", "lon": -77.023583}, {"lat": 38.91565883333333, "is_disabled": 0, "type": "electric_scooter", "fusion_lon": 0.0, "rental_uris": {"android": "https://dc.lft.to/lastmile_qr_scan", "ios": "https://dc.lft.to/lastmile_qr_scan"}, "fusion_lat": 0.0, "is_reserved": 0, "bike_id": "4410125473739142f2ec209904579782", "name": "4410125473739142f2ec209904579782", "lon": -77.0319095}, {"lat": 38.900294333333335, "is_disabled": 0, "type": "electric_scooter", "fusion_lon": 0.0, "rental_uris": {"android": "https://dc.lft.to/lastmile_qr_scan", "ios": "https://dc.lft.to/lastmile_qr_scan"}, "fusion_lat": 0.0, "is_reserved": 0, "bike_id": "c119e545bd412bb5b646f263a0751844", "name": "c119e545bd412bb5b646f263a0751844", "lon": -76.9863365}, {"lat": 38.8718655, "is_disabled": 0, "type": "electric_scooter", "fusion_lon": 0.0, "rental_uris": {"android": "https://dc.lft.to/lastmile_qr_scan", "ios": "https://dc.lft.to/lastmile_qr_scan"}, "fusion_lat": 0.0, "is_reserved": 0, "bike_id": "bd6c15dcd771d06499ccee0df10feb53", "name": "bd6c15dcd771d06499ccee0df10feb53", "lon": -77.0060105}, {"lat": 38.893352, "is_disabled": 0, "type": "electric_scooter", "fusion_lon": 0.0, "rental_uris": {"android": "https://dc.lft.to/lastmile_qr_scan", "ios": "https://dc.lft.to/lastmile_qr_scan"}, "fusion_lat": 0.0, "is_reserved": 0, "bike_id": "4bc1ac8cbf6cb72b7437bdf3ae106f6f", "name": "4bc1ac8cbf6cb72b7437bdf3ae106f6f", "lon": -77.012092}, {"lat": 38.92112566666667, "is_disabled": 0, "type": "electric_scooter", "fusion_lon": 0.0, "rental_uris": {"android": "https://dc.lft.to/lastmile_qr_scan", "ios": "https://dc.lft.to/lastmile_qr_scan"}, "fusion_lat": 0.0, "is_reserved": 0, "bike_id": "006ea3a705331d4dcee5a9d9cf0272ba", "name": "006ea3a705331d4dcee5a9d9cf0272ba", "lon": -77.04230716666666}, {"lat": 38.892359, "is_disabled": 0, "type": "electric_scooter", "fusion_lon": 0.0, "rental_uris": {"android": "https://dc.lft.to/lastmile_qr_scan", "ios": "https://dc.lft.to/lastmile_qr_scan"}, "fusion_lat": 0.0, "is_reserved": 0, "bike_id": "140f809afc218fc9a5c42f13bb1ceeb0", "name": "140f809afc218fc9a5c42f13bb1ceeb0", "lon": -77.03190266666667}, {"lat": 38.892253, "is_disabled": 0, "type": "electric_scooter", "fusion_lon": 0.0, "rental_uris": {"android": "https://dc.lft.to/lastmile_qr_scan", "ios": "https://dc.lft.to/lastmile_qr_scan"}, "fusion_lat": 0.0, "is_reserved": 0, "bike_id": "acdd8bb49fcc9555d3518b821dbfe9f9", "name": "acdd8bb49fcc9555d3518b821dbfe9f9", "lon": -77.04468866666667}, {"lat": 38.88812866666667, "is_disabled": 0, "type": "electric_scooter", "fusion_lon": 0.0, "rental_uris": {"android": "https://dc.lft.to/lastmile_qr_scan", "ios": "https://dc.lft.to/lastmile_qr_scan"}, "fusion_lat": 0.0, "is_reserved": 0, "bike_id": "22a3adc40f82cae7c7dac32a940ea905", "name": "22a3adc40f82cae7c7dac32a940ea905", "lon": -76.933452}, {"lat": 38.90603333333333, "is_disabled": 0, "type": "electric_scooter", "fusion_lon": 0.0, "rental_uris": {"android": "https://dc.lft.to/lastmile_qr_scan", "ios": "https://dc.lft.to/lastmile_qr_scan"}, "fusion_lat": 0.0, "is_reserved": 0, "bike_id": "23d003b6f2e0b91380291128a02154c5", "name": "23d003b6f2e0b91380291128a02154c5", "lon": -77.05685966666667}, {"lat": 38.9248605, "is_disabled": 0, "type": "electric_scooter", "fusion_lon": 0.0, "rental_uris": {"android": "https://dc.lft.to/lastmile_qr_scan", "ios": "https://dc.lft.to/lastmile_qr_scan"}, "fusion_lat": 0.0, "is_reserved": 0, "bike_id": "e18c9391ec2995a8f94c1cd6ef097acc", "name": "e18c9391ec2995a8f94c1cd6ef097acc", "lon": -77.02140733333333}, {"lat": 38.90972766666667, "is_disabled": 0, "type": "electric_scooter", "fusion_lon": 0.0, "rental_uris": {"android": "https://dc.lft.to/lastmile_qr_scan", "ios": "https://dc.lft.to/lastmile_qr_scan"}, "fusion_lat": 0.0, "is_reserved": 0, "bike_id": "33fd1c9f9bd4c7840ce58c8abf006026", "name": "33fd1c9f9bd4c7840ce58c8abf006026", "lon": -77.02422933333334}, {"lat": 38.9167725, "is_disabled": 0, "type": "electric_scooter", "fusion_lon": 0.0, "rental_uris": {"android": "https://dc.lft.to/lastmile_qr_scan", "ios": "https://dc.lft.to/lastmile_qr_scan"}, "fusion_lat": 0.0, "is_reserved": 0, "bike_id": "cdb0bbc6aec74e0a3d6896ca23e55ef6", "name": "cdb0bbc6aec74e0a3d6896ca23e55ef6", "lon": -76.97892966666667}, {"lat": 38.86646983333333, "is_disabled": 0, "type": "electric_scooter", "fusion_lon": 0.0, "rental_uris": {"android": "https://dc.lft.to/lastmile_qr_scan", "ios": "https://dc.lft.to/lastmile_qr_scan"}, "fusion_lat": 0.0, "is_reserved": 0, "bike_id": "1aa5e25d8ed9de0432b826b6fcc7c2a4", "name": "1aa5e25d8ed9de0432b826b6fcc7c2a4", "lon": -76.98534166666667}, {"lat": 38.89239933333333, "is_disabled": 0, "type": "electric_scooter", "fusion_lon": 0.0, "rental_uris": {"android": "https://dc.lft.to/lastmile_qr_scan", "ios": "https://dc.lft.to/lastmile_qr_scan"}, "fusion_lat": 0.0, "is_reserved": 0, "bike_id": "9fcfbf402ddef958b8a53bca21605720", "name": "9fcfbf402ddef958b8a53bca21605720", "lon": -77.04360616666666}, {"lat": 38.9265695, "is_disabled": 0, "type": "electric_scooter", "fusion_lon": 0.0, "rental_uris": {"android": "https://dc.lft.to/lastmile_qr_scan", "ios": "https://dc.lft.to/lastmile_qr_scan"}, "fusion_lat": 0.0, "is_reserved": 0, "bike_id": "a1925f57aaf57dc7da95ffaaa569106f", "name": "a1925f57aaf57dc7da95ffaaa569106f", "lon": -77.0230195}, {"lat": 38.933646833333334, "is_disabled": 0, "type": "electric_scooter", "fusion_lon": 0.0, "rental_uris": {"android": "https://dc.lft.to/lastmile_qr_scan", "ios": "https://dc.lft.to/lastmile_qr_scan"}, "fusion_lat": 0.0, "is_reserved": 0, "bike_id": "9b0f82c51788abc7867da8785b535ce2", "name": "9b0f82c51788abc7867da8785b535ce2", "lon": -77.05733583333334}, {"lat": 38.9180665, "is_disabled": 0, "type": "electric_scooter", "fusion_lon": 0.0, "rental_uris": {"android": "https://dc.lft.to/lastmile_qr_scan", "ios": "https://dc.lft.to/lastmile_qr_scan"}, "fusion_lat": 0.0, "is_reserved": 0, "bike_id": "089e6260a30f909349879f7e63651286", "name": "089e6260a30f909349879f7e63651286", "lon": -77.03181533333333},