{"data": {"bikes": [{"bike_id": "28cf9c27c0f4bab8415f87a67855a585", "type": "electric_scooter", "is_disabled": 0, "lat": 38.83826283333333, "rental_uris": {"ios": "https://dc.lft.to/lastmile_qr_scan", "android": "https://dc.lft.to/lastmile_qr_scan"}, "is_reserved": 0, "fusion_lon": 0.0, "fusion_lat": 0.0, "lon": -77.00270533333334, "name": "28cf9c27c0f4bab8415f87a67855a585"}, {"bike_id": "af6eccc9162ccb98efc857d272798024", "type": "electric_scooter", "is_disabled": 0, "lat": 38.88115366666667, "rental_uris": {"ios": "https://dc.lft.to/lastmile_qr_scan", "android": "https://dc.lft.to/lastmile_qr_scan"}, "is_reserved": 0, "fusion_lon": 0.0, "fusion_lat": 0.0, "lon": -77.02651333333333, "name": "af6eccc9162ccb98efc857d272798024"}, {"bike_id": "133c3a9e661690af3340d1eff23a668b", "type": "electric_scooter", "is_disabled": 0, "lat": 38.91759016666666, "rental_uris": {"ios": "https://dc.lft.to/lastmile_qr_scan", "android": "https://dc.lft.to/lastmile_qr_scan"}, "is_reserved": 0, "fusion_lon": 0.0, "fusion_lat": 0.0, "lon": -77.02484133333333, "name": "133c3a9e661690af3340d1eff23a668b"}, {"bike_id": "74b3628af2d7de1a7d30536057c1a511", "type": "electric_scooter", "is_disabled": 0, "lat": 38.9048215, "rental_uris": {"ios": "https://dc.lft.to/lastmile_qr_scan", "android": "https://dc.lft.to/lastmile_qr_scan"}, "is_reserved": 0, "fusion_lon": 0.0, "fusion_lat": 0.0, "lon": -77.00717633333333, "name": "74b3628af2d7de1a7d30536057c1a511"}, {"bike_id": "02228dba6b7827a90f2de9141f841ff3", "type": "electric_scooter", "is_disabled": 0, "lat": 38.8988445, "rental_uris": {"ios": "https://dc.lft.to/lastmile_qr_scan", "android": "https://dc.lft.to/lastmile_qr_scan"}, "is_reserved": 0, "fusion_lon": 0.0, "fusion_lat": 0.0, "lon": -77.0218955, "name": "02228dba6b7827a90f2de9141f841ff3"}, {"bike_id": "3cd2e82c879f701fba00e994b45d0b63", "type": "electric_scooter", "is_disabled": 0, "lat": 38.902557333333334, "rental_uris": {"ios": "https://dc.lft.to/lastmile_qr_scan", "android": "https://dc.lft.to/lastmile_qr_scan"}, "is_reserved": 0, "fusion_lon": 0.0, "fusion_lat": 0.0, "lon": -76.98664933333333, "name": "3cd2e82c879f701fba00e994b45d0b63"}, {"bike_id": "86f70c056a867e7d280170e57a410a69", "type": "electric_scooter", "is_disabled": 0, "lat": 38.89665133333333, "rental_uris": {"ios": "https://dc.lft.to/lastmile_qr_scan", "android": "https://dc.lft.to/lastmile_qr_scan"}, "is_reserved": 0, "fusion_lon": 0.0, "fusion_lat": 0.0, "lon": -77.023941, "name": "86f70c056a867e7d280170e57a410a69"}, {"bike_id": "610addeab3261755cb5b2e7fc1f549f3", "type": "electric_scooter", "is_disabled": 0, "lat": 38.9216055, "rental_uris": {"ios": "https://dc.lft.to/lastmile_qr_scan", "android": "https://dc.lft.to/lastmile_qr_scan"}, "is_reserved": 0, "fusion_lon": 0.0, "fusion_lat": 0.0, "lon": -77.03311266666667, "name": "610addeab3261755cb5b2e7fc1f549f3"}, {"bike_id": "f150ad2c597f2a62675fb31df4ab95c8", "type": "electric_scooter", "is_disabled": 0, "lat": 38.91565966666667, "rental_uris": {"ios": "https://dc.lft.to/lastmile_qr_scan", "android": "https://dc.lft.to/lastmile_qr_scan"}, "is_reserved": 0, "fusion_lon": 0.0, "fusion_lat": 0.0, "lon": -77.0201695, "name": "f150ad2c597f2a62675fb31df4ab95c8"}, {"bike_id": "1306984f547f9b1b1e269789c6d83bd5", "type": "electric_scooter", "is_disabled": 0, "lat": 38.914177333333335, "rental_uris": {"ios": "https://dc.lft.to/lastmile_qr_scan", "android": "https://dc.lft.to/lastmile_qr_scan"}, "is_reserved": 0, "fusion_lon": 0.0, "fusion_lat": 0.0, "lon": -77.0123305, "name": "1306984f547f9b1b1e269789c6d83bd5"}, {"bike_id": "f2ffee078e859f01721a00bce991d18d", "type": "electric_scooter", "is_disabled": 0, "lat": 38.9212695, "rental_uris": {"ios": "https://dc.lft.to/lastmile_qr_scan", "android": "https://dc.lft.to/lastmile_qr_scan"}, "is_reserved": 0, "fusion_lon": 0.0, "fusion_lat": 0.0, "lon": -77.0182745, "name": "f2ffee078e859f01721a00bce991d18d"}, {"bike_id": "be5b15d4969d81988cd0edbc7a819b01", "type": "electric_scooter", "is_disabled": 0, "lat": 38.91818766666667, "rental_uris": {"ios": "https://dc.lft.to/lastmile_qr_scan", "android": "https://dc.lft.to/lastmile_qr_scan"}, "is_reserved": 0, "fusion_lon": 0.0, "fusion_lat": 0.0, "lon": -77.03171783333333, "name": "be5b15d4969d81988cd0edbc7a819b01"}, {"bike_id": "bac1ae2e33992462462da0dc158facc3", "type": "electric_scooter", "is_disabled": 0, "lat": 38.90518866666667, "rental_uris": {"ios": "https://dc.lft.to/lastmile_qr_scan", "android": "https://dc.lft.to/lastmile_qr_scan"}, "is_reserved": 0, "fusion_lon": 0.0, "fusion_lat": 0.0, "lon": -77.06765733333333, "name": "bac1ae2e33992462462da0dc158facc3"}, {"bike_id": "45b54452731855338cab2b462307d55c", "type": "electric_scooter", "is_disabled": 0, "lat": 38.91636583333333, "rental_uris": {"ios": "https://dc.lft.to/lastmile_qr_scan", "android": "https://dc.lft.to/lastmile_qr_scan"}, "is_reserved": 0, "fusion_lon": 0.0, "fusion_lat": 0.0, "lon": -77.02550833333333, "name": "45b54452731855338cab2b462307d55c"}, {"bike_id": "a6ddc01e5d0f140067c4ee2649f8c179", "type": "electric_scooter", "is_disabled": 0, "lat": 38.89815566666667, "rental_uris": {"ios": "https://dc.lft.to/lastmile_qr_scan", "android": "https://dc.lft.to/lastmile_qr_scan"}, "is_reserved": 0, "fusion_lon": 0.0, "fusion_lat": 0.0, "lon": -77.022044, "name": "a6ddc01e5d0f140067c4ee2649f8c179"}, {"bike_id": "b94c1da47d516e442751f79ec2f375d1", "type": "electric_scooter", "is_disabled": 0, "lat": 38.89737683333333, "rental_uris": {"ios": "https://dc.lft.to/lastmile_qr_scan", "android": "https://dc.lft.to/lastmile_qr_scan"}, "is_reserved": 0, "fusion_lon": 0.0, "fusion_lat": 0.0, "lon": -76.94724883333333, "name": "b94c1da47d516e442751f79ec2f375d1"}, {"bike_id": "cf42b340cab3f82d981e84517f63f6e5", "type": "electric_scooter", "is_disabled": 0, "lat": 38.952223333333336, "rental_uris": {"ios": "https://dc.lft.to/lastmile_qr_scan", "android": "https://dc.lft.to/lastmile_qr_scan"}, "is_reserved": 0, "fusion_lon": 0.0, "fusion_lat": 0.0, "lon": -77.07068966666667, "name": "cf42b340cab3f82d981e84517f63f6e5"}, {"bike_id": "13bbccb222a272317eff405d9f9c9ede", "type": "electric_scooter", "is_disabled": 0, "lat": 38.901456833333334, "rental_uris": {"ios": "https://dc.lft.to/lastmile_qr_scan", "android": "https://dc.lft.to/lastmile_qr_scan"}, "is_reserved": 0, "fusion_lon": 0.0, "fusion_lat": 0.0, "lon": -77.0202195, "name": "13bbccb222a272317eff405d9f9c9ede"}, {"bike_id": "3884ee1188b8a6deaa6ee3d91ab448b3", "type": "electric_scooter", "is_disabled": 0, "lat": 38.964417833333336, "rental_uris": {"ios": "https://dc.lft.to/lastmile_qr_scan", "android": "https://dc.lft.to/lastmile_qr_scan"}, "is_reserved": 0, "fusion_lon": 0.0, "fusion_lat": 0.0, "lon": -77.02065666666667, "name": "3884ee1188b8a6deaa6ee3d91ab448b3"}, {"bike_id": "b6b2bcb9aa41a439bbb9fa06a95fb8cf", "type": "electric_scooter", "is_disabled": 0, "lat": 38.917036333333336, "rental_uris": {"ios": "https://dc.lft.to/lastmile_qr_scan", "android": "https://dc.lft.to/lastmile_qr_scan"}, "is_reserved": 0, "fusion_lon": 0.0, "fusion_lat": 0.0, "lon": -77.02926316666667, "name": "b6b2bcb9aa41a439bbb9fa06a95fb8cf"}, {"bike_id": "1ddbc14cf024f554ed2467ca637ad1df", "type": "electric_scooter", "is_disabled": 0, "lat": 38.92183566666667, "rental_uris": {"ios": "https://dc.lft.to/lastmile_qr_scan", "android": "https://dc.lft.to/lastmile_qr_scan"}, "is_reserved": 0, "fusion_lon": 0.0, "fusion_lat": 0.0, "lon": -77.04230883333334, "name": "1ddbc14cf024f554ed2467ca637ad1df"}, {"bike_id": "5f8e5a0767022c3acf669afa1e8a002e", "type": "electric_scooter", "is_disabled": 0, "lat": 38.91740183333334, "rental_uris": {"ios": "https://dc.lft.to/lastmile_qr_scan", "android": "https://dc.lft.to/lastmile_qr_scan"}, "is_reserved": 0, "fusion_lon": 0.0, "fusion_lat": 0.0, "lon": -77.031964, "name": "5f8e5a0767022c3acf669afa1e8a002e"}, {"bike_id": "52dc3bfa3e9fb4cbfdb4d9411d359abc", "type": "electric_scooter", "is_disabled": 0, "lat": 38.9057805, "rental_uris": {"ios": "https://dc.lft.to/lastmile_qr_scan", "android": "https://dc.lft.to/lastmile_qr_scan"}, "is_reserved": 0, "fusion_lon": 0.0, "fusion_lat": 0.0, "lon": -77.02203716666666, "name": "52dc3bfa3e9fb4cbfdb4d9411d359abc"}, {"bike_id": "788f2207c1335d0711e4e9992753c128", "type": "electric_scooter", "is_disabled": 0, "lat": 38.91930966666666, "rental_uris": {"ios": "https://dc.lft.to/lastmile_qr_scan", "android": "https://dc.lft.to/lastmile_qr_scan"}, "is_reserved": 0, "fusion_lon": 0.0, "fusion_lat": 0.0, "lon": -77.031824, "name": "788f2207c1335d0711e4e9992753c128"}, {"bike_id": "724982c21e3fb61570fa3f896e95b42b", "type": "electric_scooter", "is_disabled": 0, "lat": 38.93359016666667, "rental_uris": {"ios": "https://dc.lft.to/lastmile_qr_scan", "android": "https://dc.lft.to/lastmile_qr_scan"}, "is_reserved": 0, "fusion_lon": 0.0, "fusion_lat": 0.0, "lon": -77.07361466666667, "name": "724982c21e3fb61570fa3f896e95b42b"}, {"bike_id": "8bcbbcf39305e007de628eca0bdefdfd", "type": "electric_scooter", "is_disabled": 0, "lat": 38.929799833333334, "rental_uris": {"ios": "https://dc.lft.to/lastmile_qr_scan", "android": "https://dc.lft.to/lastmile_qr_scan"}, "is_reserved": 0, "fusion_lon": 0.0, "fusion_lat": 0.0, "lon": -77.03665333333333, "name": "8bcbbcf39305e007de628eca0bdefdfd"}, {"bike_id": "8332f6ef124c7ac0b23038bb1a198150", "type": "electric_scooter", "is_disabled": 0, "lat": 38.8972545, "rental_uris": {"ios": "https://dc.lft.to/lastmile_qr_scan", "android": "https://dc.lft.to/lastmile_qr_scan"}, "is_reserved": 0, "fusion_lon": 0.0, "fusion_lat": 0.0, "lon": -77.02325733333333, "name": "8332f6ef124c7ac0b23038bb1a198150"}, {"bike_id": "7f0fd4f578dada7a43b262076d82e773", "type": "electric_scooter", "is_disabled": 0, "lat": 38.903066, "rental_uris": {"ios": "https://dc.lft.to/lastmile_qr_scan", "android": "https://dc.lft.to/lastmile_qr_scan"}, "is_reserved": 0, "fusion_lon": 0.0, "fusion_lat": 0.0, "lon": -77.04952983333334, "name": "7f0fd4f578dada7a43b262076d82e773"}, {"bike_id": "35b90382676096e4c280c7ffba409ead", "type": "electric_scooter", "is_disabled": 0, "lat": 38.902559833333335, "rental_uris": {"ios": "https://dc.lft.to/lastmile_qr_scan", "android": "https://dc.lft.to/lastmile_qr_scan"}, "is_reserved": 0, "fusion_lon": 0.0, "fusion_lat": 0.0, "lon": -77.0579905, "name": "35b90382676096e4c280c7ffba409ead"}, {"bike_id": "e7942f627f9b128c07182d386be858b0", "type": "electric_scooter", "is_disabled": 0, "lat": 38.91602733333333, "rental_uris": {"ios": "https://dc.lft.to/lastmile_qr_scan", "android": "https://dc.lft.to/lastmile_qr_scan"}, "is_reserved": 0, "fusion_lon": 0.0, "fusion_lat": 0.0, "lon": -77.0318155, "name": "e7942f627f9b128c07182d386be858b0"}, {"bike_id": "cac65680d579b212566b617080e79585", "type": "electric_bike", "is_disabled": 0, "lat": 38.9932605, "rental_uris": {"ios": "https://dc.lft.to/lastmile_qr_scan", "android": "https://dc.lft.to/lastmile_qr_scan"}, "is_reserved": 0, "fusion_lon": 0.0, "fusion_lat": 0.0, "lon": -76.94614083333333, "name": "cac65680d579b212566b617080e79585"}, {"bike_id": "8eecab08d2b61ea8275ed74c79631198", "type": "electric_bike", "is_disabled": 0, "lat": 38.8553865, "rental_uris": {"ios": "https://dc.lft.to/lastmile_qr_scan", "android": "https://dc.lft.to/lastmile_qr_scan"}, "is_reserved": 0, "fusion_lon": 0.0, "fusion_lat": 0.0, "lon": -77.120177, "name": "8eecab08d2b61ea8275ed74c79631198"}, {"bike_id": "4fcaa4a9945e152754b3cb062f03c6ee", "type": "electric_scooter", "is_disabled": 0, "lat": 38.90711366666667, "rental_uris": {"ios": "https://dc.lft.to/lastmile_qr_scan", "android": "https://dc.lft.to/lastmile_qr_scan"}, "is_reserved": 0, "fusion_lon": 0.0, "fusion_lat": 0.0, "lon": -77.02393466666666, "name": "4fcaa4a9945e152754b3cb062f03c6ee"}, {"bike_id": "8c3b2e4980b2ff0132fca3d701292cc1", "type": "electric_scooter", "is_disabled": 0, "lat": 38.933409833333336, "rental_uris": {"ios": "https://dc.lft.to/lastmile_qr_scan", "android": "https://dc.lft.to/lastmile_qr_scan"}, "is_reserved": 0, "fusion_lon": 0.0, "fusion_lat": 0.0, "lon": -77.02058, "name": "8c3b2e4980b2ff0132fca3d701292cc1"}, {"bike_id": "bf2f058b36186e4e879eda10e6d27043", "type": "electric_scooter", "is_disabled": 0, "lat": 38.94750883333333, "rental_uris": {"ios": "https://dc.lft.to/lastmile_qr_scan", "android": "https://dc.lft.to/lastmile_qr_scan"}, "is_reserved": 0, "fusion_lon": 0.0, "fusion_lat": 0.0, "lon": -77.07588, "name": "bf2f058b36186e4e879eda10e6d27043"}, {"bike_id": "6c6ee8756209b8d36d2078a79e7af053", "type": "electric_scooter", "is_disabled": 0, "lat": 38.91274816666667, "rental_uris": {"ios": "https://dc.lft.to/lastmile_qr_scan", "android": "https://dc.lft.to/lastmile_qr_scan"}, "is_reserved": 0, "fusion_lon": 0.0, "fusion_lat": 0.0, "lon": -77.0226815, "name": "6c6ee8756209b8d36d2078a79e7af053"}, {"bike_id": "41f287ec48818072b8f3f81714978ed6", "type": "electric_scooter", "is_disabled": 0, "lat": 38.90174433333333, "rental_uris": {"ios": "https://dc.lft.to/lastmile_qr_scan", "android": "https://dc.lft.to/lastmile_qr_scan"}, "is_reserved": 0, "fusion_lon": 0.0, "fusion_lat": 0.0, "lon": -76.98078016666666, "name": "41f287ec48818072b8f3f81714978ed6"}, {"bike_id": "2d3dd440a0bfa0fc7e71a108dc73e044", "type": "electric_scooter", "is_disabled": 0, "lat": 38.93073416666667, "rental_uris": {"ios": "https://dc.lft.to/lastmile_qr_scan", "android": "https://dc.lft.to/lastmile_qr_scan"}, "is_reserved": 0, "fusion_lon": 0.0, "fusion_lat": 0.0, "lon": -77.03161083333333, "name": "2d3dd440a0bfa0fc7e71a108dc73e044"}, {"bike_id": "7b94967c3aba5d2afa87dc6c53c77006", "type": "electric_scooter", "is_disabled": 0, "lat": 38.90975866666667, "rental_uris": {"ios": "https://dc.lft.to/lastmile_qr_scan", "android": "https://dc.lft.to/lastmile_qr_scan"}, "is_reserved": 0, "fusion_lon": 0.0, "fusion_lat": 0.0, "lon": -77.04645216666667, "name": "7b94967c3aba5d2afa87dc6c53c77006"}, {"bike_id": "729e6e70bf7e355c1ba8ecd3a2aa2e59", "type": "electric_bike", "is_disabled": 0, "lat": 39.052772166666664, "rental_uris": {"ios": "https://dc.lft.to/lastmile_qr_scan", "android": "https://dc.lft.to/lastmile_qr_scan"}, "is_reserved": 0, "fusion_lon": 0.0, "fusion_lat": 0.0, "lon": -77.08068366666667, "name": "729e6e70bf7e355c1ba8ecd3a2aa2e59"}, {"bike_id": "09c8f11ed499fb74eb47724df9ca5624", "type": "electric_scooter", "is_disabled": 0, "lat": 38.91704133333333, "rental_uris": {"ios": "https://dc.lft.to/lastmile_qr_scan", "android": "https://dc.lft.to/lastmile_qr_scan"}, "is_reserved": 0, "fusion_lon": 0.0, "fusion_lat": 0.0, "lon": -77.00652116666667, "name": "09c8f11ed499fb74eb47724df9ca5624"}, {"bike_id": "cd966f4dc4fb038bde7f997e090bb642", "type": "electric_scooter", "is_disabled": 0, "lat": 38.866991166666665, "rental_uris": {"ios": "https://dc.lft.to/lastmile_qr_scan", "android": "https://dc.lft.to/lastmile_qr_scan"}, "is_reserved": 0, "fusion_lon": 0.0, "fusion_lat": 0.0, "lon": -76.987165, "name": "cd966f4dc4fb038bde7f997e090bb642"}, {"bike_id": "e27196c222431df6fc6d019584ab013f", "type": "electric_scooter", "is_disabled": 0, "lat": 38.918252, "rental_uris": {"ios": "https://dc.lft.to/lastmile_qr_scan", "android": "https://dc.lft.to/lastmile_qr_scan"}, "is_reserved": 0, "fusion_lon": 0.0, "fusion_lat": 0.0, "lon": -77.04940583333334, "name": "e27196c222431df6fc6d019584ab013f"}, {"bike_id": "47161c3b5358e1e1ca20c871d4422f0a", "type": "electric_scooter", "is_disabled": 0, "lat": 38.93131116666667, "rental_uris": {"ios": "https://dc.lft.to/lastmile_qr_scan", "android": "https://dc.lft.to/lastmile_qr_scan"}, "is_reserved": 0, "fusion_lon": 0.0, "fusion_lat": 0.0, "lon": -76.99575083333333, "name": "47161c3b5358e1e1ca20c871d4422f0a"}, {"bike_id": "0bc08268c765452ed70dac8afd62c4a7", "type": "electric_scooter", "is_disabled": 0, "lat": 38.9029025, "rental_uris": {"ios": "https://dc.lft.to/lastmile_qr_scan", "android": "https://dc.lft.to/lastmile_qr_scan"}, "is_reserved": 0, "fusion_lon": 0.0, "fusion_lat": 0.0, "lon": -77.02146, "name": "0bc08268c765452ed70dac8afd62c4a7"}, {"bike_id": "59d887a493bc223370c00614f3894009", "type": "electric_scooter", "is_disabled": 0, "lat": 38.917159166666664, "rental_uris": {"ios": "https://dc.lft.to/lastmile_qr_scan", "android": "https://dc.lft.to/lastmile_qr_scan"}, "is_reserved": 0, "fusion_lon": 0.0, "fusion_lat": 0.0, "lon": -77.04609216666667, "name": "59d887a493bc223370c00614f3894009"}, {"bike_id": "20d299ee993d7c5d318bf49c8c5e04a5", "type": "electric_scooter", "is_disabled": 0, "lat": 38.91426833333333, "rental_uris": {"ios": "https://dc.lft.to/lastmile_qr_scan", "android": "https://dc.lft.to/lastmile_qr_scan"}, "is_reserved": 0, "fusion_lon": 0.0, "fusion_lat": 0.0, "lon": -77.06920933333333, "name": "20d299ee993d7c5d318bf49c8c5e04a5"}, {"bike_id": "b4449619fc5dfd86ca100a778b4055df", "type": "electric_scooter", "is_disabled": 0, "lat": 38.966101, "rental_uris": {"ios": "https://dc.lft.to/lastmile_qr_scan", "android": "https://dc.lft.to/lastmile_qr_scan"}, "is_reserved": 0, "fusion_lon": 0.0, "fusion_lat": 0.0, "lon": -77.01979116666666, "name": "b4449619fc5dfd86ca100a778b4055df"}, {"bike_id": "8f7c8ffb16d824bfa9a30b449f08f675", "type": "electric_scooter", "is_disabled": 0, "lat": 38.911162833333336, "rental_uris": {"ios": "https://dc.lft.to/lastmile_qr_scan", "android": "https://dc.lft.to/lastmile_qr_scan"}, "is_reserved": 0, "fusion_lon": 0.0, "fusion_lat": 0.0, "lon": -77.04464966666667, "name": "8f7c8ffb16d824bfa9a30b449f08f675"}, {"bike_id": "f9b38d2615ba73a4324a82713c99b2bd", "type": "electric_scooter", "is_disabled": 0, "lat": 38.92062083333333, "rental_uris": {"ios": "https://dc.lft.to/lastmile_qr_scan", "android": "https://dc.lft.to/lastmile_qr_scan"}, "is_reserved": 0, "fusion_lon": 0.0, "fusion_lat": 0.0, "lon": -77.034627, "name": "f9b38d2615ba73a4324a82713c99b2bd"}, {"bike_id": "887571d5e34ad34edb37a27402f9ded1", "type": "electric_scooter", "is_disabled": 0, "lat": 38.908489333333335, "rental_uris": {"ios": "https://dc.lft.to/lastmile_qr_scan", "android": "https://dc.lft.to/lastmile_qr_scan"}, "is_reserved": 0, "fusion_lon": 0.0, "fusion_lat": 0.0, "lon": -77.0366255, "name": "887571d5e34ad34edb37a27402f9ded1"}, {"bike_id": "bcbdb482fa419aae2295856881691434", "type": "electric_scooter", "is_disabled": 0, "lat": 38.919170333333334, "rental_uris": {"ios": "https://dc.lft.to/lastmile_qr_scan", "android": "https://dc.lft.to/lastmile_qr_scan"}, "is_reserved": 0, "fusion_lon": 0.0, "fusion_lat": 0.0, "lon": -77.04475366666667, "name": "bcbdb482fa419aae2295856881691434"}, {"bike_id": "d4aacec1156c57b0e3c0d79d2275842d", "type": "electric_scooter", "is_disabled": 0, "lat": 38.89191733333333, "rental_uris": {"ios": "https://dc.lft.to/lastmile_qr_scan", "android": "https://dc.lft.to/lastmile_qr_scan"}, "is_reserved": 0, "fusion_lon": 0.0, "fusion_lat": 0.0, "lon": -77.00234833333333, "name": "d4aacec1156c57b0e3c0d79d2275842d"}, {"bike_id": "c6e35bb86739121eae7d09882973fc46", "type": "electric_bike", "is_disabled": 0, "lat": 38.897509666666664, "rental_uris": {"ios": "https://dc.lft.to/lastmile_qr_scan", "android": "https://dc.lft.to/lastmile_qr_scan"}, "is_reserved": 0, "fusion_lon": 0.0, "fusion_lat": 0.0, "lon": -77.00750433333333, "name": "c6e35bb86739121eae7d09882973fc46"}, {"bike_id": "2329b637f53aacfe9fb1c2c42c13079e", "type": "electric_scooter", "is_disabled": 0, "lat": 38.91477733333333, "rental_uris": {"ios": "https://dc.lft.to/lastmile_qr_scan", "android": "https://dc.lft.to/lastmile_qr_scan"}, "is_reserved": 0, "fusion_lon": 0.0, "fusion_lat": 0.0, "lon": -77.03220433333334, "name": "2329b637f53aacfe9fb1c2c42c13079e"}, {"bike_id": "916fb00144457e8be86e114c56f35f91", "type": "electric_scooter", "is_disabled": 0, "lat": 38.884296, "rental_uris": {"ios": "https://dc.lft.to/lastmile_qr_scan", "android": "https://dc.lft.to/lastmile_qr_scan"}, "is_reserved": 0, "fusion_lon": 0.0, "fusion_lat": 0.0, "lon": -76.95751466666667, "name": "916fb00144457e8be86e114c56f35f91"}, {"bike_id": "6d625d1e40cfe568ba32f44a5e50a3b0", "type": "electric_scooter", "is_disabled": 0, "lat": 38.89698683333334, "rental_uris": {"ios": "https://dc.lft.to/lastmile_qr_scan", "android": "https://dc.lft.to/lastmile_qr_scan"}, "is_reserved": 0, "fusion_lon": 0.0, "fusion_lat": 0.0, "lon": -77.03383133333334, "name": "6d625d1e40cfe568ba32f44a5e50a3b0"}, {"bike_id": "37c2926cce92727635f121288a10048f", "type": "electric_scooter", "is_disabled": 0, "lat": 38.910397, "rental_uris": {"ios": "https://dc.lft.to/lastmile_qr_scan", "android": "https://dc.lft.to/lastmile_qr_scan"}, "is_reserved": 0, "fusion_lon": 0.0, "fusion_lat": 0.0, "lon": -77.03799133333334, "name": "37c2926cce92727635f121288a10048f"}, {"bike_id": "fbd201bbe9d15ea81043dc2f5f08992e", "type": "electric_scooter", "is_disabled": 0, "lat": 38.91831766666667, "rental_uris": {"ios": "https://dc.lft.to/lastmile_qr_scan", "android": "https://dc.lft.to/lastmile_qr_scan"}, "is_reserved": 0, "fusion_lon": 0.0, "fusion_lat": 0.0, "lon": -77.04510033333334, "name": "fbd201bbe9d15ea81043dc2f5f08992e"}, {"bike_id": "06d13edb0300f23e7f81df98a3d9574a", "type": "electric_scooter", "is_disabled": 0, "lat": 38.902766666666665, "rental_uris": {"ios": "https://dc.lft.to/lastmile_qr_scan", "android": "https://dc.lft.to/lastmile_qr_scan"}, "is_reserved": 0, "fusion_lon": 0.0, "fusion_lat": 0.0, "lon": -77.0035315, "name": "06d13edb0300f23e7f81df98a3d9574a"}, {"bike_id": "f6f8862818e828fd34dff4b864d4bebd", "type": "electric_scooter", "is_disabled": 0, "lat": 38.89008183333333, "rental_uris": {"ios": "https://dc.lft.to/lastmile_qr_scan", "android": "https://dc.lft.to/lastmile_qr_scan"}, "is_reserved": 0, "fusion_lon": 0.0, "fusion_lat": 0.0, "lon": -76.93746483333334, "name": "f6f8862818e828fd34dff4b864d4bebd"}, {"bike_id": "bf591e7cbd73bfee78482ec5702b0728", "type": "electric_scooter", "is_disabled": 0, "lat": 38.9179435, "rental_uris": {"ios": "https://dc.lft.to/lastmile_qr_scan", "android": "https://dc.lft.to/lastmile_qr_scan"}, "is_reserved": 0, "fusion_lon": 0.0, "fusion_lat": 0.0, "lon": -77.0229695, "name": "bf591e7cbd73bfee78482ec5702b0728"}, {"bike_id": "236cce10dcc3bcc75d1d301207789131", "type": "electric_scooter", "is_disabled": 0, "lat": 38.90869333333333, "rental_uris": {"ios": "https://dc.lft.to/lastmile_qr_scan", "android": "https://dc.lft.to/lastmile_qr_scan"}, "is_reserved": 0, "fusion_lon": 0.0, "fusion_lat": 0.0, "lon": -77.03222, "name": "236cce10dcc3bcc75d1d301207789131"}, {"bike_id": "47e2960fe01326f36db74be74dc5a980", "type": "electric_scooter", "is_disabled": 0, "lat": 38.914458833333335, "rental_uris": {"ios": "https://dc.lft.to/lastmile_qr_scan", "android": "https://dc.lft.to/lastmile_qr_scan"}, "is_reserved": 0, "fusion_lon": 0.0, "fusion_lat": 0.0, "lon": -77.02593316666666, "name": "47e2960fe01326f36db74be74dc5a980"}, {"bike_id": "c9c3659411a6be963f422875a434da1e", "type": "electric_scooter", "is_disabled": 0, "lat": 38.90136533333333, "rental_uris": {"ios": "https://dc.lft.to/lastmile_qr_scan", "android": "https://dc.lft.to/lastmile_qr_scan"}, "is_reserved": 0, "fusion_lon": 0.0, "fusion_lat": 0.0, "lon": -77.01788783333333, "name": "c9c3659411a6be963f422875a434da1e"}, {"bike_id": "0a74a366df3893eb4a4c94cac6aa6170", "type": "electric_scooter", "is_disabled": 0, "lat": 38.93809133333333, "rental_uris": {"ios": "https://dc.lft.to/lastmile_qr_scan", "android": "https://dc.lft.to/lastmile_qr_scan"}, "is_reserved": 0, "fusion_lon": 0.0, "fusion_lat": 0.0, "lon": -77.02453, "name": "0a74a366df3893eb4a4c94cac6aa6170"}, {"bike_id": "f090d102b171212ba2b866b3529baa72", "type": "electric_scooter", "is_disabled": 0, "lat": 38.925407166666666, "rental_uris": {"ios": "https://dc.lft.to/lastmile_qr_scan", "android": "https://dc.lft.to/lastmile_qr_scan"}, "is_reserved": 0, "fusion_lon": 0.0, "fusion_lat": 0.0, "lon": -77.02279583333333, "name": "f090d102b171212ba2b866b3529baa72"}, {"bike_id": "929ee26324391e5cf3217193bf770756", "type": "electric_scooter", "is_disabled": 0, "lat": 38.89731033333333, "rental_uris": {"ios": "https://dc.lft.to/lastmile_qr_scan", "android": "https://dc.lft.to/lastmile_qr_scan"}, "is_reserved": 0, "fusion_lon": 0.0, "fusion_lat": 0.0, "lon": -77.05473633333334, "name": "929ee26324391e5cf3217193bf770756"}, {"bike_id": "89e2e8af7e56a97ffe5d715742da88cc", "type": "electric_scooter", "is_disabled": 0, "lat": 38.91230083333333, "rental_uris": {"ios": "https://dc.lft.to/lastmile_qr_scan", "android": "https://dc.lft.to/lastmile_qr_scan"}, "is_reserved": 0, "fusion_lon": 0.0, "fusion_lat": 0.0, "lon": -76.98788883333333, "name": "89e2e8af7e56a97ffe5d715742da88cc"}, {"bike_id": "dbefaad8907e2ce2c3b5228eb7320258", "type": "electric_scooter", "is_disabled": 0, "lat": 38.91507433333334, "rental_uris": {"ios": "https://dc.lft.to/lastmile_qr_scan", "android": "https://dc.lft.to/lastmile_qr_scan"}, "is_reserved": 0, "fusion_lon": 0.0, "fusion_lat": 0.0, "lon": -77.01778816666666, "name": "dbefaad8907e2ce2c3b5228eb7320258"}, {"bike_id": "57c4d6c585466d8a660ce638bf7997c4", "type": "electric_bike", "is_disabled": 0, "lat": 38.94474433333333, "rental_uris": {"ios": "https://dc.lft.to/lastmile_qr_scan", "android": "https://dc.lft.to/lastmile_qr_scan"}, "is_reserved": 0, "fusion_lon": 0.0, "fusion_lat": 0.0, "lon": -76.986886, "name": "57c4d6c585466d8a660ce638bf7997c4"}, {"bike_id": "3c97e0e826cce49770d532819f3e3c72", "type": "electric_bike", "is_disabled": 0, "lat": 38.8496275, "rental_uris": {"ios": "https://dc.lft.to/lastmile_qr_scan", "android": "https://dc.lft.to/lastmile_qr_scan"}, "is_reserved": 0, "fusion_lon": 0.0, "fusion_lat": 0.0, "lon": -77.07759216666666, "name": "3c97e0e826cce49770d532819f3e3c72"}, {"bike_id": "199afa86ab540a38789ac44cda521fae", "type": "electric_scooter", "is_disabled": 0, "lat": 38.92235433333333, "rental_uris": {"ios": "https://dc.lft.to/lastmile_qr_scan", "android": "https://dc.lft.to/lastmile_qr_scan"}, "is_reserved": 0, "fusion_lon": 0.0, "fusion_lat": 0.0, "lon": -77.03708266666666, "name": "199afa86ab540a38789ac44cda521fae"}, {"bike_id": "719e481275837aebca75f202cd0a6f5a", "type": "electric_scooter", "is_disabled": 0, "lat": 38.90411433333333, "rental_uris": {"ios": "https://dc.lft.to/lastmile_qr_scan", "android": "https://dc.lft.to/lastmile_qr_scan"}, "is_reserved": 0, "fusion_lon": 0.0, "fusion_lat": 0.0, "lon": -76.9733105, "name": "719e481275837aebca75f202cd0a6f5a"}, {"bike_id": "fbc51aaac2429b1123569a7ad8d4c413", "type": "electric_scooter", "is_disabled": 0, "lat": 38.86656933333333, "rental_uris": {"ios": "https://dc.lft.to/lastmile_qr_scan", "android": "https://dc.lft.to/lastmile_qr_scan"}, "is_reserved": 0, "fusion_lon": 0.0, "fusion_lat": 0.0, "lon": -76.98884383333333, "name": "fbc51aaac2429b1123569a7ad8d4c413"}, {"bike_id": "cf03896bb0af05895e5736f38cd69a33", "type": "electric_scooter", "is_disabled": 0, "lat": 38.90425416666667, "rental_uris": {"ios": "https://dc.lft.to/lastmile_qr_scan", "android": "https://dc.lft.to/lastmile_qr_scan"}, "is_reserved": 0, "fusion_lon": 0.0, "fusion_lat": 0.0, "lon": -77.06879866666667, "name": "cf03896bb0af05895e5736f38cd69a33"}, {"bike_id": "f68927d651945baf71f28c3bfac817b3", "type": "electric_scooter", "is_disabled": 0, "lat": 38.92161466666667, "rental_uris": {"ios": "https://dc.lft.to/lastmile_qr_scan", "android": "https://dc.lft.to/lastmile_qr_scan"}, "is_reserved": 0, "fusion_lon": 0.0, "fusion_lat": 0.0, "lon": -77.03337283333333, "name": "f68927d651945baf71f28c3bfac817b3"}, {"bike_id": "4bea968b05152e89a6cd83feef08270c", "type": "electric_scooter", "is_disabled": 0, "lat": 38.917160833333334, "rental_uris": {"ios": "https://dc.lft.to/lastmile_qr_scan", "android": "https://dc.lft.to/lastmile_qr_scan"}, "is_reserved": 0, "fusion_lon": 0.0, "fusion_lat": 0.0, "lon": -77.0121155, "name": "4bea968b05152e89a6cd83feef08270c"}, {"bike_id": "af1bbc32aa02bb8a8646967a08abbc3b", "type": "electric_scooter", "is_disabled": 0, "lat": 38.905824833333334, "rental_uris": {"ios": "https://dc.lft.to/lastmile_qr_scan", "android": "https://dc.lft.to/lastmile_qr_scan"}, "is_reserved": 0, "fusion_lon": 0.0, "fusion_lat": 0.0, "lon": -77.05704933333334, "name": "af1bbc32aa02bb8a8646967a08abbc3b"}, {"bike_id": "bd6eec015d02f6f1ace01f828ffa764a", "type": "electric_scooter", "is_disabled": 0, "lat": 38.90596716666667, "rental_uris": {"ios": "https://dc.lft.to/lastmile_qr_scan", "android": "https://dc.lft.to/lastmile_qr_scan"}, "is_reserved": 0, "fusion_lon": 0.0, "fusion_lat": 0.0, "lon": -77.027076, "name": "bd6eec015d02f6f1ace01f828ffa764a"}, {"bike_id": "649a833b6e5a8166608fca538f854691", "type": "electric_scooter", "is_disabled": 0, "lat": 38.8987545, "rental_uris": {"ios": "https://dc.lft.to/lastmile_qr_scan", "android": "https://dc.lft.to/lastmile_qr_scan"}, "is_reserved": 0, "fusion_lon": 0.0, "fusion_lat": 0.0, "lon": -76.93187133333333, "name": "649a833b6e5a8166608fca538f854691"}, {"bike_id": "435c9fbb21b5b833585da24115352807", "type": "electric_scooter", "is_disabled": 0, "lat": 38.921302, "rental_uris": {"ios": "https://dc.lft.to/lastmile_qr_scan", "android": "https://dc.lft.to/lastmile_qr_scan"}, "is_reserved": 0, "fusion_lon": 0.0, "fusion_lat": 0.0, "lon": -77.02716, "name": "435c9fbb21b5b833585da24115352807"}, {"bike_id": "60a4d2b571f06e4a83dce029fe5278ad", "type": "electric_scooter", "is_disabled": 0, "lat": 38.9179015, "rental_uris": {"ios": "https://dc.lft.to/lastmile_qr_scan", "android": "https://dc.lft.to/lastmile_qr_scan"}, "is_reserved": 0, "fusion_lon": 0.0, "fusion_lat": 0.0, "lon": -77.02304183333334, "name": "60a4d2b571f06e4a83dce029fe5278ad"}, {"bike_id": "312f9066626d14796490236f72cbbeb9", "type": "electric_scooter", "is_disabled": 0, "lat": 38.905606, "rental_uris": {"ios": "https://dc.lft.to/lastmile_qr_scan", "android": "https://dc.lft.to/lastmile_qr_scan"}, "is_reserved": 0, "fusion_lon": 0.0, "fusion_lat": 0.0, "lon": -77.04228766666667, "name": "312f9066626d14796490236f72cbbeb9"}, {"bike_id": "00b833b8ec73fe07c26091fbd0e7a014", "type": "electric_scooter", "is_disabled": 0, "lat": 38.906001833333335, "rental_uris": {"ios": "https://dc.lft.to/lastmile_qr_scan", "android": "https://dc.lft.to/lastmile_qr_scan"}, "is_reserved": 0, "fusion_lon": 0.0, "fusion_lat": 0.0, "lon": -76.99071583333334, "name": "00b833b8ec73fe07c26091fbd0e7a014"}, {"bike_id": "b35e03a0b16d3205c67676fea810efb7", "type": "electric_scooter", "is_disabled": 0, "lat": 38.882171, "rental_uris": {"ios": "https://dc.lft.to/lastmile_qr_scan", "android": "https://dc.lft.to/lastmile_qr_scan"}, "is_reserved": 0, "fusion_lon": 0.0, "fusion_lat": 0.0, "lon": -76.98919883333333, "name": "b35e03a0b16d3205c67676fea810efb7"}, {"bike_id": "34b497f08c9bb4217c2ac6b2b6f1ad3c", "type": "electric_scooter", "is_disabled": 0, "lat": 38.929956, "rental_uris": {"ios": "https://dc.lft.to/lastmile_qr_scan", "android": "https://dc.lft.to/lastmile_qr_scan"}, "is_reserved": 0, "fusion_lon": 0.0, "fusion_lat": 0.0, "lon": -77.032283, "name": "34b497f08c9bb4217c2ac6b2b6f1ad3c"}, {"bike_id": "d6fb7be42688d6718fa79807817a859b", "type": "electric_scooter", "is_disabled": 0, "lat": 38.9198435, "rental_uris": {"ios": "https://dc.lft.to/lastmile_qr_scan", "android": "https://dc.lft.to/lastmile_qr_scan"}, "is_reserved": 0, "fusion_lon": 0.0, "fusion_lat": 0.0, "lon": -77.02498016666667, "name": "d6fb7be42688d6718fa79807817a859b"}, {"bike_id": "34e79470a7ef723212a7a31dc42dcc66", "type": "electric_scooter", "is_disabled": 0, "lat": 38.92245066666667, "rental_uris": {"ios": "https://dc.lft.to/lastmile_qr_scan", "android": "https://dc.lft.to/lastmile_qr_scan"}, "is_reserved": 0, "fusion_lon": 0.0, "fusion_lat": 0.0, "lon": -77.04272433333334, "name": "34e79470a7ef723212a7a31dc42dcc66"}, {"bike_id": "0d822ec0fbf160baddd71f30a530a483", "type": "electric_scooter", "is_disabled": 0, "lat": 38.90067416666667, "rental_uris": {"ios": "https://dc.lft.to/lastmile_qr_scan", "android": "https://dc.lft.to/lastmile_qr_scan"}, "is_reserved": 0, "fusion_lon": 0.0, "fusion_lat": 0.0, "lon": -77.04825666666666, "name": "0d822ec0fbf160baddd71f30a530a483"}, {"bike_id": "7cbbf51d5aeb1a89f9a6a65aba81b92e", "type": "electric_scooter", "is_disabled": 0, "lat": 38.915501, "rental_uris": {"ios": "https://dc.lft.to/lastmile_qr_scan", "android": "https://dc.lft.to/lastmile_qr_scan"}, "is_reserved": 0, "fusion_lon": 0.0, "fusion_lat": 0.0, "lon": -77.02204783333333, "name": "7cbbf51d5aeb1a89f9a6a65aba81b92e"}, {"bike_id": "56f64f7538e3aa4a2107667db523e573", "type": "electric_scooter", "is_disabled": 0, "lat": 38.90551383333333, "rental_uris": {"ios": "https://dc.lft.to/lastmile_qr_scan", "android": "https://dc.lft.to/lastmile_qr_scan"}, "is_reserved": 0, "fusion_lon": 0.0, "fusion_lat": 0.0, "lon": -77.0629205, "name": "56f64f7538e3aa4a2107667db523e573"}, {"bike_id": "1eff448b7456d03e518fe0bebca62468", "type": "electric_scooter", "is_disabled": 0, "lat": 38.924706, "rental_uris": {"ios": "https://dc.lft.to/lastmile_qr_scan", "android": "https://dc.lft.to/lastmile_qr_scan"}, "is_reserved": 0, "fusion_lon": 0.0, "fusion_lat": 0.0, "lon": -77.02836166666667, "name": "1eff448b7456d03e518fe0bebca62468"}, {"bike_id": "7114176ef7088daadde1bbca64f8db4e", "type": "electric_bike", "is_disabled": 0, "lat": 38.9396975, "rental_uris": {"ios": "https://dc.lft.to/lastmile_qr_scan", "android": "https://dc.lft.to/lastmile_qr_scan"}, "is_reserved": 0, "fusion_lon": 0.0, "fusion_lat": 0.0, "lon": -77.0526115, "name": "7114176ef7088daadde1bbca64f8db4e"}, {"bike_id": "8cf8275d544d626e8d500c994d8255e2", "type": "electric_scooter", "is_disabled": 0, "lat": 38.89232416666667, "rental_uris": {"ios": "https://dc.lft.to/lastmile_qr_scan", "android": "https://dc.lft.to/lastmile_qr_scan"}, "is_reserved": 0, "fusion_lon": 0.0, "fusion_lat": 0.0, "lon": -77.0467265, "name": "8cf8275d544d626e8d500c994d8255e2"}, {"bike_id": "3db28fcd15507a71c013d7d55b3481bb", "type": "electric_scooter", "is_disabled": 0, "lat": 38.907093833333334, "rental_uris": {"ios": "https://dc.lft.to/lastmile_qr_scan", "android": "https://dc.lft.to/lastmile_qr_scan"}, "is_reserved": 0, "fusion_lon": 0.0, "fusion_lat": 0.0, "lon": -77.04349866666666, "name": "3db28fcd15507a71c013d7d55b3481bb"}, {"bike_id": "d0c754a1c1fa54401cf4d1ecb3eb0aa5", "type": "electric_scooter", "is_disabled": 0, "lat": 38.930729666666664, "rental_uris": {"ios": "https://dc.lft.to/lastmile_qr_scan", "android": "https://dc.lft.to/lastmile_qr_scan"}, "is_reserved": 0, "fusion_lon": 0.0, "fusion_lat": 0.0, "lon": -77.04125666666667, "name": "d0c754a1c1fa54401cf4d1ecb3eb0aa5"}, {"bike_id": "ba43736801fe98f865a93a47a016c199", "type": "electric_scooter", "is_disabled": 0, "lat": 38.90694883333333, "rental_uris": {"ios": "https://dc.lft.to/lastmile_qr_scan", "android": "https://dc.lft.to/lastmile_qr_scan"}, "is_reserved": 0, "fusion_lon": 0.0, "fusion_lat": 0.0, "lon": -77.02385616666666, "name": "ba43736801fe98f865a93a47a016c199"}, {"bike_id": "dc44deaf893741b84a08010c7aa63aea", "type": "electric_scooter", "is_disabled": 0, "lat": 38.903894, "rental_uris": {"ios": "https://dc.lft.to/lastmile_qr_scan", "android": "https://dc.lft.to/lastmile_qr_scan"}, "is_reserved": 0, "fusion_lon": 0.0, "fusion_lat": 0.0, "lon": -77.0292805, "name": "dc44deaf893741b84a08010c7aa63aea"}, {"bike_id": "2ea8834681c2c0d659187462301896a1", "type": "electric_bike", "is_disabled": 0, "lat": 38.9244165, "rental_uris": {"ios": "https://dc.lft.to/lastmile_qr_scan", "android": "https://dc.lft.to/lastmile_qr_scan"}, "is_reserved": 0, "fusion_lon": 0.0, "fusion_lat": 0.0, "lon": -77.22548683333333, "name": "2ea8834681c2c0d659187462301896a1"}, {"bike_id": "803f1770cc3d4350f921dd10a153d4d8", "type": "electric_scooter", "is_disabled": 0, "lat": 38.91461316666667, "rental_uris": {"ios": "https://dc.lft.to/lastmile_qr_scan", "android": "https://dc.lft.to/lastmile_qr_scan"}, "is_reserved": 0, "fusion_lon": 0.0, "fusion_lat": 0.0, "lon": -77.02290033333334, "name": "803f1770cc3d4350f921dd10a153d4d8"}, {"bike_id": "7582497dff7883992cfa4e8f23cf34cf", "type": "electric_scooter", "is_disabled": 0, "lat": 38.89842016666667, "rental_uris": {"ios": "https://dc.lft.to/lastmile_qr_scan", "android": "https://dc.lft.to/lastmile_qr_scan"}, "is_reserved": 0, "fusion_lon": 0.0, "fusion_lat": 0.0, "lon": -76.94634633333334, "name": "7582497dff7883992cfa4e8f23cf34cf"}, {"bike_id": "9bb8b1a0c8c102495f22eec09b810a91", "type": "electric_scooter", "is_disabled": 0, "lat": 38.90663116666666, "rental_uris": {"ios": "https://dc.lft.to/lastmile_qr_scan", "android": "https://dc.lft.to/lastmile_qr_scan"}, "is_reserved": 0, "fusion_lon": 0.0, "fusion_lat": 0.0, "lon": -77.00981316666666, "name": "9bb8b1a0c8c102495f22eec09b810a91"}, {"bike_id": "e3834d875349c265a6a6386ed4080fc9", "type": "electric_scooter", "is_disabled": 0, "lat": 38.941975, "rental_uris": {"ios": "https://dc.lft.to/lastmile_qr_scan", "android": "https://dc.lft.to/lastmile_qr_scan"}, "is_reserved": 0, "fusion_lon": 0.0, "fusion_lat": 0.0, "lon": -77.02433766666667, "name": "e3834d875349c265a6a6386ed4080fc9"}, {"bike_id": "d9f0fb2be4bd295ceabe5c413e809061", "type": "electric_bike", "is_disabled": 0, "lat": 38.94663766666667, "rental_uris": {"ios": "https://dc.lft.to/lastmile_qr_scan", "android": "https://dc.lft.to/lastmile_qr_scan"}, "is_reserved": 0, "fusion_lon": 0.0, "fusion_lat": 0.0, "lon": -76.956696, "name": "d9f0fb2be4bd295ceabe5c413e809061"}, {"bike_id": "ffa969c9e283207a528aa46e0a9e5950", "type": "electric_scooter", "is_disabled": 0, "lat": 38.8978685, "rental_uris": {"ios": "https://dc.lft.to/lastmile_qr_scan", "android": "https://dc.lft.to/lastmile_qr_scan"}, "is_reserved": 0, "fusion_lon": 0.0, "fusion_lat": 0.0, "lon": -76.9473985, "name": "ffa969c9e283207a528aa46e0a9e5950"}, {"bike_id": "c172d2a4778e317e3783dbda63ce4727", "type": "electric_scooter", "is_disabled": 0, "lat": 38.863699, "rental_uris": {"ios": "https://dc.lft.to/lastmile_qr_scan", "android": "https://dc.lft.to/lastmile_qr_scan"}, "is_reserved": 0, "fusion_lon": 0.0, "fusion_lat": 0.0, "lon": -76.990603, "name": "c172d2a4778e317e3783dbda63ce4727"}, {"bike_id": "319852cd20d4420a03340c183258cc27", "type": "electric_scooter", "is_disabled": 0, "lat": 38.92473733333333, "rental_uris": {"ios": "https://dc.lft.to/lastmile_qr_scan", "android": "https://dc.lft.to/lastmile_qr_scan"}, "is_reserved": 0, "fusion_lon": 0.0, "fusion_lat": 0.0, "lon": -77.02839183333333, "name": "319852cd20d4420a03340c183258cc27"}, {"bike_id": "6507f4f5701ec7aed9b1271b0e368fa7", "type": "electric_scooter", "is_disabled": 0, "lat": 38.9134885, "rental_uris": {"ios": "https://dc.lft.to/lastmile_qr_scan", "android": "https://dc.lft.to/lastmile_qr_scan"}, "is_reserved": 0, "fusion_lon": 0.0, "fusion_lat": 0.0, "lon": -77.02590616666667, "name": "6507f4f5701ec7aed9b1271b0e368fa7"}, {"bike_id": "67c0a49d809c4eb39245e717236a0de1", "type": "electric_scooter", "is_disabled": 0, "lat": 38.9125585, "rental_uris": {"ios": "https://dc.lft.to/lastmile_qr_scan", "android": "https://dc.lft.to/lastmile_qr_scan"}, "is_reserved": 0, "fusion_lon": 0.0, "fusion_lat": 0.0, "lon": -77.01141766666667, "name": "67c0a49d809c4eb39245e717236a0de1"}, {"bike_id": "c2829a60378ac4893bd98335588d8831", "type": "electric_scooter", "is_disabled": 0, "lat": 38.86679933333333, "rental_uris": {"ios": "https://dc.lft.to/lastmile_qr_scan", "android": "https://dc.lft.to/lastmile_qr_scan"}, "is_reserved": 0, "fusion_lon": 0.0, "fusion_lat": 0.0, "lon": -76.9855715, "name": "c2829a60378ac4893bd98335588d8831"}, {"bike_id": "20b8ff14e99a2e98a1d513720a7b8d3f", "type": "electric_scooter", "is_disabled": 0, "lat": 38.915341833333336, "rental_uris": {"ios": "https://dc.lft.to/lastmile_qr_scan", "android": "https://dc.lft.to/lastmile_qr_scan"}, "is_reserved": 0, "fusion_lon": 0.0, "fusion_lat": 0.0, "lon": -77.03795766666667, "name": "20b8ff14e99a2e98a1d513720a7b8d3f"}, {"bike_id": "f4c844c1a7c60b0d599e6d53408ea7ed", "type": "electric_scooter", "is_disabled": 0, "lat": 38.9266585, "rental_uris": {"ios": "https://dc.lft.to/lastmile_qr_scan", "android": "https://dc.lft.to/lastmile_qr_scan"}, "is_reserved": 0, "fusion_lon": 0.0, "fusion_lat": 0.0, "lon": -77.01473983333334, "name": "f4c844c1a7c60b0d599e6d53408ea7ed"}, {"bike_id": "51d935fcf658927e78954a1a2bd6f596", "type": "electric_scooter", "is_disabled": 0, "lat": 38.906076666666664, "rental_uris": {"ios": "https://dc.lft.to/lastmile_qr_scan", "android": "https://dc.lft.to/lastmile_qr_scan"}, "is_reserved": 0, "fusion_lon": 0.0, "fusion_lat": 0.0, "lon": -77.06297433333333, "name": "51d935fcf658927e78954a1a2bd6f596"}, {"bike_id": "fcb202c2ceaab7ffdf6e28034330ac24", "type": "electric_scooter", "is_disabled": 0, "lat": 38.89692683333333, "rental_uris": {"ios": "https://dc.lft.to/lastmile_qr_scan", "android": "https://dc.lft.to/lastmile_qr_scan"}, "is_reserved": 0, "fusion_lon": 0.0, "fusion_lat": 0.0, "lon": -76.99959316666667, "name": "fcb202c2ceaab7ffdf6e28034330ac24"}, {"bike_id": "969bfd7a38835765e6bc1d6175c722c6", "type": "electric_scooter", "is_disabled": 0, "lat": 38.892388, "rental_uris": {"ios": "https://dc.lft.to/lastmile_qr_scan", "android": "https://dc.lft.to/lastmile_qr_scan"}, "is_reserved": 0, "fusion_lon": 0.0, "fusion_lat": 0.0, "lon": -77.02614216666667, "name": "969bfd7a38835765e6bc1d6175c722c6"}, {"bike_id": "62839af8ac2dc603b833ace7cde7ce20", "type": "electric_bike", "is_disabled": 0, "lat": 38.889519, "rental_uris": {"ios": "https://dc.lft.to/lastmile_qr_scan", "android": "https://dc.lft.to/lastmile_qr_scan"}, "is_reserved": 0, "fusion_lon": 0.0, "fusion_lat": 0.0, "lon": -77.0913545, "name": "62839af8ac2dc603b833ace7cde7ce20"}, {"bike_id": "ec8c81b898b65e4503ccc02f700e035b", "type": "electric_scooter", "is_disabled": 0, "lat": 38.88708583333333, "rental_uris": {"ios": "https://dc.lft.to/lastmile_qr_scan", "android": "https://dc.lft.to/lastmile_qr_scan"}, "is_reserved": 0, "fusion_lon": 0.0, "fusion_lat": 0.0, "lon": -77.02213183333333, "name": "ec8c81b898b65e4503ccc02f700e035b"}, {"bike_id": "e516f1a253fb852d0d62cca05bce5541", "type": "electric_scooter", "is_disabled": 0, "lat": 38.88726333333334, "rental_uris": {"ios": "https://dc.lft.to/lastmile_qr_scan", "android": "https://dc.lft.to/lastmile_qr_scan"}, "is_reserved": 0, "fusion_lon": 0.0, "fusion_lat": 0.0, "lon": -76.98357466666667, "name": "e516f1a253fb852d0d62cca05bce5541"}, {"bike_id": "5dacfefebd35dd8273e9d45007eca4f3", "type": "electric_scooter", "is_disabled": 0, "lat": 38.921701166666665, "rental_uris": {"ios": "https://dc.lft.to/lastmile_qr_scan", "android": "https://dc.lft.to/lastmile_qr_scan"}, "is_reserved": 0, "fusion_lon": 0.0, "fusion_lat": 0.0, "lon": -77.03849416666667, "name": "5dacfefebd35dd8273e9d45007eca4f3"}, {"bike_id": "3dddc6eab74e1b8d931b2817060bd1b2", "type": "electric_scooter", "is_disabled": 0, "lat": 38.892194833333335, "rental_uris": {"ios": "https://dc.lft.to/lastmile_qr_scan", "android": "https://dc.lft.to/lastmile_qr_scan"}, "is_reserved": 0, "fusion_lon": 0.0, "fusion_lat": 0.0, "lon": -77.04193616666667, "name": "3dddc6eab74e1b8d931b2817060bd1b2"}, {"bike_id": "8d8833608b6d7cbfb1c2feddbb190b44", "type": "electric_scooter", "is_disabled": 0, "lat": 38.90689833333333, "rental_uris": {"ios": "https://dc.lft.to/lastmile_qr_scan", "android": "https://dc.lft.to/lastmile_qr_scan"}, "is_reserved": 0, "fusion_lon": 0.0, "fusion_lat": 0.0, "lon": -77.063684, "name": "8d8833608b6d7cbfb1c2feddbb190b44"}, {"bike_id": "0c4a5dfce3c5fec15007c549b5960e12", "type": "electric_bike", "is_disabled": 0, "lat": 39.05634216666667, "rental_uris": {"ios": "https://dc.lft.to/lastmile_qr_scan", "android": "https://dc.lft.to/lastmile_qr_scan"}, "is_reserved": 0, "fusion_lon": 0.0, "fusion_lat": 0.0, "lon": -77.12528966666666, "name": "0c4a5dfce3c5fec15007c549b5960e12"}, {"bike_id": "eb13b993bd6c53329ca4f91c3f0be54f", "type": "electric_scooter", "is_disabled": 0, "lat": 38.91109516666667, "rental_uris": {"ios": "https://dc.lft.to/lastmile_qr_scan", "android": "https://dc.lft.to/lastmile_qr_scan"}, "is_reserved": 0, "fusion_lon": 0.0, "fusion_lat": 0.0, "lon": -77.03250016666667, "name": "eb13b993bd6c53329ca4f91c3f0be54f"}, {"bike_id": "67db2e2a2878ea4baeeee1484ce5d0f0", "type": "electric_scooter", "is_disabled": 0, "lat": 38.935869833333335, "rental_uris": {"ios": "https://dc.lft.to/lastmile_qr_scan", "android": "https://dc.lft.to/lastmile_qr_scan"}, "is_reserved": 0, "fusion_lon": 0.0, "fusion_lat": 0.0, "lon": -77.0581805, "name": "67db2e2a2878ea4baeeee1484ce5d0f0"}, {"bike_id": "a886117bdc643b5a477ad6ef2c2bcb19", "type": "electric_scooter", "is_disabled": 0, "lat": 38.94782383333333, "rental_uris": {"ios": "https://dc.lft.to/lastmile_qr_scan", "android": "https://dc.lft.to/lastmile_qr_scan"}, "is_reserved": 0, "fusion_lon": 0.0, "fusion_lat": 0.0, "lon": -77.07935883333333, "name": "a886117bdc643b5a477ad6ef2c2bcb19"}, {"bike_id": "5618d91ca12232d1025a6d87ee25a9df", "type": "electric_scooter", "is_disabled": 0, "lat": 38.923393833333336, "rental_uris": {"ios": "https://dc.lft.to/lastmile_qr_scan", "android": "https://dc.lft.to/lastmile_qr_scan"}, "is_reserved": 0, "fusion_lon": 0.0, "fusion_lat": 0.0, "lon": -77.05298266666667, "name": "5618d91ca12232d1025a6d87ee25a9df"}, {"bike_id": "2ea8c2e56c7721bef2ff15206e67f6e7", "type": "electric_scooter", "is_disabled": 0, "lat": 38.915715666666664, "rental_uris": {"ios": "https://dc.lft.to/lastmile_qr_scan", "android": "https://dc.lft.to/lastmile_qr_scan"}, "is_reserved": 0, "fusion_lon": 0.0, "fusion_lat": 0.0, "lon": -77.03193283333333, "name": "2ea8c2e56c7721bef2ff15206e67f6e7"}, {"bike_id": "85d4a2ae2161cb9618e434a94aa8ceb3", "type": "electric_scooter", "is_disabled": 0, "lat": 38.910672166666664, "rental_uris": {"ios": "https://dc.lft.to/lastmile_qr_scan", "android": "https://dc.lft.to/lastmile_qr_scan"}, "is_reserved": 0, "fusion_lon": 0.0, "fusion_lat": 0.0, "lon": -77.02605733333333, "name": "85d4a2ae2161cb9618e434a94aa8ceb3"}, {"bike_id": "9f5aa99034dca35242f9af64d0f70b98", "type": "electric_scooter", "is_disabled": 0, "lat": 38.89232666666667, "rental_uris": {"ios": "https://dc.lft.to/lastmile_qr_scan", "android": "https://dc.lft.to/lastmile_qr_scan"}, "is_reserved": 0, "fusion_lon": 0.0, "fusion_lat": 0.0, "lon": -77.04998633333334, "name": "9f5aa99034dca35242f9af64d0f70b98"}, {"bike_id": "da9f5cfa48bb973d802413192ed74846", "type": "electric_scooter", "is_disabled": 0, "lat": 38.91779, "rental_uris": {"ios": "https://dc.lft.to/lastmile_qr_scan", "android": "https://dc.lft.to/lastmile_qr_scan"}, "is_reserved": 0, "fusion_lon": 0.0, "fusion_lat": 0.0, "lon": -77.023167, "name": "da9f5cfa48bb973d802413192ed74846"}, {"bike_id": "f9453f1c4bdd9c31a1ce9747ed9eb9cd", "type": "electric_scooter", "is_disabled": 0, "lat": 38.9421015, "rental_uris": {"ios": "https://dc.lft.to/lastmile_qr_scan", "android": "https://dc.lft.to/lastmile_qr_scan"}, "is_reserved": 0, "fusion_lon": 0.0, "fusion_lat": 0.0, "lon": -77.02585766666667, "name": "f9453f1c4bdd9c31a1ce9747ed9eb9cd"}, {"bike_id": "3c61b3b16b03cb04680343821609e6b0", "type": "electric_scooter", "is_disabled": 0, "lat": 38.89503216666667, "rental_uris": {"ios": "https://dc.lft.to/lastmile_qr_scan", "android": "https://dc.lft.to/lastmile_qr_scan"}, "is_reserved": 0, "fusion_lon": 0.0, "fusion_lat": 0.0, "lon": -77.00214133333333, "name": "3c61b3b16b03cb04680343821609e6b0"}, {"bike_id": "1bea7b4c7faf3286b441caff8c8e0e17", "type": "electric_scooter", "is_disabled": 0, "lat": 38.9234485, "rental_uris": {"ios": "https://dc.lft.to/lastmile_qr_scan", "android": "https://dc.lft.to/lastmile_qr_scan"}, "is_reserved": 0, "fusion_lon": 0.0, "fusion_lat": 0.0, "lon": -77.051196, "name": "1bea7b4c7faf3286b441caff8c8e0e17"}, {"bike_id": "2b3a770e0accce5ae022b2bb720e162a", "type": "electric_scooter", "is_disabled": 0, "lat": 38.892418, "rental_uris": {"ios": "https://dc.lft.to/lastmile_qr_scan", "android": "https://dc.lft.to/lastmile_qr_scan"}, "is_reserved": 0, "fusion_lon": 0.0, "fusion_lat": 0.0, "lon": -76.95329833333334, "name": "2b3a770e0accce5ae022b2bb720e162a"}, {"bike_id": "bfe5aea90f11f0a418644452c18211d6", "type": "electric_scooter", "is_disabled": 0, "lat": 38.865051666666666, "rental_uris": {"ios": "https://dc.lft.to/lastmile_qr_scan", "android": "https://dc.lft.to/lastmile_qr_scan"}, "is_reserved": 0, "fusion_lon": 0.0, "fusion_lat": 0.0, "lon": -76.9900265, "name": "bfe5aea90f11f0a418644452c18211d6"}, {"bike_id": "5acb8678e992b31f81c5563960a69dc3", "type": "electric_scooter", "is_disabled": 0, "lat": 38.92692616666667, "rental_uris": {"ios": "https://dc.lft.to/lastmile_qr_scan", "android": "https://dc.lft.to/lastmile_qr_scan"}, "is_reserved": 0, "fusion_lon": 0.0, "fusion_lat": 0.0, "lon": -77.07332783333334, "name": "5acb8678e992b31f81c5563960a69dc3"}, {"bike_id": "8fc0b3e1cfe9cdf297c0f39d8f3d6de6", "type": "electric_scooter", "is_disabled": 0, "lat": 38.93379183333333, "rental_uris": {"ios": "https://dc.lft.to/lastmile_qr_scan", "android": "https://dc.lft.to/lastmile_qr_scan"}, "is_reserved": 0, "fusion_lon": 0.0, "fusion_lat": 0.0, "lon": -77.0573325, "name": "8fc0b3e1cfe9cdf297c0f39d8f3d6de6"}, {"bike_id": "396e2b720301c7bc48bc7b6e108afc75", "type": "electric_scooter", "is_disabled": 0, "lat": 38.909839833333336, "rental_uris": {"ios": "https://dc.lft.to/lastmile_qr_scan", "android": "https://dc.lft.to/lastmile_qr_scan"}, "is_reserved": 0, "fusion_lon": 0.0, "fusion_lat": 0.0, "lon": -77.03343316666667, "name": "396e2b720301c7bc48bc7b6e108afc75"}, {"bike_id": "f393b2668c0dc1a8c45d0509d7863bd4", "type": "electric_scooter", "is_disabled": 0, "lat": 38.905833333333334, "rental_uris": {"ios": "https://dc.lft.to/lastmile_qr_scan", "android": "https://dc.lft.to/lastmile_qr_scan"}, "is_reserved": 0, "fusion_lon": 0.0, "fusion_lat": 0.0, "lon": -77.02405716666667, "name": "f393b2668c0dc1a8c45d0509d7863bd4"}, {"bike_id": "a1ac0df5fb28933e214ed2d7289741e4", "type": "electric_bike", "is_disabled": 0, "lat": 38.809122333333335, "rental_uris": {"ios": "https://dc.lft.to/lastmile_qr_scan", "android": "https://dc.lft.to/lastmile_qr_scan"}, "is_reserved": 0, "fusion_lon": 0.0, "fusion_lat": 0.0, "lon": -77.08659283333333, "name": "a1ac0df5fb28933e214ed2d7289741e4"}, {"bike_id": "c755116c0cacc927b9977bfa38e0d776", "type": "electric_scooter", "is_disabled": 0, "lat": 38.902413833333334, "rental_uris": {"ios": "https://dc.lft.to/lastmile_qr_scan", "android": "https://dc.lft.to/lastmile_qr_scan"}, "is_reserved": 0, "fusion_lon": 0.0, "fusion_lat": 0.0, "lon": -77.043304, "name": "c755116c0cacc927b9977bfa38e0d776"}, {"bike_id": "016ff96b7a233ca2097d2fbd64c23151", "type": "electric_scooter", "is_disabled": 0, "lat": 38.9113585, "rental_uris": {"ios": "https://dc.lft.to/lastmile_qr_scan", "android": "https://dc.lft.to/lastmile_qr_scan"}, "is_reserved": 0, "fusion_lon": 0.0, "fusion_lat": 0.0, "lon": -77.021917, "name": "016ff96b7a233ca2097d2fbd64c23151"}, {"bike_id": "738639df277b30ce5df1c55eac938884", "type": "electric_scooter", "is_disabled": 0, "lat": 38.892218, "rental_uris": {"ios": "https://dc.lft.to/lastmile_qr_scan", "android": "https://dc.lft.to/lastmile_qr_scan"}, "is_reserved": 0, "fusion_lon": 0.0, "fusion_lat": 0.0, "lon": -77.04313066666667, "name": "738639df277b30ce5df1c55eac938884"}, {"bike_id": "986798b78aa8957946f00747177b6ba5", "type": "electric_scooter", "is_disabled": 0, "lat": 38.92640216666667, "rental_uris": {"ios": "https://dc.lft.to/lastmile_qr_scan", "android": "https://dc.lft.to/lastmile_qr_scan"}, "is_reserved": 0, "fusion_lon": 0.0, "fusion_lat": 0.0, "lon": -77.0138565, "name": "986798b78aa8957946f00747177b6ba5"}, {"bike_id": "6a02c97cd59860002ab48b9d6451d051", "type": "electric_scooter", "is_disabled": 0, "lat": 38.909735833333336, "rental_uris": {"ios": "https://dc.lft.to/lastmile_qr_scan", "android": "https://dc.lft.to/lastmile_qr_scan"}, "is_reserved": 0, "fusion_lon": 0.0, "fusion_lat": 0.0, "lon": -77.021998, "name": "6a02c97cd59860002ab48b9d6451d051"}, {"bike_id": "cf7a8128518a37d73ae55acc8f7d8f92", "type": "electric_scooter", "is_disabled": 0, "lat": 38.885339, "rental_uris": {"ios": "https://dc.lft.to/lastmile_qr_scan", "android": "https://dc.lft.to/lastmile_qr_scan"}, "is_reserved": 0, "fusion_lon": 0.0, "fusion_lat": 0.0, "lon": -76.998317, "name": "cf7a8128518a37d73ae55acc8f7d8f92"}, {"bike_id": "4b2624ea47f9310041b30ddbc903410a", "type": "electric_scooter", "is_disabled": 0, "lat": 38.922201333333334, "rental_uris": {"ios": "https://dc.lft.to/lastmile_qr_scan", "android": "https://dc.lft.to/lastmile_qr_scan"}, "is_reserved": 0, "fusion_lon": 0.0, "fusion_lat": 0.0, "lon": -77.022165, "name": "4b2624ea47f9310041b30ddbc903410a"}, {"bike_id": "fddafc50d7cca16d8b5af45c05428255", "type": "electric_scooter", "is_disabled": 0, "lat": 38.91149716666666, "rental_uris": {"ios": "https://dc.lft.to/lastmile_qr_scan", "android": "https://dc.lft.to/lastmile_qr_scan"}, "is_reserved": 0, "fusion_lon": 0.0, "fusion_lat": 0.0, "lon": -77.02957283333333, "name": "fddafc50d7cca16d8b5af45c05428255"}, {"bike_id": "d558a2a5ecb872581d692553d563f13c", "type": "electric_scooter", "is_disabled": 0, "lat": 38.91427933333333, "rental_uris": {"ios": "https://dc.lft.to/lastmile_qr_scan", "android": "https://dc.lft.to/lastmile_qr_scan"}, "is_reserved": 0, "fusion_lon": 0.0, "fusion_lat": 0.0, "lon": -77.04590066666667, "name": "d558a2a5ecb872581d692553d563f13c"}, {"bike_id": "bbae0dbc6f80862fd458fcf5bee5e6d8", "type": "electric_scooter", "is_disabled": 0, "lat": 38.885031833333336, "rental_uris": {"ios": "https://dc.lft.to/lastmile_qr_scan", "android": "https://dc.lft.to/lastmile_qr_scan"}, "is_reserved": 0, "fusion_lon": 0.0, "fusion_lat": 0.0, "lon": -77.02539383333334, "name": "bbae0dbc6f80862fd458fcf5bee5e6d8"}, {"bike_id": "bcb81bdf4331d0a9a2a94cc98b1c5b4b", "type": "electric_scooter", "is_disabled": 0, "lat": 38.9025025, "rental_uris": {"ios": "https://dc.lft.to/lastmile_qr_scan", "android": "https://dc.lft.to/lastmile_qr_scan"}, "is_reserved": 0, "fusion_lon": 0.0, "fusion_lat": 0.0, "lon": -77.01818866666666, "name": "bcb81bdf4331d0a9a2a94cc98b1c5b4b"}, {"bike_id": "615fd1d3bc0fbaab4f0d8a4eee536e08", "type": "electric_scooter", "is_disabled": 0, "lat": 38.9274645, "rental_uris": {"ios": "https://dc.lft.to/lastmile_qr_scan", "android": "https://dc.lft.to/lastmile_qr_scan"}, "is_reserved": 0, "fusion_lon": 0.0, "fusion_lat": 0.0, "lon": -77.02375883333333, "name": "615fd1d3bc0fbaab4f0d8a4eee536e08"}, {"bike_id": "82d8d445ade38757555c6b0f2d8fc006", "type": "electric_scooter", "is_disabled": 0, "lat": 38.91921766666667, "rental_uris": {"ios": "https://dc.lft.to/lastmile_qr_scan", "android": "https://dc.lft.to/lastmile_qr_scan"}, "is_reserved": 0, "fusion_lon": 0.0, "fusion_lat": 0.0, "lon": -77.0025285, "name": "82d8d445ade38757555c6b0f2d8fc006"}, {"bike_id": "0ac240be0d0b8abd0707d11e7f814844", "type": "electric_scooter", "is_disabled": 0, "lat": 38.9093545, "rental_uris": {"ios": "https://dc.lft.to/lastmile_qr_scan", "android": "https://dc.lft.to/lastmile_qr_scan"}, "is_reserved": 0, "fusion_lon": 0.0, "fusion_lat": 0.0, "lon": -77.04940566666667, "name": "0ac240be0d0b8abd0707d11e7f814844"}, {"bike_id": "aadfb6d61a14d5729b96489559571baa", "type": "electric_scooter", "is_disabled": 0, "lat": 38.91131766666667, "rental_uris": {"ios": "https://dc.lft.to/lastmile_qr_scan", "android": "https://dc.lft.to/lastmile_qr_scan"}, "is_reserved": 0, "fusion_lon": 0.0, "fusion_lat": 0.0, "lon": -77.02191933333333, "name": "aadfb6d61a14d5729b96489559571baa"}, {"bike_id": "87b6ff9c24109a1d46732846440b87a9", "type": "electric_scooter", "is_disabled": 0, "lat": 38.9039015, "rental_uris": {"ios": "https://dc.lft.to/lastmile_qr_scan", "android": "https://dc.lft.to/lastmile_qr_scan"}, "is_reserved": 0, "fusion_lon": 0.0, "fusion_lat": 0.0, "lon": -77.00878316666666, "name": "87b6ff9c24109a1d46732846440b87a9"}, {"bike_id": "9d36c0c97cbe4858a0fb511382c591ac", "type": "electric_scooter", "is_disabled": 0, "lat": 38.89963816666667, "rental_uris": {"ios": "https://dc.lft.to/lastmile_qr_scan", "android": "https://dc.lft.to/lastmile_qr_scan"}, "is_reserved": 0, "fusion_lon": 0.0, "fusion_lat": 0.0, "lon": -77.0513135, "name": "9d36c0c97cbe4858a0fb511382c591ac"}, {"bike_id": "06319dc81d9104266889b415dffb6218", "type": "electric_scooter", "is_disabled": 0, "lat": 38.902843833333336, "rental_uris": {"ios": "https://dc.lft.to/lastmile_qr_scan", "android": "https://dc.lft.to/lastmile_qr_scan"}, "is_reserved": 0, "fusion_lon": 0.0, "fusion_lat": 0.0, "lon": -77.03636666666667, "name": "06319dc81d9104266889b415dffb6218"}, {"bike_id": "e8f64637c4cd40df6ab5e3a4c02f621e", "type": "electric_scooter", "is_disabled": 0, "lat": 38.9190405, "rental_uris": {"ios": "https://dc.lft.to/lastmile_qr_scan", "android": "https://dc.lft.to/lastmile_qr_scan"}, "is_reserved": 0, "fusion_lon": 0.0, "fusion_lat": 0.0, "lon": -77.04455666666667, "name": "e8f64637c4cd40df6ab5e3a4c02f621e"}, {"bike_id": "3ca2e56ccbde85743e52208cc436dcf3", "type": "electric_bike", "is_disabled": 0, "lat": 38.96501083333333, "rental_uris": {"ios": "https://dc.lft.to/lastmile_qr_scan", "android": "https://dc.lft.to/lastmile_qr_scan"}, "is_reserved": 0, "fusion_lon": 0.0, "fusion_lat": 0.0, "lon": -77.02098, "name": "3ca2e56ccbde85743e52208cc436dcf3"}, {"bike_id": "603dbd63b730564eca695f595dc65e0e", "type": "electric_scooter", "is_disabled": 0, "lat": 38.91420766666667, "rental_uris": {"ios": "https://dc.lft.to/lastmile_qr_scan", "android": "https://dc.lft.to/lastmile_qr_scan"}, "is_reserved": 0, "fusion_lon": 0.0, "fusion_lat": 0.0, "lon": -77.032669, "name": "603dbd63b730564eca695f595dc65e0e"}, {"bike_id": "7124c960efc0d113cece00fa9a56acf1", "type": "electric_scooter", "is_disabled": 0, "lat": 38.921717666666666, "rental_uris": {"ios": "https://dc.lft.to/lastmile_qr_scan", "android": "https://dc.lft.to/lastmile_qr_scan"}, "is_reserved": 0, "fusion_lon": 0.0, "fusion_lat": 0.0, "lon": -77.04029183333333, "name": "7124c960efc0d113cece00fa9a56acf1"}, {"bike_id": "b780e3661b326645c16a77697bf0b072", "type": "electric_scooter", "is_disabled": 0, "lat": 38.921817, "rental_uris": {"ios": "https://dc.lft.to/lastmile_qr_scan", "android": "https://dc.lft.to/lastmile_qr_scan"}, "is_reserved": 0, "fusion_lon": 0.0, "fusion_lat": 0.0, "lon": -77.0209565, "name": "b780e3661b326645c16a77697bf0b072"}, {"bike_id": "093dd512590145f1b237e804640e58f8", "type": "electric_bike", "is_disabled": 0, "lat": 38.9426015, "rental_uris": {"ios": "https://dc.lft.to/lastmile_qr_scan", "android": "https://dc.lft.to/lastmile_qr_scan"}, "is_reserved": 0, "fusion_lon": 0.0, "fusion_lat": 0.0, "lon": -76.99068166666666, "name": "093dd512590145f1b237e804640e58f8"}, {"bike_id": "1cc7f361c01b28f3b9b8ccaef4a23ad6", "type": "electric_scooter", "is_disabled": 0, "lat": 38.915615, "rental_uris": {"ios": "https://dc.lft.to/lastmile_qr_scan", "android": "https://dc.lft.to/lastmile_qr_scan"}, "is_reserved": 0, "fusion_lon": 0.0, "fusion_lat": 0.0, "lon": -77.0327275, "name": "1cc7f361c01b28f3b9b8ccaef4a23ad6"}, {"bike_id": "cdf099f5975d231535f7facf618b51f3", "type": "electric_scooter", "is_disabled": 0, "lat": 38.92398083333333, "rental_uris": {"ios": "https://dc.lft.to/lastmile_qr_scan", "android": "https://dc.lft.to/lastmile_qr_scan"}, "is_reserved": 0, "fusion_lon": 0.0, "fusion_lat": 0.0, "lon": -77.02505483333333, "name": "cdf099f5975d231535f7facf618b51f3"}, {"bike_id": "a7189b9254e3822157dadf2a50536375", "type": "electric_scooter", "is_disabled": 0, "lat": 38.898810166666664, "rental_uris": {"ios": "https://dc.lft.to/lastmile_qr_scan", "android": "https://dc.lft.to/lastmile_qr_scan"}, "is_reserved": 0, "fusion_lon": 0.0, "fusion_lat": 0.0, "lon": -76.931761, "name": "a7189b9254e3822157dadf2a50536375"}, {"bike_id": "71139687a13555ffb8b015ac127d51ba", "type": "electric_scooter", "is_disabled": 0, "lat": 38.9255045, "rental_uris": {"ios": "https://dc.lft.to/lastmile_qr_scan", "android": "https://dc.lft.to/lastmile_qr_scan"}, "is_reserved": 0, "fusion_lon": 0.0, "fusion_lat": 0.0, "lon": -77.03359616666667, "name": "71139687a13555ffb8b015ac127d51ba"}, {"bike_id": "e6b43f16c927d8a6c12e7fe5d6872ee9", "type": "electric_scooter", "is_disabled": 0, "lat": 38.89502183333333, "rental_uris": {"ios": "https://dc.lft.to/lastmile_qr_scan", "android": "https://dc.lft.to/lastmile_qr_scan"}, "is_reserved": 0, "fusion_lon": 0.0, "fusion_lat": 0.0, "lon": -76.934792, "name": "e6b43f16c927d8a6c12e7fe5d6872ee9"}, {"bike_id": "d12bb87e39a7af9dec0f350eab685e98", "type": "electric_scooter", "is_disabled": 0, "lat": 38.94943516666667, "rental_uris": {"ios": "https://dc.lft.to/lastmile_qr_scan", "android": "https://dc.lft.to/lastmile_qr_scan"}, "is_reserved": 0, "fusion_lon": 0.0, "fusion_lat": 0.0, "lon": -77.06528766666666, "name": "d12bb87e39a7af9dec0f350eab685e98"}, {"bike_id": "1346cce5b7f7a9d990cdc84d1076703d", "type": "electric_scooter", "is_disabled": 0, "lat": 38.951122, "rental_uris": {"ios": "https://dc.lft.to/lastmile_qr_scan", "android": "https://dc.lft.to/lastmile_qr_scan"}, "is_reserved": 0, "fusion_lon": 0.0, "fusion_lat": 0.0, "lon": -77.01430916666666, "name": "1346cce5b7f7a9d990cdc84d1076703d"}, {"bike_id": "4e99c0358ff044cb892f2f6e4866f031", "type": "electric_scooter", "is_disabled": 0, "lat": 38.866812, "rental_uris": {"ios": "https://dc.lft.to/lastmile_qr_scan", "android": "https://dc.lft.to/lastmile_qr_scan"}, "is_reserved": 0, "fusion_lon": 0.0, "fusion_lat": 0.0, "lon": -76.98570183333334, "name": "4e99c0358ff044cb892f2f6e4866f031"}, {"bike_id": "8832774e3b1f875bc51d7f101957ef74", "type": "electric_bike", "is_disabled": 0, "lat": 38.8484025, "rental_uris": {"ios": "https://dc.lft.to/lastmile_qr_scan", "android": "https://dc.lft.to/lastmile_qr_scan"}, "is_reserved": 0, "fusion_lon": 0.0, "fusion_lat": 0.0, "lon": -77.07918766666667, "name": "8832774e3b1f875bc51d7f101957ef74"}, {"bike_id": "7e6f4a65e31bb913d86acb783413c314", "type": "electric_scooter", "is_disabled": 0, "lat": 38.9215765, "rental_uris": {"ios": "https://dc.lft.to/lastmile_qr_scan", "android": "https://dc.lft.to/lastmile_qr_scan"}, "is_reserved": 0, "fusion_lon": 0.0, "fusion_lat": 0.0, "lon": -77.03517383333333, "name": "7e6f4a65e31bb913d86acb783413c314"}, {"bike_id": "df599214b4c483ddbad2fcffbab80451", "type": "electric_scooter", "is_disabled": 0, "lat": 38.935428, "rental_uris": {"ios": "https://dc.lft.to/lastmile_qr_scan", "android": "https://dc.lft.to/lastmile_qr_scan"}, "is_reserved": 0, "fusion_lon": 0.0, "fusion_lat": 0.0, "lon": -77.0339985, "name": "df599214b4c483ddbad2fcffbab80451"}, {"bike_id": "754f0b17b6139093075bd5f19bdc105f", "type": "electric_scooter", "is_disabled": 0, "lat": 38.88736166666666, "rental_uris": {"ios": "https://dc.lft.to/lastmile_qr_scan", "android": "https://dc.lft.to/lastmile_qr_scan"}, "is_reserved": 0, "fusion_lon": 0.0, "fusion_lat": 0.0, "lon": -77.02318683333333, "name": "754f0b17b6139093075bd5f19bdc105f"}, {"bike_id": "87b43b49958eaebbcd71828dbaf9df05", "type": "electric_scooter", "is_disabled": 0, "lat": 38.925964, "rental_uris": {"ios": "https://dc.lft.to/lastmile_qr_scan", "android": "https://dc.lft.to/lastmile_qr_scan"}, "is_reserved": 0, "fusion_lon": 0.0, "fusion_lat": 0.0, "lon": -77.07313566666667, "name": "87b43b49958eaebbcd71828dbaf9df05"}, {"bike_id": "a541599c3e7b8f6971ff7e6fb3c17b03", "type": "electric_scooter", "is_disabled": 0, "lat": 38.923745, "rental_uris": {"ios": "https://dc.lft.to/lastmile_qr_scan", "android": "https://dc.lft.to/lastmile_qr_scan"}, "is_reserved": 0, "fusion_lon": 0.0, "fusion_lat": 0.0, "lon": -77.05149233333333, "name": "a541599c3e7b8f6971ff7e6fb3c17b03"}, {"bike_id": "1b65c3e9f74d1f8f0c8af71da09090ee", "type": "electric_scooter", "is_disabled": 0, "lat": 38.911123333333336, "rental_uris": {"ios": "https://dc.lft.to/lastmile_qr_scan", "android": "https://dc.lft.to/lastmile_qr_scan"}, "is_reserved": 0, "fusion_lon": 0.0, "fusion_lat": 0.0, "lon": -77.03830116666667, "name": "1b65c3e9f74d1f8f0c8af71da09090ee"}, {"bike_id": "1be2b449733fd2bf971625f5fed2d49f", "type": "electric_scooter", "is_disabled": 0, "lat": 38.926587833333336, "rental_uris": {"ios": "https://dc.lft.to/lastmile_qr_scan", "android": "https://dc.lft.to/lastmile_qr_scan"}, "is_reserved": 0, "fusion_lon": 0.0, "fusion_lat": 0.0, "lon": -77.02409316666666, "name": "1be2b449733fd2bf971625f5fed2d49f"}, {"bike_id": "7d3d1535323d5282851e2defe65cc2a4", "type": "electric_scooter", "is_disabled": 0, "lat": 38.89914316666667, "rental_uris": {"ios": "https://dc.lft.to/lastmile_qr_scan", "android": "https://dc.lft.to/lastmile_qr_scan"}, "is_reserved": 0, "fusion_lon": 0.0, "fusion_lat": 0.0, "lon": -76.933687, "name": "7d3d1535323d5282851e2defe65cc2a4"}, {"bike_id": "bd3af458ad72a3a4f54e872ec86b6367", "type": "electric_scooter", "is_disabled": 0, "lat": 38.915336833333335, "rental_uris": {"ios": "https://dc.lft.to/lastmile_qr_scan", "android": "https://dc.lft.to/lastmile_qr_scan"}, "is_reserved": 0, "fusion_lon": 0.0, "fusion_lat": 0.0, "lon": -77.03182716666667, "name": "bd3af458ad72a3a4f54e872ec86b6367"}, {"bike_id": "30f7f7738d96d8e28543ee271c6053e7", "type": "electric_scooter", "is_disabled": 0, "lat": 38.947916, "rental_uris": {"ios": "https://dc.lft.to/lastmile_qr_scan", "android": "https://dc.lft.to/lastmile_qr_scan"}, "is_reserved": 0, "fusion_lon": 0.0, "fusion_lat": 0.0, "lon": -77.02131583333333, "name": "30f7f7738d96d8e28543ee271c6053e7"}, {"bike_id": "167fc3b3d46a51243c4059ac2f822417", "type": "electric_scooter", "is_disabled": 0, "lat": 38.9283935, "rental_uris": {"ios": "https://dc.lft.to/lastmile_qr_scan", "android": "https://dc.lft.to/lastmile_qr_scan"}, "is_reserved": 0, "fusion_lon": 0.0, "fusion_lat": 0.0, "lon": -77.06053516666667, "name": "167fc3b3d46a51243c4059ac2f822417"}, {"bike_id": "ed8bf27b442069b49f668f4848ceeee8", "type": "electric_scooter", "is_disabled": 0, "lat": 38.881297, "rental_uris": {"ios": "https://dc.lft.to/lastmile_qr_scan", "android": "https://dc.lft.to/lastmile_qr_scan"}, "is_reserved": 0, "fusion_lon": 0.0, "fusion_lat": 0.0, "lon": -77.00210633333333, "name": "ed8bf27b442069b49f668f4848ceeee8"}, {"bike_id": "ee4ee0bede60e5facc3390413a38ca39", "type": "electric_scooter", "is_disabled": 0, "lat": 38.93611716666667, "rental_uris": {"ios": "https://dc.lft.to/lastmile_qr_scan", "android": "https://dc.lft.to/lastmile_qr_scan"}, "is_reserved": 0, "fusion_lon": 0.0, "fusion_lat": 0.0, "lon": -77.05585583333334, "name": "ee4ee0bede60e5facc3390413a38ca39"}, {"bike_id": "c55409d23b8501065edda85eda7879a7", "type": "electric_scooter", "is_disabled": 0, "lat": 38.90562233333333, "rental_uris": {"ios": "https://dc.lft.to/lastmile_qr_scan", "android": "https://dc.lft.to/lastmile_qr_scan"}, "is_reserved": 0, "fusion_lon": 0.0, "fusion_lat": 0.0, "lon": -77.028208, "name": "c55409d23b8501065edda85eda7879a7"}, {"bike_id": "57687b736a68a79435f53885444e6609", "type": "electric_scooter", "is_disabled": 0, "lat": 38.958521, "rental_uris": {"ios": "https://dc.lft.to/lastmile_qr_scan", "android": "https://dc.lft.to/lastmile_qr_scan"}, "is_reserved": 0, "fusion_lon": 0.0, "fusion_lat": 0.0, "lon": -77.0279805, "name": "57687b736a68a79435f53885444e6609"}, {"bike_id": "911abbe228d22d05de072a7b01b94c62", "type": "electric_scooter", "is_disabled": 0, "lat": 38.93095133333333, "rental_uris": {"ios": "https://dc.lft.to/lastmile_qr_scan", "android": "https://dc.lft.to/lastmile_qr_scan"}, "is_reserved": 0, "fusion_lon": 0.0, "fusion_lat": 0.0, "lon": -77.03738166666666, "name": "911abbe228d22d05de072a7b01b94c62"}, {"bike_id": "c70ef5a15ad4d05a1897ad83341ac1cc", "type": "electric_scooter", "is_disabled": 0, "lat": 38.90805433333333, "rental_uris": {"ios": "https://dc.lft.to/lastmile_qr_scan", "android": "https://dc.lft.to/lastmile_qr_scan"}, "is_reserved": 0, "fusion_lon": 0.0, "fusion_lat": 0.0, "lon": -77.03059783333333, "name": "c70ef5a15ad4d05a1897ad83341ac1cc"}, {"bike_id": "983b09cbaf1cfb908e935833cbc7eff1", "type": "electric_scooter", "is_disabled": 0, "lat": 38.928141833333335, "rental_uris": {"ios": "https://dc.lft.to/lastmile_qr_scan", "android": "https://dc.lft.to/lastmile_qr_scan"}, "is_reserved": 0, "fusion_lon": 0.0, "fusion_lat": 0.0, "lon": -77.0281255, "name": "983b09cbaf1cfb908e935833cbc7eff1"}, {"bike_id": "9a1451a411539aa06ac2c69b2b6985f7", "type": "electric_scooter", "is_disabled": 0, "lat": 38.92365366666667, "rental_uris": {"ios": "https://dc.lft.to/lastmile_qr_scan", "android": "https://dc.lft.to/lastmile_qr_scan"}, "is_reserved": 0, "fusion_lon": 0.0, "fusion_lat": 0.0, "lon": -77.051283, "name": "9a1451a411539aa06ac2c69b2b6985f7"}, {"bike_id": "b23c585e86b96431e3c8a8b56b12704a", "type": "electric_scooter", "is_disabled": 0, "lat": 38.910574833333335, "rental_uris": {"ios": "https://dc.lft.to/lastmile_qr_scan", "android": "https://dc.lft.to/lastmile_qr_scan"}, "is_reserved": 0, "fusion_lon": 0.0, "fusion_lat": 0.0, "lon": -77.02191466666666, "name": "b23c585e86b96431e3c8a8b56b12704a"}, {"bike_id": "e13aa9dd87612f65accf4eb6dd899bdc", "type": "electric_scooter", "is_disabled": 0, "lat": 38.91616233333333, "rental_uris": {"ios": "https://dc.lft.to/lastmile_qr_scan", "android": "https://dc.lft.to/lastmile_qr_scan"}, "is_reserved": 0, "fusion_lon": 0.0, "fusion_lat": 0.0, "lon": -77.0239695, "name": "e13aa9dd87612f65accf4eb6dd899bdc"}, {"bike_id": "b068625b1c78d8674e1b4c80ba455a02", "type": "electric_scooter", "is_disabled": 0, "lat": 38.912806, "rental_uris": {"ios": "https://dc.lft.to/lastmile_qr_scan", "android": "https://dc.lft.to/lastmile_qr_scan"}, "is_reserved": 0, "fusion_lon": 0.0, "fusion_lat": 0.0, "lon": -77.06118733333334, "name": "b068625b1c78d8674e1b4c80ba455a02"}, {"bike_id": "53248765385a74daa9b14b998cc551af", "type": "electric_scooter", "is_disabled": 0, "lat": 38.917784166666664, "rental_uris": {"ios": "https://dc.lft.to/lastmile_qr_scan", "android": "https://dc.lft.to/lastmile_qr_scan"}, "is_reserved": 0, "fusion_lon": 0.0, "fusion_lat": 0.0, "lon": -77.02973133333333, "name": "53248765385a74daa9b14b998cc551af"}, {"bike_id": "bbbdf8348570481f0c86d33d3db7e3fc", "type": "electric_bike", "is_disabled": 0, "lat": 38.92069466666667, "rental_uris": {"ios": "https://dc.lft.to/lastmile_qr_scan", "android": "https://dc.lft.to/lastmile_qr_scan"}, "is_reserved": 0, "fusion_lon": 0.0, "fusion_lat": 0.0, "lon": -76.89070733333334, "name": "bbbdf8348570481f0c86d33d3db7e3fc"}, {"bike_id": "2bd7db7345e67ca717be5237f7b1a02c", "type": "electric_scooter", "is_disabled": 0, "lat": 38.935060166666666, "rental_uris": {"ios": "https://dc.lft.to/lastmile_qr_scan", "android": "https://dc.lft.to/lastmile_qr_scan"}, "is_reserved": 0, "fusion_lon": 0.0, "fusion_lat": 0.0, "lon": -77.034528, "name": "2bd7db7345e67ca717be5237f7b1a02c"}, {"bike_id": "60eec663b01b1e87f7bdffd365bbb3a3", "type": "electric_scooter", "is_disabled": 0, "lat": 38.8431455, "rental_uris": {"ios": "https://dc.lft.to/lastmile_qr_scan", "android": "https://dc.lft.to/lastmile_qr_scan"}, "is_reserved": 0, "fusion_lon": 0.0, "fusion_lat": 0.0, "lon": -76.99909433333333, "name": "60eec663b01b1e87f7bdffd365bbb3a3"}, {"bike_id": "e1e89e2937a33951fec8d038ec9e68c0", "type": "electric_scooter", "is_disabled": 0, "lat": 38.90062133333333, "rental_uris": {"ios": "https://dc.lft.to/lastmile_qr_scan", "android": "https://dc.lft.to/lastmile_qr_scan"}, "is_reserved": 0, "fusion_lon": 0.0, "fusion_lat": 0.0, "lon": -77.03654333333333, "name": "e1e89e2937a33951fec8d038ec9e68c0"}, {"bike_id": "8177aa68b3525d38a199ec303c280c77", "type": "electric_scooter", "is_disabled": 0, "lat": 38.871776, "rental_uris": {"ios": "https://dc.lft.to/lastmile_qr_scan", "android": "https://dc.lft.to/lastmile_qr_scan"}, "is_reserved": 0, "fusion_lon": 0.0, "fusion_lat": 0.0, "lon": -77.00614633333333, "name": "8177aa68b3525d38a199ec303c280c77"}, {"bike_id": "18040baeb1e3467119fbee2b06550812", "type": "electric_scooter", "is_disabled": 0, "lat": 38.914006666666666, "rental_uris": {"ios": "https://dc.lft.to/lastmile_qr_scan", "android": "https://dc.lft.to/lastmile_qr_scan"}, "is_reserved": 0, "fusion_lon": 0.0, "fusion_lat": 0.0, "lon": -77.02113033333333, "name": "18040baeb1e3467119fbee2b06550812"}, {"bike_id": "ccb41f348ddb25b18921f03468a4001b", "type": "electric_bike", "is_disabled": 0, "lat": 38.842758333333336, "rental_uris": {"ios": "https://dc.lft.to/lastmile_qr_scan", "android": "https://dc.lft.to/lastmile_qr_scan"}, "is_reserved": 0, "fusion_lon": 0.0, "fusion_lat": 0.0, "lon": -76.988393, "name": "ccb41f348ddb25b18921f03468a4001b"}, {"bike_id": "7f555ded67c32d454021c4d6ad834e25", "type": "electric_scooter", "is_disabled": 0, "lat": 38.91403483333333, "rental_uris": {"ios": "https://dc.lft.to/lastmile_qr_scan", "android": "https://dc.lft.to/lastmile_qr_scan"}, "is_reserved": 0, "fusion_lon": 0.0, "fusion_lat": 0.0, "lon": -77.03598183333334, "name": "7f555ded67c32d454021c4d6ad834e25"}, {"bike_id": "f391ba19913befdaba64dfba70647499", "type": "electric_scooter", "is_disabled": 0, "lat": 38.905607, "rental_uris": {"ios": "https://dc.lft.to/lastmile_qr_scan", "android": "https://dc.lft.to/lastmile_qr_scan"}, "is_reserved": 0, "fusion_lon": 0.0, "fusion_lat": 0.0, "lon": -77.06522033333333, "name": "f391ba19913befdaba64dfba70647499"}, {"bike_id": "a83d5d5cd1f5f6fe5881ce3ef6ea25de", "type": "electric_scooter", "is_disabled": 0, "lat": 38.92088866666667, "rental_uris": {"ios": "https://dc.lft.to/lastmile_qr_scan", "android": "https://dc.lft.to/lastmile_qr_scan"}, "is_reserved": 0, "fusion_lon": 0.0, "fusion_lat": 0.0, "lon": -77.031634, "name": "a83d5d5cd1f5f6fe5881ce3ef6ea25de"}, {"bike_id": "02d2dc3e3bffb511a0df461633b58c9a", "type": "electric_scooter", "is_disabled": 0, "lat": 38.898417333333335, "rental_uris": {"ios": "https://dc.lft.to/lastmile_qr_scan", "android": "https://dc.lft.to/lastmile_qr_scan"}, "is_reserved": 0, "fusion_lon": 0.0, "fusion_lat": 0.0, "lon": -76.94635316666667, "name": "02d2dc3e3bffb511a0df461633b58c9a"}, {"bike_id": "f3488b2f71a0776812037a757df64aba", "type": "electric_scooter", "is_disabled": 0, "lat": 38.92516783333333, "rental_uris": {"ios": "https://dc.lft.to/lastmile_qr_scan", "android": "https://dc.lft.to/lastmile_qr_scan"}, "is_reserved": 0, "fusion_lon": 0.0, "fusion_lat": 0.0, "lon": -77.02366233333333, "name": "f3488b2f71a0776812037a757df64aba"}, {"bike_id": "7c524db66c07b388531ff498442547fe", "type": "electric_scooter", "is_disabled": 0, "lat": 38.913098166666664, "rental_uris": {"ios": "https://dc.lft.to/lastmile_qr_scan", "android": "https://dc.lft.to/lastmile_qr_scan"}, "is_reserved": 0, "fusion_lon": 0.0, "fusion_lat": 0.0, "lon": -77.04493433333333, "name": "7c524db66c07b388531ff498442547fe"}, {"bike_id": "2cdc2b58986fd919451b06946138fde9", "type": "electric_bike", "is_disabled": 0, "lat": 38.879054, "rental_uris": {"ios": "https://dc.lft.to/lastmile_qr_scan", "android": "https://dc.lft.to/lastmile_qr_scan"}, "is_reserved": 0, "fusion_lon": 0.0, "fusion_lat": 0.0, "lon": -77.0070225, "name": "2cdc2b58986fd919451b06946138fde9"}, {"bike_id": "05cf5f088812dd3a4a43ef3d07054c46", "type": "electric_scooter", "is_disabled": 0, "lat": 38.933616666666666, "rental_uris": {"ios": "https://dc.lft.to/lastmile_qr_scan", "android": "https://dc.lft.to/lastmile_qr_scan"}, "is_reserved": 0, "fusion_lon": 0.0, "fusion_lat": 0.0, "lon": -77.02636083333333, "name": "05cf5f088812dd3a4a43ef3d07054c46"}, {"bike_id": "e7c2fa3bba401b6d2abc088b902ca813", "type": "electric_scooter", "is_disabled": 0, "lat": 38.905197666666666, "rental_uris": {"ios": "https://dc.lft.to/lastmile_qr_scan", "android": "https://dc.lft.to/lastmile_qr_scan"}, "is_reserved": 0, "fusion_lon": 0.0, "fusion_lat": 0.0, "lon": -77.0437265, "name": "e7c2fa3bba401b6d2abc088b902ca813"}, {"bike_id": "a461fdcdf99be3116d021820abedd72d", "type": "electric_scooter", "is_disabled": 0, "lat": 38.929643666666664, "rental_uris": {"ios": "https://dc.lft.to/lastmile_qr_scan", "android": "https://dc.lft.to/lastmile_qr_scan"}, "is_reserved": 0, "fusion_lon": 0.0, "fusion_lat": 0.0, "lon": -77.01146016666667, "name": "a461fdcdf99be3116d021820abedd72d"}, {"bike_id": "401a2cd9364d41ee5e9d92e0e59f6ef2", "type": "electric_bike", "is_disabled": 0, "lat": 38.98770483333333, "rental_uris": {"ios": "https://dc.lft.to/lastmile_qr_scan", "android": "https://dc.lft.to/lastmile_qr_scan"}, "is_reserved": 0, "fusion_lon": 0.0, "fusion_lat": 0.0, "lon": -77.1405965, "name": "401a2cd9364d41ee5e9d92e0e59f6ef2"}, {"bike_id": "3f730bf24d0a16a274725df7dc803b36", "type": "electric_scooter", "is_disabled": 0, "lat": 38.93606833333333, "rental_uris": {"ios": "https://dc.lft.to/lastmile_qr_scan", "android": "https://dc.lft.to/lastmile_qr_scan"}, "is_reserved": 0, "fusion_lon": 0.0, "fusion_lat": 0.0, "lon": -77.0380245, "name": "3f730bf24d0a16a274725df7dc803b36"}, {"bike_id": "fa38dc2edc164df1acba4ba1db982922", "type": "electric_bike", "is_disabled": 0, "lat": 38.951759833333334, "rental_uris": {"ios": "https://dc.lft.to/lastmile_qr_scan", "android": "https://dc.lft.to/lastmile_qr_scan"}, "is_reserved": 0, "fusion_lon": 0.0, "fusion_lat": 0.0, "lon": -76.97733516666666, "name": "fa38dc2edc164df1acba4ba1db982922"}, {"bike_id": "b690c1f6938d7105bb2d5d289fd26bdf", "type": "electric_scooter", "is_disabled": 0, "lat": 38.9249035, "rental_uris": {"ios": "https://dc.lft.to/lastmile_qr_scan", "android": "https://dc.lft.to/lastmile_qr_scan"}, "is_reserved": 0, "fusion_lon": 0.0, "fusion_lat": 0.0, "lon": -77.03181183333334, "name": "b690c1f6938d7105bb2d5d289fd26bdf"}, {"bike_id": "f203a3c6e06f404a58503778b57cc04d", "type": "electric_scooter", "is_disabled": 0, "lat": 38.90046233333333, "rental_uris": {"ios": "https://dc.lft.to/lastmile_qr_scan", "android": "https://dc.lft.to/lastmile_qr_scan"}, "is_reserved": 0, "fusion_lon": 0.0, "fusion_lat": 0.0, "lon": -77.01735316666667, "name": "f203a3c6e06f404a58503778b57cc04d"}, {"bike_id": "7a350f68cdf688fb692147e6ec53c4e9", "type": "electric_scooter", "is_disabled": 0, "lat": 38.91657566666667, "rental_uris": {"ios": "https://dc.lft.to/lastmile_qr_scan", "android": "https://dc.lft.to/lastmile_qr_scan"}, "is_reserved": 0, "fusion_lon": 0.0, "fusion_lat": 0.0, "lon": -76.97910866666666, "name": "7a350f68cdf688fb692147e6ec53c4e9"}, {"bike_id": "ccf8acd8806d479b4d291ca61cf1e24f", "type": "electric_scooter", "is_disabled": 0, "lat": 38.923288166666666, "rental_uris": {"ios": "https://dc.lft.to/lastmile_qr_scan", "android": "https://dc.lft.to/lastmile_qr_scan"}, "is_reserved": 0, "fusion_lon": 0.0, "fusion_lat": 0.0, "lon": -77.00889883333333, "name": "ccf8acd8806d479b4d291ca61cf1e24f"}, {"bike_id": "cd09debff7d5c11f4055c5da15c99181", "type": "electric_bike", "is_disabled": 0, "lat": 38.91006816666667, "rental_uris": {"ios": "https://dc.lft.to/lastmile_qr_scan", "android": "https://dc.lft.to/lastmile_qr_scan"}, "is_reserved": 0, "fusion_lon": 0.0, "fusion_lat": 0.0, "lon": -77.05715616666667, "name": "cd09debff7d5c11f4055c5da15c99181"}, {"bike_id": "2aa3c81b3357644c17d33c725285e446", "type": "electric_scooter", "is_disabled": 0, "lat": 38.90441, "rental_uris": {"ios": "https://dc.lft.to/lastmile_qr_scan", "android": "https://dc.lft.to/lastmile_qr_scan"}, "is_reserved": 0, "fusion_lon": 0.0, "fusion_lat": 0.0, "lon": -77.06268933333334, "name": "2aa3c81b3357644c17d33c725285e446"}, {"bike_id": "140b314ad55e4d00529cebcc85b452e8", "type": "electric_scooter", "is_disabled": 0, "lat": 38.90072466666667, "rental_uris": {"ios": "https://dc.lft.to/lastmile_qr_scan", "android": "https://dc.lft.to/lastmile_qr_scan"}, "is_reserved": 0, "fusion_lon": 0.0, "fusion_lat": 0.0, "lon": -77.03095416666666, "name": "140b314ad55e4d00529cebcc85b452e8"}, {"bike_id": "6d22ff8adea69c7d6535bdfd0288d7eb", "type": "electric_scooter", "is_disabled": 0, "lat": 38.92040516666667, "rental_uris": {"ios": "https://dc.lft.to/lastmile_qr_scan", "android": "https://dc.lft.to/lastmile_qr_scan"}, "is_reserved": 0, "fusion_lon": 0.0, "fusion_lat": 0.0, "lon": -77.03408066666667, "name": "6d22ff8adea69c7d6535bdfd0288d7eb"}, {"bike_id": "a27171d196d286b1e101d394e387cd92", "type": "electric_scooter", "is_disabled": 0, "lat": 38.89836783333333, "rental_uris": {"ios": "https://dc.lft.to/lastmile_qr_scan", "android": "https://dc.lft.to/lastmile_qr_scan"}, "is_reserved": 0, "fusion_lon": 0.0, "fusion_lat": 0.0, "lon": -77.02186983333333, "name": "a27171d196d286b1e101d394e387cd92"}, {"bike_id": "d7b608f01ac877e1727b5f33c73b787a", "type": "electric_scooter", "is_disabled": 0, "lat": 38.915628833333336, "rental_uris": {"ios": "https://dc.lft.to/lastmile_qr_scan", "android": "https://dc.lft.to/lastmile_qr_scan"}, "is_reserved": 0, "fusion_lon": 0.0, "fusion_lat": 0.0, "lon": -77.03129133333333, "name": "d7b608f01ac877e1727b5f33c73b787a"}, {"bike_id": "2cbcddd894cd3613c4a34594eca34282", "type": "electric_scooter", "is_disabled": 0, "lat": 38.909595, "rental_uris": {"ios": "https://dc.lft.to/lastmile_qr_scan", "android": "https://dc.lft.to/lastmile_qr_scan"}, "is_reserved": 0, "fusion_lon": 0.0, "fusion_lat": 0.0, "lon": -77.04547733333334, "name": "2cbcddd894cd3613c4a34594eca34282"}, {"bike_id": "1156246e05e2550162a28b2eade170d2", "type": "electric_bike", "is_disabled": 0, "lat": 38.831604166666665, "rental_uris": {"ios": "https://dc.lft.to/lastmile_qr_scan", "android": "https://dc.lft.to/lastmile_qr_scan"}, "is_reserved": 0, "fusion_lon": 0.0, "fusion_lat": 0.0, "lon": -76.995478, "name": "1156246e05e2550162a28b2eade170d2"}, {"bike_id": "b49c14b566d5e0f93745947646983f19", "type": "electric_scooter", "is_disabled": 0, "lat": 38.905303, "rental_uris": {"ios": "https://dc.lft.to/lastmile_qr_scan", "android": "https://dc.lft.to/lastmile_qr_scan"}, "is_reserved": 0, "fusion_lon": 0.0, "fusion_lat": 0.0, "lon": -77.06522433333333, "name": "b49c14b566d5e0f93745947646983f19"}, {"bike_id": "5720b7ba2202651e397ada29dcd4b19f", "type": "electric_scooter", "is_disabled": 0, "lat": 38.90252866666667, "rental_uris": {"ios": "https://dc.lft.to/lastmile_qr_scan", "android": "https://dc.lft.to/lastmile_qr_scan"}, "is_reserved": 0, "fusion_lon": 0.0, "fusion_lat": 0.0, "lon": -77.018392, "name": "5720b7ba2202651e397ada29dcd4b19f"}, {"bike_id": "53888d0362277db04745dda5ec900286", "type": "electric_scooter", "is_disabled": 0, "lat": 38.911472833333335, "rental_uris": {"ios": "https://dc.lft.to/lastmile_qr_scan", "android": "https://dc.lft.to/lastmile_qr_scan"}, "is_reserved": 0, "fusion_lon": 0.0, "fusion_lat": 0.0, "lon": -77.02955816666666, "name": "53888d0362277db04745dda5ec900286"}, {"bike_id": "22b9962e6d18738385f7d0cddfce2340", "type": "electric_scooter", "is_disabled": 0, "lat": 38.90238, "rental_uris": {"ios": "https://dc.lft.to/lastmile_qr_scan", "android": "https://dc.lft.to/lastmile_qr_scan"}, "is_reserved": 0, "fusion_lon": 0.0, "fusion_lat": 0.0, "lon": -77.04034166666666, "name": "22b9962e6d18738385f7d0cddfce2340"}, {"bike_id": "d06e263b6824bde0f784f549f1481159", "type": "electric_bike", "is_disabled": 0, "lat": 38.872786166666664, "rental_uris": {"ios": "https://dc.lft.to/lastmile_qr_scan", "android": "https://dc.lft.to/lastmile_qr_scan"}, "is_reserved": 0, "fusion_lon": 0.0, "fusion_lat": 0.0, "lon": -77.23319233333334, "name": "d06e263b6824bde0f784f549f1481159"}, {"bike_id": "9ada15dbdfca86a02e5116479d1f890d", "type": "electric_scooter", "is_disabled": 0, "lat": 38.90033016666667, "rental_uris": {"ios": "https://dc.lft.to/lastmile_qr_scan", "android": "https://dc.lft.to/lastmile_qr_scan"}, "is_reserved": 0, "fusion_lon": 0.0, "fusion_lat": 0.0, "lon": -77.00182433333333, "name": "9ada15dbdfca86a02e5116479d1f890d"}, {"bike_id": "8fe863e4ac66cc6b9300866d64aa8003", "type": "electric_bike", "is_disabled": 0, "lat": 38.99594183333333, "rental_uris": {"ios": "https://dc.lft.to/lastmile_qr_scan", "android": "https://dc.lft.to/lastmile_qr_scan"}, "is_reserved": 0, "fusion_lon": 0.0, "fusion_lat": 0.0, "lon": -77.02667383333333, "name": "8fe863e4ac66cc6b9300866d64aa8003"}, {"bike_id": "c05b57a9e8eece9d1e52465c184d2e95", "type": "electric_scooter", "is_disabled": 0, "lat": 38.947896666666665, "rental_uris": {"ios": "https://dc.lft.to/lastmile_qr_scan", "android": "https://dc.lft.to/lastmile_qr_scan"}, "is_reserved": 0, "fusion_lon": 0.0, "fusion_lat": 0.0, "lon": -77.02136966666667, "name": "c05b57a9e8eece9d1e52465c184d2e95"}, {"bike_id": "b863ff1e2daee86868f852e1df277f1d", "type": "electric_scooter", "is_disabled": 0, "lat": 38.934030166666666, "rental_uris": {"ios": "https://dc.lft.to/lastmile_qr_scan", "android": "https://dc.lft.to/lastmile_qr_scan"}, "is_reserved": 0, "fusion_lon": 0.0, "fusion_lat": 0.0, "lon": -77.02213, "name": "b863ff1e2daee86868f852e1df277f1d"}, {"bike_id": "a1669f470b6411aeba9089ff7b3409a2", "type": "electric_scooter", "is_disabled": 0, "lat": 38.933074833333336, "rental_uris": {"ios": "https://dc.lft.to/lastmile_qr_scan", "android": "https://dc.lft.to/lastmile_qr_scan"}, "is_reserved": 0, "fusion_lon": 0.0, "fusion_lat": 0.0, "lon": -77.03263116666666, "name": "a1669f470b6411aeba9089ff7b3409a2"}, {"bike_id": "5e9ac2acabd7be825a2041d861aaeba9", "type": "electric_scooter", "is_disabled": 0, "lat": 38.913028, "rental_uris": {"ios": "https://dc.lft.to/lastmile_qr_scan", "android": "https://dc.lft.to/lastmile_qr_scan"}, "is_reserved": 0, "fusion_lon": 0.0, "fusion_lat": 0.0, "lon": -77.045448, "name": "5e9ac2acabd7be825a2041d861aaeba9"}, {"bike_id": "589eebc9167b8136d6eb288acf06eb2a", "type": "electric_scooter", "is_disabled": 0, "lat": 38.91028516666667, "rental_uris": {"ios": "https://dc.lft.to/lastmile_qr_scan", "android": "https://dc.lft.to/lastmile_qr_scan"}, "is_reserved": 0, "fusion_lon": 0.0, "fusion_lat": 0.0, "lon": -77.007615, "name": "589eebc9167b8136d6eb288acf06eb2a"}, {"bike_id": "3dafe28e88902ad11d1a595c1dcd54f8", "type": "electric_scooter", "is_disabled": 0, "lat": 38.89242633333333, "rental_uris": {"ios": "https://dc.lft.to/lastmile_qr_scan", "android": "https://dc.lft.to/lastmile_qr_scan"}, "is_reserved": 0, "fusion_lon": 0.0, "fusion_lat": 0.0, "lon": -77.02202083333333, "name": "3dafe28e88902ad11d1a595c1dcd54f8"}, {"bike_id": "df8cfbb942390113647249d47f64c29c", "type": "electric_scooter", "is_disabled": 0, "lat": 38.91694183333333, "rental_uris": {"ios": "https://dc.lft.to/lastmile_qr_scan", "android": "https://dc.lft.to/lastmile_qr_scan"}, "is_reserved": 0, "fusion_lon": 0.0, "fusion_lat": 0.0, "lon": -77.037694, "name": "df8cfbb942390113647249d47f64c29c"}, {"bike_id": "106294386f20605fb9ca19e72e146517", "type": "electric_scooter", "is_disabled": 0, "lat": 38.9141885, "rental_uris": {"ios": "https://dc.lft.to/lastmile_qr_scan", "android": "https://dc.lft.to/lastmile_qr_scan"}, "is_reserved": 0, "fusion_lon": 0.0, "fusion_lat": 0.0, "lon": -77.04810683333334, "name": "106294386f20605fb9ca19e72e146517"}, {"bike_id": "60b470f2621d1680bd06a657f5578653", "type": "electric_scooter", "is_disabled": 0, "lat": 38.8665745, "rental_uris": {"ios": "https://dc.lft.to/lastmile_qr_scan", "android": "https://dc.lft.to/lastmile_qr_scan"}, "is_reserved": 0, "fusion_lon": 0.0, "fusion_lat": 0.0, "lon": -76.98890033333333, "name": "60b470f2621d1680bd06a657f5578653"}, {"bike_id": "fe37f99a327903e37218705d7dada357", "type": "electric_scooter", "is_disabled": 0, "lat": 38.91184466666667, "rental_uris": {"ios": "https://dc.lft.to/lastmile_qr_scan", "android": "https://dc.lft.to/lastmile_qr_scan"}, "is_reserved": 0, "fusion_lon": 0.0, "fusion_lat": 0.0, "lon": -77.03219216666666, "name": "fe37f99a327903e37218705d7dada357"}, {"bike_id": "28d60ca6f0929796dd339ec40c981fc0", "type": "electric_bike", "is_disabled": 0, "lat": 38.880620666666665, "rental_uris": {"ios": "https://dc.lft.to/lastmile_qr_scan", "android": "https://dc.lft.to/lastmile_qr_scan"}, "is_reserved": 0, "fusion_lon": 0.0, "fusion_lat": 0.0, "lon": -76.96241566666667, "name": "28d60ca6f0929796dd339ec40c981fc0"}, {"bike_id": "de74dd831499815dabbab22611b3a6e1", "type": "electric_scooter", "is_disabled": 0, "lat": 38.9097345, "rental_uris": {"ios": "https://dc.lft.to/lastmile_qr_scan", "android": "https://dc.lft.to/lastmile_qr_scan"}, "is_reserved": 0, "fusion_lon": 0.0, "fusion_lat": 0.0, "lon": -77.038623, "name": "de74dd831499815dabbab22611b3a6e1"}, {"bike_id": "095e7fb80a85ffca8b48657d21a48b84", "type": "electric_bike", "is_disabled": 0, "lat": 38.91017016666667, "rental_uris": {"ios": "https://dc.lft.to/lastmile_qr_scan", "android": "https://dc.lft.to/lastmile_qr_scan"}, "is_reserved": 0, "fusion_lon": 0.0, "fusion_lat": 0.0, "lon": -77.227991, "name": "095e7fb80a85ffca8b48657d21a48b84"}, {"bike_id": "918aacb6970ca9b640d129ec2846b2cc", "type": "electric_scooter", "is_disabled": 0, "lat": 38.890334, "rental_uris": {"ios": "https://dc.lft.to/lastmile_qr_scan", "android": "https://dc.lft.to/lastmile_qr_scan"}, "is_reserved": 0, "fusion_lon": 0.0, "fusion_lat": 0.0, "lon": -76.93752633333334, "name": "918aacb6970ca9b640d129ec2846b2cc"}, {"bike_id": "cdaa8bda143c7594345e4e35c93360ca", "type": "electric_scooter", "is_disabled": 0, "lat": 38.8698225, "rental_uris": {"ios": "https://dc.lft.to/lastmile_qr_scan", "android": "https://dc.lft.to/lastmile_qr_scan"}, "is_reserved": 0, "fusion_lon": 0.0, "fusion_lat": 0.0, "lon": -76.98177116666666, "name": "cdaa8bda143c7594345e4e35c93360ca"}, {"bike_id": "5eebac2f6594a827e888a6c8698cd0ec", "type": "electric_scooter", "is_disabled": 0, "lat": 38.92443133333333, "rental_uris": {"ios": "https://dc.lft.to/lastmile_qr_scan", "android": "https://dc.lft.to/lastmile_qr_scan"}, "is_reserved": 0, "fusion_lon": 0.0, "fusion_lat": 0.0, "lon": -77.040283, "name": "5eebac2f6594a827e888a6c8698cd0ec"}, {"bike_id": "115d9941562d0d571861753463b57140", "type": "electric_scooter", "is_disabled": 0, "lat": 38.923722166666664, "rental_uris": {"ios": "https://dc.lft.to/lastmile_qr_scan", "android": "https://dc.lft.to/lastmile_qr_scan"}, "is_reserved": 0, "fusion_lon": 0.0, "fusion_lat": 0.0, "lon": -77.03054316666666, "name": "115d9941562d0d571861753463b57140"}, {"bike_id": "02a9eef13f334d9523042a2d11f518dc", "type": "electric_scooter", "is_disabled": 0, "lat": 38.9252825, "rental_uris": {"ios": "https://dc.lft.to/lastmile_qr_scan", "android": "https://dc.lft.to/lastmile_qr_scan"}, "is_reserved": 0, "fusion_lon": 0.0, "fusion_lat": 0.0, "lon": -77.04271333333334, "name": "02a9eef13f334d9523042a2d11f518dc"}, {"bike_id": "d40202284db46eb5b5fa8356a4754db2", "type": "electric_scooter", "is_disabled": 0, "lat": 38.897055333333334, "rental_uris": {"ios": "https://dc.lft.to/lastmile_qr_scan", "android": "https://dc.lft.to/lastmile_qr_scan"}, "is_reserved": 0, "fusion_lon": 0.0, "fusion_lat": 0.0, "lon": -77.00830766666667, "name": "d40202284db46eb5b5fa8356a4754db2"}, {"bike_id": "53a5ebad8dc73c44d8eb1e16324f999f", "type": "electric_scooter", "is_disabled": 0, "lat": 38.919329166666664, "rental_uris": {"ios": "https://dc.lft.to/lastmile_qr_scan", "android": "https://dc.lft.to/lastmile_qr_scan"}, "is_reserved": 0, "fusion_lon": 0.0, "fusion_lat": 0.0, "lon": -77.03179966666667, "name": "53a5ebad8dc73c44d8eb1e16324f999f"}, {"bike_id": "895d90c42f83e4511809bf4c75103105", "type": "electric_scooter", "is_disabled": 0, "lat": 38.90725916666667, "rental_uris": {"ios": "https://dc.lft.to/lastmile_qr_scan", "android": "https://dc.lft.to/lastmile_qr_scan"}, "is_reserved": 0, "fusion_lon": 0.0, "fusion_lat": 0.0, "lon": -77.03196966666667, "name": "895d90c42f83e4511809bf4c75103105"}, {"bike_id": "2adea45a338decacc64d68143ecfd41d", "type": "electric_scooter", "is_disabled": 0, "lat": 38.898428833333334, "rental_uris": {"ios": "https://dc.lft.to/lastmile_qr_scan", "android": "https://dc.lft.to/lastmile_qr_scan"}, "is_reserved": 0, "fusion_lon": 0.0, "fusion_lat": 0.0, "lon": -76.94628283333333, "name": "2adea45a338decacc64d68143ecfd41d"}, {"bike_id": "b2716c03354b1587bcce57c21e892bce", "type": "electric_scooter", "is_disabled": 0, "lat": 38.9132855, "rental_uris": {"ios": "https://dc.lft.to/lastmile_qr_scan", "android": "https://dc.lft.to/lastmile_qr_scan"}, "is_reserved": 0, "fusion_lon": 0.0, "fusion_lat": 0.0, "lon": -77.03192583333333, "name": "b2716c03354b1587bcce57c21e892bce"}, {"bike_id": "03bc23098a906cbf0f2f400b47193b1a", "type": "electric_scooter", "is_disabled": 0, "lat": 38.91933133333333, "rental_uris": {"ios": "https://dc.lft.to/lastmile_qr_scan", "android": "https://dc.lft.to/lastmile_qr_scan"}, "is_reserved": 0, "fusion_lon": 0.0, "fusion_lat": 0.0, "lon": -77.04498333333333, "name": "03bc23098a906cbf0f2f400b47193b1a"}, {"bike_id": "8057473bca694862be74664ef1a00aab", "type": "electric_scooter", "is_disabled": 0, "lat": 38.90265016666667, "rental_uris": {"ios": "https://dc.lft.to/lastmile_qr_scan", "android": "https://dc.lft.to/lastmile_qr_scan"}, "is_reserved": 0, "fusion_lon": 0.0, "fusion_lat": 0.0, "lon": -77.05482766666667, "name": "8057473bca694862be74664ef1a00aab"}, {"bike_id": "587eb503515d2a485fc7c2d0a7267508", "type": "electric_scooter", "is_disabled": 0, "lat": 38.8961665, "rental_uris": {"ios": "https://dc.lft.to/lastmile_qr_scan", "android": "https://dc.lft.to/lastmile_qr_scan"}, "is_reserved": 0, "fusion_lon": 0.0, "fusion_lat": 0.0, "lon": -76.98567966666667, "name": "587eb503515d2a485fc7c2d0a7267508"}, {"bike_id": "ac276b03d248248efc870e021c9ff63b", "type": "electric_scooter", "is_disabled": 0, "lat": 38.92153883333334, "rental_uris": {"ios": "https://dc.lft.to/lastmile_qr_scan", "android": "https://dc.lft.to/lastmile_qr_scan"}, "is_reserved": 0, "fusion_lon": 0.0, "fusion_lat": 0.0, "lon": -77.0351495, "name": "ac276b03d248248efc870e021c9ff63b"}, {"bike_id": "2df4643231f35b776c55cb90e4987c3b", "type": "electric_scooter", "is_disabled": 0, "lat": 38.894795333333334, "rental_uris": {"ios": "https://dc.lft.to/lastmile_qr_scan", "android": "https://dc.lft.to/lastmile_qr_scan"}, "is_reserved": 0, "fusion_lon": 0.0, "fusion_lat": 0.0, "lon": -76.9485995, "name": "2df4643231f35b776c55cb90e4987c3b"}, {"bike_id": "3618eb4bd89456361e60d7a4f36cac8a", "type": "electric_scooter", "is_disabled": 0, "lat": 38.902515333333334, "rental_uris": {"ios": "https://dc.lft.to/lastmile_qr_scan", "android": "https://dc.lft.to/lastmile_qr_scan"}, "is_reserved": 0, "fusion_lon": 0.0, "fusion_lat": 0.0, "lon": -77.0163415, "name": "3618eb4bd89456361e60d7a4f36cac8a"}, {"bike_id": "c7aa2046c32456e39791cd1ac39bc47e", "type": "electric_scooter", "is_disabled": 0, "lat": 38.907594833333334, "rental_uris": {"ios": "https://dc.lft.to/lastmile_qr_scan", "android": "https://dc.lft.to/lastmile_qr_scan"}, "is_reserved": 0, "fusion_lon": 0.0, "fusion_lat": 0.0, "lon": -77.01695466666666, "name": "c7aa2046c32456e39791cd1ac39bc47e"}, {"bike_id": "94555ce8ff969127179d0c8d8ecc2866", "type": "electric_scooter", "is_disabled": 0, "lat": 38.9118815, "rental_uris": {"ios": "https://dc.lft.to/lastmile_qr_scan", "android": "https://dc.lft.to/lastmile_qr_scan"}, "is_reserved": 0, "fusion_lon": 0.0, "fusion_lat": 0.0, "lon": -77.04035116666667, "name": "94555ce8ff969127179d0c8d8ecc2866"}, {"bike_id": "7f9f76eb0f09be137e1395726f0bcd09", "type": "electric_scooter", "is_disabled": 0, "lat": 38.907757, "rental_uris": {"ios": "https://dc.lft.to/lastmile_qr_scan", "android": "https://dc.lft.to/lastmile_qr_scan"}, "is_reserved": 0, "fusion_lon": 0.0, "fusion_lat": 0.0, "lon": -77.07148616666667, "name": "7f9f76eb0f09be137e1395726f0bcd09"}, {"bike_id": "3d6987591730ad27bba4fda31401e3f0", "type": "electric_scooter", "is_disabled": 0, "lat": 38.905128166666664, "rental_uris": {"ios": "https://dc.lft.to/lastmile_qr_scan", "android": "https://dc.lft.to/lastmile_qr_scan"}, "is_reserved": 0, "fusion_lon": 0.0, "fusion_lat": 0.0, "lon": -77.01726933333333, "name": "3d6987591730ad27bba4fda31401e3f0"}, {"bike_id": "baf4afcc31288b39602ccfdf06b73f49", "type": "electric_scooter", "is_disabled": 0, "lat": 38.86214283333333, "rental_uris": {"ios": "https://dc.lft.to/lastmile_qr_scan", "android": "https://dc.lft.to/lastmile_qr_scan"}, "is_reserved": 0, "fusion_lon": 0.0, "fusion_lat": 0.0, "lon": -76.99470933333333, "name": "baf4afcc31288b39602ccfdf06b73f49"}, {"bike_id": "57280c43db513cd3ea920020ea0dbfdb", "type": "electric_scooter", "is_disabled": 0, "lat": 38.917667333333334, "rental_uris": {"ios": "https://dc.lft.to/lastmile_qr_scan", "android": "https://dc.lft.to/lastmile_qr_scan"}, "is_reserved": 0, "fusion_lon": 0.0, "fusion_lat": 0.0, "lon": -77.047767, "name": "57280c43db513cd3ea920020ea0dbfdb"}, {"bike_id": "5935c9edbf637308f5ea0bcce2a2a292", "type": "electric_scooter", "is_disabled": 0, "lat": 38.89551933333333, "rental_uris": {"ios": "https://dc.lft.to/lastmile_qr_scan", "android": "https://dc.lft.to/lastmile_qr_scan"}, "is_reserved": 0, "fusion_lon": 0.0, "fusion_lat": 0.0, "lon": -76.94943233333333, "name": "5935c9edbf637308f5ea0bcce2a2a292"}, {"bike_id": "fa4199b61ddc14cfc6981800db50fa23", "type": "electric_bike", "is_disabled": 0, "lat": 38.969264, "rental_uris": {"ios": "https://dc.lft.to/lastmile_qr_scan", "android": "https://dc.lft.to/lastmile_qr_scan"}, "is_reserved": 0, "fusion_lon": 0.0, "fusion_lat": 0.0, "lon": -76.95789283333333, "name": "fa4199b61ddc14cfc6981800db50fa23"}, {"bike_id": "29bc000bef475705e01b1eb6a632c6b2", "type": "electric_scooter", "is_disabled": 0, "lat": 38.93842866666667, "rental_uris": {"ios": "https://dc.lft.to/lastmile_qr_scan", "android": "https://dc.lft.to/lastmile_qr_scan"}, "is_reserved": 0, "fusion_lon": 0.0, "fusion_lat": 0.0, "lon": -77.03379733333334, "name": "29bc000bef475705e01b1eb6a632c6b2"}, {"bike_id": "ea95bb6c39f6c443c4df6cf2e7832911", "type": "electric_scooter", "is_disabled": 0, "lat": 38.8669965, "rental_uris": {"ios": "https://dc.lft.to/lastmile_qr_scan", "android": "https://dc.lft.to/lastmile_qr_scan"}, "is_reserved": 0, "fusion_lon": 0.0, "fusion_lat": 0.0, "lon": -76.98712533333334, "name": "ea95bb6c39f6c443c4df6cf2e7832911"}, {"bike_id": "65fe55fe77144b906197ada6ef79dcbf", "type": "electric_scooter", "is_disabled": 0, "lat": 38.8988085, "rental_uris": {"ios": "https://dc.lft.to/lastmile_qr_scan", "android": "https://dc.lft.to/lastmile_qr_scan"}, "is_reserved": 0, "fusion_lon": 0.0, "fusion_lat": 0.0, "lon": -76.9317635, "name": "65fe55fe77144b906197ada6ef79dcbf"}, {"bike_id": "56f88c5913cde3f66382fc26d3535db5", "type": "electric_scooter", "is_disabled": 0, "lat": 38.8670205, "rental_uris": {"ios": "https://dc.lft.to/lastmile_qr_scan", "android": "https://dc.lft.to/lastmile_qr_scan"}, "is_reserved": 0, "fusion_lon": 0.0, "fusion_lat": 0.0, "lon": -76.98713716666667, "name": "56f88c5913cde3f66382fc26d3535db5"}, {"bike_id": "59cca32ffae459120cf29b159c093af9", "type": "electric_scooter", "is_disabled": 0, "lat": 38.927905833333334, "rental_uris": {"ios": "https://dc.lft.to/lastmile_qr_scan", "android": "https://dc.lft.to/lastmile_qr_scan"}, "is_reserved": 0, "fusion_lon": 0.0, "fusion_lat": 0.0, "lon": -77.0432695, "name": "59cca32ffae459120cf29b159c093af9"}, {"bike_id": "baac6dcfc72b22f9597b183cf05b94bb", "type": "electric_scooter", "is_disabled": 0, "lat": 38.908230833333334, "rental_uris": {"ios": "https://dc.lft.to/lastmile_qr_scan", "android": "https://dc.lft.to/lastmile_qr_scan"}, "is_reserved": 0, "fusion_lon": 0.0, "fusion_lat": 0.0, "lon": -77.02698, "name": "baac6dcfc72b22f9597b183cf05b94bb"}, {"bike_id": "cba1ddf0e8ac532aa9c2d6e30e722ee0", "type": "electric_scooter", "is_disabled": 0, "lat": 38.86209266666667, "rental_uris": {"ios": "https://dc.lft.to/lastmile_qr_scan", "android": "https://dc.lft.to/lastmile_qr_scan"}, "is_reserved": 0, "fusion_lon": 0.0, "fusion_lat": 0.0, "lon": -76.99464616666667, "name": "cba1ddf0e8ac532aa9c2d6e30e722ee0"}, {"bike_id": "1b4bdbd59b007dbad63f3740ea650ab6", "type": "electric_scooter", "is_disabled": 0, "lat": 38.911243166666665, "rental_uris": {"ios": "https://dc.lft.to/lastmile_qr_scan", "android": "https://dc.lft.to/lastmile_qr_scan"}, "is_reserved": 0, "fusion_lon": 0.0, "fusion_lat": 0.0, "lon": -77.02807883333334, "name": "1b4bdbd59b007dbad63f3740ea650ab6"}, {"bike_id": "ebc521de235bf7e985f3eb94a0d6dea2", "type": "electric_scooter", "is_disabled": 0, "lat": 38.914725833333335, "rental_uris": {"ios": "https://dc.lft.to/lastmile_qr_scan", "android": "https://dc.lft.to/lastmile_qr_scan"}, "is_reserved": 0, "fusion_lon": 0.0, "fusion_lat": 0.0, "lon": -77.03206116666667, "name": "ebc521de235bf7e985f3eb94a0d6dea2"},