{"data": {"bikes": [{"name": "30b9223794cd7c594cfca36c73961fba", "is_reserved": 0, "is_disabled": 0, "lon": -77.02348666666667, "rental_uris": {"android": "https://dc.lft.to/lastmile_qr_scan", "ios": "https://dc.lft.to/lastmile_qr_scan"}, "fusion_lon": 0.0, "lat": 38.935346833333334, "type": "electric_scooter", "fusion_lat": 0.0, "bike_id": "30b9223794cd7c594cfca36c73961fba"}, {"name": "ee758e1e6be98b1b5b9d6f6ac9b30b5c", "is_reserved": 0, "is_disabled": 0, "lon": -77.00111116666666, "rental_uris": {"android": "https://dc.lft.to/lastmile_qr_scan", "ios": "https://dc.lft.to/lastmile_qr_scan"}, "fusion_lon": 0.0, "lat": 38.9171755, "type": "electric_scooter", "fusion_lat": 0.0, "bike_id": "ee758e1e6be98b1b5b9d6f6ac9b30b5c"}, {"name": "02ef62535efd2fc54e3016a050615cd1", "is_reserved": 0, "is_disabled": 0, "lon": -77.031944, "rental_uris": {"android": "https://dc.lft.to/lastmile_qr_scan", "ios": "https://dc.lft.to/lastmile_qr_scan"}, "fusion_lon": 0.0, "lat": 38.9051245, "type": "electric_scooter", "fusion_lat": 0.0, "bike_id": "02ef62535efd2fc54e3016a050615cd1"}, {"name": "a9fc0cc4112393fbe620c4458282d590", "is_reserved": 0, "is_disabled": 0, "lon": -76.98735733333334, "rental_uris": {"android": "https://dc.lft.to/lastmile_qr_scan", "ios": "https://dc.lft.to/lastmile_qr_scan"}, "fusion_lon": 0.0, "lat": 38.86714166666667, "type": "electric_scooter", "fusion_lat": 0.0, "bike_id": "a9fc0cc4112393fbe620c4458282d590"}, {"name": "65b9a89691d28cc90d36e7315f12504d", "is_reserved": 0, "is_disabled": 0, "lon": -77.04228183333333, "rental_uris": {"android": "https://dc.lft.to/lastmile_qr_scan", "ios": "https://dc.lft.to/lastmile_qr_scan"}, "fusion_lon": 0.0, "lat": 38.90934633333333, "type": "electric_scooter", "fusion_lat": 0.0, "bike_id": "65b9a89691d28cc90d36e7315f12504d"}, {"name": "582261d73bd48a04c7085308bd3e54c7", "is_reserved": 0, "is_disabled": 0, "lon": -77.00596166666666, "rental_uris": {"android": "https://dc.lft.to/lastmile_qr_scan", "ios": "https://dc.lft.to/lastmile_qr_scan"}, "fusion_lon": 0.0, "lat": 38.89800966666667, "type": "electric_bike", "fusion_lat": 0.0, "bike_id": "582261d73bd48a04c7085308bd3e54c7"}, {"name": "e8fa6fb8719ab91c027c777f8ce408f5", "is_reserved": 0, "is_disabled": 0, "lon": -77.02904633333333, "rental_uris": {"android": "https://dc.lft.to/lastmile_qr_scan", "ios": "https://dc.lft.to/lastmile_qr_scan"}, "fusion_lon": 0.0, "lat": 38.958455666666666, "type": "electric_scooter", "fusion_lat": 0.0, "bike_id": "e8fa6fb8719ab91c027c777f8ce408f5"}, {"name": "fee05301c646ee182000fabe944e0ff6", "is_reserved": 0, "is_disabled": 0, "lon": -77.02481083333333, "rental_uris": {"android": "https://dc.lft.to/lastmile_qr_scan", "ios": "https://dc.lft.to/lastmile_qr_scan"}, "fusion_lon": 0.0, "lat": 38.880154, "type": "electric_scooter", "fusion_lat": 0.0, "bike_id": "fee05301c646ee182000fabe944e0ff6"}, {"name": "c7c09ad1aa8c3e8706c03d0cb56f0be8", "is_reserved": 0, "is_disabled": 0, "lon": -77.024328, "rental_uris": {"android": "https://dc.lft.to/lastmile_qr_scan", "ios": "https://dc.lft.to/lastmile_qr_scan"}, "fusion_lon": 0.0, "lat": 38.89522316666667, "type": "electric_scooter", "fusion_lat": 0.0, "bike_id": "c7c09ad1aa8c3e8706c03d0cb56f0be8"}, {"name": "abc99f133dfefdb356cb9ec963fb2d85", "is_reserved": 0, "is_disabled": 0, "lon": -77.023472, "rental_uris": {"android": "https://dc.lft.to/lastmile_qr_scan", "ios": "https://dc.lft.to/lastmile_qr_scan"}, "fusion_lon": 0.0, "lat": 38.90218616666667, "type": "electric_scooter", "fusion_lat": 0.0, "bike_id": "abc99f133dfefdb356cb9ec963fb2d85"}, {"name": "c0725573ca03115904923cd425798490", "is_reserved": 0, "is_disabled": 0, "lon": -77.02325133333333, "rental_uris": {"android": "https://dc.lft.to/lastmile_qr_scan", "ios": "https://dc.lft.to/lastmile_qr_scan"}, "fusion_lon": 0.0, "lat": 38.8846625, "type": "electric_scooter", "fusion_lat": 0.0, "bike_id": "c0725573ca03115904923cd425798490"}, {"name": "c86214b66387a79693c34c8db4824065", "is_reserved": 0, "is_disabled": 0, "lon": -77.0058855, "rental_uris": {"android": "https://dc.lft.to/lastmile_qr_scan", "ios": "https://dc.lft.to/lastmile_qr_scan"}, "fusion_lon": 0.0, "lat": 38.90353983333333, "type": "electric_scooter", "fusion_lat": 0.0, "bike_id": "c86214b66387a79693c34c8db4824065"}, {"name": "becd4a5128438229e6b253c0e86800b2", "is_reserved": 0, "is_disabled": 0, "lon": -77.03386966666666, "rental_uris": {"android": "https://dc.lft.to/lastmile_qr_scan", "ios": "https://dc.lft.to/lastmile_qr_scan"}, "fusion_lon": 0.0, "lat": 38.88659283333333, "type": "electric_scooter", "fusion_lat": 0.0, "bike_id": "becd4a5128438229e6b253c0e86800b2"}, {"name": "8a53fcb2b38cba1ab11d0422996fd194", "is_reserved": 0, "is_disabled": 0, "lon": -76.9415365, "rental_uris": {"android": "https://dc.lft.to/lastmile_qr_scan", "ios": "https://dc.lft.to/lastmile_qr_scan"}, "fusion_lon": 0.0, "lat": 38.88365816666666, "type": "electric_scooter", "fusion_lat": 0.0, "bike_id": "8a53fcb2b38cba1ab11d0422996fd194"}, {"name": "ebba186de2035a416c65ef4b92f779fb", "is_reserved": 0, "is_disabled": 0, "lon": -77.02560983333333, "rental_uris": {"android": "https://dc.lft.to/lastmile_qr_scan", "ios": "https://dc.lft.to/lastmile_qr_scan"}, "fusion_lon": 0.0, "lat": 38.92089, "type": "electric_scooter", "fusion_lat": 0.0, "bike_id": "ebba186de2035a416c65ef4b92f779fb"}, {"name": "535d233e8dc6670e87270fef97dbdfd8", "is_reserved": 0, "is_disabled": 0, "lon": -77.05279583333333, "rental_uris": {"android": "https://dc.lft.to/lastmile_qr_scan", "ios": "https://dc.lft.to/lastmile_qr_scan"}, "fusion_lon": 0.0, "lat": 38.92251533333334, "type": "electric_scooter", "fusion_lat": 0.0, "bike_id": "535d233e8dc6670e87270fef97dbdfd8"}, {"name": "d2499b6ba6538388eccb99493d06aa20", "is_reserved": 0, "is_disabled": 0, "lon": -77.04990066666667, "rental_uris": {"android": "https://dc.lft.to/lastmile_qr_scan", "ios": "https://dc.lft.to/lastmile_qr_scan"}, "fusion_lon": 0.0, "lat": 38.897324, "type": "electric_scooter", "fusion_lat": 0.0, "bike_id": "d2499b6ba6538388eccb99493d06aa20"}, {"name": "8d00285ace9e7c8f1b476f1897fbf670", "is_reserved": 0, "is_disabled": 0, "lon": -77.0318115, "rental_uris": {"android": "https://dc.lft.to/lastmile_qr_scan", "ios": "https://dc.lft.to/lastmile_qr_scan"}, "fusion_lon": 0.0, "lat": 38.96422333333334, "type": "electric_scooter", "fusion_lat": 0.0, "bike_id": "8d00285ace9e7c8f1b476f1897fbf670"}, {"name": "0cec4d9f62e6b95669ecca4cc56967fe", "is_reserved": 0, "is_disabled": 0, "lon": -77.02306066666667, "rental_uris": {"android": "https://dc.lft.to/lastmile_qr_scan", "ios": "https://dc.lft.to/lastmile_qr_scan"}, "fusion_lon": 0.0, "lat": 38.901543333333336, "type": "electric_scooter", "fusion_lat": 0.0, "bike_id": "0cec4d9f62e6b95669ecca4cc56967fe"}, {"name": "04a55648a5dff616cd6d1a238afa2be5", "is_reserved": 0, "is_disabled": 0, "lon": -77.06361166666667, "rental_uris": {"android": "https://dc.lft.to/lastmile_qr_scan", "ios": "https://dc.lft.to/lastmile_qr_scan"}, "fusion_lon": 0.0, "lat": 38.944441833333336, "type": "electric_scooter", "fusion_lat": 0.0, "bike_id": "04a55648a5dff616cd6d1a238afa2be5"}, {"name": "9ac546c5f98d936da1efa8fcdecfc5ac", "is_reserved": 0, "is_disabled": 0, "lon": -77.025485, "rental_uris": {"android": "https://dc.lft.to/lastmile_qr_scan", "ios": "https://dc.lft.to/lastmile_qr_scan"}, "fusion_lon": 0.0, "lat": 38.897112166666666, "type": "electric_scooter", "fusion_lat": 0.0, "bike_id": "9ac546c5f98d936da1efa8fcdecfc5ac"}, {"name": "937afc5cba26dc94b432d9df96dcc161", "is_reserved": 0, "is_disabled": 0, "lon": -77.0328015, "rental_uris": {"android": "https://dc.lft.to/lastmile_qr_scan", "ios": "https://dc.lft.to/lastmile_qr_scan"}, "fusion_lon": 0.0, "lat": 38.91920866666667, "type": "electric_scooter", "fusion_lat": 0.0, "bike_id": "937afc5cba26dc94b432d9df96dcc161"}, {"name": "fa308bbe94892cf1a63343ee1220ca61", "is_reserved": 0, "is_disabled": 0, "lon": -77.02006966666667, "rental_uris": {"android": "https://dc.lft.to/lastmile_qr_scan", "ios": "https://dc.lft.to/lastmile_qr_scan"}, "fusion_lon": 0.0, "lat": 38.924175, "type": "electric_scooter", "fusion_lat": 0.0, "bike_id": "fa308bbe94892cf1a63343ee1220ca61"}, {"name": "5934c2e1351292c07cf201472cb3b34e", "is_reserved": 0, "is_disabled": 0, "lon": -77.00967716666666, "rental_uris": {"android": "https://dc.lft.to/lastmile_qr_scan", "ios": "https://dc.lft.to/lastmile_qr_scan"}, "fusion_lon": 0.0, "lat": 38.881283333333336, "type": "electric_scooter", "fusion_lat": 0.0, "bike_id": "5934c2e1351292c07cf201472cb3b34e"}, {"name": "dd7b89fa7c87d74ca6a67232bcfa1bbf", "is_reserved": 0, "is_disabled": 0, "lon": -77.0402425, "rental_uris": {"android": "https://dc.lft.to/lastmile_qr_scan", "ios": "https://dc.lft.to/lastmile_qr_scan"}, "fusion_lon": 0.0, "lat": 38.924170333333336, "type": "electric_scooter", "fusion_lat": 0.0, "bike_id": "dd7b89fa7c87d74ca6a67232bcfa1bbf"}, {"name": "d79eaea18790a010b0c72cfc5d3edf96", "is_reserved": 0, "is_disabled": 0, "lon": -77.02985916666667, "rental_uris": {"android": "https://dc.lft.to/lastmile_qr_scan", "ios": "https://dc.lft.to/lastmile_qr_scan"}, "fusion_lon": 0.0, "lat": 38.924596333333334, "type": "electric_scooter", "fusion_lat": 0.0, "bike_id": "d79eaea18790a010b0c72cfc5d3edf96"}, {"name": "bf0a4edf3b2d3002251e967733693b90", "is_reserved": 0, "is_disabled": 0, "lon": -77.03752883333334, "rental_uris": {"android": "https://dc.lft.to/lastmile_qr_scan", "ios": "https://dc.lft.to/lastmile_qr_scan"}, "fusion_lon": 0.0, "lat": 38.902351, "type": "electric_scooter", "fusion_lat": 0.0, "bike_id": "bf0a4edf3b2d3002251e967733693b90"}, {"name": "901203a4aeb132a9fa92885832e456c4", "is_reserved": 0, "is_disabled": 0, "lon": -77.03371433333334, "rental_uris": {"android": "https://dc.lft.to/lastmile_qr_scan", "ios": "https://dc.lft.to/lastmile_qr_scan"}, "fusion_lon": 0.0, "lat": 38.90963033333333, "type": "electric_scooter", "fusion_lat": 0.0, "bike_id": "901203a4aeb132a9fa92885832e456c4"}, {"name": "f37ca361f6fb8fff0546b657d9e871da", "is_reserved": 0, "is_disabled": 0, "lon": -77.01898883333334, "rental_uris": {"android": "https://dc.lft.to/lastmile_qr_scan", "ios": "https://dc.lft.to/lastmile_qr_scan"}, "fusion_lon": 0.0, "lat": 38.93915033333333, "type": "electric_scooter", "fusion_lat": 0.0, "bike_id": "f37ca361f6fb8fff0546b657d9e871da"}, {"name": "ce434b40f63aad3df95e380e046e9cd0", "is_reserved": 0, "is_disabled": 0, "lon": -77.02938033333334, "rental_uris": {"android": "https://dc.lft.to/lastmile_qr_scan", "ios": "https://dc.lft.to/lastmile_qr_scan"}, "fusion_lon": 0.0, "lat": 38.8980565, "type": "electric_scooter", "fusion_lat": 0.0, "bike_id": "ce434b40f63aad3df95e380e046e9cd0"}, {"name": "627de0d4e5bb080d10748330423b921e", "is_reserved": 0, "is_disabled": 0, "lon": -76.94763266666666, "rental_uris": {"android": "https://dc.lft.to/lastmile_qr_scan", "ios": "https://dc.lft.to/lastmile_qr_scan"}, "fusion_lon": 0.0, "lat": 38.89635, "type": "electric_bike", "fusion_lat": 0.0, "bike_id": "627de0d4e5bb080d10748330423b921e"}, {"name": "5942ae9d4eaab4ecbabf6cd67e12ed07", "is_reserved": 0, "is_disabled": 0, "lon": -77.03625416666667, "rental_uris": {"android": "https://dc.lft.to/lastmile_qr_scan", "ios": "https://dc.lft.to/lastmile_qr_scan"}, "fusion_lon": 0.0, "lat": 38.9026765, "type": "electric_scooter", "fusion_lat": 0.0, "bike_id": "5942ae9d4eaab4ecbabf6cd67e12ed07"}, {"name": "03a81e01db23d8cfd13e52b63909f715", "is_reserved": 0, "is_disabled": 0, "lon": -77.02741033333334, "rental_uris": {"android": "https://dc.lft.to/lastmile_qr_scan", "ios": "https://dc.lft.to/lastmile_qr_scan"}, "fusion_lon": 0.0, "lat": 38.92409816666667, "type": "electric_scooter", "fusion_lat": 0.0, "bike_id": "03a81e01db23d8cfd13e52b63909f715"}, {"name": "ffded15cb533b514f6f17a1522af69e6", "is_reserved": 0, "is_disabled": 0, "lon": -76.98461133333333, "rental_uris": {"android": "https://dc.lft.to/lastmile_qr_scan", "ios": "https://dc.lft.to/lastmile_qr_scan"}, "fusion_lon": 0.0, "lat": 38.8936895, "type": "electric_scooter", "fusion_lat": 0.0, "bike_id": "ffded15cb533b514f6f17a1522af69e6"}, {"name": "e039733535c8716686601a14ddad0b29", "is_reserved": 0, "is_disabled": 0, "lon": -76.99078883333334, "rental_uris": {"android": "https://dc.lft.to/lastmile_qr_scan", "ios": "https://dc.lft.to/lastmile_qr_scan"}, "fusion_lon": 0.0, "lat": 38.84291416666667, "type": "electric_scooter", "fusion_lat": 0.0, "bike_id": "e039733535c8716686601a14ddad0b29"}, {"name": "cff25e71140b3712389fe9c473ce66c1", "is_reserved": 0, "is_disabled": 0, "lon": -77.0034705, "rental_uris": {"android": "https://dc.lft.to/lastmile_qr_scan", "ios": "https://dc.lft.to/lastmile_qr_scan"}, "fusion_lon": 0.0, "lat": 38.879475166666666, "type": "electric_scooter", "fusion_lat": 0.0, "bike_id": "cff25e71140b3712389fe9c473ce66c1"}, {"name": "17ca8c9dea722ebf916e36b32b97cbf4", "is_reserved": 0, "is_disabled": 0, "lon": -77.025102, "rental_uris": {"android": "https://dc.lft.to/lastmile_qr_scan", "ios": "https://dc.lft.to/lastmile_qr_scan"}, "fusion_lon": 0.0, "lat": 38.923999333333335, "type": "electric_scooter", "fusion_lat": 0.0, "bike_id": "17ca8c9dea722ebf916e36b32b97cbf4"}, {"name": "0dd013781238d1ab5bde27c208e300f6", "is_reserved": 0, "is_disabled": 0, "lon": -77.0045575, "rental_uris": {"android": "https://dc.lft.to/lastmile_qr_scan", "ios": "https://dc.lft.to/lastmile_qr_scan"}, "fusion_lon": 0.0, "lat": 38.91181, "type": "electric_scooter", "fusion_lat": 0.0, "bike_id": "0dd013781238d1ab5bde27c208e300f6"}, {"name": "f85389e314f853cbc6d179afdfcad3f7", "is_reserved": 0, "is_disabled": 0, "lon": -77.02038316666666, "rental_uris": {"android": "https://dc.lft.to/lastmile_qr_scan", "ios": "https://dc.lft.to/lastmile_qr_scan"}, "fusion_lon": 0.0, "lat": 38.892712333333336, "type": "electric_scooter", "fusion_lat": 0.0, "bike_id": "f85389e314f853cbc6d179afdfcad3f7"}, {"name": "924db1b07d5b33c5564ef508e76aab69", "is_reserved": 0, "is_disabled": 0, "lon": -77.04592266666667, "rental_uris": {"android": "https://dc.lft.to/lastmile_qr_scan", "ios": "https://dc.lft.to/lastmile_qr_scan"}, "fusion_lon": 0.0, "lat": 38.92135666666667, "type": "electric_scooter", "fusion_lat": 0.0, "bike_id": "924db1b07d5b33c5564ef508e76aab69"}, {"name": "933ebd8e148455213b75dfee48828415", "is_reserved": 0, "is_disabled": 0, "lon": -77.0279415, "rental_uris": {"android": "https://dc.lft.to/lastmile_qr_scan", "ios": "https://dc.lft.to/lastmile_qr_scan"}, "fusion_lon": 0.0, "lat": 38.96086233333333, "type": "electric_scooter", "fusion_lat": 0.0, "bike_id": "933ebd8e148455213b75dfee48828415"}, {"name": "dfd480512f7a9bdf87018323675f5fbe", "is_reserved": 0, "is_disabled": 0, "lon": -77.03168233333334, "rental_uris": {"android": "https://dc.lft.to/lastmile_qr_scan", "ios": "https://dc.lft.to/lastmile_qr_scan"}, "fusion_lon": 0.0, "lat": 38.914053333333335, "type": "electric_scooter", "fusion_lat": 0.0, "bike_id": "dfd480512f7a9bdf87018323675f5fbe"}, {"name": "38b4d7dbaf4bf41be4fb70d2f336abe9", "is_reserved": 0, "is_disabled": 0, "lon": -77.0266045, "rental_uris": {"android": "https://dc.lft.to/lastmile_qr_scan", "ios": "https://dc.lft.to/lastmile_qr_scan"}, "fusion_lon": 0.0, "lat": 38.9794025, "type": "electric_scooter", "fusion_lat": 0.0, "bike_id": "38b4d7dbaf4bf41be4fb70d2f336abe9"}, {"name": "8c9a0c6ee10397f462ac7ea38880768e", "is_reserved": 0, "is_disabled": 0, "lon": -77.023552, "rental_uris": {"android": "https://dc.lft.to/lastmile_qr_scan", "ios": "https://dc.lft.to/lastmile_qr_scan"}, "fusion_lon": 0.0, "lat": 38.93319916666667, "type": "electric_scooter", "fusion_lat": 0.0, "bike_id": "8c9a0c6ee10397f462ac7ea38880768e"}, {"name": "53e994bda4c103004048e49957e9933f", "is_reserved": 0, "is_disabled": 0, "lon": -77.02449283333333, "rental_uris": {"android": "https://dc.lft.to/lastmile_qr_scan", "ios": "https://dc.lft.to/lastmile_qr_scan"}, "fusion_lon": 0.0, "lat": 38.927961833333335, "type": "electric_scooter", "fusion_lat": 0.0, "bike_id": "53e994bda4c103004048e49957e9933f"}, {"name": "f0f33864caeadeb21691ce41b26aec0b", "is_reserved": 0, "is_disabled": 0, "lon": -77.03453533333334, "rental_uris": {"android": "https://dc.lft.to/lastmile_qr_scan", "ios": "https://dc.lft.to/lastmile_qr_scan"}, "fusion_lon": 0.0, "lat": 38.90483316666667, "type": "electric_scooter", "fusion_lat": 0.0, "bike_id": "f0f33864caeadeb21691ce41b26aec0b"}, {"name": "f5e769e2afa0c03250d2cb2344bb03b1", "is_reserved": 0, "is_disabled": 0, "lon": -77.03147266666667, "rental_uris": {"android": "https://dc.lft.to/lastmile_qr_scan", "ios": "https://dc.lft.to/lastmile_qr_scan"}, "fusion_lon": 0.0, "lat": 38.912671, "type": "electric_scooter", "fusion_lat": 0.0, "bike_id": "f5e769e2afa0c03250d2cb2344bb03b1"}, {"name": "956c258e3c7423a641711c685b01d678", "is_reserved": 0, "is_disabled": 0, "lon": -77.00791166666667, "rental_uris": {"android": "https://dc.lft.to/lastmile_qr_scan", "ios": "https://dc.lft.to/lastmile_qr_scan"}, "fusion_lon": 0.0, "lat": 38.896810333333335, "type": "electric_scooter", "fusion_lat": 0.0, "bike_id": "956c258e3c7423a641711c685b01d678"}, {"name": "871ac6218e453ebbc3a4dec97204b3b3", "is_reserved": 0, "is_disabled": 0, "lon": -77.03264783333333, "rental_uris": {"android": "https://dc.lft.to/lastmile_qr_scan", "ios": "https://dc.lft.to/lastmile_qr_scan"}, "fusion_lon": 0.0, "lat": 38.932126333333336, "type": "electric_scooter", "fusion_lat": 0.0, "bike_id": "871ac6218e453ebbc3a4dec97204b3b3"}, {"name": "85b3ceef79a613e9285b99efc795df10", "is_reserved": 0, "is_disabled": 0, "lon": -76.98825683333334, "rental_uris": {"android": "https://dc.lft.to/lastmile_qr_scan", "ios": "https://dc.lft.to/lastmile_qr_scan"}, "fusion_lon": 0.0, "lat": 38.985639166666665, "type": "electric_bike", "fusion_lat": 0.0, "bike_id": "85b3ceef79a613e9285b99efc795df10"}, {"name": "d92da3716663d9fd8aefa7b241c3e859", "is_reserved": 0, "is_disabled": 0, "lon": -77.04345416666666, "rental_uris": {"android": "https://dc.lft.to/lastmile_qr_scan", "ios": "https://dc.lft.to/lastmile_qr_scan"}, "fusion_lon": 0.0, "lat": 38.901331, "type": "electric_scooter", "fusion_lat": 0.0, "bike_id": "d92da3716663d9fd8aefa7b241c3e859"}, {"name": "53b0f1403d71db685abf8c0073f9796b", "is_reserved": 0, "is_disabled": 0, "lon": -77.048184, "rental_uris": {"android": "https://dc.lft.to/lastmile_qr_scan", "ios": "https://dc.lft.to/lastmile_qr_scan"}, "fusion_lon": 0.0, "lat": 38.90061716666666, "type": "electric_scooter", "fusion_lat": 0.0, "bike_id": "53b0f1403d71db685abf8c0073f9796b"}, {"name": "e8e8d5466e8c8cdff2aebcdd2b68fd12", "is_reserved": 0, "is_disabled": 0, "lon": -77.02824, "rental_uris": {"android": "https://dc.lft.to/lastmile_qr_scan", "ios": "https://dc.lft.to/lastmile_qr_scan"}, "fusion_lon": 0.0, "lat": 38.932865, "type": "electric_scooter", "fusion_lat": 0.0, "bike_id": "e8e8d5466e8c8cdff2aebcdd2b68fd12"}, {"name": "88a8ebb7a6b1313193573cf7f07e8719", "is_reserved": 0, "is_disabled": 0, "lon": -77.01373633333333, "rental_uris": {"android": "https://dc.lft.to/lastmile_qr_scan", "ios": "https://dc.lft.to/lastmile_qr_scan"}, "fusion_lon": 0.0, "lat": 38.89222066666667, "type": "electric_scooter", "fusion_lat": 0.0, "bike_id": "88a8ebb7a6b1313193573cf7f07e8719"}, {"name": "ad4c8ac127949cc24677be491eede4cc", "is_reserved": 0, "is_disabled": 0, "lon": -77.032038, "rental_uris": {"android": "https://dc.lft.to/lastmile_qr_scan", "ios": "https://dc.lft.to/lastmile_qr_scan"}, "fusion_lon": 0.0, "lat": 38.914274166666665, "type": "electric_scooter", "fusion_lat": 0.0, "bike_id": "ad4c8ac127949cc24677be491eede4cc"}, {"name": "6390afece10b4cfebbc7a113a6b97775", "is_reserved": 0, "is_disabled": 0, "lon": -77.03347333333333, "rental_uris": {"android": "https://dc.lft.to/lastmile_qr_scan", "ios": "https://dc.lft.to/lastmile_qr_scan"}, "fusion_lon": 0.0, "lat": 38.901384666666665, "type": "electric_scooter", "fusion_lat": 0.0, "bike_id": "6390afece10b4cfebbc7a113a6b97775"}, {"name": "5a3c9327c634cb8dbb527a07a6da0e2d", "is_reserved": 0, "is_disabled": 0, "lon": -77.02428233333333, "rental_uris": {"android": "https://dc.lft.to/lastmile_qr_scan", "ios": "https://dc.lft.to/lastmile_qr_scan"}, "fusion_lon": 0.0, "lat": 38.92031816666667, "type": "electric_scooter", "fusion_lat": 0.0, "bike_id": "5a3c9327c634cb8dbb527a07a6da0e2d"}, {"name": "d02e9c3d0eed949cc3210c869c961019", "is_reserved": 0, "is_disabled": 0, "lon": -77.02167533333333, "rental_uris": {"android": "https://dc.lft.to/lastmile_qr_scan", "ios": "https://dc.lft.to/lastmile_qr_scan"}, "fusion_lon": 0.0, "lat": 38.88741983333333, "type": "electric_scooter", "fusion_lat": 0.0, "bike_id": "d02e9c3d0eed949cc3210c869c961019"}, {"name": "9c2e5f17e0d0a52072d798a0a79b0cb5", "is_reserved": 0, "is_disabled": 0, "lon": -76.9053405, "rental_uris": {"android": "https://dc.lft.to/lastmile_qr_scan", "ios": "https://dc.lft.to/lastmile_qr_scan"}, "fusion_lon": 0.0, "lat": 38.89734716666667, "type": "electric_bike", "fusion_lat": 0.0, "bike_id": "9c2e5f17e0d0a52072d798a0a79b0cb5"}, {"name": "eacf0eca9fee0b0c24e7f16608afb33f", "is_reserved": 0, "is_disabled": 0, "lon": -77.04172183333333, "rental_uris": {"android": "https://dc.lft.to/lastmile_qr_scan", "ios": "https://dc.lft.to/lastmile_qr_scan"}, "fusion_lon": 0.0, "lat": 38.91137166666667, "type": "electric_scooter", "fusion_lat": 0.0, "bike_id": "eacf0eca9fee0b0c24e7f16608afb33f"}, {"name": "79ff078aa8d7771a7a343a55e2d72cf9", "is_reserved": 0, "is_disabled": 0, "lon": -77.0489635, "rental_uris": {"android": "https://dc.lft.to/lastmile_qr_scan", "ios": "https://dc.lft.to/lastmile_qr_scan"}, "fusion_lon": 0.0, "lat": 38.89007383333333, "type": "electric_scooter", "fusion_lat": 0.0, "bike_id": "79ff078aa8d7771a7a343a55e2d72cf9"}, {"name": "161e8ec5455dd781a5d6fc3c18e0ecdd", "is_reserved": 0, "is_disabled": 0, "lon": -77.04272933333333, "rental_uris": {"android": "https://dc.lft.to/lastmile_qr_scan", "ios": "https://dc.lft.to/lastmile_qr_scan"}, "fusion_lon": 0.0, "lat": 38.897357666666664, "type": "electric_scooter", "fusion_lat": 0.0, "bike_id": "161e8ec5455dd781a5d6fc3c18e0ecdd"}, {"name": "18d8fdc75707d7f704cc7a1e2b8fded9", "is_reserved": 0, "is_disabled": 0, "lon": -77.0366045, "rental_uris": {"android": "https://dc.lft.to/lastmile_qr_scan", "ios": "https://dc.lft.to/lastmile_qr_scan"}, "fusion_lon": 0.0, "lat": 38.917232166666665, "type": "electric_scooter", "fusion_lat": 0.0, "bike_id": "18d8fdc75707d7f704cc7a1e2b8fded9"}, {"name": "aa6fe8f7098b8ee7439e911d3b69d14c", "is_reserved": 0, "is_disabled": 0, "lon": -77.04327333333333, "rental_uris": {"android": "https://dc.lft.to/lastmile_qr_scan", "ios": "https://dc.lft.to/lastmile_qr_scan"}, "fusion_lon": 0.0, "lat": 38.90414616666666, "type": "electric_scooter", "fusion_lat": 0.0, "bike_id": "aa6fe8f7098b8ee7439e911d3b69d14c"}, {"name": "104b73a6b7a0942411d0faad5b652a3a", "is_reserved": 0, "is_disabled": 0, "lon": -76.99158933333334, "rental_uris": {"android": "https://dc.lft.to/lastmile_qr_scan", "ios": "https://dc.lft.to/lastmile_qr_scan"}, "fusion_lon": 0.0, "lat": 38.88214983333334, "type": "electric_scooter", "fusion_lat": 0.0, "bike_id": "104b73a6b7a0942411d0faad5b652a3a"}, {"name": "a3b24e84a95b542a35ce4ec28b130e96", "is_reserved": 0, "is_disabled": 0, "lon": -77.0324815, "rental_uris": {"android": "https://dc.lft.to/lastmile_qr_scan", "ios": "https://dc.lft.to/lastmile_qr_scan"}, "fusion_lon": 0.0, "lat": 38.90556183333333, "type": "electric_scooter", "fusion_lat": 0.0, "bike_id": "a3b24e84a95b542a35ce4ec28b130e96"}, {"name": "9d1371a54601bfb81dd40869c094fdbb", "is_reserved": 0, "is_disabled": 0, "lon": -77.0312215, "rental_uris": {"android": "https://dc.lft.to/lastmile_qr_scan", "ios": "https://dc.lft.to/lastmile_qr_scan"}, "fusion_lon": 0.0, "lat": 38.920238166666664, "type": "electric_scooter", "fusion_lat": 0.0, "bike_id": "9d1371a54601bfb81dd40869c094fdbb"}, {"name": "9b5983b83cfa04c3320e2a5e8fec3c2e", "is_reserved": 0, "is_disabled": 0, "lon": -76.99363866666667, "rental_uris": {"android": "https://dc.lft.to/lastmile_qr_scan", "ios": "https://dc.lft.to/lastmile_qr_scan"}, "fusion_lon": 0.0, "lat": 38.928430166666665, "type": "electric_scooter", "fusion_lat": 0.0, "bike_id": "9b5983b83cfa04c3320e2a5e8fec3c2e"}, {"name": "e73d2da710b54ff062c7beccdb096684", "is_reserved": 0, "is_disabled": 0, "lon": -76.99005783333334, "rental_uris": {"android": "https://dc.lft.to/lastmile_qr_scan", "ios": "https://dc.lft.to/lastmile_qr_scan"}, "fusion_lon": 0.0, "lat": 38.865091, "type": "electric_scooter", "fusion_lat": 0.0, "bike_id": "e73d2da710b54ff062c7beccdb096684"}, {"name": "6efa2ba2cd53a49e347a3a6a6d4766c4", "is_reserved": 0, "is_disabled": 0, "lon": -77.02297233333333, "rental_uris": {"android": "https://dc.lft.to/lastmile_qr_scan", "ios": "https://dc.lft.to/lastmile_qr_scan"}, "fusion_lon": 0.0, "lat": 38.91718783333334, "type": "electric_scooter", "fusion_lat": 0.0, "bike_id": "6efa2ba2cd53a49e347a3a6a6d4766c4"}, {"name": "880b537242c8e5afee78ba8dd6c157fd", "is_reserved": 0, "is_disabled": 0, "lon": -76.99083616666667, "rental_uris": {"android": "https://dc.lft.to/lastmile_qr_scan", "ios": "https://dc.lft.to/lastmile_qr_scan"}, "fusion_lon": 0.0, "lat": 38.8605375, "type": "electric_scooter", "fusion_lat": 0.0, "bike_id": "880b537242c8e5afee78ba8dd6c157fd"}, {"name": "2d290673220778f624b0abfd7b5f7a6d", "is_reserved": 0, "is_disabled": 0, "lon": -76.99939333333333, "rental_uris": {"android": "https://dc.lft.to/lastmile_qr_scan", "ios": "https://dc.lft.to/lastmile_qr_scan"}, "fusion_lon": 0.0, "lat": 38.84320916666667, "type": "electric_scooter", "fusion_lat": 0.0, "bike_id": "2d290673220778f624b0abfd7b5f7a6d"}, {"name": "37399cadd0d6fd374b5005a802473c42", "is_reserved": 0, "is_disabled": 0, "lon": -77.01207633333334, "rental_uris": {"android": "https://dc.lft.to/lastmile_qr_scan", "ios": "https://dc.lft.to/lastmile_qr_scan"}, "fusion_lon": 0.0, "lat": 38.925863, "type": "electric_scooter", "fusion_lat": 0.0, "bike_id": "37399cadd0d6fd374b5005a802473c42"}, {"name": "06f049d74ae33dbc4da80e0117290d30", "is_reserved": 0, "is_disabled": 0, "lon": -77.01998716666667, "rental_uris": {"android": "https://dc.lft.to/lastmile_qr_scan", "ios": "https://dc.lft.to/lastmile_qr_scan"}, "fusion_lon": 0.0, "lat": 38.96637966666667, "type": "electric_scooter", "fusion_lat": 0.0, "bike_id": "06f049d74ae33dbc4da80e0117290d30"}, {"name": "d399d2a4feb020b8ee4c0765ef103951", "is_reserved": 0, "is_disabled": 0, "lon": -77.013242, "rental_uris": {"android": "https://dc.lft.to/lastmile_qr_scan", "ios": "https://dc.lft.to/lastmile_qr_scan"}, "fusion_lon": 0.0, "lat": 38.892300166666665, "type": "electric_scooter", "fusion_lat": 0.0, "bike_id": "d399d2a4feb020b8ee4c0765ef103951"}, {"name": "b1f10f4c10a152ade052da7f246eaced", "is_reserved": 0, "is_disabled": 0, "lon": -77.046489, "rental_uris": {"android": "https://dc.lft.to/lastmile_qr_scan", "ios": "https://dc.lft.to/lastmile_qr_scan"}, "fusion_lon": 0.0, "lat": 38.900044333333334, "type": "electric_scooter", "fusion_lat": 0.0, "bike_id": "b1f10f4c10a152ade052da7f246eaced"}, {"name": "468a89d71b5043a10add3ff11cef79e1", "is_reserved": 0, "is_disabled": 0, "lon": -76.98332833333333, "rental_uris": {"android": "https://dc.lft.to/lastmile_qr_scan", "ios": "https://dc.lft.to/lastmile_qr_scan"}, "fusion_lon": 0.0, "lat": 38.889876, "type": "electric_scooter", "fusion_lat": 0.0, "bike_id": "468a89d71b5043a10add3ff11cef79e1"}, {"name": "156e1ef01ce3043322c7ee2fa4fa0bc1", "is_reserved": 0, "is_disabled": 0, "lon": -77.0639845, "rental_uris": {"android": "https://dc.lft.to/lastmile_qr_scan", "ios": "https://dc.lft.to/lastmile_qr_scan"}, "fusion_lon": 0.0, "lat": 38.90929966666667, "type": "electric_scooter", "fusion_lat": 0.0, "bike_id": "156e1ef01ce3043322c7ee2fa4fa0bc1"}, {"name": "e8265933c14b8a7ddacb5da6c211958d", "is_reserved": 0, "is_disabled": 0, "lon": -77.04774383333333, "rental_uris": {"android": "https://dc.lft.to/lastmile_qr_scan", "ios": "https://dc.lft.to/lastmile_qr_scan"}, "fusion_lon": 0.0, "lat": 38.917741666666664, "type": "electric_scooter", "fusion_lat": 0.0, "bike_id": "e8265933c14b8a7ddacb5da6c211958d"}, {"name": "b4a2d9ba52fc6a9dbc1d37ec066f44ef", "is_reserved": 0, "is_disabled": 0, "lon": -76.9909575, "rental_uris": {"android": "https://dc.lft.to/lastmile_qr_scan", "ios": "https://dc.lft.to/lastmile_qr_scan"}, "fusion_lon": 0.0, "lat": 38.86357016666667, "type": "electric_scooter", "fusion_lat": 0.0, "bike_id": "b4a2d9ba52fc6a9dbc1d37ec066f44ef"}, {"name": "3d9957ca7143de2ca86c107ef34f3e33", "is_reserved": 0, "is_disabled": 0, "lon": -77.0341215, "rental_uris": {"android": "https://dc.lft.to/lastmile_qr_scan", "ios": "https://dc.lft.to/lastmile_qr_scan"}, "fusion_lon": 0.0, "lat": 38.931772, "type": "electric_scooter", "fusion_lat": 0.0, "bike_id": "3d9957ca7143de2ca86c107ef34f3e33"}, {"name": "7ec3e5d36a21b5ef65bd5466f49329e7", "is_reserved": 0, "is_disabled": 0, "lon": -77.02950816666667, "rental_uris": {"android": "https://dc.lft.to/lastmile_qr_scan", "ios": "https://dc.lft.to/lastmile_qr_scan"}, "fusion_lon": 0.0, "lat": 38.8963065, "type": "electric_scooter", "fusion_lat": 0.0, "bike_id": "7ec3e5d36a21b5ef65bd5466f49329e7"}, {"name": "56a91240bb1244b4e0e5f924b727c6d4", "is_reserved": 0, "is_disabled": 0, "lon": -77.000237, "rental_uris": {"android": "https://dc.lft.to/lastmile_qr_scan", "ios": "https://dc.lft.to/lastmile_qr_scan"}, "fusion_lon": 0.0, "lat": 38.900271333333336, "type": "electric_scooter", "fusion_lat": 0.0, "bike_id": "56a91240bb1244b4e0e5f924b727c6d4"}, {"name": "f66ba3f6c354e97c0d72b88f095cd382", "is_reserved": 0, "is_disabled": 0, "lon": -77.0033135, "rental_uris": {"android": "https://dc.lft.to/lastmile_qr_scan", "ios": "https://dc.lft.to/lastmile_qr_scan"}, "fusion_lon": 0.0, "lat": 38.8937085, "type": "electric_scooter", "fusion_lat": 0.0, "bike_id": "f66ba3f6c354e97c0d72b88f095cd382"}, {"name": "413e63ea2abe00c9e98a08f2923d385a", "is_reserved": 0, "is_disabled": 0, "lon": -77.08441583333334, "rental_uris": {"android": "https://dc.lft.to/lastmile_qr_scan", "ios": "https://dc.lft.to/lastmile_qr_scan"}, "fusion_lon": 0.0, "lat": 38.911773833333335, "type": "electric_scooter", "fusion_lat": 0.0, "bike_id": "413e63ea2abe00c9e98a08f2923d385a"}, {"name": "d1743a6540c6a282bc972f83d0152ecd", "is_reserved": 0, "is_disabled": 0, "lon": -77.04500483333334, "rental_uris": {"android": "https://dc.lft.to/lastmile_qr_scan", "ios": "https://dc.lft.to/lastmile_qr_scan"}, "fusion_lon": 0.0, "lat": 38.90378533333333, "type": "electric_scooter", "fusion_lat": 0.0, "bike_id": "d1743a6540c6a282bc972f83d0152ecd"}, {"name": "41097dc12ec5021535a4a3978fa7b444", "is_reserved": 0, "is_disabled": 0, "lon": -76.99562416666667, "rental_uris": {"android": "https://dc.lft.to/lastmile_qr_scan", "ios": "https://dc.lft.to/lastmile_qr_scan"}, "fusion_lon": 0.0, "lat": 38.85768566666667, "type": "electric_scooter", "fusion_lat": 0.0, "bike_id": "41097dc12ec5021535a4a3978fa7b444"}, {"name": "1d43e36fc421590b9a3739fb60e7fc02", "is_reserved": 0, "is_disabled": 0, "lon": -77.01703083333334, "rental_uris": {"android": "https://dc.lft.to/lastmile_qr_scan", "ios": "https://dc.lft.to/lastmile_qr_scan"}, "fusion_lon": 0.0, "lat": 38.920356166666664, "type": "electric_scooter", "fusion_lat": 0.0, "bike_id": "1d43e36fc421590b9a3739fb60e7fc02"}, {"name": "397c2a31327965194049b41d2fe8c8cb", "is_reserved": 0, "is_disabled": 0, "lon": -77.00480433333334, "rental_uris": {"android": "https://dc.lft.to/lastmile_qr_scan", "ios": "https://dc.lft.to/lastmile_qr_scan"}, "fusion_lon": 0.0, "lat": 38.876968, "type": "electric_scooter", "fusion_lat": 0.0, "bike_id": "397c2a31327965194049b41d2fe8c8cb"}, {"name": "9f92cf1985f1afea1408bc6e25cd5ac0", "is_reserved": 0, "is_disabled": 0, "lon": -77.02433183333333, "rental_uris": {"android": "https://dc.lft.to/lastmile_qr_scan", "ios": "https://dc.lft.to/lastmile_qr_scan"}, "fusion_lon": 0.0, "lat": 38.920507, "type": "electric_scooter", "fusion_lat": 0.0, "bike_id": "9f92cf1985f1afea1408bc6e25cd5ac0"}, {"name": "c6f9ba1b98017c04e06974012cf7de51", "is_reserved": 0, "is_disabled": 0, "lon": -76.99519066666667, "rental_uris": {"android": "https://dc.lft.to/lastmile_qr_scan", "ios": "https://dc.lft.to/lastmile_qr_scan"}, "fusion_lon": 0.0, "lat": 38.862572, "type": "electric_scooter", "fusion_lat": 0.0, "bike_id": "c6f9ba1b98017c04e06974012cf7de51"}, {"name": "61bd8899d22631e4cc2c77eb7a1455a7", "is_reserved": 0, "is_disabled": 0, "lon": -77.00590116666666, "rental_uris": {"android": "https://dc.lft.to/lastmile_qr_scan", "ios": "https://dc.lft.to/lastmile_qr_scan"}, "fusion_lon": 0.0, "lat": 38.90560683333333, "type": "electric_scooter", "fusion_lat": 0.0, "bike_id": "61bd8899d22631e4cc2c77eb7a1455a7"}, {"name": "569a4b80b92efca9bc0e260cbbcfc6cd", "is_reserved": 0, "is_disabled": 0, "lon": -77.02649366666667, "rental_uris": {"android": "https://dc.lft.to/lastmile_qr_scan", "ios": "https://dc.lft.to/lastmile_qr_scan"}, "fusion_lon": 0.0, "lat": 38.902615, "type": "electric_scooter", "fusion_lat": 0.0, "bike_id": "569a4b80b92efca9bc0e260cbbcfc6cd"}, {"name": "49aad3285f1a82e68e11058becd7d6bd", "is_reserved": 0, "is_disabled": 0, "lon": -77.0482505, "rental_uris": {"android": "https://dc.lft.to/lastmile_qr_scan", "ios": "https://dc.lft.to/lastmile_qr_scan"}, "fusion_lon": 0.0, "lat": 38.914849833333335, "type": "electric_scooter", "fusion_lat": 0.0, "bike_id": "49aad3285f1a82e68e11058becd7d6bd"}, {"name": "3c14ba1fec123864acde9a06d2b7f9fd", "is_reserved": 0, "is_disabled": 0, "lon": -77.03484366666666, "rental_uris": {"android": "https://dc.lft.to/lastmile_qr_scan", "ios": "https://dc.lft.to/lastmile_qr_scan"}, "fusion_lon": 0.0, "lat": 38.911149, "type": "electric_scooter", "fusion_lat": 0.0, "bike_id": "3c14ba1fec123864acde9a06d2b7f9fd"}, {"name": "f92a4243b8ec99f9f9327cc02d88ba80", "is_reserved": 0, "is_disabled": 0, "lon": -77.04623883333333, "rental_uris": {"android": "https://dc.lft.to/lastmile_qr_scan", "ios": "https://dc.lft.to/lastmile_qr_scan"}, "fusion_lon": 0.0, "lat": 38.91911016666667, "type": "electric_scooter", "fusion_lat": 0.0, "bike_id": "f92a4243b8ec99f9f9327cc02d88ba80"}, {"name": "80af93373a7c646545583171970af099", "is_reserved": 0, "is_disabled": 0, "lon": -77.00056233333333, "rental_uris": {"android": "https://dc.lft.to/lastmile_qr_scan", "ios": "https://dc.lft.to/lastmile_qr_scan"}, "fusion_lon": 0.0, "lat": 38.876612333333334, "type": "electric_scooter", "fusion_lat": 0.0, "bike_id": "80af93373a7c646545583171970af099"}, {"name": "3b2d8ddb7b023b58f5b18ff3531bfb92", "is_reserved": 0, "is_disabled": 0, "lon": -77.03443916666667, "rental_uris": {"android": "https://dc.lft.to/lastmile_qr_scan", "ios": "https://dc.lft.to/lastmile_qr_scan"}, "fusion_lon": 0.0, "lat": 38.918024833333334, "type": "electric_scooter", "fusion_lat": 0.0, "bike_id": "3b2d8ddb7b023b58f5b18ff3531bfb92"}, {"name": "0882c1ffe4dc7334647afbcb1f73fccf", "is_reserved": 0, "is_disabled": 0, "lon": -77.00882933333334, "rental_uris": {"android": "https://dc.lft.to/lastmile_qr_scan", "ios": "https://dc.lft.to/lastmile_qr_scan"}, "fusion_lon": 0.0, "lat": 38.9057835, "type": "electric_scooter", "fusion_lat": 0.0, "bike_id": "0882c1ffe4dc7334647afbcb1f73fccf"}, {"name": "108fab69f323bfe8afacf655a84aecb8", "is_reserved": 0, "is_disabled": 0, "lon": -77.02959383333334, "rental_uris": {"android": "https://dc.lft.to/lastmile_qr_scan", "ios": "https://dc.lft.to/lastmile_qr_scan"}, "fusion_lon": 0.0, "lat": 38.921460333333336, "type": "electric_scooter", "fusion_lat": 0.0, "bike_id": "108fab69f323bfe8afacf655a84aecb8"}, {"name": "2db4b059f1dbba645c068ad9bad88379", "is_reserved": 0, "is_disabled": 0, "lon": -76.99489016666666, "rental_uris": {"android": "https://dc.lft.to/lastmile_qr_scan", "ios": "https://dc.lft.to/lastmile_qr_scan"}, "fusion_lon": 0.0, "lat": 38.8624495, "type": "electric_scooter", "fusion_lat": 0.0, "bike_id": "2db4b059f1dbba645c068ad9bad88379"}, {"name": "35c7f62b3e9721bef4951f3b04dd4755", "is_reserved": 0, "is_disabled": 0, "lon": -77.02487816666667, "rental_uris": {"android": "https://dc.lft.to/lastmile_qr_scan", "ios": "https://dc.lft.to/lastmile_qr_scan"}, "fusion_lon": 0.0, "lat": 38.941970833333336, "type": "electric_scooter", "fusion_lat": 0.0, "bike_id": "35c7f62b3e9721bef4951f3b04dd4755"}, {"name": "8eeefc3256aec38961450b5060f1a84e", "is_reserved": 0, "is_disabled": 0, "lon": -77.027455, "rental_uris": {"android": "https://dc.lft.to/lastmile_qr_scan", "ios": "https://dc.lft.to/lastmile_qr_scan"}, "fusion_lon": 0.0, "lat": 38.95608033333333, "type": "electric_scooter", "fusion_lat": 0.0, "bike_id": "8eeefc3256aec38961450b5060f1a84e"}, {"name": "9d9bca79cf1e000a51c0be628f95a63c", "is_reserved": 0, "is_disabled": 0, "lon": -76.94852333333333, "rental_uris": {"android": "https://dc.lft.to/lastmile_qr_scan", "ios": "https://dc.lft.to/lastmile_qr_scan"}, "fusion_lon": 0.0, "lat": 38.88303366666667, "type": "electric_scooter", "fusion_lat": 0.0, "bike_id": "9d9bca79cf1e000a51c0be628f95a63c"}, {"name": "8ec096e485e00737fc5786223ba9daa0", "is_reserved": 0, "is_disabled": 0, "lon": -77.03200233333334, "rental_uris": {"android": "https://dc.lft.to/lastmile_qr_scan", "ios": "https://dc.lft.to/lastmile_qr_scan"}, "fusion_lon": 0.0, "lat": 38.89862566666667, "type": "electric_scooter", "fusion_lat": 0.0, "bike_id": "8ec096e485e00737fc5786223ba9daa0"}, {"name": "312ce50f7500a5c52a1fccf51c60d562", "is_reserved": 0, "is_disabled": 0, "lon": -77.01375083333333, "rental_uris": {"android": "https://dc.lft.to/lastmile_qr_scan", "ios": "https://dc.lft.to/lastmile_qr_scan"}, "fusion_lon": 0.0, "lat": 38.88641333333333, "type": "electric_scooter", "fusion_lat": 0.0, "bike_id": "312ce50f7500a5c52a1fccf51c60d562"}, {"name": "eac63937fd9f08fefe37920fd03633d1", "is_reserved": 0, "is_disabled": 0, "lon": -77.05518783333333, "rental_uris": {"android": "https://dc.lft.to/lastmile_qr_scan", "ios": "https://dc.lft.to/lastmile_qr_scan"}, "fusion_lon": 0.0, "lat": 38.94412633333334, "type": "electric_scooter", "fusion_lat": 0.0, "bike_id": "eac63937fd9f08fefe37920fd03633d1"}, {"name": "7d998a10abeac7fa268c960fccbbe4af", "is_reserved": 0, "is_disabled": 0, "lon": -77.04187266666666, "rental_uris": {"android": "https://dc.lft.to/lastmile_qr_scan", "ios": "https://dc.lft.to/lastmile_qr_scan"}, "fusion_lon": 0.0, "lat": 38.90521533333333, "type": "electric_scooter", "fusion_lat": 0.0, "bike_id": "7d998a10abeac7fa268c960fccbbe4af"}, {"name": "c4d17cd5cc151a4d8ac39859a821ddc5", "is_reserved": 0, "is_disabled": 0, "lon": -77.03147016666667, "rental_uris": {"android": "https://dc.lft.to/lastmile_qr_scan", "ios": "https://dc.lft.to/lastmile_qr_scan"}, "fusion_lon": 0.0, "lat": 38.8874885, "type": "electric_scooter", "fusion_lat": 0.0, "bike_id": "c4d17cd5cc151a4d8ac39859a821ddc5"}, {"name": "806c6fbbf8551f17b799fb4b438890c7", "is_reserved": 0, "is_disabled": 0, "lon": -77.0629625, "rental_uris": {"android": "https://dc.lft.to/lastmile_qr_scan", "ios": "https://dc.lft.to/lastmile_qr_scan"}, "fusion_lon": 0.0, "lat": 38.903991, "type": "electric_scooter", "fusion_lat": 0.0, "bike_id": "806c6fbbf8551f17b799fb4b438890c7"}, {"name": "16ddafd971a46bf3ad4ad8c5e4531850", "is_reserved": 0, "is_disabled": 0, "lon": -77.04247616666666, "rental_uris": {"android": "https://dc.lft.to/lastmile_qr_scan", "ios": "https://dc.lft.to/lastmile_qr_scan"}, "fusion_lon": 0.0, "lat": 38.9223885, "type": "electric_scooter", "fusion_lat": 0.0, "bike_id": "16ddafd971a46bf3ad4ad8c5e4531850"}, {"name": "7305ec16e62998f1226ec6816e7f490b", "is_reserved": 0, "is_disabled": 0, "lon": -77.02209666666667, "rental_uris": {"android": "https://dc.lft.to/lastmile_qr_scan", "ios": "https://dc.lft.to/lastmile_qr_scan"}, "fusion_lon": 0.0, "lat": 38.900904, "type": "electric_scooter", "fusion_lat": 0.0, "bike_id": "7305ec16e62998f1226ec6816e7f490b"}, {"name": "6eb057f415db9341ad33b6d4e831225f", "is_reserved": 0, "is_disabled": 0, "lon": -77.02912883333333, "rental_uris": {"android": "https://dc.lft.to/lastmile_qr_scan", "ios": "https://dc.lft.to/lastmile_qr_scan"}, "fusion_lon": 0.0, "lat": 38.89840233333334, "type": "electric_scooter", "fusion_lat": 0.0, "bike_id": "6eb057f415db9341ad33b6d4e831225f"}, {"name": "8dd793644640bd30e30f4086ecb8f74a", "is_reserved": 0, "is_disabled": 0, "lon": -77.024525, "rental_uris": {"android": "https://dc.lft.to/lastmile_qr_scan", "ios": "https://dc.lft.to/lastmile_qr_scan"}, "fusion_lon": 0.0, "lat": 38.928923, "type": "electric_scooter", "fusion_lat": 0.0, "bike_id": "8dd793644640bd30e30f4086ecb8f74a"}, {"name": "373b193084d9dfc0d320411507627756", "is_reserved": 0, "is_disabled": 0, "lon": -76.98925716666666, "rental_uris": {"android": "https://dc.lft.to/lastmile_qr_scan", "ios": "https://dc.lft.to/lastmile_qr_scan"}, "fusion_lon": 0.0, "lat": 38.90226333333333, "type": "electric_scooter", "fusion_lat": 0.0, "bike_id": "373b193084d9dfc0d320411507627756"}, {"name": "c54387e5f03806d00f9325b6fb8b8c4d", "is_reserved": 0, "is_disabled": 0, "lon": -77.02377366666667, "rental_uris": {"android": "https://dc.lft.to/lastmile_qr_scan", "ios": "https://dc.lft.to/lastmile_qr_scan"}, "fusion_lon": 0.0, "lat": 38.93089166666667, "type": "electric_scooter", "fusion_lat": 0.0, "bike_id": "c54387e5f03806d00f9325b6fb8b8c4d"}, {"name": "157c5f085d994126d912c000156b0129", "is_reserved": 0, "is_disabled": 0, "lon": -77.04621233333333, "rental_uris": {"android": "https://dc.lft.to/lastmile_qr_scan", "ios": "https://dc.lft.to/lastmile_qr_scan"}, "fusion_lon": 0.0, "lat": 38.905391, "type": "electric_scooter", "fusion_lat": 0.0, "bike_id": "157c5f085d994126d912c000156b0129"}, {"name": "49d6170894058195e79af4fec97cc627", "is_reserved": 0, "is_disabled": 0, "lon": -77.046502, "rental_uris": {"android": "https://dc.lft.to/lastmile_qr_scan", "ios": "https://dc.lft.to/lastmile_qr_scan"}, "fusion_lon": 0.0, "lat": 38.904369, "type": "electric_scooter", "fusion_lat": 0.0, "bike_id": "49d6170894058195e79af4fec97cc627"}, {"name": "84595f168df4f6123db8d1d24443ae10", "is_reserved": 0, "is_disabled": 0, "lon": -76.9484295, "rental_uris": {"android": "https://dc.lft.to/lastmile_qr_scan", "ios": "https://dc.lft.to/lastmile_qr_scan"}, "fusion_lon": 0.0, "lat": 38.8948765, "type": "electric_scooter", "fusion_lat": 0.0, "bike_id": "84595f168df4f6123db8d1d24443ae10"}, {"name": "e6cebc058f4765ad7e48a83ca6105c0b", "is_reserved": 0, "is_disabled": 0, "lon": -77.041883, "rental_uris": {"android": "https://dc.lft.to/lastmile_qr_scan", "ios": "https://dc.lft.to/lastmile_qr_scan"}, "fusion_lon": 0.0, "lat": 38.9233435, "type": "electric_scooter", "fusion_lat": 0.0, "bike_id": "e6cebc058f4765ad7e48a83ca6105c0b"}, {"name": "e0c15f356f89e7936ae730f3066002da", "is_reserved": 0, "is_disabled": 0, "lon": -77.01355266666667, "rental_uris": {"android": "https://dc.lft.to/lastmile_qr_scan", "ios": "https://dc.lft.to/lastmile_qr_scan"}, "fusion_lon": 0.0, "lat": 38.9039075, "type": "electric_scooter", "fusion_lat": 0.0, "bike_id": "e0c15f356f89e7936ae730f3066002da"}, {"name": "da82f1170f50e13d3650d7688fee2f08", "is_reserved": 0, "is_disabled": 0, "lon": -76.9859375, "rental_uris": {"android": "https://dc.lft.to/lastmile_qr_scan", "ios": "https://dc.lft.to/lastmile_qr_scan"}, "fusion_lon": 0.0, "lat": 38.889768833333335, "type": "electric_scooter", "fusion_lat": 0.0, "bike_id": "da82f1170f50e13d3650d7688fee2f08"}, {"name": "d5f2516741695e3b0a68a9bacd018195", "is_reserved": 0, "is_disabled": 0, "lon": -77.0390815, "rental_uris": {"android": "https://dc.lft.to/lastmile_qr_scan", "ios": "https://dc.lft.to/lastmile_qr_scan"}, "fusion_lon": 0.0, "lat": 38.90361166666667, "type": "electric_scooter", "fusion_lat": 0.0, "bike_id": "d5f2516741695e3b0a68a9bacd018195"}, {"name": "5e469153152c7e17572c107def000272", "is_reserved": 0, "is_disabled": 0, "lon": -77.004002, "rental_uris": {"android": "https://dc.lft.to/lastmile_qr_scan", "ios": "https://dc.lft.to/lastmile_qr_scan"}, "fusion_lon": 0.0, "lat": 38.907723, "type": "electric_scooter", "fusion_lat": 0.0, "bike_id": "5e469153152c7e17572c107def000272"}, {"name": "3966b35c7285b4f34fbb87a4aecbc407", "is_reserved": 0, "is_disabled": 0, "lon": -76.9973975, "rental_uris": {"android": "https://dc.lft.to/lastmile_qr_scan", "ios": "https://dc.lft.to/lastmile_qr_scan"}, "fusion_lon": 0.0, "lat": 38.932604833333336, "type": "electric_scooter", "fusion_lat": 0.0, "bike_id": "3966b35c7285b4f34fbb87a4aecbc407"}, {"name": "4bfdd3504002a6b860a2eed38d6e1d69", "is_reserved": 0, "is_disabled": 0, "lon": -76.94109066666667, "rental_uris": {"android": "https://dc.lft.to/lastmile_qr_scan", "ios": "https://dc.lft.to/lastmile_qr_scan"}, "fusion_lon": 0.0, "lat": 38.89054933333333, "type": "electric_scooter", "fusion_lat": 0.0, "bike_id": "4bfdd3504002a6b860a2eed38d6e1d69"}, {"name": "f7d684e878e4bc6a2863a7752c84d7f1", "is_reserved": 0, "is_disabled": 0, "lon": -76.911236, "rental_uris": {"android": "https://dc.lft.to/lastmile_qr_scan", "ios": "https://dc.lft.to/lastmile_qr_scan"}, "fusion_lon": 0.0, "lat": 39.010399666666665, "type": "electric_bike", "fusion_lat": 0.0, "bike_id": "f7d684e878e4bc6a2863a7752c84d7f1"}, {"name": "c143856bb82a01da149711bc389ee52f", "is_reserved": 0, "is_disabled": 0, "lon": -77.05268233333334, "rental_uris": {"android": "https://dc.lft.to/lastmile_qr_scan", "ios": "https://dc.lft.to/lastmile_qr_scan"}, "fusion_lon": 0.0, "lat": 38.92760116666667, "type": "electric_scooter", "fusion_lat": 0.0, "bike_id": "c143856bb82a01da149711bc389ee52f"}, {"name": "7d1c2f980e03350c1a9ae084eaec50fc", "is_reserved": 0, "is_disabled": 0, "lon": -77.04792166666667, "rental_uris": {"android": "https://dc.lft.to/lastmile_qr_scan", "ios": "https://dc.lft.to/lastmile_qr_scan"}, "fusion_lon": 0.0, "lat": 38.8937335, "type": "electric_scooter", "fusion_lat": 0.0, "bike_id": "7d1c2f980e03350c1a9ae084eaec50fc"}, {"name": "b0e75c1a0bad53323a54f0665ad4399b", "is_reserved": 0, "is_disabled": 0, "lon": -77.01043316666667, "rental_uris": {"android": "https://dc.lft.to/lastmile_qr_scan", "ios": "https://dc.lft.to/lastmile_qr_scan"}, "fusion_lon": 0.0, "lat": 38.884477333333336, "type": "electric_scooter", "fusion_lat": 0.0, "bike_id": "b0e75c1a0bad53323a54f0665ad4399b"}, {"name": "84856aae97811951de78ca1b1a91facf", "is_reserved": 0, "is_disabled": 0, "lon": -77.04052233333333, "rental_uris": {"android": "https://dc.lft.to/lastmile_qr_scan", "ios": "https://dc.lft.to/lastmile_qr_scan"}, "fusion_lon": 0.0, "lat": 38.90856333333333, "type": "electric_bike", "fusion_lat": 0.0, "bike_id": "84856aae97811951de78ca1b1a91facf"}, {"name": "637befeb61d2b76eb20cde6d089902df", "is_reserved": 0, "is_disabled": 0, "lon": -76.98392933333334, "rental_uris": {"android": "https://dc.lft.to/lastmile_qr_scan", "ios": "https://dc.lft.to/lastmile_qr_scan"}, "fusion_lon": 0.0, "lat": 38.909754666666664, "type": "electric_scooter", "fusion_lat": 0.0, "bike_id": "637befeb61d2b76eb20cde6d089902df"}, {"name": "afaf915af27be044932ad05a649ede9f", "is_reserved": 0, "is_disabled": 0, "lon": -77.015703, "rental_uris": {"android": "https://dc.lft.to/lastmile_qr_scan", "ios": "https://dc.lft.to/lastmile_qr_scan"}, "fusion_lon": 0.0, "lat": 38.87262483333333, "type": "electric_scooter", "fusion_lat": 0.0, "bike_id": "afaf915af27be044932ad05a649ede9f"}, {"name": "067753a18a4cb6c0ac476c30001b457e", "is_reserved": 0, "is_disabled": 0, "lon": -76.98919383333333, "rental_uris": {"android": "https://dc.lft.to/lastmile_qr_scan", "ios": "https://dc.lft.to/lastmile_qr_scan"}, "fusion_lon": 0.0, "lat": 38.86591766666667, "type": "electric_scooter", "fusion_lat": 0.0, "bike_id": "067753a18a4cb6c0ac476c30001b457e"}, {"name": "5dc88236cc7c44bf9a24911767c87369", "is_reserved": 0, "is_disabled": 0, "lon": -77.0391775, "rental_uris": {"android": "https://dc.lft.to/lastmile_qr_scan", "ios": "https://dc.lft.to/lastmile_qr_scan"}, "fusion_lon": 0.0, "lat": 38.91264866666667, "type": "electric_scooter", "fusion_lat": 0.0, "bike_id": "5dc88236cc7c44bf9a24911767c87369"}, {"name": "025b827a8a8328d1635382a6dd5e23b8", "is_reserved": 0, "is_disabled": 0, "lon": -76.9949295, "rental_uris": {"android": "https://dc.lft.to/lastmile_qr_scan", "ios": "https://dc.lft.to/lastmile_qr_scan"}, "fusion_lon": 0.0, "lat": 38.92582316666667, "type": "electric_scooter", "fusion_lat": 0.0, "bike_id": "025b827a8a8328d1635382a6dd5e23b8"}, {"name": "4dfe27b4bd8926ab5f5840d55d0edebe", "is_reserved": 0, "is_disabled": 0, "lon": -77.03253533333333, "rental_uris": {"android": "https://dc.lft.to/lastmile_qr_scan", "ios": "https://dc.lft.to/lastmile_qr_scan"}, "fusion_lon": 0.0, "lat": 38.93036583333333, "type": "electric_scooter", "fusion_lat": 0.0, "bike_id": "4dfe27b4bd8926ab5f5840d55d0edebe"}, {"name": "00a4354b61a7bea2967ae9cf52392ab8", "is_reserved": 0, "is_disabled": 0, "lon": -77.04357116666667, "rental_uris": {"android": "https://dc.lft.to/lastmile_qr_scan", "ios": "https://dc.lft.to/lastmile_qr_scan"}, "fusion_lon": 0.0, "lat": 38.90509083333333, "type": "electric_scooter", "fusion_lat": 0.0, "bike_id": "00a4354b61a7bea2967ae9cf52392ab8"}, {"name": "faa6f0af34f46c02f4242bfff2e60553", "is_reserved": 0, "is_disabled": 0, "lon": -77.00541916666667, "rental_uris": {"android": "https://dc.lft.to/lastmile_qr_scan", "ios": "https://dc.lft.to/lastmile_qr_scan"}, "fusion_lon": 0.0, "lat": 38.905784833333335, "type": "electric_scooter", "fusion_lat": 0.0, "bike_id": "faa6f0af34f46c02f4242bfff2e60553"}, {"name": "6661858d7d731de30e487f5d2e9de804", "is_reserved": 0, "is_disabled": 0, "lon": -77.022798, "rental_uris": {"android": "https://dc.lft.to/lastmile_qr_scan", "ios": "https://dc.lft.to/lastmile_qr_scan"}, "fusion_lon": 0.0, "lat": 38.926843833333336, "type": "electric_scooter", "fusion_lat": 0.0, "bike_id": "6661858d7d731de30e487f5d2e9de804"}, {"name": "0d50c13e50df3b7eee9447028b7a0ffe", "is_reserved": 0, "is_disabled": 0, "lon": -76.99627466666666, "rental_uris": {"android": "https://dc.lft.to/lastmile_qr_scan", "ios": "https://dc.lft.to/lastmile_qr_scan"}, "fusion_lon": 0.0, "lat": 38.880328166666665, "type": "electric_scooter", "fusion_lat": 0.0, "bike_id": "0d50c13e50df3b7eee9447028b7a0ffe"}, {"name": "24e4ddf28fbbdfb17ce74245a0d37926", "is_reserved": 0, "is_disabled": 0, "lon": -77.0316885, "rental_uris": {"android": "https://dc.lft.to/lastmile_qr_scan", "ios": "https://dc.lft.to/lastmile_qr_scan"}, "fusion_lon": 0.0, "lat": 38.90431183333333, "type": "electric_scooter", "fusion_lat": 0.0, "bike_id": "24e4ddf28fbbdfb17ce74245a0d37926"}, {"name": "08fe5f5b359600a963995f4d0184b1a8", "is_reserved": 0, "is_disabled": 0, "lon": -76.98884466666667, "rental_uris": {"android": "https://dc.lft.to/lastmile_qr_scan", "ios": "https://dc.lft.to/lastmile_qr_scan"}, "fusion_lon": 0.0, "lat": 38.902056, "type": "electric_scooter", "fusion_lat": 0.0, "bike_id": "08fe5f5b359600a963995f4d0184b1a8"}, {"name": "acf152cf7d039aa46a47cfdadbf03637", "is_reserved": 0, "is_disabled": 0, "lon": -76.975515, "rental_uris": {"android": "https://dc.lft.to/lastmile_qr_scan", "ios": "https://dc.lft.to/lastmile_qr_scan"}, "fusion_lon": 0.0, "lat": 38.9026045, "type": "electric_scooter", "fusion_lat": 0.0, "bike_id": "acf152cf7d039aa46a47cfdadbf03637"}, {"name": "ccfd778a932028f472571fc01e8ae734", "is_reserved": 0, "is_disabled": 0, "lon": -77.03983916666667, "rental_uris": {"android": "https://dc.lft.to/lastmile_qr_scan", "ios": "https://dc.lft.to/lastmile_qr_scan"}, "fusion_lon": 0.0, "lat": 38.80300866666666, "type": "electric_bike", "fusion_lat": 0.0, "bike_id": "ccfd778a932028f472571fc01e8ae734"}, {"name": "11b0e73d03a0315679f76806f2cca01c", "is_reserved": 0, "is_disabled": 0, "lon": -77.05270566666667, "rental_uris": {"android": "https://dc.lft.to/lastmile_qr_scan", "ios": "https://dc.lft.to/lastmile_qr_scan"}, "fusion_lon": 0.0, "lat": 38.925680666666665, "type": "electric_scooter", "fusion_lat": 0.0, "bike_id": "11b0e73d03a0315679f76806f2cca01c"}, {"name": "4c118f235101feb26deb5eda3a519ff9", "is_reserved": 0, "is_disabled": 0, "lon": -77.01557616666666, "rental_uris": {"android": "https://dc.lft.to/lastmile_qr_scan", "ios": "https://dc.lft.to/lastmile_qr_scan"}, "fusion_lon": 0.0, "lat": 38.902603666666664, "type": "electric_scooter", "fusion_lat": 0.0, "bike_id": "4c118f235101feb26deb5eda3a519ff9"}, {"name": "4e7a46a31755d256cdacedb64ffbea53", "is_reserved": 0, "is_disabled": 0, "lon": -77.0092315, "rental_uris": {"android": "https://dc.lft.to/lastmile_qr_scan", "ios": "https://dc.lft.to/lastmile_qr_scan"}, "fusion_lon": 0.0, "lat": 38.8763565, "type": "electric_scooter", "fusion_lat": 0.0, "bike_id": "4e7a46a31755d256cdacedb64ffbea53"}, {"name": "f470d3c79bf4a1c1e1234321fa80bfec", "is_reserved": 0, "is_disabled": 0, "lon": -76.983353, "rental_uris": {"android": "https://dc.lft.to/lastmile_qr_scan", "ios": "https://dc.lft.to/lastmile_qr_scan"}, "fusion_lon": 0.0, "lat": 38.895445333333335, "type": "electric_scooter", "fusion_lat": 0.0, "bike_id": "f470d3c79bf4a1c1e1234321fa80bfec"}, {"name": "23b5d16de5ca1867c40bd31a8832e334", "is_reserved": 0, "is_disabled": 0, "lon": -77.04673383333333, "rental_uris": {"android": "https://dc.lft.to/lastmile_qr_scan", "ios": "https://dc.lft.to/lastmile_qr_scan"}, "fusion_lon": 0.0, "lat": 38.91562966666667, "type": "electric_scooter", "fusion_lat": 0.0, "bike_id": "23b5d16de5ca1867c40bd31a8832e334"}, {"name": "5fddff000c8af32073d9ae7197681a65", "is_reserved": 0, "is_disabled": 0, "lon": -76.96701483333334, "rental_uris": {"android": "https://dc.lft.to/lastmile_qr_scan", "ios": "https://dc.lft.to/lastmile_qr_scan"}, "fusion_lon": 0.0, "lat": 38.868553666666664, "type": "electric_bike", "fusion_lat": 0.0, "bike_id": "5fddff000c8af32073d9ae7197681a65"}, {"name": "1dd37e4ef847524bfbb754e7655b230c", "is_reserved": 0, "is_disabled": 0, "lon": -77.079873, "rental_uris": {"android": "https://dc.lft.to/lastmile_qr_scan", "ios": "https://dc.lft.to/lastmile_qr_scan"}, "fusion_lon": 0.0, "lat": 38.948065, "type": "electric_scooter", "fusion_lat": 0.0, "bike_id": "1dd37e4ef847524bfbb754e7655b230c"}, {"name": "3acf9d1c7a224255f2ffd3d25368b309", "is_reserved": 0, "is_disabled": 0, "lon": -77.0497395, "rental_uris": {"android": "https://dc.lft.to/lastmile_qr_scan", "ios": "https://dc.lft.to/lastmile_qr_scan"}, "fusion_lon": 0.0, "lat": 38.992483, "type": "electric_bike", "fusion_lat": 0.0, "bike_id": "3acf9d1c7a224255f2ffd3d25368b309"}, {"name": "4f8c399dd34abd2c32b09d9a0961c6ec", "is_reserved": 0, "is_disabled": 0, "lon": -76.983626, "rental_uris": {"android": "https://dc.lft.to/lastmile_qr_scan", "ios": "https://dc.lft.to/lastmile_qr_scan"}, "fusion_lon": 0.0, "lat": 38.9148285, "type": "electric_scooter", "fusion_lat": 0.0, "bike_id": "4f8c399dd34abd2c32b09d9a0961c6ec"}, {"name": "1f3e51763a8d6ee346a8915d482ca30d", "is_reserved": 0, "is_disabled": 0, "lon": -77.19547, "rental_uris": {"android": "https://dc.lft.to/lastmile_qr_scan", "ios": "https://dc.lft.to/lastmile_qr_scan"}, "fusion_lon": 0.0, "lat": 39.115093333333334, "type": "electric_bike", "fusion_lat": 0.0, "bike_id": "1f3e51763a8d6ee346a8915d482ca30d"}, {"name": "815428af0267ec3129c9e60902f0dae2", "is_reserved": 0, "is_disabled": 0, "lon": -76.98275466666666, "rental_uris": {"android": "https://dc.lft.to/lastmile_qr_scan", "ios": "https://dc.lft.to/lastmile_qr_scan"}, "fusion_lon": 0.0, "lat": 38.915671333333336, "type": "electric_scooter", "fusion_lat": 0.0, "bike_id": "815428af0267ec3129c9e60902f0dae2"}, {"name": "5e53e7852f0976ee25d335d3f1b85fbe", "is_reserved": 0, "is_disabled": 0, "lon": -77.02157133333333, "rental_uris": {"android": "https://dc.lft.to/lastmile_qr_scan", "ios": "https://dc.lft.to/lastmile_qr_scan"}, "fusion_lon": 0.0, "lat": 38.926061, "type": "electric_scooter", "fusion_lat": 0.0, "bike_id": "5e53e7852f0976ee25d335d3f1b85fbe"}, {"name": "f55acc9939327c3c4fa99674ea3aa3bc", "is_reserved": 0, "is_disabled": 0, "lon": -77.02589616666667, "rental_uris": {"android": "https://dc.lft.to/lastmile_qr_scan", "ios": "https://dc.lft.to/lastmile_qr_scan"}, "fusion_lon": 0.0, "lat": 38.91277483333333, "type": "electric_scooter", "fusion_lat": 0.0, "bike_id": "f55acc9939327c3c4fa99674ea3aa3bc"}, {"name": "435bc0c69a117a767c8a530b4c34c8a2", "is_reserved": 0, "is_disabled": 0, "lon": -77.10181516666667, "rental_uris": {"android": "https://dc.lft.to/lastmile_qr_scan", "ios": "https://dc.lft.to/lastmile_qr_scan"}, "fusion_lon": 0.0, "lat": 38.918093, "type": "electric_bike", "fusion_lat": 0.0, "bike_id": "435bc0c69a117a767c8a530b4c34c8a2"}, {"name": "1818650b2f5c443c0935f09bb1df4509", "is_reserved": 0, "is_disabled": 0, "lon": -76.98124016666667, "rental_uris": {"android": "https://dc.lft.to/lastmile_qr_scan", "ios": "https://dc.lft.to/lastmile_qr_scan"}, "fusion_lon": 0.0, "lat": 38.896694833333335, "type": "electric_bike", "fusion_lat": 0.0, "bike_id": "1818650b2f5c443c0935f09bb1df4509"}, {"name": "edd18b0b6dfdbc98b8e46122029998e6", "is_reserved": 0, "is_disabled": 0, "lon": -77.03988333333334, "rental_uris": {"android": "https://dc.lft.to/lastmile_qr_scan", "ios": "https://dc.lft.to/lastmile_qr_scan"}, "fusion_lon": 0.0, "lat": 38.905970833333335, "type": "electric_scooter", "fusion_lat": 0.0, "bike_id": "edd18b0b6dfdbc98b8e46122029998e6"}, {"name": "7a63976065759fdcad486f863194e2ce", "is_reserved": 0, "is_disabled": 0, "lon": -77.0222735, "rental_uris": {"android": "https://dc.lft.to/lastmile_qr_scan", "ios": "https://dc.lft.to/lastmile_qr_scan"}, "fusion_lon": 0.0, "lat": 38.9127225, "type": "electric_scooter", "fusion_lat": 0.0, "bike_id": "7a63976065759fdcad486f863194e2ce"}, {"name": "28b4eabb8659a49f42beb877712c92a0", "is_reserved": 0, "is_disabled": 0, "lon": -77.02794083333333, "rental_uris": {"android": "https://dc.lft.to/lastmile_qr_scan", "ios": "https://dc.lft.to/lastmile_qr_scan"}, "fusion_lon": 0.0, "lat": 38.930834, "type": "electric_scooter", "fusion_lat": 0.0, "bike_id": "28b4eabb8659a49f42beb877712c92a0"}, {"name": "99d4cb53ea3e38a8404488eb75b978e8", "is_reserved": 0, "is_disabled": 0, "lon": -76.9371945, "rental_uris": {"android": "https://dc.lft.to/lastmile_qr_scan", "ios": "https://dc.lft.to/lastmile_qr_scan"}, "fusion_lon": 0.0, "lat": 38.891053166666666, "type": "electric_scooter", "fusion_lat": 0.0, "bike_id": "99d4cb53ea3e38a8404488eb75b978e8"}, {"name": "b7c2a309b05a1a2b68c6424dab37a53f", "is_reserved": 0, "is_disabled": 0, "lon": -77.043684, "rental_uris": {"android": "https://dc.lft.to/lastmile_qr_scan", "ios": "https://dc.lft.to/lastmile_qr_scan"}, "fusion_lon": 0.0, "lat": 38.920933, "type": "electric_scooter", "fusion_lat": 0.0, "bike_id": "b7c2a309b05a1a2b68c6424dab37a53f"}, {"name": "2010a9fe3856c150998fb395f4563016", "is_reserved": 0, "is_disabled": 0, "lon": -76.9960905, "rental_uris": {"android": "https://dc.lft.to/lastmile_qr_scan", "ios": "https://dc.lft.to/lastmile_qr_scan"}, "fusion_lon": 0.0, "lat": 38.886194, "type": "electric_scooter", "fusion_lat": 0.0, "bike_id": "2010a9fe3856c150998fb395f4563016"}, {"name": "00540170051b2e27162d547a471290a0", "is_reserved": 0, "is_disabled": 0, "lon": -77.05596083333333, "rental_uris": {"android": "https://dc.lft.to/lastmile_qr_scan", "ios": "https://dc.lft.to/lastmile_qr_scan"}, "fusion_lon": 0.0, "lat": 38.936982, "type": "electric_scooter", "fusion_lat": 0.0, "bike_id": "00540170051b2e27162d547a471290a0"}, {"name": "dc3ff9c7737066f15cd2847271daaf02", "is_reserved": 0, "is_disabled": 0, "lon": -77.034911, "rental_uris": {"android": "https://dc.lft.to/lastmile_qr_scan", "ios": "https://dc.lft.to/lastmile_qr_scan"}, "fusion_lon": 0.0, "lat": 38.9327855, "type": "electric_scooter", "fusion_lat": 0.0, "bike_id": "dc3ff9c7737066f15cd2847271daaf02"}, {"name": "68ead662c79c7c4b9ccc6e8b3b30ba8f", "is_reserved": 0, "is_disabled": 0, "lon": -77.11231666666667, "rental_uris": {"android": "https://dc.lft.to/lastmile_qr_scan", "ios": "https://dc.lft.to/lastmile_qr_scan"}, "fusion_lon": 0.0, "lat": 38.8122325, "type": "electric_bike", "fusion_lat": 0.0, "bike_id": "68ead662c79c7c4b9ccc6e8b3b30ba8f"}, {"name": "5bba90f0879affa2ea506bcfe5538746", "is_reserved": 0, "is_disabled": 0, "lon": -76.98327, "rental_uris": {"android": "https://dc.lft.to/lastmile_qr_scan", "ios": "https://dc.lft.to/lastmile_qr_scan"}, "fusion_lon": 0.0, "lat": 38.96606466666667, "type": "electric_bike", "fusion_lat": 0.0, "bike_id": "5bba90f0879affa2ea506bcfe5538746"}, {"name": "d8a7c893831dc15f1d3cc3eff822da14", "is_reserved": 0, "is_disabled": 0, "lon": -77.00347233333333, "rental_uris": {"android": "https://dc.lft.to/lastmile_qr_scan", "ios": "https://dc.lft.to/lastmile_qr_scan"}, "fusion_lon": 0.0, "lat": 38.8936835, "type": "electric_scooter", "fusion_lat": 0.0, "bike_id": "d8a7c893831dc15f1d3cc3eff822da14"}, {"name": "f067e6eb8eea221e71dde2cd94ae17a0", "is_reserved": 0, "is_disabled": 0, "lon": -77.07660066666666, "rental_uris": {"android": "https://dc.lft.to/lastmile_qr_scan", "ios": "https://dc.lft.to/lastmile_qr_scan"}, "fusion_lon": 0.0, "lat": 38.91083, "type": "electric_scooter", "fusion_lat": 0.0, "bike_id": "f067e6eb8eea221e71dde2cd94ae17a0"}, {"name": "d17992859a886a61bdda0218bca0174d", "is_reserved": 0, "is_disabled": 0, "lon": -77.0400015, "rental_uris": {"android": "https://dc.lft.to/lastmile_qr_scan", "ios": "https://dc.lft.to/lastmile_qr_scan"}, "fusion_lon": 0.0, "lat": 38.888704833333335, "type": "electric_scooter", "fusion_lat": 0.0, "bike_id": "d17992859a886a61bdda0218bca0174d"}, {"name": "c25e6f6688dafa771722cd5c728427d5", "is_reserved": 0, "is_disabled": 0, "lon": -77.02623533333333, "rental_uris": {"android": "https://dc.lft.to/lastmile_qr_scan", "ios": "https://dc.lft.to/lastmile_qr_scan"}, "fusion_lon": 0.0, "lat": 38.887403, "type": "electric_scooter", "fusion_lat": 0.0, "bike_id": "c25e6f6688dafa771722cd5c728427d5"}, {"name": "ed84ac5aea63f5e021259b8effead255", "is_reserved": 0, "is_disabled": 0, "lon": -77.04746733333333, "rental_uris": {"android": "https://dc.lft.to/lastmile_qr_scan", "ios": "https://dc.lft.to/lastmile_qr_scan"}, "fusion_lon": 0.0, "lat": 38.90537283333333, "type": "electric_scooter", "fusion_lat": 0.0, "bike_id": "ed84ac5aea63f5e021259b8effead255"}, {"name": "66a1a39a4461f7f02305dace033c219a", "is_reserved": 0, "is_disabled": 0, "lon": -76.9851605, "rental_uris": {"android": "https://dc.lft.to/lastmile_qr_scan", "ios": "https://dc.lft.to/lastmile_qr_scan"}, "fusion_lon": 0.0, "lat": 38.893582333333335, "type": "electric_bike", "fusion_lat": 0.0, "bike_id": "66a1a39a4461f7f02305dace033c219a"}, {"name": "6719c0cac293608953f1faf5c80d328a", "is_reserved": 0, "is_disabled": 0, "lon": -77.0462955, "rental_uris": {"android": "https://dc.lft.to/lastmile_qr_scan", "ios": "https://dc.lft.to/lastmile_qr_scan"}, "fusion_lon": 0.0, "lat": 38.905568, "type": "electric_scooter", "fusion_lat": 0.0, "bike_id": "6719c0cac293608953f1faf5c80d328a"}, {"name": "e073be85ba74131ad350cd8c1ed148a4", "is_reserved": 0, "is_disabled": 0, "lon": -77.032063, "rental_uris": {"android": "https://dc.lft.to/lastmile_qr_scan", "ios": "https://dc.lft.to/lastmile_qr_scan"}, "fusion_lon": 0.0, "lat": 38.91434483333333, "type": "electric_scooter", "fusion_lat": 0.0, "bike_id": "e073be85ba74131ad350cd8c1ed148a4"}, {"name": "df72e3b8888f611a57103bc6b16dbfa6", "is_reserved": 0, "is_disabled": 0, "lon": -76.94194083333333, "rental_uris": {"android": "https://dc.lft.to/lastmile_qr_scan", "ios": "https://dc.lft.to/lastmile_qr_scan"}, "fusion_lon": 0.0, "lat": 38.89374083333333, "type": "electric_scooter", "fusion_lat": 0.0, "bike_id": "df72e3b8888f611a57103bc6b16dbfa6"}, {"name": "9b5fba1e00265549aee13038966693e9", "is_reserved": 0, "is_disabled": 0, "lon": -77.0217635, "rental_uris": {"android": "https://dc.lft.to/lastmile_qr_scan", "ios": "https://dc.lft.to/lastmile_qr_scan"}, "fusion_lon": 0.0, "lat": 38.921142, "type": "electric_scooter", "fusion_lat": 0.0, "bike_id": "9b5fba1e00265549aee13038966693e9"}, {"name": "6ba756f337805a55340d22a267a992d9", "is_reserved": 0, "is_disabled": 0, "lon": -77.06278766666667, "rental_uris": {"android": "https://dc.lft.to/lastmile_qr_scan", "ios": "https://dc.lft.to/lastmile_qr_scan"}, "fusion_lon": 0.0, "lat": 38.906882833333334, "type": "electric_scooter", "fusion_lat": 0.0, "bike_id": "6ba756f337805a55340d22a267a992d9"}, {"name": "e8d18ea14e91732499ffeebaf06c856b", "is_reserved": 0, "is_disabled": 0, "lon": -77.09960783333334, "rental_uris": {"android": "https://dc.lft.to/lastmile_qr_scan", "ios": "https://dc.lft.to/lastmile_qr_scan"}, "fusion_lon": 0.0, "lat": 38.85793966666667, "type": "electric_bike", "fusion_lat": 0.0, "bike_id": "e8d18ea14e91732499ffeebaf06c856b"}, {"name": "f41406522df92afbd085f558b8890b55", "is_reserved": 0, "is_disabled": 0, "lon": -77.04261016666666, "rental_uris": {"android": "https://dc.lft.to/lastmile_qr_scan", "ios": "https://dc.lft.to/lastmile_qr_scan"}, "fusion_lon": 0.0, "lat": 38.920768333333335, "type": "electric_scooter", "fusion_lat": 0.0, "bike_id": "f41406522df92afbd085f558b8890b55"}, {"name": "71ce8a60956e3c6c83c1b8f61d79dd8d", "is_reserved": 0, "is_disabled": 0, "lon": -76.93197383333333, "rental_uris": {"android": "https://dc.lft.to/lastmile_qr_scan", "ios": "https://dc.lft.to/lastmile_qr_scan"}, "fusion_lon": 0.0, "lat": 38.87236266666667, "type": "electric_bike", "fusion_lat": 0.0, "bike_id": "71ce8a60956e3c6c83c1b8f61d79dd8d"}, {"name": "6bb3fb2668731b6d3d1718b7a79053b8", "is_reserved": 0, "is_disabled": 0, "lon": -77.026003, "rental_uris": {"android": "https://dc.lft.to/lastmile_qr_scan", "ios": "https://dc.lft.to/lastmile_qr_scan"}, "fusion_lon": 0.0, "lat": 38.916171, "type": "electric_scooter", "fusion_lat": 0.0, "bike_id": "6bb3fb2668731b6d3d1718b7a79053b8"}, {"name": "1d57aeb6fdd84f58f5c391d767798e4f", "is_reserved": 0, "is_disabled": 0, "lon": -76.93413616666666, "rental_uris": {"android": "https://dc.lft.to/lastmile_qr_scan", "ios": "https://dc.lft.to/lastmile_qr_scan"}, "fusion_lon": 0.0, "lat": 38.946239166666665, "type": "electric_bike", "fusion_lat": 0.0, "bike_id": "1d57aeb6fdd84f58f5c391d767798e4f"}, {"name": "8b14f3dc5160cb5623aae0140f71d65a", "is_reserved": 0, "is_disabled": 0, "lon": -77.00579416666666, "rental_uris": {"android": "https://dc.lft.to/lastmile_qr_scan", "ios": "https://dc.lft.to/lastmile_qr_scan"}, "fusion_lon": 0.0, "lat": 38.88531566666666, "type": "electric_scooter", "fusion_lat": 0.0, "bike_id": "8b14f3dc5160cb5623aae0140f71d65a"}, {"name": "b4d8895c4f28df16157af884c7254cca", "is_reserved": 0, "is_disabled": 0, "lon": -77.03269433333334, "rental_uris": {"android": "https://dc.lft.to/lastmile_qr_scan", "ios": "https://dc.lft.to/lastmile_qr_scan"}, "fusion_lon": 0.0, "lat": 38.93099633333333, "type": "electric_scooter", "fusion_lat": 0.0, "bike_id": "b4d8895c4f28df16157af884c7254cca"}, {"name": "fd5ffda17424ddbef10a64ee02bc0127", "is_reserved": 0, "is_disabled": 0, "lon": -76.924041, "rental_uris": {"android": "https://dc.lft.to/lastmile_qr_scan", "ios": "https://dc.lft.to/lastmile_qr_scan"}, "fusion_lon": 0.0, "lat": 38.889921666666666, "type": "electric_scooter", "fusion_lat": 0.0, "bike_id": "fd5ffda17424ddbef10a64ee02bc0127"}, {"name": "8f3ba7409a9189d5c00d127236066e13", "is_reserved": 0, "is_disabled": 0, "lon": -77.02954733333333, "rental_uris": {"android": "https://dc.lft.to/lastmile_qr_scan", "ios": "https://dc.lft.to/lastmile_qr_scan"}, "fusion_lon": 0.0, "lat": 38.893169666666665, "type": "electric_scooter", "fusion_lat": 0.0, "bike_id": "8f3ba7409a9189d5c00d127236066e13"}, {"name": "0897694e0ca56aa44309e6fc961827cd", "is_reserved": 0, "is_disabled": 0, "lon": -77.006964, "rental_uris": {"android": "https://dc.lft.to/lastmile_qr_scan", "ios": "https://dc.lft.to/lastmile_qr_scan"}, "fusion_lon": 0.0, "lat": 38.877139666666665, "type": "electric_scooter", "fusion_lat": 0.0, "bike_id": "0897694e0ca56aa44309e6fc961827cd"}, {"name": "9c12ee168d410cb360a5230511892448", "is_reserved": 0, "is_disabled": 0, "lon": -77.032787, "rental_uris": {"android": "https://dc.lft.to/lastmile_qr_scan", "ios": "https://dc.lft.to/lastmile_qr_scan"}, "fusion_lon": 0.0, "lat": 38.9363955, "type": "electric_scooter", "fusion_lat": 0.0, "bike_id": "9c12ee168d410cb360a5230511892448"}, {"name": "e379210262cd8e951e6005f12202396e", "is_reserved": 0, "is_disabled": 0, "lon": -77.03438183333333, "rental_uris": {"android": "https://dc.lft.to/lastmile_qr_scan", "ios": "https://dc.lft.to/lastmile_qr_scan"}, "fusion_lon": 0.0, "lat": 38.9048885, "type": "electric_scooter", "fusion_lat": 0.0, "bike_id": "e379210262cd8e951e6005f12202396e"}, {"name": "9ffd814882a7df6cbbd61ee2cd25b51d", "is_reserved": 0, "is_disabled": 0, "lon": -76.98696216666667, "rental_uris": {"android": "https://dc.lft.to/lastmile_qr_scan", "ios": "https://dc.lft.to/lastmile_qr_scan"}, "fusion_lon": 0.0, "lat": 38.907067, "type": "electric_scooter", "fusion_lat": 0.0, "bike_id": "9ffd814882a7df6cbbd61ee2cd25b51d"}, {"name": "331f26e8579b4a08b0127c568d075824", "is_reserved": 0, "is_disabled": 0, "lon": -76.9234315, "rental_uris": {"android": "https://dc.lft.to/lastmile_qr_scan", "ios": "https://dc.lft.to/lastmile_qr_scan"}, "fusion_lon": 0.0, "lat": 38.88790766666666, "type": "electric_bike", "fusion_lat": 0.0, "bike_id": "331f26e8579b4a08b0127c568d075824"}, {"name": "37fbe5adbce55644c9bdbebbe0a9fdab", "is_reserved": 0, "is_disabled": 0, "lon": -76.99026783333333, "rental_uris": {"android": "https://dc.lft.to/lastmile_qr_scan", "ios": "https://dc.lft.to/lastmile_qr_scan"}, "fusion_lon": 0.0, "lat": 38.864064166666665, "type": "electric_scooter", "fusion_lat": 0.0, "bike_id": "37fbe5adbce55644c9bdbebbe0a9fdab"}, {"name": "646ff268b91c35622fe671c44f6c705b", "is_reserved": 0, "is_disabled": 0, "lon": -77.00212133333333, "rental_uris": {"android": "https://dc.lft.to/lastmile_qr_scan", "ios": "https://dc.lft.to/lastmile_qr_scan"}, "fusion_lon": 0.0, "lat": 38.89385716666666, "type": "electric_scooter", "fusion_lat": 0.0, "bike_id": "646ff268b91c35622fe671c44f6c705b"}, {"name": "4a6967c34cc6ebb26b2be7013c9783a0", "is_reserved": 0, "is_disabled": 0, "lon": -77.04057466666667, "rental_uris": {"android": "https://dc.lft.to/lastmile_qr_scan", "ios": "https://dc.lft.to/lastmile_qr_scan"}, "fusion_lon": 0.0, "lat": 38.91770433333333, "type": "electric_scooter", "fusion_lat": 0.0, "bike_id": "4a6967c34cc6ebb26b2be7013c9783a0"}, {"name": "6c2d0b3d773c437c3f038c076bb7174d", "is_reserved": 0, "is_disabled": 0, "lon": -77.049604, "rental_uris": {"android": "https://dc.lft.to/lastmile_qr_scan", "ios": "https://dc.lft.to/lastmile_qr_scan"}, "fusion_lon": 0.0, "lat": 38.91260466666667, "type": "electric_scooter", "fusion_lat": 0.0, "bike_id": "6c2d0b3d773c437c3f038c076bb7174d"}, {"name": "a1a814b312b59a9f1f5d63e5ca740b25", "is_reserved": 0, "is_disabled": 0, "lon": -77.011242, "rental_uris": {"android": "https://dc.lft.to/lastmile_qr_scan", "ios": "https://dc.lft.to/lastmile_qr_scan"}, "fusion_lon": 0.0, "lat": 38.89610916666667, "type": "electric_scooter", "fusion_lat": 0.0, "bike_id": "a1a814b312b59a9f1f5d63e5ca740b25"}, {"name": "f9633c327c22301a148a1d55a52319a0", "is_reserved": 0, "is_disabled": 0, "lon": -77.10023933333333, "rental_uris": {"android": "https://dc.lft.to/lastmile_qr_scan", "ios": "https://dc.lft.to/lastmile_qr_scan"}, "fusion_lon": 0.0, "lat": 38.99062933333333, "type": "electric_bike", "fusion_lat": 0.0, "bike_id": "f9633c327c22301a148a1d55a52319a0"}, {"name": "698ddd74d0954233d22a14a4be98f18c", "is_reserved": 0, "is_disabled": 0, "lon": -77.01902783333334, "rental_uris": {"android": "https://dc.lft.to/lastmile_qr_scan", "ios": "https://dc.lft.to/lastmile_qr_scan"}, "fusion_lon": 0.0, "lat": 38.92341866666666, "type": "electric_scooter", "fusion_lat": 0.0, "bike_id": "698ddd74d0954233d22a14a4be98f18c"}, {"name": "b40695fd27fb272b03d95a421cc6a88c", "is_reserved": 0, "is_disabled": 0, "lon": -77.04900283333333, "rental_uris": {"android": "https://dc.lft.to/lastmile_qr_scan", "ios": "https://dc.lft.to/lastmile_qr_scan"}, "fusion_lon": 0.0, "lat": 38.87494783333333, "type": "electric_bike", "fusion_lat": 0.0, "bike_id": "b40695fd27fb272b03d95a421cc6a88c"}, {"name": "f2aec73a07de305bcd6ac89a7dc0f1f5", "is_reserved": 0, "is_disabled": 0, "lon": -77.0448235, "rental_uris": {"android": "https://dc.lft.to/lastmile_qr_scan", "ios": "https://dc.lft.to/lastmile_qr_scan"}, "fusion_lon": 0.0, "lat": 38.9187595, "type": "electric_scooter", "fusion_lat": 0.0, "bike_id": "f2aec73a07de305bcd6ac89a7dc0f1f5"}, {"name": "dc2351ad190d8163cadc135e9582de62", "is_reserved": 0, "is_disabled": 0, "lon": -77.03979016666666, "rental_uris": {"android": "https://dc.lft.to/lastmile_qr_scan", "ios": "https://dc.lft.to/lastmile_qr_scan"}, "fusion_lon": 0.0, "lat": 38.913359, "type": "electric_scooter", "fusion_lat": 0.0, "bike_id": "dc2351ad190d8163cadc135e9582de62"}, {"name": "f690833cb0a28c6d23aab4cc09ba1880", "is_reserved": 0, "is_disabled": 0, "lon": -77.01612316666667, "rental_uris": {"android": "https://dc.lft.to/lastmile_qr_scan", "ios": "https://dc.lft.to/lastmile_qr_scan"}, "fusion_lon": 0.0, "lat": 38.90597316666667, "type": "electric_scooter", "fusion_lat": 0.0, "bike_id": "f690833cb0a28c6d23aab4cc09ba1880"}, {"name": "e4375b3bc25f10b6b988b334be76a59e", "is_reserved": 0, "is_disabled": 0, "lon": -77.02801183333334, "rental_uris": {"android": "https://dc.lft.to/lastmile_qr_scan", "ios": "https://dc.lft.to/lastmile_qr_scan"}, "fusion_lon": 0.0, "lat": 38.95099316666666, "type": "electric_scooter", "fusion_lat": 0.0, "bike_id": "e4375b3bc25f10b6b988b334be76a59e"}, {"name": "83b06d096129748e4e29b82922b541f1", "is_reserved": 0, "is_disabled": 0, "lon": -77.02277433333333, "rental_uris": {"android": "https://dc.lft.to/lastmile_qr_scan", "ios": "https://dc.lft.to/lastmile_qr_scan"}, "fusion_lon": 0.0, "lat": 38.878404833333335, "type": "electric_scooter", "fusion_lat": 0.0, "bike_id": "83b06d096129748e4e29b82922b541f1"}, {"name": "7a778a9aabb516e5f0f22af6e030bb88", "is_reserved": 0, "is_disabled": 0, "lon": -77.01174216666666, "rental_uris": {"android": "https://dc.lft.to/lastmile_qr_scan", "ios": "https://dc.lft.to/lastmile_qr_scan"}, "fusion_lon": 0.0, "lat": 38.8974185, "type": "electric_scooter", "fusion_lat": 0.0, "bike_id": "7a778a9aabb516e5f0f22af6e030bb88"}, {"name": "0c9641c516926fa7df2198d9fed01a90", "is_reserved": 0, "is_disabled": 0, "lon": -77.05917333333333, "rental_uris": {"android": "https://dc.lft.to/lastmile_qr_scan", "ios": "https://dc.lft.to/lastmile_qr_scan"}, "fusion_lon": 0.0, "lat": 38.9100225, "type": "electric_scooter", "fusion_lat": 0.0, "bike_id": "0c9641c516926fa7df2198d9fed01a90"}, {"name": "ec870ae6fc2dd7ce8dc1ff6e42ba2606", "is_reserved": 0, "is_disabled": 0, "lon": -77.0384725, "rental_uris": {"android": "https://dc.lft.to/lastmile_qr_scan", "ios": "https://dc.lft.to/lastmile_qr_scan"}, "fusion_lon": 0.0, "lat": 38.903476, "type": "electric_scooter", "fusion_lat": 0.0, "bike_id": "ec870ae6fc2dd7ce8dc1ff6e42ba2606"}, {"name": "5e479e7ac154e7a9b11098d1c0ac0107", "is_reserved": 0, "is_disabled": 0, "lon": -77.00920916666666, "rental_uris": {"android": "https://dc.lft.to/lastmile_qr_scan", "ios": "https://dc.lft.to/lastmile_qr_scan"}, "fusion_lon": 0.0, "lat": 38.898871166666666, "type": "electric_scooter", "fusion_lat": 0.0, "bike_id": "5e479e7ac154e7a9b11098d1c0ac0107"}, {"name": "55cce8b169f0f757d225dc6403e7f7ed", "is_reserved": 0, "is_disabled": 0, "lon": -77.03049083333333, "rental_uris": {"android": "https://dc.lft.to/lastmile_qr_scan", "ios": "https://dc.lft.to/lastmile_qr_scan"}, "fusion_lon": 0.0, "lat": 38.884056666666666, "type": "electric_scooter", "fusion_lat": 0.0, "bike_id": "55cce8b169f0f757d225dc6403e7f7ed"}, {"name": "e763a6d1f8395a877fcb324d801f72ba", "is_reserved": 0, "is_disabled": 0, "lon": -77.03560516666667, "rental_uris": {"android": "https://dc.lft.to/lastmile_qr_scan", "ios": "https://dc.lft.to/lastmile_qr_scan"}, "fusion_lon": 0.0, "lat": 38.9250065, "type": "electric_scooter", "fusion_lat": 0.0, "bike_id": "e763a6d1f8395a877fcb324d801f72ba"}, {"name": "7944080f82499e9d8c1afec978fad7a1", "is_reserved": 0, "is_disabled": 0, "lon": -76.9374305, "rental_uris": {"android": "https://dc.lft.to/lastmile_qr_scan", "ios": "https://dc.lft.to/lastmile_qr_scan"}, "fusion_lon": 0.0, "lat": 38.890149666666666, "type": "electric_scooter", "fusion_lat": 0.0, "bike_id": "7944080f82499e9d8c1afec978fad7a1"}, {"name": "96d67e89c0e0c1c2a9b1f64b0d1fbf08", "is_reserved": 0, "is_disabled": 0, "lon": -77.06154866666667, "rental_uris": {"android": "https://dc.lft.to/lastmile_qr_scan", "ios": "https://dc.lft.to/lastmile_qr_scan"}, "fusion_lon": 0.0, "lat": 38.90529866666667, "type": "electric_scooter", "fusion_lat": 0.0, "bike_id": "96d67e89c0e0c1c2a9b1f64b0d1fbf08"}, {"name": "e7ec648d191b5e31299a2b3faf4e9469", "is_reserved": 0, "is_disabled": 0, "lon": -76.99019983333334, "rental_uris": {"android": "https://dc.lft.to/lastmile_qr_scan", "ios": "https://dc.lft.to/lastmile_qr_scan"}, "fusion_lon": 0.0, "lat": 38.8586935, "type": "electric_scooter", "fusion_lat": 0.0, "bike_id": "e7ec648d191b5e31299a2b3faf4e9469"}, {"name": "036e90d7f21daf41cb0e166a412254b3", "is_reserved": 0, "is_disabled": 0, "lon": -77.028058, "rental_uris": {"android": "https://dc.lft.to/lastmile_qr_scan", "ios": "https://dc.lft.to/lastmile_qr_scan"}, "fusion_lon": 0.0, "lat": 38.89643066666667, "type": "electric_scooter", "fusion_lat": 0.0, "bike_id": "036e90d7f21daf41cb0e166a412254b3"}, {"name": "3f0bd4485eef78da542571c6915f08a8", "is_reserved": 0, "is_disabled": 0, "lon": -77.005799, "rental_uris": {"android": "https://dc.lft.to/lastmile_qr_scan", "ios": "https://dc.lft.to/lastmile_qr_scan"}, "fusion_lon": 0.0, "lat": 38.905593333333336, "type": "electric_scooter", "fusion_lat": 0.0, "bike_id": "3f0bd4485eef78da542571c6915f08a8"}, {"name": "b110ce18a4b3b0d71ce5f5bc1beef599", "is_reserved": 0, "is_disabled": 0, "lon": -77.0610295, "rental_uris": {"android": "https://dc.lft.to/lastmile_qr_scan", "ios": "https://dc.lft.to/lastmile_qr_scan"}, "fusion_lon": 0.0, "lat": 38.943248833333335, "type": "electric_scooter", "fusion_lat": 0.0, "bike_id": "b110ce18a4b3b0d71ce5f5bc1beef599"}, {"name": "00226e848949c10bfae5236ec661a6a2", "is_reserved": 0, "is_disabled": 0, "lon": -77.01704933333333, "rental_uris": {"android": "https://dc.lft.to/lastmile_qr_scan", "ios": "https://dc.lft.to/lastmile_qr_scan"}, "fusion_lon": 0.0, "lat": 38.907290333333336, "type": "electric_scooter", "fusion_lat": 0.0, "bike_id": "00226e848949c10bfae5236ec661a6a2"}, {"name": "56e9f32fe87e11283fc7003d2affe0cc", "is_reserved": 0, "is_disabled": 0, "lon": -77.02775483333333, "rental_uris": {"android": "https://dc.lft.to/lastmile_qr_scan", "ios": "https://dc.lft.to/lastmile_qr_scan"}, "fusion_lon": 0.0, "lat": 38.892214333333335, "type": "electric_scooter", "fusion_lat": 0.0, "bike_id": "56e9f32fe87e11283fc7003d2affe0cc"}, {"name": "f1dbbe1c508d1ec1cd578345b8fbb86d", "is_reserved": 0, "is_disabled": 0, "lon": -77.0327415, "rental_uris": {"android": "https://dc.lft.to/lastmile_qr_scan", "ios": "https://dc.lft.to/lastmile_qr_scan"}, "fusion_lon": 0.0, "lat": 38.93253766666667, "type": "electric_scooter", "fusion_lat": 0.0, "bike_id": "f1dbbe1c508d1ec1cd578345b8fbb86d"}, {"name": "f4acfac62de949a51fbcb32bc47a74a9", "is_reserved": 0, "is_disabled": 0, "lon": -77.182955, "rental_uris": {"android": "https://dc.lft.to/lastmile_qr_scan", "ios": "https://dc.lft.to/lastmile_qr_scan"}, "fusion_lon": 0.0, "lat": 38.883444833333336, "type": "electric_bike", "fusion_lat": 0.0, "bike_id": "f4acfac62de949a51fbcb32bc47a74a9"}, {"name": "c5e3e42cd99abbb1368f68c42940d854", "is_reserved": 0, "is_disabled": 0, "lon": -76.99476783333333, "rental_uris": {"android": "https://dc.lft.to/lastmile_qr_scan", "ios": "https://dc.lft.to/lastmile_qr_scan"}, "fusion_lon": 0.0, "lat": 38.86233583333333, "type": "electric_scooter", "fusion_lat": 0.0, "bike_id": "c5e3e42cd99abbb1368f68c42940d854"}, {"name": "38451f10aab32c8ef99a4e04a7135cfe", "is_reserved": 0, "is_disabled": 0, "lon": -77.02464283333333, "rental_uris": {"android": "https://dc.lft.to/lastmile_qr_scan", "ios": "https://dc.lft.to/lastmile_qr_scan"}, "fusion_lon": 0.0, "lat": 38.93904583333333, "type": "electric_scooter", "fusion_lat": 0.0, "bike_id": "38451f10aab32c8ef99a4e04a7135cfe"}, {"name": "eac57b8f72ed2b28c81b5e7ab5c7a919", "is_reserved": 0, "is_disabled": 0, "lon": -77.34412583333334, "rental_uris": {"android": "https://dc.lft.to/lastmile_qr_scan", "ios": "https://dc.lft.to/lastmile_qr_scan"}, "fusion_lon": 0.0, "lat": 38.945949666666664, "type": "electric_bike", "fusion_lat": 0.0, "bike_id": "eac57b8f72ed2b28c81b5e7ab5c7a919"}, {"name": "b1c0bb30a8e5289bbe3afcd8599972d1", "is_reserved": 0, "is_disabled": 0, "lon": -76.94854633333334, "rental_uris": {"android": "https://dc.lft.to/lastmile_qr_scan", "ios": "https://dc.lft.to/lastmile_qr_scan"}, "fusion_lon": 0.0, "lat": 38.88303416666667, "type": "electric_scooter", "fusion_lat": 0.0, "bike_id": "b1c0bb30a8e5289bbe3afcd8599972d1"}, {"name": "c2b73e3fbb9ef7821c94b1f9977e60e4", "is_reserved": 0, "is_disabled": 0, "lon": -77.00219383333334, "rental_uris": {"android": "https://dc.lft.to/lastmile_qr_scan", "ios": "https://dc.lft.to/lastmile_qr_scan"}, "fusion_lon": 0.0, "lat": 38.887668833333336, "type": "electric_scooter", "fusion_lat": 0.0, "bike_id": "c2b73e3fbb9ef7821c94b1f9977e60e4"}, {"name": "83b4086b6baf33c2bb39d8b8181941e4", "is_reserved": 0, "is_disabled": 0, "lon": -76.98887583333334, "rental_uris": {"android": "https://dc.lft.to/lastmile_qr_scan", "ios": "https://dc.lft.to/lastmile_qr_scan"}, "fusion_lon": 0.0, "lat": 38.8667375, "type": "electric_scooter", "fusion_lat": 0.0, "bike_id": "83b4086b6baf33c2bb39d8b8181941e4"}, {"name": "02daf45020ac539b72f1c67bc4d101ad", "is_reserved": 0, "is_disabled": 0, "lon": -77.03154533333333, "rental_uris": {"android": "https://dc.lft.to/lastmile_qr_scan", "ios": "https://dc.lft.to/lastmile_qr_scan"}, "fusion_lon": 0.0, "lat": 38.9279015, "type": "electric_scooter", "fusion_lat": 0.0, "bike_id": "02daf45020ac539b72f1c67bc4d101ad"}, {"name": "8b887112e14297f1b0410c044c6571d9", "is_reserved": 0, "is_disabled": 0, "lon": -77.0144275, "rental_uris": {"android": "https://dc.lft.to/lastmile_qr_scan", "ios": "https://dc.lft.to/lastmile_qr_scan"}, "fusion_lon": 0.0, "lat": 38.87781616666667, "type": "electric_scooter", "fusion_lat": 0.0, "bike_id": "8b887112e14297f1b0410c044c6571d9"}, {"name": "b7be84364716a7b693ceb4599326c65d", "is_reserved": 0, "is_disabled": 0, "lon": -77.14321933333333, "rental_uris": {"android": "https://dc.lft.to/lastmile_qr_scan", "ios": "https://dc.lft.to/lastmile_qr_scan"}, "fusion_lon": 0.0, "lat": 39.05456566666667, "type": "electric_bike", "fusion_lat": 0.0, "bike_id": "b7be84364716a7b693ceb4599326c65d"}, {"name": "ea6fd095338fa292ace2014759d08983", "is_reserved": 0, "is_disabled": 0, "lon": -76.99028433333334, "rental_uris": {"android": "https://dc.lft.to/lastmile_qr_scan", "ios": "https://dc.lft.to/lastmile_qr_scan"}, "fusion_lon": 0.0, "lat": 38.860754666666665, "type": "electric_scooter", "fusion_lat": 0.0, "bike_id": "ea6fd095338fa292ace2014759d08983"}, {"name": "962e367716f0df7e595eeabeb271c686", "is_reserved": 0, "is_disabled": 0, "lon": -77.01169133333333, "rental_uris": {"android": "https://dc.lft.to/lastmile_qr_scan", "ios": "https://dc.lft.to/lastmile_qr_scan"}, "fusion_lon": 0.0, "lat": 38.900211, "type": "electric_scooter", "fusion_lat": 0.0, "bike_id": "962e367716f0df7e595eeabeb271c686"}, {"name": "0997838f20b8db0799111f23c9549228", "is_reserved": 0, "is_disabled": 0, "lon": -77.005577, "rental_uris": {"android": "https://dc.lft.to/lastmile_qr_scan", "ios": "https://dc.lft.to/lastmile_qr_scan"}, "fusion_lon": 0.0, "lat": 38.911820166666665, "type": "electric_scooter", "fusion_lat": 0.0, "bike_id": "0997838f20b8db0799111f23c9549228"}, {"name": "40a959a1ca55081eb5a1cea18658d79b", "is_reserved": 0, "is_disabled": 0, "lon": -77.02328966666667, "rental_uris": {"android": "https://dc.lft.to/lastmile_qr_scan", "ios": "https://dc.lft.to/lastmile_qr_scan"}, "fusion_lon": 0.0, "lat": 38.89991966666667, "type": "electric_scooter", "fusion_lat": 0.0, "bike_id": "40a959a1ca55081eb5a1cea18658d79b"}, {"name": "719f062a21566419e66069db92edc796", "is_reserved": 0, "is_disabled": 0, "lon": -77.04529183333334, "rental_uris": {"android": "https://dc.lft.to/lastmile_qr_scan", "ios": "https://dc.lft.to/lastmile_qr_scan"}, "fusion_lon": 0.0, "lat": 38.902421, "type": "electric_scooter", "fusion_lat": 0.0, "bike_id": "719f062a21566419e66069db92edc796"}, {"name": "3d6dd5f916b07f296e4e384bd0109442", "is_reserved": 0, "is_disabled": 0, "lon": -77.06189316666666, "rental_uris": {"android": "https://dc.lft.to/lastmile_qr_scan", "ios": "https://dc.lft.to/lastmile_qr_scan"}, "fusion_lon": 0.0, "lat": 38.9301985, "type": "electric_scooter", "fusion_lat": 0.0, "bike_id": "3d6dd5f916b07f296e4e384bd0109442"}, {"name": "a44c3bccfaf5844ec2431099ec3ed10e", "is_reserved": 0, "is_disabled": 0, "lon": -77.02840466666666, "rental_uris": {"android": "https://dc.lft.to/lastmile_qr_scan", "ios": "https://dc.lft.to/lastmile_qr_scan"}, "fusion_lon": 0.0, "lat": 38.923845166666666, "type": "electric_scooter", "fusion_lat": 0.0, "bike_id": "a44c3bccfaf5844ec2431099ec3ed10e"}, {"name": "e97092266098d7b1c0a633ee5952f160", "is_reserved": 0, "is_disabled": 0, "lon": -77.02784766666667, "rental_uris": {"android": "https://dc.lft.to/lastmile_qr_scan", "ios": "https://dc.lft.to/lastmile_qr_scan"}, "fusion_lon": 0.0, "lat": 38.89938466666667, "type": "electric_scooter", "fusion_lat": 0.0, "bike_id": "e97092266098d7b1c0a633ee5952f160"}, {"name": "107204c206cd53686fdfb547c99a0bd0", "is_reserved": 0, "is_disabled": 0, "lon": -77.0328205, "rental_uris": {"android": "https://dc.lft.to/lastmile_qr_scan", "ios": "https://dc.lft.to/lastmile_qr_scan"}, "fusion_lon": 0.0, "lat": 38.93449366666667, "type": "electric_scooter", "fusion_lat": 0.0, "bike_id": "107204c206cd53686fdfb547c99a0bd0"}, {"name": "3488c616bfc889901b9c2c3fa588ee04", "is_reserved": 0, "is_disabled": 0, "lon": -77.0440615, "rental_uris": {"android": "https://dc.lft.to/lastmile_qr_scan", "ios": "https://dc.lft.to/lastmile_qr_scan"}, "fusion_lon": 0.0, "lat": 38.929513666666665, "type": "electric_scooter", "fusion_lat": 0.0, "bike_id": "3488c616bfc889901b9c2c3fa588ee04"}, {"name": "0fba54163873bbb85ea91cf66e02bedd", "is_reserved": 0, "is_disabled": 0, "lon": -77.03180516666667, "rental_uris": {"android": "https://dc.lft.to/lastmile_qr_scan", "ios": "https://dc.lft.to/lastmile_qr_scan"}, "fusion_lon": 0.0, "lat": 38.929202, "type": "electric_scooter", "fusion_lat": 0.0, "bike_id": "0fba54163873bbb85ea91cf66e02bedd"}, {"name": "7b9fca8475e63899a61c41a47017eca3", "is_reserved": 0, "is_disabled": 0, "lon": -77.00180866666666, "rental_uris": {"android": "https://dc.lft.to/lastmile_qr_scan", "ios": "https://dc.lft.to/lastmile_qr_scan"}, "fusion_lon": 0.0, "lat": 38.9003285, "type": "electric_scooter", "fusion_lat": 0.0, "bike_id": "7b9fca8475e63899a61c41a47017eca3"}, {"name": "cfe570545db52c2148f00c5ff029569d", "is_reserved": 0, "is_disabled": 0, "lon": -76.9742635, "rental_uris": {"android": "https://dc.lft.to/lastmile_qr_scan", "ios": "https://dc.lft.to/lastmile_qr_scan"}, "fusion_lon": 0.0, "lat": 38.864027, "type": "electric_scooter", "fusion_lat": 0.0, "bike_id": "cfe570545db52c2148f00c5ff029569d"}, {"name": "c233ec6b45c723f3e41e6bd692d27545", "is_reserved": 0, "is_disabled": 0, "lon": -77.00050616666667, "rental_uris": {"android": "https://dc.lft.to/lastmile_qr_scan", "ios": "https://dc.lft.to/lastmile_qr_scan"}, "fusion_lon": 0.0, "lat": 38.876623333333335, "type": "electric_scooter", "fusion_lat": 0.0, "bike_id": "c233ec6b45c723f3e41e6bd692d27545"}, {"name": "0791737c3c78a64243762f3a2445b362", "is_reserved": 0, "is_disabled": 0, "lon": -77.0205005, "rental_uris": {"android": "https://dc.lft.to/lastmile_qr_scan", "ios": "https://dc.lft.to/lastmile_qr_scan"}, "fusion_lon": 0.0, "lat": 38.9412545, "type": "electric_scooter", "fusion_lat": 0.0, "bike_id": "0791737c3c78a64243762f3a2445b362"}, {"name": "e1e73070ca6bc5368f21e9978737e49e", "is_reserved": 0, "is_disabled": 0, "lon": -77.06238233333333, "rental_uris": {"android": "https://dc.lft.to/lastmile_qr_scan", "ios": "https://dc.lft.to/lastmile_qr_scan"}, "fusion_lon": 0.0, "lat": 38.905280833333336, "type": "electric_scooter", "fusion_lat": 0.0, "bike_id": "e1e73070ca6bc5368f21e9978737e49e"}, {"name": "28160f0d3ae9d8ea96e3b7ac074d1b42", "is_reserved": 0, "is_disabled": 0, "lon": -76.9789155, "rental_uris": {"android": "https://dc.lft.to/lastmile_qr_scan", "ios": "https://dc.lft.to/lastmile_qr_scan"}, "fusion_lon": 0.0, "lat": 38.85492716666667, "type": "electric_bike", "fusion_lat": 0.0, "bike_id": "28160f0d3ae9d8ea96e3b7ac074d1b42"}, {"name": "e92477c894da49a2731708a46a47e965", "is_reserved": 0, "is_disabled": 0, "lon": -77.03622733333333, "rental_uris": {"android": "https://dc.lft.to/lastmile_qr_scan", "ios": "https://dc.lft.to/lastmile_qr_scan"}, "fusion_lon": 0.0, "lat": 38.95287183333333, "type": "electric_scooter", "fusion_lat": 0.0, "bike_id": "e92477c894da49a2731708a46a47e965"}, {"name": "99ec8592d1c218b8cf7f2006b2e5e6a6", "is_reserved": 0, "is_disabled": 0, "lon": -77.10171766666667, "rental_uris": {"android": "https://dc.lft.to/lastmile_qr_scan", "ios": "https://dc.lft.to/lastmile_qr_scan"}, "fusion_lon": 0.0, "lat": 38.9254835, "type": "electric_scooter", "fusion_lat": 0.0, "bike_id": "99ec8592d1c218b8cf7f2006b2e5e6a6"}, {"name": "fab9fa8543aaba6dd3a3ea58026a1a5c", "is_reserved": 0, "is_disabled": 0, "lon": -76.99458516666667, "rental_uris": {"android": "https://dc.lft.to/lastmile_qr_scan", "ios": "https://dc.lft.to/lastmile_qr_scan"}, "fusion_lon": 0.0, "lat": 38.8622475, "type": "electric_scooter", "fusion_lat": 0.0, "bike_id": "fab9fa8543aaba6dd3a3ea58026a1a5c"}, {"name": "21867819eaab869025dfea6263503777", "is_reserved": 0, "is_disabled": 0, "lon": -76.98717333333333, "rental_uris": {"android": "https://dc.lft.to/lastmile_qr_scan", "ios": "https://dc.lft.to/lastmile_qr_scan"}, "fusion_lon": 0.0, "lat": 38.899279166666666, "type": "electric_scooter", "fusion_lat": 0.0, "bike_id": "21867819eaab869025dfea6263503777"}, {"name": "3db611263d5aee5608f88122a1ede7a5", "is_reserved": 0, "is_disabled": 0, "lon": -77.03291633333333, "rental_uris": {"android": "https://dc.lft.to/lastmile_qr_scan", "ios": "https://dc.lft.to/lastmile_qr_scan"}, "fusion_lon": 0.0, "lat": 38.956413, "type": "electric_scooter", "fusion_lat": 0.0, "bike_id": "3db611263d5aee5608f88122a1ede7a5"}, {"name": "50693c85e19f389c32f55fe05b0a8228", "is_reserved": 0, "is_disabled": 0, "lon": -77.02482566666667, "rental_uris": {"android": "https://dc.lft.to/lastmile_qr_scan", "ios": "https://dc.lft.to/lastmile_qr_scan"}, "fusion_lon": 0.0, "lat": 38.938811, "type": "electric_scooter", "fusion_lat": 0.0, "bike_id": "50693c85e19f389c32f55fe05b0a8228"}, {"name": "d510707643a794cd4fa0bcd7dd8cd705", "is_reserved": 0, "is_disabled": 0, "lon": -76.95538016666667, "rental_uris": {"android": "https://dc.lft.to/lastmile_qr_scan", "ios": "https://dc.lft.to/lastmile_qr_scan"}, "fusion_lon": 0.0, "lat": 38.887642, "type": "electric_scooter", "fusion_lat": 0.0, "bike_id": "d510707643a794cd4fa0bcd7dd8cd705"}, {"name": "84995c1bdc15391b5556e71ba866d522", "is_reserved": 0, "is_disabled": 0, "lon": -77.03041216666666, "rental_uris": {"android": "https://dc.lft.to/lastmile_qr_scan", "ios": "https://dc.lft.to/lastmile_qr_scan"}, "fusion_lon": 0.0, "lat": 38.92238433333333, "type": "electric_scooter", "fusion_lat": 0.0, "bike_id": "84995c1bdc15391b5556e71ba866d522"}, {"name": "59a4e9b5b16f7729c02fd3a3f5c22590", "is_reserved": 0, "is_disabled": 0, "lon": -77.0271785, "rental_uris": {"android": "https://dc.lft.to/lastmile_qr_scan", "ios": "https://dc.lft.to/lastmile_qr_scan"}, "fusion_lon": 0.0, "lat": 38.9074765, "type": "electric_scooter", "fusion_lat": 0.0, "bike_id": "59a4e9b5b16f7729c02fd3a3f5c22590"}, {"name": "9d87d75e8c995ad81823a3702d585d8c", "is_reserved": 0, "is_disabled": 0, "lon": -76.90815683333334, "rental_uris": {"android": "https://dc.lft.to/lastmile_qr_scan", "ios": "https://dc.lft.to/lastmile_qr_scan"}, "fusion_lon": 0.0, "lat": 38.994558833333336, "type": "electric_bike", "fusion_lat": 0.0, "bike_id": "9d87d75e8c995ad81823a3702d585d8c"}, {"name": "d9e3bb0177a5c994823dec9552e7d797", "is_reserved": 0, "is_disabled": 0, "lon": -76.948863, "rental_uris": {"android": "https://dc.lft.to/lastmile_qr_scan", "ios": "https://dc.lft.to/lastmile_qr_scan"}, "fusion_lon": 0.0, "lat": 38.89511783333333, "type": "electric_scooter", "fusion_lat": 0.0, "bike_id": "d9e3bb0177a5c994823dec9552e7d797"}, {"name": "64fb05af437ffaf808bbdbca976e12da", "is_reserved": 0, "is_disabled": 0, "lon": -77.090179, "rental_uris": {"android": "https://dc.lft.to/lastmile_qr_scan", "ios": "https://dc.lft.to/lastmile_qr_scan"}, "fusion_lon": 0.0, "lat": 38.8412595, "type": "electric_bike", "fusion_lat": 0.0, "bike_id": "64fb05af437ffaf808bbdbca976e12da"}, {"name": "c4b96f3d32f3f74b21de83894b489300", "is_reserved": 0, "is_disabled": 0, "lon": -76.992269, "rental_uris": {"android": "https://dc.lft.to/lastmile_qr_scan", "ios": "https://dc.lft.to/lastmile_qr_scan"}, "fusion_lon": 0.0, "lat": 38.89888116666667, "type": "electric_scooter", "fusion_lat": 0.0, "bike_id": "c4b96f3d32f3f74b21de83894b489300"}, {"name": "c6030ab203dfce60bad15028398208e0", "is_reserved": 0, "is_disabled": 0, "lon": -77.03833783333333, "rental_uris": {"android": "https://dc.lft.to/lastmile_qr_scan", "ios": "https://dc.lft.to/lastmile_qr_scan"}, "fusion_lon": 0.0, "lat": 38.903776, "type": "electric_scooter", "fusion_lat": 0.0, "bike_id": "c6030ab203dfce60bad15028398208e0"}, {"name": "f1b281799bd9c0bd2605bfa392b675cd", "is_reserved": 0, "is_disabled": 0, "lon": -77.1990975, "rental_uris": {"android": "https://dc.lft.to/lastmile_qr_scan", "ios": "https://dc.lft.to/lastmile_qr_scan"}, "fusion_lon": 0.0, "lat": 38.8753305, "type": "electric_bike", "fusion_lat": 0.0, "bike_id": "f1b281799bd9c0bd2605bfa392b675cd"}, {"name": "862e629cab74dbe0287cf031ae3926aa", "is_reserved": 0, "is_disabled": 0, "lon": -77.04082733333334, "rental_uris": {"android": "https://dc.lft.to/lastmile_qr_scan", "ios": "https://dc.lft.to/lastmile_qr_scan"}, "fusion_lon": 0.0, "lat": 38.91107916666667, "type": "electric_scooter", "fusion_lat": 0.0, "bike_id": "862e629cab74dbe0287cf031ae3926aa"}, {"name": "4173542828aec3ec680add7f2cae2164", "is_reserved": 0, "is_disabled": 0, "lon": -77.04657533333334, "rental_uris": {"android": "https://dc.lft.to/lastmile_qr_scan", "ios": "https://dc.lft.to/lastmile_qr_scan"}, "fusion_lon": 0.0, "lat": 38.904294166666666, "type": "electric_scooter", "fusion_lat": 0.0, "bike_id": "4173542828aec3ec680add7f2cae2164"}, {"name": "4a51d39505f8b3c926225bb1e6cee87d", "is_reserved": 0, "is_disabled": 0, "lon": -77.149911, "rental_uris": {"android": "https://dc.lft.to/lastmile_qr_scan", "ios": "https://dc.lft.to/lastmile_qr_scan"}, "fusion_lon": 0.0, "lat": 39.0946605, "type": "electric_bike", "fusion_lat": 0.0, "bike_id": "4a51d39505f8b3c926225bb1e6cee87d"}, {"name": "6769d2991f4b99479710fd498c9d2f6a", "is_reserved": 0, "is_disabled": 0, "lon": -77.0408785, "rental_uris": {"android": "https://dc.lft.to/lastmile_qr_scan", "ios": "https://dc.lft.to/lastmile_qr_scan"}, "fusion_lon": 0.0, "lat": 38.9239515, "type": "electric_scooter", "fusion_lat": 0.0, "bike_id": "6769d2991f4b99479710fd498c9d2f6a"}, {"name": "f07eeeba87c8fd557b9fb2bf59ae4c6e", "is_reserved": 0, "is_disabled": 0, "lon": -77.07311933333334, "rental_uris": {"android": "https://dc.lft.to/lastmile_qr_scan", "ios": "https://dc.lft.to/lastmile_qr_scan"}, "fusion_lon": 0.0, "lat": 38.912033, "type": "electric_scooter", "fusion_lat": 0.0, "bike_id": "f07eeeba87c8fd557b9fb2bf59ae4c6e"}, {"name": "0522f5033c7671408a95d2991b0d5e5e", "is_reserved": 0, "is_disabled": 0, "lon": -77.0184495, "rental_uris": {"android": "https://dc.lft.to/lastmile_qr_scan", "ios": "https://dc.lft.to/lastmile_qr_scan"}, "fusion_lon": 0.0, "lat": 38.90372983333334, "type": "electric_scooter", "fusion_lat": 0.0, "bike_id": "0522f5033c7671408a95d2991b0d5e5e"}, {"name": "df854da361056d8d958760f3d3678d0b", "is_reserved": 0, "is_disabled": 0, "lon": -77.02380516666666, "rental_uris": {"android": "https://dc.lft.to/lastmile_qr_scan", "ios": "https://dc.lft.to/lastmile_qr_scan"}, "fusion_lon": 0.0, "lat": 38.92049933333333, "type": "electric_scooter", "fusion_lat": 0.0, "bike_id": "df854da361056d8d958760f3d3678d0b"}, {"name": "92d84aed194043125c993d43ceb22e61", "is_reserved": 0, "is_disabled": 0, "lon": -76.97192216666667, "rental_uris": {"android": "https://dc.lft.to/lastmile_qr_scan", "ios": "https://dc.lft.to/lastmile_qr_scan"}, "fusion_lon": 0.0, "lat": 38.89247916666667, "type": "electric_bike", "fusion_lat": 0.0, "bike_id": "92d84aed194043125c993d43ceb22e61"}, {"name": "2c0344fd6fdbc19051226458985dee01", "is_reserved": 0, "is_disabled": 0, "lon": -77.0318215, "rental_uris": {"android": "https://dc.lft.to/lastmile_qr_scan", "ios": "https://dc.lft.to/lastmile_qr_scan"}, "fusion_lon": 0.0, "lat": 38.909479, "type": "electric_scooter", "fusion_lat": 0.0, "bike_id": "2c0344fd6fdbc19051226458985dee01"}, {"name": "861adef3c2c143fe09ce624dd05a115c", "is_reserved": 0, "is_disabled": 0, "lon": -77.03471683333333, "rental_uris": {"android": "https://dc.lft.to/lastmile_qr_scan", "ios": "https://dc.lft.to/lastmile_qr_scan"}, "fusion_lon": 0.0, "lat": 38.92873516666667, "type": "electric_scooter", "fusion_lat": 0.0, "bike_id": "861adef3c2c143fe09ce624dd05a115c"}, {"name": "26b0e6780015682995e52e9a6801ccbb", "is_reserved": 0, "is_disabled": 0, "lon": -77.00562866666667, "rental_uris": {"android": "https://dc.lft.to/lastmile_qr_scan", "ios": "https://dc.lft.to/lastmile_qr_scan"}, "fusion_lon": 0.0, "lat": 38.88506, "type": "electric_scooter", "fusion_lat": 0.0, "bike_id": "26b0e6780015682995e52e9a6801ccbb"}, {"name": "0441636eb124306e80e1dbefc24fd01b", "is_reserved": 0, "is_disabled": 0, "lon": -76.986857, "rental_uris": {"android": "https://dc.lft.to/lastmile_qr_scan", "ios": "https://dc.lft.to/lastmile_qr_scan"}, "fusion_lon": 0.0, "lat": 38.885326166666665, "type": "electric_scooter", "fusion_lat": 0.0, "bike_id": "0441636eb124306e80e1dbefc24fd01b"}, {"name": "15ed86000e8e7dd4a98813b5739ff477", "is_reserved": 0, "is_disabled": 0, "lon": -77.02068066666666, "rental_uris": {"android": "https://dc.lft.to/lastmile_qr_scan", "ios": "https://dc.lft.to/lastmile_qr_scan"}, "fusion_lon": 0.0, "lat": 38.904035, "type": "electric_scooter", "fusion_lat": 0.0, "bike_id": "15ed86000e8e7dd4a98813b5739ff477"}, {"name": "e0ff0bf142068e2f7018da58ce91cfa3", "is_reserved": 0, "is_disabled": 0, "lon": -77.013716, "rental_uris": {"android": "https://dc.lft.to/lastmile_qr_scan", "ios": "https://dc.lft.to/lastmile_qr_scan"}, "fusion_lon": 0.0, "lat": 38.89222816666667, "type": "electric_scooter", "fusion_lat": 0.0, "bike_id": "e0ff0bf142068e2f7018da58ce91cfa3"}, {"name": "8a8763eccdd80d62c305fd0f5d5da502", "is_reserved": 0, "is_disabled": 0, "lon": -77.04345816666667, "rental_uris": {"android": "https://dc.lft.to/lastmile_qr_scan", "ios": "https://dc.lft.to/lastmile_qr_scan"}, "fusion_lon": 0.0, "lat": 38.9105845, "type": "electric_scooter", "fusion_lat": 0.0, "bike_id": "8a8763eccdd80d62c305fd0f5d5da502"}, {"name": "a009b2da743206b0f1a2bce082d046bb", "is_reserved": 0, "is_disabled": 0, "lon": -76.98904933333333, "rental_uris": {"android": "https://dc.lft.to/lastmile_qr_scan", "ios": "https://dc.lft.to/lastmile_qr_scan"}, "fusion_lon": 0.0, "lat": 38.900270666666664, "type": "electric_bike", "fusion_lat": 0.0, "bike_id": "a009b2da743206b0f1a2bce082d046bb"}, {"name": "5f3941c18e068836b0c75a5895967e1b", "is_reserved": 0, "is_disabled": 0, "lon": -77.03892483333334, "rental_uris": {"android": "https://dc.lft.to/lastmile_qr_scan", "ios": "https://dc.lft.to/lastmile_qr_scan"}, "fusion_lon": 0.0, "lat": 38.904758333333334, "type": "electric_scooter", "fusion_lat": 0.0, "bike_id": "5f3941c18e068836b0c75a5895967e1b"}, {"name": "53414ea7e682c9a248a0b3c82d925278", "is_reserved": 0, "is_disabled": 0, "lon": -77.04412283333333, "rental_uris": {"android": "https://dc.lft.to/lastmile_qr_scan", "ios": "https://dc.lft.to/lastmile_qr_scan"},