{"data": {"bikes": [{"name": "ef29e4baab1cd718a169fa1388d48921", "fusion_lat": 0.0, "type": "electric_scooter", "lat": 38.862081333333336, "is_reserved": 0, "is_disabled": 0, "fusion_lon": 0.0, "bike_id": "ef29e4baab1cd718a169fa1388d48921", "lon": -76.99470716666667, "rental_uris": {"ios": "https://dc.lft.to/lastmile_qr_scan", "android": "https://dc.lft.to/lastmile_qr_scan"}}, {"name": "263c22676de1c6ae87c965efacb3d5f5", "fusion_lat": 0.0, "type": "electric_scooter", "lat": 38.92899083333333, "is_reserved": 0, "is_disabled": 0, "fusion_lon": 0.0, "bike_id": "263c22676de1c6ae87c965efacb3d5f5", "lon": -77.0249885, "rental_uris": {"ios": "https://dc.lft.to/lastmile_qr_scan", "android": "https://dc.lft.to/lastmile_qr_scan"}}, {"name": "aaf26955c54a584b05904fb7919766b1", "fusion_lat": 0.0, "type": "electric_scooter", "lat": 38.94839533333333, "is_reserved": 0, "is_disabled": 0, "fusion_lon": 0.0, "bike_id": "aaf26955c54a584b05904fb7919766b1", "lon": -77.02552833333333, "rental_uris": {"ios": "https://dc.lft.to/lastmile_qr_scan", "android": "https://dc.lft.to/lastmile_qr_scan"}}, {"name": "c45df59c0f92a3fd7cf7b929818e04ad", "fusion_lat": 0.0, "type": "electric_scooter", "lat": 38.923154833333335, "is_reserved": 0, "is_disabled": 0, "fusion_lon": 0.0, "bike_id": "c45df59c0f92a3fd7cf7b929818e04ad", "lon": -77.04103833333333, "rental_uris": {"ios": "https://dc.lft.to/lastmile_qr_scan", "android": "https://dc.lft.to/lastmile_qr_scan"}}, {"name": "71e4c0742829e3827907108771d36255", "fusion_lat": 0.0, "type": "electric_bike", "lat": 38.9480575, "is_reserved": 0, "is_disabled": 0, "fusion_lon": 0.0, "bike_id": "71e4c0742829e3827907108771d36255", "lon": -77.02140266666666, "rental_uris": {"ios": "https://dc.lft.to/lastmile_qr_scan", "android": "https://dc.lft.to/lastmile_qr_scan"}}, {"name": "6030754639b57888d61b50a11cbc1c05", "fusion_lat": 0.0, "type": "electric_scooter", "lat": 38.89690216666666, "is_reserved": 0, "is_disabled": 0, "fusion_lon": 0.0, "bike_id": "6030754639b57888d61b50a11cbc1c05", "lon": -77.0216605, "rental_uris": {"ios": "https://dc.lft.to/lastmile_qr_scan", "android": "https://dc.lft.to/lastmile_qr_scan"}}, {"name": "093e3d2e7b8a2b8bdf7af7c25ad016cb", "fusion_lat": 0.0, "type": "electric_scooter", "lat": 38.879846666666666, "is_reserved": 0, "is_disabled": 0, "fusion_lon": 0.0, "bike_id": "093e3d2e7b8a2b8bdf7af7c25ad016cb", "lon": -76.98385116666667, "rental_uris": {"ios": "https://dc.lft.to/lastmile_qr_scan", "android": "https://dc.lft.to/lastmile_qr_scan"}}, {"name": "96c02ff91037d7ec2f7f629176c3d657", "fusion_lat": 0.0, "type": "electric_bike", "lat": 38.870757833333336, "is_reserved": 0, "is_disabled": 0, "fusion_lon": 0.0, "bike_id": "96c02ff91037d7ec2f7f629176c3d657", "lon": -77.11035283333334, "rental_uris": {"ios": "https://dc.lft.to/lastmile_qr_scan", "android": "https://dc.lft.to/lastmile_qr_scan"}}, {"name": "77c934f7b2eaa24415216eaab4fa830a", "fusion_lat": 0.0, "type": "electric_scooter", "lat": 38.92366833333333, "is_reserved": 0, "is_disabled": 0, "fusion_lon": 0.0, "bike_id": "77c934f7b2eaa24415216eaab4fa830a", "lon": -77.01918466666666, "rental_uris": {"ios": "https://dc.lft.to/lastmile_qr_scan", "android": "https://dc.lft.to/lastmile_qr_scan"}}, {"name": "637a1cc05566c0b58c4af4fbeb147ef5", "fusion_lat": 0.0, "type": "electric_scooter", "lat": 38.877507333333334, "is_reserved": 0, "is_disabled": 0, "fusion_lon": 0.0, "bike_id": "637a1cc05566c0b58c4af4fbeb147ef5", "lon": -76.97240983333333, "rental_uris": {"ios": "https://dc.lft.to/lastmile_qr_scan", "android": "https://dc.lft.to/lastmile_qr_scan"}}, {"name": "6b082c682feb66e27f4f1bf3eaa01b4e", "fusion_lat": 0.0, "type": "electric_scooter", "lat": 38.892256833333334, "is_reserved": 0, "is_disabled": 0, "fusion_lon": 0.0, "bike_id": "6b082c682feb66e27f4f1bf3eaa01b4e", "lon": -77.05005333333334, "rental_uris": {"ios": "https://dc.lft.to/lastmile_qr_scan", "android": "https://dc.lft.to/lastmile_qr_scan"}}, {"name": "8e76e0d88b378bfaa3a2f674a5c477d8", "fusion_lat": 0.0, "type": "electric_scooter", "lat": 38.92413533333333, "is_reserved": 0, "is_disabled": 0, "fusion_lon": 0.0, "bike_id": "8e76e0d88b378bfaa3a2f674a5c477d8", "lon": -77.01941133333334, "rental_uris": {"ios": "https://dc.lft.to/lastmile_qr_scan", "android": "https://dc.lft.to/lastmile_qr_scan"}}, {"name": "cf460ab31b830b42841a1e82c4000944", "fusion_lat": 0.0, "type": "electric_scooter", "lat": 38.9182025, "is_reserved": 0, "is_disabled": 0, "fusion_lon": 0.0, "bike_id": "cf460ab31b830b42841a1e82c4000944", "lon": -77.04005266666667, "rental_uris": {"ios": "https://dc.lft.to/lastmile_qr_scan", "android": "https://dc.lft.to/lastmile_qr_scan"}}, {"name": "1438eb681ab9c204277e1cb285f54d3d", "fusion_lat": 0.0, "type": "electric_scooter", "lat": 38.8775235, "is_reserved": 0, "is_disabled": 0, "fusion_lon": 0.0, "bike_id": "1438eb681ab9c204277e1cb285f54d3d", "lon": -77.01988466666667, "rental_uris": {"ios": "https://dc.lft.to/lastmile_qr_scan", "android": "https://dc.lft.to/lastmile_qr_scan"}}, {"name": "2a48e09caefe4b432e65b398d464d67e", "fusion_lat": 0.0, "type": "electric_scooter", "lat": 38.924788666666664, "is_reserved": 0, "is_disabled": 0, "fusion_lon": 0.0, "bike_id": "2a48e09caefe4b432e65b398d464d67e", "lon": -77.02836383333333, "rental_uris": {"ios": "https://dc.lft.to/lastmile_qr_scan", "android": "https://dc.lft.to/lastmile_qr_scan"}}, {"name": "b3b895ec891d85a1a30b16735016cce4", "fusion_lat": 0.0, "type": "electric_scooter", "lat": 38.936130166666665, "is_reserved": 0, "is_disabled": 0, "fusion_lon": 0.0, "bike_id": "b3b895ec891d85a1a30b16735016cce4", "lon": -77.03205216666667, "rental_uris": {"ios": "https://dc.lft.to/lastmile_qr_scan", "android": "https://dc.lft.to/lastmile_qr_scan"}}, {"name": "deb3b8ba553e1a613a7c8af9e6a9d4d7", "fusion_lat": 0.0, "type": "electric_scooter", "lat": 38.901468666666666, "is_reserved": 0, "is_disabled": 0, "fusion_lon": 0.0, "bike_id": "deb3b8ba553e1a613a7c8af9e6a9d4d7", "lon": -77.00062516666667, "rental_uris": {"ios": "https://dc.lft.to/lastmile_qr_scan", "android": "https://dc.lft.to/lastmile_qr_scan"}}, {"name": "63b43d71b1db4487f4439e03bb505e11", "fusion_lat": 0.0, "type": "electric_scooter", "lat": 38.91945783333333, "is_reserved": 0, "is_disabled": 0, "fusion_lon": 0.0, "bike_id": "63b43d71b1db4487f4439e03bb505e11", "lon": -77.0138905, "rental_uris": {"ios": "https://dc.lft.to/lastmile_qr_scan", "android": "https://dc.lft.to/lastmile_qr_scan"}}, {"name": "bc32c431bf0a7af42bb9fbc2c98c767e", "fusion_lat": 0.0, "type": "electric_bike", "lat": 38.9109715, "is_reserved": 0, "is_disabled": 0, "fusion_lon": 0.0, "bike_id": "bc32c431bf0a7af42bb9fbc2c98c767e", "lon": -77.004895, "rental_uris": {"ios": "https://dc.lft.to/lastmile_qr_scan", "android": "https://dc.lft.to/lastmile_qr_scan"}}, {"name": "3bc810fd4a1442fb8275dcdf48765fe2", "fusion_lat": 0.0, "type": "electric_scooter", "lat": 38.9216895, "is_reserved": 0, "is_disabled": 0, "fusion_lon": 0.0, "bike_id": "3bc810fd4a1442fb8275dcdf48765fe2", "lon": -76.99631583333333, "rental_uris": {"ios": "https://dc.lft.to/lastmile_qr_scan", "android": "https://dc.lft.to/lastmile_qr_scan"}}, {"name": "7cb98833a399c212a5f0d77b81b1681e", "fusion_lat": 0.0, "type": "electric_scooter", "lat": 38.892436833333335, "is_reserved": 0, "is_disabled": 0, "fusion_lon": 0.0, "bike_id": "7cb98833a399c212a5f0d77b81b1681e", "lon": -77.0178225, "rental_uris": {"ios": "https://dc.lft.to/lastmile_qr_scan", "android": "https://dc.lft.to/lastmile_qr_scan"}}, {"name": "fd64360191e95a136c1428b732195100", "fusion_lat": 0.0, "type": "electric_bike", "lat": 38.86160816666667, "is_reserved": 0, "is_disabled": 0, "fusion_lon": 0.0, "bike_id": "fd64360191e95a136c1428b732195100", "lon": -77.13092316666666, "rental_uris": {"ios": "https://dc.lft.to/lastmile_qr_scan", "android": "https://dc.lft.to/lastmile_qr_scan"}}, {"name": "0781e461b46a563eb7cb282527b8a5e2", "fusion_lat": 0.0, "type": "electric_scooter", "lat": 38.912634, "is_reserved": 0, "is_disabled": 0, "fusion_lon": 0.0, "bike_id": "0781e461b46a563eb7cb282527b8a5e2", "lon": -77.04210866666666, "rental_uris": {"ios": "https://dc.lft.to/lastmile_qr_scan", "android": "https://dc.lft.to/lastmile_qr_scan"}}, {"name": "47d1bcb211d78801d8abe62b6645ee46", "fusion_lat": 0.0, "type": "electric_scooter", "lat": 38.9235705, "is_reserved": 0, "is_disabled": 0, "fusion_lon": 0.0, "bike_id": "47d1bcb211d78801d8abe62b6645ee46", "lon": -77.03364616666667, "rental_uris": {"ios": "https://dc.lft.to/lastmile_qr_scan", "android": "https://dc.lft.to/lastmile_qr_scan"}}, {"name": "655ba12ef817f082826c1c06e7768fe6", "fusion_lat": 0.0, "type": "electric_scooter", "lat": 38.90236216666667, "is_reserved": 0, "is_disabled": 0, "fusion_lon": 0.0, "bike_id": "655ba12ef817f082826c1c06e7768fe6", "lon": -76.97413783333333, "rental_uris": {"ios": "https://dc.lft.to/lastmile_qr_scan", "android": "https://dc.lft.to/lastmile_qr_scan"}}, {"name": "8caa3761ff3611bef038fd98ba296aea", "fusion_lat": 0.0, "type": "electric_scooter", "lat": 38.93475183333334, "is_reserved": 0, "is_disabled": 0, "fusion_lon": 0.0, "bike_id": "8caa3761ff3611bef038fd98ba296aea", "lon": -77.0339445, "rental_uris": {"ios": "https://dc.lft.to/lastmile_qr_scan", "android": "https://dc.lft.to/lastmile_qr_scan"}}, {"name": "f59344d8febda4b058af1ecdcd876084", "fusion_lat": 0.0, "type": "electric_scooter", "lat": 38.92074783333333, "is_reserved": 0, "is_disabled": 0, "fusion_lon": 0.0, "bike_id": "f59344d8febda4b058af1ecdcd876084", "lon": -77.0238815, "rental_uris": {"ios": "https://dc.lft.to/lastmile_qr_scan", "android": "https://dc.lft.to/lastmile_qr_scan"}}, {"name": "2d58de8a06f421e5e09f99dd9352c1b4", "fusion_lat": 0.0, "type": "electric_bike", "lat": 38.96758616666666, "is_reserved": 0, "is_disabled": 0, "fusion_lon": 0.0, "bike_id": "2d58de8a06f421e5e09f99dd9352c1b4", "lon": -77.09155, "rental_uris": {"ios": "https://dc.lft.to/lastmile_qr_scan", "android": "https://dc.lft.to/lastmile_qr_scan"}}, {"name": "ddc6480ef7e4a2714118d2164730dc29", "fusion_lat": 0.0, "type": "electric_scooter", "lat": 38.92177133333333, "is_reserved": 0, "is_disabled": 0, "fusion_lon": 0.0, "bike_id": "ddc6480ef7e4a2714118d2164730dc29", "lon": -77.02667066666666, "rental_uris": {"ios": "https://dc.lft.to/lastmile_qr_scan", "android": "https://dc.lft.to/lastmile_qr_scan"}}, {"name": "515112a7c5bfed8e33a997c875e221aa", "fusion_lat": 0.0, "type": "electric_scooter", "lat": 38.8834615, "is_reserved": 0, "is_disabled": 0, "fusion_lon": 0.0, "bike_id": "515112a7c5bfed8e33a997c875e221aa", "lon": -77.0233315, "rental_uris": {"ios": "https://dc.lft.to/lastmile_qr_scan", "android": "https://dc.lft.to/lastmile_qr_scan"}}, {"name": "2a9a0a0c77ba22fb1f369f60cf125f7b", "fusion_lat": 0.0, "type": "electric_scooter", "lat": 38.91403433333333, "is_reserved": 0, "is_disabled": 0, "fusion_lon": 0.0, "bike_id": "2a9a0a0c77ba22fb1f369f60cf125f7b", "lon": -77.00801566666667, "rental_uris": {"ios": "https://dc.lft.to/lastmile_qr_scan", "android": "https://dc.lft.to/lastmile_qr_scan"}}, {"name": "a5b2fcddfecb50aadd05a838cef79687", "fusion_lat": 0.0, "type": "electric_scooter", "lat": 38.905691166666664, "is_reserved": 0, "is_disabled": 0, "fusion_lon": 0.0, "bike_id": "a5b2fcddfecb50aadd05a838cef79687", "lon": -77.03646133333334, "rental_uris": {"ios": "https://dc.lft.to/lastmile_qr_scan", "android": "https://dc.lft.to/lastmile_qr_scan"}}, {"name": "7cda7fc76539adb76216ab9dbb2bc7fa", "fusion_lat": 0.0, "type": "electric_scooter", "lat": 38.89802683333333, "is_reserved": 0, "is_disabled": 0, "fusion_lon": 0.0, "bike_id": "7cda7fc76539adb76216ab9dbb2bc7fa", "lon": -76.99493816666667, "rental_uris": {"ios": "https://dc.lft.to/lastmile_qr_scan", "android": "https://dc.lft.to/lastmile_qr_scan"}}, {"name": "195ed19207952b91b6002fb103835c71", "fusion_lat": 0.0, "type": "electric_scooter", "lat": 38.8976035, "is_reserved": 0, "is_disabled": 0, "fusion_lon": 0.0, "bike_id": "195ed19207952b91b6002fb103835c71", "lon": -77.04782133333333, "rental_uris": {"ios": "https://dc.lft.to/lastmile_qr_scan", "android": "https://dc.lft.to/lastmile_qr_scan"}}, {"name": "e751fde3332fde7a0e51348f2dff5e7a", "fusion_lat": 0.0, "type": "electric_scooter", "lat": 38.9031225, "is_reserved": 0, "is_disabled": 0, "fusion_lon": 0.0, "bike_id": "e751fde3332fde7a0e51348f2dff5e7a", "lon": -77.04986733333334, "rental_uris": {"ios": "https://dc.lft.to/lastmile_qr_scan", "android": "https://dc.lft.to/lastmile_qr_scan"}}, {"name": "91d7bf6355b945ae3d07bdc008b94879", "fusion_lat": 0.0, "type": "electric_scooter", "lat": 38.90679633333333, "is_reserved": 0, "is_disabled": 0, "fusion_lon": 0.0, "bike_id": "91d7bf6355b945ae3d07bdc008b94879", "lon": -77.0417155, "rental_uris": {"ios": "https://dc.lft.to/lastmile_qr_scan", "android": "https://dc.lft.to/lastmile_qr_scan"}}, {"name": "9183cef6bad6b42f9b5c29e1116850b1", "fusion_lat": 0.0, "type": "electric_scooter", "lat": 38.88960766666667, "is_reserved": 0, "is_disabled": 0, "fusion_lon": 0.0, "bike_id": "9183cef6bad6b42f9b5c29e1116850b1", "lon": -76.92768783333334, "rental_uris": {"ios": "https://dc.lft.to/lastmile_qr_scan", "android": "https://dc.lft.to/lastmile_qr_scan"}}, {"name": "c8164560d8d18311df148d0e7674256a", "fusion_lat": 0.0, "type": "electric_scooter", "lat": 38.90037133333333, "is_reserved": 0, "is_disabled": 0, "fusion_lon": 0.0, "bike_id": "c8164560d8d18311df148d0e7674256a", "lon": -76.91913383333333, "rental_uris": {"ios": "https://dc.lft.to/lastmile_qr_scan", "android": "https://dc.lft.to/lastmile_qr_scan"}}, {"name": "bc194a9caeea99884b37948bf5eb187d", "fusion_lat": 0.0, "type": "electric_scooter", "lat": 38.93391, "is_reserved": 0, "is_disabled": 0, "fusion_lon": 0.0, "bike_id": "bc194a9caeea99884b37948bf5eb187d", "lon": -77.03155466666666, "rental_uris": {"ios": "https://dc.lft.to/lastmile_qr_scan", "android": "https://dc.lft.to/lastmile_qr_scan"}}, {"name": "ffb277726345eaac0bc449924186e037", "fusion_lat": 0.0, "type": "electric_bike", "lat": 38.93774166666667, "is_reserved": 0, "is_disabled": 0, "fusion_lon": 0.0, "bike_id": "ffb277726345eaac0bc449924186e037", "lon": -77.0190765, "rental_uris": {"ios": "https://dc.lft.to/lastmile_qr_scan", "android": "https://dc.lft.to/lastmile_qr_scan"}}, {"name": "c075710820b75ced2c821ad0bc34fa60", "fusion_lat": 0.0, "type": "electric_scooter", "lat": 38.91826783333333, "is_reserved": 0, "is_disabled": 0, "fusion_lon": 0.0, "bike_id": "c075710820b75ced2c821ad0bc34fa60", "lon": -77.031939, "rental_uris": {"ios": "https://dc.lft.to/lastmile_qr_scan", "android": "https://dc.lft.to/lastmile_qr_scan"}}, {"name": "a22d2a0968779bd7e6b3344b0e52de8e", "fusion_lat": 0.0, "type": "electric_scooter", "lat": 38.92338266666667, "is_reserved": 0, "is_disabled": 0, "fusion_lon": 0.0, "bike_id": "a22d2a0968779bd7e6b3344b0e52de8e", "lon": -77.05096283333333, "rental_uris": {"ios": "https://dc.lft.to/lastmile_qr_scan", "android": "https://dc.lft.to/lastmile_qr_scan"}}, {"name": "d199b4f72d64752ea0d02877444e210d", "fusion_lat": 0.0, "type": "electric_scooter", "lat": 38.857147499999996, "is_reserved": 0, "is_disabled": 0, "fusion_lon": 0.0, "bike_id": "d199b4f72d64752ea0d02877444e210d", "lon": -76.981027, "rental_uris": {"ios": "https://dc.lft.to/lastmile_qr_scan", "android": "https://dc.lft.to/lastmile_qr_scan"}}, {"name": "e0043610822b292f04f2b5d26089e7dc", "fusion_lat": 0.0, "type": "electric_scooter", "lat": 38.903312666666665, "is_reserved": 0, "is_disabled": 0, "fusion_lon": 0.0, "bike_id": "e0043610822b292f04f2b5d26089e7dc", "lon": -77.0382765, "rental_uris": {"ios": "https://dc.lft.to/lastmile_qr_scan", "android": "https://dc.lft.to/lastmile_qr_scan"}}, {"name": "dd57329f594500bfec56ec3214aa06e0", "fusion_lat": 0.0, "type": "electric_scooter", "lat": 38.90255466666667, "is_reserved": 0, "is_disabled": 0, "fusion_lon": 0.0, "bike_id": "dd57329f594500bfec56ec3214aa06e0", "lon": -77.01534733333334, "rental_uris": {"ios": "https://dc.lft.to/lastmile_qr_scan", "android": "https://dc.lft.to/lastmile_qr_scan"}}, {"name": "c47203076d3b6d7c7cdef26dc9363856", "fusion_lat": 0.0, "type": "electric_scooter", "lat": 38.93871883333333, "is_reserved": 0, "is_disabled": 0, "fusion_lon": 0.0, "bike_id": "c47203076d3b6d7c7cdef26dc9363856", "lon": -77.03213, "rental_uris": {"ios": "https://dc.lft.to/lastmile_qr_scan", "android": "https://dc.lft.to/lastmile_qr_scan"}}, {"name": "8e4cbf55c0c975419deef2f9c1169504", "fusion_lat": 0.0, "type": "electric_scooter", "lat": 38.905165, "is_reserved": 0, "is_disabled": 0, "fusion_lon": 0.0, "bike_id": "8e4cbf55c0c975419deef2f9c1169504", "lon": -77.06937433333333, "rental_uris": {"ios": "https://dc.lft.to/lastmile_qr_scan", "android": "https://dc.lft.to/lastmile_qr_scan"}}, {"name": "2418f73b34cb01c01a37eaac0e651194", "fusion_lat": 0.0, "type": "electric_scooter", "lat": 38.895616, "is_reserved": 0, "is_disabled": 0, "fusion_lon": 0.0, "bike_id": "2418f73b34cb01c01a37eaac0e651194", "lon": -77.01115216666666, "rental_uris": {"ios": "https://dc.lft.to/lastmile_qr_scan", "android": "https://dc.lft.to/lastmile_qr_scan"}}, {"name": "177b6c6b759ed334268643e63aa9a71c", "fusion_lat": 0.0, "type": "electric_scooter", "lat": 38.907387, "is_reserved": 0, "is_disabled": 0, "fusion_lon": 0.0, "bike_id": "177b6c6b759ed334268643e63aa9a71c", "lon": -77.04663366666666, "rental_uris": {"ios": "https://dc.lft.to/lastmile_qr_scan", "android": "https://dc.lft.to/lastmile_qr_scan"}}, {"name": "e6ac93f39aaf7922b54108a75a709b99", "fusion_lat": 0.0, "type": "electric_scooter", "lat": 38.89237516666667, "is_reserved": 0, "is_disabled": 0, "fusion_lon": 0.0, "bike_id": "e6ac93f39aaf7922b54108a75a709b99", "lon": -77.03184316666666, "rental_uris": {"ios": "https://dc.lft.to/lastmile_qr_scan", "android": "https://dc.lft.to/lastmile_qr_scan"}}, {"name": "7065c77b44b3980ed8f281a29e3fc623", "fusion_lat": 0.0, "type": "electric_scooter", "lat": 38.91112966666667, "is_reserved": 0, "is_disabled": 0, "fusion_lon": 0.0, "bike_id": "7065c77b44b3980ed8f281a29e3fc623", "lon": -77.01056083333333, "rental_uris": {"ios": "https://dc.lft.to/lastmile_qr_scan", "android": "https://dc.lft.to/lastmile_qr_scan"}}, {"name": "76eab1cfc191e304eb8496de4880bd74", "fusion_lat": 0.0, "type": "electric_scooter", "lat": 38.9118665, "is_reserved": 0, "is_disabled": 0, "fusion_lon": 0.0, "bike_id": "76eab1cfc191e304eb8496de4880bd74", "lon": -77.00729483333333, "rental_uris": {"ios": "https://dc.lft.to/lastmile_qr_scan", "android": "https://dc.lft.to/lastmile_qr_scan"}}, {"name": "24b06702decb2c5938311b6a20dc227e", "fusion_lat": 0.0, "type": "electric_scooter", "lat": 38.925321833333335, "is_reserved": 0, "is_disabled": 0, "fusion_lon": 0.0, "bike_id": "24b06702decb2c5938311b6a20dc227e", "lon": -77.03262933333333, "rental_uris": {"ios": "https://dc.lft.to/lastmile_qr_scan", "android": "https://dc.lft.to/lastmile_qr_scan"}}, {"name": "69d021125521bb9c42009d650c4ccc97", "fusion_lat": 0.0, "type": "electric_scooter", "lat": 38.939219, "is_reserved": 0, "is_disabled": 0, "fusion_lon": 0.0, "bike_id": "69d021125521bb9c42009d650c4ccc97", "lon": -77.03668283333333, "rental_uris": {"ios": "https://dc.lft.to/lastmile_qr_scan", "android": "https://dc.lft.to/lastmile_qr_scan"}}, {"name": "cab67762a7b8a9653139b60c56d2e2e7", "fusion_lat": 0.0, "type": "electric_scooter", "lat": 38.931104, "is_reserved": 0, "is_disabled": 0, "fusion_lon": 0.0, "bike_id": "cab67762a7b8a9653139b60c56d2e2e7", "lon": -77.03841116666666, "rental_uris": {"ios": "https://dc.lft.to/lastmile_qr_scan", "android": "https://dc.lft.to/lastmile_qr_scan"}}, {"name": "f5be53eefcc195d4913c1610cbb93856", "fusion_lat": 0.0, "type": "electric_scooter", "lat": 38.939405666666666, "is_reserved": 0, "is_disabled": 0, "fusion_lon": 0.0, "bike_id": "f5be53eefcc195d4913c1610cbb93856", "lon": -77.0361905, "rental_uris": {"ios": "https://dc.lft.to/lastmile_qr_scan", "android": "https://dc.lft.to/lastmile_qr_scan"}}, {"name": "b10f04f2b40368c6b90de6aa7cd03809", "fusion_lat": 0.0, "type": "electric_scooter", "lat": 38.9133915, "is_reserved": 0, "is_disabled": 0, "fusion_lon": 0.0, "bike_id": "b10f04f2b40368c6b90de6aa7cd03809", "lon": -77.04266066666666, "rental_uris": {"ios": "https://dc.lft.to/lastmile_qr_scan", "android": "https://dc.lft.to/lastmile_qr_scan"}}, {"name": "d6debf6500431263d3eefa72bcc076eb", "fusion_lat": 0.0, "type": "electric_scooter", "lat": 38.908412166666665, "is_reserved": 0, "is_disabled": 0, "fusion_lon": 0.0, "bike_id": "d6debf6500431263d3eefa72bcc076eb", "lon": -77.03271883333333, "rental_uris": {"ios": "https://dc.lft.to/lastmile_qr_scan", "android": "https://dc.lft.to/lastmile_qr_scan"}}, {"name": "16fe745558b3013b049d3dfdff67f28e", "fusion_lat": 0.0, "type": "electric_scooter", "lat": 38.9234155, "is_reserved": 0, "is_disabled": 0, "fusion_lon": 0.0, "bike_id": "16fe745558b3013b049d3dfdff67f28e", "lon": -77.05095333333334, "rental_uris": {"ios": "https://dc.lft.to/lastmile_qr_scan", "android": "https://dc.lft.to/lastmile_qr_scan"}}, {"name": "dc56e4aeffaf6beb861a940ff8b7565a", "fusion_lat": 0.0, "type": "electric_scooter", "lat": 38.895265, "is_reserved": 0, "is_disabled": 0, "fusion_lon": 0.0, "bike_id": "dc56e4aeffaf6beb861a940ff8b7565a", "lon": -77.01610633333334, "rental_uris": {"ios": "https://dc.lft.to/lastmile_qr_scan", "android": "https://dc.lft.to/lastmile_qr_scan"}}, {"name": "0a29b15c3df5bab10d689a9bc9e1ee3a", "fusion_lat": 0.0, "type": "electric_bike", "lat": 38.94629116666667, "is_reserved": 0, "is_disabled": 0, "fusion_lon": 0.0, "bike_id": "0a29b15c3df5bab10d689a9bc9e1ee3a", "lon": -77.0183925, "rental_uris": {"ios": "https://dc.lft.to/lastmile_qr_scan", "android": "https://dc.lft.to/lastmile_qr_scan"}}, {"name": "23671e695407d80213b48088b34d99e1", "fusion_lat": 0.0, "type": "electric_scooter", "lat": 38.91712366666667, "is_reserved": 0, "is_disabled": 0, "fusion_lon": 0.0, "bike_id": "23671e695407d80213b48088b34d99e1", "lon": -77.03555016666667, "rental_uris": {"ios": "https://dc.lft.to/lastmile_qr_scan", "android": "https://dc.lft.to/lastmile_qr_scan"}}, {"name": "d971292ae6725f95a28e7a708f934c0e", "fusion_lat": 0.0, "type": "electric_scooter", "lat": 38.90369033333333, "is_reserved": 0, "is_disabled": 0, "fusion_lon": 0.0, "bike_id": "d971292ae6725f95a28e7a708f934c0e", "lon": -77.04189733333334, "rental_uris": {"ios": "https://dc.lft.to/lastmile_qr_scan", "android": "https://dc.lft.to/lastmile_qr_scan"}}, {"name": "56d3fb2052c84e2d0fcb891be24dde59", "fusion_lat": 0.0, "type": "electric_bike", "lat": 38.85873433333333, "is_reserved": 0, "is_disabled": 0, "fusion_lon": 0.0, "bike_id": "56d3fb2052c84e2d0fcb891be24dde59", "lon": -77.09550166666666, "rental_uris": {"ios": "https://dc.lft.to/lastmile_qr_scan", "android": "https://dc.lft.to/lastmile_qr_scan"}}, {"name": "97288be5ce8d47bc21fcf6412a7b6fae", "fusion_lat": 0.0, "type": "electric_scooter", "lat": 38.917058, "is_reserved": 0, "is_disabled": 0, "fusion_lon": 0.0, "bike_id": "97288be5ce8d47bc21fcf6412a7b6fae", "lon": -77.028942, "rental_uris": {"ios": "https://dc.lft.to/lastmile_qr_scan", "android": "https://dc.lft.to/lastmile_qr_scan"}}, {"name": "c345c941d8e235bbafe01282f9a6503a", "fusion_lat": 0.0, "type": "electric_bike", "lat": 38.8544365, "is_reserved": 0, "is_disabled": 0, "fusion_lon": 0.0, "bike_id": "c345c941d8e235bbafe01282f9a6503a", "lon": -77.11675966666667, "rental_uris": {"ios": "https://dc.lft.to/lastmile_qr_scan", "android": "https://dc.lft.to/lastmile_qr_scan"}}, {"name": "1f9435f535c3fdcb68a29e4136935c0b", "fusion_lat": 0.0, "type": "electric_scooter", "lat": 38.91770416666667, "is_reserved": 0, "is_disabled": 0, "fusion_lon": 0.0, "bike_id": "1f9435f535c3fdcb68a29e4136935c0b", "lon": -77.04750433333334, "rental_uris": {"ios": "https://dc.lft.to/lastmile_qr_scan", "android": "https://dc.lft.to/lastmile_qr_scan"}}, {"name": "35143491e70d77b869fdb38022429592", "fusion_lat": 0.0, "type": "electric_scooter", "lat": 38.90652, "is_reserved": 0, "is_disabled": 0, "fusion_lon": 0.0, "bike_id": "35143491e70d77b869fdb38022429592", "lon": -77.00590816666667, "rental_uris": {"ios": "https://dc.lft.to/lastmile_qr_scan", "android": "https://dc.lft.to/lastmile_qr_scan"}}, {"name": "dd92ab80631a7bac4a35bc854e8d14bf", "fusion_lat": 0.0, "type": "electric_scooter", "lat": 38.93204633333333, "is_reserved": 0, "is_disabled": 0, "fusion_lon": 0.0, "bike_id": "dd92ab80631a7bac4a35bc854e8d14bf", "lon": -77.03661533333333, "rental_uris": {"ios": "https://dc.lft.to/lastmile_qr_scan", "android": "https://dc.lft.to/lastmile_qr_scan"}}, {"name": "878d5b15f26137f0273830d6c18364b9", "fusion_lat": 0.0, "type": "electric_scooter", "lat": 38.929105666666665, "is_reserved": 0, "is_disabled": 0, "fusion_lon": 0.0, "bike_id": "878d5b15f26137f0273830d6c18364b9", "lon": -77.01958183333333, "rental_uris": {"ios": "https://dc.lft.to/lastmile_qr_scan", "android": "https://dc.lft.to/lastmile_qr_scan"}}, {"name": "8e856de0605b52899275c32659d6e8d5", "fusion_lat": 0.0, "type": "electric_scooter", "lat": 38.892106, "is_reserved": 0, "is_disabled": 0, "fusion_lon": 0.0, "bike_id": "8e856de0605b52899275c32659d6e8d5", "lon": -76.995681, "rental_uris": {"ios": "https://dc.lft.to/lastmile_qr_scan", "android": "https://dc.lft.to/lastmile_qr_scan"}}, {"name": "2200f18f69d6a876b44a5c45c0c4efba", "fusion_lat": 0.0, "type": "electric_scooter", "lat": 38.900263333333335, "is_reserved": 0, "is_disabled": 0, "fusion_lon": 0.0, "bike_id": "2200f18f69d6a876b44a5c45c0c4efba", "lon": -76.98845833333333, "rental_uris": {"ios": "https://dc.lft.to/lastmile_qr_scan", "android": "https://dc.lft.to/lastmile_qr_scan"}}, {"name": "c98e5ce5bde77964aa1ae873b03af46e", "fusion_lat": 0.0, "type": "electric_scooter", "lat": 38.900318166666665, "is_reserved": 0, "is_disabled": 0, "fusion_lon": 0.0, "bike_id": "c98e5ce5bde77964aa1ae873b03af46e", "lon": -76.99850483333333, "rental_uris": {"ios": "https://dc.lft.to/lastmile_qr_scan", "android": "https://dc.lft.to/lastmile_qr_scan"}}, {"name": "1cb4ad58d66293a38bb4e06ea55e354c", "fusion_lat": 0.0, "type": "electric_scooter", "lat": 38.895971, "is_reserved": 0, "is_disabled": 0, "fusion_lon": 0.0, "bike_id": "1cb4ad58d66293a38bb4e06ea55e354c", "lon": -77.04130433333333, "rental_uris": {"ios": "https://dc.lft.to/lastmile_qr_scan", "android": "https://dc.lft.to/lastmile_qr_scan"}}, {"name": "00456b99826957448c189f120f968bfe", "fusion_lat": 0.0, "type": "electric_scooter", "lat": 38.9277425, "is_reserved": 0, "is_disabled": 0, "fusion_lon": 0.0, "bike_id": "00456b99826957448c189f120f968bfe", "lon": -77.02651966666667, "rental_uris": {"ios": "https://dc.lft.to/lastmile_qr_scan", "android": "https://dc.lft.to/lastmile_qr_scan"}}, {"name": "3d1c5365e157eb1a949fecb31bd9f059", "fusion_lat": 0.0, "type": "electric_scooter", "lat": 38.87076833333333, "is_reserved": 0, "is_disabled": 0, "fusion_lon": 0.0, "bike_id": "3d1c5365e157eb1a949fecb31bd9f059", "lon": -76.9685505, "rental_uris": {"ios": "https://dc.lft.to/lastmile_qr_scan", "android": "https://dc.lft.to/lastmile_qr_scan"}}, {"name": "e1131184678d9357f5742f7f91af92f3", "fusion_lat": 0.0, "type": "electric_scooter", "lat": 38.90863083333333, "is_reserved": 0, "is_disabled": 0, "fusion_lon": 0.0, "bike_id": "e1131184678d9357f5742f7f91af92f3", "lon": -77.0271545, "rental_uris": {"ios": "https://dc.lft.to/lastmile_qr_scan", "android": "https://dc.lft.to/lastmile_qr_scan"}}, {"name": "bf89a8f996cc70dcea7514e14902a979", "fusion_lat": 0.0, "type": "electric_scooter", "lat": 38.920149333333335, "is_reserved": 0, "is_disabled": 0, "fusion_lon": 0.0, "bike_id": "bf89a8f996cc70dcea7514e14902a979", "lon": -77.039705, "rental_uris": {"ios": "https://dc.lft.to/lastmile_qr_scan", "android": "https://dc.lft.to/lastmile_qr_scan"}}, {"name": "f7b3d05520597fee19ba73051597bff6", "fusion_lat": 0.0, "type": "electric_scooter", "lat": 38.922318833333335, "is_reserved": 0, "is_disabled": 0, "fusion_lon": 0.0, "bike_id": "f7b3d05520597fee19ba73051597bff6", "lon": -77.04480616666666, "rental_uris": {"ios": "https://dc.lft.to/lastmile_qr_scan", "android": "https://dc.lft.to/lastmile_qr_scan"}}, {"name": "70b3c4a5a0168aa33999ef1ca2548159", "fusion_lat": 0.0, "type": "electric_bike", "lat": 39.03045083333333, "is_reserved": 0, "is_disabled": 0, "fusion_lon": 0.0, "bike_id": "70b3c4a5a0168aa33999ef1ca2548159", "lon": -77.09474533333334, "rental_uris": {"ios": "https://dc.lft.to/lastmile_qr_scan", "android": "https://dc.lft.to/lastmile_qr_scan"}}, {"name": "2f1b43f1e4eea337172ede3d07f9d0a8", "fusion_lat": 0.0, "type": "electric_scooter", "lat": 38.88378766666666, "is_reserved": 0, "is_disabled": 0, "fusion_lon": 0.0, "bike_id": "2f1b43f1e4eea337172ede3d07f9d0a8", "lon": -76.99522666666667, "rental_uris": {"ios": "https://dc.lft.to/lastmile_qr_scan", "android": "https://dc.lft.to/lastmile_qr_scan"}}, {"name": "cac650fbf73e6dcfc5a7a0ccdb434bff", "fusion_lat": 0.0, "type": "electric_scooter", "lat": 38.928341333333336, "is_reserved": 0, "is_disabled": 0, "fusion_lon": 0.0, "bike_id": "cac650fbf73e6dcfc5a7a0ccdb434bff", "lon": -77.05416866666667, "rental_uris": {"ios": "https://dc.lft.to/lastmile_qr_scan", "android": "https://dc.lft.to/lastmile_qr_scan"}}, {"name": "8688c8c69f6bb4e3cb8d32066b39ac14", "fusion_lat": 0.0, "type": "electric_scooter", "lat": 38.90706183333333, "is_reserved": 0, "is_disabled": 0, "fusion_lon": 0.0, "bike_id": "8688c8c69f6bb4e3cb8d32066b39ac14", "lon": -76.98699466666666, "rental_uris": {"ios": "https://dc.lft.to/lastmile_qr_scan", "android": "https://dc.lft.to/lastmile_qr_scan"}}, {"name": "52da81c12e0521799f0914e5f9cccdaf", "fusion_lat": 0.0, "type": "electric_scooter", "lat": 38.88411116666666, "is_reserved": 0, "is_disabled": 0, "fusion_lon": 0.0, "bike_id": "52da81c12e0521799f0914e5f9cccdaf", "lon": -76.9759835, "rental_uris": {"ios": "https://dc.lft.to/lastmile_qr_scan", "android": "https://dc.lft.to/lastmile_qr_scan"}}, {"name": "76df2f5db5dc53b5ec86858d4ac07397", "fusion_lat": 0.0, "type": "electric_scooter", "lat": 38.9073335, "is_reserved": 0, "is_disabled": 0, "fusion_lon": 0.0, "bike_id": "76df2f5db5dc53b5ec86858d4ac07397", "lon": -77.0296915, "rental_uris": {"ios": "https://dc.lft.to/lastmile_qr_scan", "android": "https://dc.lft.to/lastmile_qr_scan"}}, {"name": "a567e3d2819ea8fafb3d2af226666783", "fusion_lat": 0.0, "type": "electric_scooter", "lat": 38.93553766666667, "is_reserved": 0, "is_disabled": 0, "fusion_lon": 0.0, "bike_id": "a567e3d2819ea8fafb3d2af226666783", "lon": -77.0818785, "rental_uris": {"ios": "https://dc.lft.to/lastmile_qr_scan", "android": "https://dc.lft.to/lastmile_qr_scan"}}, {"name": "8155c89a34ff81d531d56637395712fb", "fusion_lat": 0.0, "type": "electric_bike", "lat": 38.9653565, "is_reserved": 0, "is_disabled": 0, "fusion_lon": 0.0, "bike_id": "8155c89a34ff81d531d56637395712fb", "lon": -77.03517633333334, "rental_uris": {"ios": "https://dc.lft.to/lastmile_qr_scan", "android": "https://dc.lft.to/lastmile_qr_scan"}}, {"name": "06ef76993344668b01f1ccf2472721f8", "fusion_lat": 0.0, "type": "electric_scooter", "lat": 38.894554666666664, "is_reserved": 0, "is_disabled": 0, "fusion_lon": 0.0, "bike_id": "06ef76993344668b01f1ccf2472721f8", "lon": -77.01965833333334, "rental_uris": {"ios": "https://dc.lft.to/lastmile_qr_scan", "android": "https://dc.lft.to/lastmile_qr_scan"}}, {"name": "4a8c2de75f232074f973fffee683c4e3", "fusion_lat": 0.0, "type": "electric_scooter", "lat": 38.918023, "is_reserved": 0, "is_disabled": 0, "fusion_lon": 0.0, "bike_id": "4a8c2de75f232074f973fffee683c4e3", "lon": -77.0319895, "rental_uris": {"ios": "https://dc.lft.to/lastmile_qr_scan", "android": "https://dc.lft.to/lastmile_qr_scan"}}, {"name": "20083db54dfc3ad3d278a10c5fa04021", "fusion_lat": 0.0, "type": "electric_bike", "lat": 38.81935583333333, "is_reserved": 0, "is_disabled": 0, "fusion_lon": 0.0, "bike_id": "20083db54dfc3ad3d278a10c5fa04021", "lon": -77.0020195, "rental_uris": {"ios": "https://dc.lft.to/lastmile_qr_scan", "android": "https://dc.lft.to/lastmile_qr_scan"}}, {"name": "aa28f56f64616476a31e5c93c77573cf", "fusion_lat": 0.0, "type": "electric_scooter", "lat": 38.90323383333333, "is_reserved": 0, "is_disabled": 0, "fusion_lon": 0.0, "bike_id": "aa28f56f64616476a31e5c93c77573cf", "lon": -77.05344683333334, "rental_uris": {"ios": "https://dc.lft.to/lastmile_qr_scan", "android": "https://dc.lft.to/lastmile_qr_scan"}}, {"name": "85085892312f0ef9986c8fe0aad635ef", "fusion_lat": 0.0, "type": "electric_scooter", "lat": 38.90539, "is_reserved": 0, "is_disabled": 0, "fusion_lon": 0.0, "bike_id": "85085892312f0ef9986c8fe0aad635ef", "lon": -77.04490866666667, "rental_uris": {"ios": "https://dc.lft.to/lastmile_qr_scan", "android": "https://dc.lft.to/lastmile_qr_scan"}}, {"name": "031c10e20d5426715a12367ca72260af", "fusion_lat": 0.0, "type": "electric_scooter", "lat": 38.91767566666667, "is_reserved": 0, "is_disabled": 0, "fusion_lon": 0.0, "bike_id": "031c10e20d5426715a12367ca72260af", "lon": -77.014949, "rental_uris": {"ios": "https://dc.lft.to/lastmile_qr_scan", "android": "https://dc.lft.to/lastmile_qr_scan"}}, {"name": "cc87f9ca60d98cb8b1686cc496fcc799", "fusion_lat": 0.0, "type": "electric_scooter", "lat": 38.902154, "is_reserved": 0, "is_disabled": 0, "fusion_lon": 0.0, "bike_id": "cc87f9ca60d98cb8b1686cc496fcc799", "lon": -77.02169333333333, "rental_uris": {"ios": "https://dc.lft.to/lastmile_qr_scan", "android": "https://dc.lft.to/lastmile_qr_scan"}}, {"name": "24a9869686b0b87d9f92aeb1308195e6", "fusion_lat": 0.0, "type": "electric_scooter", "lat": 38.91548216666666, "is_reserved": 0, "is_disabled": 0, "fusion_lon": 0.0, "bike_id": "24a9869686b0b87d9f92aeb1308195e6", "lon": -77.03849316666667, "rental_uris": {"ios": "https://dc.lft.to/lastmile_qr_scan", "android": "https://dc.lft.to/lastmile_qr_scan"}}, {"name": "fbd996e67716cf034a95e41a4fa0272b", "fusion_lat": 0.0, "type": "electric_bike", "lat": 38.8636365, "is_reserved": 0, "is_disabled": 0, "fusion_lon": 0.0, "bike_id": "fbd996e67716cf034a95e41a4fa0272b", "lon": -76.97009233333333, "rental_uris": {"ios": "https://dc.lft.to/lastmile_qr_scan", "android": "https://dc.lft.to/lastmile_qr_scan"}}, {"name": "2b4bee246568fed80aad48b5f47dac1f", "fusion_lat": 0.0, "type": "electric_scooter", "lat": 38.942058333333335, "is_reserved": 0, "is_disabled": 0, "fusion_lon": 0.0, "bike_id": "2b4bee246568fed80aad48b5f47dac1f", "lon": -77.02514766666667, "rental_uris": {"ios": "https://dc.lft.to/lastmile_qr_scan", "android": "https://dc.lft.to/lastmile_qr_scan"}}, {"name": "f2c0a5fabf0066e77fa814eda0214fdf", "fusion_lat": 0.0, "type": "electric_scooter", "lat": 38.920681, "is_reserved": 0, "is_disabled": 0, "fusion_lon": 0.0, "bike_id": "f2c0a5fabf0066e77fa814eda0214fdf", "lon": -76.99851633333333, "rental_uris": {"ios": "https://dc.lft.to/lastmile_qr_scan", "android": "https://dc.lft.to/lastmile_qr_scan"}}, {"name": "c72654f4d2d8e63263eb3909cd67a04e", "fusion_lat": 0.0, "type": "electric_scooter", "lat": 38.880531166666664, "is_reserved": 0, "is_disabled": 0, "fusion_lon": 0.0, "bike_id": "c72654f4d2d8e63263eb3909cd67a04e", "lon": -77.01332166666667, "rental_uris": {"ios": "https://dc.lft.to/lastmile_qr_scan", "android": "https://dc.lft.to/lastmile_qr_scan"}}, {"name": "9be602c43372d8936af2640e5c46c578", "fusion_lat": 0.0, "type": "electric_scooter", "lat": 38.90733066666667, "is_reserved": 0, "is_disabled": 0, "fusion_lon": 0.0, "bike_id": "9be602c43372d8936af2640e5c46c578", "lon": -77.00609116666666, "rental_uris": {"ios": "https://dc.lft.to/lastmile_qr_scan", "android": "https://dc.lft.to/lastmile_qr_scan"}}, {"name": "69b1eacf317a3b0c6a559af205a1a05d", "fusion_lat": 0.0, "type": "electric_scooter", "lat": 38.90014683333333, "is_reserved": 0, "is_disabled": 0, "fusion_lon": 0.0, "bike_id": "69b1eacf317a3b0c6a559af205a1a05d", "lon": -77.05526083333334, "rental_uris": {"ios": "https://dc.lft.to/lastmile_qr_scan", "android": "https://dc.lft.to/lastmile_qr_scan"}}, {"name": "d002ddedcefb2046ab997d06994888dc", "fusion_lat": 0.0, "type": "electric_scooter", "lat": 38.91256283333333, "is_reserved": 0, "is_disabled": 0, "fusion_lon": 0.0, "bike_id": "d002ddedcefb2046ab997d06994888dc", "lon": -77.038543, "rental_uris": {"ios": "https://dc.lft.to/lastmile_qr_scan", "android": "https://dc.lft.to/lastmile_qr_scan"}}, {"name": "83841d04a28a3ea4bcc367ef83751999", "fusion_lat": 0.0, "type": "electric_scooter", "lat": 38.942051666666664, "is_reserved": 0, "is_disabled": 0, "fusion_lon": 0.0, "bike_id": "83841d04a28a3ea4bcc367ef83751999", "lon": -77.03588033333334, "rental_uris": {"ios": "https://dc.lft.to/lastmile_qr_scan", "android": "https://dc.lft.to/lastmile_qr_scan"}}, {"name": "2a254d348d9c9500d294f35229595fd3", "fusion_lat": 0.0, "type": "electric_scooter", "lat": 38.898004, "is_reserved": 0, "is_disabled": 0, "fusion_lon": 0.0, "bike_id": "2a254d348d9c9500d294f35229595fd3", "lon": -76.9915, "rental_uris": {"ios": "https://dc.lft.to/lastmile_qr_scan", "android": "https://dc.lft.to/lastmile_qr_scan"}}, {"name": "09831c12a40481895edfb836903713fc", "fusion_lat": 0.0, "type": "electric_scooter", "lat": 38.8982475, "is_reserved": 0, "is_disabled": 0, "fusion_lon": 0.0, "bike_id": "09831c12a40481895edfb836903713fc", "lon": -76.98782666666666, "rental_uris": {"ios": "https://dc.lft.to/lastmile_qr_scan", "android": "https://dc.lft.to/lastmile_qr_scan"}}, {"name": "2a651af517b348fc095bfcc229298077", "fusion_lat": 0.0, "type": "electric_scooter", "lat": 38.896074166666665, "is_reserved": 0, "is_disabled": 0, "fusion_lon": 0.0, "bike_id": "2a651af517b348fc095bfcc229298077", "lon": -77.02672633333333, "rental_uris": {"ios": "https://dc.lft.to/lastmile_qr_scan", "android": "https://dc.lft.to/lastmile_qr_scan"}}, {"name": "27dea51ed27f57f701016cf8eb75eff0", "fusion_lat": 0.0, "type": "electric_scooter", "lat": 38.9052125, "is_reserved": 0, "is_disabled": 0, "fusion_lon": 0.0, "bike_id": "27dea51ed27f57f701016cf8eb75eff0", "lon": -77.0070055, "rental_uris": {"ios": "https://dc.lft.to/lastmile_qr_scan", "android": "https://dc.lft.to/lastmile_qr_scan"}}, {"name": "8447bb6384208f61d81919fee598b161", "fusion_lat": 0.0, "type": "electric_scooter", "lat": 38.906464666666665, "is_reserved": 0, "is_disabled": 0, "fusion_lon": 0.0, "bike_id": "8447bb6384208f61d81919fee598b161", "lon": -77.05328383333334, "rental_uris": {"ios": "https://dc.lft.to/lastmile_qr_scan", "android": "https://dc.lft.to/lastmile_qr_scan"}}, {"name": "49aea8c7b66b7ebdecfe3bbeb35e3a07", "fusion_lat": 0.0, "type": "electric_bike", "lat": 38.90918533333333, "is_reserved": 0, "is_disabled": 0, "fusion_lon": 0.0, "bike_id": "49aea8c7b66b7ebdecfe3bbeb35e3a07", "lon": -77.03197216666666, "rental_uris": {"ios": "https://dc.lft.to/lastmile_qr_scan", "android": "https://dc.lft.to/lastmile_qr_scan"}}, {"name": "91b5d9cfa6f82cef9dcc398238b603fc", "fusion_lat": 0.0, "type": "electric_scooter", "lat": 38.89900133333333, "is_reserved": 0, "is_disabled": 0, "fusion_lon": 0.0, "bike_id": "91b5d9cfa6f82cef9dcc398238b603fc", "lon": -77.03914366666666, "rental_uris": {"ios": "https://dc.lft.to/lastmile_qr_scan", "android": "https://dc.lft.to/lastmile_qr_scan"}}, {"name": "49cee56f2a09b95290dd5cfd4e7ecf6f", "fusion_lat": 0.0, "type": "electric_scooter", "lat": 38.910173666666665, "is_reserved": 0, "is_disabled": 0, "fusion_lon": 0.0, "bike_id": "49cee56f2a09b95290dd5cfd4e7ecf6f", "lon": -77.02782516666667, "rental_uris": {"ios": "https://dc.lft.to/lastmile_qr_scan", "android": "https://dc.lft.to/lastmile_qr_scan"}}, {"name": "351b66a88d8d1195a916d4f2c04f3300", "fusion_lat": 0.0, "type": "electric_scooter", "lat": 38.92295333333333, "is_reserved": 0, "is_disabled": 0, "fusion_lon": 0.0, "bike_id": "351b66a88d8d1195a916d4f2c04f3300", "lon": -77.041995, "rental_uris": {"ios": "https://dc.lft.to/lastmile_qr_scan", "android": "https://dc.lft.to/lastmile_qr_scan"}}, {"name": "3e123ccb71903ff88d7b5047a533cec3", "fusion_lat": 0.0, "type": "electric_scooter", "lat": 38.91137116666667, "is_reserved": 0, "is_disabled": 0, "fusion_lon": 0.0, "bike_id": "3e123ccb71903ff88d7b5047a533cec3", "lon": -77.03656383333333, "rental_uris": {"ios": "https://dc.lft.to/lastmile_qr_scan", "android": "https://dc.lft.to/lastmile_qr_scan"}}, {"name": "a8641d253ad4494c290615874f4d4509", "fusion_lat": 0.0, "type": "electric_scooter", "lat": 38.91832866666667, "is_reserved": 0, "is_disabled": 0, "fusion_lon": 0.0, "bike_id": "a8641d253ad4494c290615874f4d4509", "lon": -77.02291083333333, "rental_uris": {"ios": "https://dc.lft.to/lastmile_qr_scan", "android": "https://dc.lft.to/lastmile_qr_scan"}}, {"name": "cbef31374a0759afcfac19fa3844c91f", "fusion_lat": 0.0, "type": "electric_scooter", "lat": 38.911819, "is_reserved": 0, "is_disabled": 0, "fusion_lon": 0.0, "bike_id": "cbef31374a0759afcfac19fa3844c91f", "lon": -77.03132116666667, "rental_uris": {"ios": "https://dc.lft.to/lastmile_qr_scan", "android": "https://dc.lft.to/lastmile_qr_scan"}}, {"name": "d9097309230c8e25334f6415596ccd44", "fusion_lat": 0.0, "type": "electric_scooter", "lat": 38.90366983333333, "is_reserved": 0, "is_disabled": 0, "fusion_lon": 0.0, "bike_id": "d9097309230c8e25334f6415596ccd44", "lon": -77.03561783333333, "rental_uris": {"ios": "https://dc.lft.to/lastmile_qr_scan", "android": "https://dc.lft.to/lastmile_qr_scan"}}, {"name": "9807468bb33fd3ef92ca83c891820f58", "fusion_lat": 0.0, "type": "electric_scooter", "lat": 38.905377333333334, "is_reserved": 0, "is_disabled": 0, "fusion_lon": 0.0, "bike_id": "9807468bb33fd3ef92ca83c891820f58", "lon": -77.0627625, "rental_uris": {"ios": "https://dc.lft.to/lastmile_qr_scan", "android": "https://dc.lft.to/lastmile_qr_scan"}}, {"name": "d0bbd0504990c9b3bc75b4de47a39cf6", "fusion_lat": 0.0, "type": "electric_scooter", "lat": 38.86349383333334, "is_reserved": 0, "is_disabled": 0, "fusion_lon": 0.0, "bike_id": "d0bbd0504990c9b3bc75b4de47a39cf6", "lon": -76.99063066666666, "rental_uris": {"ios": "https://dc.lft.to/lastmile_qr_scan", "android": "https://dc.lft.to/lastmile_qr_scan"}}, {"name": "9b96e2acbffdf32504c74c2b7a3cbe31", "fusion_lat": 0.0, "type": "electric_scooter", "lat": 38.898473333333335, "is_reserved": 0, "is_disabled": 0, "fusion_lon": 0.0, "bike_id": "9b96e2acbffdf32504c74c2b7a3cbe31", "lon": -77.01607016666667, "rental_uris": {"ios": "https://dc.lft.to/lastmile_qr_scan", "android": "https://dc.lft.to/lastmile_qr_scan"}}, {"name": "e61580f87ae97698bb7552611a7a219d", "fusion_lat": 0.0, "type": "electric_scooter", "lat": 38.93701816666667, "is_reserved": 0, "is_disabled": 0, "fusion_lon": 0.0, "bike_id": "e61580f87ae97698bb7552611a7a219d", "lon": -77.06100533333333, "rental_uris": {"ios": "https://dc.lft.to/lastmile_qr_scan", "android": "https://dc.lft.to/lastmile_qr_scan"}}, {"name": "5c652f76abaf9b0c7fa3f2546da765fb", "fusion_lat": 0.0, "type": "electric_bike", "lat": 38.84571283333333, "is_reserved": 0, "is_disabled": 0, "fusion_lon": 0.0, "bike_id": "5c652f76abaf9b0c7fa3f2546da765fb", "lon": -77.096256, "rental_uris": {"ios": "https://dc.lft.to/lastmile_qr_scan", "android": "https://dc.lft.to/lastmile_qr_scan"}}, {"name": "52e943d70abe54ed2b846fce528bb150", "fusion_lat": 0.0, "type": "electric_scooter", "lat": 38.90732, "is_reserved": 0, "is_disabled": 0, "fusion_lon": 0.0, "bike_id": "52e943d70abe54ed2b846fce528bb150", "lon": -77.03462116666667, "rental_uris": {"ios": "https://dc.lft.to/lastmile_qr_scan", "android": "https://dc.lft.to/lastmile_qr_scan"}}, {"name": "01b2e91b081fbea4f29ba7efd8579306", "fusion_lat": 0.0, "type": "electric_scooter", "lat": 38.921093, "is_reserved": 0, "is_disabled": 0, "fusion_lon": 0.0, "bike_id": "01b2e91b081fbea4f29ba7efd8579306", "lon": -77.02193116666666, "rental_uris": {"ios": "https://dc.lft.to/lastmile_qr_scan", "android": "https://dc.lft.to/lastmile_qr_scan"}}, {"name": "b060a31ac708bdbe62e9b5fb6d93ba78", "fusion_lat": 0.0, "type": "electric_bike", "lat": 38.9990965, "is_reserved": 0, "is_disabled": 0, "fusion_lon": 0.0, "bike_id": "b060a31ac708bdbe62e9b5fb6d93ba78", "lon": -77.04613166666667, "rental_uris": {"ios": "https://dc.lft.to/lastmile_qr_scan", "android": "https://dc.lft.to/lastmile_qr_scan"}}, {"name": "031eb4bd90bcde94772931fc350ee84c", "fusion_lat": 0.0, "type": "electric_scooter", "lat": 38.917264333333335, "is_reserved": 0, "is_disabled": 0, "fusion_lon": 0.0, "bike_id": "031eb4bd90bcde94772931fc350ee84c", "lon": -77.03839083333334, "rental_uris": {"ios": "https://dc.lft.to/lastmile_qr_scan", "android": "https://dc.lft.to/lastmile_qr_scan"}}, {"name": "58011f04712ec41c89b14d03d71dc56f", "fusion_lat": 0.0, "type": "electric_scooter", "lat": 38.880934, "is_reserved": 0, "is_disabled": 0, "fusion_lon": 0.0, "bike_id": "58011f04712ec41c89b14d03d71dc56f", "lon": -76.99610116666666, "rental_uris": {"ios": "https://dc.lft.to/lastmile_qr_scan", "android": "https://dc.lft.to/lastmile_qr_scan"}}, {"name": "216acca21efef127c84bf2a26468597a", "fusion_lat": 0.0, "type": "electric_scooter", "lat": 38.892921666666666, "is_reserved": 0, "is_disabled": 0, "fusion_lon": 0.0, "bike_id": "216acca21efef127c84bf2a26468597a", "lon": -77.020143, "rental_uris": {"ios": "https://dc.lft.to/lastmile_qr_scan", "android": "https://dc.lft.to/lastmile_qr_scan"}}, {"name": "a2ea97cae3308582098a101b79db5da5", "fusion_lat": 0.0, "type": "electric_scooter", "lat": 38.898425833333334, "is_reserved": 0, "is_disabled": 0, "fusion_lon": 0.0, "bike_id": "a2ea97cae3308582098a101b79db5da5", "lon": -76.99270333333334, "rental_uris": {"ios": "https://dc.lft.to/lastmile_qr_scan", "android": "https://dc.lft.to/lastmile_qr_scan"}}, {"name": "a3bfeb861b3e43e0b1b5a2dbb2e85664", "fusion_lat": 0.0, "type": "electric_bike", "lat": 38.973834833333335, "is_reserved": 0, "is_disabled": 0, "fusion_lon": 0.0, "bike_id": "a3bfeb861b3e43e0b1b5a2dbb2e85664", "lon": -77.06473166666666, "rental_uris": {"ios": "https://dc.lft.to/lastmile_qr_scan", "android": "https://dc.lft.to/lastmile_qr_scan"}}, {"name": "bae4c7f23947515503321841d896166d", "fusion_lat": 0.0, "type": "electric_scooter", "lat": 38.92230716666667, "is_reserved": 0, "is_disabled": 0, "fusion_lon": 0.0, "bike_id": "bae4c7f23947515503321841d896166d", "lon": -77.04711966666666, "rental_uris": {"ios": "https://dc.lft.to/lastmile_qr_scan", "android": "https://dc.lft.to/lastmile_qr_scan"}}, {"name": "f81fefb4c8f04eead387033f2022aea8", "fusion_lat": 0.0, "type": "electric_scooter", "lat": 38.96110083333333, "is_reserved": 0, "is_disabled": 0, "fusion_lon": 0.0, "bike_id": "f81fefb4c8f04eead387033f2022aea8", "lon": -77.02809983333333, "rental_uris": {"ios": "https://dc.lft.to/lastmile_qr_scan", "android": "https://dc.lft.to/lastmile_qr_scan"}}, {"name": "0b29b0b16afa74654a28392859cb0c7a", "fusion_lat": 0.0, "type": "electric_scooter", "lat": 38.909524833333336, "is_reserved": 0, "is_disabled": 0, "fusion_lon": 0.0, "bike_id": "0b29b0b16afa74654a28392859cb0c7a", "lon": -77.0237335, "rental_uris": {"ios": "https://dc.lft.to/lastmile_qr_scan", "android": "https://dc.lft.to/lastmile_qr_scan"}}, {"name": "5affe4ade54c30c8bdcd3e6d03b02b2e", "fusion_lat": 0.0, "type": "electric_scooter", "lat": 38.903235, "is_reserved": 0, "is_disabled": 0, "fusion_lon": 0.0, "bike_id": "5affe4ade54c30c8bdcd3e6d03b02b2e", "lon": -77.03643133333334, "rental_uris": {"ios": "https://dc.lft.to/lastmile_qr_scan", "android": "https://dc.lft.to/lastmile_qr_scan"}}, {"name": "9491a3410736c21bdd557ccc0d8ebc5c", "fusion_lat": 0.0, "type": "electric_scooter", "lat": 38.9057265, "is_reserved": 0, "is_disabled": 0, "fusion_lon": 0.0, "bike_id": "9491a3410736c21bdd557ccc0d8ebc5c", "lon": -77.02679483333333, "rental_uris": {"ios": "https://dc.lft.to/lastmile_qr_scan", "android": "https://dc.lft.to/lastmile_qr_scan"}}, {"name": "ffbed1b464a766e5faae24c2bdeac1e4", "fusion_lat": 0.0, "type": "electric_scooter", "lat": 38.93141833333333, "is_reserved": 0, "is_disabled": 0, "fusion_lon": 0.0, "bike_id": "ffbed1b464a766e5faae24c2bdeac1e4", "lon": -77.07849666666667, "rental_uris": {"ios": "https://dc.lft.to/lastmile_qr_scan", "android": "https://dc.lft.to/lastmile_qr_scan"}}, {"name": "72497fc7285b556bd29bcb9f7b448f53", "fusion_lat": 0.0, "type": "electric_scooter", "lat": 38.92006966666667, "is_reserved": 0, "is_disabled": 0, "fusion_lon": 0.0, "bike_id": "72497fc7285b556bd29bcb9f7b448f53", "lon": -76.984964, "rental_uris": {"ios": "https://dc.lft.to/lastmile_qr_scan", "android": "https://dc.lft.to/lastmile_qr_scan"}}, {"name": "17d2712f02e361170f6046b8451f67e8", "fusion_lat": 0.0, "type": "electric_scooter", "lat": 38.902393000000004, "is_reserved": 0, "is_disabled": 0, "fusion_lon": 0.0, "bike_id": "17d2712f02e361170f6046b8451f67e8", "lon": -77.00196283333334, "rental_uris": {"ios": "https://dc.lft.to/lastmile_qr_scan", "android": "https://dc.lft.to/lastmile_qr_scan"}}, {"name": "70bc564eb74f0a99a99ce6085f823b82", "fusion_lat": 0.0, "type": "electric_scooter", "lat": 38.92534583333333, "is_reserved": 0, "is_disabled": 0, "fusion_lon": 0.0, "bike_id": "70bc564eb74f0a99a99ce6085f823b82", "lon": -77.0263525, "rental_uris": {"ios": "https://dc.lft.to/lastmile_qr_scan", "android": "https://dc.lft.to/lastmile_qr_scan"}}, {"name": "dd76d0a6eb05972a51a2b3bed5f3e6d7", "fusion_lat": 0.0, "type": "electric_scooter", "lat": 38.916217333333336, "is_reserved": 0, "is_disabled": 0, "fusion_lon": 0.0, "bike_id": "dd76d0a6eb05972a51a2b3bed5f3e6d7", "lon": -77.02285066666667, "rental_uris": {"ios": "https://dc.lft.to/lastmile_qr_scan", "android": "https://dc.lft.to/lastmile_qr_scan"}}, {"name": "06a6ddbd33aa30f280391f9ca0f24bae", "fusion_lat": 0.0, "type": "electric_scooter", "lat": 38.9377265, "is_reserved": 0, "is_disabled": 0, "fusion_lon": 0.0, "bike_id": "06a6ddbd33aa30f280391f9ca0f24bae", "lon": -77.0326035, "rental_uris": {"ios": "https://dc.lft.to/lastmile_qr_scan", "android": "https://dc.lft.to/lastmile_qr_scan"}}, {"name": "9f277d17a00d2a54724d14b78ee5408b", "fusion_lat": 0.0, "type": "electric_scooter", "lat": 38.9222825, "is_reserved": 0, "is_disabled": 0, "fusion_lon": 0.0, "bike_id": "9f277d17a00d2a54724d14b78ee5408b", "lon": -77.03905083333333, "rental_uris": {"ios": "https://dc.lft.to/lastmile_qr_scan", "android": "https://dc.lft.to/lastmile_qr_scan"}}, {"name": "602a93f9e99824b304a38cc6f7b8e753", "fusion_lat": 0.0, "type": "electric_scooter", "lat": 38.9057505, "is_reserved": 0, "is_disabled": 0, "fusion_lon": 0.0, "bike_id": "602a93f9e99824b304a38cc6f7b8e753", "lon": -77.03264766666666, "rental_uris": {"ios": "https://dc.lft.to/lastmile_qr_scan", "android": "https://dc.lft.to/lastmile_qr_scan"}}, {"name": "eae2b439081ec1fe53a9797ecfe9bc7c", "fusion_lat": 0.0, "type": "electric_scooter", "lat": 38.91361666666667, "is_reserved": 0, "is_disabled": 0, "fusion_lon": 0.0, "bike_id": "eae2b439081ec1fe53a9797ecfe9bc7c", "lon": -77.0455075, "rental_uris": {"ios": "https://dc.lft.to/lastmile_qr_scan", "android": "https://dc.lft.to/lastmile_qr_scan"}}, {"name": "886ecf753e42e36359aaf055059ba174", "fusion_lat": 0.0, "type": "electric_scooter", "lat": 38.9234135, "is_reserved": 0, "is_disabled": 0, "fusion_lon": 0.0, "bike_id": "886ecf753e42e36359aaf055059ba174", "lon": -77.05093216666667, "rental_uris": {"ios": "https://dc.lft.to/lastmile_qr_scan", "android": "https://dc.lft.to/lastmile_qr_scan"}}, {"name": "d19335c9be3aa379c2e2ea035395348a", "fusion_lat": 0.0, "type": "electric_scooter", "lat": 38.891315, "is_reserved": 0, "is_disabled": 0, "fusion_lon": 0.0, "bike_id": "d19335c9be3aa379c2e2ea035395348a", "lon": -76.9915435, "rental_uris": {"ios": "https://dc.lft.to/lastmile_qr_scan", "android": "https://dc.lft.to/lastmile_qr_scan"}}, {"name": "cccdc72557803b23efdd7c0997a52b7a", "fusion_lat": 0.0, "type": "electric_scooter", "lat": 38.9617175, "is_reserved": 0, "is_disabled": 0, "fusion_lon": 0.0, "bike_id": "cccdc72557803b23efdd7c0997a52b7a", "lon": -77.03223916666667, "rental_uris": {"ios": "https://dc.lft.to/lastmile_qr_scan", "android": "https://dc.lft.to/lastmile_qr_scan"}}, {"name": "4452fe0bd02b31333ecdbbf2db4c714d", "fusion_lat": 0.0, "type": "electric_bike", "lat": 38.850630833333334, "is_reserved": 0, "is_disabled": 0, "fusion_lon": 0.0, "bike_id": "4452fe0bd02b31333ecdbbf2db4c714d", "lon": -76.97329566666667, "rental_uris": {"ios": "https://dc.lft.to/lastmile_qr_scan", "android": "https://dc.lft.to/lastmile_qr_scan"}}, {"name": "5e69b2a198758b009419bab140c6ac2b", "fusion_lat": 0.0, "type": "electric_scooter", "lat": 38.919647166666664, "is_reserved": 0, "is_disabled": 0, "fusion_lon": 0.0, "bike_id": "5e69b2a198758b009419bab140c6ac2b", "lon": -77.038522, "rental_uris": {"ios": "https://dc.lft.to/lastmile_qr_scan", "android": "https://dc.lft.to/lastmile_qr_scan"}}, {"name": "bc8697cbaecf6fcc83bb463223b46d2b", "fusion_lat": 0.0, "type": "electric_scooter", "lat": 38.91759583333334, "is_reserved": 0, "is_disabled": 0, "fusion_lon": 0.0, "bike_id": "bc8697cbaecf6fcc83bb463223b46d2b", "lon": -77.02512283333333, "rental_uris": {"ios": "https://dc.lft.to/lastmile_qr_scan", "android": "https://dc.lft.to/lastmile_qr_scan"}}, {"name": "601681aeae72235ab4fc5bb9babe1d9a", "fusion_lat": 0.0, "type": "electric_scooter", "lat": 38.91417533333333, "is_reserved": 0, "is_disabled": 0, "fusion_lon": 0.0, "bike_id": "601681aeae72235ab4fc5bb9babe1d9a", "lon": -77.04504, "rental_uris": {"ios": "https://dc.lft.to/lastmile_qr_scan", "android": "https://dc.lft.to/lastmile_qr_scan"}}, {"name": "3e74133bfcd77e7d906b9c9a09b25310", "fusion_lat": 0.0, "type": "electric_bike", "lat": 38.902962, "is_reserved": 0, "is_disabled": 0, "fusion_lon": 0.0, "bike_id": "3e74133bfcd77e7d906b9c9a09b25310", "lon": -76.94436883333333, "rental_uris": {"ios": "https://dc.lft.to/lastmile_qr_scan", "android": "https://dc.lft.to/lastmile_qr_scan"}}, {"name": "f37d2f223e379a4f4a49c85f1295e8c6", "fusion_lat": 0.0, "type": "electric_scooter", "lat": 38.89722233333333, "is_reserved": 0, "is_disabled": 0, "fusion_lon": 0.0, "bike_id": "f37d2f223e379a4f4a49c85f1295e8c6", "lon": -77.04641216666667, "rental_uris": {"ios": "https://dc.lft.to/lastmile_qr_scan", "android": "https://dc.lft.to/lastmile_qr_scan"}}, {"name": "8c2093b02e500a5207d23a5686ef6938", "fusion_lat": 0.0, "type": "electric_scooter", "lat": 38.912428, "is_reserved": 0, "is_disabled": 0, "fusion_lon": 0.0, "bike_id": "8c2093b02e500a5207d23a5686ef6938", "lon": -77.03834, "rental_uris": {"ios": "https://dc.lft.to/lastmile_qr_scan", "android": "https://dc.lft.to/lastmile_qr_scan"}}, {"name": "d011788cc45cda2376bd03c544c9cf60", "fusion_lat": 0.0, "type": "electric_scooter", "lat": 38.91271033333334, "is_reserved": 0, "is_disabled": 0, "fusion_lon": 0.0, "bike_id": "d011788cc45cda2376bd03c544c9cf60", "lon": -77.0393845, "rental_uris": {"ios": "https://dc.lft.to/lastmile_qr_scan", "android": "https://dc.lft.to/lastmile_qr_scan"}}, {"name": "54d0f2540da4536e057a8d7487e11db1", "fusion_lat": 0.0, "type": "electric_scooter", "lat": 38.917169666666666, "is_reserved": 0, "is_disabled": 0, "fusion_lon": 0.0, "bike_id": "54d0f2540da4536e057a8d7487e11db1", "lon": -77.018621, "rental_uris": {"ios": "https://dc.lft.to/lastmile_qr_scan", "android": "https://dc.lft.to/lastmile_qr_scan"}}, {"name": "a6129113b9d8154a9f768c20c9844f6b", "fusion_lat": 0.0, "type": "electric_scooter", "lat": 38.897706666666664, "is_reserved": 0, "is_disabled": 0, "fusion_lon": 0.0, "bike_id": "a6129113b9d8154a9f768c20c9844f6b", "lon": -77.05154016666667, "rental_uris": {"ios": "https://dc.lft.to/lastmile_qr_scan", "android": "https://dc.lft.to/lastmile_qr_scan"}}, {"name": "954157d06604e431a5cc1c5e03d7fb0e", "fusion_lat": 0.0, "type": "electric_scooter", "lat": 38.92754566666667, "is_reserved": 0, "is_disabled": 0, "fusion_lon": 0.0, "bike_id": "954157d06604e431a5cc1c5e03d7fb0e", "lon": -77.03268483333333, "rental_uris": {"ios": "https://dc.lft.to/lastmile_qr_scan", "android": "https://dc.lft.to/lastmile_qr_scan"}}, {"name": "9c0b24ef8bc8afd6a2defb981224cf7e", "fusion_lat": 0.0, "type": "electric_bike", "lat": 38.844823, "is_reserved": 0, "is_disabled": 0, "fusion_lon": 0.0, "bike_id": "9c0b24ef8bc8afd6a2defb981224cf7e", "lon": -76.97219816666667, "rental_uris": {"ios": "https://dc.lft.to/lastmile_qr_scan", "android": "https://dc.lft.to/lastmile_qr_scan"}}, {"name": "7e75e9e8678ae013ba1f91af1c623179", "fusion_lat": 0.0, "type": "electric_bike", "lat": 38.992384, "is_reserved": 0, "is_disabled": 0, "fusion_lon": 0.0, "bike_id": "7e75e9e8678ae013ba1f91af1c623179", "lon": -77.099993, "rental_uris": {"ios": "https://dc.lft.to/lastmile_qr_scan", "android": "https://dc.lft.to/lastmile_qr_scan"}}, {"name": "7d7bc3760331e48427c8761509a18bea", "fusion_lat": 0.0, "type": "electric_scooter", "lat": 38.95781866666667, "is_reserved": 0, "is_disabled": 0, "fusion_lon": 0.0, "bike_id": "7d7bc3760331e48427c8761509a18bea", "lon": -77.0275475, "rental_uris": {"ios": "https://dc.lft.to/lastmile_qr_scan", "android": "https://dc.lft.to/lastmile_qr_scan"}}, {"name": "6c1e443456750227d378677f5cdf6b31", "fusion_lat": 0.0, "type": "electric_scooter", "lat": 38.855237, "is_reserved": 0, "is_disabled": 0, "fusion_lon": 0.0, "bike_id": "6c1e443456750227d378677f5cdf6b31", "lon": -76.969136, "rental_uris": {"ios": "https://dc.lft.to/lastmile_qr_scan", "android": "https://dc.lft.to/lastmile_qr_scan"}}, {"name": "8d157a7c71bdfb906120e2d76daf3acf", "fusion_lat": 0.0, "type": "electric_scooter", "lat": 38.92474083333333, "is_reserved": 0, "is_disabled": 0, "fusion_lon": 0.0, "bike_id": "8d157a7c71bdfb906120e2d76daf3acf", "lon": -77.03478883333334, "rental_uris": {"ios": "https://dc.lft.to/lastmile_qr_scan", "android": "https://dc.lft.to/lastmile_qr_scan"}}, {"name": "2042a63e29c02704deb6c5cb810c97dd", "fusion_lat": 0.0, "type": "electric_scooter", "lat": 38.92308216666667, "is_reserved": 0, "is_disabled": 0, "fusion_lon": 0.0, "bike_id": "2042a63e29c02704deb6c5cb810c97dd", "lon": -77.03533716666666, "rental_uris": {"ios": "https://dc.lft.to/lastmile_qr_scan", "android": "https://dc.lft.to/lastmile_qr_scan"}}, {"name": "9b5246832ce85246a8b2791fe96286c5", "fusion_lat": 0.0, "type": "electric_scooter", "lat": 38.920439, "is_reserved": 0, "is_disabled": 0, "fusion_lon": 0.0, "bike_id": "9b5246832ce85246a8b2791fe96286c5", "lon": -77.02356533333334, "rental_uris": {"ios": "https://dc.lft.to/lastmile_qr_scan", "android": "https://dc.lft.to/lastmile_qr_scan"}}, {"name": "0aa31ced12a9ade2bd6285c7c342864e", "fusion_lat": 0.0, "type": "electric_scooter", "lat": 38.923090333333334, "is_reserved": 0, "is_disabled": 0, "fusion_lon": 0.0, "bike_id": "0aa31ced12a9ade2bd6285c7c342864e", "lon": -77.04102033333334, "rental_uris": {"ios": "https://dc.lft.to/lastmile_qr_scan", "android": "https://dc.lft.to/lastmile_qr_scan"}}, {"name": "7b9f2991ef1ea3f20a4d71e8ee0659bd", "fusion_lat": 0.0, "type": "electric_scooter", "lat": 38.9238935, "is_reserved": 0, "is_disabled": 0, "fusion_lon": 0.0, "bike_id": "7b9f2991ef1ea3f20a4d71e8ee0659bd", "lon": -77.029811, "rental_uris": {"ios": "https://dc.lft.to/lastmile_qr_scan", "android": "https://dc.lft.to/lastmile_qr_scan"}}, {"name": "ff768994ed353a98cedcd70b581bdbf0", "fusion_lat": 0.0, "type": "electric_scooter", "lat": 38.86815433333334, "is_reserved": 0, "is_disabled": 0, "fusion_lon": 0.0, "bike_id": "ff768994ed353a98cedcd70b581bdbf0", "lon": -76.98619116666667, "rental_uris": {"ios": "https://dc.lft.to/lastmile_qr_scan", "android": "https://dc.lft.to/lastmile_qr_scan"}}, {"name": "5ed689719f9d285b1acf511ad04f788d", "fusion_lat": 0.0, "type": "electric_scooter", "lat": 38.952650166666665, "is_reserved": 0, "is_disabled": 0, "fusion_lon": 0.0, "bike_id": "5ed689719f9d285b1acf511ad04f788d", "lon": -77.0256575, "rental_uris": {"ios": "https://dc.lft.to/lastmile_qr_scan", "android": "https://dc.lft.to/lastmile_qr_scan"}}, {"name": "f3ce60e910b766df3a6e47ad0bce7bae", "fusion_lat": 0.0, "type": "electric_bike", "lat": 38.94509583333333, "is_reserved": 0, "is_disabled": 0, "fusion_lon": 0.0, "bike_id": "f3ce60e910b766df3a6e47ad0bce7bae", "lon": -77.00668933333333, "rental_uris": {"ios": "https://dc.lft.to/lastmile_qr_scan", "android": "https://dc.lft.to/lastmile_qr_scan"}}, {"name": "210d3ed85e910bb4dfe15f580a9f08f5", "fusion_lat": 0.0, "type": "electric_scooter", "lat": 38.8940195, "is_reserved": 0, "is_disabled": 0, "fusion_lon": 0.0, "bike_id": "210d3ed85e910bb4dfe15f580a9f08f5", "lon": -76.948043, "rental_uris": {"ios": "https://dc.lft.to/lastmile_qr_scan", "android": "https://dc.lft.to/lastmile_qr_scan"}}, {"name": "8c92ce60b516d10b9beca215c8d38271", "fusion_lat": 0.0, "type": "electric_scooter", "lat": 38.88398516666667, "is_reserved": 0, "is_disabled": 0, "fusion_lon": 0.0, "bike_id": "8c92ce60b516d10b9beca215c8d38271", "lon": -76.98583833333333, "rental_uris": {"ios": "https://dc.lft.to/lastmile_qr_scan", "android": "https://dc.lft.to/lastmile_qr_scan"}}, {"name": "997e7c497675d96be2c22d8a9d752b83", "fusion_lat": 0.0, "type": "electric_bike", "lat": 38.89637966666667, "is_reserved": 0, "is_disabled": 0, "fusion_lon": 0.0, "bike_id": "997e7c497675d96be2c22d8a9d752b83", "lon": -77.10456533333333, "rental_uris": {"ios": "https://dc.lft.to/lastmile_qr_scan", "android": "https://dc.lft.to/lastmile_qr_scan"}}, {"name": "c7888715eb2772862c0c19a79f695964", "fusion_lat": 0.0, "type": "electric_scooter", "lat": 38.864146, "is_reserved": 0, "is_disabled": 0, "fusion_lon": 0.0, "bike_id": "c7888715eb2772862c0c19a79f695964", "lon": -76.9804575, "rental_uris": {"ios": "https://dc.lft.to/lastmile_qr_scan", "android": "https://dc.lft.to/lastmile_qr_scan"}}, {"name": "cb50eb832470a3e60484d7ae5833c902", "fusion_lat": 0.0, "type": "electric_scooter", "lat": 38.8700865, "is_reserved": 0, "is_disabled": 0, "fusion_lon": 0.0, "bike_id": "cb50eb832470a3e60484d7ae5833c902", "lon": -77.01220116666667, "rental_uris": {"ios": "https://dc.lft.to/lastmile_qr_scan", "android": "https://dc.lft.to/lastmile_qr_scan"}}, {"name": "418a37834c75e8e6e9c9b66503a12043", "fusion_lat": 0.0, "type": "electric_scooter", "lat": 38.89088266666667, "is_reserved": 0, "is_disabled": 0, "fusion_lon": 0.0, "bike_id": "418a37834c75e8e6e9c9b66503a12043", "lon": -76.9978875, "rental_uris": {"ios": "https://dc.lft.to/lastmile_qr_scan", "android": "https://dc.lft.to/lastmile_qr_scan"}}, {"name": "323632c6eca1b92ad6fbdfb38ac9583d", "fusion_lat": 0.0, "type": "electric_bike", "lat": 38.9142355, "is_reserved": 0, "is_disabled": 0, "fusion_lon": 0.0, "bike_id": "323632c6eca1b92ad6fbdfb38ac9583d", "lon": -77.03820133333333, "rental_uris": {"ios": "https://dc.lft.to/lastmile_qr_scan", "android": "https://dc.lft.to/lastmile_qr_scan"}}, {"name": "abfa84fe0cb7b5cf6515aaeaa88d0d97", "fusion_lat": 0.0, "type": "electric_scooter", "lat": 38.910407666666664, "is_reserved": 0, "is_disabled": 0, "fusion_lon": 0.0, "bike_id": "abfa84fe0cb7b5cf6515aaeaa88d0d97", "lon": -77.0281165, "rental_uris": {"ios": "https://dc.lft.to/lastmile_qr_scan", "android": "https://dc.lft.to/lastmile_qr_scan"}}, {"name": "e332341060b5e6f9d29cc71efff44feb", "fusion_lat": 0.0, "type": "electric_scooter", "lat": 38.8652415, "is_reserved": 0, "is_disabled": 0, "fusion_lon": 0.0, "bike_id": "e332341060b5e6f9d29cc71efff44feb", "lon": -76.98556816666667, "rental_uris": {"ios": "https://dc.lft.to/lastmile_qr_scan", "android": "https://dc.lft.to/lastmile_qr_scan"}}, {"name": "465bb6bd4e75199ceebfa3e8c58f1e30", "fusion_lat": 0.0, "type": "electric_bike", "lat": 38.813308, "is_reserved": 0, "is_disabled": 0, "fusion_lon": 0.0, "bike_id": "465bb6bd4e75199ceebfa3e8c58f1e30", "lon": -77.05080133333334, "rental_uris": {"ios": "https://dc.lft.to/lastmile_qr_scan", "android": "https://dc.lft.to/lastmile_qr_scan"}}, {"name": "da45201a35f955eabe09be42dc8f013e", "fusion_lat": 0.0, "type": "electric_scooter", "lat": 38.90064016666667, "is_reserved": 0, "is_disabled": 0, "fusion_lon": 0.0, "bike_id": "da45201a35f955eabe09be42dc8f013e", "lon": -77.045066, "rental_uris": {"ios": "https://dc.lft.to/lastmile_qr_scan", "android": "https://dc.lft.to/lastmile_qr_scan"}}, {"name": "7cb6662082e2b7c213da3fa8d1935dc5", "fusion_lat": 0.0, "type": "electric_scooter", "lat": 38.924262666666664, "is_reserved": 0, "is_disabled": 0, "fusion_lon": 0.0, "bike_id": "7cb6662082e2b7c213da3fa8d1935dc5", "lon": -77.04132, "rental_uris": {"ios": "https://dc.lft.to/lastmile_qr_scan", "android": "https://dc.lft.to/lastmile_qr_scan"}}, {"name": "ab1b076d43c133d6c1c77bdbdf15072a", "fusion_lat": 0.0, "type": "electric_scooter", "lat": 38.930727166666664, "is_reserved": 0, "is_disabled": 0, "fusion_lon": 0.0, "bike_id": "ab1b076d43c133d6c1c77bdbdf15072a", "lon": -77.033994, "rental_uris": {"ios": "https://dc.lft.to/lastmile_qr_scan", "android": "https://dc.lft.to/lastmile_qr_scan"}}, {"name": "bd6954706638cfbe3e993553edc5ac30", "fusion_lat": 0.0, "type": "electric_bike", "lat": 38.9654785, "is_reserved": 0, "is_disabled": 0, "fusion_lon": 0.0, "bike_id": "bd6954706638cfbe3e993553edc5ac30", "lon": -77.03506933333334, "rental_uris": {"ios": "https://dc.lft.to/lastmile_qr_scan", "android": "https://dc.lft.to/lastmile_qr_scan"}}, {"name": "5e5727c9aca4341339c87aa1d74f02fc", "fusion_lat": 0.0, "type": "electric_scooter", "lat": 38.915653666666664, "is_reserved": 0, "is_disabled": 0, "fusion_lon": 0.0, "bike_id": "5e5727c9aca4341339c87aa1d74f02fc", "lon": -77.02236016666667, "rental_uris": {"ios": "https://dc.lft.to/lastmile_qr_scan", "android": "https://dc.lft.to/lastmile_qr_scan"}}, {"name": "8d59e3a948b35c0b050afae3689e185e", "fusion_lat": 0.0, "type": "electric_scooter", "lat": 38.932763666666666, "is_reserved": 0, "is_disabled": 0, "fusion_lon": 0.0, "bike_id": "8d59e3a948b35c0b050afae3689e185e", "lon": -77.03497483333334, "rental_uris": {"ios": "https://dc.lft.to/lastmile_qr_scan", "android": "https://dc.lft.to/lastmile_qr_scan"}}, {"name": "b85dc68251a146830770d70669c0cda8", "fusion_lat": 0.0, "type": "electric_scooter", "lat": 38.926168, "is_reserved": 0, "is_disabled": 0, "fusion_lon": 0.0, "bike_id": "b85dc68251a146830770d70669c0cda8", "lon": -77.04184883333333, "rental_uris": {"ios": "https://dc.lft.to/lastmile_qr_scan", "android": "https://dc.lft.to/lastmile_qr_scan"}}, {"name": "8ea7dc4318ec4922fd637d208de1939d", "fusion_lat": 0.0, "type": "electric_scooter", "lat": 38.90534, "is_reserved": 0, "is_disabled": 0, "fusion_lon": 0.0, "bike_id": "8ea7dc4318ec4922fd637d208de1939d", "lon": -77.05768083333334, "rental_uris": {"ios": "https://dc.lft.to/lastmile_qr_scan", "android": "https://dc.lft.to/lastmile_qr_scan"}}, {"name": "a9eb69a2f277fa9ae7753f7eab8f1099", "fusion_lat": 0.0, "type": "electric_scooter", "lat": 38.91928216666667, "is_reserved": 0, "is_disabled": 0, "fusion_lon": 0.0, "bike_id": "a9eb69a2f277fa9ae7753f7eab8f1099", "lon": -77.034225, "rental_uris": {"ios": "https://dc.lft.to/lastmile_qr_scan", "android": "https://dc.lft.to/lastmile_qr_scan"}}, {"name": "0880fe10564e191917cd8c5a414ecbc1", "fusion_lat": 0.0, "type": "electric_scooter", "lat": 38.8939485, "is_reserved": 0, "is_disabled": 0, "fusion_lon": 0.0, "bike_id": "0880fe10564e191917cd8c5a414ecbc1", "lon": -76.94804433333333, "rental_uris": {"ios": "https://dc.lft.to/lastmile_qr_scan", "android": "https://dc.lft.to/lastmile_qr_scan"}}, {"name": "839d3fc026c7fd6f38da4aade8b0546e", "fusion_lat": 0.0, "type": "electric_scooter", "lat": 38.91131, "is_reserved": 0, "is_disabled": 0, "fusion_lon": 0.0, "bike_id": "839d3fc026c7fd6f38da4aade8b0546e", "lon": -77.03198066666667, "rental_uris": {"ios": "https://dc.lft.to/lastmile_qr_scan", "android": "https://dc.lft.to/lastmile_qr_scan"}}, {"name": "43e9593dc282c5e0724b90dd9e16dc67", "fusion_lat": 0.0, "type": "electric_scooter", "lat": 38.89874783333333, "is_reserved": 0, "is_disabled": 0, "fusion_lon": 0.0, "bike_id": "43e9593dc282c5e0724b90dd9e16dc67", "lon": -76.93157833333333, "rental_uris": {"ios": "https://dc.lft.to/lastmile_qr_scan", "android": "https://dc.lft.to/lastmile_qr_scan"}}, {"name": "e02b4abdaa63696448348fa6d0f5d660", "fusion_lat": 0.0, "type": "electric_scooter", "lat": 38.90836316666667, "is_reserved": 0, "is_disabled": 0, "fusion_lon": 0.0, "bike_id": "e02b4abdaa63696448348fa6d0f5d660", "lon": -76.99699916666667, "rental_uris": {"ios": "https://dc.lft.to/lastmile_qr_scan", "android": "https://dc.lft.to/lastmile_qr_scan"}}, {"name": "5522db126acb3b323fc6a6ee614c19d0", "fusion_lat": 0.0, "type": "electric_scooter", "lat": 38.884316, "is_reserved": 0, "is_disabled": 0, "fusion_lon": 0.0, "bike_id": "5522db126acb3b323fc6a6ee614c19d0", "lon": -76.9574855, "rental_uris": {"ios": "https://dc.lft.to/lastmile_qr_scan", "android": "https://dc.lft.to/lastmile_qr_scan"}}, {"name": "c9abfb92ad90c040e79e1b1b1c48a319", "fusion_lat": 0.0, "type": "electric_scooter", "lat": 38.925298166666664, "is_reserved": 0, "is_disabled": 0, "fusion_lon": 0.0, "bike_id": "c9abfb92ad90c040e79e1b1b1c48a319", "lon": -77.05549683333334, "rental_uris": {"ios": "https://dc.lft.to/lastmile_qr_scan", "android": "https://dc.lft.to/lastmile_qr_scan"}}, {"name": "eeddf17f767b6033920b670fe771acea", "fusion_lat": 0.0, "type": "electric_scooter", "lat": 38.93134216666667, "is_reserved": 0, "is_disabled": 0, "fusion_lon": 0.0, "bike_id": "eeddf17f767b6033920b670fe771acea", "lon": -77.04050783333334, "rental_uris": {"ios": "https://dc.lft.to/lastmile_qr_scan", "android": "https://dc.lft.to/lastmile_qr_scan"}}, {"name": "b7e9798f4123b6b73b9e2222b0963a2d", "fusion_lat": 0.0, "type": "electric_scooter", "lat": 38.857095666666666, "is_reserved": 0, "is_disabled": 0, "fusion_lon": 0.0, "bike_id": "b7e9798f4123b6b73b9e2222b0963a2d", "lon": -76.98129966666667, "rental_uris": {"ios": "https://dc.lft.to/lastmile_qr_scan", "android": "https://dc.lft.to/lastmile_qr_scan"}}, {"name": "e0ac9aac06da14156f5352054ad65056", "fusion_lat": 0.0, "type": "electric_scooter", "lat": 38.908229, "is_reserved": 0, "is_disabled": 0, "fusion_lon": 0.0, "bike_id": "e0ac9aac06da14156f5352054ad65056", "lon": -77.04337583333333, "rental_uris": {"ios": "https://dc.lft.to/lastmile_qr_scan", "android": "https://dc.lft.to/lastmile_qr_scan"}}, {"name": "20f75ead4acb0a7d13f29cc77b06ec3d", "fusion_lat": 0.0, "type": "electric_scooter", "lat": 38.88743816666667, "is_reserved": 0, "is_disabled": 0, "fusion_lon": 0.0, "bike_id": "20f75ead4acb0a7d13f29cc77b06ec3d", "lon": -77.02124566666667, "rental_uris": {"ios": "https://dc.lft.to/lastmile_qr_scan", "android": "https://dc.lft.to/lastmile_qr_scan"}}, {"name": "2b258834942ad188e4149859cc4a7e4d", "fusion_lat": 0.0, "type": "electric_scooter", "lat": 38.907801, "is_reserved": 0, "is_disabled": 0, "fusion_lon": 0.0, "bike_id": "2b258834942ad188e4149859cc4a7e4d", "lon": -77.0385745, "rental_uris": {"ios": "https://dc.lft.to/lastmile_qr_scan", "android": "https://dc.lft.to/lastmile_qr_scan"}}, {"name": "f1759ee807610ebdab060a46d270f637", "fusion_lat": 0.0, "type": "electric_bike", "lat": 38.8380875, "is_reserved": 0, "is_disabled": 0, "fusion_lon": 0.0, "bike_id": "f1759ee807610ebdab060a46d270f637", "lon": -77.09520666666667, "rental_uris": {"ios": "https://dc.lft.to/lastmile_qr_scan", "android": "https://dc.lft.to/lastmile_qr_scan"}}, {"name": "e22811289f6c09fb0acec90b49312ba6", "fusion_lat": 0.0, "type": "electric_scooter", "lat": 38.911708833333336, "is_reserved": 0, "is_disabled": 0, "fusion_lon": 0.0, "bike_id": "e22811289f6c09fb0acec90b49312ba6", "lon": -77.00135566666667, "rental_uris": {"ios": "https://dc.lft.to/lastmile_qr_scan", "android": "https://dc.lft.to/lastmile_qr_scan"}}, {"name": "745c08b973689fed4846cbee50c091d5", "fusion_lat": 0.0, "type": "electric_scooter", "lat": 38.911084, "is_reserved": 0, "is_disabled": 0, "fusion_lon": 0.0, "bike_id": "745c08b973689fed4846cbee50c091d5", "lon": -77.02924016666667, "rental_uris": {"ios": "https://dc.lft.to/lastmile_qr_scan", "android": "https://dc.lft.to/lastmile_qr_scan"}}, {"name": "574d088bef2f149bfd3f7bc7042a5c0f", "fusion_lat": 0.0, "type": "electric_scooter", "lat": 38.91253483333333, "is_reserved": 0, "is_disabled": 0, "fusion_lon": 0.0, "bike_id": "574d088bef2f149bfd3f7bc7042a5c0f", "lon": -77.08159283333333, "rental_uris": {"ios": "https://dc.lft.to/lastmile_qr_scan", "android": "https://dc.lft.to/lastmile_qr_scan"}}, {"name": "105980b7c625f0c7544ba81762c2099f", "fusion_lat": 0.0, "type": "electric_scooter", "lat": 38.9180385, "is_reserved": 0, "is_disabled": 0, "fusion_lon": 0.0, "bike_id": "105980b7c625f0c7544ba81762c2099f", "lon": -77.0101595, "rental_uris": {"ios": "https://dc.lft.to/lastmile_qr_scan", "android": "https://dc.lft.to/lastmile_qr_scan"}}, {"name": "27d23469f5cb8056767598da48f88ea7", "fusion_lat": 0.0, "type": "electric_scooter", "lat": 38.912684, "is_reserved": 0, "is_disabled": 0, "fusion_lon": 0.0, "bike_id": "27d23469f5cb8056767598da48f88ea7", "lon": -77.06088966666667, "rental_uris": {"ios": "https://dc.lft.to/lastmile_qr_scan", "android": "https://dc.lft.to/lastmile_qr_scan"}}, {"name": "838f5e0194099d47be89dbf296359358", "fusion_lat": 0.0, "type": "electric_scooter", "lat": 38.880685666666665, "is_reserved": 0, "is_disabled": 0, "fusion_lon": 0.0, "bike_id": "838f5e0194099d47be89dbf296359358", "lon": -76.9353035, "rental_uris": {"ios": "https://dc.lft.to/lastmile_qr_scan", "android": "https://dc.lft.to/lastmile_qr_scan"}}, {"name": "93d1a19b5566d4813faf2b8e019bdf4d", "fusion_lat": 0.0, "type": "electric_scooter", "lat": 38.90131, "is_reserved": 0, "is_disabled": 0, "fusion_lon": 0.0, "bike_id": "93d1a19b5566d4813faf2b8e019bdf4d", "lon": -77.00281233333334, "rental_uris": {"ios": "https://dc.lft.to/lastmile_qr_scan", "android": "https://dc.lft.to/lastmile_qr_scan"}}, {"name": "e97ea871dd2ae214d6db02ddb5c67dd9", "fusion_lat": 0.0, "type": "electric_scooter", "lat": 38.90638466666667, "is_reserved": 0, "is_disabled": 0, "fusion_lon": 0.0, "bike_id": "e97ea871dd2ae214d6db02ddb5c67dd9", "lon": -77.03859716666666, "rental_uris": {"ios": "https://dc.lft.to/lastmile_qr_scan", "android": "https://dc.lft.to/lastmile_qr_scan"}}, {"name": "589d4b4131e05c14cf45a3cc98a98bf1", "fusion_lat": 0.0, "type": "electric_scooter", "lat": 38.8429525, "is_reserved": 0, "is_disabled": 0, "fusion_lon": 0.0, "bike_id": "589d4b4131e05c14cf45a3cc98a98bf1", "lon": -76.99947116666667, "rental_uris": {"ios": "https://dc.lft.to/lastmile_qr_scan", "android": "https://dc.lft.to/lastmile_qr_scan"}}, {"name": "f9b1f0ed77b33f6a9cd8fe4883109788", "fusion_lat": 0.0, "type": "electric_bike", "lat": 38.920053833333334, "is_reserved": 0, "is_disabled": 0, "fusion_lon": 0.0, "bike_id": "f9b1f0ed77b33f6a9cd8fe4883109788", "lon": -76.97492233333334, "rental_uris": {"ios": "https://dc.lft.to/lastmile_qr_scan", "android": "https://dc.lft.to/lastmile_qr_scan"}}, {"name": "0133f4fa6db16b7fdef8a995c5458fc7", "fusion_lat": 0.0, "type": "electric_scooter", "lat": 38.88509766666667, "is_reserved": 0, "is_disabled": 0, "fusion_lon": 0.0, "bike_id": "0133f4fa6db16b7fdef8a995c5458fc7", "lon": -77.022057, "rental_uris": {"ios": "https://dc.lft.to/lastmile_qr_scan", "android": "https://dc.lft.to/lastmile_qr_scan"}}, {"name": "d9d3a05bf6cd175e00200bd2073a1c93", "fusion_lat": 0.0, "type": "electric_scooter", "lat": 38.904488666666666, "is_reserved": 0, "is_disabled": 0, "fusion_lon": 0.0, "bike_id": "d9d3a05bf6cd175e00200bd2073a1c93", "lon": -76.99619533333333, "rental_uris": {"ios": "https://dc.lft.to/lastmile_qr_scan", "android": "https://dc.lft.to/lastmile_qr_scan"}}, {"name": "572d736f472261d132a0e5dc9b0429e2", "fusion_lat": 0.0, "type": "electric_scooter", "lat": 38.9182, "is_reserved": 0, "is_disabled": 0, "fusion_lon": 0.0, "bike_id": "572d736f472261d132a0e5dc9b0429e2", "lon": -77.01205383333334, "rental_uris": {"ios": "https://dc.lft.to/lastmile_qr_scan", "android": "https://dc.lft.to/lastmile_qr_scan"}}, {"name": "8254b02ae10f71cfde467b78c8beea26", "fusion_lat": 0.0, "type": "electric_scooter", "lat": 38.897927833333334, "is_reserved": 0, "is_disabled": 0, "fusion_lon": 0.0, "bike_id": "8254b02ae10f71cfde467b78c8beea26", "lon": -77.028229, "rental_uris": {"ios": "https://dc.lft.to/lastmile_qr_scan", "android": "https://dc.lft.to/lastmile_qr_scan"}}, {"name": "0e4e204c4f9efa9f09403735187750eb", "fusion_lat": 0.0, "type": "electric_scooter", "lat": 38.90955533333333, "is_reserved": 0, "is_disabled": 0, "fusion_lon": 0.0, "bike_id": "0e4e204c4f9efa9f09403735187750eb", "lon": -77.03182383333333, "rental_uris": {"ios": "https://dc.lft.to/lastmile_qr_scan", "android": "https://dc.lft.to/lastmile_qr_scan"}}, {"name": "96ccff72e1c836fe85e016e5ab59fcf0", "fusion_lat": 0.0, "type": "electric_scooter", "lat": 38.89588216666667, "is_reserved": 0, "is_disabled": 0, "fusion_lon": 0.0, "bike_id": "96ccff72e1c836fe85e016e5ab59fcf0", "lon": -76.93719266666666, "rental_uris": {"ios": "https://dc.lft.to/lastmile_qr_scan", "android": "https://dc.lft.to/lastmile_qr_scan"}}, {"name": "a4ff5b875704adb11fbf43e5dd6f47e1", "fusion_lat": 0.0, "type": "electric_scooter", "lat": 38.8561205, "is_reserved": 0, "is_disabled": 0, "fusion_lon": 0.0, "bike_id": "a4ff5b875704adb11fbf43e5dd6f47e1", "lon": -76.98010933333333, "rental_uris": {"ios": "https://dc.lft.to/lastmile_qr_scan", "android": "https://dc.lft.to/lastmile_qr_scan"}}, {"name": "41cf830f16f3e8d4b55abc9bdc78d061", "fusion_lat": 0.0, "type": "electric_scooter", "lat": 38.90318766666667, "is_reserved": 0, "is_disabled": 0, "fusion_lon": 0.0, "bike_id": "41cf830f16f3e8d4b55abc9bdc78d061", "lon": -77.03458866666666, "rental_uris": {"ios": "https://dc.lft.to/lastmile_qr_scan", "android": "https://dc.lft.to/lastmile_qr_scan"}}, {"name": "eb33f2317cecede85abdcd8b72dc2e4e", "fusion_lat": 0.0, "type": "electric_scooter", "lat": 38.89970866666667, "is_reserved": 0, "is_disabled": 0, "fusion_lon": 0.0, "bike_id": "eb33f2317cecede85abdcd8b72dc2e4e", "lon": -77.05704266666666, "rental_uris": {"ios": "https://dc.lft.to/lastmile_qr_scan", "android": "https://dc.lft.to/lastmile_qr_scan"}}, {"name": "b398618d26eaefb5673bd4e143d17169", "fusion_lat": 0.0, "type": "electric_scooter", "lat": 38.942791166666666, "is_reserved": 0, "is_disabled": 0, "fusion_lon": 0.0, "bike_id": "b398618d26eaefb5673bd4e143d17169", "lon": -77.02500466666666, "rental_uris": {"ios": "https://dc.lft.to/lastmile_qr_scan", "android": "https://dc.lft.to/lastmile_qr_scan"}}, {"name": "d0dcba4cd39842c503e70e0ad1a071be", "fusion_lat": 0.0, "type": "electric_scooter", "lat": 38.90630733333333, "is_reserved": 0, "is_disabled": 0, "fusion_lon": 0.0, "bike_id": "d0dcba4cd39842c503e70e0ad1a071be", "lon": -77.03864216666666, "rental_uris": {"ios": "https://dc.lft.to/lastmile_qr_scan", "android": "https://dc.lft.to/lastmile_qr_scan"}}, {"name": "c15083f7b627d3accb5c04dfec4327ee", "fusion_lat": 0.0, "type": "electric_scooter", "lat": 38.89710783333334, "is_reserved": 0, "is_disabled": 0, "fusion_lon": 0.0, "bike_id": "c15083f7b627d3accb5c04dfec4327ee", "lon": -77.00838216666666, "rental_uris": {"ios": "https://dc.lft.to/lastmile_qr_scan", "android": "https://dc.lft.to/lastmile_qr_scan"}}, {"name": "52df516c218ab1ec2f18cb7128a7b183", "fusion_lat": 0.0, "type": "electric_bike", "lat": 38.82873983333333, "is_reserved": 0, "is_disabled": 0, "fusion_lon": 0.0, "bike_id": "52df516c218ab1ec2f18cb7128a7b183", "lon": -77.1121535, "rental_uris": {"ios": "https://dc.lft.to/lastmile_qr_scan", "android": "https://dc.lft.to/lastmile_qr_scan"}}, {"name": "4def4f00f71b39ba64de66a565b1c704", "fusion_lat": 0.0, "type": "electric_bike", "lat": 38.990885, "is_reserved": 0, "is_disabled": 0, "fusion_lon": 0.0, "bike_id": "4def4f00f71b39ba64de66a565b1c704", "lon": -76.87493816666667, "rental_uris": {"ios": "https://dc.lft.to/lastmile_qr_scan", "android": "https://dc.lft.to/lastmile_qr_scan"}}, {"name": "c20696f5c0321af4fdd01d5de384c56f", "fusion_lat": 0.0, "type": "electric_scooter", "lat": 38.9048625, "is_reserved": 0, "is_disabled": 0, "fusion_lon": 0.0, "bike_id": "c20696f5c0321af4fdd01d5de384c56f", "lon": -77.0465595, "rental_uris": {"ios": "https://dc.lft.to/lastmile_qr_scan", "android": "https://dc.lft.to/lastmile_qr_scan"}}, {"name": "a68208f72af6bb6642dabb7908500c50", "fusion_lat": 0.0, "type": "electric_scooter", "lat": 38.9360395, "is_reserved": 0, "is_disabled": 0, "fusion_lon": 0.0, "bike_id": "a68208f72af6bb6642dabb7908500c50", "lon": -77.05857683333333, "rental_uris": {"ios": "https://dc.lft.to/lastmile_qr_scan", "android": "https://dc.lft.to/lastmile_qr_scan"}}, {"name": "5906bda58572c5c2167a2fbd06cc9dbf", "fusion_lat": 0.0, "type": "electric_scooter", "lat": 38.924384833333335, "is_reserved": 0, "is_disabled": 0, "fusion_lon": 0.0, "bike_id": "5906bda58572c5c2167a2fbd06cc9dbf", "lon": -77.03357166666666, "rental_uris": {"ios": "https://dc.lft.to/lastmile_qr_scan", "android": "https://dc.lft.to/lastmile_qr_scan"}}, {"name": "75786ff14246f9b8c33e2bfdf9322d9b", "fusion_lat": 0.0, "type": "electric_scooter", "lat": 38.883998166666665, "is_reserved": 0, "is_disabled": 0, "fusion_lon": 0.0, "bike_id": "75786ff14246f9b8c33e2bfdf9322d9b", "lon": -77.015135, "rental_uris": {"ios": "https://dc.lft.to/lastmile_qr_scan", "android": "https://dc.lft.to/lastmile_qr_scan"}}, {"name": "0c36b00f0df39e2cb38b674914dba3b8", "fusion_lat": 0.0, "type": "electric_scooter", "lat": 38.92033383333333, "is_reserved": 0, "is_disabled": 0, "fusion_lon": 0.0, "bike_id": "0c36b00f0df39e2cb38b674914dba3b8", "lon": -77.02430116666666, "rental_uris": {"ios": "https://dc.lft.to/lastmile_qr_scan", "android": "https://dc.lft.to/lastmile_qr_scan"}}, {"name": "33400f2ba058f79e2088e1a66c34d39d", "fusion_lat": 0.0, "type": "electric_scooter", "lat": 38.914125166666665, "is_reserved": 0, "is_disabled": 0, "fusion_lon": 0.0, "bike_id": "33400f2ba058f79e2088e1a66c34d39d", "lon": -77.03990466666667, "rental_uris": {"ios": "https://dc.lft.to/lastmile_qr_scan", "android": "https://dc.lft.to/lastmile_qr_scan"}}, {"name": "54daaaddb2ea65888155b3a25ff13d9b", "fusion_lat": 0.0, "type": "electric_scooter", "lat": 38.9145075, "is_reserved": 0, "is_disabled": 0, "fusion_lon": 0.0, "bike_id": "54daaaddb2ea65888155b3a25ff13d9b", "lon": -77.02146833333333, "rental_uris": {"ios": "https://dc.lft.to/lastmile_qr_scan", "android": "https://dc.lft.to/lastmile_qr_scan"}}, {"name": "d0d9430d9f4993d616464f332232aeab", "fusion_lat": 0.0, "type": "electric_scooter", "lat": 38.870783833333334, "is_reserved": 0, "is_disabled": 0, "fusion_lon": 0.0, "bike_id": "d0d9430d9f4993d616464f332232aeab", "lon": -77.011246, "rental_uris": {"ios": "https://dc.lft.to/lastmile_qr_scan", "android": "https://dc.lft.to/lastmile_qr_scan"}}, {"name": "3e3ae21f415163e756a136118563850c", "fusion_lat": 0.0, "type": "electric_scooter", "lat": 38.934614, "is_reserved": 0, "is_disabled": 0, "fusion_lon": 0.0, "bike_id": "3e3ae21f415163e756a136118563850c", "lon": -77.08635583333333, "rental_uris": {"ios": "https://dc.lft.to/lastmile_qr_scan", "android": "https://dc.lft.to/lastmile_qr_scan"}}, {"name": "d89f4f5d2d18ed2be7954a0994fbdb93", "fusion_lat": 0.0, "type": "electric_scooter", "lat": 38.903603333333336, "is_reserved": 0, "is_disabled": 0, "fusion_lon": 0.0, "bike_id": "d89f4f5d2d18ed2be7954a0994fbdb93", "lon": -77.052311, "rental_uris": {"ios": "https://dc.lft.to/lastmile_qr_scan", "android": "https://dc.lft.to/lastmile_qr_scan"}}, {"name": "1065c5e2e82022f972dfaa7e34ced52b", "fusion_lat": 0.0, "type": "electric_scooter", "lat": 38.887786, "is_reserved": 0, "is_disabled": 0, "fusion_lon": 0.0, "bike_id": "1065c5e2e82022f972dfaa7e34ced52b", "lon": -76.9552805, "rental_uris": {"ios": "https://dc.lft.to/lastmile_qr_scan", "android": "https://dc.lft.to/lastmile_qr_scan"}}, {"name": "d6059278f58f41d8a0ce546a429f0501", "fusion_lat": 0.0, "type": "electric_scooter", "lat": 38.912693, "is_reserved": 0, "is_disabled": 0, "fusion_lon": 0.0, "bike_id": "d6059278f58f41d8a0ce546a429f0501", "lon": -77.04502466666666, "rental_uris": {"ios": "https://dc.lft.to/lastmile_qr_scan", "android": "https://dc.lft.to/lastmile_qr_scan"}}, {"name": "82d744d5ce2e0825e21cbfa8f7534ff8", "fusion_lat": 0.0, "type": "electric_scooter", "lat": 38.908231666666666, "is_reserved": 0, "is_disabled": 0, "fusion_lon": 0.0, "bike_id": "82d744d5ce2e0825e21cbfa8f7534ff8", "lon": -77.03200566666666, "rental_uris": {"ios": "https://dc.lft.to/lastmile_qr_scan", "android": "https://dc.lft.to/lastmile_qr_scan"}}, {"name": "f2c560c77830781711d4d8b73c03a047", "fusion_lat": 0.0, "type": "electric_scooter", "lat": 38.89954066666667, "is_reserved": 0, "is_disabled": 0, "fusion_lon": 0.0, "bike_id": "f2c560c77830781711d4d8b73c03a047", "lon": -77.0527215, "rental_uris": {"ios": "https://dc.lft.to/lastmile_qr_scan", "android": "https://dc.lft.to/lastmile_qr_scan"}}, {"name": "ab8b6a601168cf443e4a9056c341cfd7", "fusion_lat": 0.0, "type": "electric_scooter", "lat": 38.90483583333334, "is_reserved": 0, "is_disabled": 0, "fusion_lon": 0.0, "bike_id": "ab8b6a601168cf443e4a9056c341cfd7", "lon": -77.04149283333334, "rental_uris": {"ios": "https://dc.lft.to/lastmile_qr_scan", "android": "https://dc.lft.to/lastmile_qr_scan"}}, {"name": "8c88009b23a1170313561ff65c29110e", "fusion_lat": 0.0, "type": "electric_scooter", "lat": 38.928968, "is_reserved": 0, "is_disabled": 0, "fusion_lon": 0.0, "bike_id": "8c88009b23a1170313561ff65c29110e", "lon": -77.05936716666666, "rental_uris": {"ios": "https://dc.lft.to/lastmile_qr_scan", "android": "https://dc.lft.to/lastmile_qr_scan"}}, {"name": "b07d92a73075afb2b93264f765ba78a6", "fusion_lat": 0.0, "type": "electric_bike", "lat": 38.95476016666667, "is_reserved": 0, "is_disabled": 0, "fusion_lon": 0.0, "bike_id": "b07d92a73075afb2b93264f765ba78a6", "lon": -77.0823465, "rental_uris": {"ios": "https://dc.lft.to/lastmile_qr_scan", "android": "https://dc.lft.to/lastmile_qr_scan"}}, {"name": "6649d2861ed879ac203bf344ef9491d5", "fusion_lat": 0.0, "type": "electric_scooter", "lat": 38.93301483333333, "is_reserved": 0, "is_disabled": 0, "fusion_lon": 0.0, "bike_id": "6649d2861ed879ac203bf344ef9491d5", "lon": -77.02464983333333, "rental_uris": {"ios": "https://dc.lft.to/lastmile_qr_scan", "android": "https://dc.lft.to/lastmile_qr_scan"}}, {"name": "40552c804cb07b039f6e68cee97c00fe", "fusion_lat": 0.0, "type": "electric_scooter", "lat": 38.91111633333333, "is_reserved": 0, "is_disabled": 0, "fusion_lon": 0.0, "bike_id": "40552c804cb07b039f6e68cee97c00fe", "lon": -77.0347485, "rental_uris": {"ios": "https://dc.lft.to/lastmile_qr_scan", "android": "https://dc.lft.to/lastmile_qr_scan"}}, {"name": "f064d2d2873a70b248871399d31d3c3e", "fusion_lat": 0.0, "type": "electric_scooter", "lat": 38.900547333333336, "is_reserved": 0, "is_disabled": 0, "fusion_lon": 0.0, "bike_id": "f064d2d2873a70b248871399d31d3c3e", "lon": -77.05016666666667, "rental_uris": {"ios": "https://dc.lft.to/lastmile_qr_scan", "android": "https://dc.lft.to/lastmile_qr_scan"}}, {"name": "6f872f1a80c6d53b35a0188bcc8d440c", "fusion_lat": 0.0, "type": "electric_scooter", "lat": 38.92875383333333, "is_reserved": 0, "is_disabled": 0, "fusion_lon": 0.0, "bike_id": "6f872f1a80c6d53b35a0188bcc8d440c", "lon": -77.04121966666666, "rental_uris": {"ios": "https://dc.lft.to/lastmile_qr_scan", "android": "https://dc.lft.to/lastmile_qr_scan"}}, {"name": "f9df2450063fbf169179c2f329c89b88", "fusion_lat": 0.0, "type": "electric_scooter", "lat": 38.924145333333335, "is_reserved": 0, "is_disabled": 0, "fusion_lon": 0.0, "bike_id": "f9df2450063fbf169179c2f329c89b88", "lon": -77.01941283333333, "rental_uris": {"ios": "https://dc.lft.to/lastmile_qr_scan", "android": "https://dc.lft.to/lastmile_qr_scan"}}, {"name": "e719bfaaec95151e74f4317571a12183", "fusion_lat": 0.0, "type": "electric_scooter", "lat": 38.89671383333334, "is_reserved": 0, "is_disabled": 0, "fusion_lon": 0.0, "bike_id": "e719bfaaec95151e74f4317571a12183", "lon": -77.04866966666667, "rental_uris": {"ios": "https://dc.lft.to/lastmile_qr_scan", "android": "https://dc.lft.to/lastmile_qr_scan"}}, {"name": "7269b93f1d9aabcd475fc3934246b861", "fusion_lat": 0.0, "type": "electric_scooter", "lat": 38.904598166666666, "is_reserved": 0, "is_disabled": 0, "fusion_lon": 0.0, "bike_id": "7269b93f1d9aabcd475fc3934246b861", "lon": -77.032488, "rental_uris": {"ios": "https://dc.lft.to/lastmile_qr_scan", "android": "https://dc.lft.to/lastmile_qr_scan"}}, {"name": "c8a8c4217dae04ab61f2899bac0717be", "fusion_lat": 0.0, "type": "electric_scooter", "lat": 38.93361483333333, "is_reserved": 0, "is_disabled": 0, "fusion_lon": 0.0, "bike_id": "c8a8c4217dae04ab61f2899bac0717be", "lon": -77.0572495, "rental_uris": {"ios": "https://dc.lft.to/lastmile_qr_scan", "android": "https://dc.lft.to/lastmile_qr_scan"}}, {"name": "21ac210df85e983dfa3134e6217fe371", "fusion_lat": 0.0, "type": "electric_scooter", "lat": 38.905606, "is_reserved": 0, "is_disabled": 0, "fusion_lon": 0.0, "bike_id": "21ac210df85e983dfa3134e6217fe371", "lon": -76.98079266666667, "rental_uris": {"ios": "https://dc.lft.to/lastmile_qr_scan", "android": "https://dc.lft.to/lastmile_qr_scan"}}, {"name": "888d3fbe3b28f8c0f3518ec23d979608", "fusion_lat": 0.0, "type": "electric_scooter", "lat": 38.91254133333333, "is_reserved": 0, "is_disabled": 0, "fusion_lon": 0.0, "bike_id": "888d3fbe3b28f8c0f3518ec23d979608", "lon": -77.0355195, "rental_uris": {"ios": "https://dc.lft.to/lastmile_qr_scan", "android": "https://dc.lft.to/lastmile_qr_scan"}}, {"name": "a0c6cc0f035ac7c51dcb687165dd1b98", "fusion_lat": 0.0, "type": "electric_scooter", "lat": 38.9181345, "is_reserved": 0, "is_disabled": 0, "fusion_lon": 0.0, "bike_id": "a0c6cc0f035ac7c51dcb687165dd1b98", "lon": -77.040005, "rental_uris": {"ios": "https://dc.lft.to/lastmile_qr_scan", "android": "https://dc.lft.to/lastmile_qr_scan"}}, {"name": "b8f5049754a948a525121d47944cde2a", "fusion_lat": 0.0, "type": "electric_scooter", "lat": 38.90396166666667, "is_reserved": 0, "is_disabled": 0, "fusion_lon": 0.0, "bike_id": "b8f5049754a948a525121d47944cde2a", "lon": -77.06399483333334, "rental_uris": {"ios": "https://dc.lft.to/lastmile_qr_scan", "android": "https://dc.lft.to/lastmile_qr_scan"}}, {"name": "e5fa6f93714917f50268d26730004fc3", "fusion_lat": 0.0, "type": "electric_scooter", "lat": 38.883091666666665, "is_reserved": 0, "is_disabled": 0, "fusion_lon": 0.0, "bike_id": "e5fa6f93714917f50268d26730004fc3", "lon": -77.02375683333334, "rental_uris": {"ios": "https://dc.lft.to/lastmile_qr_scan", "android": "https://dc.lft.to/lastmile_qr_scan"}}, {"name": "d3aabf4d73228cbf400853e9392bde02", "fusion_lat": 0.0, "type": "electric_bike", "lat": 38.961223833333335, "is_reserved": 0, "is_disabled": 0, "fusion_lon": 0.0, "bike_id": "d3aabf4d73228cbf400853e9392bde02", "lon": -77.03263366666667, "rental_uris": {"ios": "https://dc.lft.to/lastmile_qr_scan", "android": "https://dc.lft.to/lastmile_qr_scan"}}, {"name": "605d35348cf0d4b99d4ae0866c3f821f", "fusion_lat": 0.0, "type": "electric_scooter", "lat": 38.8613075, "is_reserved": 0, "is_disabled": 0, "fusion_lon": 0.0, "bike_id": "605d35348cf0d4b99d4ae0866c3f821f", "lon": -76.9892505, "rental_uris": {"ios": "https://dc.lft.to/lastmile_qr_scan", "android": "https://dc.lft.to/lastmile_qr_scan"}}, {"name": "78020c10a2cfbf4e61555ee4182694f4", "fusion_lat": 0.0, "type": "electric_scooter", "lat": 38.9088555, "is_reserved": 0, "is_disabled": 0, "fusion_lon": 0.0, "bike_id": "78020c10a2cfbf4e61555ee4182694f4", "lon": -77.00571166666667, "rental_uris": {"ios": "https://dc.lft.to/lastmile_qr_scan", "android": "https://dc.lft.to/lastmile_qr_scan"}}, {"name": "d421de0ccdb61fc8201ceabb5aba7691", "fusion_lat": 0.0, "type": "electric_scooter", "lat": 38.93332933333333, "is_reserved": 0, "is_disabled": 0, "fusion_lon": 0.0, "bike_id": "d421de0ccdb61fc8201ceabb5aba7691", "lon": -77.02745183333333, "rental_uris": {"ios": "https://dc.lft.to/lastmile_qr_scan", "android": "https://dc.lft.to/lastmile_qr_scan"}}, {"name": "86c72cce8d6ad6d4e85d7b7918610455", "fusion_lat": 0.0, "type": "electric_scooter", "lat": 38.91756866666667, "is_reserved": 0, "is_disabled": 0, "fusion_lon": 0.0, "bike_id": "86c72cce8d6ad6d4e85d7b7918610455", "lon": -77.01876283333333, "rental_uris": {"ios": "https://dc.lft.to/lastmile_qr_scan", "android": "https://dc.lft.to/lastmile_qr_scan"}}, {"name": "a86aa4b31b1ab120fa8c0ddb9dc4cdb9", "fusion_lat": 0.0, "type": "electric_scooter", "lat": 38.9048735, "is_reserved": 0, "is_disabled": 0, "fusion_lon": 0.0, "bike_id": "a86aa4b31b1ab120fa8c0ddb9dc4cdb9", "lon": -77.007184, "rental_uris": {"ios": "https://dc.lft.to/lastmile_qr_scan", "android": "https://dc.lft.to/lastmile_qr_scan"}}, {"name": "09d75793306b631e2fd7289b48ac6750", "fusion_lat": 0.0, "type": "electric_scooter", "lat": 38.931158, "is_reserved": 0, "is_disabled": 0, "fusion_lon": 0.0, "bike_id": "09d75793306b631e2fd7289b48ac6750", "lon": -77.02395083333333, "rental_uris": {"ios": "https://dc.lft.to/lastmile_qr_scan", "android": "https://dc.lft.to/lastmile_qr_scan"}}, {"name": "719868a659b1627fe3a76d559b50ae93", "fusion_lat": 0.0, "type": "electric_scooter", "lat": 38.92448566666667, "is_reserved": 0, "is_disabled": 0, "fusion_lon": 0.0, "bike_id": "719868a659b1627fe3a76d559b50ae93", "lon": -76.99332433333333, "rental_uris": {"ios": "https://dc.lft.to/lastmile_qr_scan", "android": "https://dc.lft.to/lastmile_qr_scan"}}, {"name": "ba949e1243fce2ad0381f59639c3a6d8", "fusion_lat": 0.0, "type": "electric_scooter", "lat": 38.90988216666667, "is_reserved": 0, "is_disabled": 0, "fusion_lon": 0.0, "bike_id": "ba949e1243fce2ad0381f59639c3a6d8", "lon": -77.02397766666667, "rental_uris": {"ios": "https://dc.lft.to/lastmile_qr_scan", "android": "https://dc.lft.to/lastmile_qr_scan"}}, {"name": "3596ac6c57f53bf5ff777475968b9887", "fusion_lat": 0.0, "type": "electric_scooter", "lat": 38.938961, "is_reserved": 0, "is_disabled": 0, "fusion_lon": 0.0, "bike_id": "3596ac6c57f53bf5ff777475968b9887", "lon": -77.03260866666666, "rental_uris": {"ios": "https://dc.lft.to/lastmile_qr_scan", "android": "https://dc.lft.to/lastmile_qr_scan"}}, {"name": "ea0e8ca97708d535efd0b847ff661886", "fusion_lat": 0.0, "type": "electric_scooter", "lat": 38.898728166666665, "is_reserved": 0, "is_disabled": 0, "fusion_lon": 0.0, "bike_id": "ea0e8ca97708d535efd0b847ff661886", "lon": -76.93156316666666, "rental_uris": {"ios": "https://dc.lft.to/lastmile_qr_scan", "android": "https://dc.lft.to/lastmile_qr_scan"}}, {"name": "b1c106bbc896d82d3fefca6221d63c7d", "fusion_lat": 0.0, "type": "electric_scooter", "lat": 38.90307633333333, "is_reserved": 0, "is_disabled": 0, "fusion_lon": 0.0, "bike_id": "b1c106bbc896d82d3fefca6221d63c7d", "lon": -77.02421866666667, "rental_uris": {"ios": "https://dc.lft.to/lastmile_qr_scan", "android": "https://dc.lft.to/lastmile_qr_scan"}}, {"name": "efa387aa68e551049392d03dd9688aa5", "fusion_lat": 0.0, "type": "electric_scooter", "lat": 38.924872666666666, "is_reserved": 0, "is_disabled": 0, "fusion_lon": 0.0, "bike_id": "efa387aa68e551049392d03dd9688aa5", "lon": -77.05745733333333, "rental_uris": {"ios": "https://dc.lft.to/lastmile_qr_scan", "android": "https://dc.lft.to/lastmile_qr_scan"}}, {"name": "c5c8280c11bcac59e2b7223a9d6a6a91", "fusion_lat": 0.0, "type": "electric_scooter", "lat": 38.9279955, "is_reserved": 0, "is_disabled": 0, "fusion_lon": 0.0, "bike_id": "c5c8280c11bcac59e2b7223a9d6a6a91", "lon": -77.03970783333334, "rental_uris": {"ios": "https://dc.lft.to/lastmile_qr_scan", "android": "https://dc.lft.to/lastmile_qr_scan"}}, {"name": "d46fabd8dcc54ec2b2b2fa6d18c694b3", "fusion_lat": 0.0, "type": "electric_bike", "lat": 38.948932166666665, "is_reserved": 0, "is_disabled": 0, "fusion_lon": 0.0, "bike_id": "d46fabd8dcc54ec2b2b2fa6d18c694b3", "lon": -76.96372783333334, "rental_uris": {"ios": "https://dc.lft.to/lastmile_qr_scan", "android": "https://dc.lft.to/lastmile_qr_scan"}}, {"name": "d8249d2e5ac1b61294a3c3130a28d4f8", "fusion_lat": 0.0, "type": "electric_bike", "lat": 38.8638995, "is_reserved": 0, "is_disabled": 0, "fusion_lon": 0.0, "bike_id": "d8249d2e5ac1b61294a3c3130a28d4f8", "lon": -76.98990133333334, "rental_uris": {"ios": "https://dc.lft.to/lastmile_qr_scan", "android": "https://dc.lft.to/lastmile_qr_scan"}}, {"name": "e7a505a9a7050b0fd3328f69a2e2d203", "fusion_lat": 0.0, "type": "electric_scooter", "lat": 38.914776833333335, "is_reserved": 0, "is_disabled": 0, "fusion_lon": 0.0, "bike_id": "e7a505a9a7050b0fd3328f69a2e2d203", "lon": -77.03250816666667, "rental_uris": {"ios": "https://dc.lft.to/lastmile_qr_scan", "android": "https://dc.lft.to/lastmile_qr_scan"}}, {"name": "317eee7c30a73e54d07a521822c48834", "fusion_lat": 0.0, "type": "electric_bike", "lat": 38.99819216666667, "is_reserved": 0, "is_disabled": 0, "fusion_lon": 0.0, "bike_id": "317eee7c30a73e54d07a521822c48834", "lon": -76.88371866666667, "rental_uris": {"ios": "https://dc.lft.to/lastmile_qr_scan", "android": "https://dc.lft.to/lastmile_qr_scan"}}, {"name": "1f8e6e76f7714f2189b8484fa35aeb3a", "fusion_lat": 0.0, "type": "electric_scooter", "lat": 38.941713166666666, "is_reserved": 0, "is_disabled": 0, "fusion_lon": 0.0, "bike_id": "1f8e6e76f7714f2189b8484fa35aeb3a", "lon": -77.04132166666666, "rental_uris": {"ios": "https://dc.lft.to/lastmile_qr_scan", "android": "https://dc.lft.to/lastmile_qr_scan"}}, {"name": "f1f2b113486c43dfe65a20906df725c5", "fusion_lat": 0.0, "type": "electric_scooter", "lat": 38.87420216666666, "is_reserved": 0, "is_disabled": 0, "fusion_lon": 0.0, "bike_id": "f1f2b113486c43dfe65a20906df725c5", "lon": -76.97177916666666, "rental_uris": {"ios": "https://dc.lft.to/lastmile_qr_scan", "android": "https://dc.lft.to/lastmile_qr_scan"}}, {"name": "9a5957a12e22f00eac865558403d6496", "fusion_lat": 0.0, "type": "electric_scooter", "lat": 38.918415833333334, "is_reserved": 0, "is_disabled": 0, "fusion_lon": 0.0, "bike_id": "9a5957a12e22f00eac865558403d6496", "lon": -77.025977, "rental_uris": {"ios": "https://dc.lft.to/lastmile_qr_scan", "android": "https://dc.lft.to/lastmile_qr_scan"}}, {"name": "d2335513b881615a27bee239305b7641", "fusion_lat": 0.0, "type": "electric_scooter", "lat": 38.884624333333335, "is_reserved": 0, "is_disabled": 0, "fusion_lon": 0.0, "bike_id": "d2335513b881615a27bee239305b7641", "lon": -77.01508183333333, "rental_uris": {"ios": "https://dc.lft.to/lastmile_qr_scan", "android": "https://dc.lft.to/lastmile_qr_scan"}}, {"name": "7a1cf8d3fefba01f90bfff6d5734bca6", "fusion_lat": 0.0, "type": "electric_scooter", "lat": 38.90335566666667, "is_reserved": 0, "is_disabled": 0, "fusion_lon": 0.0, "bike_id": "7a1cf8d3fefba01f90bfff6d5734bca6", "lon": -77.06647016666666, "rental_uris": {"ios": "https://dc.lft.to/lastmile_qr_scan", "android": "https://dc.lft.to/lastmile_qr_scan"}}, {"name": "58f395fe287a5aa0371c74d01529b10c", "fusion_lat": 0.0, "type": "electric_scooter", "lat": 38.903606333333336, "is_reserved": 0, "is_disabled": 0, "fusion_lon": 0.0, "bike_id": "58f395fe287a5aa0371c74d01529b10c", "lon": -77.01099733333334, "rental_uris": {"ios": "https://dc.lft.to/lastmile_qr_scan", "android": "https://dc.lft.to/lastmile_qr_scan"}}, {"name": "36cad472c76045e893d9e70c49a31301", "fusion_lat": 0.0, "type": "electric_scooter", "lat": 38.89875166666667, "is_reserved": 0, "is_disabled": 0, "fusion_lon": 0.0, "bike_id": "36cad472c76045e893d9e70c49a31301", "lon": -76.93156916666666, "rental_uris": {"ios": "https://dc.lft.to/lastmile_qr_scan", "android": "https://dc.lft.to/lastmile_qr_scan"}}, {"name": "17896ce260fedf1b976481fad89563fa", "fusion_lat": 0.0, "type": "electric_scooter", "lat": 38.9120095, "is_reserved": 0, "is_disabled": 0, "fusion_lon": 0.0, "bike_id": "17896ce260fedf1b976481fad89563fa", "lon": -77.036393, "rental_uris": {"ios": "https://dc.lft.to/lastmile_qr_scan", "android": "https://dc.lft.to/lastmile_qr_scan"}}, {"name": "949d3480a947fa4086aac872af7b9ac2", "fusion_lat": 0.0, "type": "electric_scooter", "lat": 38.906579666666666, "is_reserved": 0, "is_disabled": 0, "fusion_lon": 0.0, "bike_id": "949d3480a947fa4086aac872af7b9ac2", "lon": -77.04169533333334, "rental_uris": {"ios": "https://dc.lft.to/lastmile_qr_scan", "android": "https://dc.lft.to/lastmile_qr_scan"}}, {"name": "524bce527e3134c987f4f9c0e5574f00", "fusion_lat": 0.0, "type": "electric_scooter", "lat": 38.91612533333333, "is_reserved": 0, "is_disabled": 0, "fusion_lon": 0.0, "bike_id": "524bce527e3134c987f4f9c0e5574f00", "lon": -77.0216705, "rental_uris": {"ios": "https://dc.lft.to/lastmile_qr_scan", "android": "https://dc.lft.to/lastmile_qr_scan"}},