{"data": {"bikes": [{"is_disabled": 0, "fusion_lon": 0.0, "fusion_lat": 0.0, "lat": 38.90470783333333, "type": "electric_scooter", "lon": -76.99215133333334, "bike_id": "19a40c9bb25e27ef4d41acee6a808c7e", "rental_uris": {"android": "https://dc.lft.to/lastmile_qr_scan", "ios": "https://dc.lft.to/lastmile_qr_scan"}, "name": "19a40c9bb25e27ef4d41acee6a808c7e", "is_reserved": 0}, {"is_disabled": 0, "fusion_lon": 0.0, "fusion_lat": 0.0, "lat": 38.897382666666665, "type": "electric_scooter", "lon": -77.046818, "bike_id": "5bb64fa53849c688967f5426713852fe", "rental_uris": {"android": "https://dc.lft.to/lastmile_qr_scan", "ios": "https://dc.lft.to/lastmile_qr_scan"}, "name": "5bb64fa53849c688967f5426713852fe", "is_reserved": 0}, {"is_disabled": 0, "fusion_lon": 0.0, "fusion_lat": 0.0, "lat": 38.8923375, "type": "electric_scooter", "lon": -77.04674716666666, "bike_id": "5a393f80a5d2b7353901a8e59b103662", "rental_uris": {"android": "https://dc.lft.to/lastmile_qr_scan", "ios": "https://dc.lft.to/lastmile_qr_scan"}, "name": "5a393f80a5d2b7353901a8e59b103662", "is_reserved": 0}, {"is_disabled": 0, "fusion_lon": 0.0, "fusion_lat": 0.0, "lat": 38.935428, "type": "electric_scooter", "lon": -77.03412183333333, "bike_id": "7032475bc7d3c6956f0b5e67707e0f50", "rental_uris": {"android": "https://dc.lft.to/lastmile_qr_scan", "ios": "https://dc.lft.to/lastmile_qr_scan"}, "name": "7032475bc7d3c6956f0b5e67707e0f50", "is_reserved": 0}, {"is_disabled": 0, "fusion_lon": 0.0, "fusion_lat": 0.0, "lat": 38.930427333333334, "type": "electric_scooter", "lon": -76.99629866666666, "bike_id": "0ce473dfca678ad4debb2316d78da994", "rental_uris": {"android": "https://dc.lft.to/lastmile_qr_scan", "ios": "https://dc.lft.to/lastmile_qr_scan"}, "name": "0ce473dfca678ad4debb2316d78da994", "is_reserved": 0}, {"is_disabled": 0, "fusion_lon": 0.0, "fusion_lat": 0.0, "lat": 38.92262216666666, "type": "electric_scooter", "lon": -77.07132733333333, "bike_id": "f12e5d43606112dd95d8105fcefbc016", "rental_uris": {"android": "https://dc.lft.to/lastmile_qr_scan", "ios": "https://dc.lft.to/lastmile_qr_scan"}, "name": "f12e5d43606112dd95d8105fcefbc016", "is_reserved": 0}, {"is_disabled": 0, "fusion_lon": 0.0, "fusion_lat": 0.0, "lat": 38.9115065, "type": "electric_scooter", "lon": -76.9849925, "bike_id": "364ec180f082d9f143867f570ae5001a", "rental_uris": {"android": "https://dc.lft.to/lastmile_qr_scan", "ios": "https://dc.lft.to/lastmile_qr_scan"}, "name": "364ec180f082d9f143867f570ae5001a", "is_reserved": 0}, {"is_disabled": 0, "fusion_lon": 0.0, "fusion_lat": 0.0, "lat": 38.89357183333333, "type": "electric_scooter", "lon": -76.9399135, "bike_id": "4d921690fd757c61cadd3b968ded2a1d", "rental_uris": {"android": "https://dc.lft.to/lastmile_qr_scan", "ios": "https://dc.lft.to/lastmile_qr_scan"}, "name": "4d921690fd757c61cadd3b968ded2a1d", "is_reserved": 0}, {"is_disabled": 0, "fusion_lon": 0.0, "fusion_lat": 0.0, "lat": 38.9097185, "type": "electric_scooter", "lon": -77.0387025, "bike_id": "59b8fb4b1cb623d4850d45897b46b9d5", "rental_uris": {"android": "https://dc.lft.to/lastmile_qr_scan", "ios": "https://dc.lft.to/lastmile_qr_scan"}, "name": "59b8fb4b1cb623d4850d45897b46b9d5", "is_reserved": 0}, {"is_disabled": 0, "fusion_lon": 0.0, "fusion_lat": 0.0, "lat": 38.93840133333333, "type": "electric_scooter", "lon": -77.06020266666667, "bike_id": "0be49abaa5ba89f99402d304ab1f79cf", "rental_uris": {"android": "https://dc.lft.to/lastmile_qr_scan", "ios": "https://dc.lft.to/lastmile_qr_scan"}, "name": "0be49abaa5ba89f99402d304ab1f79cf", "is_reserved": 0}, {"is_disabled": 0, "fusion_lon": 0.0, "fusion_lat": 0.0, "lat": 38.86718233333333, "type": "electric_scooter", "lon": -76.97916283333333, "bike_id": "856e0e584dd4c8c66a34072d0544e37d", "rental_uris": {"android": "https://dc.lft.to/lastmile_qr_scan", "ios": "https://dc.lft.to/lastmile_qr_scan"}, "name": "856e0e584dd4c8c66a34072d0544e37d", "is_reserved": 0}, {"is_disabled": 0, "fusion_lon": 0.0, "fusion_lat": 0.0, "lat": 38.938832833333336, "type": "electric_scooter", "lon": -77.02823133333334, "bike_id": "d8eafd6ba58f73069f824fd81ef2549d", "rental_uris": {"android": "https://dc.lft.to/lastmile_qr_scan", "ios": "https://dc.lft.to/lastmile_qr_scan"}, "name": "d8eafd6ba58f73069f824fd81ef2549d", "is_reserved": 0}, {"is_disabled": 0, "fusion_lon": 0.0, "fusion_lat": 0.0, "lat": 38.877900833333335, "type": "electric_scooter", "lon": -77.01356333333334, "bike_id": "79f792b5e64a3c27dccac356d82f8a75", "rental_uris": {"android": "https://dc.lft.to/lastmile_qr_scan", "ios": "https://dc.lft.to/lastmile_qr_scan"}, "name": "79f792b5e64a3c27dccac356d82f8a75", "is_reserved": 0}, {"is_disabled": 0, "fusion_lon": 0.0, "fusion_lat": 0.0, "lat": 38.957430333333335, "type": "electric_scooter", "lon": -77.024277, "bike_id": "19c68258ba5845dd434d985705bd12d4", "rental_uris": {"android": "https://dc.lft.to/lastmile_qr_scan", "ios": "https://dc.lft.to/lastmile_qr_scan"}, "name": "19c68258ba5845dd434d985705bd12d4", "is_reserved": 0}, {"is_disabled": 0, "fusion_lon": 0.0, "fusion_lat": 0.0, "lat": 38.9333715, "type": "electric_scooter", "lon": -77.04133016666667, "bike_id": "f7539ad4face4c475f95568118f22d1a", "rental_uris": {"android": "https://dc.lft.to/lastmile_qr_scan", "ios": "https://dc.lft.to/lastmile_qr_scan"}, "name": "f7539ad4face4c475f95568118f22d1a", "is_reserved": 0}, {"is_disabled": 0, "fusion_lon": 0.0, "fusion_lat": 0.0, "lat": 38.9287245, "type": "electric_scooter", "lon": -76.99031883333333, "bike_id": "e9dd99e554c5b2427d8e47682c261743", "rental_uris": {"android": "https://dc.lft.to/lastmile_qr_scan", "ios": "https://dc.lft.to/lastmile_qr_scan"}, "name": "e9dd99e554c5b2427d8e47682c261743", "is_reserved": 0}, {"is_disabled": 0, "fusion_lon": 0.0, "fusion_lat": 0.0, "lat": 38.92737183333333, "type": "electric_bike", "lon": -76.99363783333334, "bike_id": "548916494a62df05fcaa72d05a58cc1d", "rental_uris": {"android": "https://dc.lft.to/lastmile_qr_scan", "ios": "https://dc.lft.to/lastmile_qr_scan"}, "name": "548916494a62df05fcaa72d05a58cc1d", "is_reserved": 0}, {"is_disabled": 0, "fusion_lon": 0.0, "fusion_lat": 0.0, "lat": 38.92829833333333, "type": "electric_scooter", "lon": -77.02254983333333, "bike_id": "4ec7dbb7a1ab4e6f8c4c9494be2e6f1d", "rental_uris": {"android": "https://dc.lft.to/lastmile_qr_scan", "ios": "https://dc.lft.to/lastmile_qr_scan"}, "name": "4ec7dbb7a1ab4e6f8c4c9494be2e6f1d", "is_reserved": 0}, {"is_disabled": 0, "fusion_lon": 0.0, "fusion_lat": 0.0, "lat": 38.913403833333334, "type": "electric_scooter", "lon": -77.052156, "bike_id": "1dc0bf38dc301ddeb7e3c53701e744dc", "rental_uris": {"android": "https://dc.lft.to/lastmile_qr_scan", "ios": "https://dc.lft.to/lastmile_qr_scan"}, "name": "1dc0bf38dc301ddeb7e3c53701e744dc", "is_reserved": 0}, {"is_disabled": 0, "fusion_lon": 0.0, "fusion_lat": 0.0, "lat": 38.9847785, "type": "electric_scooter", "lon": -77.02649616666666, "bike_id": "5855ea112dafa2048a1af5862c938fbe", "rental_uris": {"android": "https://dc.lft.to/lastmile_qr_scan", "ios": "https://dc.lft.to/lastmile_qr_scan"}, "name": "5855ea112dafa2048a1af5862c938fbe", "is_reserved": 0}, {"is_disabled": 0, "fusion_lon": 0.0, "fusion_lat": 0.0, "lat": 38.92860916666667, "type": "electric_bike", "lon": -76.98934566666667, "bike_id": "d5af7e3bd3f0b04c29f2107c5fee7d45", "rental_uris": {"android": "https://dc.lft.to/lastmile_qr_scan", "ios": "https://dc.lft.to/lastmile_qr_scan"}, "name": "d5af7e3bd3f0b04c29f2107c5fee7d45", "is_reserved": 0}, {"is_disabled": 0, "fusion_lon": 0.0, "fusion_lat": 0.0, "lat": 38.8972885, "type": "electric_bike", "lon": -76.905366, "bike_id": "86ee373b7dd917806db9772f39c4128d", "rental_uris": {"android": "https://dc.lft.to/lastmile_qr_scan", "ios": "https://dc.lft.to/lastmile_qr_scan"}, "name": "86ee373b7dd917806db9772f39c4128d", "is_reserved": 0}, {"is_disabled": 0, "fusion_lon": 0.0, "fusion_lat": 0.0, "lat": 38.968173166666666, "type": "electric_scooter", "lon": -77.0089145, "bike_id": "3fe936172cf8ff90853db89f3f1320e5", "rental_uris": {"android": "https://dc.lft.to/lastmile_qr_scan", "ios": "https://dc.lft.to/lastmile_qr_scan"}, "name": "3fe936172cf8ff90853db89f3f1320e5", "is_reserved": 0}, {"is_disabled": 0, "fusion_lon": 0.0, "fusion_lat": 0.0, "lat": 39.05206233333333, "type": "electric_bike", "lon": -77.04410883333334, "bike_id": "446ddf4d87922d6972070447d06b4317", "rental_uris": {"android": "https://dc.lft.to/lastmile_qr_scan", "ios": "https://dc.lft.to/lastmile_qr_scan"}, "name": "446ddf4d87922d6972070447d06b4317", "is_reserved": 0}, {"is_disabled": 0, "fusion_lon": 0.0, "fusion_lat": 0.0, "lat": 38.916581666666666, "type": "electric_scooter", "lon": -77.046532, "bike_id": "ad47346c65d321eb2b3df82829fa2c2c", "rental_uris": {"android": "https://dc.lft.to/lastmile_qr_scan", "ios": "https://dc.lft.to/lastmile_qr_scan"}, "name": "ad47346c65d321eb2b3df82829fa2c2c", "is_reserved": 0}, {"is_disabled": 0, "fusion_lon": 0.0, "fusion_lat": 0.0, "lat": 38.90409966666667, "type": "electric_scooter", "lon": -77.03175366666666, "bike_id": "2f39e0f226ae5200352e03a85e557efc", "rental_uris": {"android": "https://dc.lft.to/lastmile_qr_scan", "ios": "https://dc.lft.to/lastmile_qr_scan"}, "name": "2f39e0f226ae5200352e03a85e557efc", "is_reserved": 0}, {"is_disabled": 0, "fusion_lon": 0.0, "fusion_lat": 0.0, "lat": 38.9390905, "type": "electric_scooter", "lon": -77.0780705, "bike_id": "32ee828d38516a91b6c93dba692f2627", "rental_uris": {"android": "https://dc.lft.to/lastmile_qr_scan", "ios": "https://dc.lft.to/lastmile_qr_scan"}, "name": "32ee828d38516a91b6c93dba692f2627", "is_reserved": 0}, {"is_disabled": 0, "fusion_lon": 0.0, "fusion_lat": 0.0, "lat": 38.9118945, "type": "electric_scooter", "lon": -77.04163216666667, "bike_id": "f7bc103f57cfbb9795d7dd8a76a88abb", "rental_uris": {"android": "https://dc.lft.to/lastmile_qr_scan", "ios": "https://dc.lft.to/lastmile_qr_scan"}, "name": "f7bc103f57cfbb9795d7dd8a76a88abb", "is_reserved": 0}, {"is_disabled": 0, "fusion_lon": 0.0, "fusion_lat": 0.0, "lat": 38.886877, "type": "electric_scooter", "lon": -77.013769, "bike_id": "9c0e2adf028dd4a36e24393f7b65c186", "rental_uris": {"android": "https://dc.lft.to/lastmile_qr_scan", "ios": "https://dc.lft.to/lastmile_qr_scan"}, "name": "9c0e2adf028dd4a36e24393f7b65c186", "is_reserved": 0}, {"is_disabled": 0, "fusion_lon": 0.0, "fusion_lat": 0.0, "lat": 38.90175683333333, "type": "electric_scooter", "lon": -77.05005916666667, "bike_id": "b637b9c67bdd654fcaaa1e2302f8e79b", "rental_uris": {"android": "https://dc.lft.to/lastmile_qr_scan", "ios": "https://dc.lft.to/lastmile_qr_scan"}, "name": "b637b9c67bdd654fcaaa1e2302f8e79b", "is_reserved": 0}, {"is_disabled": 0, "fusion_lon": 0.0, "fusion_lat": 0.0, "lat": 38.88665966666667, "type": "electric_scooter", "lon": -77.0036765, "bike_id": "4bf9f9b6eb5a2bacbb0405b949c3fc1d", "rental_uris": {"android": "https://dc.lft.to/lastmile_qr_scan", "ios": "https://dc.lft.to/lastmile_qr_scan"}, "name": "4bf9f9b6eb5a2bacbb0405b949c3fc1d", "is_reserved": 0}, {"is_disabled": 0, "fusion_lon": 0.0, "fusion_lat": 0.0, "lat": 38.92733066666667, "type": "electric_scooter", "lon": -77.02706666666667, "bike_id": "454f79a9ccc443d20e9937c0f37df202", "rental_uris": {"android": "https://dc.lft.to/lastmile_qr_scan", "ios": "https://dc.lft.to/lastmile_qr_scan"}, "name": "454f79a9ccc443d20e9937c0f37df202", "is_reserved": 0}, {"is_disabled": 0, "fusion_lon": 0.0, "fusion_lat": 0.0, "lat": 38.90592816666667, "type": "electric_scooter", "lon": -77.0467535, "bike_id": "78766ae062a564e93a66caea5feb1b03", "rental_uris": {"android": "https://dc.lft.to/lastmile_qr_scan", "ios": "https://dc.lft.to/lastmile_qr_scan"}, "name": "78766ae062a564e93a66caea5feb1b03", "is_reserved": 0}, {"is_disabled": 0, "fusion_lon": 0.0, "fusion_lat": 0.0, "lat": 38.93667283333333, "type": "electric_scooter", "lon": -77.03633816666667, "bike_id": "12a31c456b9f2eb1699818ce5393a0b6", "rental_uris": {"android": "https://dc.lft.to/lastmile_qr_scan", "ios": "https://dc.lft.to/lastmile_qr_scan"}, "name": "12a31c456b9f2eb1699818ce5393a0b6", "is_reserved": 0}, {"is_disabled": 0, "fusion_lon": 0.0, "fusion_lat": 0.0, "lat": 38.916945, "type": "electric_scooter", "lon": -77.0347695, "bike_id": "0c0d2a499ff118ae617ea4688ac2bfb1", "rental_uris": {"android": "https://dc.lft.to/lastmile_qr_scan", "ios": "https://dc.lft.to/lastmile_qr_scan"}, "name": "0c0d2a499ff118ae617ea4688ac2bfb1", "is_reserved": 0}, {"is_disabled": 0, "fusion_lon": 0.0, "fusion_lat": 0.0, "lat": 38.8974345, "type": "electric_scooter", "lon": -77.046829, "bike_id": "8cc1dcd61ffde2aede800d4c9717abfe", "rental_uris": {"android": "https://dc.lft.to/lastmile_qr_scan", "ios": "https://dc.lft.to/lastmile_qr_scan"}, "name": "8cc1dcd61ffde2aede800d4c9717abfe", "is_reserved": 0}, {"is_disabled": 0, "fusion_lon": 0.0, "fusion_lat": 0.0, "lat": 38.83123466666667, "type": "electric_bike", "lon": -77.043287, "bike_id": "fb30bf47413b9faa6eced259faf1fe54", "rental_uris": {"android": "https://dc.lft.to/lastmile_qr_scan", "ios": "https://dc.lft.to/lastmile_qr_scan"}, "name": "fb30bf47413b9faa6eced259faf1fe54", "is_reserved": 0}, {"is_disabled": 0, "fusion_lon": 0.0, "fusion_lat": 0.0, "lat": 38.9178455, "type": "electric_scooter", "lon": -77.043519, "bike_id": "cdf67ebf9ba6853d2ba59c49a63f8eca", "rental_uris": {"android": "https://dc.lft.to/lastmile_qr_scan", "ios": "https://dc.lft.to/lastmile_qr_scan"}, "name": "cdf67ebf9ba6853d2ba59c49a63f8eca", "is_reserved": 0}, {"is_disabled": 0, "fusion_lon": 0.0, "fusion_lat": 0.0, "lat": 38.888365666666665, "type": "electric_scooter", "lon": -76.91775416666667, "bike_id": "d36d08bb054b93ed741da87e45ff3f42", "rental_uris": {"android": "https://dc.lft.to/lastmile_qr_scan", "ios": "https://dc.lft.to/lastmile_qr_scan"}, "name": "d36d08bb054b93ed741da87e45ff3f42", "is_reserved": 0}, {"is_disabled": 0, "fusion_lon": 0.0, "fusion_lat": 0.0, "lat": 38.948984833333334, "type": "electric_bike", "lon": -76.96377166666667, "bike_id": "d3ddafdc08a852b3a7e7e24e61f4be22", "rental_uris": {"android": "https://dc.lft.to/lastmile_qr_scan", "ios": "https://dc.lft.to/lastmile_qr_scan"}, "name": "d3ddafdc08a852b3a7e7e24e61f4be22", "is_reserved": 0}, {"is_disabled": 0, "fusion_lon": 0.0, "fusion_lat": 0.0, "lat": 38.9393005, "type": "electric_bike", "lon": -76.99513616666667, "bike_id": "1085190fda86945b37806d4ffcb015f0", "rental_uris": {"android": "https://dc.lft.to/lastmile_qr_scan", "ios": "https://dc.lft.to/lastmile_qr_scan"}, "name": "1085190fda86945b37806d4ffcb015f0", "is_reserved": 0}, {"is_disabled": 0, "fusion_lon": 0.0, "fusion_lat": 0.0, "lat": 38.91821316666667, "type": "electric_scooter", "lon": -77.01213283333334, "bike_id": "b3f488ad2672060ecd640aa71ffbfbb4", "rental_uris": {"android": "https://dc.lft.to/lastmile_qr_scan", "ios": "https://dc.lft.to/lastmile_qr_scan"}, "name": "b3f488ad2672060ecd640aa71ffbfbb4", "is_reserved": 0}, {"is_disabled": 0, "fusion_lon": 0.0, "fusion_lat": 0.0, "lat": 38.93230116666667, "type": "electric_scooter", "lon": -76.9993585, "bike_id": "30957a0f3c8bc32c1e817099b83654ec", "rental_uris": {"android": "https://dc.lft.to/lastmile_qr_scan", "ios": "https://dc.lft.to/lastmile_qr_scan"}, "name": "30957a0f3c8bc32c1e817099b83654ec", "is_reserved": 0}, {"is_disabled": 0, "fusion_lon": 0.0, "fusion_lat": 0.0, "lat": 38.918271, "type": "electric_scooter", "lon": -77.04518766666666, "bike_id": "2b141cd69f503f76f526e3d584c94cc3", "rental_uris": {"android": "https://dc.lft.to/lastmile_qr_scan", "ios": "https://dc.lft.to/lastmile_qr_scan"}, "name": "2b141cd69f503f76f526e3d584c94cc3", "is_reserved": 0}, {"is_disabled": 0, "fusion_lon": 0.0, "fusion_lat": 0.0, "lat": 38.899609, "type": "electric_scooter", "lon": -77.01603833333333, "bike_id": "ea95d68d7cbffcce78c7b4e8820cf308", "rental_uris": {"android": "https://dc.lft.to/lastmile_qr_scan", "ios": "https://dc.lft.to/lastmile_qr_scan"}, "name": "ea95d68d7cbffcce78c7b4e8820cf308", "is_reserved": 0}, {"is_disabled": 0, "fusion_lon": 0.0, "fusion_lat": 0.0, "lat": 38.9596505, "type": "electric_scooter", "lon": -77.02108783333334, "bike_id": "d6c6e6cb482b4b6b48e4e05f5e02d309", "rental_uris": {"android": "https://dc.lft.to/lastmile_qr_scan", "ios": "https://dc.lft.to/lastmile_qr_scan"}, "name": "d6c6e6cb482b4b6b48e4e05f5e02d309", "is_reserved": 0}, {"is_disabled": 0, "fusion_lon": 0.0, "fusion_lat": 0.0, "lat": 38.907615, "type": "electric_scooter", "lon": -77.035838, "bike_id": "194401af2b729e3220a7bd29618c7903", "rental_uris": {"android": "https://dc.lft.to/lastmile_qr_scan", "ios": "https://dc.lft.to/lastmile_qr_scan"}, "name": "194401af2b729e3220a7bd29618c7903", "is_reserved": 0}, {"is_disabled": 0, "fusion_lon": 0.0, "fusion_lat": 0.0, "lat": 38.921208666666665, "type": "electric_scooter", "lon": -77.01213466666667, "bike_id": "49ea65060039e77611ee612efb3f7435", "rental_uris": {"android": "https://dc.lft.to/lastmile_qr_scan", "ios": "https://dc.lft.to/lastmile_qr_scan"}, "name": "49ea65060039e77611ee612efb3f7435", "is_reserved": 0}, {"is_disabled": 0, "fusion_lon": 0.0, "fusion_lat": 0.0, "lat": 38.93562216666667, "type": "electric_scooter", "lon": -77.0820115, "bike_id": "73393302d68e9c26b6549bd6e316ff8b", "rental_uris": {"android": "https://dc.lft.to/lastmile_qr_scan", "ios": "https://dc.lft.to/lastmile_qr_scan"}, "name": "73393302d68e9c26b6549bd6e316ff8b", "is_reserved": 0}, {"is_disabled": 0, "fusion_lon": 0.0, "fusion_lat": 0.0, "lat": 38.95635933333333, "type": "electric_scooter", "lon": -77.02981116666666, "bike_id": "27b85066bb13e05cd8f6cd54f6e59dfa", "rental_uris": {"android": "https://dc.lft.to/lastmile_qr_scan", "ios": "https://dc.lft.to/lastmile_qr_scan"}, "name": "27b85066bb13e05cd8f6cd54f6e59dfa", "is_reserved": 0}, {"is_disabled": 0, "fusion_lon": 0.0, "fusion_lat": 0.0, "lat": 38.88385483333333, "type": "electric_bike", "lon": -77.03077016666667, "bike_id": "13a3693323790a34c6e34a272c013076", "rental_uris": {"android": "https://dc.lft.to/lastmile_qr_scan", "ios": "https://dc.lft.to/lastmile_qr_scan"}, "name": "13a3693323790a34c6e34a272c013076", "is_reserved": 0}, {"is_disabled": 0, "fusion_lon": 0.0, "fusion_lat": 0.0, "lat": 38.8459795, "type": "electric_bike", "lon": -76.96880016666667, "bike_id": "b0bac27f4a9c644d4a26f0c9f1a513ca", "rental_uris": {"android": "https://dc.lft.to/lastmile_qr_scan", "ios": "https://dc.lft.to/lastmile_qr_scan"}, "name": "b0bac27f4a9c644d4a26f0c9f1a513ca", "is_reserved": 0}, {"is_disabled": 0, "fusion_lon": 0.0, "fusion_lat": 0.0, "lat": 38.89508383333333, "type": "electric_scooter", "lon": -77.016097, "bike_id": "a917bcedbf1de0c53e1c1ea06504c8d0", "rental_uris": {"android": "https://dc.lft.to/lastmile_qr_scan", "ios": "https://dc.lft.to/lastmile_qr_scan"}, "name": "a917bcedbf1de0c53e1c1ea06504c8d0", "is_reserved": 0}, {"is_disabled": 0, "fusion_lon": 0.0, "fusion_lat": 0.0, "lat": 38.899111166666664, "type": "electric_scooter", "lon": -76.93397066666667, "bike_id": "cede02434345260df2e980e20ea11e23", "rental_uris": {"android": "https://dc.lft.to/lastmile_qr_scan", "ios": "https://dc.lft.to/lastmile_qr_scan"}, "name": "cede02434345260df2e980e20ea11e23", "is_reserved": 0}, {"is_disabled": 0, "fusion_lon": 0.0, "fusion_lat": 0.0, "lat": 38.91113, "type": "electric_scooter", "lon": -77.03827783333334, "bike_id": "831f5c126cbf6820cc6fe7dd60d318c4", "rental_uris": {"android": "https://dc.lft.to/lastmile_qr_scan", "ios": "https://dc.lft.to/lastmile_qr_scan"}, "name": "831f5c126cbf6820cc6fe7dd60d318c4", "is_reserved": 0}, {"is_disabled": 0, "fusion_lon": 0.0, "fusion_lat": 0.0, "lat": 38.92750316666667, "type": "electric_scooter", "lon": -77.0759615, "bike_id": "9865f89be5313b7174b9abc1b0bab76b", "rental_uris": {"android": "https://dc.lft.to/lastmile_qr_scan", "ios": "https://dc.lft.to/lastmile_qr_scan"}, "name": "9865f89be5313b7174b9abc1b0bab76b", "is_reserved": 0}, {"is_disabled": 0, "fusion_lon": 0.0, "fusion_lat": 0.0, "lat": 38.88044883333333, "type": "electric_scooter", "lon": -77.00371966666667, "bike_id": "1eb388b18d048c24b401f83de983352d", "rental_uris": {"android": "https://dc.lft.to/lastmile_qr_scan", "ios": "https://dc.lft.to/lastmile_qr_scan"}, "name": "1eb388b18d048c24b401f83de983352d", "is_reserved": 0}, {"is_disabled": 0, "fusion_lon": 0.0, "fusion_lat": 0.0, "lat": 38.94922966666667, "type": "electric_scooter", "lon": -77.02295333333333, "bike_id": "a4e34b41c7c21698099fe8af7d3010e3", "rental_uris": {"android": "https://dc.lft.to/lastmile_qr_scan", "ios": "https://dc.lft.to/lastmile_qr_scan"}, "name": "a4e34b41c7c21698099fe8af7d3010e3", "is_reserved": 0}, {"is_disabled": 0, "fusion_lon": 0.0, "fusion_lat": 0.0, "lat": 38.9308085, "type": "electric_scooter", "lon": -77.05819066666666, "bike_id": "225a804fcc00f37975ef3759adb9b433", "rental_uris": {"android": "https://dc.lft.to/lastmile_qr_scan", "ios": "https://dc.lft.to/lastmile_qr_scan"}, "name": "225a804fcc00f37975ef3759adb9b433", "is_reserved": 0}, {"is_disabled": 0, "fusion_lon": 0.0, "fusion_lat": 0.0, "lat": 38.900125333333335, "type": "electric_scooter", "lon": -77.03977133333333, "bike_id": "9fe4bbda5aa1ed10ae1478d7af28e0ca", "rental_uris": {"android": "https://dc.lft.to/lastmile_qr_scan", "ios": "https://dc.lft.to/lastmile_qr_scan"}, "name": "9fe4bbda5aa1ed10ae1478d7af28e0ca", "is_reserved": 0}, {"is_disabled": 0, "fusion_lon": 0.0, "fusion_lat": 0.0, "lat": 38.905794, "type": "electric_scooter", "lon": -77.04664283333334, "bike_id": "3dcd0f477b2c1ce0d3ebc733d75db21c", "rental_uris": {"android": "https://dc.lft.to/lastmile_qr_scan", "ios": "https://dc.lft.to/lastmile_qr_scan"}, "name": "3dcd0f477b2c1ce0d3ebc733d75db21c", "is_reserved": 0}, {"is_disabled": 0, "fusion_lon": 0.0, "fusion_lat": 0.0, "lat": 38.906666, "type": "electric_scooter", "lon": -77.02707483333333, "bike_id": "1bb0f6866644ebcca2b879a4cea70123", "rental_uris": {"android": "https://dc.lft.to/lastmile_qr_scan", "ios": "https://dc.lft.to/lastmile_qr_scan"}, "name": "1bb0f6866644ebcca2b879a4cea70123", "is_reserved": 0}, {"is_disabled": 0, "fusion_lon": 0.0, "fusion_lat": 0.0, "lat": 38.8974305, "type": "electric_scooter", "lon": -77.00335666666666, "bike_id": "c3fac11dde7fba2860ef2125950e643a", "rental_uris": {"android": "https://dc.lft.to/lastmile_qr_scan", "ios": "https://dc.lft.to/lastmile_qr_scan"}, "name": "c3fac11dde7fba2860ef2125950e643a", "is_reserved": 0}, {"is_disabled": 0, "fusion_lon": 0.0, "fusion_lat": 0.0, "lat": 38.909543666666664, "type": "electric_scooter", "lon": -77.021828, "bike_id": "e8bc9054b050d576133207926a97c535", "rental_uris": {"android": "https://dc.lft.to/lastmile_qr_scan", "ios": "https://dc.lft.to/lastmile_qr_scan"}, "name": "e8bc9054b050d576133207926a97c535", "is_reserved": 0}, {"is_disabled": 0, "fusion_lon": 0.0, "fusion_lat": 0.0, "lat": 38.907381, "type": "electric_scooter", "lon": -77.03447516666667, "bike_id": "9fee10a598a1db73119595f8431be0ea", "rental_uris": {"android": "https://dc.lft.to/lastmile_qr_scan", "ios": "https://dc.lft.to/lastmile_qr_scan"}, "name": "9fee10a598a1db73119595f8431be0ea", "is_reserved": 0}, {"is_disabled": 0, "fusion_lon": 0.0, "fusion_lat": 0.0, "lat": 38.9275165, "type": "electric_scooter", "lon": -77.02482216666667, "bike_id": "4cbbce5cab77f6577c79665fc0bbadd1", "rental_uris": {"android": "https://dc.lft.to/lastmile_qr_scan", "ios": "https://dc.lft.to/lastmile_qr_scan"}, "name": "4cbbce5cab77f6577c79665fc0bbadd1", "is_reserved": 0}, {"is_disabled": 0, "fusion_lon": 0.0, "fusion_lat": 0.0, "lat": 38.929160833333334, "type": "electric_scooter", "lon": -77.02160966666666, "bike_id": "0296aa6c36b34a493f0494ae4a866b4a", "rental_uris": {"android": "https://dc.lft.to/lastmile_qr_scan", "ios": "https://dc.lft.to/lastmile_qr_scan"}, "name": "0296aa6c36b34a493f0494ae4a866b4a", "is_reserved": 0}, {"is_disabled": 0, "fusion_lon": 0.0, "fusion_lat": 0.0, "lat": 38.930950833333334, "type": "electric_scooter", "lon": -77.02496466666666, "bike_id": "daff42a2ad20747a0f0a2ae0d28307e8", "rental_uris": {"android": "https://dc.lft.to/lastmile_qr_scan", "ios": "https://dc.lft.to/lastmile_qr_scan"}, "name": "daff42a2ad20747a0f0a2ae0d28307e8", "is_reserved": 0}, {"is_disabled": 0, "fusion_lon": 0.0, "fusion_lat": 0.0, "lat": 38.9087615, "type": "electric_scooter", "lon": -77.07637883333334, "bike_id": "01da41a82f8ec7d10556c36249a6db12", "rental_uris": {"android": "https://dc.lft.to/lastmile_qr_scan", "ios": "https://dc.lft.to/lastmile_qr_scan"}, "name": "01da41a82f8ec7d10556c36249a6db12", "is_reserved": 0}, {"is_disabled": 0, "fusion_lon": 0.0, "fusion_lat": 0.0, "lat": 38.9036165, "type": "electric_scooter", "lon": -77.029306, "bike_id": "c3295e071556b7937b299e0792bc0ec0", "rental_uris": {"android": "https://dc.lft.to/lastmile_qr_scan", "ios": "https://dc.lft.to/lastmile_qr_scan"}, "name": "c3295e071556b7937b299e0792bc0ec0", "is_reserved": 0}, {"is_disabled": 0, "fusion_lon": 0.0, "fusion_lat": 0.0, "lat": 38.86357, "type": "electric_scooter", "lon": -76.99068466666667, "bike_id": "01a69f7b18169c6ad6b986dc63e47915", "rental_uris": {"android": "https://dc.lft.to/lastmile_qr_scan", "ios": "https://dc.lft.to/lastmile_qr_scan"}, "name": "01a69f7b18169c6ad6b986dc63e47915", "is_reserved": 0}, {"is_disabled": 0, "fusion_lon": 0.0, "fusion_lat": 0.0, "lat": 38.911219833333334, "type": "electric_scooter", "lon": -77.0421405, "bike_id": "a24e44a962e7cb2ca5bd8c76a604840b", "rental_uris": {"android": "https://dc.lft.to/lastmile_qr_scan", "ios": "https://dc.lft.to/lastmile_qr_scan"}, "name": "a24e44a962e7cb2ca5bd8c76a604840b", "is_reserved": 0}, {"is_disabled": 0, "fusion_lon": 0.0, "fusion_lat": 0.0, "lat": 38.92790316666667, "type": "electric_scooter", "lon": -77.01460033333333, "bike_id": "d4f9bdaf2565900bfed3d4b3cb27936c", "rental_uris": {"android": "https://dc.lft.to/lastmile_qr_scan", "ios": "https://dc.lft.to/lastmile_qr_scan"}, "name": "d4f9bdaf2565900bfed3d4b3cb27936c", "is_reserved": 0}, {"is_disabled": 0, "fusion_lon": 0.0, "fusion_lat": 0.0, "lat": 38.905318666666666, "type": "electric_scooter", "lon": -77.05017133333334, "bike_id": "e2d6777e61bfdc2939db48dc4c92e408", "rental_uris": {"android": "https://dc.lft.to/lastmile_qr_scan", "ios": "https://dc.lft.to/lastmile_qr_scan"}, "name": "e2d6777e61bfdc2939db48dc4c92e408", "is_reserved": 0}, {"is_disabled": 0, "fusion_lon": 0.0, "fusion_lat": 0.0, "lat": 38.99089633333333, "type": "electric_bike", "lon": -76.874929, "bike_id": "beebe011daedb6c130512702396e535a", "rental_uris": {"android": "https://dc.lft.to/lastmile_qr_scan", "ios": "https://dc.lft.to/lastmile_qr_scan"}, "name": "beebe011daedb6c130512702396e535a", "is_reserved": 0}, {"is_disabled": 0, "fusion_lon": 0.0, "fusion_lat": 0.0, "lat": 38.885822, "type": "electric_scooter", "lon": -77.02005966666667, "bike_id": "b042906a21f9fed5a189b7d2fc21cb85", "rental_uris": {"android": "https://dc.lft.to/lastmile_qr_scan", "ios": "https://dc.lft.to/lastmile_qr_scan"}, "name": "b042906a21f9fed5a189b7d2fc21cb85", "is_reserved": 0}, {"is_disabled": 0, "fusion_lon": 0.0, "fusion_lat": 0.0, "lat": 38.990623166666666, "type": "electric_bike", "lon": -77.10029633333333, "bike_id": "39ee04a3ba58536dec79f314fff93603", "rental_uris": {"android": "https://dc.lft.to/lastmile_qr_scan", "ios": "https://dc.lft.to/lastmile_qr_scan"}, "name": "39ee04a3ba58536dec79f314fff93603", "is_reserved": 0}, {"is_disabled": 0, "fusion_lon": 0.0, "fusion_lat": 0.0, "lat": 38.92690116666667, "type": "electric_scooter", "lon": -77.03737433333333, "bike_id": "0788d49d230d4de9ef316bd80e183578", "rental_uris": {"android": "https://dc.lft.to/lastmile_qr_scan", "ios": "https://dc.lft.to/lastmile_qr_scan"}, "name": "0788d49d230d4de9ef316bd80e183578", "is_reserved": 0}, {"is_disabled": 0, "fusion_lon": 0.0, "fusion_lat": 0.0, "lat": 38.907797, "type": "electric_scooter", "lon": -77.03176583333334, "bike_id": "2f7bff62fcc6ca461971a8b6b0c0f274", "rental_uris": {"android": "https://dc.lft.to/lastmile_qr_scan", "ios": "https://dc.lft.to/lastmile_qr_scan"}, "name": "2f7bff62fcc6ca461971a8b6b0c0f274", "is_reserved": 0}, {"is_disabled": 0, "fusion_lon": 0.0, "fusion_lat": 0.0, "lat": 38.962167, "type": "electric_scooter", "lon": -77.02808166666667, "bike_id": "affe88a1e23c58b9461a8781772274d8", "rental_uris": {"android": "https://dc.lft.to/lastmile_qr_scan", "ios": "https://dc.lft.to/lastmile_qr_scan"}, "name": "affe88a1e23c58b9461a8781772274d8", "is_reserved": 0}, {"is_disabled": 0, "fusion_lon": 0.0, "fusion_lat": 0.0, "lat": 38.9170325, "type": "electric_scooter", "lon": -77.02858733333333, "bike_id": "4bbd692c378804ab7f77cc7d471dbcad", "rental_uris": {"android": "https://dc.lft.to/lastmile_qr_scan", "ios": "https://dc.lft.to/lastmile_qr_scan"}, "name": "4bbd692c378804ab7f77cc7d471dbcad", "is_reserved": 0}, {"is_disabled": 0, "fusion_lon": 0.0, "fusion_lat": 0.0, "lat": 38.86516683333333, "type": "electric_scooter", "lon": -76.97333283333333, "bike_id": "71b2b56f2e2dd7bee0572a4878176fde", "rental_uris": {"android": "https://dc.lft.to/lastmile_qr_scan", "ios": "https://dc.lft.to/lastmile_qr_scan"}, "name": "71b2b56f2e2dd7bee0572a4878176fde", "is_reserved": 0}, {"is_disabled": 0, "fusion_lon": 0.0, "fusion_lat": 0.0, "lat": 38.9428215, "type": "electric_scooter", "lon": -77.036337, "bike_id": "9c669b21ba26cf55948652fa28a5d0b3", "rental_uris": {"android": "https://dc.lft.to/lastmile_qr_scan", "ios": "https://dc.lft.to/lastmile_qr_scan"}, "name": "9c669b21ba26cf55948652fa28a5d0b3", "is_reserved": 0}, {"is_disabled": 0, "fusion_lon": 0.0, "fusion_lat": 0.0, "lat": 38.894797, "type": "electric_scooter", "lon": -76.995272, "bike_id": "084dd0d4c97c32495c3dd0daa42fced9", "rental_uris": {"android": "https://dc.lft.to/lastmile_qr_scan", "ios": "https://dc.lft.to/lastmile_qr_scan"}, "name": "084dd0d4c97c32495c3dd0daa42fced9", "is_reserved": 0}, {"is_disabled": 0, "fusion_lon": 0.0, "fusion_lat": 0.0, "lat": 38.92675, "type": "electric_scooter", "lon": -77.026849, "bike_id": "4548fa421559aeadfae2107312494ec5", "rental_uris": {"android": "https://dc.lft.to/lastmile_qr_scan", "ios": "https://dc.lft.to/lastmile_qr_scan"}, "name": "4548fa421559aeadfae2107312494ec5", "is_reserved": 0}, {"is_disabled": 0, "fusion_lon": 0.0, "fusion_lat": 0.0, "lat": 38.96135183333333, "type": "electric_scooter", "lon": -77.02792566666666, "bike_id": "b006a0d49a4b6e407f43c9739b42a21f", "rental_uris": {"android": "https://dc.lft.to/lastmile_qr_scan", "ios": "https://dc.lft.to/lastmile_qr_scan"}, "name": "b006a0d49a4b6e407f43c9739b42a21f", "is_reserved": 0}, {"is_disabled": 0, "fusion_lon": 0.0, "fusion_lat": 0.0, "lat": 38.921024, "type": "electric_scooter", "lon": -77.017767, "bike_id": "bed855e36df0a973f66fc731ee34699c", "rental_uris": {"android": "https://dc.lft.to/lastmile_qr_scan", "ios": "https://dc.lft.to/lastmile_qr_scan"}, "name": "bed855e36df0a973f66fc731ee34699c", "is_reserved": 0}, {"is_disabled": 0, "fusion_lon": 0.0, "fusion_lat": 0.0, "lat": 38.905216333333335, "type": "electric_scooter", "lon": -77.05036266666667, "bike_id": "019d7639cba4c51883d86bad7df7e87e", "rental_uris": {"android": "https://dc.lft.to/lastmile_qr_scan", "ios": "https://dc.lft.to/lastmile_qr_scan"}, "name": "019d7639cba4c51883d86bad7df7e87e", "is_reserved": 0}, {"is_disabled": 0, "fusion_lon": 0.0, "fusion_lat": 0.0, "lat": 38.89329466666667, "type": "electric_scooter", "lon": -77.0211425, "bike_id": "2787bd5eaadcb5c2b29dfa4db4147519", "rental_uris": {"android": "https://dc.lft.to/lastmile_qr_scan", "ios": "https://dc.lft.to/lastmile_qr_scan"}, "name": "2787bd5eaadcb5c2b29dfa4db4147519", "is_reserved": 0}, {"is_disabled": 0, "fusion_lon": 0.0, "fusion_lat": 0.0, "lat": 38.912695666666664, "type": "electric_scooter", "lon": -77.02222666666667, "bike_id": "1b4f3738a396227fea1238800e748e9d", "rental_uris": {"android": "https://dc.lft.to/lastmile_qr_scan", "ios": "https://dc.lft.to/lastmile_qr_scan"}, "name": "1b4f3738a396227fea1238800e748e9d", "is_reserved": 0}, {"is_disabled": 0, "fusion_lon": 0.0, "fusion_lat": 0.0, "lat": 38.949823, "type": "electric_scooter", "lon": -77.02704633333333, "bike_id": "182ad73010fcd03b88f853165b8a746b", "rental_uris": {"android": "https://dc.lft.to/lastmile_qr_scan", "ios": "https://dc.lft.to/lastmile_qr_scan"}, "name": "182ad73010fcd03b88f853165b8a746b", "is_reserved": 0}, {"is_disabled": 0, "fusion_lon": 0.0, "fusion_lat": 0.0, "lat": 38.8581185, "type": "electric_scooter", "lon": -76.98962083333333, "bike_id": "517fe45ad01f64158cfa3debcbb00b8a", "rental_uris": {"android": "https://dc.lft.to/lastmile_qr_scan", "ios": "https://dc.lft.to/lastmile_qr_scan"}, "name": "517fe45ad01f64158cfa3debcbb00b8a", "is_reserved": 0}, {"is_disabled": 0, "fusion_lon": 0.0, "fusion_lat": 0.0, "lat": 38.900920166666666, "type": "electric_scooter", "lon": -77.013017, "bike_id": "d902c323fe9d4d31579b3648a2efa21c", "rental_uris": {"android": "https://dc.lft.to/lastmile_qr_scan", "ios": "https://dc.lft.to/lastmile_qr_scan"}, "name": "d902c323fe9d4d31579b3648a2efa21c", "is_reserved": 0}, {"is_disabled": 0, "fusion_lon": 0.0, "fusion_lat": 0.0, "lat": 38.894723, "type": "electric_scooter", "lon": -76.93302416666667, "bike_id": "ea468ec2518f3638f196df62e7073105", "rental_uris": {"android": "https://dc.lft.to/lastmile_qr_scan", "ios": "https://dc.lft.to/lastmile_qr_scan"}, "name": "ea468ec2518f3638f196df62e7073105", "is_reserved": 0}, {"is_disabled": 0, "fusion_lon": 0.0, "fusion_lat": 0.0, "lat": 38.93124266666667, "type": "electric_scooter", "lon": -77.0198705, "bike_id": "1cca239bf41f5ad042dd7afdbf8ac4ce", "rental_uris": {"android": "https://dc.lft.to/lastmile_qr_scan", "ios": "https://dc.lft.to/lastmile_qr_scan"}, "name": "1cca239bf41f5ad042dd7afdbf8ac4ce", "is_reserved": 0}, {"is_disabled": 0, "fusion_lon": 0.0, "fusion_lat": 0.0, "lat": 38.90828, "type": "electric_scooter", "lon": -77.04167266666667, "bike_id": "3c22f4451eed4b0fdfc928d94e5041df", "rental_uris": {"android": "https://dc.lft.to/lastmile_qr_scan", "ios": "https://dc.lft.to/lastmile_qr_scan"}, "name": "3c22f4451eed4b0fdfc928d94e5041df", "is_reserved": 0}, {"is_disabled": 0, "fusion_lon": 0.0, "fusion_lat": 0.0, "lat": 38.896203, "type": "electric_scooter", "lon": -77.029262, "bike_id": "08f3889d6f4f0320be277acaa725a954", "rental_uris": {"android": "https://dc.lft.to/lastmile_qr_scan", "ios": "https://dc.lft.to/lastmile_qr_scan"}, "name": "08f3889d6f4f0320be277acaa725a954", "is_reserved": 0}, {"is_disabled": 0, "fusion_lon": 0.0, "fusion_lat": 0.0, "lat": 38.905059666666666, "type": "electric_scooter", "lon": -77.029437, "bike_id": "edb82b54419003db11ce7e7147eea3f2", "rental_uris": {"android": "https://dc.lft.to/lastmile_qr_scan", "ios": "https://dc.lft.to/lastmile_qr_scan"}, "name": "edb82b54419003db11ce7e7147eea3f2", "is_reserved": 0}, {"is_disabled": 0, "fusion_lon": 0.0, "fusion_lat": 0.0, "lat": 38.921009, "type": "electric_scooter", "lon": -77.03049866666667, "bike_id": "e8316ff5391c4201f1e3263a9a3ea561", "rental_uris": {"android": "https://dc.lft.to/lastmile_qr_scan", "ios": "https://dc.lft.to/lastmile_qr_scan"}, "name": "e8316ff5391c4201f1e3263a9a3ea561", "is_reserved": 0}, {"is_disabled": 0, "fusion_lon": 0.0, "fusion_lat": 0.0, "lat": 38.9192935, "type": "electric_scooter", "lon": -77.03420866666667, "bike_id": "cab83ce53a8e5f81b5780780061abae9", "rental_uris": {"android": "https://dc.lft.to/lastmile_qr_scan", "ios": "https://dc.lft.to/lastmile_qr_scan"}, "name": "cab83ce53a8e5f81b5780780061abae9", "is_reserved": 0}, {"is_disabled": 0, "fusion_lon": 0.0, "fusion_lat": 0.0, "lat": 38.928799833333336, "type": "electric_scooter", "lon": -77.0412615, "bike_id": "2df85e32c0a2884d19c36667a516bbab", "rental_uris": {"android": "https://dc.lft.to/lastmile_qr_scan", "ios": "https://dc.lft.to/lastmile_qr_scan"}, "name": "2df85e32c0a2884d19c36667a516bbab", "is_reserved": 0}, {"is_disabled": 0, "fusion_lon": 0.0, "fusion_lat": 0.0, "lat": 38.89724783333333, "type": "electric_scooter", "lon": -77.009297, "bike_id": "24ea805ece7e92b676d47ce958929b94", "rental_uris": {"android": "https://dc.lft.to/lastmile_qr_scan", "ios": "https://dc.lft.to/lastmile_qr_scan"}, "name": "24ea805ece7e92b676d47ce958929b94", "is_reserved": 0}, {"is_disabled": 0, "fusion_lon": 0.0, "fusion_lat": 0.0, "lat": 38.94129983333333, "type": "electric_scooter", "lon": -77.01814216666666, "bike_id": "a5a32039bfa7086e7980a1ccd62e3375", "rental_uris": {"android": "https://dc.lft.to/lastmile_qr_scan", "ios": "https://dc.lft.to/lastmile_qr_scan"}, "name": "a5a32039bfa7086e7980a1ccd62e3375", "is_reserved": 0}, {"is_disabled": 0, "fusion_lon": 0.0, "fusion_lat": 0.0, "lat": 38.93132716666667, "type": "electric_scooter", "lon": -77.03459533333333, "bike_id": "9700ddac608ec3591fa82f6ce5cff8fe", "rental_uris": {"android": "https://dc.lft.to/lastmile_qr_scan", "ios": "https://dc.lft.to/lastmile_qr_scan"}, "name": "9700ddac608ec3591fa82f6ce5cff8fe", "is_reserved": 0}, {"is_disabled": 0, "fusion_lon": 0.0, "fusion_lat": 0.0, "lat": 38.89003483333333, "type": "electric_scooter", "lon": -77.0489885, "bike_id": "95bc54c7bdba3c8643a0f94e9dc1c231", "rental_uris": {"android": "https://dc.lft.to/lastmile_qr_scan", "ios": "https://dc.lft.to/lastmile_qr_scan"}, "name": "95bc54c7bdba3c8643a0f94e9dc1c231", "is_reserved": 0}, {"is_disabled": 0, "fusion_lon": 0.0, "fusion_lat": 0.0, "lat": 38.860616666666665, "type": "electric_scooter", "lon": -76.98513816666667, "bike_id": "3e5473e3835d894e4e36464ed76d33f7", "rental_uris": {"android": "https://dc.lft.to/lastmile_qr_scan", "ios": "https://dc.lft.to/lastmile_qr_scan"}, "name": "3e5473e3835d894e4e36464ed76d33f7", "is_reserved": 0}, {"is_disabled": 0, "fusion_lon": 0.0, "fusion_lat": 0.0, "lat": 38.911159833333336, "type": "electric_scooter", "lon": -77.038302, "bike_id": "3440f900788987893a962f79593fa97b", "rental_uris": {"android": "https://dc.lft.to/lastmile_qr_scan", "ios": "https://dc.lft.to/lastmile_qr_scan"}, "name": "3440f900788987893a962f79593fa97b", "is_reserved": 0}, {"is_disabled": 0, "fusion_lon": 0.0, "fusion_lat": 0.0, "lat": 38.930768, "type": "electric_scooter", "lon": -77.02563583333334, "bike_id": "9b0f484bda261e4a747db15b85489800", "rental_uris": {"android": "https://dc.lft.to/lastmile_qr_scan", "ios": "https://dc.lft.to/lastmile_qr_scan"}, "name": "9b0f484bda261e4a747db15b85489800", "is_reserved": 0}, {"is_disabled": 0, "fusion_lon": 0.0, "fusion_lat": 0.0, "lat": 38.89055616666667, "type": "electric_scooter", "lon": -77.00143633333333, "bike_id": "7ca53177636fc5c6b38885a3699fad65", "rental_uris": {"android": "https://dc.lft.to/lastmile_qr_scan", "ios": "https://dc.lft.to/lastmile_qr_scan"}, "name": "7ca53177636fc5c6b38885a3699fad65", "is_reserved": 0}, {"is_disabled": 0, "fusion_lon": 0.0, "fusion_lat": 0.0, "lat": 38.91640916666667, "type": "electric_scooter", "lon": -77.03468783333334, "bike_id": "4256dda7a45b234002d17d037e93da97", "rental_uris": {"android": "https://dc.lft.to/lastmile_qr_scan", "ios": "https://dc.lft.to/lastmile_qr_scan"}, "name": "4256dda7a45b234002d17d037e93da97", "is_reserved": 0}, {"is_disabled": 0, "fusion_lon": 0.0, "fusion_lat": 0.0, "lat": 38.902727166666665, "type": "electric_scooter", "lon": -77.0301695, "bike_id": "bb2ba0f20adac9f9e945c5e8480a258d", "rental_uris": {"android": "https://dc.lft.to/lastmile_qr_scan", "ios": "https://dc.lft.to/lastmile_qr_scan"}, "name": "bb2ba0f20adac9f9e945c5e8480a258d", "is_reserved": 0}, {"is_disabled": 0, "fusion_lon": 0.0, "fusion_lat": 0.0, "lat": 38.86847983333333, "type": "electric_bike", "lon": -77.09728766666667, "bike_id": "8ac0041ee56842d9092a6b54513a9ba7", "rental_uris": {"android": "https://dc.lft.to/lastmile_qr_scan", "ios": "https://dc.lft.to/lastmile_qr_scan"}, "name": "8ac0041ee56842d9092a6b54513a9ba7", "is_reserved": 0}, {"is_disabled": 0, "fusion_lon": 0.0, "fusion_lat": 0.0, "lat": 38.904679, "type": "electric_scooter", "lon": -77.03793566666667, "bike_id": "35ebe8dd649cb4a0dbf76cac16418a6f", "rental_uris": {"android": "https://dc.lft.to/lastmile_qr_scan", "ios": "https://dc.lft.to/lastmile_qr_scan"}, "name": "35ebe8dd649cb4a0dbf76cac16418a6f", "is_reserved": 0}, {"is_disabled": 0, "fusion_lon": 0.0, "fusion_lat": 0.0, "lat": 38.88251016666667, "type": "electric_scooter", "lon": -77.0034825, "bike_id": "22f9668d1becb76feb7ddb6a00928c31", "rental_uris": {"android": "https://dc.lft.to/lastmile_qr_scan", "ios": "https://dc.lft.to/lastmile_qr_scan"}, "name": "22f9668d1becb76feb7ddb6a00928c31", "is_reserved": 0}, {"is_disabled": 0, "fusion_lon": 0.0, "fusion_lat": 0.0, "lat": 38.91851116666667, "type": "electric_bike", "lon": -76.96091216666667, "bike_id": "5d88d2844da3f89a51bcc0c25993827b", "rental_uris": {"android": "https://dc.lft.to/lastmile_qr_scan", "ios": "https://dc.lft.to/lastmile_qr_scan"}, "name": "5d88d2844da3f89a51bcc0c25993827b", "is_reserved": 0}, {"is_disabled": 0, "fusion_lon": 0.0, "fusion_lat": 0.0, "lat": 38.895538, "type": "electric_scooter", "lon": -77.01105783333334, "bike_id": "6479fbda608beede0a0c5b596afe284d", "rental_uris": {"android": "https://dc.lft.to/lastmile_qr_scan", "ios": "https://dc.lft.to/lastmile_qr_scan"}, "name": "6479fbda608beede0a0c5b596afe284d", "is_reserved": 0}, {"is_disabled": 0, "fusion_lon": 0.0, "fusion_lat": 0.0, "lat": 38.833507, "type": "electric_bike", "lon": -76.96562366666667, "bike_id": "b467cfcd0ba00ea78dd009e8f81cfc0e", "rental_uris": {"android": "https://dc.lft.to/lastmile_qr_scan", "ios": "https://dc.lft.to/lastmile_qr_scan"}, "name": "b467cfcd0ba00ea78dd009e8f81cfc0e", "is_reserved": 0}, {"is_disabled": 0, "fusion_lon": 0.0, "fusion_lat": 0.0, "lat": 38.867327833333334, "type": "electric_scooter", "lon": -76.98851366666666, "bike_id": "dad53e4fab882818799bbff140ba1200", "rental_uris": {"android": "https://dc.lft.to/lastmile_qr_scan", "ios": "https://dc.lft.to/lastmile_qr_scan"}, "name": "dad53e4fab882818799bbff140ba1200", "is_reserved": 0}, {"is_disabled": 0, "fusion_lon": 0.0, "fusion_lat": 0.0, "lat": 38.9498335, "type": "electric_scooter", "lon": -77.02706766666667, "bike_id": "5122f29139561f3ebffb46ab1df1b911", "rental_uris": {"android": "https://dc.lft.to/lastmile_qr_scan", "ios": "https://dc.lft.to/lastmile_qr_scan"}, "name": "5122f29139561f3ebffb46ab1df1b911", "is_reserved": 0}, {"is_disabled": 0, "fusion_lon": 0.0, "fusion_lat": 0.0, "lat": 38.92655516666667, "type": "electric_scooter", "lon": -77.02305383333334, "bike_id": "93d835d2b91b694c559bb2f80e5f2554", "rental_uris": {"android": "https://dc.lft.to/lastmile_qr_scan", "ios": "https://dc.lft.to/lastmile_qr_scan"}, "name": "93d835d2b91b694c559bb2f80e5f2554", "is_reserved": 0}, {"is_disabled": 0, "fusion_lon": 0.0, "fusion_lat": 0.0, "lat": 38.83153933333333, "type": "electric_bike", "lon": -76.99695866666667, "bike_id": "7cc326b184610a75c6f489822fbf4f53", "rental_uris": {"android": "https://dc.lft.to/lastmile_qr_scan", "ios": "https://dc.lft.to/lastmile_qr_scan"}, "name": "7cc326b184610a75c6f489822fbf4f53", "is_reserved": 0}, {"is_disabled": 0, "fusion_lon": 0.0, "fusion_lat": 0.0, "lat": 38.942486, "type": "electric_scooter", "lon": -77.02170133333334, "bike_id": "4a665d21408ade1cba20b513dea1595c", "rental_uris": {"android": "https://dc.lft.to/lastmile_qr_scan", "ios": "https://dc.lft.to/lastmile_qr_scan"}, "name": "4a665d21408ade1cba20b513dea1595c", "is_reserved": 0}, {"is_disabled": 0, "fusion_lon": 0.0, "fusion_lat": 0.0, "lat": 38.98817483333333, "type": "electric_bike", "lon": -77.026575, "bike_id": "598ab0739c5e794906634570396f71c5", "rental_uris": {"android": "https://dc.lft.to/lastmile_qr_scan", "ios": "https://dc.lft.to/lastmile_qr_scan"}, "name": "598ab0739c5e794906634570396f71c5", "is_reserved": 0}, {"is_disabled": 0, "fusion_lon": 0.0, "fusion_lat": 0.0, "lat": 38.89797766666667, "type": "electric_scooter", "lon": -76.93054716666667, "bike_id": "2e7da8490091784face7cb0c0f85fd81", "rental_uris": {"android": "https://dc.lft.to/lastmile_qr_scan", "ios": "https://dc.lft.to/lastmile_qr_scan"}, "name": "2e7da8490091784face7cb0c0f85fd81", "is_reserved": 0}, {"is_disabled": 0, "fusion_lon": 0.0, "fusion_lat": 0.0, "lat": 38.9012645, "type": "electric_scooter", "lon": -77.03976, "bike_id": "f9594033d66819d7a96dfca45dae3b3e", "rental_uris": {"android": "https://dc.lft.to/lastmile_qr_scan", "ios": "https://dc.lft.to/lastmile_qr_scan"}, "name": "f9594033d66819d7a96dfca45dae3b3e", "is_reserved": 0}, {"is_disabled": 0, "fusion_lon": 0.0, "fusion_lat": 0.0, "lat": 38.88130666666667, "type": "electric_scooter", "lon": -77.0207955, "bike_id": "09f5a94ba0da816b820c452ab1b3ca11", "rental_uris": {"android": "https://dc.lft.to/lastmile_qr_scan", "ios": "https://dc.lft.to/lastmile_qr_scan"}, "name": "09f5a94ba0da816b820c452ab1b3ca11", "is_reserved": 0}, {"is_disabled": 0, "fusion_lon": 0.0, "fusion_lat": 0.0, "lat": 38.907273333333336, "type": "electric_scooter", "lon": -77.02250116666667, "bike_id": "da5cfa5b06e6ca069007fee642d6400c", "rental_uris": {"android": "https://dc.lft.to/lastmile_qr_scan", "ios": "https://dc.lft.to/lastmile_qr_scan"}, "name": "da5cfa5b06e6ca069007fee642d6400c", "is_reserved": 0}, {"is_disabled": 0, "fusion_lon": 0.0, "fusion_lat": 0.0, "lat": 38.92350116666667, "type": "electric_bike", "lon": -76.99253416666667, "bike_id": "7db90c15ad62115cbfd7cc71bf8c2b7b", "rental_uris": {"android": "https://dc.lft.to/lastmile_qr_scan", "ios": "https://dc.lft.to/lastmile_qr_scan"}, "name": "7db90c15ad62115cbfd7cc71bf8c2b7b", "is_reserved": 0}, {"is_disabled": 0, "fusion_lon": 0.0, "fusion_lat": 0.0, "lat": 38.990758666666665, "type": "electric_bike", "lon": -77.02383633333334, "bike_id": "ebc3de8436bad9f9833fa980724d9468", "rental_uris": {"android": "https://dc.lft.to/lastmile_qr_scan", "ios": "https://dc.lft.to/lastmile_qr_scan"}, "name": "ebc3de8436bad9f9833fa980724d9468", "is_reserved": 0}, {"is_disabled": 0, "fusion_lon": 0.0, "fusion_lat": 0.0, "lat": 38.917880833333335, "type": "electric_scooter", "lon": -77.04357933333333, "bike_id": "55d4ef5e796c1e95d690a6dcc0c76781", "rental_uris": {"android": "https://dc.lft.to/lastmile_qr_scan", "ios": "https://dc.lft.to/lastmile_qr_scan"}, "name": "55d4ef5e796c1e95d690a6dcc0c76781", "is_reserved": 0}, {"is_disabled": 0, "fusion_lon": 0.0, "fusion_lat": 0.0, "lat": 38.91112783333333, "type": "electric_scooter", "lon": -77.04505216666666, "bike_id": "7bc54bf2e2ecb46d04943d74cf95ebbc", "rental_uris": {"android": "https://dc.lft.to/lastmile_qr_scan", "ios": "https://dc.lft.to/lastmile_qr_scan"}, "name": "7bc54bf2e2ecb46d04943d74cf95ebbc", "is_reserved": 0}, {"is_disabled": 0, "fusion_lon": 0.0, "fusion_lat": 0.0, "lat": 38.908456, "type": "electric_scooter", "lon": -77.063507, "bike_id": "9be0a3874379c7e95e62febcf3075be7", "rental_uris": {"android": "https://dc.lft.to/lastmile_qr_scan", "ios": "https://dc.lft.to/lastmile_qr_scan"}, "name": "9be0a3874379c7e95e62febcf3075be7", "is_reserved": 0}, {"is_disabled": 0, "fusion_lon": 0.0, "fusion_lat": 0.0, "lat": 38.9094445, "type": "electric_scooter", "lon": -77.03446366666667, "bike_id": "779edfd1568be9608b48a433ae285ed1", "rental_uris": {"android": "https://dc.lft.to/lastmile_qr_scan", "ios": "https://dc.lft.to/lastmile_qr_scan"}, "name": "779edfd1568be9608b48a433ae285ed1", "is_reserved": 0}, {"is_disabled": 0, "fusion_lon": 0.0, "fusion_lat": 0.0, "lat": 38.896745833333334, "type": "electric_scooter", "lon": -77.01198483333333, "bike_id": "e64dcd695ed5d26b5e081300e8a17bcc", "rental_uris": {"android": "https://dc.lft.to/lastmile_qr_scan", "ios": "https://dc.lft.to/lastmile_qr_scan"}, "name": "e64dcd695ed5d26b5e081300e8a17bcc", "is_reserved": 0}, {"is_disabled": 0, "fusion_lon": 0.0, "fusion_lat": 0.0, "lat": 38.927375833333336, "type": "electric_bike", "lon": -76.99365883333333, "bike_id": "156a0941434246abce6b9ae50675aaf1", "rental_uris": {"android": "https://dc.lft.to/lastmile_qr_scan", "ios": "https://dc.lft.to/lastmile_qr_scan"}, "name": "156a0941434246abce6b9ae50675aaf1", "is_reserved": 0}, {"is_disabled": 0, "fusion_lon": 0.0, "fusion_lat": 0.0, "lat": 38.85066316666666, "type": "electric_bike", "lon": -76.9733485, "bike_id": "bc66a5e4b8de2eaeba482f34ab9a8dc0", "rental_uris": {"android": "https://dc.lft.to/lastmile_qr_scan", "ios": "https://dc.lft.to/lastmile_qr_scan"}, "name": "bc66a5e4b8de2eaeba482f34ab9a8dc0", "is_reserved": 0}, {"is_disabled": 0, "fusion_lon": 0.0, "fusion_lat": 0.0, "lat": 38.91906216666667, "type": "electric_scooter", "lon": -77.02755433333333, "bike_id": "923cbbcd29b0398522529401c8d7963a", "rental_uris": {"android": "https://dc.lft.to/lastmile_qr_scan", "ios": "https://dc.lft.to/lastmile_qr_scan"}, "name": "923cbbcd29b0398522529401c8d7963a", "is_reserved": 0}, {"is_disabled": 0, "fusion_lon": 0.0, "fusion_lat": 0.0, "lat": 38.91802716666667, "type": "electric_scooter", "lon": -77.03555066666667, "bike_id": "48d9bf451a843ae9827214f8dc6bb73e", "rental_uris": {"android": "https://dc.lft.to/lastmile_qr_scan", "ios": "https://dc.lft.to/lastmile_qr_scan"}, "name": "48d9bf451a843ae9827214f8dc6bb73e", "is_reserved": 0}, {"is_disabled": 0, "fusion_lon": 0.0, "fusion_lat": 0.0, "lat": 38.90505783333333, "type": "electric_scooter", "lon": -77.02948333333333, "bike_id": "fcb3689cb0d1c9b5f1b35dfd04378d37", "rental_uris": {"android": "https://dc.lft.to/lastmile_qr_scan", "ios": "https://dc.lft.to/lastmile_qr_scan"}, "name": "fcb3689cb0d1c9b5f1b35dfd04378d37", "is_reserved": 0}, {"is_disabled": 0, "fusion_lon": 0.0, "fusion_lat": 0.0, "lat": 38.9279475, "type": "electric_scooter", "lon": -77.02298483333334, "bike_id": "6553e85fb1125fd8194c3ea400c2738c", "rental_uris": {"android": "https://dc.lft.to/lastmile_qr_scan", "ios": "https://dc.lft.to/lastmile_qr_scan"}, "name": "6553e85fb1125fd8194c3ea400c2738c", "is_reserved": 0}, {"is_disabled": 0, "fusion_lon": 0.0, "fusion_lat": 0.0, "lat": 38.90525233333334, "type": "electric_scooter", "lon": -77.05161316666667, "bike_id": "ee735d8151ee54ec7242594a12dcc08f", "rental_uris": {"android": "https://dc.lft.to/lastmile_qr_scan", "ios": "https://dc.lft.to/lastmile_qr_scan"}, "name": "ee735d8151ee54ec7242594a12dcc08f", "is_reserved": 0}, {"is_disabled": 0, "fusion_lon": 0.0, "fusion_lat": 0.0, "lat": 38.95631383333333, "type": "electric_scooter", "lon": -77.029811, "bike_id": "f771adee0d52ede4357c36013ed4a541", "rental_uris": {"android": "https://dc.lft.to/lastmile_qr_scan", "ios": "https://dc.lft.to/lastmile_qr_scan"}, "name": "f771adee0d52ede4357c36013ed4a541", "is_reserved": 0}, {"is_disabled": 0, "fusion_lon": 0.0, "fusion_lat": 0.0, "lat": 38.881582, "type": "electric_scooter", "lon": -77.0087725, "bike_id": "0a18bf3f241e5cbbabda4bbc8b86592f", "rental_uris": {"android": "https://dc.lft.to/lastmile_qr_scan", "ios": "https://dc.lft.to/lastmile_qr_scan"}, "name": "0a18bf3f241e5cbbabda4bbc8b86592f", "is_reserved": 0}, {"is_disabled": 0, "fusion_lon": 0.0, "fusion_lat": 0.0, "lat": 38.85976433333333, "type": "electric_scooter", "lon": -76.98414083333333, "bike_id": "89c7798857cecbe1ce12342ed087bebd", "rental_uris": {"android": "https://dc.lft.to/lastmile_qr_scan", "ios": "https://dc.lft.to/lastmile_qr_scan"}, "name": "89c7798857cecbe1ce12342ed087bebd", "is_reserved": 0}, {"is_disabled": 0, "fusion_lon": 0.0, "fusion_lat": 0.0, "lat": 38.892098833333336, "type": "electric_scooter", "lon": -76.988085, "bike_id": "6afa729e9dcf58393095413eb25e6438", "rental_uris": {"android": "https://dc.lft.to/lastmile_qr_scan", "ios": "https://dc.lft.to/lastmile_qr_scan"}, "name": "6afa729e9dcf58393095413eb25e6438", "is_reserved": 0}, {"is_disabled": 0, "fusion_lon": 0.0, "fusion_lat": 0.0, "lat": 38.914790333333336, "type": "electric_scooter", "lon": -77.0346755, "bike_id": "2162258bf4daca328e9d399e1ddb4de3", "rental_uris": {"android": "https://dc.lft.to/lastmile_qr_scan", "ios": "https://dc.lft.to/lastmile_qr_scan"}, "name": "2162258bf4daca328e9d399e1ddb4de3", "is_reserved": 0}, {"is_disabled": 0, "fusion_lon": 0.0, "fusion_lat": 0.0, "lat": 39.088445666666665, "type": "electric_bike", "lon": -77.17797833333333, "bike_id": "b69ac78332fbda9f58132161bee20ccc", "rental_uris": {"android": "https://dc.lft.to/lastmile_qr_scan", "ios": "https://dc.lft.to/lastmile_qr_scan"}, "name": "b69ac78332fbda9f58132161bee20ccc", "is_reserved": 0}, {"is_disabled": 0, "fusion_lon": 0.0, "fusion_lat": 0.0, "lat": 38.9110265, "type": "electric_scooter", "lon": -77.0660945, "bike_id": "92acffd40c16fb3f218d021a6c27db89", "rental_uris": {"android": "https://dc.lft.to/lastmile_qr_scan", "ios": "https://dc.lft.to/lastmile_qr_scan"}, "name": "92acffd40c16fb3f218d021a6c27db89", "is_reserved": 0}, {"is_disabled": 0, "fusion_lon": 0.0, "fusion_lat": 0.0, "lat": 38.9236755, "type": "electric_scooter", "lon": -77.02799316666666, "bike_id": "0e5c0257c72a2a5498943145114ce920", "rental_uris": {"android": "https://dc.lft.to/lastmile_qr_scan", "ios": "https://dc.lft.to/lastmile_qr_scan"}, "name": "0e5c0257c72a2a5498943145114ce920", "is_reserved": 0}, {"is_disabled": 0, "fusion_lon": 0.0, "fusion_lat": 0.0, "lat": 38.923748833333335, "type": "electric_scooter", "lon": -77.03133133333333, "bike_id": "9bf1f9b9ac201c4f8b11aada16ca2f35", "rental_uris": {"android": "https://dc.lft.to/lastmile_qr_scan", "ios": "https://dc.lft.to/lastmile_qr_scan"}, "name": "9bf1f9b9ac201c4f8b11aada16ca2f35", "is_reserved": 0}, {"is_disabled": 0, "fusion_lon": 0.0, "fusion_lat": 0.0, "lat": 38.91693683333333, "type": "electric_scooter", "lon": -77.0311755, "bike_id": "ce9286c60ecb3dcd139b1ff20ef99017", "rental_uris": {"android": "https://dc.lft.to/lastmile_qr_scan", "ios": "https://dc.lft.to/lastmile_qr_scan"}, "name": "ce9286c60ecb3dcd139b1ff20ef99017", "is_reserved": 0}, {"is_disabled": 0, "fusion_lon": 0.0, "fusion_lat": 0.0, "lat": 38.88433766666667, "type": "electric_scooter", "lon": -76.95413666666667, "bike_id": "11cd2d5eb3327db69e6dd34ace0c348b", "rental_uris": {"android": "https://dc.lft.to/lastmile_qr_scan", "ios": "https://dc.lft.to/lastmile_qr_scan"}, "name": "11cd2d5eb3327db69e6dd34ace0c348b", "is_reserved": 0}, {"is_disabled": 0, "fusion_lon": 0.0, "fusion_lat": 0.0, "lat": 39.00382533333333, "type": "electric_bike", "lon": -77.01283516666666, "bike_id": "ec667528e073c1a840e11960f142c5ce", "rental_uris": {"android": "https://dc.lft.to/lastmile_qr_scan", "ios": "https://dc.lft.to/lastmile_qr_scan"}, "name": "ec667528e073c1a840e11960f142c5ce", "is_reserved": 0}, {"is_disabled": 0, "fusion_lon": 0.0, "fusion_lat": 0.0, "lat": 38.934870833333335, "type": "electric_scooter", "lon": -77.032914, "bike_id": "49dce43f1f4407736a5584d5363c1725", "rental_uris": {"android": "https://dc.lft.to/lastmile_qr_scan", "ios": "https://dc.lft.to/lastmile_qr_scan"}, "name": "49dce43f1f4407736a5584d5363c1725", "is_reserved": 0}, {"is_disabled": 0, "fusion_lon": 0.0, "fusion_lat": 0.0, "lat": 38.96558133333333, "type": "electric_bike", "lon": -77.0230125, "bike_id": "8c0c33bd0308bd65a701ac73f9472cc8", "rental_uris": {"android": "https://dc.lft.to/lastmile_qr_scan", "ios": "https://dc.lft.to/lastmile_qr_scan"}, "name": "8c0c33bd0308bd65a701ac73f9472cc8", "is_reserved": 0}, {"is_disabled": 0, "fusion_lon": 0.0, "fusion_lat": 0.0, "lat": 38.924272333333334, "type": "electric_scooter", "lon": -77.04242366666666, "bike_id": "3039b53235a08e9e61d565348be44e7d", "rental_uris": {"android": "https://dc.lft.to/lastmile_qr_scan", "ios": "https://dc.lft.to/lastmile_qr_scan"}, "name": "3039b53235a08e9e61d565348be44e7d", "is_reserved": 0}, {"is_disabled": 0, "fusion_lon": 0.0, "fusion_lat": 0.0, "lat": 38.90719633333333, "type": "electric_scooter", "lon": -77.02390383333334, "bike_id": "c604a909fe78ad3a3c6f2f436905d63d", "rental_uris": {"android": "https://dc.lft.to/lastmile_qr_scan", "ios": "https://dc.lft.to/lastmile_qr_scan"}, "name": "c604a909fe78ad3a3c6f2f436905d63d", "is_reserved": 0}, {"is_disabled": 0, "fusion_lon": 0.0, "fusion_lat": 0.0, "lat": 38.91810533333334, "type": "electric_scooter", "lon": -77.02441666666667, "bike_id": "9ee1f4477e1c8a823807c045bd50a34a", "rental_uris": {"android": "https://dc.lft.to/lastmile_qr_scan", "ios": "https://dc.lft.to/lastmile_qr_scan"}, "name": "9ee1f4477e1c8a823807c045bd50a34a", "is_reserved": 0}, {"is_disabled": 0, "fusion_lon": 0.0, "fusion_lat": 0.0, "lat": 38.900995, "type": "electric_scooter", "lon": -77.01792116666667, "bike_id": "66f3e80d889481bf50aea960e97c66d6", "rental_uris": {"android": "https://dc.lft.to/lastmile_qr_scan", "ios": "https://dc.lft.to/lastmile_qr_scan"}, "name": "66f3e80d889481bf50aea960e97c66d6", "is_reserved": 0}, {"is_disabled": 0, "fusion_lon": 0.0, "fusion_lat": 0.0, "lat": 38.934608833333336, "type": "electric_scooter", "lon": -77.02748416666667, "bike_id": "9f27fc3167c53f7a3a19412131c6c730", "rental_uris": {"android": "https://dc.lft.to/lastmile_qr_scan", "ios": "https://dc.lft.to/lastmile_qr_scan"}, "name": "9f27fc3167c53f7a3a19412131c6c730", "is_reserved": 0}, {"is_disabled": 0, "fusion_lon": 0.0, "fusion_lat": 0.0, "lat": 38.91813833333333, "type": "electric_scooter", "lon": -77.0318025, "bike_id": "091f1cb3b7d2c8afc6fd468e5a962346", "rental_uris": {"android": "https://dc.lft.to/lastmile_qr_scan", "ios": "https://dc.lft.to/lastmile_qr_scan"}, "name": "091f1cb3b7d2c8afc6fd468e5a962346", "is_reserved": 0}, {"is_disabled": 0, "fusion_lon": 0.0, "fusion_lat": 0.0, "lat": 38.907138333333336, "type": "electric_scooter", "lon": -77.02715016666667, "bike_id": "68e1a1fcb7ff1e9b475ce44970308393", "rental_uris": {"android": "https://dc.lft.to/lastmile_qr_scan", "ios": "https://dc.lft.to/lastmile_qr_scan"}, "name": "68e1a1fcb7ff1e9b475ce44970308393", "is_reserved": 0}, {"is_disabled": 0, "fusion_lon": 0.0, "fusion_lat": 0.0, "lat": 38.91861683333333, "type": "electric_scooter", "lon": -76.96550366666666, "bike_id": "7776a484f1135c0e71547ff13b2bba8b", "rental_uris": {"android": "https://dc.lft.to/lastmile_qr_scan", "ios": "https://dc.lft.to/lastmile_qr_scan"}, "name": "7776a484f1135c0e71547ff13b2bba8b", "is_reserved": 0}, {"is_disabled": 0, "fusion_lon": 0.0, "fusion_lat": 0.0, "lat": 38.95376516666666, "type": "electric_scooter", "lon": -77.0256565, "bike_id": "8c486f91f3cc76ace4e989c1dfc52458", "rental_uris": {"android": "https://dc.lft.to/lastmile_qr_scan", "ios": "https://dc.lft.to/lastmile_qr_scan"}, "name": "8c486f91f3cc76ace4e989c1dfc52458", "is_reserved": 0}, {"is_disabled": 0, "fusion_lon": 0.0, "fusion_lat": 0.0, "lat": 38.9224805, "type": "electric_scooter", "lon": -77.0308665, "bike_id": "abb0746822b5d36917bf5f3435c1e070", "rental_uris": {"android": "https://dc.lft.to/lastmile_qr_scan", "ios": "https://dc.lft.to/lastmile_qr_scan"}, "name": "abb0746822b5d36917bf5f3435c1e070", "is_reserved": 0}, {"is_disabled": 0, "fusion_lon": 0.0, "fusion_lat": 0.0, "lat": 38.9038125, "type": "electric_scooter", "lon": -77.03205616666666, "bike_id": "7ff73fc9aa2afba08eaed46baa249d80", "rental_uris": {"android": "https://dc.lft.to/lastmile_qr_scan", "ios": "https://dc.lft.to/lastmile_qr_scan"}, "name": "7ff73fc9aa2afba08eaed46baa249d80", "is_reserved": 0}, {"is_disabled": 0, "fusion_lon": 0.0, "fusion_lat": 0.0, "lat": 38.918168666666666, "type": "electric_scooter", "lon": -77.03252516666667, "bike_id": "a2fffc0b43d97900ed7c065f6ed4f21f", "rental_uris": {"android": "https://dc.lft.to/lastmile_qr_scan", "ios": "https://dc.lft.to/lastmile_qr_scan"}, "name": "a2fffc0b43d97900ed7c065f6ed4f21f", "is_reserved": 0}, {"is_disabled": 0, "fusion_lon": 0.0, "fusion_lat": 0.0, "lat": 38.965034833333334, "type": "electric_scooter", "lon": -77.02482483333333, "bike_id": "f824abc0689a0f1ceda7266241de970d", "rental_uris": {"android": "https://dc.lft.to/lastmile_qr_scan", "ios": "https://dc.lft.to/lastmile_qr_scan"}, "name": "f824abc0689a0f1ceda7266241de970d", "is_reserved": 0}, {"is_disabled": 0, "fusion_lon": 0.0, "fusion_lat": 0.0, "lat": 38.95398433333333, "type": "electric_scooter", "lon": -77.02756816666667, "bike_id": "7756bbe8cf971febcaf086c1aea203c0", "rental_uris": {"android": "https://dc.lft.to/lastmile_qr_scan", "ios": "https://dc.lft.to/lastmile_qr_scan"}, "name": "7756bbe8cf971febcaf086c1aea203c0", "is_reserved": 0}, {"is_disabled": 0, "fusion_lon": 0.0, "fusion_lat": 0.0, "lat": 38.89222933333333, "type": "electric_scooter", "lon": -77.0333805, "bike_id": "f6dd26b03d3fa07c9bb5db4308c643a4", "rental_uris": {"android": "https://dc.lft.to/lastmile_qr_scan", "ios": "https://dc.lft.to/lastmile_qr_scan"}, "name": "f6dd26b03d3fa07c9bb5db4308c643a4", "is_reserved": 0}, {"is_disabled": 0, "fusion_lon": 0.0, "fusion_lat": 0.0, "lat": 38.85835333333333, "type": "electric_bike", "lon": -76.99282733333334, "bike_id": "acec4cf0c12e12c0fe51ff03e3d10696", "rental_uris": {"android": "https://dc.lft.to/lastmile_qr_scan", "ios": "https://dc.lft.to/lastmile_qr_scan"}, "name": "acec4cf0c12e12c0fe51ff03e3d10696", "is_reserved": 0}, {"is_disabled": 0, "fusion_lon": 0.0, "fusion_lat": 0.0, "lat": 38.92994933333333, "type": "electric_scooter", "lon": -77.07812033333333, "bike_id": "48d5bda214a8ad04a4e35123c8cc5677", "rental_uris": {"android": "https://dc.lft.to/lastmile_qr_scan", "ios": "https://dc.lft.to/lastmile_qr_scan"}, "name": "48d5bda214a8ad04a4e35123c8cc5677", "is_reserved": 0}, {"is_disabled": 0, "fusion_lon": 0.0, "fusion_lat": 0.0, "lat": 38.879814833333334, "type": "electric_bike", "lon": -76.91599116666667, "bike_id": "ab5e4f0b7115890d4f394225ffad2a10", "rental_uris": {"android": "https://dc.lft.to/lastmile_qr_scan", "ios": "https://dc.lft.to/lastmile_qr_scan"}, "name": "ab5e4f0b7115890d4f394225ffad2a10", "is_reserved": 0}, {"is_disabled": 0, "fusion_lon": 0.0, "fusion_lat": 0.0, "lat": 38.924183666666664, "type": "electric_scooter", "lon": -77.041604, "bike_id": "c324d4b0317085089e2ce21a41254212", "rental_uris": {"android": "https://dc.lft.to/lastmile_qr_scan", "ios": "https://dc.lft.to/lastmile_qr_scan"}, "name": "c324d4b0317085089e2ce21a41254212", "is_reserved": 0}, {"is_disabled": 0, "fusion_lon": 0.0, "fusion_lat": 0.0, "lat": 38.907278, "type": "electric_scooter", "lon": -77.03850133333333, "bike_id": "6619b80bb5dce62058b2a04cba4dcc2c", "rental_uris": {"android": "https://dc.lft.to/lastmile_qr_scan", "ios": "https://dc.lft.to/lastmile_qr_scan"}, "name": "6619b80bb5dce62058b2a04cba4dcc2c", "is_reserved": 0}, {"is_disabled": 0, "fusion_lon": 0.0, "fusion_lat": 0.0, "lat": 38.966500333333336, "type": "electric_bike", "lon": -76.93023416666666, "bike_id": "80e80cff3555a92e88a0a36196b68d99", "rental_uris": {"android": "https://dc.lft.to/lastmile_qr_scan", "ios": "https://dc.lft.to/lastmile_qr_scan"}, "name": "80e80cff3555a92e88a0a36196b68d99", "is_reserved": 0}, {"is_disabled": 0, "fusion_lon": 0.0, "fusion_lat": 0.0, "lat": 38.908453, "type": "electric_scooter", "lon": -77.00234833333333, "bike_id": "a8f13628bcf9857b7e3649fccd140a68", "rental_uris": {"android": "https://dc.lft.to/lastmile_qr_scan", "ios": "https://dc.lft.to/lastmile_qr_scan"}, "name": "a8f13628bcf9857b7e3649fccd140a68", "is_reserved": 0}, {"is_disabled": 0, "fusion_lon": 0.0, "fusion_lat": 0.0, "lat": 38.911756, "type": "electric_scooter", "lon": -77.00455633333333, "bike_id": "1ff38dcb148b5542754093b63bfe5fa4", "rental_uris": {"android": "https://dc.lft.to/lastmile_qr_scan", "ios": "https://dc.lft.to/lastmile_qr_scan"}, "name": "1ff38dcb148b5542754093b63bfe5fa4", "is_reserved": 0}, {"is_disabled": 0, "fusion_lon": 0.0, "fusion_lat": 0.0, "lat": 38.903785166666665, "type": "electric_scooter", "lon": -77.050196, "bike_id": "160525bf06fe8117de86d33ef47ce444", "rental_uris": {"android": "https://dc.lft.to/lastmile_qr_scan", "ios": "https://dc.lft.to/lastmile_qr_scan"}, "name": "160525bf06fe8117de86d33ef47ce444", "is_reserved": 0}, {"is_disabled": 0, "fusion_lon": 0.0, "fusion_lat": 0.0, "lat": 38.916237, "type": "electric_scooter", "lon": -77.04595416666666, "bike_id": "8a8eccdb97d23d75f7300ffec52124e4", "rental_uris": {"android": "https://dc.lft.to/lastmile_qr_scan", "ios": "https://dc.lft.to/lastmile_qr_scan"}, "name": "8a8eccdb97d23d75f7300ffec52124e4", "is_reserved": 0}, {"is_disabled": 0, "fusion_lon": 0.0, "fusion_lat": 0.0, "lat": 38.90268, "type": "electric_scooter", "lon": -77.03443233333333, "bike_id": "5ce1db5a4c0ceae5a2978e21e026da8e", "rental_uris": {"android": "https://dc.lft.to/lastmile_qr_scan", "ios": "https://dc.lft.to/lastmile_qr_scan"}, "name": "5ce1db5a4c0ceae5a2978e21e026da8e", "is_reserved": 0}, {"is_disabled": 0, "fusion_lon": 0.0, "fusion_lat": 0.0, "lat": 38.91903533333333, "type": "electric_scooter", "lon": -77.023987, "bike_id": "9ba1d526e987674aa0af12fe81a1b12e", "rental_uris": {"android": "https://dc.lft.to/lastmile_qr_scan", "ios": "https://dc.lft.to/lastmile_qr_scan"}, "name": "9ba1d526e987674aa0af12fe81a1b12e", "is_reserved": 0}, {"is_disabled": 0, "fusion_lon": 0.0, "fusion_lat": 0.0, "lat": 38.897415, "type": "electric_scooter", "lon": -77.04799033333333, "bike_id": "b91108d224f1ebef2ef7a7c595d5663c", "rental_uris": {"android": "https://dc.lft.to/lastmile_qr_scan", "ios": "https://dc.lft.to/lastmile_qr_scan"}, "name": "b91108d224f1ebef2ef7a7c595d5663c", "is_reserved": 0}, {"is_disabled": 0, "fusion_lon": 0.0, "fusion_lat": 0.0, "lat": 38.916235, "type": "electric_bike", "lon": -77.01357366666667, "bike_id": "dedeb82b82dbc48014d7f4f44a9e17d0", "rental_uris": {"android": "https://dc.lft.to/lastmile_qr_scan", "ios": "https://dc.lft.to/lastmile_qr_scan"}, "name": "dedeb82b82dbc48014d7f4f44a9e17d0", "is_reserved": 0}, {"is_disabled": 0, "fusion_lon": 0.0, "fusion_lat": 0.0, "lat": 38.873143166666665, "type": "electric_bike", "lon": -76.971099, "bike_id": "dc9c8397bbe29e64574b289d4abcbf0e", "rental_uris": {"android": "https://dc.lft.to/lastmile_qr_scan", "ios": "https://dc.lft.to/lastmile_qr_scan"}, "name": "dc9c8397bbe29e64574b289d4abcbf0e", "is_reserved": 0}, {"is_disabled": 0, "fusion_lon": 0.0, "fusion_lat": 0.0, "lat": 38.88065916666667, "type": "electric_scooter", "lon": -77.01672166666667, "bike_id": "4d8bbd08ab9e39d5348161aab1c99f53", "rental_uris": {"android": "https://dc.lft.to/lastmile_qr_scan", "ios": "https://dc.lft.to/lastmile_qr_scan"}, "name": "4d8bbd08ab9e39d5348161aab1c99f53", "is_reserved": 0}, {"is_disabled": 0, "fusion_lon": 0.0, "fusion_lat": 0.0, "lat": 38.8936495, "type": "electric_scooter", "lon": -77.02261433333334, "bike_id": "9f7883c55a1992460e9c6a18aa165c5e", "rental_uris": {"android": "https://dc.lft.to/lastmile_qr_scan", "ios": "https://dc.lft.to/lastmile_qr_scan"}, "name": "9f7883c55a1992460e9c6a18aa165c5e", "is_reserved": 0}, {"is_disabled": 0, "fusion_lon": 0.0, "fusion_lat": 0.0, "lat": 38.917081333333336, "type": "electric_scooter", "lon": -77.03470316666667, "bike_id": "d62f1e1a97de93a3a7445284eeda3dc3", "rental_uris": {"android": "https://dc.lft.to/lastmile_qr_scan", "ios": "https://dc.lft.to/lastmile_qr_scan"}, "name": "d62f1e1a97de93a3a7445284eeda3dc3", "is_reserved": 0}, {"is_disabled": 0, "fusion_lon": 0.0, "fusion_lat": 0.0, "lat": 38.967644, "type": "electric_bike", "lon": -77.09161, "bike_id": "7d6737b2fef70c6a8f8cba415237f773", "rental_uris": {"android": "https://dc.lft.to/lastmile_qr_scan", "ios": "https://dc.lft.to/lastmile_qr_scan"}, "name": "7d6737b2fef70c6a8f8cba415237f773", "is_reserved": 0}, {"is_disabled": 0, "fusion_lon": 0.0, "fusion_lat": 0.0, "lat": 38.919601, "type": "electric_scooter", "lon": -77.0239665, "bike_id": "58e80aac2e4e955d738b833615e75b19", "rental_uris": {"android": "https://dc.lft.to/lastmile_qr_scan", "ios": "https://dc.lft.to/lastmile_qr_scan"}, "name": "58e80aac2e4e955d738b833615e75b19", "is_reserved": 0}, {"is_disabled": 0, "fusion_lon": 0.0, "fusion_lat": 0.0, "lat": 38.842018333333336, "type": "electric_bike", "lon": -77.10681333333333, "bike_id": "30cc62902870648ecc6887071a985889", "rental_uris": {"android": "https://dc.lft.to/lastmile_qr_scan", "ios": "https://dc.lft.to/lastmile_qr_scan"}, "name": "30cc62902870648ecc6887071a985889", "is_reserved": 0}, {"is_disabled": 0, "fusion_lon": 0.0, "fusion_lat": 0.0, "lat": 38.9158245, "type": "electric_scooter", "lon": -76.98113483333333, "bike_id": "8330c20c59464135f4032d5d074bf75b", "rental_uris": {"android": "https://dc.lft.to/lastmile_qr_scan", "ios": "https://dc.lft.to/lastmile_qr_scan"}, "name": "8330c20c59464135f4032d5d074bf75b", "is_reserved": 0}, {"is_disabled": 0, "fusion_lon": 0.0, "fusion_lat": 0.0, "lat": 38.85806483333333, "type": "electric_scooter", "lon": -76.9865385, "bike_id": "2a31ccf3eedb7b7173a1c5fbd34d9739", "rental_uris": {"android": "https://dc.lft.to/lastmile_qr_scan", "ios": "https://dc.lft.to/lastmile_qr_scan"}, "name": "2a31ccf3eedb7b7173a1c5fbd34d9739", "is_reserved": 0}, {"is_disabled": 0, "fusion_lon": 0.0, "fusion_lat": 0.0, "lat": 38.99879883333333, "type": "electric_bike", "lon": -77.02883766666666, "bike_id": "68c910637ce7717b53660e2db9f513bb", "rental_uris": {"android": "https://dc.lft.to/lastmile_qr_scan", "ios": "https://dc.lft.to/lastmile_qr_scan"}, "name": "68c910637ce7717b53660e2db9f513bb", "is_reserved": 0}, {"is_disabled": 0, "fusion_lon": 0.0, "fusion_lat": 0.0, "lat": 38.92848, "type": "electric_scooter", "lon": -77.01416583333334, "bike_id": "c0cc43127ae689333f5fac283d435af8", "rental_uris": {"android": "https://dc.lft.to/lastmile_qr_scan", "ios": "https://dc.lft.to/lastmile_qr_scan"}, "name": "c0cc43127ae689333f5fac283d435af8", "is_reserved": 0}, {"is_disabled": 0, "fusion_lon": 0.0, "fusion_lat": 0.0, "lat": 38.86333716666667, "type": "electric_scooter", "lon": -76.99046883333334, "bike_id": "b6dfa128701739f1311d4ed85569ab48", "rental_uris": {"android": "https://dc.lft.to/lastmile_qr_scan", "ios": "https://dc.lft.to/lastmile_qr_scan"}, "name": "b6dfa128701739f1311d4ed85569ab48", "is_reserved": 0}, {"is_disabled": 0, "fusion_lon": 0.0, "fusion_lat": 0.0, "lat": 38.9247875, "type": "electric_scooter", "lon": -77.0349115, "bike_id": "553e3e698652d508e96bc92520ac6b4a", "rental_uris": {"android": "https://dc.lft.to/lastmile_qr_scan", "ios": "https://dc.lft.to/lastmile_qr_scan"}, "name": "553e3e698652d508e96bc92520ac6b4a", "is_reserved": 0}, {"is_disabled": 0, "fusion_lon": 0.0, "fusion_lat": 0.0, "lat": 38.846015, "type": "electric_bike", "lon": -76.968791, "bike_id": "dc323ba2aba8d5d57e8cd2477801f4d0", "rental_uris": {"android": "https://dc.lft.to/lastmile_qr_scan", "ios": "https://dc.lft.to/lastmile_qr_scan"}, "name": "dc323ba2aba8d5d57e8cd2477801f4d0", "is_reserved": 0}, {"is_disabled": 0, "fusion_lon": 0.0, "fusion_lat": 0.0, "lat": 38.908081833333334, "type": "electric_scooter", "lon": -77.03401733333334, "bike_id": "2062ac79dd8220848dac44025b68fe0f", "rental_uris": {"android": "https://dc.lft.to/lastmile_qr_scan", "ios": "https://dc.lft.to/lastmile_qr_scan"}, "name": "2062ac79dd8220848dac44025b68fe0f", "is_reserved": 0}, {"is_disabled": 0, "fusion_lon": 0.0, "fusion_lat": 0.0, "lat": 38.918100333333335, "type": "electric_scooter", "lon": -77.03177216666667, "bike_id": "a5da8c4b7ce5a5217d980ab650550f9c", "rental_uris": {"android": "https://dc.lft.to/lastmile_qr_scan", "ios": "https://dc.lft.to/lastmile_qr_scan"}, "name": "a5da8c4b7ce5a5217d980ab650550f9c", "is_reserved": 0}, {"is_disabled": 0, "fusion_lon": 0.0, "fusion_lat": 0.0, "lat": 38.85496416666667, "type": "electric_bike", "lon": -77.120531, "bike_id": "2f7a4baf20ec1ead4c875f431d555829", "rental_uris": {"android": "https://dc.lft.to/lastmile_qr_scan", "ios": "https://dc.lft.to/lastmile_qr_scan"}, "name": "2f7a4baf20ec1ead4c875f431d555829", "is_reserved": 0}, {"is_disabled": 0, "fusion_lon": 0.0, "fusion_lat": 0.0, "lat": 38.915408666666664, "type": "electric_scooter", "lon": -77.0379245, "bike_id": "bbc9fe722da15410ba2132d1344aaf5d", "rental_uris": {"android": "https://dc.lft.to/lastmile_qr_scan", "ios": "https://dc.lft.to/lastmile_qr_scan"}, "name": "bbc9fe722da15410ba2132d1344aaf5d", "is_reserved": 0}, {"is_disabled": 0, "fusion_lon": 0.0, "fusion_lat": 0.0, "lat": 38.922295166666665, "type": "electric_scooter", "lon": -77.03320183333334, "bike_id": "1effdce0981cabc5bf184846386d5d66", "rental_uris": {"android": "https://dc.lft.to/lastmile_qr_scan", "ios": "https://dc.lft.to/lastmile_qr_scan"}, "name": "1effdce0981cabc5bf184846386d5d66", "is_reserved": 0}, {"is_disabled": 0, "fusion_lon": 0.0, "fusion_lat": 0.0, "lat": 38.9366115, "type": "electric_scooter", "lon": -77.05937033333333, "bike_id": "ff389605ef629b8a0a51a90edb0e858d", "rental_uris": {"android": "https://dc.lft.to/lastmile_qr_scan", "ios": "https://dc.lft.to/lastmile_qr_scan"}, "name": "ff389605ef629b8a0a51a90edb0e858d", "is_reserved": 0}, {"is_disabled": 0, "fusion_lon": 0.0, "fusion_lat": 0.0, "lat": 38.884063, "type": "electric_scooter", "lon": -77.02420266666667, "bike_id": "70faaf53a84a466e30234f112e7ec321", "rental_uris": {"android": "https://dc.lft.to/lastmile_qr_scan", "ios": "https://dc.lft.to/lastmile_qr_scan"}, "name": "70faaf53a84a466e30234f112e7ec321", "is_reserved": 0}, {"is_disabled": 0, "fusion_lon": 0.0, "fusion_lat": 0.0, "lat": 38.92211783333333, "type": "electric_scooter", "lon": -77.04239633333333, "bike_id": "4220a323bca33b7d6873926a2ad31885", "rental_uris": {"android": "https://dc.lft.to/lastmile_qr_scan", "ios": "https://dc.lft.to/lastmile_qr_scan"}, "name": "4220a323bca33b7d6873926a2ad31885", "is_reserved": 0}, {"is_disabled": 0, "fusion_lon": 0.0, "fusion_lat": 0.0, "lat": 38.8874075, "type": "electric_scooter", "lon": -77.015397, "bike_id": "fa89ffc99b259409d56f1d9ae9e3612e", "rental_uris": {"android": "https://dc.lft.to/lastmile_qr_scan", "ios": "https://dc.lft.to/lastmile_qr_scan"}, "name": "fa89ffc99b259409d56f1d9ae9e3612e", "is_reserved": 0}, {"is_disabled": 0, "fusion_lon": 0.0, "fusion_lat": 0.0, "lat": 38.90765966666667, "type": "electric_scooter", "lon": -77.00751216666667, "bike_id": "00cb6d79e1712b781c0977b03cec29af", "rental_uris": {"android": "https://dc.lft.to/lastmile_qr_scan", "ios": "https://dc.lft.to/lastmile_qr_scan"}, "name": "00cb6d79e1712b781c0977b03cec29af", "is_reserved": 0}, {"is_disabled": 0, "fusion_lon": 0.0, "fusion_lat": 0.0, "lat": 38.897451, "type": "electric_scooter", "lon": -77.021973, "bike_id": "f641c38537f620ac9dcd56993198b3b7", "rental_uris": {"android": "https://dc.lft.to/lastmile_qr_scan", "ios": "https://dc.lft.to/lastmile_qr_scan"}, "name": "f641c38537f620ac9dcd56993198b3b7", "is_reserved": 0}, {"is_disabled": 0, "fusion_lon": 0.0, "fusion_lat": 0.0, "lat": 38.91266433333333, "type": "electric_scooter", "lon": -77.01069416666667, "bike_id": "c701f499a346128ba625854e7329c30a", "rental_uris": {"android": "https://dc.lft.to/lastmile_qr_scan", "ios": "https://dc.lft.to/lastmile_qr_scan"}, "name": "c701f499a346128ba625854e7329c30a", "is_reserved": 0}, {"is_disabled": 0, "fusion_lon": 0.0, "fusion_lat": 0.0, "lat": 38.80299333333333, "type": "electric_bike", "lon": -77.03990733333333, "bike_id": "5b639918247951d508669c1156b4d9ee", "rental_uris": {"android": "https://dc.lft.to/lastmile_qr_scan", "ios": "https://dc.lft.to/lastmile_qr_scan"}, "name": "5b639918247951d508669c1156b4d9ee", "is_reserved": 0}, {"is_disabled": 0, "fusion_lon": 0.0, "fusion_lat": 0.0, "lat": 38.91950033333333, "type": "electric_scooter", "lon": -77.013889, "bike_id": "24b668fb6cfe59dfbdd4be33cb70073e", "rental_uris": {"android": "https://dc.lft.to/lastmile_qr_scan", "ios": "https://dc.lft.to/lastmile_qr_scan"}, "name": "24b668fb6cfe59dfbdd4be33cb70073e", "is_reserved": 0}, {"is_disabled": 0, "fusion_lon": 0.0, "fusion_lat": 0.0, "lat": 38.90951116666667, "type": "electric_scooter", "lon": -77.02182133333334, "bike_id": "131606271a15a7792bf55f07a38e9f60", "rental_uris": {"android": "https://dc.lft.to/lastmile_qr_scan", "ios": "https://dc.lft.to/lastmile_qr_scan"}, "name": "131606271a15a7792bf55f07a38e9f60", "is_reserved": 0}, {"is_disabled": 0, "fusion_lon": 0.0, "fusion_lat": 0.0, "lat": 38.934896, "type": "electric_scooter", "lon": -77.02405733333333, "bike_id": "09b5d869cf580945d4a6061f3fbf5d2b", "rental_uris": {"android": "https://dc.lft.to/lastmile_qr_scan", "ios": "https://dc.lft.to/lastmile_qr_scan"}, "name": "09b5d869cf580945d4a6061f3fbf5d2b", "is_reserved": 0}, {"is_disabled": 0, "fusion_lon": 0.0, "fusion_lat": 0.0, "lat": 38.9169745, "type": "electric_scooter", "lon": -77.02896883333334, "bike_id": "301576f0a498b589f66f3ef5ad9e8dd9", "rental_uris": {"android": "https://dc.lft.to/lastmile_qr_scan", "ios": "https://dc.lft.to/lastmile_qr_scan"}, "name": "301576f0a498b589f66f3ef5ad9e8dd9", "is_reserved": 0}, {"is_disabled": 0, "fusion_lon": 0.0, "fusion_lat": 0.0, "lat": 38.917417666666665, "type": "electric_scooter", "lon": -77.00883466666667, "bike_id": "574ef3cc97f8828ff136caecda93844c", "rental_uris": {"android": "https://dc.lft.to/lastmile_qr_scan", "ios": "https://dc.lft.to/lastmile_qr_scan"}, "name": "574ef3cc97f8828ff136caecda93844c", "is_reserved": 0}, {"is_disabled": 0, "fusion_lon": 0.0, "fusion_lat": 0.0, "lat": 38.930365, "type": "electric_bike", "lon": -77.08275166666667, "bike_id": "dc05ef02609366c7f7108750061b2bce", "rental_uris": {"android": "https://dc.lft.to/lastmile_qr_scan", "ios": "https://dc.lft.to/lastmile_qr_scan"}, "name": "dc05ef02609366c7f7108750061b2bce", "is_reserved": 0}, {"is_disabled": 0, "fusion_lon": 0.0, "fusion_lat": 0.0, "lat": 38.936079666666664, "type": "electric_scooter", "lon": -77.05589933333333, "bike_id": "834d87db2b751bc5f2e63ef6ad9660e1", "rental_uris": {"android": "https://dc.lft.to/lastmile_qr_scan", "ios": "https://dc.lft.to/lastmile_qr_scan"}, "name": "834d87db2b751bc5f2e63ef6ad9660e1", "is_reserved": 0}, {"is_disabled": 0, "fusion_lon": 0.0, "fusion_lat": 0.0, "lat": 38.91815883333334, "type": "electric_scooter", "lon": -77.036373, "bike_id": "3bf5f169c62a52e7fbecda75b60ff533", "rental_uris": {"android": "https://dc.lft.to/lastmile_qr_scan", "ios": "https://dc.lft.to/lastmile_qr_scan"}, "name": "3bf5f169c62a52e7fbecda75b60ff533", "is_reserved": 0}, {"is_disabled": 0, "fusion_lon": 0.0, "fusion_lat": 0.0, "lat": 38.91600833333333, "type": "electric_scooter", "lon": -77.04593683333333, "bike_id": "c858a22a3109e49dc4d82fa962f58667", "rental_uris": {"android": "https://dc.lft.to/lastmile_qr_scan", "ios": "https://dc.lft.to/lastmile_qr_scan"}, "name": "c858a22a3109e49dc4d82fa962f58667", "is_reserved": 0}, {"is_disabled": 0, "fusion_lon": 0.0, "fusion_lat": 0.0, "lat": 38.905171833333334, "type": "electric_scooter", "lon": -77.05042066666667, "bike_id": "8f31cdc562151c355a66c54db504b0b0", "rental_uris": {"android": "https://dc.lft.to/lastmile_qr_scan", "ios": "https://dc.lft.to/lastmile_qr_scan"}, "name": "8f31cdc562151c355a66c54db504b0b0", "is_reserved": 0}, {"is_disabled": 0, "fusion_lon": 0.0, "fusion_lat": 0.0, "lat": 38.886345666666664, "type": "electric_scooter", "lon": -76.955097, "bike_id": "3ee2fb9ddd010d5694247b156a486a6e", "rental_uris": {"android": "https://dc.lft.to/lastmile_qr_scan", "ios": "https://dc.lft.to/lastmile_qr_scan"}, "name": "3ee2fb9ddd010d5694247b156a486a6e", "is_reserved": 0}, {"is_disabled": 0, "fusion_lon": 0.0, "fusion_lat": 0.0, "lat": 38.945613333333334, "type": "electric_bike", "lon": -77.05131083333333, "bike_id": "625e2478fd3c925afc2d9d5977f9d087", "rental_uris": {"android": "https://dc.lft.to/lastmile_qr_scan", "ios": "https://dc.lft.to/lastmile_qr_scan"}, "name": "625e2478fd3c925afc2d9d5977f9d087", "is_reserved": 0}, {"is_disabled": 0, "fusion_lon": 0.0, "fusion_lat": 0.0, "lat": 38.915932166666664, "type": "electric_scooter", "lon": -77.021268, "bike_id": "79e50b47cf1327cfe854290a01c5aa83", "rental_uris": {"android": "https://dc.lft.to/lastmile_qr_scan", "ios": "https://dc.lft.to/lastmile_qr_scan"}, "name": "79e50b47cf1327cfe854290a01c5aa83", "is_reserved": 0}, {"is_disabled": 0, "fusion_lon": 0.0, "fusion_lat": 0.0, "lat": 38.924803833333335, "type": "electric_scooter", "lon": -77.03780766666667, "bike_id": "dcf8f4aff98f47c39d83b5b25b6c0e18", "rental_uris": {"android": "https://dc.lft.to/lastmile_qr_scan", "ios": "https://dc.lft.to/lastmile_qr_scan"}, "name": "dcf8f4aff98f47c39d83b5b25b6c0e18", "is_reserved": 0}, {"is_disabled": 0, "fusion_lon": 0.0, "fusion_lat": 0.0, "lat": 38.9002015, "type": "electric_scooter", "lon": -77.03976916666667, "bike_id": "c6969752333deed1e9f6c34636da1f55", "rental_uris": {"android": "https://dc.lft.to/lastmile_qr_scan", "ios": "https://dc.lft.to/lastmile_qr_scan"}, "name": "c6969752333deed1e9f6c34636da1f55", "is_reserved": 0}, {"is_disabled": 0, "fusion_lon": 0.0, "fusion_lat": 0.0, "lat": 38.91818283333333, "type": "electric_scooter", "lon": -77.03632216666666, "bike_id": "22a2dd483f26a80094399081fbd7a854", "rental_uris": {"android": "https://dc.lft.to/lastmile_qr_scan", "ios": "https://dc.lft.to/lastmile_qr_scan"}, "name": "22a2dd483f26a80094399081fbd7a854", "is_reserved": 0}, {"is_disabled": 0, "fusion_lon": 0.0, "fusion_lat": 0.0, "lat": 38.90531383333333, "type": "electric_scooter", "lon": -77.05640333333334, "bike_id": "a48a411bd6bbbecfbbdbc6898f42099a", "rental_uris": {"android": "https://dc.lft.to/lastmile_qr_scan", "ios": "https://dc.lft.to/lastmile_qr_scan"}, "name": "a48a411bd6bbbecfbbdbc6898f42099a", "is_reserved": 0}, {"is_disabled": 0, "fusion_lon": 0.0, "fusion_lat": 0.0, "lat": 38.904774833333335, "type": "electric_bike", "lon": -76.95053316666667, "bike_id": "1c221e49815d42766df24316a6fb902b", "rental_uris": {"android": "https://dc.lft.to/lastmile_qr_scan", "ios": "https://dc.lft.to/lastmile_qr_scan"}, "name": "1c221e49815d42766df24316a6fb902b", "is_reserved": 0}, {"is_disabled": 0, "fusion_lon": 0.0, "fusion_lat": 0.0, "lat": 38.93967516666667, "type": "electric_scooter", "lon": -77.03284516666666, "bike_id": "4b5987617cfb0b417a952599c561faf8", "rental_uris": {"android": "https://dc.lft.to/lastmile_qr_scan", "ios": "https://dc.lft.to/lastmile_qr_scan"}, "name": "4b5987617cfb0b417a952599c561faf8", "is_reserved": 0}, {"is_disabled": 0, "fusion_lon": 0.0, "fusion_lat": 0.0, "lat": 38.923709333333335, "type": "electric_scooter", "lon": -77.05030133333334, "bike_id": "2238439f8c6e3efa742110e65806f04a", "rental_uris": {"android": "https://dc.lft.to/lastmile_qr_scan", "ios": "https://dc.lft.to/lastmile_qr_scan"}, "name": "2238439f8c6e3efa742110e65806f04a", "is_reserved": 0}, {"is_disabled": 0, "fusion_lon": 0.0, "fusion_lat": 0.0, "lat": 38.9126485, "type": "electric_scooter", "lon": -77.02566983333334, "bike_id": "55a1b3330ecf6cf98a9dd2764cc3a806", "rental_uris": {"android": "https://dc.lft.to/lastmile_qr_scan", "ios": "https://dc.lft.to/lastmile_qr_scan"}, "name": "55a1b3330ecf6cf98a9dd2764cc3a806", "is_reserved": 0}, {"is_disabled": 0, "fusion_lon": 0.0, "fusion_lat": 0.0, "lat": 38.9303095, "type": "electric_scooter", "lon": -77.0345335, "bike_id": "31877c773dff88a7afee874fd9b0b9f8", "rental_uris": {"android": "https://dc.lft.to/lastmile_qr_scan", "ios": "https://dc.lft.to/lastmile_qr_scan"}, "name": "31877c773dff88a7afee874fd9b0b9f8", "is_reserved": 0}, {"is_disabled": 0, "fusion_lon": 0.0, "fusion_lat": 0.0, "lat": 38.898360833333335, "type": "electric_scooter", "lon": -76.94634583333334, "bike_id": "6339a5b6f6e12fe21934fd4594631229", "rental_uris": {"android": "https://dc.lft.to/lastmile_qr_scan", "ios": "https://dc.lft.to/lastmile_qr_scan"}, "name": "6339a5b6f6e12fe21934fd4594631229", "is_reserved": 0}, {"is_disabled": 0, "fusion_lon": 0.0, "fusion_lat": 0.0, "lat": 38.92373766666667, "type": "electric_scooter", "lon": -77.03032316666666, "bike_id": "2e06acb08cb716afe2a9ea497373d080", "rental_uris": {"android": "https://dc.lft.to/lastmile_qr_scan", "ios": "https://dc.lft.to/lastmile_qr_scan"}, "name": "2e06acb08cb716afe2a9ea497373d080", "is_reserved": 0}, {"is_disabled": 0, "fusion_lon": 0.0, "fusion_lat": 0.0, "lat": 38.96264266666667, "type": "electric_scooter", "lon": -77.029014, "bike_id": "ceb89dc3924e9b60e38488d18acc2965", "rental_uris": {"android": "https://dc.lft.to/lastmile_qr_scan", "ios": "https://dc.lft.to/lastmile_qr_scan"}, "name": "ceb89dc3924e9b60e38488d18acc2965", "is_reserved": 0}, {"is_disabled": 0, "fusion_lon": 0.0, "fusion_lat": 0.0, "lat": 38.82780866666667, "type": "electric_bike", "lon": -77.11081333333334, "bike_id": "bd8b480c3f60e5cca31f2f7296c0e102", "rental_uris": {"android": "https://dc.lft.to/lastmile_qr_scan", "ios": "https://dc.lft.to/lastmile_qr_scan"}, "name": "bd8b480c3f60e5cca31f2f7296c0e102", "is_reserved": 0}, {"is_disabled": 0, "fusion_lon": 0.0, "fusion_lat": 0.0, "lat": 38.885296833333335, "type": "electric_scooter", "lon": -76.92701083333333, "bike_id": "e36b68fc190b235954a5890af8d50f62", "rental_uris": {"android": "https://dc.lft.to/lastmile_qr_scan", "ios": "https://dc.lft.to/lastmile_qr_scan"}, "name": "e36b68fc190b235954a5890af8d50f62", "is_reserved": 0}, {"is_disabled": 0, "fusion_lon": 0.0, "fusion_lat": 0.0, "lat": 38.9078815, "type": "electric_scooter", "lon": -77.03048316666667, "bike_id": "60b02693ce7e2f09d8763aed62d9d07b", "rental_uris": {"android": "https://dc.lft.to/lastmile_qr_scan", "ios": "https://dc.lft.to/lastmile_qr_scan"}, "name": "60b02693ce7e2f09d8763aed62d9d07b", "is_reserved": 0}, {"is_disabled": 0, "fusion_lon": 0.0, "fusion_lat": 0.0, "lat": 38.889645, "type": "electric_bike", "lon": -76.94865333333334, "bike_id": "b6897fdf2114b76f302bd7fc3fc523ca", "rental_uris": {"android": "https://dc.lft.to/lastmile_qr_scan", "ios": "https://dc.lft.to/lastmile_qr_scan"}, "name": "b6897fdf2114b76f302bd7fc3fc523ca", "is_reserved": 0}, {"is_disabled": 0, "fusion_lon": 0.0, "fusion_lat": 0.0, "lat": 38.975732, "type": "electric_bike", "lon": -76.96407083333334, "bike_id": "0bc12ae074e61318679cbe724f05355b", "rental_uris": {"android": "https://dc.lft.to/lastmile_qr_scan", "ios": "https://dc.lft.to/lastmile_qr_scan"}, "name": "0bc12ae074e61318679cbe724f05355b", "is_reserved": 0}, {"is_disabled": 0, "fusion_lon": 0.0, "fusion_lat": 0.0, "lat": 38.919873, "type": "electric_scooter", "lon": -77.03290716666666, "bike_id": "ce7d4db1fc9925a947cd1cd9b7f67f5a", "rental_uris": {"android": "https://dc.lft.to/lastmile_qr_scan", "ios": "https://dc.lft.to/lastmile_qr_scan"}, "name": "ce7d4db1fc9925a947cd1cd9b7f67f5a", "is_reserved": 0}, {"is_disabled": 0, "fusion_lon": 0.0, "fusion_lat": 0.0, "lat": 38.908284, "type": "electric_bike", "lon": -76.941565, "bike_id": "460e11ab34a9ad77b06fde71d7a33cab", "rental_uris": {"android": "https://dc.lft.to/lastmile_qr_scan", "ios": "https://dc.lft.to/lastmile_qr_scan"}, "name": "460e11ab34a9ad77b06fde71d7a33cab", "is_reserved": 0}, {"is_disabled": 0, "fusion_lon": 0.0, "fusion_lat": 0.0, "lat": 38.934381333333334, "type": "electric_scooter", "lon": -77.03245716666666, "bike_id": "bf616b06eb3182718309c33c0b5da69b", "rental_uris": {"android": "https://dc.lft.to/lastmile_qr_scan", "ios": "https://dc.lft.to/lastmile_qr_scan"}, "name": "bf616b06eb3182718309c33c0b5da69b", "is_reserved": 0}, {"is_disabled": 0, "fusion_lon": 0.0, "fusion_lat": 0.0, "lat": 38.8882485, "type": "electric_bike", "lon": -77.12743883333333, "bike_id": "d58c16bb74dcc9c5d105921d5ae62769", "rental_uris": {"android": "https://dc.lft.to/lastmile_qr_scan", "ios": "https://dc.lft.to/lastmile_qr_scan"}, "name": "d58c16bb74dcc9c5d105921d5ae62769", "is_reserved": 0}, {"is_disabled": 0, "fusion_lon": 0.0, "fusion_lat": 0.0, "lat": 38.9299955, "type": "electric_scooter", "lon": -77.03800833333334, "bike_id": "a673188788d4de29172384f472d4bf5d", "rental_uris": {"android": "https://dc.lft.to/lastmile_qr_scan", "ios": "https://dc.lft.to/lastmile_qr_scan"}, "name": "a673188788d4de29172384f472d4bf5d", "is_reserved": 0}, {"is_disabled": 0, "fusion_lon": 0.0, "fusion_lat": 0.0, "lat": 38.90065383333334, "type": "electric_scooter", "lon": -77.04911266666667, "bike_id": "a3a5770cfbf65e2a3e1ca9fed22f61b7", "rental_uris": {"android": "https://dc.lft.to/lastmile_qr_scan", "ios": "https://dc.lft.to/lastmile_qr_scan"}, "name": "a3a5770cfbf65e2a3e1ca9fed22f61b7", "is_reserved": 0}, {"is_disabled": 0, "fusion_lon": 0.0, "fusion_lat": 0.0, "lat": 38.990916166666665, "type": "electric_bike", "lon": -76.87497183333333, "bike_id": "145228b3e722195759c4b9510db40f6c", "rental_uris": {"android": "https://dc.lft.to/lastmile_qr_scan", "ios": "https://dc.lft.to/lastmile_qr_scan"}, "name": "145228b3e722195759c4b9510db40f6c", "is_reserved": 0}, {"is_disabled": 0, "fusion_lon": 0.0, "fusion_lat": 0.0, "lat": 38.9077215, "type": "electric_scooter", "lon": -77.03278166666666, "bike_id": "581d8526b607d62d7da2e0f47e821250", "rental_uris": {"android": "https://dc.lft.to/lastmile_qr_scan", "ios": "https://dc.lft.to/lastmile_qr_scan"}, "name": "581d8526b607d62d7da2e0f47e821250", "is_reserved": 0}, {"is_disabled": 0, "fusion_lon": 0.0, "fusion_lat": 0.0, "lat": 38.899211, "type": "electric_scooter", "lon": -77.0398625, "bike_id": "07e4cc3fca65eb72a4bcff0ed5d15c2f", "rental_uris": {"android": "https://dc.lft.to/lastmile_qr_scan", "ios": "https://dc.lft.to/lastmile_qr_scan"}, "name": "07e4cc3fca65eb72a4bcff0ed5d15c2f", "is_reserved": 0}, {"is_disabled": 0, "fusion_lon": 0.0, "fusion_lat": 0.0, "lat": 38.84618, "type": "electric_scooter", "lon": -76.99627483333333, "bike_id": "f130211a199174f1a6fcb4a17a9a8b34", "rental_uris": {"android": "https://dc.lft.to/lastmile_qr_scan", "ios": "https://dc.lft.to/lastmile_qr_scan"}, "name": "f130211a199174f1a6fcb4a17a9a8b34", "is_reserved": 0}, {"is_disabled": 0, "fusion_lon": 0.0, "fusion_lat": 0.0, "lat": 38.8652715, "type": "electric_scooter", "lon": -76.989698, "bike_id": "074c1c90d55cb2f63d3e014fa2872588", "rental_uris": {"android": "https://dc.lft.to/lastmile_qr_scan", "ios": "https://dc.lft.to/lastmile_qr_scan"}, "name": "074c1c90d55cb2f63d3e014fa2872588", "is_reserved": 0}, {"is_disabled": 0, "fusion_lon": 0.0, "fusion_lat": 0.0, "lat": 38.92440783333333, "type": "electric_scooter", "lon": -77.02609366666667, "bike_id": "ab6b53a4164c1f4c2836ab1aedc9c7cd", "rental_uris": {"android": "https://dc.lft.to/lastmile_qr_scan", "ios": "https://dc.lft.to/lastmile_qr_scan"}, "name": "ab6b53a4164c1f4c2836ab1aedc9c7cd", "is_reserved": 0}, {"is_disabled": 0, "fusion_lon": 0.0, "fusion_lat": 0.0, "lat": 38.918190333333335, "type": "electric_scooter", "lon": -77.03133083333333, "bike_id": "fbab626dfa2de83e2a5f91d2bdca5fa7", "rental_uris": {"android": "https://dc.lft.to/lastmile_qr_scan", "ios": "https://dc.lft.to/lastmile_qr_scan"}, "name": "fbab626dfa2de83e2a5f91d2bdca5fa7", "is_reserved": 0}, {"is_disabled": 0, "fusion_lon": 0.0, "fusion_lat": 0.0, "lat": 38.96027683333333, "type": "electric_scooter", "lon": -77.0331535, "bike_id": "e036f1f5ca46d1190e84ce4a5dcb125d", "rental_uris": {"android": "https://dc.lft.to/lastmile_qr_scan", "ios": "https://dc.lft.to/lastmile_qr_scan"}, "name": "e036f1f5ca46d1190e84ce4a5dcb125d", "is_reserved": 0}, {"is_disabled": 0, "fusion_lon": 0.0, "fusion_lat": 0.0, "lat": 38.927691333333335, "type": "electric_scooter", "lon": -77.0278725, "bike_id": "94c5969218fdc08bd228e331cdad6f33", "rental_uris": {"android": "https://dc.lft.to/lastmile_qr_scan", "ios": "https://dc.lft.to/lastmile_qr_scan"}, "name": "94c5969218fdc08bd228e331cdad6f33", "is_reserved": 0}, {"is_disabled": 0, "fusion_lon": 0.0, "fusion_lat": 0.0, "lat": 38.909543166666666, "type": "electric_scooter", "lon": -77.02185066666667, "bike_id": "539ed5f098de9f49ccdb81e188efb19a", "rental_uris": {"android": "https://dc.lft.to/lastmile_qr_scan", "ios": "https://dc.lft.to/lastmile_qr_scan"}, "name": "539ed5f098de9f49ccdb81e188efb19a", "is_reserved": 0}, {"is_disabled": 0, "fusion_lon": 0.0, "fusion_lat": 0.0, "lat": 38.88728, "type": "electric_scooter", "lon": -77.022035, "bike_id": "1f1e14dce0bf137edb4477cd86ab230b", "rental_uris": {"android": "https://dc.lft.to/lastmile_qr_scan", "ios": "https://dc.lft.to/lastmile_qr_scan"}, "name": "1f1e14dce0bf137edb4477cd86ab230b", "is_reserved": 0}, {"is_disabled": 0, "fusion_lon": 0.0, "fusion_lat": 0.0, "lat": 38.920366, "type": "electric_scooter", "lon": -77.0258585, "bike_id": "237d2afe1bf38f32b6f863c8b5f8730e", "rental_uris": {"android": "https://dc.lft.to/lastmile_qr_scan", "ios": "https://dc.lft.to/lastmile_qr_scan"}, "name": "237d2afe1bf38f32b6f863c8b5f8730e", "is_reserved": 0}, {"is_disabled": 0, "fusion_lon": 0.0, "fusion_lat": 0.0, "lat": 38.95629133333333, "type": "electric_scooter", "lon": -77.02461033333333, "bike_id": "b9f1704ab8ede3bf8e879b7dc48a2ddf", "rental_uris": {"android": "https://dc.lft.to/lastmile_qr_scan", "ios": "https://dc.lft.to/lastmile_qr_scan"}, "name": "b9f1704ab8ede3bf8e879b7dc48a2ddf", "is_reserved": 0}, {"is_disabled": 0, "fusion_lon": 0.0, "fusion_lat": 0.0, "lat": 38.918081, "type": "electric_scooter", "lon": -77.02691116666666, "bike_id": "d91a88a1eab55be2f123bf3f40811818", "rental_uris": {"android": "https://dc.lft.to/lastmile_qr_scan", "ios": "https://dc.lft.to/lastmile_qr_scan"}, "name": "d91a88a1eab55be2f123bf3f40811818", "is_reserved": 0}, {"is_disabled": 0, "fusion_lon": 0.0, "fusion_lat": 0.0, "lat": 38.92446283333334, "type": "electric_scooter", "lon": -77.04034266666666, "bike_id": "5a2f13439619065388688b9327af583e", "rental_uris": {"android": "https://dc.lft.to/lastmile_qr_scan", "ios": "https://dc.lft.to/lastmile_qr_scan"}, "name": "5a2f13439619065388688b9327af583e", "is_reserved": 0}, {"is_disabled": 0, "fusion_lon": 0.0, "fusion_lat": 0.0, "lat": 38.916008166666664, "type": "electric_scooter", "lon": -77.0234225, "bike_id": "ee25d50763190134e4fa2818f9bbbf98", "rental_uris": {"android": "https://dc.lft.to/lastmile_qr_scan", "ios": "https://dc.lft.to/lastmile_qr_scan"}, "name": "ee25d50763190134e4fa2818f9bbbf98", "is_reserved": 0}, {"is_disabled": 0, "fusion_lon": 0.0, "fusion_lat": 0.0, "lat": 38.916312, "type": "electric_scooter", "lon": -77.046254, "bike_id": "477968c44a0fbbd10d8244bfdaa22bc1", "rental_uris": {"android": "https://dc.lft.to/lastmile_qr_scan", "ios": "https://dc.lft.to/lastmile_qr_scan"}, "name": "477968c44a0fbbd10d8244bfdaa22bc1", "is_reserved": 0}, {"is_disabled": 0, "fusion_lon": 0.0, "fusion_lat": 0.0, "lat": 38.918092666666666, "type": "electric_scooter", "lon": -77.0244275, "bike_id": "a8f90f79299350a813697d8b60164cfd", "rental_uris": {"android": "https://dc.lft.to/lastmile_qr_scan", "ios": "https://dc.lft.to/lastmile_qr_scan"}, "name": "a8f90f79299350a813697d8b60164cfd", "is_reserved": 0}, {"is_disabled": 0, "fusion_lon": 0.0, "fusion_lat": 0.0, "lat": 38.90911833333333, "type": "electric_scooter", "lon": -77.00288983333333, "bike_id": "d11e6677f3a61b91ad092e5f2085f43b", "rental_uris": {"android": "https://dc.lft.to/lastmile_qr_scan", "ios": "https://dc.lft.to/lastmile_qr_scan"}, "name": "d11e6677f3a61b91ad092e5f2085f43b", "is_reserved": 0}, {"is_disabled": 0, "fusion_lon": 0.0, "fusion_lat": 0.0, "lat": 38.863493, "type": "electric_scooter", "lon": -76.982506, "bike_id": "d5f1e203b113f8cc44488480d65aa0db", "rental_uris": {"android": "https://dc.lft.to/lastmile_qr_scan", "ios": "https://dc.lft.to/lastmile_qr_scan"}, "name": "d5f1e203b113f8cc44488480d65aa0db", "is_reserved": 0}, {"is_disabled": 0, "fusion_lon": 0.0, "fusion_lat": 0.0, "lat": 38.922583333333336, "type": "electric_scooter", "lon": -77.0413115, "bike_id": "68ed748616580aef91d2d06dd095506a", "rental_uris": {"android": "https://dc.lft.to/lastmile_qr_scan", "ios": "https://dc.lft.to/lastmile_qr_scan"}, "name": "68ed748616580aef91d2d06dd095506a", "is_reserved": 0}, {"is_disabled": 0, "fusion_lon": 0.0, "fusion_lat": 0.0, "lat": 38.894820333333335, "type": "electric_bike", "lon": -76.99523066666667, "bike_id": "d9364428a7cf6708794e72b40c336257", "rental_uris": {"android": "https://dc.lft.to/lastmile_qr_scan", "ios": "https://dc.lft.to/lastmile_qr_scan"}, "name": "d9364428a7cf6708794e72b40c336257", "is_reserved": 0}, {"is_disabled": 0, "fusion_lon": 0.0, "fusion_lat": 0.0, "lat": 38.92582983333333, "type": "electric_scooter", "lon": -76.99495433333334, "bike_id": "61618db48d682c27070f905b91cd7046", "rental_uris": {"android": "https://dc.lft.to/lastmile_qr_scan", "ios": "https://dc.lft.to/lastmile_qr_scan"}, "name": "61618db48d682c27070f905b91cd7046", "is_reserved": 0}, {"is_disabled": 0, "fusion_lon": 0.0, "fusion_lat": 0.0, "lat": 38.937872166666665, "type": "electric_scooter", "lon": -77.01881383333334, "bike_id": "4d0b576af3e1d54fe46273916a70ebc4", "rental_uris": {"android": "https://dc.lft.to/lastmile_qr_scan", "ios": "https://dc.lft.to/lastmile_qr_scan"}, "name": "4d0b576af3e1d54fe46273916a70ebc4", "is_reserved": 0}, {"is_disabled": 0, "fusion_lon": 0.0, "fusion_lat": 0.0, "lat": 38.96119933333333, "type": "electric_scooter", "lon": -77.08512166666667, "bike_id": "95507491dc8bdff20412c320f463f773", "rental_uris": {"android": "https://dc.lft.to/lastmile_qr_scan", "ios": "https://dc.lft.to/lastmile_qr_scan"}, "name": "95507491dc8bdff20412c320f463f773", "is_reserved": 0}, {"is_disabled": 0, "fusion_lon": 0.0, "fusion_lat": 0.0, "lat": 38.922206, "type": "electric_scooter", "lon": -77.03290283333334, "bike_id": "d3cb2138db5b727b9491c3d18e5414ce", "rental_uris": {"android": "https://dc.lft.to/lastmile_qr_scan", "ios": "https://dc.lft.to/lastmile_qr_scan"}, "name": "d3cb2138db5b727b9491c3d18e5414ce", "is_reserved": 0}, {"is_disabled": 0, "fusion_lon": 0.0, "fusion_lat": 0.0, "lat": 38.887489, "type": "electric_scooter", "lon": -77.0154165, "bike_id": "b6b1d3b11a83e33a11ea02629c403c0f", "rental_uris": {"android": "https://dc.lft.to/lastmile_qr_scan", "ios": "https://dc.lft.to/lastmile_qr_scan"}, "name": "b6b1d3b11a83e33a11ea02629c403c0f", "is_reserved": 0}, {"is_disabled": 0, "fusion_lon": 0.0, "fusion_lat": 0.0, "lat": 38.9162735, "type": "electric_scooter", "lon": -77.04867116666667, "bike_id": "594a7364bd400e167595f633c699c82d", "rental_uris": {"android": "https://dc.lft.to/lastmile_qr_scan", "ios": "https://dc.lft.to/lastmile_qr_scan"}, "name": "594a7364bd400e167595f633c699c82d", "is_reserved": 0}, {"is_disabled": 0, "fusion_lon": 0.0, "fusion_lat": 0.0, "lat": 38.8956655, "type": "electric_bike", "lon": -77.12742166666666, "bike_id": "497608aa9371f2cdbde997dd535aa791", "rental_uris": {"android": "https://dc.lft.to/lastmile_qr_scan", "ios": "https://dc.lft.to/lastmile_qr_scan"}, "name": "497608aa9371f2cdbde997dd535aa791", "is_reserved": 0}, {"is_disabled": 0, "fusion_lon": 0.0, "fusion_lat": 0.0, "lat": 38.90569933333333, "type": "electric_scooter", "lon": -77.034774, "bike_id": "17a46c661fc5267447b3979dfd592dec", "rental_uris": {"android": "https://dc.lft.to/lastmile_qr_scan", "ios": "https://dc.lft.to/lastmile_qr_scan"}, "name": "17a46c661fc5267447b3979dfd592dec", "is_reserved": 0}, {"is_disabled": 0, "fusion_lon": 0.0, "fusion_lat": 0.0, "lat": 38.9215705, "type": "electric_scooter", "lon": -77.03408183333333, "bike_id": "3d60ffd8a0fadbab03162d7ef581103b", "rental_uris": {"android": "https://dc.lft.to/lastmile_qr_scan", "ios": "https://dc.lft.to/lastmile_qr_scan"}, "name": "3d60ffd8a0fadbab03162d7ef581103b", "is_reserved": 0}, {"is_disabled": 0, "fusion_lon": 0.0, "fusion_lat": 0.0, "lat": 38.903979666666665, "type": "electric_scooter", "lon": -77.01751066666667, "bike_id": "086106a1a62e794829fec5bb2c264c6d", "rental_uris": {"android": "https://dc.lft.to/lastmile_qr_scan", "ios": "https://dc.lft.to/lastmile_qr_scan"}, "name": "086106a1a62e794829fec5bb2c264c6d", "is_reserved": 0}, {"is_disabled": 0, "fusion_lon": 0.0, "fusion_lat": 0.0, "lat": 38.90768683333334, "type": "electric_scooter", "lon": -77.0318175, "bike_id": "3507d6d14a5acf1b55d725ed99044be9", "rental_uris": {"android": "https://dc.lft.to/lastmile_qr_scan", "ios": "https://dc.lft.to/lastmile_qr_scan"}, "name": "3507d6d14a5acf1b55d725ed99044be9", "is_reserved": 0}, {"is_disabled": 0, "fusion_lon": 0.0, "fusion_lat": 0.0, "lat": 38.90268, "type": "electric_scooter", "lon": -77.05326366666667, "bike_id": "3cd159d6dcb537c10082c2c2f300bbcb", "rental_uris": {"android": "https://dc.lft.to/lastmile_qr_scan", "ios": "https://dc.lft.to/lastmile_qr_scan"}, "name": "3cd159d6dcb537c10082c2c2f300bbcb", "is_reserved": 0}, {"is_disabled": 0, "fusion_lon": 0.0, "fusion_lat": 0.0, "lat": 38.88475916666667, "type": "electric_scooter", "lon": -76.9297175, "bike_id": "04c0eb6729b672cbff34a7337dcf30d1", "rental_uris": {"android": "https://dc.lft.to/lastmile_qr_scan", "ios": "https://dc.lft.to/lastmile_qr_scan"}, "name": "04c0eb6729b672cbff34a7337dcf30d1", "is_reserved": 0}, {"is_disabled": 0, "fusion_lon": 0.0, "fusion_lat": 0.0, "lat": 38.911279, "type": "electric_scooter", "lon": -77.0594105, "bike_id": "9d3c32c8364193baae588f7f4ffb4238", "rental_uris": {"android": "https://dc.lft.to/lastmile_qr_scan", "ios": "https://dc.lft.to/lastmile_qr_scan"},