{"data": {"bikes": [{"bike_id": "2c04ed764ff6ae70ecd1d571ca79199f", "name": "2c04ed764ff6ae70ecd1d571ca79199f", "lat": 39.07465116666667, "fusion_lat": 0.0, "type": "electric_bike", "lon": -77.1151165, "is_disabled": 0, "fusion_lon": 0.0, "rental_uris": {"android": "https://dc.lft.to/lastmile_qr_scan", "ios": "https://dc.lft.to/lastmile_qr_scan"}, "is_reserved": 0}, {"bike_id": "9b4a06bd4ff66fa9cb7de71e6c020eba", "name": "9b4a06bd4ff66fa9cb7de71e6c020eba", "lat": 38.9213335, "fusion_lat": 0.0, "type": "electric_scooter", "lon": -77.018015, "is_disabled": 0, "fusion_lon": 0.0, "rental_uris": {"android": "https://dc.lft.to/lastmile_qr_scan", "ios": "https://dc.lft.to/lastmile_qr_scan"}, "is_reserved": 0}, {"bike_id": "d742adb364c884f3b97865207a582995", "name": "d742adb364c884f3b97865207a582995", "lat": 38.896916, "fusion_lat": 0.0, "type": "electric_scooter", "lon": -77.03361783333334, "is_disabled": 0, "fusion_lon": 0.0, "rental_uris": {"android": "https://dc.lft.to/lastmile_qr_scan", "ios": "https://dc.lft.to/lastmile_qr_scan"}, "is_reserved": 0}, {"bike_id": "0bd43b502b77c5576997fcf99d70933a", "name": "0bd43b502b77c5576997fcf99d70933a", "lat": 38.937448333333336, "fusion_lat": 0.0, "type": "electric_scooter", "lon": -77.02449083333333, "is_disabled": 0, "fusion_lon": 0.0, "rental_uris": {"android": "https://dc.lft.to/lastmile_qr_scan", "ios": "https://dc.lft.to/lastmile_qr_scan"}, "is_reserved": 0}, {"bike_id": "373697c7bcc7c5802b0e35637e573138", "name": "373697c7bcc7c5802b0e35637e573138", "lat": 38.926412166666665, "fusion_lat": 0.0, "type": "electric_scooter", "lon": -77.0251455, "is_disabled": 0, "fusion_lon": 0.0, "rental_uris": {"android": "https://dc.lft.to/lastmile_qr_scan", "ios": "https://dc.lft.to/lastmile_qr_scan"}, "is_reserved": 0}, {"bike_id": "d2d0d66a71df8a818a0638e061662549", "name": "d2d0d66a71df8a818a0638e061662549", "lat": 38.906590666666666, "fusion_lat": 0.0, "type": "electric_scooter", "lon": -77.02809033333334, "is_disabled": 0, "fusion_lon": 0.0, "rental_uris": {"android": "https://dc.lft.to/lastmile_qr_scan", "ios": "https://dc.lft.to/lastmile_qr_scan"}, "is_reserved": 0}, {"bike_id": "989c7806a102206e190b92f71c74e447", "name": "989c7806a102206e190b92f71c74e447", "lat": 38.92741783333334, "fusion_lat": 0.0, "type": "electric_scooter", "lon": -77.03560866666666, "is_disabled": 0, "fusion_lon": 0.0, "rental_uris": {"android": "https://dc.lft.to/lastmile_qr_scan", "ios": "https://dc.lft.to/lastmile_qr_scan"}, "is_reserved": 0}, {"bike_id": "57a52197db32e6e1506b9a540b3d434a", "name": "57a52197db32e6e1506b9a540b3d434a", "lat": 38.915493, "fusion_lat": 0.0, "type": "electric_scooter", "lon": -77.01413816666667, "is_disabled": 0, "fusion_lon": 0.0, "rental_uris": {"android": "https://dc.lft.to/lastmile_qr_scan", "ios": "https://dc.lft.to/lastmile_qr_scan"}, "is_reserved": 0}, {"bike_id": "5f39a63289c2b6b01967b82208275308", "name": "5f39a63289c2b6b01967b82208275308", "lat": 38.921080833333335, "fusion_lat": 0.0, "type": "electric_scooter", "lon": -77.04164283333333, "is_disabled": 0, "fusion_lon": 0.0, "rental_uris": {"android": "https://dc.lft.to/lastmile_qr_scan", "ios": "https://dc.lft.to/lastmile_qr_scan"}, "is_reserved": 0}, {"bike_id": "8c0456b732fabbf8cedc21ea59e6872f", "name": "8c0456b732fabbf8cedc21ea59e6872f", "lat": 38.911182, "fusion_lat": 0.0, "type": "electric_scooter", "lon": -77.04413233333334, "is_disabled": 0, "fusion_lon": 0.0, "rental_uris": {"android": "https://dc.lft.to/lastmile_qr_scan", "ios": "https://dc.lft.to/lastmile_qr_scan"}, "is_reserved": 0}, {"bike_id": "57b149cda8ede85e64950cc57e788032", "name": "57b149cda8ede85e64950cc57e788032", "lat": 38.926668, "fusion_lat": 0.0, "type": "electric_scooter", "lon": -77.02757216666667, "is_disabled": 0, "fusion_lon": 0.0, "rental_uris": {"android": "https://dc.lft.to/lastmile_qr_scan", "ios": "https://dc.lft.to/lastmile_qr_scan"}, "is_reserved": 0}, {"bike_id": "c7900ba483b7f36a34960de814cb974f", "name": "c7900ba483b7f36a34960de814cb974f", "lat": 38.974978, "fusion_lat": 0.0, "type": "electric_scooter", "lon": -77.0170065, "is_disabled": 0, "fusion_lon": 0.0, "rental_uris": {"android": "https://dc.lft.to/lastmile_qr_scan", "ios": "https://dc.lft.to/lastmile_qr_scan"}, "is_reserved": 0}, {"bike_id": "5fec7dc007dcf5ed70c45799fb8ea0f2", "name": "5fec7dc007dcf5ed70c45799fb8ea0f2", "lat": 38.905766, "fusion_lat": 0.0, "type": "electric_scooter", "lon": -77.04196016666667, "is_disabled": 0, "fusion_lon": 0.0, "rental_uris": {"android": "https://dc.lft.to/lastmile_qr_scan", "ios": "https://dc.lft.to/lastmile_qr_scan"}, "is_reserved": 0}, {"bike_id": "a1fbfd44a3bbfe3933210a527f9449d4", "name": "a1fbfd44a3bbfe3933210a527f9449d4", "lat": 38.9133415, "fusion_lat": 0.0, "type": "electric_scooter", "lon": -77.048049, "is_disabled": 0, "fusion_lon": 0.0, "rental_uris": {"android": "https://dc.lft.to/lastmile_qr_scan", "ios": "https://dc.lft.to/lastmile_qr_scan"}, "is_reserved": 0}, {"bike_id": "69958e71eff0be03e25891f198f75ce0", "name": "69958e71eff0be03e25891f198f75ce0", "lat": 38.93181533333333, "fusion_lat": 0.0, "type": "electric_scooter", "lon": -77.02352766666667, "is_disabled": 0, "fusion_lon": 0.0, "rental_uris": {"android": "https://dc.lft.to/lastmile_qr_scan", "ios": "https://dc.lft.to/lastmile_qr_scan"}, "is_reserved": 0}, {"bike_id": "fe8f25cebedefd020a23e9c178715de3", "name": "fe8f25cebedefd020a23e9c178715de3", "lat": 38.914045, "fusion_lat": 0.0, "type": "electric_scooter", "lon": -77.03218816666667, "is_disabled": 0, "fusion_lon": 0.0, "rental_uris": {"android": "https://dc.lft.to/lastmile_qr_scan", "ios": "https://dc.lft.to/lastmile_qr_scan"}, "is_reserved": 0}, {"bike_id": "9893432b60312e479be5c84d7dfddca7", "name": "9893432b60312e479be5c84d7dfddca7", "lat": 38.89613083333333, "fusion_lat": 0.0, "type": "electric_scooter", "lon": -77.04477516666667, "is_disabled": 0, "fusion_lon": 0.0, "rental_uris": {"android": "https://dc.lft.to/lastmile_qr_scan", "ios": "https://dc.lft.to/lastmile_qr_scan"}, "is_reserved": 0}, {"bike_id": "d9dd6cb5e0390ec82fed6984bffd06ac", "name": "d9dd6cb5e0390ec82fed6984bffd06ac", "lat": 38.9232995, "fusion_lat": 0.0, "type": "electric_scooter", "lon": -77.0366175, "is_disabled": 0, "fusion_lon": 0.0, "rental_uris": {"android": "https://dc.lft.to/lastmile_qr_scan", "ios": "https://dc.lft.to/lastmile_qr_scan"}, "is_reserved": 0}, {"bike_id": "1782ecbdb9997b5e148a9901d62b853e", "name": "1782ecbdb9997b5e148a9901d62b853e", "lat": 38.887858666666666, "fusion_lat": 0.0, "type": "electric_bike", "lon": -76.92343966666667, "is_disabled": 0, "fusion_lon": 0.0, "rental_uris": {"android": "https://dc.lft.to/lastmile_qr_scan", "ios": "https://dc.lft.to/lastmile_qr_scan"}, "is_reserved": 0}, {"bike_id": "211adb794508b180702c1aaac548fbed", "name": "211adb794508b180702c1aaac548fbed", "lat": 38.902739833333335, "fusion_lat": 0.0, "type": "electric_scooter", "lon": -77.04756383333333, "is_disabled": 0, "fusion_lon": 0.0, "rental_uris": {"android": "https://dc.lft.to/lastmile_qr_scan", "ios": "https://dc.lft.to/lastmile_qr_scan"}, "is_reserved": 0}, {"bike_id": "96894f1c8666a6fa38ed9c4020ec5e3a", "name": "96894f1c8666a6fa38ed9c4020ec5e3a", "lat": 38.898565166666664, "fusion_lat": 0.0, "type": "electric_scooter", "lon": -77.02949966666667, "is_disabled": 0, "fusion_lon": 0.0, "rental_uris": {"android": "https://dc.lft.to/lastmile_qr_scan", "ios": "https://dc.lft.to/lastmile_qr_scan"}, "is_reserved": 0}, {"bike_id": "1b77c5d2abec1589ee70b69c61d4ad31", "name": "1b77c5d2abec1589ee70b69c61d4ad31", "lat": 38.902532666666666, "fusion_lat": 0.0, "type": "electric_scooter", "lon": -77.0022045, "is_disabled": 0, "fusion_lon": 0.0, "rental_uris": {"android": "https://dc.lft.to/lastmile_qr_scan", "ios": "https://dc.lft.to/lastmile_qr_scan"}, "is_reserved": 0}, {"bike_id": "0e4ff130cc0b39ab3f03f5cfb83c7b8e", "name": "0e4ff130cc0b39ab3f03f5cfb83c7b8e", "lat": 38.9095245, "fusion_lat": 0.0, "type": "electric_scooter", "lon": -77.03641483333334, "is_disabled": 0, "fusion_lon": 0.0, "rental_uris": {"android": "https://dc.lft.to/lastmile_qr_scan", "ios": "https://dc.lft.to/lastmile_qr_scan"}, "is_reserved": 0}, {"bike_id": "1ea43e7219a4f3a0ed19f24708ab1b6d", "name": "1ea43e7219a4f3a0ed19f24708ab1b6d", "lat": 38.901681833333335, "fusion_lat": 0.0, "type": "electric_scooter", "lon": -76.93025616666667, "is_disabled": 0, "fusion_lon": 0.0, "rental_uris": {"android": "https://dc.lft.to/lastmile_qr_scan", "ios": "https://dc.lft.to/lastmile_qr_scan"}, "is_reserved": 0}, {"bike_id": "28206944cbc8d74d430467c1ec07f51a", "name": "28206944cbc8d74d430467c1ec07f51a", "lat": 38.91301683333333, "fusion_lat": 0.0, "type": "electric_scooter", "lon": -77.026971, "is_disabled": 0, "fusion_lon": 0.0, "rental_uris": {"android": "https://dc.lft.to/lastmile_qr_scan", "ios": "https://dc.lft.to/lastmile_qr_scan"}, "is_reserved": 0}, {"bike_id": "f15ab374e45d14f07e8969119d101795", "name": "f15ab374e45d14f07e8969119d101795", "lat": 38.80732316666667, "fusion_lat": 0.0, "type": "electric_bike", "lon": -76.99257783333333, "is_disabled": 0, "fusion_lon": 0.0, "rental_uris": {"android": "https://dc.lft.to/lastmile_qr_scan", "ios": "https://dc.lft.to/lastmile_qr_scan"}, "is_reserved": 0}, {"bike_id": "27f424645e83a8fa5c53e6c0c24620c3", "name": "27f424645e83a8fa5c53e6c0c24620c3", "lat": 38.88836366666666, "fusion_lat": 0.0, "type": "electric_bike", "lon": -76.957501, "is_disabled": 0, "fusion_lon": 0.0, "rental_uris": {"android": "https://dc.lft.to/lastmile_qr_scan", "ios": "https://dc.lft.to/lastmile_qr_scan"}, "is_reserved": 0}, {"bike_id": "6c4a613204793c15a1be7a73a670ace2", "name": "6c4a613204793c15a1be7a73a670ace2", "lat": 38.91881033333333, "fusion_lat": 0.0, "type": "electric_scooter", "lon": -77.02706583333334, "is_disabled": 0, "fusion_lon": 0.0, "rental_uris": {"android": "https://dc.lft.to/lastmile_qr_scan", "ios": "https://dc.lft.to/lastmile_qr_scan"}, "is_reserved": 0}, {"bike_id": "7f74542608b2835b425cdf589bf55064", "name": "7f74542608b2835b425cdf589bf55064", "lat": 38.909840833333334, "fusion_lat": 0.0, "type": "electric_scooter", "lon": -77.0320195, "is_disabled": 0, "fusion_lon": 0.0, "rental_uris": {"android": "https://dc.lft.to/lastmile_qr_scan", "ios": "https://dc.lft.to/lastmile_qr_scan"}, "is_reserved": 0}, {"bike_id": "0c0d39da32cd398740ffbdc97665d738", "name": "0c0d39da32cd398740ffbdc97665d738", "lat": 38.892259833333334, "fusion_lat": 0.0, "type": "electric_scooter", "lon": -77.05008566666666, "is_disabled": 0, "fusion_lon": 0.0, "rental_uris": {"android": "https://dc.lft.to/lastmile_qr_scan", "ios": "https://dc.lft.to/lastmile_qr_scan"}, "is_reserved": 0}, {"bike_id": "51e81ecf2e4578848d3abea9c1169a89", "name": "51e81ecf2e4578848d3abea9c1169a89", "lat": 38.9160745, "fusion_lat": 0.0, "type": "electric_scooter", "lon": -77.022866, "is_disabled": 0, "fusion_lon": 0.0, "rental_uris": {"android": "https://dc.lft.to/lastmile_qr_scan", "ios": "https://dc.lft.to/lastmile_qr_scan"}, "is_reserved": 0}, {"bike_id": "89871826a6b38041b3d98e1c926be265", "name": "89871826a6b38041b3d98e1c926be265", "lat": 38.88604633333333, "fusion_lat": 0.0, "type": "electric_scooter", "lon": -77.045102, "is_disabled": 0, "fusion_lon": 0.0, "rental_uris": {"android": "https://dc.lft.to/lastmile_qr_scan", "ios": "https://dc.lft.to/lastmile_qr_scan"}, "is_reserved": 0}, {"bike_id": "450a1e8119415942b6144c1800b582b8", "name": "450a1e8119415942b6144c1800b582b8", "lat": 38.9359585, "fusion_lat": 0.0, "type": "electric_scooter", "lon": -77.05868133333334, "is_disabled": 0, "fusion_lon": 0.0, "rental_uris": {"android": "https://dc.lft.to/lastmile_qr_scan", "ios": "https://dc.lft.to/lastmile_qr_scan"}, "is_reserved": 0}, {"bike_id": "c9074b2f2b40f95fd34c6af8e374ef1a", "name": "c9074b2f2b40f95fd34c6af8e374ef1a", "lat": 38.950983666666666, "fusion_lat": 0.0, "type": "electric_scooter", "lon": -77.01882666666667, "is_disabled": 0, "fusion_lon": 0.0, "rental_uris": {"android": "https://dc.lft.to/lastmile_qr_scan", "ios": "https://dc.lft.to/lastmile_qr_scan"}, "is_reserved": 0}, {"bike_id": "be86cc8876719f687ac9a03cd80b3e5f", "name": "be86cc8876719f687ac9a03cd80b3e5f", "lat": 38.91353566666667, "fusion_lat": 0.0, "type": "electric_scooter", "lon": -77.0417425, "is_disabled": 0, "fusion_lon": 0.0, "rental_uris": {"android": "https://dc.lft.to/lastmile_qr_scan", "ios": "https://dc.lft.to/lastmile_qr_scan"}, "is_reserved": 0}, {"bike_id": "ccb69769d0e71bf3ebe3e3b4038468b6", "name": "ccb69769d0e71bf3ebe3e3b4038468b6", "lat": 38.92493566666667, "fusion_lat": 0.0, "type": "electric_scooter", "lon": -77.02443166666667, "is_disabled": 0, "fusion_lon": 0.0, "rental_uris": {"android": "https://dc.lft.to/lastmile_qr_scan", "ios": "https://dc.lft.to/lastmile_qr_scan"}, "is_reserved": 0}, {"bike_id": "f7db074d65799576a366dd30dba099fe", "name": "f7db074d65799576a366dd30dba099fe", "lat": 38.893558666666664, "fusion_lat": 0.0, "type": "electric_scooter", "lon": -77.03209933333333, "is_disabled": 0, "fusion_lon": 0.0, "rental_uris": {"android": "https://dc.lft.to/lastmile_qr_scan", "ios": "https://dc.lft.to/lastmile_qr_scan"}, "is_reserved": 0}, {"bike_id": "5906719d044d7bdde66235a9b4c23dbb", "name": "5906719d044d7bdde66235a9b4c23dbb", "lat": 38.899666833333335, "fusion_lat": 0.0, "type": "electric_scooter", "lon": -77.025924, "is_disabled": 0, "fusion_lon": 0.0, "rental_uris": {"android": "https://dc.lft.to/lastmile_qr_scan", "ios": "https://dc.lft.to/lastmile_qr_scan"}, "is_reserved": 0}, {"bike_id": "1e5b1c327c14d18e08aaebe82b0c24a0", "name": "1e5b1c327c14d18e08aaebe82b0c24a0", "lat": 38.902145166666664, "fusion_lat": 0.0, "type": "electric_scooter", "lon": -77.02368483333333, "is_disabled": 0, "fusion_lon": 0.0, "rental_uris": {"android": "https://dc.lft.to/lastmile_qr_scan", "ios": "https://dc.lft.to/lastmile_qr_scan"}, "is_reserved": 0}, {"bike_id": "b1dc028546c7515714ebcda5c3731634", "name": "b1dc028546c7515714ebcda5c3731634", "lat": 38.90874816666667, "fusion_lat": 0.0, "type": "electric_scooter", "lon": -77.02345816666667, "is_disabled": 0, "fusion_lon": 0.0, "rental_uris": {"android": "https://dc.lft.to/lastmile_qr_scan", "ios": "https://dc.lft.to/lastmile_qr_scan"}, "is_reserved": 0}, {"bike_id": "2e39fea3e5afdffb9b2e7d93d5dfa79d", "name": "2e39fea3e5afdffb9b2e7d93d5dfa79d", "lat": 38.9197905, "fusion_lat": 0.0, "type": "electric_scooter", "lon": -77.02181916666666, "is_disabled": 0, "fusion_lon": 0.0, "rental_uris": {"android": "https://dc.lft.to/lastmile_qr_scan", "ios": "https://dc.lft.to/lastmile_qr_scan"}, "is_reserved": 0}, {"bike_id": "688023036e2a0dc9f8d8f45c964c3b0a", "name": "688023036e2a0dc9f8d8f45c964c3b0a", "lat": 38.898029333333334, "fusion_lat": 0.0, "type": "electric_scooter", "lon": -77.02709216666666, "is_disabled": 0, "fusion_lon": 0.0, "rental_uris": {"android": "https://dc.lft.to/lastmile_qr_scan", "ios": "https://dc.lft.to/lastmile_qr_scan"}, "is_reserved": 0}, {"bike_id": "a16a7fbf2234e0e3031949d9274de154", "name": "a16a7fbf2234e0e3031949d9274de154", "lat": 38.90193633333333, "fusion_lat": 0.0, "type": "electric_scooter", "lon": -77.021941, "is_disabled": 0, "fusion_lon": 0.0, "rental_uris": {"android": "https://dc.lft.to/lastmile_qr_scan", "ios": "https://dc.lft.to/lastmile_qr_scan"}, "is_reserved": 0}, {"bike_id": "65d62c98b2366ae944ce428912b94fe1", "name": "65d62c98b2366ae944ce428912b94fe1", "lat": 38.92481216666667, "fusion_lat": 0.0, "type": "electric_scooter", "lon": -77.03192666666666, "is_disabled": 0, "fusion_lon": 0.0, "rental_uris": {"android": "https://dc.lft.to/lastmile_qr_scan", "ios": "https://dc.lft.to/lastmile_qr_scan"}, "is_reserved": 0}, {"bike_id": "74bb49c2a300f3fd12c964e1ff2312cf", "name": "74bb49c2a300f3fd12c964e1ff2312cf", "lat": 38.90582883333333, "fusion_lat": 0.0, "type": "electric_scooter", "lon": -77.0422425, "is_disabled": 0, "fusion_lon": 0.0, "rental_uris": {"android": "https://dc.lft.to/lastmile_qr_scan", "ios": "https://dc.lft.to/lastmile_qr_scan"}, "is_reserved": 0}, {"bike_id": "d8e149e80ac84378ad02ccf59dba1e6f", "name": "d8e149e80ac84378ad02ccf59dba1e6f", "lat": 38.917164166666666, "fusion_lat": 0.0, "type": "electric_scooter", "lon": -77.02975716666667, "is_disabled": 0, "fusion_lon": 0.0, "rental_uris": {"android": "https://dc.lft.to/lastmile_qr_scan", "ios": "https://dc.lft.to/lastmile_qr_scan"}, "is_reserved": 0}, {"bike_id": "ea3712e40dd30cdc2d8c14e2c9eaae2b", "name": "ea3712e40dd30cdc2d8c14e2c9eaae2b", "lat": 38.874871666666664, "fusion_lat": 0.0, "type": "electric_scooter", "lon": -76.9997685, "is_disabled": 0, "fusion_lon": 0.0, "rental_uris": {"android": "https://dc.lft.to/lastmile_qr_scan", "ios": "https://dc.lft.to/lastmile_qr_scan"}, "is_reserved": 0}, {"bike_id": "8d0b71be7ca883cfb1c7536aacbfe4d8", "name": "8d0b71be7ca883cfb1c7536aacbfe4d8", "lat": 38.997150833333336, "fusion_lat": 0.0, "type": "electric_bike", "lon": -77.0274515, "is_disabled": 0, "fusion_lon": 0.0, "rental_uris": {"android": "https://dc.lft.to/lastmile_qr_scan", "ios": "https://dc.lft.to/lastmile_qr_scan"}, "is_reserved": 0}, {"bike_id": "a2fd05d2f8808b5b511791355cc82b2b", "name": "a2fd05d2f8808b5b511791355cc82b2b", "lat": 38.8998975, "fusion_lat": 0.0, "type": "electric_scooter", "lon": -77.031064, "is_disabled": 0, "fusion_lon": 0.0, "rental_uris": {"android": "https://dc.lft.to/lastmile_qr_scan", "ios": "https://dc.lft.to/lastmile_qr_scan"}, "is_reserved": 0}, {"bike_id": "658bf23c66511322aa555a22bf2212c0", "name": "658bf23c66511322aa555a22bf2212c0", "lat": 38.954661333333334, "fusion_lat": 0.0, "type": "electric_scooter", "lon": -77.077692, "is_disabled": 0, "fusion_lon": 0.0, "rental_uris": {"android": "https://dc.lft.to/lastmile_qr_scan", "ios": "https://dc.lft.to/lastmile_qr_scan"}, "is_reserved": 0}, {"bike_id": "ba0312961435cce379d1247557e86996", "name": "ba0312961435cce379d1247557e86996", "lat": 38.894345666666666, "fusion_lat": 0.0, "type": "electric_scooter", "lon": -77.020397, "is_disabled": 0, "fusion_lon": 0.0, "rental_uris": {"android": "https://dc.lft.to/lastmile_qr_scan", "ios": "https://dc.lft.to/lastmile_qr_scan"}, "is_reserved": 0}, {"bike_id": "dfb1068d7f5e048d4e7e654bfca89d48", "name": "dfb1068d7f5e048d4e7e654bfca89d48", "lat": 38.915585, "fusion_lat": 0.0, "type": "electric_scooter", "lon": -77.03252, "is_disabled": 0, "fusion_lon": 0.0, "rental_uris": {"android": "https://dc.lft.to/lastmile_qr_scan", "ios": "https://dc.lft.to/lastmile_qr_scan"}, "is_reserved": 0}, {"bike_id": "ed456af95a6e84c4dc46a50558ad59c0", "name": "ed456af95a6e84c4dc46a50558ad59c0", "lat": 38.90497966666667, "fusion_lat": 0.0, "type": "electric_scooter", "lon": -77.0296455, "is_disabled": 0, "fusion_lon": 0.0, "rental_uris": {"android": "https://dc.lft.to/lastmile_qr_scan", "ios": "https://dc.lft.to/lastmile_qr_scan"}, "is_reserved": 0}, {"bike_id": "630ec97bcd56a83fe8adabbd033deadf", "name": "630ec97bcd56a83fe8adabbd033deadf", "lat": 38.91695283333333, "fusion_lat": 0.0, "type": "electric_scooter", "lon": -77.03813766666667, "is_disabled": 0, "fusion_lon": 0.0, "rental_uris": {"android": "https://dc.lft.to/lastmile_qr_scan", "ios": "https://dc.lft.to/lastmile_qr_scan"}, "is_reserved": 0}, {"bike_id": "f0737f9afa637aef245239ba6045b5e2", "name": "f0737f9afa637aef245239ba6045b5e2", "lat": 38.898733166666666, "fusion_lat": 0.0, "type": "electric_scooter", "lon": -76.93404283333334, "is_disabled": 0, "fusion_lon": 0.0, "rental_uris": {"android": "https://dc.lft.to/lastmile_qr_scan", "ios": "https://dc.lft.to/lastmile_qr_scan"}, "is_reserved": 0}, {"bike_id": "5a6ff14c74f4d98fcb1afb2d715b1dc4", "name": "5a6ff14c74f4d98fcb1afb2d715b1dc4", "lat": 38.962126833333336, "fusion_lat": 0.0, "type": "electric_bike", "lon": -77.0738915, "is_disabled": 0, "fusion_lon": 0.0, "rental_uris": {"android": "https://dc.lft.to/lastmile_qr_scan", "ios": "https://dc.lft.to/lastmile_qr_scan"}, "is_reserved": 0}, {"bike_id": "64ea8fab1cea8f2138918f892bf79429", "name": "64ea8fab1cea8f2138918f892bf79429", "lat": 38.8836945, "fusion_lat": 0.0, "type": "electric_scooter", "lon": -76.92420616666666, "is_disabled": 0, "fusion_lon": 0.0, "rental_uris": {"android": "https://dc.lft.to/lastmile_qr_scan", "ios": "https://dc.lft.to/lastmile_qr_scan"}, "is_reserved": 0}, {"bike_id": "16c887cbe61751b96e48e80b77faf59d", "name": "16c887cbe61751b96e48e80b77faf59d", "lat": 38.91600666666667, "fusion_lat": 0.0, "type": "electric_scooter", "lon": -77.03201233333333, "is_disabled": 0, "fusion_lon": 0.0, "rental_uris": {"android": "https://dc.lft.to/lastmile_qr_scan", "ios": "https://dc.lft.to/lastmile_qr_scan"}, "is_reserved": 0}, {"bike_id": "5d264a850833fb43c10ee621f13d3f2b", "name": "5d264a850833fb43c10ee621f13d3f2b", "lat": 38.917139, "fusion_lat": 0.0, "type": "electric_scooter", "lon": -77.02977316666667, "is_disabled": 0, "fusion_lon": 0.0, "rental_uris": {"android": "https://dc.lft.to/lastmile_qr_scan", "ios": "https://dc.lft.to/lastmile_qr_scan"}, "is_reserved": 0}, {"bike_id": "ce32bfdc20e11d58d248265363b81921", "name": "ce32bfdc20e11d58d248265363b81921", "lat": 38.90006116666667, "fusion_lat": 0.0, "type": "electric_scooter", "lon": -77.04666016666667, "is_disabled": 0, "fusion_lon": 0.0, "rental_uris": {"android": "https://dc.lft.to/lastmile_qr_scan", "ios": "https://dc.lft.to/lastmile_qr_scan"}, "is_reserved": 0}, {"bike_id": "928a29e0958677b927abbb4d2a98924e", "name": "928a29e0958677b927abbb4d2a98924e", "lat": 38.899666333333336, "fusion_lat": 0.0, "type": "electric_scooter", "lon": -76.938549, "is_disabled": 0, "fusion_lon": 0.0, "rental_uris": {"android": "https://dc.lft.to/lastmile_qr_scan", "ios": "https://dc.lft.to/lastmile_qr_scan"}, "is_reserved": 0}, {"bike_id": "1ff0e150d8995d8a8b2ed668f3a68a9c", "name": "1ff0e150d8995d8a8b2ed668f3a68a9c", "lat": 38.92038983333333, "fusion_lat": 0.0, "type": "electric_scooter", "lon": -77.0341595, "is_disabled": 0, "fusion_lon": 0.0, "rental_uris": {"android": "https://dc.lft.to/lastmile_qr_scan", "ios": "https://dc.lft.to/lastmile_qr_scan"}, "is_reserved": 0}, {"bike_id": "5488c9bf4cb6f836951addbbc8c72d54", "name": "5488c9bf4cb6f836951addbbc8c72d54", "lat": 38.92255933333333, "fusion_lat": 0.0, "type": "electric_scooter", "lon": -77.0469595, "is_disabled": 0, "fusion_lon": 0.0, "rental_uris": {"android": "https://dc.lft.to/lastmile_qr_scan", "ios": "https://dc.lft.to/lastmile_qr_scan"}, "is_reserved": 0}, {"bike_id": "0dbc9a35986097a4fecb946473751339", "name": "0dbc9a35986097a4fecb946473751339", "lat": 38.9314015, "fusion_lat": 0.0, "type": "electric_scooter", "lon": -77.07846683333334, "is_disabled": 0, "fusion_lon": 0.0, "rental_uris": {"android": "https://dc.lft.to/lastmile_qr_scan", "ios": "https://dc.lft.to/lastmile_qr_scan"}, "is_reserved": 0}, {"bike_id": "9b3361769201394b17ec71bc49bc13d0", "name": "9b3361769201394b17ec71bc49bc13d0", "lat": 38.926765833333334, "fusion_lat": 0.0, "type": "electric_scooter", "lon": -77.03111016666666, "is_disabled": 0, "fusion_lon": 0.0, "rental_uris": {"android": "https://dc.lft.to/lastmile_qr_scan", "ios": "https://dc.lft.to/lastmile_qr_scan"}, "is_reserved": 0}, {"bike_id": "63d9264a6413d6e65d182bfa08dd5912", "name": "63d9264a6413d6e65d182bfa08dd5912", "lat": 38.88377, "fusion_lat": 0.0, "type": "electric_scooter", "lon": -76.99361066666667, "is_disabled": 0, "fusion_lon": 0.0, "rental_uris": {"android": "https://dc.lft.to/lastmile_qr_scan", "ios": "https://dc.lft.to/lastmile_qr_scan"}, "is_reserved": 0}, {"bike_id": "c7449224b313b00e88d56c546e02baf4", "name": "c7449224b313b00e88d56c546e02baf4", "lat": 38.91709783333334, "fusion_lat": 0.0, "type": "electric_scooter", "lon": -77.03870033333334, "is_disabled": 0, "fusion_lon": 0.0, "rental_uris": {"android": "https://dc.lft.to/lastmile_qr_scan", "ios": "https://dc.lft.to/lastmile_qr_scan"}, "is_reserved": 0}, {"bike_id": "e0200123e656bdc544f34b59ebb9543d", "name": "e0200123e656bdc544f34b59ebb9543d", "lat": 38.9083075, "fusion_lat": 0.0, "type": "electric_scooter", "lon": -77.043167, "is_disabled": 0, "fusion_lon": 0.0, "rental_uris": {"android": "https://dc.lft.to/lastmile_qr_scan", "ios": "https://dc.lft.to/lastmile_qr_scan"}, "is_reserved": 0}, {"bike_id": "c4a058cdc8af7fa61b4f3fc635239ea8", "name": "c4a058cdc8af7fa61b4f3fc635239ea8", "lat": 38.91862883333334, "fusion_lat": 0.0, "type": "electric_scooter", "lon": -77.01353483333334, "is_disabled": 0, "fusion_lon": 0.0, "rental_uris": {"android": "https://dc.lft.to/lastmile_qr_scan", "ios": "https://dc.lft.to/lastmile_qr_scan"}, "is_reserved": 0}, {"bike_id": "995a51413d2845f98b63a5b76be66973", "name": "995a51413d2845f98b63a5b76be66973", "lat": 38.893247833333334, "fusion_lat": 0.0, "type": "electric_scooter", "lon": -77.03178533333333, "is_disabled": 0, "fusion_lon": 0.0, "rental_uris": {"android": "https://dc.lft.to/lastmile_qr_scan", "ios": "https://dc.lft.to/lastmile_qr_scan"}, "is_reserved": 0}, {"bike_id": "63a19de5cf4452b7cba6c942f918fdd2", "name": "63a19de5cf4452b7cba6c942f918fdd2", "lat": 38.9952245, "fusion_lat": 0.0, "type": "electric_bike", "lon": -77.07457333333333, "is_disabled": 0, "fusion_lon": 0.0, "rental_uris": {"android": "https://dc.lft.to/lastmile_qr_scan", "ios": "https://dc.lft.to/lastmile_qr_scan"}, "is_reserved": 0}, {"bike_id": "b3b065e2ea82ad8b037af998f644ef09", "name": "b3b065e2ea82ad8b037af998f644ef09", "lat": 38.96646916666667, "fusion_lat": 0.0, "type": "electric_scooter", "lon": -77.00894366666667, "is_disabled": 0, "fusion_lon": 0.0, "rental_uris": {"android": "https://dc.lft.to/lastmile_qr_scan", "ios": "https://dc.lft.to/lastmile_qr_scan"}, "is_reserved": 0}, {"bike_id": "70944d00288a1c31f8c1c0e47d659ac5", "name": "70944d00288a1c31f8c1c0e47d659ac5", "lat": 38.952517666666665, "fusion_lat": 0.0, "type": "electric_scooter", "lon": -77.02397516666667, "is_disabled": 0, "fusion_lon": 0.0, "rental_uris": {"android": "https://dc.lft.to/lastmile_qr_scan", "ios": "https://dc.lft.to/lastmile_qr_scan"}, "is_reserved": 0}, {"bike_id": "7fcc3317c4f89497a081ba951fc5171e", "name": "7fcc3317c4f89497a081ba951fc5171e", "lat": 38.926101, "fusion_lat": 0.0, "type": "electric_scooter", "lon": -77.0216095, "is_disabled": 0, "fusion_lon": 0.0, "rental_uris": {"android": "https://dc.lft.to/lastmile_qr_scan", "ios": "https://dc.lft.to/lastmile_qr_scan"}, "is_reserved": 0}, {"bike_id": "6dbeeff833ffa6f74c1c26229531c2b6", "name": "6dbeeff833ffa6f74c1c26229531c2b6", "lat": 38.9275715, "fusion_lat": 0.0, "type": "electric_scooter", "lon": -77.02427533333334, "is_disabled": 0, "fusion_lon": 0.0, "rental_uris": {"android": "https://dc.lft.to/lastmile_qr_scan", "ios": "https://dc.lft.to/lastmile_qr_scan"}, "is_reserved": 0}, {"bike_id": "4615a66a7595800d9d3fa4b7178f7b51", "name": "4615a66a7595800d9d3fa4b7178f7b51", "lat": 38.94513216666667, "fusion_lat": 0.0, "type": "electric_scooter", "lon": -77.064016, "is_disabled": 0, "fusion_lon": 0.0, "rental_uris": {"android": "https://dc.lft.to/lastmile_qr_scan", "ios": "https://dc.lft.to/lastmile_qr_scan"}, "is_reserved": 0}, {"bike_id": "e06ebc4c857ee660698ee3f8c68db36e", "name": "e06ebc4c857ee660698ee3f8c68db36e", "lat": 38.92788383333333, "fusion_lat": 0.0, "type": "electric_scooter", "lon": -77.0532985, "is_disabled": 0, "fusion_lon": 0.0, "rental_uris": {"android": "https://dc.lft.to/lastmile_qr_scan", "ios": "https://dc.lft.to/lastmile_qr_scan"}, "is_reserved": 0}, {"bike_id": "64d50e925cb4c29791e33b377c016bec", "name": "64d50e925cb4c29791e33b377c016bec", "lat": 38.89511, "fusion_lat": 0.0, "type": "electric_scooter", "lon": -76.99211616666666, "is_disabled": 0, "fusion_lon": 0.0, "rental_uris": {"android": "https://dc.lft.to/lastmile_qr_scan", "ios": "https://dc.lft.to/lastmile_qr_scan"}, "is_reserved": 0}, {"bike_id": "92e979eac0d568f0b4792e95f7c8a22e", "name": "92e979eac0d568f0b4792e95f7c8a22e", "lat": 38.90510166666667, "fusion_lat": 0.0, "type": "electric_scooter", "lon": -77.06366816666667, "is_disabled": 0, "fusion_lon": 0.0, "rental_uris": {"android": "https://dc.lft.to/lastmile_qr_scan", "ios": "https://dc.lft.to/lastmile_qr_scan"}, "is_reserved": 0}, {"bike_id": "f8bf64aa94a8670a306f6a6cd9cfaa4b", "name": "f8bf64aa94a8670a306f6a6cd9cfaa4b", "lat": 38.892283, "fusion_lat": 0.0, "type": "electric_scooter", "lon": -77.01769083333333, "is_disabled": 0, "fusion_lon": 0.0, "rental_uris": {"android": "https://dc.lft.to/lastmile_qr_scan", "ios": "https://dc.lft.to/lastmile_qr_scan"}, "is_reserved": 0}, {"bike_id": "77332f008738fe36e24f7a06b25c0050", "name": "77332f008738fe36e24f7a06b25c0050", "lat": 38.917100166666664, "fusion_lat": 0.0, "type": "electric_scooter", "lon": -77.02974816666666, "is_disabled": 0, "fusion_lon": 0.0, "rental_uris": {"android": "https://dc.lft.to/lastmile_qr_scan", "ios": "https://dc.lft.to/lastmile_qr_scan"}, "is_reserved": 0}, {"bike_id": "5c3164800d2f29a63bf3274d4abd5d25", "name": "5c3164800d2f29a63bf3274d4abd5d25", "lat": 38.88744033333333, "fusion_lat": 0.0, "type": "electric_scooter", "lon": -76.98361116666666, "is_disabled": 0, "fusion_lon": 0.0, "rental_uris": {"android": "https://dc.lft.to/lastmile_qr_scan", "ios": "https://dc.lft.to/lastmile_qr_scan"}, "is_reserved": 0}, {"bike_id": "fe075aa0add3d4e46136832d59ab47cd", "name": "fe075aa0add3d4e46136832d59ab47cd", "lat": 38.900091833333335, "fusion_lat": 0.0, "type": "electric_scooter", "lon": -77.02595116666667, "is_disabled": 0, "fusion_lon": 0.0, "rental_uris": {"android": "https://dc.lft.to/lastmile_qr_scan", "ios": "https://dc.lft.to/lastmile_qr_scan"}, "is_reserved": 0}, {"bike_id": "d37bc743e3fcc4bff10957e121b9c0d1", "name": "d37bc743e3fcc4bff10957e121b9c0d1", "lat": 38.90831933333333, "fusion_lat": 0.0, "type": "electric_scooter", "lon": -77.04371216666667, "is_disabled": 0, "fusion_lon": 0.0, "rental_uris": {"android": "https://dc.lft.to/lastmile_qr_scan", "ios": "https://dc.lft.to/lastmile_qr_scan"}, "is_reserved": 0}, {"bike_id": "1060ff71b22d2228ff4f4cc27831b5aa", "name": "1060ff71b22d2228ff4f4cc27831b5aa", "lat": 38.893623166666664, "fusion_lat": 0.0, "type": "electric_scooter", "lon": -76.93597066666666, "is_disabled": 0, "fusion_lon": 0.0, "rental_uris": {"android": "https://dc.lft.to/lastmile_qr_scan", "ios": "https://dc.lft.to/lastmile_qr_scan"}, "is_reserved": 0}, {"bike_id": "bb1aae755d8396b9aa4544f1c9e0d5df", "name": "bb1aae755d8396b9aa4544f1c9e0d5df", "lat": 38.8953415, "fusion_lat": 0.0, "type": "electric_scooter", "lon": -76.94892066666667, "is_disabled": 0, "fusion_lon": 0.0, "rental_uris": {"android": "https://dc.lft.to/lastmile_qr_scan", "ios": "https://dc.lft.to/lastmile_qr_scan"}, "is_reserved": 0}, {"bike_id": "77cf39f4d2cb1f6fba45a2ba766fb0c9", "name": "77cf39f4d2cb1f6fba45a2ba766fb0c9", "lat": 38.900548666666666, "fusion_lat": 0.0, "type": "electric_scooter", "lon": -77.05136966666667, "is_disabled": 0, "fusion_lon": 0.0, "rental_uris": {"android": "https://dc.lft.to/lastmile_qr_scan", "ios": "https://dc.lft.to/lastmile_qr_scan"}, "is_reserved": 0}, {"bike_id": "7f067c30b5921818613c26622cc1322c", "name": "7f067c30b5921818613c26622cc1322c", "lat": 38.892232666666665, "fusion_lat": 0.0, "type": "electric_scooter", "lon": -77.04086666666667, "is_disabled": 0, "fusion_lon": 0.0, "rental_uris": {"android": "https://dc.lft.to/lastmile_qr_scan", "ios": "https://dc.lft.to/lastmile_qr_scan"}, "is_reserved": 0}, {"bike_id": "ae20c26b0e3fb96f557a85f38058a3b5", "name": "ae20c26b0e3fb96f557a85f38058a3b5", "lat": 38.92238783333333, "fusion_lat": 0.0, "type": "electric_scooter", "lon": -77.0366665, "is_disabled": 0, "fusion_lon": 0.0, "rental_uris": {"android": "https://dc.lft.to/lastmile_qr_scan", "ios": "https://dc.lft.to/lastmile_qr_scan"}, "is_reserved": 0}, {"bike_id": "46f913325171428769b5178139094aca", "name": "46f913325171428769b5178139094aca", "lat": 38.905046166666665, "fusion_lat": 0.0, "type": "electric_scooter", "lon": -77.03648583333333, "is_disabled": 0, "fusion_lon": 0.0, "rental_uris": {"android": "https://dc.lft.to/lastmile_qr_scan", "ios": "https://dc.lft.to/lastmile_qr_scan"}, "is_reserved": 0}, {"bike_id": "b47b9821e7d6728b8af312539428ac10", "name": "b47b9821e7d6728b8af312539428ac10", "lat": 38.803793, "fusion_lat": 0.0, "type": "electric_bike", "lon": -76.988144, "is_disabled": 0, "fusion_lon": 0.0, "rental_uris": {"android": "https://dc.lft.to/lastmile_qr_scan", "ios": "https://dc.lft.to/lastmile_qr_scan"}, "is_reserved": 0}, {"bike_id": "653fca10c670183aa45d3128b7c20a36", "name": "653fca10c670183aa45d3128b7c20a36", "lat": 38.866613, "fusion_lat": 0.0, "type": "electric_scooter", "lon": -76.979105, "is_disabled": 0, "fusion_lon": 0.0, "rental_uris": {"android": "https://dc.lft.to/lastmile_qr_scan", "ios": "https://dc.lft.to/lastmile_qr_scan"}, "is_reserved": 0}, {"bike_id": "7a649c3b9e05f357121e415ace28e2d5", "name": "7a649c3b9e05f357121e415ace28e2d5", "lat": 38.895031333333336, "fusion_lat": 0.0, "type": "electric_scooter", "lon": -76.934773, "is_disabled": 0, "fusion_lon": 0.0, "rental_uris": {"android": "https://dc.lft.to/lastmile_qr_scan", "ios": "https://dc.lft.to/lastmile_qr_scan"}, "is_reserved": 0}, {"bike_id": "271fc77567c62d051f95b9145ac30408", "name": "271fc77567c62d051f95b9145ac30408", "lat": 38.9132395, "fusion_lat": 0.0, "type": "electric_scooter", "lon": -77.01659833333333, "is_disabled": 0, "fusion_lon": 0.0, "rental_uris": {"android": "https://dc.lft.to/lastmile_qr_scan", "ios": "https://dc.lft.to/lastmile_qr_scan"}, "is_reserved": 0}, {"bike_id": "c015099f99ea02122c3c93c4c2df8b70", "name": "c015099f99ea02122c3c93c4c2df8b70", "lat": 38.916086166666666, "fusion_lat": 0.0, "type": "electric_scooter", "lon": -77.02289566666667, "is_disabled": 0, "fusion_lon": 0.0, "rental_uris": {"android": "https://dc.lft.to/lastmile_qr_scan", "ios": "https://dc.lft.to/lastmile_qr_scan"}, "is_reserved": 0}, {"bike_id": "7f53d4e76a2bdcf85fdbbfd33dbd7dde", "name": "7f53d4e76a2bdcf85fdbbfd33dbd7dde", "lat": 38.88731216666667, "fusion_lat": 0.0, "type": "electric_scooter", "lon": -77.02614983333333, "is_disabled": 0, "fusion_lon": 0.0, "rental_uris": {"android": "https://dc.lft.to/lastmile_qr_scan", "ios": "https://dc.lft.to/lastmile_qr_scan"}, "is_reserved": 0}, {"bike_id": "d47a8f44828e8f99c1c36304329c0fbb", "name": "d47a8f44828e8f99c1c36304329c0fbb", "lat": 38.9157575, "fusion_lat": 0.0, "type": "electric_scooter", "lon": -76.98385716666667, "is_disabled": 0, "fusion_lon": 0.0, "rental_uris": {"android": "https://dc.lft.to/lastmile_qr_scan", "ios": "https://dc.lft.to/lastmile_qr_scan"}, "is_reserved": 0}, {"bike_id": "8d716bd71699e2eab99129fdb44287c9", "name": "8d716bd71699e2eab99129fdb44287c9", "lat": 38.89997233333333, "fusion_lat": 0.0, "type": "electric_scooter", "lon": -77.02929733333333, "is_disabled": 0, "fusion_lon": 0.0, "rental_uris": {"android": "https://dc.lft.to/lastmile_qr_scan", "ios": "https://dc.lft.to/lastmile_qr_scan"}, "is_reserved": 0}, {"bike_id": "bb04a684937ae30315abfa412ff6cd28", "name": "bb04a684937ae30315abfa412ff6cd28", "lat": 38.900341833333336, "fusion_lat": 0.0, "type": "electric_scooter", "lon": -77.0482145, "is_disabled": 0, "fusion_lon": 0.0, "rental_uris": {"android": "https://dc.lft.to/lastmile_qr_scan", "ios": "https://dc.lft.to/lastmile_qr_scan"}, "is_reserved": 0}, {"bike_id": "d8ada81fe1383c7ef293e6da6efcc1fe", "name": "d8ada81fe1383c7ef293e6da6efcc1fe", "lat": 38.90976883333333, "fusion_lat": 0.0, "type": "electric_scooter", "lon": -77.03811483333334, "is_disabled": 0, "fusion_lon": 0.0, "rental_uris": {"android": "https://dc.lft.to/lastmile_qr_scan", "ios": "https://dc.lft.to/lastmile_qr_scan"}, "is_reserved": 0}, {"bike_id": "ac8644fbe98f62b16bb60b2eea356179", "name": "ac8644fbe98f62b16bb60b2eea356179", "lat": 38.91095683333333, "fusion_lat": 0.0, "type": "electric_scooter", "lon": -76.984804, "is_disabled": 0, "fusion_lon": 0.0, "rental_uris": {"android": "https://dc.lft.to/lastmile_qr_scan", "ios": "https://dc.lft.to/lastmile_qr_scan"}, "is_reserved": 0}, {"bike_id": "432364b8d7889ab072824c3c07a0fe5b", "name": "432364b8d7889ab072824c3c07a0fe5b", "lat": 38.89342366666666, "fusion_lat": 0.0, "type": "electric_scooter", "lon": -76.99382733333333, "is_disabled": 0, "fusion_lon": 0.0, "rental_uris": {"android": "https://dc.lft.to/lastmile_qr_scan", "ios": "https://dc.lft.to/lastmile_qr_scan"}, "is_reserved": 0}, {"bike_id": "2087cdca7ae9b31d5c447eac2c49cbde", "name": "2087cdca7ae9b31d5c447eac2c49cbde", "lat": 38.91606516666667, "fusion_lat": 0.0, "type": "electric_scooter", "lon": -77.023931, "is_disabled": 0, "fusion_lon": 0.0, "rental_uris": {"android": "https://dc.lft.to/lastmile_qr_scan", "ios": "https://dc.lft.to/lastmile_qr_scan"}, "is_reserved": 0}, {"bike_id": "7eb4448d5db10c959973f5d371730bae", "name": "7eb4448d5db10c959973f5d371730bae", "lat": 38.92481033333333, "fusion_lat": 0.0, "type": "electric_scooter", "lon": -77.02718, "is_disabled": 0, "fusion_lon": 0.0, "rental_uris": {"android": "https://dc.lft.to/lastmile_qr_scan", "ios": "https://dc.lft.to/lastmile_qr_scan"}, "is_reserved": 0}, {"bike_id": "cf96d9b72db72b6e0a6a17d3d9cb00f1", "name": "cf96d9b72db72b6e0a6a17d3d9cb00f1", "lat": 38.94410033333333, "fusion_lat": 0.0, "type": "electric_scooter", "lon": -77.03265583333334, "is_disabled": 0, "fusion_lon": 0.0, "rental_uris": {"android": "https://dc.lft.to/lastmile_qr_scan", "ios": "https://dc.lft.to/lastmile_qr_scan"}, "is_reserved": 0}, {"bike_id": "a28df5bbc414c5bcc6b7dcbe4fa04ead", "name": "a28df5bbc414c5bcc6b7dcbe4fa04ead", "lat": 38.919628333333335, "fusion_lat": 0.0, "type": "electric_scooter", "lon": -77.02406966666666, "is_disabled": 0, "fusion_lon": 0.0, "rental_uris": {"android": "https://dc.lft.to/lastmile_qr_scan", "ios": "https://dc.lft.to/lastmile_qr_scan"}, "is_reserved": 0}, {"bike_id": "6ae66dfadb1712dce44c30da51eafb91", "name": "6ae66dfadb1712dce44c30da51eafb91", "lat": 38.899937333333334, "fusion_lat": 0.0, "type": "electric_scooter", "lon": -76.985489, "is_disabled": 0, "fusion_lon": 0.0, "rental_uris": {"android": "https://dc.lft.to/lastmile_qr_scan", "ios": "https://dc.lft.to/lastmile_qr_scan"}, "is_reserved": 0}, {"bike_id": "34977aabb6d455009658baf343f128cc", "name": "34977aabb6d455009658baf343f128cc", "lat": 38.915707, "fusion_lat": 0.0, "type": "electric_scooter", "lon": -76.9838795, "is_disabled": 0, "fusion_lon": 0.0, "rental_uris": {"android": "https://dc.lft.to/lastmile_qr_scan", "ios": "https://dc.lft.to/lastmile_qr_scan"}, "is_reserved": 0}, {"bike_id": "7178c58fb29c8bddda8857a9a981ea9a", "name": "7178c58fb29c8bddda8857a9a981ea9a", "lat": 38.923705166666664, "fusion_lat": 0.0, "type": "electric_scooter", "lon": -77.051791, "is_disabled": 0, "fusion_lon": 0.0, "rental_uris": {"android": "https://dc.lft.to/lastmile_qr_scan", "ios": "https://dc.lft.to/lastmile_qr_scan"}, "is_reserved": 0}, {"bike_id": "c894144adfa0bc0c05fb41e89899dbf5", "name": "c894144adfa0bc0c05fb41e89899dbf5", "lat": 38.9179005, "fusion_lat": 0.0, "type": "electric_scooter", "lon": -77.03206183333333, "is_disabled": 0, "fusion_lon": 0.0, "rental_uris": {"android": "https://dc.lft.to/lastmile_qr_scan", "ios": "https://dc.lft.to/lastmile_qr_scan"}, "is_reserved": 0}, {"bike_id": "072755c40a25be0648a9640a36ca3cb6", "name": "072755c40a25be0648a9640a36ca3cb6", "lat": 38.893569666666664, "fusion_lat": 0.0, "type": "electric_scooter", "lon": -77.00336316666667, "is_disabled": 0, "fusion_lon": 0.0, "rental_uris": {"android": "https://dc.lft.to/lastmile_qr_scan", "ios": "https://dc.lft.to/lastmile_qr_scan"}, "is_reserved": 0}, {"bike_id": "f2a4316fd39e92400439bdf0de12ce22", "name": "f2a4316fd39e92400439bdf0de12ce22", "lat": 38.906665833333335, "fusion_lat": 0.0, "type": "electric_scooter", "lon": -77.05012533333333, "is_disabled": 0, "fusion_lon": 0.0, "rental_uris": {"android": "https://dc.lft.to/lastmile_qr_scan", "ios": "https://dc.lft.to/lastmile_qr_scan"}, "is_reserved": 0}, {"bike_id": "e4c45b439ff329a89810a25c50974a44", "name": "e4c45b439ff329a89810a25c50974a44", "lat": 38.92339483333333, "fusion_lat": 0.0, "type": "electric_scooter", "lon": -77.019061, "is_disabled": 0, "fusion_lon": 0.0, "rental_uris": {"android": "https://dc.lft.to/lastmile_qr_scan", "ios": "https://dc.lft.to/lastmile_qr_scan"}, "is_reserved": 0}, {"bike_id": "ba0f05a45825479aeb352920386ea3d4", "name": "ba0f05a45825479aeb352920386ea3d4", "lat": 38.964004, "fusion_lat": 0.0, "type": "electric_scooter", "lon": -77.02768633333334, "is_disabled": 0, "fusion_lon": 0.0, "rental_uris": {"android": "https://dc.lft.to/lastmile_qr_scan", "ios": "https://dc.lft.to/lastmile_qr_scan"}, "is_reserved": 0}, {"bike_id": "276b92b417f3bc59bee51ee56439db09", "name": "276b92b417f3bc59bee51ee56439db09", "lat": 38.8888755, "fusion_lat": 0.0, "type": "electric_scooter", "lon": -76.91924616666667, "is_disabled": 0, "fusion_lon": 0.0, "rental_uris": {"android": "https://dc.lft.to/lastmile_qr_scan", "ios": "https://dc.lft.to/lastmile_qr_scan"}, "is_reserved": 0}, {"bike_id": "21a18472f7bcada4d02e7b4779c28590", "name": "21a18472f7bcada4d02e7b4779c28590", "lat": 38.89195266666667, "fusion_lat": 0.0, "type": "electric_scooter", "lon": -77.048272, "is_disabled": 0, "fusion_lon": 0.0, "rental_uris": {"android": "https://dc.lft.to/lastmile_qr_scan", "ios": "https://dc.lft.to/lastmile_qr_scan"}, "is_reserved": 0}, {"bike_id": "10bb971e185837051ff5060b4e540212", "name": "10bb971e185837051ff5060b4e540212", "lat": 38.911869833333334, "fusion_lat": 0.0, "type": "electric_scooter", "lon": -77.038348, "is_disabled": 0, "fusion_lon": 0.0, "rental_uris": {"android": "https://dc.lft.to/lastmile_qr_scan", "ios": "https://dc.lft.to/lastmile_qr_scan"}, "is_reserved": 0}, {"bike_id": "84c4564e3d70fa0bc9f020b6ac0fb455", "name": "84c4564e3d70fa0bc9f020b6ac0fb455", "lat": 38.87954516666667, "fusion_lat": 0.0, "type": "electric_scooter", "lon": -77.00071966666667, "is_disabled": 0, "fusion_lon": 0.0, "rental_uris": {"android": "https://dc.lft.to/lastmile_qr_scan", "ios": "https://dc.lft.to/lastmile_qr_scan"}, "is_reserved": 0}, {"bike_id": "6b1575f3895d129aca071a51df4588e5", "name": "6b1575f3895d129aca071a51df4588e5", "lat": 38.92229616666667, "fusion_lat": 0.0, "type": "electric_scooter", "lon": -76.97534433333334, "is_disabled": 0, "fusion_lon": 0.0, "rental_uris": {"android": "https://dc.lft.to/lastmile_qr_scan", "ios": "https://dc.lft.to/lastmile_qr_scan"}, "is_reserved": 0}, {"bike_id": "318427ba0a3119040310bcf693457b79", "name": "318427ba0a3119040310bcf693457b79", "lat": 38.96459466666667, "fusion_lat": 0.0, "type": "electric_bike", "lon": -77.1065545, "is_disabled": 0, "fusion_lon": 0.0, "rental_uris": {"android": "https://dc.lft.to/lastmile_qr_scan", "ios": "https://dc.lft.to/lastmile_qr_scan"}, "is_reserved": 0}, {"bike_id": "fd134fbe85393adcce8cd111ec6bbf29", "name": "fd134fbe85393adcce8cd111ec6bbf29", "lat": 38.92856483333333, "fusion_lat": 0.0, "type": "electric_scooter", "lon": -77.01405516666667, "is_disabled": 0, "fusion_lon": 0.0, "rental_uris": {"android": "https://dc.lft.to/lastmile_qr_scan", "ios": "https://dc.lft.to/lastmile_qr_scan"}, "is_reserved": 0}, {"bike_id": "4f858afed7a1dbb7395057572018321b", "name": "4f858afed7a1dbb7395057572018321b", "lat": 38.928666166666666, "fusion_lat": 0.0, "type": "electric_scooter", "lon": -77.02711366666666, "is_disabled": 0, "fusion_lon": 0.0, "rental_uris": {"android": "https://dc.lft.to/lastmile_qr_scan", "ios": "https://dc.lft.to/lastmile_qr_scan"}, "is_reserved": 0}, {"bike_id": "dc4617ceb2a7ad42b098476b475549ce", "name": "dc4617ceb2a7ad42b098476b475549ce", "lat": 38.919502333333334, "fusion_lat": 0.0, "type": "electric_scooter", "lon": -76.99201666666667, "is_disabled": 0, "fusion_lon": 0.0, "rental_uris": {"android": "https://dc.lft.to/lastmile_qr_scan", "ios": "https://dc.lft.to/lastmile_qr_scan"}, "is_reserved": 0}, {"bike_id": "e63d0914eae678d6a7c3964fb153c97a", "name": "e63d0914eae678d6a7c3964fb153c97a", "lat": 38.806386833333335, "fusion_lat": 0.0, "type": "electric_bike", "lon": -77.062547, "is_disabled": 0, "fusion_lon": 0.0, "rental_uris": {"android": "https://dc.lft.to/lastmile_qr_scan", "ios": "https://dc.lft.to/lastmile_qr_scan"}, "is_reserved": 0}, {"bike_id": "97a0ab49db7037af2293512835a8ec25", "name": "97a0ab49db7037af2293512835a8ec25", "lat": 38.916918833333334, "fusion_lat": 0.0, "type": "electric_scooter", "lon": -77.03773983333333, "is_disabled": 0, "fusion_lon": 0.0, "rental_uris": {"android": "https://dc.lft.to/lastmile_qr_scan", "ios": "https://dc.lft.to/lastmile_qr_scan"}, "is_reserved": 0}, {"bike_id": "13307fdd269a167482cef80aa000f794", "name": "13307fdd269a167482cef80aa000f794", "lat": 38.930852, "fusion_lat": 0.0, "type": "electric_scooter", "lon": -77.03768466666666, "is_disabled": 0, "fusion_lon": 0.0, "rental_uris": {"android": "https://dc.lft.to/lastmile_qr_scan", "ios": "https://dc.lft.to/lastmile_qr_scan"}, "is_reserved": 0}, {"bike_id": "eeb87367742f4787e67ab72a016a5d7f", "name": "eeb87367742f4787e67ab72a016a5d7f", "lat": 38.918535, "fusion_lat": 0.0, "type": "electric_scooter", "lon": -77.0352245, "is_disabled": 0, "fusion_lon": 0.0, "rental_uris": {"android": "https://dc.lft.to/lastmile_qr_scan", "ios": "https://dc.lft.to/lastmile_qr_scan"}, "is_reserved": 0}, {"bike_id": "1b57e85e54ca3c8730cb4cc21079b2ae", "name": "1b57e85e54ca3c8730cb4cc21079b2ae", "lat": 38.908288666666664, "fusion_lat": 0.0, "type": "electric_scooter", "lon": -77.0429415, "is_disabled": 0, "fusion_lon": 0.0, "rental_uris": {"android": "https://dc.lft.to/lastmile_qr_scan", "ios": "https://dc.lft.to/lastmile_qr_scan"}, "is_reserved": 0}, {"bike_id": "9314d21f6fc59f32c84166afff86bea4", "name": "9314d21f6fc59f32c84166afff86bea4", "lat": 38.94673266666667, "fusion_lat": 0.0, "type": "electric_bike", "lon": -76.99336, "is_disabled": 0, "fusion_lon": 0.0, "rental_uris": {"android": "https://dc.lft.to/lastmile_qr_scan", "ios": "https://dc.lft.to/lastmile_qr_scan"}, "is_reserved": 0}, {"bike_id": "200b2e58763dac7fbec2936b603fb257", "name": "200b2e58763dac7fbec2936b603fb257", "lat": 38.89616983333333, "fusion_lat": 0.0, "type": "electric_scooter", "lon": -77.02613783333334, "is_disabled": 0, "fusion_lon": 0.0, "rental_uris": {"android": "https://dc.lft.to/lastmile_qr_scan", "ios": "https://dc.lft.to/lastmile_qr_scan"}, "is_reserved": 0}, {"bike_id": "2ffa020aaad99a6635ff735709ab6119", "name": "2ffa020aaad99a6635ff735709ab6119", "lat": 38.9024275, "fusion_lat": 0.0, "type": "electric_scooter", "lon": -77.04595783333333, "is_disabled": 0, "fusion_lon": 0.0, "rental_uris": {"android": "https://dc.lft.to/lastmile_qr_scan", "ios": "https://dc.lft.to/lastmile_qr_scan"}, "is_reserved": 0}, {"bike_id": "33a1bdee2bf9b09a6a9f7a5ef5ef48d0", "name": "33a1bdee2bf9b09a6a9f7a5ef5ef48d0", "lat": 38.901351, "fusion_lat": 0.0, "type": "electric_scooter", "lon": -77.038172, "is_disabled": 0, "fusion_lon": 0.0, "rental_uris": {"android": "https://dc.lft.to/lastmile_qr_scan", "ios": "https://dc.lft.to/lastmile_qr_scan"}, "is_reserved": 0}, {"bike_id": "79021ab51bd16d379a295db94883fdb7", "name": "79021ab51bd16d379a295db94883fdb7", "lat": 38.88520116666667, "fusion_lat": 0.0, "type": "electric_scooter", "lon": -76.9771005, "is_disabled": 0, "fusion_lon": 0.0, "rental_uris": {"android": "https://dc.lft.to/lastmile_qr_scan", "ios": "https://dc.lft.to/lastmile_qr_scan"}, "is_reserved": 0}, {"bike_id": "78d59a52cccba5e8e3ebc7f156f0e795", "name": "78d59a52cccba5e8e3ebc7f156f0e795", "lat": 38.90010633333333, "fusion_lat": 0.0, "type": "electric_bike", "lon": -76.980384, "is_disabled": 0, "fusion_lon": 0.0, "rental_uris": {"android": "https://dc.lft.to/lastmile_qr_scan", "ios": "https://dc.lft.to/lastmile_qr_scan"}, "is_reserved": 0}, {"bike_id": "6999c2ab4cd11de540b9fcdc145bcebc", "name": "6999c2ab4cd11de540b9fcdc145bcebc", "lat": 38.90316466666667, "fusion_lat": 0.0, "type": "electric_scooter", "lon": -77.0496595, "is_disabled": 0, "fusion_lon": 0.0, "rental_uris": {"android": "https://dc.lft.to/lastmile_qr_scan", "ios": "https://dc.lft.to/lastmile_qr_scan"}, "is_reserved": 0}, {"bike_id": "2b7f637357686161f24cc8cfafb38c37", "name": "2b7f637357686161f24cc8cfafb38c37", "lat": 38.87778016666667, "fusion_lat": 0.0, "type": "electric_scooter", "lon": -76.98372816666667, "is_disabled": 0, "fusion_lon": 0.0, "rental_uris": {"android": "https://dc.lft.to/lastmile_qr_scan", "ios": "https://dc.lft.to/lastmile_qr_scan"}, "is_reserved": 0}, {"bike_id": "5789c054bbcf0c013b8a56d85471ed1f", "name": "5789c054bbcf0c013b8a56d85471ed1f", "lat": 38.85950366666667, "fusion_lat": 0.0, "type": "electric_scooter", "lon": -76.99154383333334, "is_disabled": 0, "fusion_lon": 0.0, "rental_uris": {"android": "https://dc.lft.to/lastmile_qr_scan", "ios": "https://dc.lft.to/lastmile_qr_scan"}, "is_reserved": 0}, {"bike_id": "b1d8fed736a209d90a8517bd77071a50", "name": "b1d8fed736a209d90a8517bd77071a50", "lat": 38.908948333333335, "fusion_lat": 0.0, "type": "electric_scooter", "lon": -77.0239145, "is_disabled": 0, "fusion_lon": 0.0, "rental_uris": {"android": "https://dc.lft.to/lastmile_qr_scan", "ios": "https://dc.lft.to/lastmile_qr_scan"}, "is_reserved": 0}, {"bike_id": "daa900e4a70045522fb9e3be446bbbe6", "name": "daa900e4a70045522fb9e3be446bbbe6", "lat": 38.960336833333336, "fusion_lat": 0.0, "type": "electric_scooter", "lon": -77.0242805, "is_disabled": 0, "fusion_lon": 0.0, "rental_uris": {"android": "https://dc.lft.to/lastmile_qr_scan", "ios": "https://dc.lft.to/lastmile_qr_scan"}, "is_reserved": 0}, {"bike_id": "0b733c3965d2c86509d3c4d4f942f6f3", "name": "0b733c3965d2c86509d3c4d4f942f6f3", "lat": 38.93499033333333, "fusion_lat": 0.0, "type": "electric_scooter", "lon": -77.02729683333334, "is_disabled": 0, "fusion_lon": 0.0, "rental_uris": {"android": "https://dc.lft.to/lastmile_qr_scan", "ios": "https://dc.lft.to/lastmile_qr_scan"}, "is_reserved": 0}, {"bike_id": "8e09ff2dfe905499711f6c991cafc5e1", "name": "8e09ff2dfe905499711f6c991cafc5e1", "lat": 38.925837, "fusion_lat": 0.0, "type": "electric_scooter", "lon": -77.0226155, "is_disabled": 0, "fusion_lon": 0.0, "rental_uris": {"android": "https://dc.lft.to/lastmile_qr_scan", "ios": "https://dc.lft.to/lastmile_qr_scan"}, "is_reserved": 0}, {"bike_id": "5ba9ae86ef58413cde94ae5466dd6fb9", "name": "5ba9ae86ef58413cde94ae5466dd6fb9", "lat": 38.9003695, "fusion_lat": 0.0, "type": "electric_scooter", "lon": -77.02706983333333, "is_disabled": 0, "fusion_lon": 0.0, "rental_uris": {"android": "https://dc.lft.to/lastmile_qr_scan", "ios": "https://dc.lft.to/lastmile_qr_scan"}, "is_reserved": 0}, {"bike_id": "0002a223d77535e2035231d0638c486c", "name": "0002a223d77535e2035231d0638c486c", "lat": 38.94130533333333, "fusion_lat": 0.0, "type": "electric_scooter", "lon": -77.06175583333334, "is_disabled": 0, "fusion_lon": 0.0, "rental_uris": {"android": "https://dc.lft.to/lastmile_qr_scan", "ios": "https://dc.lft.to/lastmile_qr_scan"}, "is_reserved": 0}, {"bike_id": "88fb964030d3acda2e6fa77a6500fa0d", "name": "88fb964030d3acda2e6fa77a6500fa0d", "lat": 38.9506415, "fusion_lat": 0.0, "type": "electric_scooter", "lon": -77.0696895, "is_disabled": 0, "fusion_lon": 0.0, "rental_uris": {"android": "https://dc.lft.to/lastmile_qr_scan", "ios": "https://dc.lft.to/lastmile_qr_scan"}, "is_reserved": 0}, {"bike_id": "e815543b4429561569b334d7b66d34f8", "name": "e815543b4429561569b334d7b66d34f8", "lat": 38.86717066666667, "fusion_lat": 0.0, "type": "electric_scooter", "lon": -77.0123705, "is_disabled": 0, "fusion_lon": 0.0, "rental_uris": {"android": "https://dc.lft.to/lastmile_qr_scan", "ios": "https://dc.lft.to/lastmile_qr_scan"}, "is_reserved": 0}, {"bike_id": "77ed0da77bcce8c1ddd15efa80e9b7a0", "name": "77ed0da77bcce8c1ddd15efa80e9b7a0", "lat": 38.905592, "fusion_lat": 0.0, "type": "electric_scooter", "lon": -77.03961083333333, "is_disabled": 0, "fusion_lon": 0.0, "rental_uris": {"android": "https://dc.lft.to/lastmile_qr_scan", "ios": "https://dc.lft.to/lastmile_qr_scan"}, "is_reserved": 0}, {"bike_id": "667c7f8942c76ce9c019c49665fbcb86", "name": "667c7f8942c76ce9c019c49665fbcb86", "lat": 38.88624333333333, "fusion_lat": 0.0, "type": "electric_scooter", "lon": -77.033531, "is_disabled": 0, "fusion_lon": 0.0, "rental_uris": {"android": "https://dc.lft.to/lastmile_qr_scan", "ios": "https://dc.lft.to/lastmile_qr_scan"}, "is_reserved": 0}, {"bike_id": "47650fd882362d131abae5da89a8355d", "name": "47650fd882362d131abae5da89a8355d", "lat": 38.919204, "fusion_lat": 0.0, "type": "electric_scooter", "lon": -77.00976683333333, "is_disabled": 0, "fusion_lon": 0.0, "rental_uris": {"android": "https://dc.lft.to/lastmile_qr_scan", "ios": "https://dc.lft.to/lastmile_qr_scan"}, "is_reserved": 0}, {"bike_id": "a542174bbf3018cb721c39562be7f1a5", "name": "a542174bbf3018cb721c39562be7f1a5", "lat": 38.8936135, "fusion_lat": 0.0, "type": "electric_scooter", "lon": -77.003337, "is_disabled": 0, "fusion_lon": 0.0, "rental_uris": {"android": "https://dc.lft.to/lastmile_qr_scan", "ios": "https://dc.lft.to/lastmile_qr_scan"}, "is_reserved": 0}, {"bike_id": "e4dd030e7d47097d6ecffc1c787b3166", "name": "e4dd030e7d47097d6ecffc1c787b3166", "lat": 38.912889666666665, "fusion_lat": 0.0, "type": "electric_scooter", "lon": -76.98540133333333, "is_disabled": 0, "fusion_lon": 0.0, "rental_uris": {"android": "https://dc.lft.to/lastmile_qr_scan", "ios": "https://dc.lft.to/lastmile_qr_scan"}, "is_reserved": 0}, {"bike_id": "7d7f4b66a96f979c61c50d77cc9d0e49", "name": "7d7f4b66a96f979c61c50d77cc9d0e49", "lat": 38.924619, "fusion_lat": 0.0, "type": "electric_scooter", "lon": -77.02268666666667, "is_disabled": 0, "fusion_lon": 0.0, "rental_uris": {"android": "https://dc.lft.to/lastmile_qr_scan", "ios": "https://dc.lft.to/lastmile_qr_scan"}, "is_reserved": 0}, {"bike_id": "d35b294806a3e3d590b65478fb69988d", "name": "d35b294806a3e3d590b65478fb69988d", "lat": 38.966715, "fusion_lat": 0.0, "type": "electric_bike", "lon": -77.02305433333333, "is_disabled": 0, "fusion_lon": 0.0, "rental_uris": {"android": "https://dc.lft.to/lastmile_qr_scan", "ios": "https://dc.lft.to/lastmile_qr_scan"}, "is_reserved": 0}, {"bike_id": "a619c5bb3eed19cea661b0130111a862", "name": "a619c5bb3eed19cea661b0130111a862", "lat": 38.912519, "fusion_lat": 0.0, "type": "electric_scooter", "lon": -77.02214, "is_disabled": 0, "fusion_lon": 0.0, "rental_uris": {"android": "https://dc.lft.to/lastmile_qr_scan", "ios": "https://dc.lft.to/lastmile_qr_scan"}, "is_reserved": 0}, {"bike_id": "1adc1220ef6cf363c42405d4cf707323", "name": "1adc1220ef6cf363c42405d4cf707323", "lat": 38.928631333333335, "fusion_lat": 0.0, "type": "electric_scooter", "lon": -77.0304545, "is_disabled": 0, "fusion_lon": 0.0, "rental_uris": {"android": "https://dc.lft.to/lastmile_qr_scan", "ios": "https://dc.lft.to/lastmile_qr_scan"}, "is_reserved": 0}, {"bike_id": "f5b646064b11b321d3565c6337aea8a3", "name": "f5b646064b11b321d3565c6337aea8a3", "lat": 38.91568383333333, "fusion_lat": 0.0, "type": "electric_scooter", "lon": -77.02202566666666, "is_disabled": 0, "fusion_lon": 0.0, "rental_uris": {"android": "https://dc.lft.to/lastmile_qr_scan", "ios": "https://dc.lft.to/lastmile_qr_scan"}, "is_reserved": 0}, {"bike_id": "f076f3d52dea69bc40f23bb03c8830be", "name": "f076f3d52dea69bc40f23bb03c8830be", "lat": 38.9202295, "fusion_lat": 0.0, "type": "electric_scooter", "lon": -76.98545966666667, "is_disabled": 0, "fusion_lon": 0.0, "rental_uris": {"android": "https://dc.lft.to/lastmile_qr_scan", "ios": "https://dc.lft.to/lastmile_qr_scan"}, "is_reserved": 0}, {"bike_id": "b851596239031cf87c893694799b6313", "name": "b851596239031cf87c893694799b6313", "lat": 38.88773116666667, "fusion_lat": 0.0, "type": "electric_scooter", "lon": -76.93267033333333, "is_disabled": 0, "fusion_lon": 0.0, "rental_uris": {"android": "https://dc.lft.to/lastmile_qr_scan", "ios": "https://dc.lft.to/lastmile_qr_scan"}, "is_reserved": 0}, {"bike_id": "ff26c45c7a6a714a5784f1454fd8d005", "name": "ff26c45c7a6a714a5784f1454fd8d005", "lat": 38.887481333333334, "fusion_lat": 0.0, "type": "electric_bike", "lon": -76.9008815, "is_disabled": 0, "fusion_lon": 0.0, "rental_uris": {"android": "https://dc.lft.to/lastmile_qr_scan", "ios": "https://dc.lft.to/lastmile_qr_scan"}, "is_reserved": 0}, {"bike_id": "d92cbc93dc3e566b0b9ffda2050006a6", "name": "d92cbc93dc3e566b0b9ffda2050006a6", "lat": 38.92868566666667, "fusion_lat": 0.0, "type": "electric_scooter", "lon": -77.034342, "is_disabled": 0, "fusion_lon": 0.0, "rental_uris": {"android": "https://dc.lft.to/lastmile_qr_scan", "ios": "https://dc.lft.to/lastmile_qr_scan"}, "is_reserved": 0}, {"bike_id": "b832e68c3052437404001dbfee1ef19d", "name": "b832e68c3052437404001dbfee1ef19d", "lat": 38.92364416666667, "fusion_lat": 0.0, "type": "electric_scooter", "lon": -77.05032233333333, "is_disabled": 0, "fusion_lon": 0.0, "rental_uris": {"android": "https://dc.lft.to/lastmile_qr_scan", "ios": "https://dc.lft.to/lastmile_qr_scan"}, "is_reserved": 0}, {"bike_id": "37a7b38faad4a1f95fe818200c4c62ef", "name": "37a7b38faad4a1f95fe818200c4c62ef", "lat": 38.913048, "fusion_lat": 0.0, "type": "electric_scooter", "lon": -77.036425, "is_disabled": 0, "fusion_lon": 0.0, "rental_uris": {"android": "https://dc.lft.to/lastmile_qr_scan", "ios": "https://dc.lft.to/lastmile_qr_scan"}, "is_reserved": 0}, {"bike_id": "a5a48924888239004ca57b313505d9b4", "name": "a5a48924888239004ca57b313505d9b4", "lat": 38.9193485, "fusion_lat": 0.0, "type": "electric_scooter", "lon": -77.04887883333333, "is_disabled": 0, "fusion_lon": 0.0, "rental_uris": {"android": "https://dc.lft.to/lastmile_qr_scan", "ios": "https://dc.lft.to/lastmile_qr_scan"}, "is_reserved": 0}, {"bike_id": "dedab80c2621151e4b7eb727f5bc25d3", "name": "dedab80c2621151e4b7eb727f5bc25d3", "lat": 38.91605583333333, "fusion_lat": 0.0, "type": "electric_scooter", "lon": -77.02307633333334, "is_disabled": 0, "fusion_lon": 0.0, "rental_uris": {"android": "https://dc.lft.to/lastmile_qr_scan", "ios": "https://dc.lft.to/lastmile_qr_scan"}, "is_reserved": 0}, {"bike_id": "0f548f4b1c8bd1bca1d28fd12f0cfe17", "name": "0f548f4b1c8bd1bca1d28fd12f0cfe17", "lat": 38.92020433333333, "fusion_lat": 0.0, "type": "electric_scooter", "lon": -77.03076066666667, "is_disabled": 0, "fusion_lon": 0.0, "rental_uris": {"android": "https://dc.lft.to/lastmile_qr_scan", "ios": "https://dc.lft.to/lastmile_qr_scan"}, "is_reserved": 0}, {"bike_id": "ad93edd7384d918ef27111cd80cf4a86", "name": "ad93edd7384d918ef27111cd80cf4a86", "lat": 38.93566766666667, "fusion_lat": 0.0, "type": "electric_scooter", "lon": -77.03251616666667, "is_disabled": 0, "fusion_lon": 0.0, "rental_uris": {"android": "https://dc.lft.to/lastmile_qr_scan", "ios": "https://dc.lft.to/lastmile_qr_scan"}, "is_reserved": 0}, {"bike_id": "698633a4cdd2da27e118a1fbe082eef6", "name": "698633a4cdd2da27e118a1fbe082eef6", "lat": 38.852219166666664, "fusion_lat": 0.0, "type": "electric_scooter", "lon": -76.9942815, "is_disabled": 0, "fusion_lon": 0.0, "rental_uris": {"android": "https://dc.lft.to/lastmile_qr_scan", "ios": "https://dc.lft.to/lastmile_qr_scan"}, "is_reserved": 0}, {"bike_id": "7081d828dba5c76986d66f84e4d918a4", "name": "7081d828dba5c76986d66f84e4d918a4", "lat": 38.89904166666667, "fusion_lat": 0.0, "type": "electric_scooter", "lon": -76.98576883333334, "is_disabled": 0, "fusion_lon": 0.0, "rental_uris": {"android": "https://dc.lft.to/lastmile_qr_scan", "ios": "https://dc.lft.to/lastmile_qr_scan"}, "is_reserved": 0}, {"bike_id": "a7d82d75f94be9e884303a6188cf2ebe", "name": "a7d82d75f94be9e884303a6188cf2ebe", "lat": 38.93616566666667, "fusion_lat": 0.0, "type": "electric_scooter", "lon": -77.03214183333333, "is_disabled": 0, "fusion_lon": 0.0, "rental_uris": {"android": "https://dc.lft.to/lastmile_qr_scan", "ios": "https://dc.lft.to/lastmile_qr_scan"}, "is_reserved": 0}, {"bike_id": "c0d0682b7eaf73892319fe6871cacd26", "name": "c0d0682b7eaf73892319fe6871cacd26", "lat": 38.924031666666664, "fusion_lat": 0.0, "type": "electric_scooter", "lon": -77.01956933333334, "is_disabled": 0, "fusion_lon": 0.0, "rental_uris": {"android": "https://dc.lft.to/lastmile_qr_scan", "ios": "https://dc.lft.to/lastmile_qr_scan"}, "is_reserved": 0}, {"bike_id": "12c3c088851436fce0f89b1d24092885", "name": "12c3c088851436fce0f89b1d24092885", "lat": 38.911333666666664, "fusion_lat": 0.0, "type": "electric_scooter", "lon": -77.03203266666667, "is_disabled": 0, "fusion_lon": 0.0, "rental_uris": {"android": "https://dc.lft.to/lastmile_qr_scan", "ios": "https://dc.lft.to/lastmile_qr_scan"}, "is_reserved": 0}, {"bike_id": "bdb28fb6f8131b6e1c5c61327d38cbc1", "name": "bdb28fb6f8131b6e1c5c61327d38cbc1", "lat": 38.932576, "fusion_lat": 0.0, "type": "electric_scooter", "lon": -77.0320355, "is_disabled": 0, "fusion_lon": 0.0, "rental_uris": {"android": "https://dc.lft.to/lastmile_qr_scan", "ios": "https://dc.lft.to/lastmile_qr_scan"}, "is_reserved": 0}, {"bike_id": "d976a89b72c4b83225a16a580a107357", "name": "d976a89b72c4b83225a16a580a107357", "lat": 38.89686316666667, "fusion_lat": 0.0, "type": "electric_scooter", "lon": -76.94729116666667, "is_disabled": 0, "fusion_lon": 0.0, "rental_uris": {"android": "https://dc.lft.to/lastmile_qr_scan", "ios": "https://dc.lft.to/lastmile_qr_scan"}, "is_reserved": 0}, {"bike_id": "ad3ce7044451972423e893f64c4226d4", "name": "ad3ce7044451972423e893f64c4226d4", "lat": 38.894531666666666, "fusion_lat": 0.0, "type": "electric_bike", "lon": -77.19131616666667, "is_disabled": 0, "fusion_lon": 0.0, "rental_uris": {"android": "https://dc.lft.to/lastmile_qr_scan", "ios": "https://dc.lft.to/lastmile_qr_scan"}, "is_reserved": 0}, {"bike_id": "3f3fab0fc4c049e700f5194adf1413bc", "name": "3f3fab0fc4c049e700f5194adf1413bc", "lat": 38.9306875, "fusion_lat": 0.0, "type": "electric_scooter", "lon": -77.03195566666666, "is_disabled": 0, "fusion_lon": 0.0, "rental_uris": {"android": "https://dc.lft.to/lastmile_qr_scan", "ios": "https://dc.lft.to/lastmile_qr_scan"}, "is_reserved": 0}, {"bike_id": "51131ab167fa0846003629937246d7c9", "name": "51131ab167fa0846003629937246d7c9", "lat": 38.90591283333333, "fusion_lat": 0.0, "type": "electric_scooter", "lon": -76.950339, "is_disabled": 0, "fusion_lon": 0.0, "rental_uris": {"android": "https://dc.lft.to/lastmile_qr_scan", "ios": "https://dc.lft.to/lastmile_qr_scan"}, "is_reserved": 0}, {"bike_id": "4c9c68b701a15db44366aa5fcb61ce4f", "name": "4c9c68b701a15db44366aa5fcb61ce4f", "lat": 38.925390666666665, "fusion_lat": 0.0, "type": "electric_scooter", "lon": -77.034073, "is_disabled": 0, "fusion_lon": 0.0, "rental_uris": {"android": "https://dc.lft.to/lastmile_qr_scan", "ios": "https://dc.lft.to/lastmile_qr_scan"}, "is_reserved": 0}, {"bike_id": "3f9968e67bfddd69a06e127d72e6fc35", "name": "3f9968e67bfddd69a06e127d72e6fc35", "lat": 38.8980095, "fusion_lat": 0.0, "type": "electric_scooter", "lon": -77.0335125, "is_disabled": 0, "fusion_lon": 0.0, "rental_uris": {"android": "https://dc.lft.to/lastmile_qr_scan", "ios": "https://dc.lft.to/lastmile_qr_scan"}, "is_reserved": 0}, {"bike_id": "aa680f7b472199795a65269b6ded180a", "name": "aa680f7b472199795a65269b6ded180a", "lat": 38.902581833333336, "fusion_lat": 0.0, "type": "electric_scooter", "lon": -77.01761833333333, "is_disabled": 0, "fusion_lon": 0.0, "rental_uris": {"android": "https://dc.lft.to/lastmile_qr_scan", "ios": "https://dc.lft.to/lastmile_qr_scan"}, "is_reserved": 0}, {"bike_id": "eb2a67340b9f7724017a355b12552357", "name": "eb2a67340b9f7724017a355b12552357", "lat": 38.88379833333333, "fusion_lat": 0.0, "type": "electric_scooter", "lon": -76.93044016666667, "is_disabled": 0, "fusion_lon": 0.0, "rental_uris": {"android": "https://dc.lft.to/lastmile_qr_scan", "ios": "https://dc.lft.to/lastmile_qr_scan"}, "is_reserved": 0}, {"bike_id": "7b10175a8a7689dd5fa3a9e9331aea85", "name": "7b10175a8a7689dd5fa3a9e9331aea85", "lat": 38.901392, "fusion_lat": 0.0, "type": "electric_scooter", "lon": -77.04448066666667, "is_disabled": 0, "fusion_lon": 0.0, "rental_uris": {"android": "https://dc.lft.to/lastmile_qr_scan", "ios": "https://dc.lft.to/lastmile_qr_scan"}, "is_reserved": 0}, {"bike_id": "31e5411a6795366f95820159d15441c9", "name": "31e5411a6795366f95820159d15441c9", "lat": 38.8893055, "fusion_lat": 0.0, "type": "electric_bike", "lon": -76.913293, "is_disabled": 0, "fusion_lon": 0.0, "rental_uris": {"android": "https://dc.lft.to/lastmile_qr_scan", "ios": "https://dc.lft.to/lastmile_qr_scan"}, "is_reserved": 0}, {"bike_id": "9e492746ef1954a108542c65469ac1f3", "name": "9e492746ef1954a108542c65469ac1f3", "lat": 38.9286885, "fusion_lat": 0.0, "type": "electric_scooter", "lon": -77.0141775, "is_disabled": 0, "fusion_lon": 0.0, "rental_uris": {"android": "https://dc.lft.to/lastmile_qr_scan", "ios": "https://dc.lft.to/lastmile_qr_scan"}, "is_reserved": 0}, {"bike_id": "1d010a820c96d11111b9389b023f930f", "name": "1d010a820c96d11111b9389b023f930f", "lat": 38.863443833333335, "fusion_lat": 0.0, "type": "electric_scooter", "lon": -76.98698466666667, "is_disabled": 0, "fusion_lon": 0.0, "rental_uris": {"android": "https://dc.lft.to/lastmile_qr_scan", "ios": "https://dc.lft.to/lastmile_qr_scan"}, "is_reserved": 0}, {"bike_id": "0f3c498f35e5e3089cbca89db40ebd26", "name": "0f3c498f35e5e3089cbca89db40ebd26", "lat": 38.91417833333333, "fusion_lat": 0.0, "type": "electric_scooter", "lon": -77.01803066666666, "is_disabled": 0, "fusion_lon": 0.0, "rental_uris": {"android": "https://dc.lft.to/lastmile_qr_scan", "ios": "https://dc.lft.to/lastmile_qr_scan"}, "is_reserved": 0}, {"bike_id": "dfb4f3d5763dd63eab2ae8fd6017b6a5", "name": "dfb4f3d5763dd63eab2ae8fd6017b6a5", "lat": 38.915279166666664, "fusion_lat": 0.0, "type": "electric_scooter", "lon": -77.02182133333334, "is_disabled": 0, "fusion_lon": 0.0, "rental_uris": {"android": "https://dc.lft.to/lastmile_qr_scan", "ios": "https://dc.lft.to/lastmile_qr_scan"}, "is_reserved": 0}, {"bike_id": "e13e2d53ea0aa6a27d04ec4093b012c3", "name": "e13e2d53ea0aa6a27d04ec4093b012c3", "lat": 38.8962685, "fusion_lat": 0.0, "type": "electric_scooter", "lon": -77.00207566666667, "is_disabled": 0, "fusion_lon": 0.0, "rental_uris": {"android": "https://dc.lft.to/lastmile_qr_scan", "ios": "https://dc.lft.to/lastmile_qr_scan"}, "is_reserved": 0}, {"bike_id": "337d4d27f14435ce2049e05c6a4b78a1", "name": "337d4d27f14435ce2049e05c6a4b78a1", "lat": 38.9021265, "fusion_lat": 0.0, "type": "electric_scooter", "lon": -77.02368866666667, "is_disabled": 0, "fusion_lon": 0.0, "rental_uris": {"android": "https://dc.lft.to/lastmile_qr_scan", "ios": "https://dc.lft.to/lastmile_qr_scan"}, "is_reserved": 0}, {"bike_id": "f651b7fa548e68b8994d8cd3eb3a4038", "name": "f651b7fa548e68b8994d8cd3eb3a4038", "lat": 38.878893166666664, "fusion_lat": 0.0, "type": "electric_scooter", "lon": -76.99160816666667, "is_disabled": 0, "fusion_lon": 0.0, "rental_uris": {"android": "https://dc.lft.to/lastmile_qr_scan", "ios": "https://dc.lft.to/lastmile_qr_scan"}, "is_reserved": 0}, {"bike_id": "3690e439248502eb0563767a9721285b", "name": "3690e439248502eb0563767a9721285b", "lat": 38.901557833333335, "fusion_lat": 0.0, "type": "electric_scooter", "lon": -77.04876266666666, "is_disabled": 0, "fusion_lon": 0.0, "rental_uris": {"android": "https://dc.lft.to/lastmile_qr_scan", "ios": "https://dc.lft.to/lastmile_qr_scan"}, "is_reserved": 0}, {"bike_id": "10606dd3cef9b11e87c1d3f17ba23108", "name": "10606dd3cef9b11e87c1d3f17ba23108", "lat": 38.9280825, "fusion_lat": 0.0, "type": "electric_scooter", "lon": -77.03619283333333, "is_disabled": 0, "fusion_lon": 0.0, "rental_uris": {"android": "https://dc.lft.to/lastmile_qr_scan", "ios": "https://dc.lft.to/lastmile_qr_scan"}, "is_reserved": 0}, {"bike_id": "ef4fac0aa239ea9ddc376b7d58e9dd59", "name": "ef4fac0aa239ea9ddc376b7d58e9dd59", "lat": 38.912671, "fusion_lat": 0.0, "type": "electric_scooter", "lon": -77.022086, "is_disabled": 0, "fusion_lon": 0.0, "rental_uris": {"android": "https://dc.lft.to/lastmile_qr_scan", "ios": "https://dc.lft.to/lastmile_qr_scan"}, "is_reserved": 0}, {"bike_id": "93df2e9f82f6270786d367b54a323167", "name": "93df2e9f82f6270786d367b54a323167", "lat": 38.898636833333335, "fusion_lat": 0.0, "type": "electric_scooter", "lon": -77.02716933333333, "is_disabled": 0, "fusion_lon": 0.0, "rental_uris": {"android": "https://dc.lft.to/lastmile_qr_scan", "ios": "https://dc.lft.to/lastmile_qr_scan"}, "is_reserved": 0}, {"bike_id": "4f04fefa548abca30276058562011802", "name": "4f04fefa548abca30276058562011802", "lat": 38.909606, "fusion_lat": 0.0, "type": "electric_scooter", "lon": -77.01443416666666, "is_disabled": 0, "fusion_lon": 0.0, "rental_uris": {"android": "https://dc.lft.to/lastmile_qr_scan", "ios": "https://dc.lft.to/lastmile_qr_scan"}, "is_reserved": 0}, {"bike_id": "352d70842aa7efe46806e541a89e3ad6", "name": "352d70842aa7efe46806e541a89e3ad6", "lat": 38.902544166666665, "fusion_lat": 0.0, "type": "electric_scooter", "lon": -77.01740783333334, "is_disabled": 0, "fusion_lon": 0.0, "rental_uris": {"android": "https://dc.lft.to/lastmile_qr_scan", "ios": "https://dc.lft.to/lastmile_qr_scan"}, "is_reserved": 0}, {"bike_id": "118d01aa93835d1f2b1613d3a003ef97", "name": "118d01aa93835d1f2b1613d3a003ef97", "lat": 38.898815166666665, "fusion_lat": 0.0, "type": "electric_bike", "lon": -76.9788325, "is_disabled": 0, "fusion_lon": 0.0, "rental_uris": {"android": "https://dc.lft.to/lastmile_qr_scan", "ios": "https://dc.lft.to/lastmile_qr_scan"}, "is_reserved": 0}, {"bike_id": "a25016c517f6463ba29f4fb8c72f29ba", "name": "a25016c517f6463ba29f4fb8c72f29ba", "lat": 38.92399983333333, "fusion_lat": 0.0, "type": "electric_scooter", "lon": -76.95144933333333, "is_disabled": 0, "fusion_lon": 0.0, "rental_uris": {"android": "https://dc.lft.to/lastmile_qr_scan", "ios": "https://dc.lft.to/lastmile_qr_scan"}, "is_reserved": 0}, {"bike_id": "f0292f9546e83963da8c7d26d77a93f7", "name": "f0292f9546e83963da8c7d26d77a93f7", "lat": 38.903283, "fusion_lat": 0.0, "type": "electric_scooter", "lon": -77.016114, "is_disabled": 0, "fusion_lon": 0.0, "rental_uris": {"android": "https://dc.lft.to/lastmile_qr_scan", "ios": "https://dc.lft.to/lastmile_qr_scan"}, "is_reserved": 0}, {"bike_id": "d17c02a81af05eb819133e636e7dfabe", "name": "d17c02a81af05eb819133e636e7dfabe", "lat": 38.913957333333336, "fusion_lat": 0.0, "type": "electric_scooter", "lon": -77.04677483333333, "is_disabled": 0, "fusion_lon": 0.0, "rental_uris": {"android": "https://dc.lft.to/lastmile_qr_scan", "ios": "https://dc.lft.to/lastmile_qr_scan"}, "is_reserved": 0}, {"bike_id": "34a42436e753d9acaafdf8aad12d5d9b", "name": "34a42436e753d9acaafdf8aad12d5d9b", "lat": 38.86364716666667, "fusion_lat": 0.0, "type": "electric_bike", "lon": -76.97008833333334, "is_disabled": 0, "fusion_lon": 0.0, "rental_uris": {"android": "https://dc.lft.to/lastmile_qr_scan", "ios": "https://dc.lft.to/lastmile_qr_scan"}, "is_reserved": 0}, {"bike_id": "af38e3e237bdfe375e8e09f990e2c961", "name": "af38e3e237bdfe375e8e09f990e2c961", "lat": 38.900649333333334, "fusion_lat": 0.0, "type": "electric_scooter", "lon": -76.9274355, "is_disabled": 0, "fusion_lon": 0.0, "rental_uris": {"android": "https://dc.lft.to/lastmile_qr_scan", "ios": "https://dc.lft.to/lastmile_qr_scan"}, "is_reserved": 0}, {"bike_id": "a8507d1be92f7dac98ecfeceffe4c791", "name": "a8507d1be92f7dac98ecfeceffe4c791", "lat": 38.917881666666666, "fusion_lat": 0.0, "type": "electric_scooter", "lon": -77.03215333333333, "is_disabled": 0, "fusion_lon": 0.0, "rental_uris": {"android": "https://dc.lft.to/lastmile_qr_scan", "ios": "https://dc.lft.to/lastmile_qr_scan"}, "is_reserved": 0}, {"bike_id": "d0037f54d464d220311081993d8580e7", "name": "d0037f54d464d220311081993d8580e7", "lat": 38.94238416666666, "fusion_lat": 0.0, "type": "electric_scooter", "lon": -77.03585866666667, "is_disabled": 0, "fusion_lon": 0.0, "rental_uris": {"android": "https://dc.lft.to/lastmile_qr_scan", "ios": "https://dc.lft.to/lastmile_qr_scan"}, "is_reserved": 0}, {"bike_id": "73c99e676ab72213d9d93b7ea359e0aa", "name": "73c99e676ab72213d9d93b7ea359e0aa", "lat": 38.887191333333334, "fusion_lat": 0.0, "type": "electric_scooter", "lon": -76.98365933333334, "is_disabled": 0, "fusion_lon": 0.0, "rental_uris": {"android": "https://dc.lft.to/lastmile_qr_scan", "ios": "https://dc.lft.to/lastmile_qr_scan"}, "is_reserved": 0}, {"bike_id": "679ba6b95c619965582bbe09567c8cb6", "name": "679ba6b95c619965582bbe09567c8cb6", "lat": 38.922819833333335, "fusion_lat": 0.0, "type": "electric_scooter", "lon": -77.03661016666666, "is_disabled": 0, "fusion_lon": 0.0, "rental_uris": {"android": "https://dc.lft.to/lastmile_qr_scan", "ios": "https://dc.lft.to/lastmile_qr_scan"}, "is_reserved": 0}, {"bike_id": "8ac86acfa571aeaed277b69e3609d575", "name": "8ac86acfa571aeaed277b69e3609d575", "lat": 38.90966133333333, "fusion_lat": 0.0, "type": "electric_scooter", "lon": -77.0258525, "is_disabled": 0, "fusion_lon": 0.0, "rental_uris": {"android": "https://dc.lft.to/lastmile_qr_scan", "ios": "https://dc.lft.to/lastmile_qr_scan"}, "is_reserved": 0}, {"bike_id": "9012689afe6eccb3a0ccf5ec4552e5ce", "name": "9012689afe6eccb3a0ccf5ec4552e5ce", "lat": 38.918096166666665, "fusion_lat": 0.0, "type": "electric_scooter", "lon": -77.030323, "is_disabled": 0, "fusion_lon": 0.0, "rental_uris": {"android": "https://dc.lft.to/lastmile_qr_scan", "ios": "https://dc.lft.to/lastmile_qr_scan"}, "is_reserved": 0}, {"bike_id": "5cfb93bffb5ffa59d35d48beff7f6559", "name": "5cfb93bffb5ffa59d35d48beff7f6559", "lat": 38.896111166666664, "fusion_lat": 0.0, "type": "electric_scooter", "lon": -77.04414016666666, "is_disabled": 0, "fusion_lon": 0.0, "rental_uris": {"android": "https://dc.lft.to/lastmile_qr_scan", "ios": "https://dc.lft.to/lastmile_qr_scan"}, "is_reserved": 0}, {"bike_id": "0b1bb8fc70e40a93b8d027580524b695", "name": "0b1bb8fc70e40a93b8d027580524b695", "lat": 38.92945316666667, "fusion_lat": 0.0, "type": "electric_scooter", "lon": -77.0040925, "is_disabled": 0, "fusion_lon": 0.0, "rental_uris": {"android": "https://dc.lft.to/lastmile_qr_scan", "ios": "https://dc.lft.to/lastmile_qr_scan"}, "is_reserved": 0}, {"bike_id": "1f0dc7d33f8e1086b430d5a5f8fb4ab8", "name": "1f0dc7d33f8e1086b430d5a5f8fb4ab8", "lat": 38.916495, "fusion_lat": 0.0, "type": "electric_scooter", "lon": -77.03203216666667, "is_disabled": 0, "fusion_lon": 0.0, "rental_uris": {"android": "https://dc.lft.to/lastmile_qr_scan", "ios": "https://dc.lft.to/lastmile_qr_scan"}, "is_reserved": 0}, {"bike_id": "afceccc057ff2db345832ca9cc966269", "name": "afceccc057ff2db345832ca9cc966269", "lat": 38.90994116666667, "fusion_lat": 0.0, "type": "electric_scooter", "lon": -77.04010783333334, "is_disabled": 0, "fusion_lon": 0.0, "rental_uris": {"android": "https://dc.lft.to/lastmile_qr_scan", "ios": "https://dc.lft.to/lastmile_qr_scan"}, "is_reserved": 0}, {"bike_id": "871b62d37f4dca5d0fd1439fc1874082", "name": "871b62d37f4dca5d0fd1439fc1874082", "lat": 38.881185333333335, "fusion_lat": 0.0, "type": "electric_scooter", "lon": -77.01698583333334, "is_disabled": 0, "fusion_lon": 0.0, "rental_uris": {"android": "https://dc.lft.to/lastmile_qr_scan", "ios": "https://dc.lft.to/lastmile_qr_scan"}, "is_reserved": 0}, {"bike_id": "38c644d62dc4bb11e242218f03865077", "name": "38c644d62dc4bb11e242218f03865077", "lat": 38.9056015, "fusion_lat": 0.0, "type": "electric_scooter", "lon": -77.00591466666667, "is_disabled": 0, "fusion_lon": 0.0, "rental_uris": {"android": "https://dc.lft.to/lastmile_qr_scan", "ios": "https://dc.lft.to/lastmile_qr_scan"}, "is_reserved": 0}, {"bike_id": "cc6f37380f4f564d2f4e9a46c2759997", "name": "cc6f37380f4f564d2f4e9a46c2759997", "lat": 38.908163333333334, "fusion_lat": 0.0, "type": "electric_bike", "lon": -76.99718533333333, "is_disabled": 0, "fusion_lon": 0.0, "rental_uris": {"android": "https://dc.lft.to/lastmile_qr_scan", "ios": "https://dc.lft.to/lastmile_qr_scan"}, "is_reserved": 0}, {"bike_id": "2babc9df5b252a1f3c662562313304a7", "name": "2babc9df5b252a1f3c662562313304a7", "lat": 38.998915, "fusion_lat": 0.0, "type": "electric_bike", "lon": -76.90860866666667, "is_disabled": 0, "fusion_lon": 0.0, "rental_uris": {"android": "https://dc.lft.to/lastmile_qr_scan", "ios": "https://dc.lft.to/lastmile_qr_scan"}, "is_reserved": 0}, {"bike_id": "0511cc1f1f571a885a59cbf2897bc1d4", "name": "0511cc1f1f571a885a59cbf2897bc1d4", "lat": 38.9204115, "fusion_lat": 0.0, "type": "electric_scooter", "lon": -77.016706, "is_disabled": 0, "fusion_lon": 0.0, "rental_uris": {"android": "https://dc.lft.to/lastmile_qr_scan", "ios": "https://dc.lft.to/lastmile_qr_scan"}, "is_reserved": 0}, {"bike_id": "0902413e5ef3b9a4e46ed03e357ac641", "name": "0902413e5ef3b9a4e46ed03e357ac641", "lat": 38.942193833333334, "fusion_lat": 0.0, "type": "electric_scooter", "lon": -77.02959566666667, "is_disabled": 0, "fusion_lon": 0.0, "rental_uris": {"android": "https://dc.lft.to/lastmile_qr_scan", "ios": "https://dc.lft.to/lastmile_qr_scan"}, "is_reserved": 0}, {"bike_id": "8d08fbcde810ea05a0cfdf0f0ca49f46", "name": "8d08fbcde810ea05a0cfdf0f0ca49f46", "lat": 38.87037133333333, "fusion_lat": 0.0, "type": "electric_bike", "lon": -77.22912266666667, "is_disabled": 0, "fusion_lon": 0.0, "rental_uris": {"android": "https://dc.lft.to/lastmile_qr_scan", "ios": "https://dc.lft.to/lastmile_qr_scan"}, "is_reserved": 0}, {"bike_id": "6f6b2f7ac5ff9fb38529b57653894858", "name": "6f6b2f7ac5ff9fb38529b57653894858", "lat": 38.9011515, "fusion_lat": 0.0, "type": "electric_scooter", "lon": -77.01238166666667, "is_disabled": 0, "fusion_lon": 0.0, "rental_uris": {"android": "https://dc.lft.to/lastmile_qr_scan", "ios": "https://dc.lft.to/lastmile_qr_scan"}, "is_reserved": 0}, {"bike_id": "6c1cf6f224ea024e3de9599c1949b559", "name": "6c1cf6f224ea024e3de9599c1949b559", "lat": 38.980869, "fusion_lat": 0.0, "type": "electric_bike", "lon": -77.026083, "is_disabled": 0, "fusion_lon": 0.0, "rental_uris": {"android": "https://dc.lft.to/lastmile_qr_scan", "ios": "https://dc.lft.to/lastmile_qr_scan"}, "is_reserved": 0}, {"bike_id": "8c72771bfae621bbe47bb6fc9b1a832e", "name": "8c72771bfae621bbe47bb6fc9b1a832e", "lat": 38.91487716666666, "fusion_lat": 0.0, "type": "electric_scooter", "lon": -77.03293, "is_disabled": 0, "fusion_lon": 0.0, "rental_uris": {"android": "https://dc.lft.to/lastmile_qr_scan", "ios": "https://dc.lft.to/lastmile_qr_scan"}, "is_reserved": 0}, {"bike_id": "1c424e9db4cb5718aa4523dda664eb97", "name": "1c424e9db4cb5718aa4523dda664eb97", "lat": 38.85433366666667, "fusion_lat": 0.0, "type": "electric_bike", "lon": -77.08321266666667, "is_disabled": 0, "fusion_lon": 0.0, "rental_uris": {"android": "https://dc.lft.to/lastmile_qr_scan", "ios": "https://dc.lft.to/lastmile_qr_scan"}, "is_reserved": 0}, {"bike_id": "56582fc8c581823569676b87811e9315", "name": "56582fc8c581823569676b87811e9315", "lat": 38.92348833333333, "fusion_lat": 0.0, "type": "electric_scooter", "lon": -77.05241883333333, "is_disabled": 0, "fusion_lon": 0.0, "rental_uris": {"android": "https://dc.lft.to/lastmile_qr_scan", "ios": "https://dc.lft.to/lastmile_qr_scan"}, "is_reserved": 0}, {"bike_id": "9945bc4857ba9d2101ce6bc6c3d16c23", "name": "9945bc4857ba9d2101ce6bc6c3d16c23", "lat": 38.89707966666667, "fusion_lat": 0.0, "type": "electric_scooter", "lon": -76.99119966666666, "is_disabled": 0, "fusion_lon": 0.0, "rental_uris": {"android": "https://dc.lft.to/lastmile_qr_scan", "ios": "https://dc.lft.to/lastmile_qr_scan"}, "is_reserved": 0}, {"bike_id": "a5d42da589ea6c0ede95fdd17559837e", "name": "a5d42da589ea6c0ede95fdd17559837e", "lat": 38.914094, "fusion_lat": 0.0, "type": "electric_scooter", "lon": -77.031707, "is_disabled": 0, "fusion_lon": 0.0, "rental_uris": {"android": "https://dc.lft.to/lastmile_qr_scan", "ios": "https://dc.lft.to/lastmile_qr_scan"}, "is_reserved": 0}, {"bike_id": "244f9afa8bcbeddb36ce69c79d7f26ac", "name": "244f9afa8bcbeddb36ce69c79d7f26ac", "lat": 38.92326333333333, "fusion_lat": 0.0, "type": "electric_scooter", "lon": -77.01952883333334, "is_disabled": 0, "fusion_lon": 0.0, "rental_uris": {"android": "https://dc.lft.to/lastmile_qr_scan", "ios": "https://dc.lft.to/lastmile_qr_scan"}, "is_reserved": 0}, {"bike_id": "4100ca4ec14cc5af6e430f272f872c56", "name": "4100ca4ec14cc5af6e430f272f872c56", "lat": 38.91393766666667, "fusion_lat": 0.0, "type": "electric_scooter", "lon": -77.0179755, "is_disabled": 0, "fusion_lon": 0.0, "rental_uris": {"android": "https://dc.lft.to/lastmile_qr_scan", "ios": "https://dc.lft.to/lastmile_qr_scan"}, "is_reserved": 0}, {"bike_id": "369f35f59d3ad4d3fa668a998c37ccff", "name": "369f35f59d3ad4d3fa668a998c37ccff", "lat": 38.924162333333335, "fusion_lat": 0.0, "type": "electric_scooter", "lon": -77.02006983333334, "is_disabled": 0, "fusion_lon": 0.0, "rental_uris": {"android": "https://dc.lft.to/lastmile_qr_scan", "ios": "https://dc.lft.to/lastmile_qr_scan"}, "is_reserved": 0}, {"bike_id": "feea882933ff5ca6d820783d39733b21", "name": "feea882933ff5ca6d820783d39733b21", "lat": 38.917063, "fusion_lat": 0.0, "type": "electric_scooter", "lon": -77.03428283333334, "is_disabled": 0, "fusion_lon": 0.0, "rental_uris": {"android": "https://dc.lft.to/lastmile_qr_scan", "ios": "https://dc.lft.to/lastmile_qr_scan"}, "is_reserved": 0}, {"bike_id": "92499215b1b28b4211e0e4b984f4d555", "name": "92499215b1b28b4211e0e4b984f4d555", "lat": 38.89565233333333, "fusion_lat": 0.0, "type": "electric_scooter", "lon": -77.02966083333334, "is_disabled": 0, "fusion_lon": 0.0, "rental_uris": {"android": "https://dc.lft.to/lastmile_qr_scan", "ios": "https://dc.lft.to/lastmile_qr_scan"}, "is_reserved": 0}, {"bike_id": "40cd8cf925d5ed78c622d03342a09b18", "name": "40cd8cf925d5ed78c622d03342a09b18", "lat": 38.908788666666666, "fusion_lat": 0.0, "type": "electric_scooter", "lon": -77.003534, "is_disabled": 0, "fusion_lon": 0.0, "rental_uris": {"android": "https://dc.lft.to/lastmile_qr_scan", "ios": "https://dc.lft.to/lastmile_qr_scan"}, "is_reserved": 0}, {"bike_id": "74640a2955567d9f839ae75b00ae7cde", "name": "74640a2955567d9f839ae75b00ae7cde", "lat": 38.9157155, "fusion_lat": 0.0, "type": "electric_scooter", "lon": -77.03195516666666, "is_disabled": 0, "fusion_lon": 0.0, "rental_uris": {"android": "https://dc.lft.to/lastmile_qr_scan", "ios": "https://dc.lft.to/lastmile_qr_scan"}, "is_reserved": 0}, {"bike_id": "108e1776748d62f6f041b60db0e53409", "name": "108e1776748d62f6f041b60db0e53409", "lat": 38.9220085, "fusion_lat": 0.0, "type": "electric_scooter", "lon": -77.02033966666667, "is_disabled": 0, "fusion_lon": 0.0, "rental_uris": {"android": "https://dc.lft.to/lastmile_qr_scan", "ios": "https://dc.lft.to/lastmile_qr_scan"}, "is_reserved": 0}, {"bike_id": "6f3cb93522930afbf8206f02e432422c", "name": "6f3cb93522930afbf8206f02e432422c", "lat": 38.910178333333334, "fusion_lat": 0.0, "type": "electric_scooter", "lon": -76.99373583333333, "is_disabled": 0, "fusion_lon": 0.0, "rental_uris": {"android": "https://dc.lft.to/lastmile_qr_scan", "ios": "https://dc.lft.to/lastmile_qr_scan"}, "is_reserved": 0}, {"bike_id": "ee4814c53c3507ad80d8e5ab305bd72e", "name": "ee4814c53c3507ad80d8e5ab305bd72e", "lat": 38.920255166666664, "fusion_lat": 0.0, "type": "electric_scooter", "lon": -77.0307385, "is_disabled": 0, "fusion_lon": 0.0, "rental_uris": {"android": "https://dc.lft.to/lastmile_qr_scan", "ios": "https://dc.lft.to/lastmile_qr_scan"}, "is_reserved": 0}, {"bike_id": "c5c8c12771b67034cf355931d7d35cb4", "name": "c5c8c12771b67034cf355931d7d35cb4", "lat": 38.8765835, "fusion_lat": 0.0, "type": "electric_scooter", "lon": -76.99326333333333, "is_disabled": 0, "fusion_lon": 0.0, "rental_uris": {"android": "https://dc.lft.to/lastmile_qr_scan", "ios": "https://dc.lft.to/lastmile_qr_scan"}, "is_reserved": 0}, {"bike_id": "879e88fb4c6ae8d5643797bd01cb50e4", "name": "879e88fb4c6ae8d5643797bd01cb50e4", "lat": 38.9304465, "fusion_lat": 0.0, "type": "electric_scooter", "lon": -76.95839916666667, "is_disabled": 0, "fusion_lon": 0.0, "rental_uris": {"android": "https://dc.lft.to/lastmile_qr_scan", "ios": "https://dc.lft.to/lastmile_qr_scan"}, "is_reserved": 0}, {"bike_id": "cce69209a2618c8938d58834d5b8f436", "name": "cce69209a2618c8938d58834d5b8f436", "lat": 38.911530666666664, "fusion_lat": 0.0, "type": "electric_scooter", "lon": -77.0229005, "is_disabled": 0, "fusion_lon": 0.0, "rental_uris": {"android": "https://dc.lft.to/lastmile_qr_scan", "ios": "https://dc.lft.to/lastmile_qr_scan"}, "is_reserved": 0}, {"bike_id": "b5d8f129f58a23d61c3a64c41cc506ac", "name": "b5d8f129f58a23d61c3a64c41cc506ac", "lat": 38.92131366666667, "fusion_lat": 0.0, "type": "electric_scooter", "lon": -77.03667316666667, "is_disabled": 0, "fusion_lon": 0.0, "rental_uris": {"android": "https://dc.lft.to/lastmile_qr_scan", "ios": "https://dc.lft.to/lastmile_qr_scan"}, "is_reserved": 0}, {"bike_id": "22ee7fae7ce90b7579d2f683daa9f46a", "name": "22ee7fae7ce90b7579d2f683daa9f46a", "lat": 38.920801, "fusion_lat": 0.0, "type": "electric_scooter", "lon": -77.03559516666667, "is_disabled": 0, "fusion_lon": 0.0, "rental_uris": {"android": "https://dc.lft.to/lastmile_qr_scan", "ios": "https://dc.lft.to/lastmile_qr_scan"}, "is_reserved": 0}, {"bike_id": "7f7d967d7bc6c8139fe298e55051def2", "name": "7f7d967d7bc6c8139fe298e55051def2", "lat": 38.9106925, "fusion_lat": 0.0, "type": "electric_scooter", "lon": -77.041172, "is_disabled": 0, "fusion_lon": 0.0, "rental_uris": {"android": "https://dc.lft.to/lastmile_qr_scan", "ios": "https://dc.lft.to/lastmile_qr_scan"}, "is_reserved": 0}, {"bike_id": "0eee82a0129ee4509f93f390d7569db0", "name": "0eee82a0129ee4509f93f390d7569db0", "lat": 38.9040985, "fusion_lat": 0.0, "type": "electric_scooter", "lon": -76.9733055, "is_disabled": 0, "fusion_lon": 0.0, "rental_uris": {"android": "https://dc.lft.to/lastmile_qr_scan", "ios": "https://dc.lft.to/lastmile_qr_scan"}, "is_reserved": 0}, {"bike_id": "c5128bef7ffb26e51caacf1659b8201b", "name": "c5128bef7ffb26e51caacf1659b8201b", "lat": 38.91618016666666, "fusion_lat": 0.0, "type": "electric_scooter", "lon": -77.044922, "is_disabled": 0, "fusion_lon": 0.0, "rental_uris": {"android": "https://dc.lft.to/lastmile_qr_scan", "ios": "https://dc.lft.to/lastmile_qr_scan"}, "is_reserved": 0}, {"bike_id": "8711fce594a8a3457040ebeee7a89bf2", "name": "8711fce594a8a3457040ebeee7a89bf2", "lat": 38.915814, "fusion_lat": 0.0, "type": "electric_scooter", "lon": -77.01239783333334, "is_disabled": 0, "fusion_lon": 0.0, "rental_uris": {"android": "https://dc.lft.to/lastmile_qr_scan", "ios": "https://dc.lft.to/lastmile_qr_scan"}, "is_reserved": 0}, {"bike_id": "1cd8e18eafcf2e9eddf2eb0aff5f1497", "name": "1cd8e18eafcf2e9eddf2eb0aff5f1497", "lat": 38.907690833333334, "fusion_lat": 0.0, "type": "electric_scooter", "lon": -77.0433395, "is_disabled": 0, "fusion_lon": 0.0, "rental_uris": {"android": "https://dc.lft.to/lastmile_qr_scan", "ios": "https://dc.lft.to/lastmile_qr_scan"}, "is_reserved": 0}, {"bike_id": "a93ae3c978d9a7b0af6f7b5eb6173bf5", "name": "a93ae3c978d9a7b0af6f7b5eb6173bf5", "lat": 38.913877, "fusion_lat": 0.0, "type": "electric_scooter", "lon": -76.98420383333334, "is_disabled": 0, "fusion_lon": 0.0, "rental_uris": {"android": "https://dc.lft.to/lastmile_qr_scan", "ios": "https://dc.lft.to/lastmile_qr_scan"}, "is_reserved": 0}, {"bike_id": "f663a334b620e76a6f6f8d7101c4a814", "name": "f663a334b620e76a6f6f8d7101c4a814", "lat": 38.918479, "fusion_lat": 0.0, "type": "electric_scooter", "lon": -77.03195416666667, "is_disabled": 0, "fusion_lon": 0.0, "rental_uris": {"android": "https://dc.lft.to/lastmile_qr_scan", "ios": "https://dc.lft.to/lastmile_qr_scan"}, "is_reserved": 0}, {"bike_id": "9742d74bb0d238d146b6628b959166a5", "name": "9742d74bb0d238d146b6628b959166a5", "lat": 38.920253, "fusion_lat": 0.0, "type": "electric_scooter", "lon": -77.01030383333334, "is_disabled": 0, "fusion_lon": 0.0, "rental_uris": {"android": "https://dc.lft.to/lastmile_qr_scan", "ios": "https://dc.lft.to/lastmile_qr_scan"}, "is_reserved": 0}, {"bike_id": "1f0712856cdc58193e38a03a3ce9ebb5", "name": "1f0712856cdc58193e38a03a3ce9ebb5", "lat": 38.884391, "fusion_lat": 0.0, "type": "electric_scooter", "lon": -77.00348033333333, "is_disabled": 0, "fusion_lon": 0.0, "rental_uris": {"android": "https://dc.lft.to/lastmile_qr_scan", "ios": "https://dc.lft.to/lastmile_qr_scan"}, "is_reserved": 0}, {"bike_id": "a3146064c6ec83a955a589d5b4df8906", "name": "a3146064c6ec83a955a589d5b4df8906", "lat": 38.984286, "fusion_lat": 0.0, "type": "electric_scooter", "lon": -77.02672116666666, "is_disabled": 0, "fusion_lon": 0.0, "rental_uris": {"android": "https://dc.lft.to/lastmile_qr_scan", "ios": "https://dc.lft.to/lastmile_qr_scan"}, "is_reserved": 0}, {"bike_id": "2714aec755bc5d14224a1675a4c1e118", "name": "2714aec755bc5d14224a1675a4c1e118", "lat": 38.888763, "fusion_lat": 0.0, "type": "electric_scooter", "lon": -76.99034033333334, "is_disabled": 0, "fusion_lon": 0.0, "rental_uris": {"android": "https://dc.lft.to/lastmile_qr_scan", "ios": "https://dc.lft.to/lastmile_qr_scan"}, "is_reserved": 0}, {"bike_id": "98a1f2800d110d1442d05c104fe477d2", "name": "98a1f2800d110d1442d05c104fe477d2", "lat": 38.90215883333333, "fusion_lat": 0.0, "type": "electric_scooter", "lon": -77.03748516666667, "is_disabled": 0, "fusion_lon": 0.0, "rental_uris": {"android": "https://dc.lft.to/lastmile_qr_scan", "ios": "https://dc.lft.to/lastmile_qr_scan"}, "is_reserved": 0}, {"bike_id": "ffe7d715526888f1051aa41428554d57", "name": "ffe7d715526888f1051aa41428554d57", "lat": 38.902765333333335, "fusion_lat": 0.0, "type": "electric_scooter", "lon": -77.0177315, "is_disabled": 0, "fusion_lon": 0.0, "rental_uris": {"android": "https://dc.lft.to/lastmile_qr_scan", "ios": "https://dc.lft.to/lastmile_qr_scan"}, "is_reserved": 0}, {"bike_id": "92edebe417d747b08b245317879a66e1", "name": "92edebe417d747b08b245317879a66e1", "lat": 38.97514316666667, "fusion_lat": 0.0, "type": "electric_scooter", "lon": -77.01735916666667, "is_disabled": 0, "fusion_lon": 0.0, "rental_uris": {"android": "https://dc.lft.to/lastmile_qr_scan", "ios": "https://dc.lft.to/lastmile_qr_scan"}, "is_reserved": 0}, {"bike_id": "8414f26a207e3968426d7a6540bac73d", "name": "8414f26a207e3968426d7a6540bac73d", "lat": 38.916883166666665, "fusion_lat": 0.0, "type": "electric_scooter", "lon": -77.027958, "is_disabled": 0, "fusion_lon": 0.0, "rental_uris": {"android": "https://dc.lft.to/lastmile_qr_scan", "ios": "https://dc.lft.to/lastmile_qr_scan"}, "is_reserved": 0}, {"bike_id": "f6f82a2dd8ccebe5872d532cd400d035", "name": "f6f82a2dd8ccebe5872d532cd400d035", "lat": 38.92225916666666, "fusion_lat": 0.0, "type": "electric_scooter", "lon": -77.03747633333333, "is_disabled": 0, "fusion_lon": 0.0, "rental_uris": {"android": "https://dc.lft.to/lastmile_qr_scan", "ios": "https://dc.lft.to/lastmile_qr_scan"}, "is_reserved": 0}, {"bike_id": "18f2669743bdf2786ed40e4b62df3ddc", "name": "18f2669743bdf2786ed40e4b62df3ddc", "lat": 38.903115666666665, "fusion_lat": 0.0, "type": "electric_scooter", "lon": -77.01857083333333, "is_disabled": 0, "fusion_lon": 0.0, "rental_uris": {"android": "https://dc.lft.to/lastmile_qr_scan", "ios": "https://dc.lft.to/lastmile_qr_scan"}, "is_reserved": 0}, {"bike_id": "5e6f855b2721a3d248be6a5c686f655f", "name": "5e6f855b2721a3d248be6a5c686f655f", "lat": 38.914187166666665, "fusion_lat": 0.0, "type": "electric_scooter", "lon": -77.01801983333333, "is_disabled": 0, "fusion_lon": 0.0, "rental_uris": {"android": "https://dc.lft.to/lastmile_qr_scan", "ios": "https://dc.lft.to/lastmile_qr_scan"}, "is_reserved": 0}, {"bike_id": "5009df79796be7ccd116184529991146", "name": "5009df79796be7ccd116184529991146", "lat": 38.90348616666667, "fusion_lat": 0.0, "type": "electric_scooter", "lon": -76.9861775, "is_disabled": 0, "fusion_lon": 0.0, "rental_uris": {"android": "https://dc.lft.to/lastmile_qr_scan", "ios": "https://dc.lft.to/lastmile_qr_scan"}, "is_reserved": 0}, {"bike_id": "0e62c5069e56fe101f62d7058e9db04f", "name": "0e62c5069e56fe101f62d7058e9db04f", "lat": 38.90101883333333, "fusion_lat": 0.0, "type": "electric_scooter", "lon": -77.02507283333334, "is_disabled": 0, "fusion_lon": 0.0, "rental_uris": {"android": "https://dc.lft.to/lastmile_qr_scan", "ios": "https://dc.lft.to/lastmile_qr_scan"}, "is_reserved": 0}, {"bike_id": "adfa632dec0ca2d99f1160a88e4a2718", "name": "adfa632dec0ca2d99f1160a88e4a2718", "lat": 38.91531416666667, "fusion_lat": 0.0, "type": "electric_scooter", "lon": -77.021819, "is_disabled": 0, "fusion_lon": 0.0, "rental_uris": {"android": "https://dc.lft.to/lastmile_qr_scan", "ios": "https://dc.lft.to/lastmile_qr_scan"}, "is_reserved": 0}, {"bike_id": "4ac89a2092ca09b756ac6bf99b0a528f", "name": "4ac89a2092ca09b756ac6bf99b0a528f", "lat": 38.916694166666666, "fusion_lat": 0.0, "type": "electric_scooter", "lon": -77.02721383333333, "is_disabled": 0, "fusion_lon": 0.0, "rental_uris": {"android": "https://dc.lft.to/lastmile_qr_scan", "ios": "https://dc.lft.to/lastmile_qr_scan"}, "is_reserved": 0}, {"bike_id": "7e38f3c9c6e93b21e380da46735e42c0", "name": "7e38f3c9c6e93b21e380da46735e42c0", "lat": 38.926255166666664, "fusion_lat": 0.0, "type": "electric_scooter", "lon": -77.04254983333334, "is_disabled": 0, "fusion_lon": 0.0, "rental_uris": {"android": "https://dc.lft.to/lastmile_qr_scan", "ios": "https://dc.lft.to/lastmile_qr_scan"}, "is_reserved": 0}, {"bike_id": "1d6522ce51519bbf8fe2b6c9fe60f5be", "name": "1d6522ce51519bbf8fe2b6c9fe60f5be", "lat": 38.905874, "fusion_lat": 0.0, "type": "electric_scooter", "lon": -77.029712, "is_disabled": 0, "fusion_lon": 0.0, "rental_uris": {"android": "https://dc.lft.to/lastmile_qr_scan", "ios": "https://dc.lft.to/lastmile_qr_scan"}, "is_reserved": 0}, {"bike_id": "d98bb386dc0708b24594b4bc3df00517", "name": "d98bb386dc0708b24594b4bc3df00517", "lat": 38.922312833333336, "fusion_lat": 0.0, "type": "electric_scooter", "lon": -77.03881733333333, "is_disabled": 0, "fusion_lon": 0.0, "rental_uris": {"android": "https://dc.lft.to/lastmile_qr_scan", "ios": "https://dc.lft.to/lastmile_qr_scan"}, "is_reserved": 0}, {"bike_id": "cc445327053a0b0824ba782447db8c31", "name": "cc445327053a0b0824ba782447db8c31", "lat": 38.9239875, "fusion_lat": 0.0, "type": "electric_scooter", "lon": -77.04264533333334, "is_disabled": 0, "fusion_lon": 0.0, "rental_uris": {"android": "https://dc.lft.to/lastmile_qr_scan", "ios": "https://dc.lft.to/lastmile_qr_scan"}, "is_reserved": 0}, {"bike_id": "854441ffae5ad94bdbfdb1016f441414", "name": "854441ffae5ad94bdbfdb1016f441414", "lat": 38.898795, "fusion_lat": 0.0, "type": "electric_scooter", "lon": -77.00744333333333, "is_disabled": 0, "fusion_lon": 0.0, "rental_uris": {"android": "https://dc.lft.to/lastmile_qr_scan", "ios": "https://dc.lft.to/lastmile_qr_scan"}, "is_reserved": 0}, {"bike_id": "3178b927be6a37233513199b803d398a", "name": "3178b927be6a37233513199b803d398a", "lat": 38.90897183333333, "fusion_lat": 0.0, "type": "electric_scooter", "lon": -76.99623, "is_disabled": 0, "fusion_lon": 0.0, "rental_uris": {"android": "https://dc.lft.to/lastmile_qr_scan", "ios": "https://dc.lft.to/lastmile_qr_scan"}, "is_reserved": 0}, {"bike_id": "1b1e00b1bd6387e36c13d146b955f53c", "name": "1b1e00b1bd6387e36c13d146b955f53c", "lat": 38.94325516666667, "fusion_lat": 0.0, "type": "electric_scooter", "lon": -77.01254066666667, "is_disabled": 0, "fusion_lon": 0.0, "rental_uris": {"android": "https://dc.lft.to/lastmile_qr_scan", "ios": "https://dc.lft.to/lastmile_qr_scan"}, "is_reserved": 0}, {"bike_id": "dd5149c964dced99c1bec9bcddebb9f6", "name": "dd5149c964dced99c1bec9bcddebb9f6", "lat": 38.89459133333333, "fusion_lat": 0.0, "type": "electric_scooter", "lon": -77.02614916666667, "is_disabled": 0, "fusion_lon": 0.0, "rental_uris": {"android": "https://dc.lft.to/lastmile_qr_scan", "ios": "https://dc.lft.to/lastmile_qr_scan"}, "is_reserved": 0}, {"bike_id": "b901b17faeeaa196f76f60ec86b73ce0", "name": "b901b17faeeaa196f76f60ec86b73ce0", "lat": 38.96515433333333, "fusion_lat": 0.0, "type": "electric_scooter", "lon": -77.0019865, "is_disabled": 0, "fusion_lon": 0.0, "rental_uris": {"android": "https://dc.lft.to/lastmile_qr_scan", "ios": "https://dc.lft.to/lastmile_qr_scan"}, "is_reserved": 0}, {"bike_id": "16da23f3917636cf3cbb1eea3cbc7bed", "name": "16da23f3917636cf3cbb1eea3cbc7bed", "lat": 38.92456166666667, "fusion_lat": 0.0, "type": "electric_scooter", "lon": -77.02968616666666, "is_disabled": 0, "fusion_lon": 0.0, "rental_uris": {"android": "https://dc.lft.to/lastmile_qr_scan", "ios": "https://dc.lft.to/lastmile_qr_scan"}, "is_reserved": 0}, {"bike_id": "864c3e18e98943a5173b4f2943aebb41", "name": "864c3e18e98943a5173b4f2943aebb41", "lat": 38.921411, "fusion_lat": 0.0, "type": "electric_scooter", "lon": -77.018292, "is_disabled": 0, "fusion_lon": 0.0, "rental_uris": {"android": "https://dc.lft.to/lastmile_qr_scan", "ios": "https://dc.lft.to/lastmile_qr_scan"}, "is_reserved": 0}, {"bike_id": "85f483f05a4dc46be47cc5725c9b2b37", "name": "85f483f05a4dc46be47cc5725c9b2b37", "lat": 38.99521033333333, "fusion_lat": 0.0, "type": "electric_bike", "lon": -77.03782316666667, "is_disabled": 0, "fusion_lon": 0.0, "rental_uris": {"android": "https://dc.lft.to/lastmile_qr_scan", "ios": "https://dc.lft.to/lastmile_qr_scan"}, "is_reserved": 0}, {"bike_id": "f82480b407c5fe2c198a7ef5c07eb0b1", "name": "f82480b407c5fe2c198a7ef5c07eb0b1", "lat": 38.863712, "fusion_lat": 0.0, "type": "electric_scooter", "lon": -76.99061233333333, "is_disabled": 0, "fusion_lon": 0.0, "rental_uris": {"android": "https://dc.lft.to/lastmile_qr_scan", "ios": "https://dc.lft.to/lastmile_qr_scan"}, "is_reserved": 0}, {"bike_id": "ea91b0911b4447ab71752ffc85edce1d", "name": "ea91b0911b4447ab71752ffc85edce1d", "lat": 38.900573333333334, "fusion_lat": 0.0, "type": "electric_scooter", "lon": -77.04343666666666, "is_disabled": 0, "fusion_lon": 0.0, "rental_uris": {"android": "https://dc.lft.to/lastmile_qr_scan", "ios": "https://dc.lft.to/lastmile_qr_scan"}, "is_reserved": 0}, {"bike_id": "fd8fc3a5da95cf17402d9b3582af5333", "name": "fd8fc3a5da95cf17402d9b3582af5333", "lat": 38.89938133333333, "fusion_lat": 0.0, "type": "electric_scooter", "lon": -76.97710783333333, "is_disabled": 0, "fusion_lon": 0.0, "rental_uris": {"android": "https://dc.lft.to/lastmile_qr_scan", "ios": "https://dc.lft.to/lastmile_qr_scan"}, "is_reserved": 0}, {"bike_id": "967c86fe4e4e6fde5146ce0c84991d58", "name": "967c86fe4e4e6fde5146ce0c84991d58", "lat": 38.919994, "fusion_lat": 0.0, "type": "electric_scooter", "lon": -77.021787, "is_disabled": 0, "fusion_lon": 0.0, "rental_uris": {"android": "https://dc.lft.to/lastmile_qr_scan", "ios": "https://dc.lft.to/lastmile_qr_scan"}, "is_reserved": 0}, {"bike_id": "e770a612f20322bd0a51d95bf8c8c526", "name": "e770a612f20322bd0a51d95bf8c8c526", "lat": 38.8990245, "fusion_lat": 0.0, "type": "electric_scooter", "lon": -76.97746416666666, "is_disabled": 0, "fusion_lon": 0.0, "rental_uris": {"android": "https://dc.lft.to/lastmile_qr_scan", "ios": "https://dc.lft.to/lastmile_qr_scan"}, "is_reserved": 0}, {"bike_id": "df1bdfe249ad839d577e39e088df6ac8", "name": "df1bdfe249ad839d577e39e088df6ac8", "lat": 38.92015766666667, "fusion_lat": 0.0, "type": "electric_scooter", "lon": -77.031144, "is_disabled": 0, "fusion_lon": 0.0, "rental_uris": {"android": "https://dc.lft.to/lastmile_qr_scan", "ios": "https://dc.lft.to/lastmile_qr_scan"}, "is_reserved": 0}, {"bike_id": "c28a3620395624c6b49d1dde83859094", "name": "c28a3620395624c6b49d1dde83859094", "lat": 38.91529716666667, "fusion_lat": 0.0, "type": "electric_scooter", "lon": -77.0218085, "is_disabled": 0, "fusion_lon": 0.0, "rental_uris": {"android": "https://dc.lft.to/lastmile_qr_scan", "ios": "https://dc.lft.to/lastmile_qr_scan"}, "is_reserved": 0}, {"bike_id": "834d2e05bdc906fde09689482eac1b1f", "name": "834d2e05bdc906fde09689482eac1b1f", "lat": 38.9199155, "fusion_lat": 0.0, "type": "electric_scooter", "lon": -77.07142583333334, "is_disabled": 0, "fusion_lon": 0.0, "rental_uris": {"android": "https://dc.lft.to/lastmile_qr_scan", "ios": "https://dc.lft.to/lastmile_qr_scan"}, "is_reserved": 0}, {"bike_id": "6159779c1d0fc60ff059c6f3d3014ec3", "name": "6159779c1d0fc60ff059c6f3d3014ec3", "lat": 38.9141645, "fusion_lat": 0.0, "type": "electric_scooter", "lon": -77.0180605, "is_disabled": 0, "fusion_lon": 0.0, "rental_uris": {"android": "https://dc.lft.to/lastmile_qr_scan", "ios": "https://dc.lft.to/lastmile_qr_scan"}, "is_reserved": 0},