{"data": {"bikes": [{"rental_uris": {"android": "https://dc.lft.to/lastmile_qr_scan", "ios": "https://dc.lft.to/lastmile_qr_scan"}, "is_reserved": 0, "is_disabled": 0, "name": "581692cf9b44cb7b085d01a1424734eb", "bike_id": "581692cf9b44cb7b085d01a1424734eb", "fusion_lat": 0.0, "lon": -77.0355555, "type": "electric_scooter", "fusion_lon": 0.0, "lat": 38.926471}, {"rental_uris": {"android": "https://dc.lft.to/lastmile_qr_scan", "ios": "https://dc.lft.to/lastmile_qr_scan"}, "is_reserved": 0, "is_disabled": 0, "name": "c5b30016f595f660cb9c249d436db577", "bike_id": "c5b30016f595f660cb9c249d436db577", "fusion_lat": 0.0, "lon": -77.05321566666667, "type": "electric_scooter", "fusion_lon": 0.0, "lat": 38.915516833333335}, {"rental_uris": {"android": "https://dc.lft.to/lastmile_qr_scan", "ios": "https://dc.lft.to/lastmile_qr_scan"}, "is_reserved": 0, "is_disabled": 0, "name": "61be7f60de0177bc35f05185363551e5", "bike_id": "61be7f60de0177bc35f05185363551e5", "fusion_lat": 0.0, "lon": -77.02189716666666, "type": "electric_scooter", "fusion_lon": 0.0, "lat": 38.900238}, {"rental_uris": {"android": "https://dc.lft.to/lastmile_qr_scan", "ios": "https://dc.lft.to/lastmile_qr_scan"}, "is_reserved": 0, "is_disabled": 0, "name": "8e2331ce7586d077156ab53d06e68963", "bike_id": "8e2331ce7586d077156ab53d06e68963", "fusion_lat": 0.0, "lon": -77.03066233333334, "type": "electric_scooter", "fusion_lon": 0.0, "lat": 38.90299233333333}, {"rental_uris": {"android": "https://dc.lft.to/lastmile_qr_scan", "ios": "https://dc.lft.to/lastmile_qr_scan"}, "is_reserved": 0, "is_disabled": 0, "name": "f356d2f51f7123789c226e5fd1ccf940", "bike_id": "f356d2f51f7123789c226e5fd1ccf940", "fusion_lat": 0.0, "lon": -77.0206275, "type": "electric_scooter", "fusion_lon": 0.0, "lat": 38.923737333333335}, {"rental_uris": {"android": "https://dc.lft.to/lastmile_qr_scan", "ios": "https://dc.lft.to/lastmile_qr_scan"}, "is_reserved": 0, "is_disabled": 0, "name": "463ac8419914b713b2709a9b46c5712c", "bike_id": "463ac8419914b713b2709a9b46c5712c", "fusion_lat": 0.0, "lon": -77.00573266666666, "type": "electric_scooter", "fusion_lon": 0.0, "lat": 38.885138}, {"rental_uris": {"android": "https://dc.lft.to/lastmile_qr_scan", "ios": "https://dc.lft.to/lastmile_qr_scan"}, "is_reserved": 0, "is_disabled": 0, "name": "04135a45ae377c84722afd3a4c532080", "bike_id": "04135a45ae377c84722afd3a4c532080", "fusion_lat": 0.0, "lon": -77.030993, "type": "electric_scooter", "fusion_lon": 0.0, "lat": 38.933162333333335}, {"rental_uris": {"android": "https://dc.lft.to/lastmile_qr_scan", "ios": "https://dc.lft.to/lastmile_qr_scan"}, "is_reserved": 0, "is_disabled": 0, "name": "4b8913b99f43e24632f8c4c447a9dcd3", "bike_id": "4b8913b99f43e24632f8c4c447a9dcd3", "fusion_lat": 0.0, "lon": -77.03161866666666, "type": "electric_scooter", "fusion_lon": 0.0, "lat": 38.892203}, {"rental_uris": {"android": "https://dc.lft.to/lastmile_qr_scan", "ios": "https://dc.lft.to/lastmile_qr_scan"}, "is_reserved": 0, "is_disabled": 0, "name": "5bc2dc4c3e25e9796e09c7b035a871f8", "bike_id": "5bc2dc4c3e25e9796e09c7b035a871f8", "fusion_lat": 0.0, "lon": -77.03413516666667, "type": "electric_scooter", "fusion_lon": 0.0, "lat": 38.923978}, {"rental_uris": {"android": "https://dc.lft.to/lastmile_qr_scan", "ios": "https://dc.lft.to/lastmile_qr_scan"}, "is_reserved": 0, "is_disabled": 0, "name": "7ecf230b56f7298d7ebc2317370bd88f", "bike_id": "7ecf230b56f7298d7ebc2317370bd88f", "fusion_lat": 0.0, "lon": -77.04415033333333, "type": "electric_scooter", "fusion_lon": 0.0, "lat": 38.903991}, {"rental_uris": {"android": "https://dc.lft.to/lastmile_qr_scan", "ios": "https://dc.lft.to/lastmile_qr_scan"}, "is_reserved": 0, "is_disabled": 0, "name": "58e3e470e6081c8501ed4cb1fd0c99c7", "bike_id": "58e3e470e6081c8501ed4cb1fd0c99c7", "fusion_lat": 0.0, "lon": -77.03501683333333, "type": "electric_scooter", "fusion_lon": 0.0, "lat": 38.92138666666666}, {"rental_uris": {"android": "https://dc.lft.to/lastmile_qr_scan", "ios": "https://dc.lft.to/lastmile_qr_scan"}, "is_reserved": 0, "is_disabled": 0, "name": "b43d3bb5d763de1f2580b57e44e31551", "bike_id": "b43d3bb5d763de1f2580b57e44e31551", "fusion_lat": 0.0, "lon": -77.027143, "type": "electric_scooter", "fusion_lon": 0.0, "lat": 38.92463983333333}, {"rental_uris": {"android": "https://dc.lft.to/lastmile_qr_scan", "ios": "https://dc.lft.to/lastmile_qr_scan"}, "is_reserved": 0, "is_disabled": 0, "name": "ecc8ac5290a9a8facaa3e4de9459834d", "bike_id": "ecc8ac5290a9a8facaa3e4de9459834d", "fusion_lat": 0.0, "lon": -77.00284333333333, "type": "electric_scooter", "fusion_lon": 0.0, "lat": 38.893585333333334}, {"rental_uris": {"android": "https://dc.lft.to/lastmile_qr_scan", "ios": "https://dc.lft.to/lastmile_qr_scan"}, "is_reserved": 0, "is_disabled": 0, "name": "5d6dda3ca24648053f8b9b98a2c188ed", "bike_id": "5d6dda3ca24648053f8b9b98a2c188ed", "fusion_lat": 0.0, "lon": -77.04177633333333, "type": "electric_scooter", "fusion_lon": 0.0, "lat": 38.903224333333334}, {"rental_uris": {"android": "https://dc.lft.to/lastmile_qr_scan", "ios": "https://dc.lft.to/lastmile_qr_scan"}, "is_reserved": 0, "is_disabled": 0, "name": "8ba3a2b67b68b6eb21ef949782016b82", "bike_id": "8ba3a2b67b68b6eb21ef949782016b82", "fusion_lat": 0.0, "lon": -77.02712716666667, "type": "electric_scooter", "fusion_lon": 0.0, "lat": 38.92465983333334}, {"rental_uris": {"android": "https://dc.lft.to/lastmile_qr_scan", "ios": "https://dc.lft.to/lastmile_qr_scan"}, "is_reserved": 0, "is_disabled": 0, "name": "12d46cfd2e23c409ae53e75651d4ebe5", "bike_id": "12d46cfd2e23c409ae53e75651d4ebe5", "fusion_lat": 0.0, "lon": -77.02808883333333, "type": "electric_scooter", "fusion_lon": 0.0, "lat": 38.9046435}, {"rental_uris": {"android": "https://dc.lft.to/lastmile_qr_scan", "ios": "https://dc.lft.to/lastmile_qr_scan"}, "is_reserved": 0, "is_disabled": 0, "name": "4d0bebdf05a01806f5d3248871aceb70", "bike_id": "4d0bebdf05a01806f5d3248871aceb70", "fusion_lat": 0.0, "lon": -77.02187166666667, "type": "electric_scooter", "fusion_lon": 0.0, "lat": 38.908292333333335}, {"rental_uris": {"android": "https://dc.lft.to/lastmile_qr_scan", "ios": "https://dc.lft.to/lastmile_qr_scan"}, "is_reserved": 0, "is_disabled": 0, "name": "95349553fc3e00f3c2275ca5e31413f5", "bike_id": "95349553fc3e00f3c2275ca5e31413f5", "fusion_lat": 0.0, "lon": -77.045519, "type": "electric_scooter", "fusion_lon": 0.0, "lat": 38.903787333333334}, {"rental_uris": {"android": "https://dc.lft.to/lastmile_qr_scan", "ios": "https://dc.lft.to/lastmile_qr_scan"}, "is_reserved": 0, "is_disabled": 0, "name": "07956af7ad005ebc2f37bab02f50ae74", "bike_id": "07956af7ad005ebc2f37bab02f50ae74", "fusion_lat": 0.0, "lon": -77.0294755, "type": "electric_scooter", "fusion_lon": 0.0, "lat": 38.898145666666665}, {"rental_uris": {"android": "https://dc.lft.to/lastmile_qr_scan", "ios": "https://dc.lft.to/lastmile_qr_scan"}, "is_reserved": 0, "is_disabled": 0, "name": "4cfb691690beb7d84b07d87cdd7360e9", "bike_id": "4cfb691690beb7d84b07d87cdd7360e9", "fusion_lat": 0.0, "lon": -77.02223816666667, "type": "electric_scooter", "fusion_lon": 0.0, "lat": 38.900766}, {"rental_uris": {"android": "https://dc.lft.to/lastmile_qr_scan", "ios": "https://dc.lft.to/lastmile_qr_scan"}, "is_reserved": 0, "is_disabled": 0, "name": "f884441d84ea193c0f95fdb8b958d5ea", "bike_id": "f884441d84ea193c0f95fdb8b958d5ea", "fusion_lat": 0.0, "lon": -77.045293, "type": "electric_scooter", "fusion_lon": 0.0, "lat": 38.902681666666666}, {"rental_uris": {"android": "https://dc.lft.to/lastmile_qr_scan", "ios": "https://dc.lft.to/lastmile_qr_scan"}, "is_reserved": 0, "is_disabled": 0, "name": "893f59da46cf27124a00315b3a2d9ccd", "bike_id": "893f59da46cf27124a00315b3a2d9ccd", "fusion_lat": 0.0, "lon": -77.0255125, "type": "electric_scooter", "fusion_lon": 0.0, "lat": 38.97006533333333}, {"rental_uris": {"android": "https://dc.lft.to/lastmile_qr_scan", "ios": "https://dc.lft.to/lastmile_qr_scan"}, "is_reserved": 0, "is_disabled": 0, "name": "5ad16ba1aaab23f75c0c9730587ba069", "bike_id": "5ad16ba1aaab23f75c0c9730587ba069", "fusion_lat": 0.0, "lon": -77.03985033333333, "type": "electric_scooter", "fusion_lon": 0.0, "lat": 38.901291}, {"rental_uris": {"android": "https://dc.lft.to/lastmile_qr_scan", "ios": "https://dc.lft.to/lastmile_qr_scan"}, "is_reserved": 0, "is_disabled": 0, "name": "488aa12211e1db8e49bf3c2c39010afc", "bike_id": "488aa12211e1db8e49bf3c2c39010afc", "fusion_lat": 0.0, "lon": -77.07269666666667, "type": "electric_scooter", "fusion_lon": 0.0, "lat": 38.934720166666665}, {"rental_uris": {"android": "https://dc.lft.to/lastmile_qr_scan", "ios": "https://dc.lft.to/lastmile_qr_scan"}, "is_reserved": 0, "is_disabled": 0, "name": "7fc9bb6141e4f1eef0d26c759c1d04e8", "bike_id": "7fc9bb6141e4f1eef0d26c759c1d04e8", "fusion_lat": 0.0, "lon": -76.961542, "type": "electric_bike", "fusion_lon": 0.0, "lat": 38.85619783333333}, {"rental_uris": {"android": "https://dc.lft.to/lastmile_qr_scan", "ios": "https://dc.lft.to/lastmile_qr_scan"}, "is_reserved": 0, "is_disabled": 0, "name": "682af634e3e45ad13d4ff8ec4c81fb31", "bike_id": "682af634e3e45ad13d4ff8ec4c81fb31", "fusion_lat": 0.0, "lon": -77.031796, "type": "electric_scooter", "fusion_lon": 0.0, "lat": 38.899781833333336}, {"rental_uris": {"android": "https://dc.lft.to/lastmile_qr_scan", "ios": "https://dc.lft.to/lastmile_qr_scan"}, "is_reserved": 0, "is_disabled": 0, "name": "8041eb25ed651e336cfc38535b969697", "bike_id": "8041eb25ed651e336cfc38535b969697", "fusion_lat": 0.0, "lon": -77.05138233333334, "type": "electric_scooter", "fusion_lon": 0.0, "lat": 38.906316}, {"rental_uris": {"android": "https://dc.lft.to/lastmile_qr_scan", "ios": "https://dc.lft.to/lastmile_qr_scan"}, "is_reserved": 0, "is_disabled": 0, "name": "15bbfddefff688d8cf42574cb62fe8c0", "bike_id": "15bbfddefff688d8cf42574cb62fe8c0", "fusion_lat": 0.0, "lon": -77.02264833333334, "type": "electric_scooter", "fusion_lon": 0.0, "lat": 38.8996775}, {"rental_uris": {"android": "https://dc.lft.to/lastmile_qr_scan", "ios": "https://dc.lft.to/lastmile_qr_scan"}, "is_reserved": 0, "is_disabled": 0, "name": "f74441990ddf9defc880e67cc86dbf32", "bike_id": "f74441990ddf9defc880e67cc86dbf32", "fusion_lat": 0.0, "lon": -77.03436166666667, "type": "electric_scooter", "fusion_lon": 0.0, "lat": 38.91035883333333}, {"rental_uris": {"android": "https://dc.lft.to/lastmile_qr_scan", "ios": "https://dc.lft.to/lastmile_qr_scan"}, "is_reserved": 0, "is_disabled": 0, "name": "b0c995d9c33490a78760fc44a61b26ce", "bike_id": "b0c995d9c33490a78760fc44a61b26ce", "fusion_lat": 0.0, "lon": -77.09451666666666, "type": "electric_bike", "fusion_lon": 0.0, "lat": 38.8075275}, {"rental_uris": {"android": "https://dc.lft.to/lastmile_qr_scan", "ios": "https://dc.lft.to/lastmile_qr_scan"}, "is_reserved": 0, "is_disabled": 0, "name": "3454a38c5d8c5277a3f838f3b49e6c1a", "bike_id": "3454a38c5d8c5277a3f838f3b49e6c1a", "fusion_lat": 0.0, "lon": -77.046769, "type": "electric_scooter", "fusion_lon": 0.0, "lat": 38.8950755}, {"rental_uris": {"android": "https://dc.lft.to/lastmile_qr_scan", "ios": "https://dc.lft.to/lastmile_qr_scan"}, "is_reserved": 0, "is_disabled": 0, "name": "235d0912be78d85465ab96cc271ec367", "bike_id": "235d0912be78d85465ab96cc271ec367", "fusion_lat": 0.0, "lon": -76.96089983333333, "type": "electric_scooter", "fusion_lon": 0.0, "lat": 38.918601833333334}, {"rental_uris": {"android": "https://dc.lft.to/lastmile_qr_scan", "ios": "https://dc.lft.to/lastmile_qr_scan"}, "is_reserved": 0, "is_disabled": 0, "name": "f0f4ab947be6eec6d5e69b96c80841b5", "bike_id": "f0f4ab947be6eec6d5e69b96c80841b5", "fusion_lat": 0.0, "lon": -77.04406316666666, "type": "electric_scooter", "fusion_lon": 0.0, "lat": 38.895922166666665}, {"rental_uris": {"android": "https://dc.lft.to/lastmile_qr_scan", "ios": "https://dc.lft.to/lastmile_qr_scan"}, "is_reserved": 0, "is_disabled": 0, "name": "e20d4a94cc04ec8efb58ad4c1cf62c80", "bike_id": "e20d4a94cc04ec8efb58ad4c1cf62c80", "fusion_lat": 0.0, "lon": -77.021452, "type": "electric_scooter", "fusion_lon": 0.0, "lat": 38.927475}, {"rental_uris": {"android": "https://dc.lft.to/lastmile_qr_scan", "ios": "https://dc.lft.to/lastmile_qr_scan"}, "is_reserved": 0, "is_disabled": 0, "name": "d97e8fd7a84bc4699fd362a9eda00998", "bike_id": "d97e8fd7a84bc4699fd362a9eda00998", "fusion_lat": 0.0, "lon": -76.94768483333333, "type": "electric_scooter", "fusion_lon": 0.0, "lat": 38.896829}, {"rental_uris": {"android": "https://dc.lft.to/lastmile_qr_scan", "ios": "https://dc.lft.to/lastmile_qr_scan"}, "is_reserved": 0, "is_disabled": 0, "name": "099751c8acb6d61cbdd678e1da0ded25", "bike_id": "099751c8acb6d61cbdd678e1da0ded25", "fusion_lat": 0.0, "lon": -77.008912, "type": "electric_scooter", "fusion_lon": 0.0, "lat": 38.909789}, {"rental_uris": {"android": "https://dc.lft.to/lastmile_qr_scan", "ios": "https://dc.lft.to/lastmile_qr_scan"}, "is_reserved": 0, "is_disabled": 0, "name": "7114f740b55c557b97470f28423532e2", "bike_id": "7114f740b55c557b97470f28423532e2", "fusion_lat": 0.0, "lon": -77.08501433333333, "type": "electric_bike", "fusion_lon": 0.0, "lat": 38.863062166666666}, {"rental_uris": {"android": "https://dc.lft.to/lastmile_qr_scan", "ios": "https://dc.lft.to/lastmile_qr_scan"}, "is_reserved": 0, "is_disabled": 0, "name": "3f2ee532d72d08dfc0c334d20a59f258", "bike_id": "3f2ee532d72d08dfc0c334d20a59f258", "fusion_lat": 0.0, "lon": -77.0225965, "type": "electric_scooter", "fusion_lon": 0.0, "lat": 38.9241845}, {"rental_uris": {"android": "https://dc.lft.to/lastmile_qr_scan", "ios": "https://dc.lft.to/lastmile_qr_scan"}, "is_reserved": 0, "is_disabled": 0, "name": "2cb8aac418a162126f330c1969be54ed", "bike_id": "2cb8aac418a162126f330c1969be54ed", "fusion_lat": 0.0, "lon": -77.02978566666667, "type": "electric_scooter", "fusion_lon": 0.0, "lat": 38.9171015}, {"rental_uris": {"android": "https://dc.lft.to/lastmile_qr_scan", "ios": "https://dc.lft.to/lastmile_qr_scan"}, "is_reserved": 0, "is_disabled": 0, "name": "4189d1364d0c4850b843e585ceeca427", "bike_id": "4189d1364d0c4850b843e585ceeca427", "fusion_lat": 0.0, "lon": -77.03460183333334, "type": "electric_scooter", "fusion_lon": 0.0, "lat": 38.9157825}, {"rental_uris": {"android": "https://dc.lft.to/lastmile_qr_scan", "ios": "https://dc.lft.to/lastmile_qr_scan"}, "is_reserved": 0, "is_disabled": 0, "name": "a5614a23166c47614467554203b56a01", "bike_id": "a5614a23166c47614467554203b56a01", "fusion_lat": 0.0, "lon": -77.0004855, "type": "electric_scooter", "fusion_lon": 0.0, "lat": 38.878829333333336}, {"rental_uris": {"android": "https://dc.lft.to/lastmile_qr_scan", "ios": "https://dc.lft.to/lastmile_qr_scan"}, "is_reserved": 0, "is_disabled": 0, "name": "f0456fe8569f8e1e37424e71febd14a3", "bike_id": "f0456fe8569f8e1e37424e71febd14a3", "fusion_lat": 0.0, "lon": -77.04135733333334, "type": "electric_scooter", "fusion_lon": 0.0, "lat": 38.902707666666664}, {"rental_uris": {"android": "https://dc.lft.to/lastmile_qr_scan", "ios": "https://dc.lft.to/lastmile_qr_scan"}, "is_reserved": 0, "is_disabled": 0, "name": "6fbcab7bb111147ecda55c8ef6c067cd", "bike_id": "6fbcab7bb111147ecda55c8ef6c067cd", "fusion_lat": 0.0, "lon": -77.012044, "type": "electric_scooter", "fusion_lon": 0.0, "lat": 38.900181}, {"rental_uris": {"android": "https://dc.lft.to/lastmile_qr_scan", "ios": "https://dc.lft.to/lastmile_qr_scan"}, "is_reserved": 0, "is_disabled": 0, "name": "2d5cb6671bfcafd22d6683dc8ec25b2d", "bike_id": "2d5cb6671bfcafd22d6683dc8ec25b2d", "fusion_lat": 0.0, "lon": -76.944612, "type": "electric_scooter", "fusion_lon": 0.0, "lat": 38.890269833333335}, {"rental_uris": {"android": "https://dc.lft.to/lastmile_qr_scan", "ios": "https://dc.lft.to/lastmile_qr_scan"}, "is_reserved": 0, "is_disabled": 0, "name": "b12ab8c192c7f770ac4a9e3e9a3a75fe", "bike_id": "b12ab8c192c7f770ac4a9e3e9a3a75fe", "fusion_lat": 0.0, "lon": -77.01980883333333, "type": "electric_scooter", "fusion_lon": 0.0, "lat": 38.8860165}, {"rental_uris": {"android": "https://dc.lft.to/lastmile_qr_scan", "ios": "https://dc.lft.to/lastmile_qr_scan"}, "is_reserved": 0, "is_disabled": 0, "name": "ae9603ad4dc414ca13dbb10fce723247", "bike_id": "ae9603ad4dc414ca13dbb10fce723247", "fusion_lat": 0.0, "lon": -77.03293466666666, "type": "electric_scooter", "fusion_lon": 0.0, "lat": 38.956173}, {"rental_uris": {"android": "https://dc.lft.to/lastmile_qr_scan", "ios": "https://dc.lft.to/lastmile_qr_scan"}, "is_reserved": 0, "is_disabled": 0, "name": "a67408518bcea5258b8b2f63da9bc05f", "bike_id": "a67408518bcea5258b8b2f63da9bc05f", "fusion_lat": 0.0, "lon": -77.05348666666667, "type": "electric_scooter", "fusion_lon": 0.0, "lat": 38.903830666666664}, {"rental_uris": {"android": "https://dc.lft.to/lastmile_qr_scan", "ios": "https://dc.lft.to/lastmile_qr_scan"}, "is_reserved": 0, "is_disabled": 0, "name": "5e0fc371b6acc5296ef114214e7af1c2", "bike_id": "5e0fc371b6acc5296ef114214e7af1c2", "fusion_lat": 0.0, "lon": -77.01340166666667, "type": "electric_scooter", "fusion_lon": 0.0, "lat": 38.92640083333333}, {"rental_uris": {"android": "https://dc.lft.to/lastmile_qr_scan", "ios": "https://dc.lft.to/lastmile_qr_scan"}, "is_reserved": 0, "is_disabled": 0, "name": "767ef8353d6b3da5e3caf67f8f16083d", "bike_id": "767ef8353d6b3da5e3caf67f8f16083d", "fusion_lat": 0.0, "lon": -77.0211075, "type": "electric_scooter", "fusion_lon": 0.0, "lat": 38.9179635}, {"rental_uris": {"android": "https://dc.lft.to/lastmile_qr_scan", "ios": "https://dc.lft.to/lastmile_qr_scan"}, "is_reserved": 0, "is_disabled": 0, "name": "902f22dea573055e9a55fcd9f3105106", "bike_id": "902f22dea573055e9a55fcd9f3105106", "fusion_lat": 0.0, "lon": -77.0446065, "type": "electric_scooter", "fusion_lon": 0.0, "lat": 38.901344333333334}, {"rental_uris": {"android": "https://dc.lft.to/lastmile_qr_scan", "ios": "https://dc.lft.to/lastmile_qr_scan"}, "is_reserved": 0, "is_disabled": 0, "name": "8a9d44dc0972b5f655e602582b75b96e", "bike_id": "8a9d44dc0972b5f655e602582b75b96e", "fusion_lat": 0.0, "lon": -77.04756616666667, "type": "electric_scooter", "fusion_lon": 0.0, "lat": 38.90081216666667}, {"rental_uris": {"android": "https://dc.lft.to/lastmile_qr_scan", "ios": "https://dc.lft.to/lastmile_qr_scan"}, "is_reserved": 0, "is_disabled": 0, "name": "02547ec6217fb3066835bffbc2ac4b07", "bike_id": "02547ec6217fb3066835bffbc2ac4b07", "fusion_lat": 0.0, "lon": -77.042231, "type": "electric_scooter", "fusion_lon": 0.0, "lat": 38.921624666666666}, {"rental_uris": {"android": "https://dc.lft.to/lastmile_qr_scan", "ios": "https://dc.lft.to/lastmile_qr_scan"}, "is_reserved": 0, "is_disabled": 0, "name": "2feeda5ea21be163ca8ee737c273b717", "bike_id": "2feeda5ea21be163ca8ee737c273b717", "fusion_lat": 0.0, "lon": -77.022632, "type": "electric_scooter", "fusion_lon": 0.0, "lat": 38.89587316666667}, {"rental_uris": {"android": "https://dc.lft.to/lastmile_qr_scan", "ios": "https://dc.lft.to/lastmile_qr_scan"}, "is_reserved": 0, "is_disabled": 0, "name": "ad665b1b33f2ce91c91fefc2dc6d410a", "bike_id": "ad665b1b33f2ce91c91fefc2dc6d410a", "fusion_lat": 0.0, "lon": -76.95060733333334, "type": "electric_bike", "fusion_lon": 0.0, "lat": 39.0850755}, {"rental_uris": {"android": "https://dc.lft.to/lastmile_qr_scan", "ios": "https://dc.lft.to/lastmile_qr_scan"}, "is_reserved": 0, "is_disabled": 0, "name": "888b6baf204238d093434d50925744a1", "bike_id": "888b6baf204238d093434d50925744a1", "fusion_lat": 0.0, "lon": -77.03367, "type": "electric_scooter", "fusion_lon": 0.0, "lat": 38.90156116666667}, {"rental_uris": {"android": "https://dc.lft.to/lastmile_qr_scan", "ios": "https://dc.lft.to/lastmile_qr_scan"}, "is_reserved": 0, "is_disabled": 0, "name": "705dfaf644f37260ea692b8ce116a497", "bike_id": "705dfaf644f37260ea692b8ce116a497", "fusion_lat": 0.0, "lon": -77.04491366666667, "type": "electric_scooter", "fusion_lon": 0.0, "lat": 38.91370116666667}, {"rental_uris": {"android": "https://dc.lft.to/lastmile_qr_scan", "ios": "https://dc.lft.to/lastmile_qr_scan"}, "is_reserved": 0, "is_disabled": 0, "name": "12c711022150c7b0317fb01b139a2f6e", "bike_id": "12c711022150c7b0317fb01b139a2f6e", "fusion_lat": 0.0, "lon": -77.01554133333333, "type": "electric_scooter", "fusion_lon": 0.0, "lat": 38.883164}, {"rental_uris": {"android": "https://dc.lft.to/lastmile_qr_scan", "ios": "https://dc.lft.to/lastmile_qr_scan"}, "is_reserved": 0, "is_disabled": 0, "name": "bc29d6a2c33819d060b2edb7d535f017", "bike_id": "bc29d6a2c33819d060b2edb7d535f017", "fusion_lat": 0.0, "lon": -77.0293405, "type": "electric_scooter", "fusion_lon": 0.0, "lat": 38.94281516666667}, {"rental_uris": {"android": "https://dc.lft.to/lastmile_qr_scan", "ios": "https://dc.lft.to/lastmile_qr_scan"}, "is_reserved": 0, "is_disabled": 0, "name": "cc84ad1becd20f7b6d96031879fa9ef7", "bike_id": "cc84ad1becd20f7b6d96031879fa9ef7", "fusion_lat": 0.0, "lon": -77.01312916666667, "type": "electric_scooter", "fusion_lon": 0.0, "lat": 38.8974435}, {"rental_uris": {"android": "https://dc.lft.to/lastmile_qr_scan", "ios": "https://dc.lft.to/lastmile_qr_scan"}, "is_reserved": 0, "is_disabled": 0, "name": "c1baf0e06ee6e4b43317a7b2dd16c758", "bike_id": "c1baf0e06ee6e4b43317a7b2dd16c758", "fusion_lat": 0.0, "lon": -76.98613033333334, "type": "electric_scooter", "fusion_lon": 0.0, "lat": 38.90725283333333}, {"rental_uris": {"android": "https://dc.lft.to/lastmile_qr_scan", "ios": "https://dc.lft.to/lastmile_qr_scan"}, "is_reserved": 0, "is_disabled": 0, "name": "b8527fe8977f2dc09b50c7ca73db599d", "bike_id": "b8527fe8977f2dc09b50c7ca73db599d", "fusion_lat": 0.0, "lon": -77.0192345, "type": "electric_scooter", "fusion_lon": 0.0, "lat": 38.9172915}, {"rental_uris": {"android": "https://dc.lft.to/lastmile_qr_scan", "ios": "https://dc.lft.to/lastmile_qr_scan"}, "is_reserved": 0, "is_disabled": 0, "name": "41cba06f2087b1e3cbcc9fbe0f7c0d91", "bike_id": "41cba06f2087b1e3cbcc9fbe0f7c0d91", "fusion_lat": 0.0, "lon": -77.0347565, "type": "electric_scooter", "fusion_lon": 0.0, "lat": 38.9248385}, {"rental_uris": {"android": "https://dc.lft.to/lastmile_qr_scan", "ios": "https://dc.lft.to/lastmile_qr_scan"}, "is_reserved": 0, "is_disabled": 0, "name": "47a9776451dcd1a24b0e7d7f7c99185c", "bike_id": "47a9776451dcd1a24b0e7d7f7c99185c", "fusion_lat": 0.0, "lon": -77.00570766666667, "type": "electric_scooter", "fusion_lon": 0.0, "lat": 38.8851335}, {"rental_uris": {"android": "https://dc.lft.to/lastmile_qr_scan", "ios": "https://dc.lft.to/lastmile_qr_scan"}, "is_reserved": 0, "is_disabled": 0, "name": "1c95ea353afba57177abf22f10969e02", "bike_id": "1c95ea353afba57177abf22f10969e02", "fusion_lat": 0.0, "lon": -77.046587, "type": "electric_bike", "fusion_lon": 0.0, "lat": 38.894713333333335}, {"rental_uris": {"android": "https://dc.lft.to/lastmile_qr_scan", "ios": "https://dc.lft.to/lastmile_qr_scan"}, "is_reserved": 0, "is_disabled": 0, "name": "4841689207ba911c94233bd9c2975f04", "bike_id": "4841689207ba911c94233bd9c2975f04", "fusion_lat": 0.0, "lon": -77.02153583333333, "type": "electric_scooter", "fusion_lon": 0.0, "lat": 38.9244345}, {"rental_uris": {"android": "https://dc.lft.to/lastmile_qr_scan", "ios": "https://dc.lft.to/lastmile_qr_scan"}, "is_reserved": 0, "is_disabled": 0, "name": "98d8c9dcdad92f3f37bfe26a6f95ddfc", "bike_id": "98d8c9dcdad92f3f37bfe26a6f95ddfc", "fusion_lat": 0.0, "lon": -77.04151683333333, "type": "electric_scooter", "fusion_lon": 0.0, "lat": 38.9044635}, {"rental_uris": {"android": "https://dc.lft.to/lastmile_qr_scan", "ios": "https://dc.lft.to/lastmile_qr_scan"}, "is_reserved": 0, "is_disabled": 0, "name": "1c61398053a738c4cbfa100360df53b6", "bike_id": "1c61398053a738c4cbfa100360df53b6", "fusion_lat": 0.0, "lon": -76.99502316666667, "type": "electric_scooter", "fusion_lon": 0.0, "lat": 38.882420333333336}, {"rental_uris": {"android": "https://dc.lft.to/lastmile_qr_scan", "ios": "https://dc.lft.to/lastmile_qr_scan"}, "is_reserved": 0, "is_disabled": 0, "name": "359df041a06a3156cee305f947c1305b", "bike_id": "359df041a06a3156cee305f947c1305b", "fusion_lat": 0.0, "lon": -77.14869433333334, "type": "electric_bike", "fusion_lon": 0.0, "lat": 38.87739166666667}, {"rental_uris": {"android": "https://dc.lft.to/lastmile_qr_scan", "ios": "https://dc.lft.to/lastmile_qr_scan"}, "is_reserved": 0, "is_disabled": 0, "name": "5c451d25e2099e0a30b524c293e00bfd", "bike_id": "5c451d25e2099e0a30b524c293e00bfd", "fusion_lat": 0.0, "lon": -77.05268933333333, "type": "electric_scooter", "fusion_lon": 0.0, "lat": 38.925622833333335}, {"rental_uris": {"android": "https://dc.lft.to/lastmile_qr_scan", "ios": "https://dc.lft.to/lastmile_qr_scan"}, "is_reserved": 0, "is_disabled": 0, "name": "bd3104428e3918c4d54a157ca0835705", "bike_id": "bd3104428e3918c4d54a157ca0835705", "fusion_lat": 0.0, "lon": -77.0377275, "type": "electric_scooter", "fusion_lon": 0.0, "lat": 38.924255}, {"rental_uris": {"android": "https://dc.lft.to/lastmile_qr_scan", "ios": "https://dc.lft.to/lastmile_qr_scan"}, "is_reserved": 0, "is_disabled": 0, "name": "55d568a1a857cc742c3a9b12c3fe22d0", "bike_id": "55d568a1a857cc742c3a9b12c3fe22d0", "fusion_lat": 0.0, "lon": -76.94873066666666, "type": "electric_scooter", "fusion_lon": 0.0, "lat": 38.894984}, {"rental_uris": {"android": "https://dc.lft.to/lastmile_qr_scan", "ios": "https://dc.lft.to/lastmile_qr_scan"}, "is_reserved": 0, "is_disabled": 0, "name": "f6c4cf69154eeee73fdd36811be84f37", "bike_id": "f6c4cf69154eeee73fdd36811be84f37", "fusion_lat": 0.0, "lon": -77.0218035, "type": "electric_scooter", "fusion_lon": 0.0, "lat": 38.892270333333336}, {"rental_uris": {"android": "https://dc.lft.to/lastmile_qr_scan", "ios": "https://dc.lft.to/lastmile_qr_scan"}, "is_reserved": 0, "is_disabled": 0, "name": "be4af176c9e1dbe1839bcae4232d1eee", "bike_id": "be4af176c9e1dbe1839bcae4232d1eee", "fusion_lat": 0.0, "lon": -77.0459675, "type": "electric_scooter", "fusion_lon": 0.0, "lat": 38.905734333333335}, {"rental_uris": {"android": "https://dc.lft.to/lastmile_qr_scan", "ios": "https://dc.lft.to/lastmile_qr_scan"}, "is_reserved": 0, "is_disabled": 0, "name": "b8ff6587541639846f4f449cddd8344f", "bike_id": "b8ff6587541639846f4f449cddd8344f", "fusion_lat": 0.0, "lon": -76.973024, "type": "electric_bike", "fusion_lon": 0.0, "lat": 38.86510966666667}, {"rental_uris": {"android": "https://dc.lft.to/lastmile_qr_scan", "ios": "https://dc.lft.to/lastmile_qr_scan"}, "is_reserved": 0, "is_disabled": 0, "name": "4e18f4dac18f3c282ac9c2db8b8add2a", "bike_id": "4e18f4dac18f3c282ac9c2db8b8add2a", "fusion_lat": 0.0, "lon": -77.04158966666667, "type": "electric_scooter", "fusion_lon": 0.0, "lat": 38.916169}, {"rental_uris": {"android": "https://dc.lft.to/lastmile_qr_scan", "ios": "https://dc.lft.to/lastmile_qr_scan"}, "is_reserved": 0, "is_disabled": 0, "name": "456bca88825f0055387878608cfc1abc", "bike_id": "456bca88825f0055387878608cfc1abc", "fusion_lat": 0.0, "lon": -77.02482883333333, "type": "electric_scooter", "fusion_lon": 0.0, "lat": 38.941851166666666}, {"rental_uris": {"android": "https://dc.lft.to/lastmile_qr_scan", "ios": "https://dc.lft.to/lastmile_qr_scan"}, "is_reserved": 0, "is_disabled": 0, "name": "27cad97c7883972b4e5c78478e27374e", "bike_id": "27cad97c7883972b4e5c78478e27374e", "fusion_lat": 0.0, "lon": -76.9250325, "type": "electric_scooter", "fusion_lon": 0.0, "lat": 38.8860345}, {"rental_uris": {"android": "https://dc.lft.to/lastmile_qr_scan", "ios": "https://dc.lft.to/lastmile_qr_scan"}, "is_reserved": 0, "is_disabled": 0, "name": "4fe95e70e0f55758bb20bf003b21170f", "bike_id": "4fe95e70e0f55758bb20bf003b21170f", "fusion_lat": 0.0, "lon": -77.0362105, "type": "electric_scooter", "fusion_lon": 0.0, "lat": 38.903702}, {"rental_uris": {"android": "https://dc.lft.to/lastmile_qr_scan", "ios": "https://dc.lft.to/lastmile_qr_scan"}, "is_reserved": 0, "is_disabled": 0, "name": "2c9057cb5c9c6967c32e8dbacc1a5ffe", "bike_id": "2c9057cb5c9c6967c32e8dbacc1a5ffe", "fusion_lat": 0.0, "lon": -77.03303383333333, "type": "electric_scooter", "fusion_lon": 0.0, "lat": 38.927423}, {"rental_uris": {"android": "https://dc.lft.to/lastmile_qr_scan", "ios": "https://dc.lft.to/lastmile_qr_scan"}, "is_reserved": 0, "is_disabled": 0, "name": "73e7750faf819d7e4e22012c24147696", "bike_id": "73e7750faf819d7e4e22012c24147696", "fusion_lat": 0.0, "lon": -76.99360366666667, "type": "electric_scooter", "fusion_lon": 0.0, "lat": 38.8778435}, {"rental_uris": {"android": "https://dc.lft.to/lastmile_qr_scan", "ios": "https://dc.lft.to/lastmile_qr_scan"}, "is_reserved": 0, "is_disabled": 0, "name": "0c74194a30b7491840014ffcec93ce6f", "bike_id": "0c74194a30b7491840014ffcec93ce6f", "fusion_lat": 0.0, "lon": -77.01707133333333, "type": "electric_scooter", "fusion_lon": 0.0, "lat": 38.872938}, {"rental_uris": {"android": "https://dc.lft.to/lastmile_qr_scan", "ios": "https://dc.lft.to/lastmile_qr_scan"}, "is_reserved": 0, "is_disabled": 0, "name": "3de8adf4b126913c02a572f9b886ba41", "bike_id": "3de8adf4b126913c02a572f9b886ba41", "fusion_lat": 0.0, "lon": -77.022804, "type": "electric_scooter", "fusion_lon": 0.0, "lat": 38.89847683333333}, {"rental_uris": {"android": "https://dc.lft.to/lastmile_qr_scan", "ios": "https://dc.lft.to/lastmile_qr_scan"}, "is_reserved": 0, "is_disabled": 0, "name": "9753f2cb57731ae9069851fef4545560", "bike_id": "9753f2cb57731ae9069851fef4545560", "fusion_lat": 0.0, "lon": -76.9262065, "type": "electric_scooter", "fusion_lon": 0.0, "lat": 38.883712}, {"rental_uris": {"android": "https://dc.lft.to/lastmile_qr_scan", "ios": "https://dc.lft.to/lastmile_qr_scan"}, "is_reserved": 0, "is_disabled": 0, "name": "2a8e5ca10460933cfba1a3bfcbb9e6bd", "bike_id": "2a8e5ca10460933cfba1a3bfcbb9e6bd", "fusion_lat": 0.0, "lon": -76.99486533333334, "type": "electric_scooter", "fusion_lon": 0.0, "lat": 38.890066166666664}, {"rental_uris": {"android": "https://dc.lft.to/lastmile_qr_scan", "ios": "https://dc.lft.to/lastmile_qr_scan"}, "is_reserved": 0, "is_disabled": 0, "name": "ee53b3af248d82f69aec92936814aa2f", "bike_id": "ee53b3af248d82f69aec92936814aa2f", "fusion_lat": 0.0, "lon": -77.02210566666666, "type": "electric_scooter", "fusion_lon": 0.0, "lat": 38.924776333333334}, {"rental_uris": {"android": "https://dc.lft.to/lastmile_qr_scan", "ios": "https://dc.lft.to/lastmile_qr_scan"}, "is_reserved": 0, "is_disabled": 0, "name": "d1f148f798174e8ee3c8baa114959cc3", "bike_id": "d1f148f798174e8ee3c8baa114959cc3", "fusion_lat": 0.0, "lon": -76.9837215, "type": "electric_scooter", "fusion_lon": 0.0, "lat": 38.860285}, {"rental_uris": {"android": "https://dc.lft.to/lastmile_qr_scan", "ios": "https://dc.lft.to/lastmile_qr_scan"}, "is_reserved": 0, "is_disabled": 0, "name": "bed4a16888c23e42aed907ceddf6a0ce", "bike_id": "bed4a16888c23e42aed907ceddf6a0ce", "fusion_lat": 0.0, "lon": -77.02816866666667, "type": "electric_scooter", "fusion_lon": 0.0, "lat": 38.904641166666664}, {"rental_uris": {"android": "https://dc.lft.to/lastmile_qr_scan", "ios": "https://dc.lft.to/lastmile_qr_scan"}, "is_reserved": 0, "is_disabled": 0, "name": "3476ba0c1333a2d42be202cda955b85d", "bike_id": "3476ba0c1333a2d42be202cda955b85d", "fusion_lat": 0.0, "lon": -77.05155133333334, "type": "electric_scooter", "fusion_lon": 0.0, "lat": 38.90522416666667}, {"rental_uris": {"android": "https://dc.lft.to/lastmile_qr_scan", "ios": "https://dc.lft.to/lastmile_qr_scan"}, "is_reserved": 0, "is_disabled": 0, "name": "ca010f72b8ff9ed9b7901a3feeca1ba8", "bike_id": "ca010f72b8ff9ed9b7901a3feeca1ba8", "fusion_lat": 0.0, "lon": -77.03627133333333, "type": "electric_bike", "fusion_lon": 0.0, "lat": 38.92950233333333}, {"rental_uris": {"android": "https://dc.lft.to/lastmile_qr_scan", "ios": "https://dc.lft.to/lastmile_qr_scan"}, "is_reserved": 0, "is_disabled": 0, "name": "296f39fa0d86c0976e83d20798c01416", "bike_id": "296f39fa0d86c0976e83d20798c01416", "fusion_lat": 0.0, "lon": -77.0237465, "type": "electric_scooter", "fusion_lon": 0.0, "lat": 38.892223333333334}, {"rental_uris": {"android": "https://dc.lft.to/lastmile_qr_scan", "ios": "https://dc.lft.to/lastmile_qr_scan"}, "is_reserved": 0, "is_disabled": 0, "name": "16c5aac56eb2b67e7f95d8c33005561b", "bike_id": "16c5aac56eb2b67e7f95d8c33005561b", "fusion_lat": 0.0, "lon": -77.04540166666666, "type": "electric_scooter", "fusion_lon": 0.0, "lat": 38.89617466666667}, {"rental_uris": {"android": "https://dc.lft.to/lastmile_qr_scan", "ios": "https://dc.lft.to/lastmile_qr_scan"}, "is_reserved": 0, "is_disabled": 0, "name": "33f941862cc1cf79d2f779efaa3de8eb", "bike_id": "33f941862cc1cf79d2f779efaa3de8eb", "fusion_lat": 0.0, "lon": -77.022788, "type": "electric_scooter", "fusion_lon": 0.0, "lat": 38.916296833333334}, {"rental_uris": {"android": "https://dc.lft.to/lastmile_qr_scan", "ios": "https://dc.lft.to/lastmile_qr_scan"}, "is_reserved": 0, "is_disabled": 0, "name": "e22704d53525472523e838583ebf1e8d", "bike_id": "e22704d53525472523e838583ebf1e8d", "fusion_lat": 0.0, "lon": -76.99106233333333, "type": "electric_scooter", "fusion_lon": 0.0, "lat": 38.857245166666665}, {"rental_uris": {"android": "https://dc.lft.to/lastmile_qr_scan", "ios": "https://dc.lft.to/lastmile_qr_scan"}, "is_reserved": 0, "is_disabled": 0, "name": "af125189a1cf9bf428ace66729273137", "bike_id": "af125189a1cf9bf428ace66729273137", "fusion_lat": 0.0, "lon": -77.048116, "type": "electric_scooter", "fusion_lon": 0.0, "lat": 38.91635}, {"rental_uris": {"android": "https://dc.lft.to/lastmile_qr_scan", "ios": "https://dc.lft.to/lastmile_qr_scan"}, "is_reserved": 0, "is_disabled": 0, "name": "f1c2da4f4ee67510cfc771fe6a741b56", "bike_id": "f1c2da4f4ee67510cfc771fe6a741b56", "fusion_lat": 0.0, "lon": -77.0307575, "type": "electric_scooter", "fusion_lon": 0.0, "lat": 38.8996665}, {"rental_uris": {"android": "https://dc.lft.to/lastmile_qr_scan", "ios": "https://dc.lft.to/lastmile_qr_scan"}, "is_reserved": 0, "is_disabled": 0, "name": "3af7ddb4f0edadcd8c3d9583750d49f1", "bike_id": "3af7ddb4f0edadcd8c3d9583750d49f1", "fusion_lat": 0.0, "lon": -77.02847466666667, "type": "electric_scooter", "fusion_lon": 0.0, "lat": 38.9327865}, {"rental_uris": {"android": "https://dc.lft.to/lastmile_qr_scan", "ios": "https://dc.lft.to/lastmile_qr_scan"}, "is_reserved": 0, "is_disabled": 0, "name": "733841c8ba4ec13b67f37143dcb12727", "bike_id": "733841c8ba4ec13b67f37143dcb12727", "fusion_lat": 0.0, "lon": -77.0258255, "type": "electric_scooter", "fusion_lon": 0.0, "lat": 38.903522333333335}, {"rental_uris": {"android": "https://dc.lft.to/lastmile_qr_scan", "ios": "https://dc.lft.to/lastmile_qr_scan"}, "is_reserved": 0, "is_disabled": 0, "name": "b8f580ec4c3362635cfcaaf2569f6543", "bike_id": "b8f580ec4c3362635cfcaaf2569f6543", "fusion_lat": 0.0, "lon": -77.0316465, "type": "electric_scooter", "fusion_lon": 0.0, "lat": 38.89218616666667}, {"rental_uris": {"android": "https://dc.lft.to/lastmile_qr_scan", "ios": "https://dc.lft.to/lastmile_qr_scan"}, "is_reserved": 0, "is_disabled": 0, "name": "2e6e5b552071745bc63893b237ca9617", "bike_id": "2e6e5b552071745bc63893b237ca9617", "fusion_lat": 0.0, "lon": -77.02972383333334, "type": "electric_scooter", "fusion_lon": 0.0, "lat": 38.91889066666667}, {"rental_uris": {"android": "https://dc.lft.to/lastmile_qr_scan", "ios": "https://dc.lft.to/lastmile_qr_scan"}, "is_reserved": 0, "is_disabled": 0, "name": "b9aa10d5adc1687391d8e4d68936b91c", "bike_id": "b9aa10d5adc1687391d8e4d68936b91c", "fusion_lat": 0.0, "lon": -77.0194635, "type": "electric_scooter", "fusion_lon": 0.0, "lat": 38.922538}, {"rental_uris": {"android": "https://dc.lft.to/lastmile_qr_scan", "ios": "https://dc.lft.to/lastmile_qr_scan"}, "is_reserved": 0, "is_disabled": 0, "name": "839be94eff0fdef30ea605fa41d0af06", "bike_id": "839be94eff0fdef30ea605fa41d0af06", "fusion_lat": 0.0, "lon": -77.02206133333334, "type": "electric_scooter", "fusion_lon": 0.0, "lat": 38.89998966666667}, {"rental_uris": {"android": "https://dc.lft.to/lastmile_qr_scan", "ios": "https://dc.lft.to/lastmile_qr_scan"}, "is_reserved": 0, "is_disabled": 0, "name": "236679df4c7d8ba5b78db723095798d8", "bike_id": "236679df4c7d8ba5b78db723095798d8", "fusion_lat": 0.0, "lon": -76.9544765, "type": "electric_scooter", "fusion_lon": 0.0, "lat": 38.883919}, {"rental_uris": {"android": "https://dc.lft.to/lastmile_qr_scan", "ios": "https://dc.lft.to/lastmile_qr_scan"}, "is_reserved": 0, "is_disabled": 0, "name": "ba748ef5236a0ff120e83ea9c1c657dc", "bike_id": "ba748ef5236a0ff120e83ea9c1c657dc", "fusion_lat": 0.0, "lon": -76.98703266666666, "type": "electric_scooter", "fusion_lon": 0.0, "lat": 38.859661}, {"rental_uris": {"android": "https://dc.lft.to/lastmile_qr_scan", "ios": "https://dc.lft.to/lastmile_qr_scan"}, "is_reserved": 0, "is_disabled": 0, "name": "609ea6737e16a8ef6b8e541dca446c8b", "bike_id": "609ea6737e16a8ef6b8e541dca446c8b", "fusion_lat": 0.0, "lon": -77.06170366666667, "type": "electric_scooter", "fusion_lon": 0.0, "lat": 38.905242333333334}, {"rental_uris": {"android": "https://dc.lft.to/lastmile_qr_scan", "ios": "https://dc.lft.to/lastmile_qr_scan"}, "is_reserved": 0, "is_disabled": 0, "name": "e39f28b71f9a6b61f2bf4feb6804a530", "bike_id": "e39f28b71f9a6b61f2bf4feb6804a530", "fusion_lat": 0.0, "lon": -77.03009483333334, "type": "electric_scooter", "fusion_lon": 0.0, "lat": 38.8952565}, {"rental_uris": {"android": "https://dc.lft.to/lastmile_qr_scan", "ios": "https://dc.lft.to/lastmile_qr_scan"}, "is_reserved": 0, "is_disabled": 0, "name": "571e3d22848f80795c728b37733346fc", "bike_id": "571e3d22848f80795c728b37733346fc", "fusion_lat": 0.0, "lon": -77.04657116666667, "type": "electric_scooter", "fusion_lon": 0.0, "lat": 38.913665}, {"rental_uris": {"android": "https://dc.lft.to/lastmile_qr_scan", "ios": "https://dc.lft.to/lastmile_qr_scan"}, "is_reserved": 0, "is_disabled": 0, "name": "246d772b6f6412e3fbca6982214595ed", "bike_id": "246d772b6f6412e3fbca6982214595ed", "fusion_lat": 0.0, "lon": -77.02930683333334, "type": "electric_scooter", "fusion_lon": 0.0, "lat": 38.89735966666667}, {"rental_uris": {"android": "https://dc.lft.to/lastmile_qr_scan", "ios": "https://dc.lft.to/lastmile_qr_scan"}, "is_reserved": 0, "is_disabled": 0, "name": "76bba25c3a2546f8cf508fe163c78db9", "bike_id": "76bba25c3a2546f8cf508fe163c78db9", "fusion_lat": 0.0, "lon": -76.98056833333334, "type": "electric_bike", "fusion_lon": 0.0, "lat": 38.972516}, {"rental_uris": {"android": "https://dc.lft.to/lastmile_qr_scan", "ios": "https://dc.lft.to/lastmile_qr_scan"}, "is_reserved": 0, "is_disabled": 0, "name": "01ddf39765bfdcd458639160504675b5", "bike_id": "01ddf39765bfdcd458639160504675b5", "fusion_lat": 0.0, "lon": -77.01815016666667, "type": "electric_scooter", "fusion_lon": 0.0, "lat": 38.921370833333334}, {"rental_uris": {"android": "https://dc.lft.to/lastmile_qr_scan", "ios": "https://dc.lft.to/lastmile_qr_scan"}, "is_reserved": 0, "is_disabled": 0, "name": "776a66cd554d573db74f18a2a060b094", "bike_id": "776a66cd554d573db74f18a2a060b094", "fusion_lat": 0.0, "lon": -77.0033465, "type": "electric_scooter", "fusion_lon": 0.0, "lat": 38.893564}, {"rental_uris": {"android": "https://dc.lft.to/lastmile_qr_scan", "ios": "https://dc.lft.to/lastmile_qr_scan"}, "is_reserved": 0, "is_disabled": 0, "name": "62661fdd4e9b7805967db001c830d7cf", "bike_id": "62661fdd4e9b7805967db001c830d7cf", "fusion_lat": 0.0, "lon": -77.0278775, "type": "electric_scooter", "fusion_lon": 0.0, "lat": 38.927674333333336}, {"rental_uris": {"android": "https://dc.lft.to/lastmile_qr_scan", "ios": "https://dc.lft.to/lastmile_qr_scan"}, "is_reserved": 0, "is_disabled": 0, "name": "0a44d47dc2e94e596e78c9ee608461d2", "bike_id": "0a44d47dc2e94e596e78c9ee608461d2", "fusion_lat": 0.0, "lon": -77.023177, "type": "electric_scooter", "fusion_lon": 0.0, "lat": 38.87883683333333}, {"rental_uris": {"android": "https://dc.lft.to/lastmile_qr_scan", "ios": "https://dc.lft.to/lastmile_qr_scan"}, "is_reserved": 0, "is_disabled": 0, "name": "289cc4ac502affaefc7b767f6da3f4de", "bike_id": "289cc4ac502affaefc7b767f6da3f4de", "fusion_lat": 0.0, "lon": -77.04011016666666, "type": "electric_scooter", "fusion_lon": 0.0, "lat": 38.91007316666666}, {"rental_uris": {"android": "https://dc.lft.to/lastmile_qr_scan", "ios": "https://dc.lft.to/lastmile_qr_scan"}, "is_reserved": 0, "is_disabled": 0, "name": "fe3a80c6d4fa585f659e8c31af18c9c1", "bike_id": "fe3a80c6d4fa585f659e8c31af18c9c1", "fusion_lat": 0.0, "lon": -76.97970716666667, "type": "electric_bike", "fusion_lon": 0.0, "lat": 38.920452166666664}, {"rental_uris": {"android": "https://dc.lft.to/lastmile_qr_scan", "ios": "https://dc.lft.to/lastmile_qr_scan"}, "is_reserved": 0, "is_disabled": 0, "name": "3fd974af65cb42fbc55a65c1038cbbc2", "bike_id": "3fd974af65cb42fbc55a65c1038cbbc2", "fusion_lat": 0.0, "lon": -77.03302016666666, "type": "electric_scooter", "fusion_lon": 0.0, "lat": 38.92743266666667}, {"rental_uris": {"android": "https://dc.lft.to/lastmile_qr_scan", "ios": "https://dc.lft.to/lastmile_qr_scan"}, "is_reserved": 0, "is_disabled": 0, "name": "83bc60bde4f0038e77db2cad26ce0695", "bike_id": "83bc60bde4f0038e77db2cad26ce0695", "fusion_lat": 0.0, "lon": -77.04558733333333, "type": "electric_scooter", "fusion_lon": 0.0, "lat": 38.91366133333333}, {"rental_uris": {"android": "https://dc.lft.to/lastmile_qr_scan", "ios": "https://dc.lft.to/lastmile_qr_scan"}, "is_reserved": 0, "is_disabled": 0, "name": "06531f363370ad2b38c40468894ee8e1", "bike_id": "06531f363370ad2b38c40468894ee8e1", "fusion_lat": 0.0, "lon": -77.04835316666667, "type": "electric_scooter", "fusion_lon": 0.0, "lat": 38.90039633333333}, {"rental_uris": {"android": "https://dc.lft.to/lastmile_qr_scan", "ios": "https://dc.lft.to/lastmile_qr_scan"}, "is_reserved": 0, "is_disabled": 0, "name": "98f53fb30b17d1b94e1dd23318421832", "bike_id": "98f53fb30b17d1b94e1dd23318421832", "fusion_lat": 0.0, "lon": -77.0219505, "type": "electric_scooter", "fusion_lon": 0.0, "lat": 38.945031666666665}, {"rental_uris": {"android": "https://dc.lft.to/lastmile_qr_scan", "ios": "https://dc.lft.to/lastmile_qr_scan"}, "is_reserved": 0, "is_disabled": 0, "name": "3bd6e1f6bea0a56c053abc00b1bf97b1", "bike_id": "3bd6e1f6bea0a56c053abc00b1bf97b1", "fusion_lat": 0.0, "lon": -77.03987183333334, "type": "electric_scooter", "fusion_lon": 0.0, "lat": 38.93396933333333}, {"rental_uris": {"android": "https://dc.lft.to/lastmile_qr_scan", "ios": "https://dc.lft.to/lastmile_qr_scan"}, "is_reserved": 0, "is_disabled": 0, "name": "cbcf3541ea088689b55719099ace5c85", "bike_id": "cbcf3541ea088689b55719099ace5c85", "fusion_lat": 0.0, "lon": -77.04176116666666, "type": "electric_scooter", "fusion_lon": 0.0, "lat": 38.897509166666666}, {"rental_uris": {"android": "https://dc.lft.to/lastmile_qr_scan", "ios": "https://dc.lft.to/lastmile_qr_scan"}, "is_reserved": 0, "is_disabled": 0, "name": "e00d85861fb581028627e014dca21163", "bike_id": "e00d85861fb581028627e014dca21163", "fusion_lat": 0.0, "lon": -77.03793683333333, "type": "electric_scooter", "fusion_lon": 0.0, "lat": 38.933247}, {"rental_uris": {"android": "https://dc.lft.to/lastmile_qr_scan", "ios": "https://dc.lft.to/lastmile_qr_scan"}, "is_reserved": 0, "is_disabled": 0, "name": "55feef90ea564796821136843463a62f", "bike_id": "55feef90ea564796821136843463a62f", "fusion_lat": 0.0, "lon": -77.06715633333333, "type": "electric_scooter", "fusion_lon": 0.0, "lat": 38.9500945}, {"rental_uris": {"android": "https://dc.lft.to/lastmile_qr_scan", "ios": "https://dc.lft.to/lastmile_qr_scan"}, "is_reserved": 0, "is_disabled": 0, "name": "56fa29a6eb75813e6515dbb6461e0be5", "bike_id": "56fa29a6eb75813e6515dbb6461e0be5", "fusion_lat": 0.0, "lon": -76.98336583333334, "type": "electric_scooter", "fusion_lon": 0.0, "lat": 38.89544766666667}, {"rental_uris": {"android": "https://dc.lft.to/lastmile_qr_scan", "ios": "https://dc.lft.to/lastmile_qr_scan"}, "is_reserved": 0, "is_disabled": 0, "name": "b3e17fe50e85db3fb2a2b4a9c4e7992d", "bike_id": "b3e17fe50e85db3fb2a2b4a9c4e7992d", "fusion_lat": 0.0, "lon": -77.03756633333333, "type": "electric_scooter", "fusion_lon": 0.0, "lat": 38.90669616666667}, {"rental_uris": {"android": "https://dc.lft.to/lastmile_qr_scan", "ios": "https://dc.lft.to/lastmile_qr_scan"}, "is_reserved": 0, "is_disabled": 0, "name": "adacd97a4b753b26da16743f1c03556b", "bike_id": "adacd97a4b753b26da16743f1c03556b", "fusion_lat": 0.0, "lon": -77.02158116666666, "type": "electric_scooter", "fusion_lon": 0.0, "lat": 38.9246045}, {"rental_uris": {"android": "https://dc.lft.to/lastmile_qr_scan", "ios": "https://dc.lft.to/lastmile_qr_scan"}, "is_reserved": 0, "is_disabled": 0, "name": "8b5c470bc665dfda19989e9587434dfb", "bike_id": "8b5c470bc665dfda19989e9587434dfb", "fusion_lat": 0.0, "lon": -77.0318885, "type": "electric_scooter", "fusion_lon": 0.0, "lat": 38.9178345}, {"rental_uris": {"android": "https://dc.lft.to/lastmile_qr_scan", "ios": "https://dc.lft.to/lastmile_qr_scan"}, "is_reserved": 0, "is_disabled": 0, "name": "32e2b19d05190ee160b870e3dede167b", "bike_id": "32e2b19d05190ee160b870e3dede167b", "fusion_lat": 0.0, "lon": -77.0242655, "type": "electric_scooter", "fusion_lon": 0.0, "lat": 38.8952805}, {"rental_uris": {"android": "https://dc.lft.to/lastmile_qr_scan", "ios": "https://dc.lft.to/lastmile_qr_scan"}, "is_reserved": 0, "is_disabled": 0, "name": "eb095a577ecc45049629836a273ca238", "bike_id": "eb095a577ecc45049629836a273ca238", "fusion_lat": 0.0, "lon": -77.007452, "type": "electric_scooter", "fusion_lon": 0.0, "lat": 38.871103}, {"rental_uris": {"android": "https://dc.lft.to/lastmile_qr_scan", "ios": "https://dc.lft.to/lastmile_qr_scan"}, "is_reserved": 0, "is_disabled": 0, "name": "75ce6b100a1a4ea8afd71ddf786e97fc", "bike_id": "75ce6b100a1a4ea8afd71ddf786e97fc", "fusion_lat": 0.0, "lon": -77.0344155, "type": "electric_scooter", "fusion_lon": 0.0, "lat": 38.903002666666666}, {"rental_uris": {"android": "https://dc.lft.to/lastmile_qr_scan", "ios": "https://dc.lft.to/lastmile_qr_scan"}, "is_reserved": 0, "is_disabled": 0, "name": "2bef57fafff30bf1832ba5454806db80", "bike_id": "2bef57fafff30bf1832ba5454806db80", "fusion_lat": 0.0, "lon": -77.0450655, "type": "electric_scooter", "fusion_lon": 0.0, "lat": 38.892238}, {"rental_uris": {"android": "https://dc.lft.to/lastmile_qr_scan", "ios": "https://dc.lft.to/lastmile_qr_scan"}, "is_reserved": 0, "is_disabled": 0, "name": "f34d4dec69f439887e5f999cc5ca5357", "bike_id": "f34d4dec69f439887e5f999cc5ca5357", "fusion_lat": 0.0, "lon": -76.97071833333334, "type": "electric_bike", "fusion_lon": 0.0, "lat": 38.9206205}, {"rental_uris": {"android": "https://dc.lft.to/lastmile_qr_scan", "ios": "https://dc.lft.to/lastmile_qr_scan"}, "is_reserved": 0, "is_disabled": 0, "name": "0afad0acdf82c912bb54449ae3dae6f0", "bike_id": "0afad0acdf82c912bb54449ae3dae6f0", "fusion_lat": 0.0, "lon": -77.013659, "type": "electric_scooter", "fusion_lon": 0.0, "lat": 38.899390333333336}, {"rental_uris": {"android": "https://dc.lft.to/lastmile_qr_scan", "ios": "https://dc.lft.to/lastmile_qr_scan"}, "is_reserved": 0, "is_disabled": 0, "name": "8cc047852e2632ec0fad186da08fa475", "bike_id": "8cc047852e2632ec0fad186da08fa475", "fusion_lat": 0.0, "lon": -77.04329, "type": "electric_scooter", "fusion_lon": 0.0, "lat": 38.9233265}, {"rental_uris": {"android": "https://dc.lft.to/lastmile_qr_scan", "ios": "https://dc.lft.to/lastmile_qr_scan"}, "is_reserved": 0, "is_disabled": 0, "name": "a7ce3e8404c9d6474808dd18f844e125", "bike_id": "a7ce3e8404c9d6474808dd18f844e125", "fusion_lat": 0.0, "lon": -77.04674016666667, "type": "electric_scooter", "fusion_lon": 0.0, "lat": 38.902996}, {"rental_uris": {"android": "https://dc.lft.to/lastmile_qr_scan", "ios": "https://dc.lft.to/lastmile_qr_scan"}, "is_reserved": 0, "is_disabled": 0, "name": "8980a2b9e744b14d900d53455f701e51", "bike_id": "8980a2b9e744b14d900d53455f701e51", "fusion_lat": 0.0, "lon": -77.0502005, "type": "electric_scooter", "fusion_lon": 0.0, "lat": 38.89704866666667}, {"rental_uris": {"android": "https://dc.lft.to/lastmile_qr_scan", "ios": "https://dc.lft.to/lastmile_qr_scan"}, "is_reserved": 0, "is_disabled": 0, "name": "3a2e7dc53c4ec4f33c56b98e7c60be1d", "bike_id": "3a2e7dc53c4ec4f33c56b98e7c60be1d", "fusion_lat": 0.0, "lon": -77.11410916666667, "type": "electric_bike", "fusion_lon": 0.0, "lat": 38.8732245}, {"rental_uris": {"android": "https://dc.lft.to/lastmile_qr_scan", "ios": "https://dc.lft.to/lastmile_qr_scan"}, "is_reserved": 0, "is_disabled": 0, "name": "5fab161b9a06540abac6518e121fc76d", "bike_id": "5fab161b9a06540abac6518e121fc76d", "fusion_lat": 0.0, "lon": -77.03306133333334, "type": "electric_scooter", "fusion_lon": 0.0, "lat": 38.9264595}, {"rental_uris": {"android": "https://dc.lft.to/lastmile_qr_scan", "ios": "https://dc.lft.to/lastmile_qr_scan"}, "is_reserved": 0, "is_disabled": 0, "name": "7dfa1c7ae72602131bdab6ed6f9471b0", "bike_id": "7dfa1c7ae72602131bdab6ed6f9471b0", "fusion_lat": 0.0, "lon": -77.03481066666667, "type": "electric_scooter", "fusion_lon": 0.0, "lat": 38.915626}, {"rental_uris": {"android": "https://dc.lft.to/lastmile_qr_scan", "ios": "https://dc.lft.to/lastmile_qr_scan"}, "is_reserved": 0, "is_disabled": 0, "name": "4b7925d9268ca924f0c38d479b3a527a", "bike_id": "4b7925d9268ca924f0c38d479b3a527a", "fusion_lat": 0.0, "lon": -77.00895066666666, "type": "electric_bike", "fusion_lon": 0.0, "lat": 38.921486}, {"rental_uris": {"android": "https://dc.lft.to/lastmile_qr_scan", "ios": "https://dc.lft.to/lastmile_qr_scan"}, "is_reserved": 0, "is_disabled": 0, "name": "15e7819de768a9a4636091134d7cf4f6", "bike_id": "15e7819de768a9a4636091134d7cf4f6", "fusion_lat": 0.0, "lon": -77.23408816666667, "type": "electric_bike", "fusion_lon": 0.0, "lat": 38.875744166666664}, {"rental_uris": {"android": "https://dc.lft.to/lastmile_qr_scan", "ios": "https://dc.lft.to/lastmile_qr_scan"}, "is_reserved": 0, "is_disabled": 0, "name": "6c7a7d2dd582fd0a9208f17e1fb99314", "bike_id": "6c7a7d2dd582fd0a9208f17e1fb99314", "fusion_lat": 0.0, "lon": -77.0029405, "type": "electric_scooter", "fusion_lon": 0.0, "lat": 38.89194833333333}, {"rental_uris": {"android": "https://dc.lft.to/lastmile_qr_scan", "ios": "https://dc.lft.to/lastmile_qr_scan"}, "is_reserved": 0, "is_disabled": 0, "name": "3a1e0849569ad2dde8dc4f592abbf736", "bike_id": "3a1e0849569ad2dde8dc4f592abbf736", "fusion_lat": 0.0, "lon": -77.03031783333333, "type": "electric_scooter", "fusion_lon": 0.0, "lat": 38.903813}, {"rental_uris": {"android": "https://dc.lft.to/lastmile_qr_scan", "ios": "https://dc.lft.to/lastmile_qr_scan"}, "is_reserved": 0, "is_disabled": 0, "name": "54a33b48f23075abe2c015ee5ead5020", "bike_id": "54a33b48f23075abe2c015ee5ead5020", "fusion_lat": 0.0, "lon": -77.05332366666667, "type": "electric_scooter", "fusion_lon": 0.0, "lat": 38.90154733333333}, {"rental_uris": {"android": "https://dc.lft.to/lastmile_qr_scan", "ios": "https://dc.lft.to/lastmile_qr_scan"}, "is_reserved": 0, "is_disabled": 0, "name": "ea136eafecdcc1a5e79d9aeebbd233dd", "bike_id": "ea136eafecdcc1a5e79d9aeebbd233dd", "fusion_lat": 0.0, "lon": -76.988455, "type": "electric_scooter", "fusion_lon": 0.0, "lat": 38.90027166666667}, {"rental_uris": {"android": "https://dc.lft.to/lastmile_qr_scan", "ios": "https://dc.lft.to/lastmile_qr_scan"}, "is_reserved": 0, "is_disabled": 0, "name": "8b438341d9fef759afcf17b0738337a1", "bike_id": "8b438341d9fef759afcf17b0738337a1", "fusion_lat": 0.0, "lon": -77.022729, "type": "electric_scooter", "fusion_lon": 0.0, "lat": 38.916892833333335}, {"rental_uris": {"android": "https://dc.lft.to/lastmile_qr_scan", "ios": "https://dc.lft.to/lastmile_qr_scan"}, "is_reserved": 0, "is_disabled": 0, "name": "7256983fb8f5c2cdae5b645b20ef4d8c", "bike_id": "7256983fb8f5c2cdae5b645b20ef4d8c", "fusion_lat": 0.0, "lon": -77.04092383333334, "type": "electric_scooter", "fusion_lon": 0.0, "lat": 38.901179}, {"rental_uris": {"android": "https://dc.lft.to/lastmile_qr_scan", "ios": "https://dc.lft.to/lastmile_qr_scan"}, "is_reserved": 0, "is_disabled": 0, "name": "4af6f83ab0b1992da8899a36c0a8f4c7", "bike_id": "4af6f83ab0b1992da8899a36c0a8f4c7", "fusion_lat": 0.0, "lon": -76.96817716666666, "type": "electric_scooter", "fusion_lon": 0.0, "lat": 38.847150666666664}, {"rental_uris": {"android": "https://dc.lft.to/lastmile_qr_scan", "ios": "https://dc.lft.to/lastmile_qr_scan"}, "is_reserved": 0, "is_disabled": 0, "name": "4166c664d0119e07c9f42bd6ddb37c32", "bike_id": "4166c664d0119e07c9f42bd6ddb37c32", "fusion_lat": 0.0, "lon": -77.06123516666666, "type": "electric_scooter", "fusion_lon": 0.0, "lat": 38.902278333333335}, {"rental_uris": {"android": "https://dc.lft.to/lastmile_qr_scan", "ios": "https://dc.lft.to/lastmile_qr_scan"}, "is_reserved": 0, "is_disabled": 0, "name": "422ca0c85a02849a5e22e31007273773", "bike_id": "422ca0c85a02849a5e22e31007273773", "fusion_lat": 0.0, "lon": -77.03232616666666, "type": "electric_scooter", "fusion_lon": 0.0, "lat": 38.916527}, {"rental_uris": {"android": "https://dc.lft.to/lastmile_qr_scan", "ios": "https://dc.lft.to/lastmile_qr_scan"}, "is_reserved": 0, "is_disabled": 0, "name": "e2466f7c6155e04dc0b29bb3297ac13a", "bike_id": "e2466f7c6155e04dc0b29bb3297ac13a", "fusion_lat": 0.0, "lon": -77.02679916666666, "type": "electric_scooter", "fusion_lon": 0.0, "lat": 38.902363}, {"rental_uris": {"android": "https://dc.lft.to/lastmile_qr_scan", "ios": "https://dc.lft.to/lastmile_qr_scan"}, "is_reserved": 0, "is_disabled": 0, "name": "b8e253d0d3c1cdf54a6d5edceea31b3b", "bike_id": "b8e253d0d3c1cdf54a6d5edceea31b3b", "fusion_lat": 0.0, "lon": -77.06317483333333, "type": "electric_scooter", "fusion_lon": 0.0, "lat": 38.9437385}, {"rental_uris": {"android": "https://dc.lft.to/lastmile_qr_scan", "ios": "https://dc.lft.to/lastmile_qr_scan"}, "is_reserved": 0, "is_disabled": 0, "name": "f436ee7eef2bb5634166cc98a2c18f56", "bike_id": "f436ee7eef2bb5634166cc98a2c18f56", "fusion_lat": 0.0, "lon": -77.027181, "type": "electric_scooter", "fusion_lon": 0.0, "lat": 38.8986765}, {"rental_uris": {"android": "https://dc.lft.to/lastmile_qr_scan", "ios": "https://dc.lft.to/lastmile_qr_scan"}, "is_reserved": 0, "is_disabled": 0, "name": "b37952a3b58d63fc3eb09327bd306b7a", "bike_id": "b37952a3b58d63fc3eb09327bd306b7a", "fusion_lat": 0.0, "lon": -77.04986966666667, "type": "electric_scooter", "fusion_lon": 0.0, "lat": 38.9010775}, {"rental_uris": {"android": "https://dc.lft.to/lastmile_qr_scan", "ios": "https://dc.lft.to/lastmile_qr_scan"}, "is_reserved": 0, "is_disabled": 0, "name": "317178d81eac5b7558569bc6fea571f2", "bike_id": "317178d81eac5b7558569bc6fea571f2", "fusion_lat": 0.0, "lon": -77.04052066666667, "type": "electric_scooter", "fusion_lon": 0.0, "lat": 38.908741666666664}, {"rental_uris": {"android": "https://dc.lft.to/lastmile_qr_scan", "ios": "https://dc.lft.to/lastmile_qr_scan"}, "is_reserved": 0, "is_disabled": 0, "name": "514d84a93d34adbbaa82c09fe2923631", "bike_id": "514d84a93d34adbbaa82c09fe2923631", "fusion_lat": 0.0, "lon": -76.940838, "type": "electric_scooter", "fusion_lon": 0.0, "lat": 38.891239}, {"rental_uris": {"android": "https://dc.lft.to/lastmile_qr_scan", "ios": "https://dc.lft.to/lastmile_qr_scan"}, "is_reserved": 0, "is_disabled": 0, "name": "adb33be81ee69aeecb0bc2c4f8610714", "bike_id": "adb33be81ee69aeecb0bc2c4f8610714", "fusion_lat": 0.0, "lon": -77.02382183333333, "type": "electric_scooter", "fusion_lon": 0.0, "lat": 38.952721833333335}, {"rental_uris": {"android": "https://dc.lft.to/lastmile_qr_scan", "ios": "https://dc.lft.to/lastmile_qr_scan"}, "is_reserved": 0, "is_disabled": 0, "name": "886f258fde86a334c64ce23a9cdaf068", "bike_id": "886f258fde86a334c64ce23a9cdaf068", "fusion_lat": 0.0, "lon": -77.034342, "type": "electric_scooter", "fusion_lon": 0.0, "lat": 38.90273533333333}, {"rental_uris": {"android": "https://dc.lft.to/lastmile_qr_scan", "ios": "https://dc.lft.to/lastmile_qr_scan"}, "is_reserved": 0, "is_disabled": 0, "name": "b0ef68fc31e43580ed475002f3d895aa", "bike_id": "b0ef68fc31e43580ed475002f3d895aa", "fusion_lat": 0.0, "lon": -77.04048783333333, "type": "electric_scooter", "fusion_lon": 0.0, "lat": 38.903573333333334}, {"rental_uris": {"android": "https://dc.lft.to/lastmile_qr_scan", "ios": "https://dc.lft.to/lastmile_qr_scan"}, "is_reserved": 0, "is_disabled": 0, "name": "31b228b58b25ab2115c8c92990448ca8", "bike_id": "31b228b58b25ab2115c8c92990448ca8", "fusion_lat": 0.0, "lon": -77.04362583333334, "type": "electric_scooter", "fusion_lon": 0.0, "lat": 38.904123}, {"rental_uris": {"android": "https://dc.lft.to/lastmile_qr_scan", "ios": "https://dc.lft.to/lastmile_qr_scan"}, "is_reserved": 0, "is_disabled": 0, "name": "51e2980c4bec8eaab3e550c48a1a0af3", "bike_id": "51e2980c4bec8eaab3e550c48a1a0af3", "fusion_lat": 0.0, "lon": -77.04527283333333, "type": "electric_scooter", "fusion_lon": 0.0, "lat": 38.902752166666666}, {"rental_uris": {"android": "https://dc.lft.to/lastmile_qr_scan", "ios": "https://dc.lft.to/lastmile_qr_scan"}, "is_reserved": 0, "is_disabled": 0, "name": "85522c4580897638e887ebb1db44f896", "bike_id": "85522c4580897638e887ebb1db44f896", "fusion_lat": 0.0, "lon": -77.00917316666667, "type": "electric_scooter", "fusion_lon": 0.0, "lat": 38.89909933333333}, {"rental_uris": {"android": "https://dc.lft.to/lastmile_qr_scan", "ios": "https://dc.lft.to/lastmile_qr_scan"}, "is_reserved": 0, "is_disabled": 0, "name": "73548d9998152b3ca591018fee80466e", "bike_id": "73548d9998152b3ca591018fee80466e", "fusion_lat": 0.0, "lon": -77.0533505, "type": "electric_scooter", "fusion_lon": 0.0, "lat": 38.905204833333336}, {"rental_uris": {"android": "https://dc.lft.to/lastmile_qr_scan", "ios": "https://dc.lft.to/lastmile_qr_scan"}, "is_reserved": 0, "is_disabled": 0, "name": "d7c2cd5d57421858930d949206e7c77c", "bike_id": "d7c2cd5d57421858930d949206e7c77c", "fusion_lat": 0.0, "lon": -77.03153633333334, "type": "electric_scooter", "fusion_lon": 0.0, "lat": 38.899468166666665}, {"rental_uris": {"android": "https://dc.lft.to/lastmile_qr_scan", "ios": "https://dc.lft.to/lastmile_qr_scan"}, "is_reserved": 0, "is_disabled": 0, "name": "6a205232782b134d3a2cc483111230af", "bike_id": "6a205232782b134d3a2cc483111230af", "fusion_lat": 0.0, "lon": -77.23404466666666, "type": "electric_bike", "fusion_lon": 0.0, "lat": 38.87575483333333}, {"rental_uris": {"android": "https://dc.lft.to/lastmile_qr_scan", "ios": "https://dc.lft.to/lastmile_qr_scan"}, "is_reserved": 0, "is_disabled": 0, "name": "043b6961666eff1c5f866022798a2cce", "bike_id": "043b6961666eff1c5f866022798a2cce", "fusion_lat": 0.0, "lon": -76.90299383333334, "type": "electric_bike", "fusion_lon": 0.0, "lat": 39.002899}, {"rental_uris": {"android": "https://dc.lft.to/lastmile_qr_scan", "ios": "https://dc.lft.to/lastmile_qr_scan"}, "is_reserved": 0, "is_disabled": 0, "name": "9f3317aff45b83184656133a6a091b1d", "bike_id": "9f3317aff45b83184656133a6a091b1d", "fusion_lat": 0.0, "lon": -77.029729, "type": "electric_scooter", "fusion_lon": 0.0, "lat": 38.892237333333334}, {"rental_uris": {"android": "https://dc.lft.to/lastmile_qr_scan", "ios": "https://dc.lft.to/lastmile_qr_scan"}, "is_reserved": 0, "is_disabled": 0, "name": "a891d03a2bf00767e5aaa1a36a3a6a02", "bike_id": "a891d03a2bf00767e5aaa1a36a3a6a02", "fusion_lat": 0.0, "lon": -77.0128555, "type": "electric_scooter", "fusion_lon": 0.0, "lat": 38.898420333333334}, {"rental_uris": {"android": "https://dc.lft.to/lastmile_qr_scan", "ios": "https://dc.lft.to/lastmile_qr_scan"}, "is_reserved": 0, "is_disabled": 0, "name": "4b2d3af126c6ecd5c0a0bbdfc00cf812", "bike_id": "4b2d3af126c6ecd5c0a0bbdfc00cf812", "fusion_lat": 0.0, "lon": -77.07429583333334, "type": "electric_bike", "fusion_lon": 0.0, "lat": 38.912648}, {"rental_uris": {"android": "https://dc.lft.to/lastmile_qr_scan", "ios": "https://dc.lft.to/lastmile_qr_scan"}, "is_reserved": 0, "is_disabled": 0, "name": "f2960c15a9cd14d7888c60d8c28fd478", "bike_id": "f2960c15a9cd14d7888c60d8c28fd478", "fusion_lat": 0.0, "lon": -77.01002866666667, "type": "electric_bike", "fusion_lon": 0.0, "lat": 38.955967333333334}, {"rental_uris": {"android": "https://dc.lft.to/lastmile_qr_scan", "ios": "https://dc.lft.to/lastmile_qr_scan"}, "is_reserved": 0, "is_disabled": 0, "name": "a68063465906d9af48ac9fb5aa73eb7d", "bike_id": "a68063465906d9af48ac9fb5aa73eb7d", "fusion_lat": 0.0, "lon": -77.04175166666667, "type": "electric_scooter", "fusion_lon": 0.0, "lat": 38.9172475}, {"rental_uris": {"android": "https://dc.lft.to/lastmile_qr_scan", "ios": "https://dc.lft.to/lastmile_qr_scan"}, "is_reserved": 0, "is_disabled": 0, "name": "093c929b1032fc24e06795f5ee09265d", "bike_id": "093c929b1032fc24e06795f5ee09265d", "fusion_lat": 0.0, "lon": -77.02576133333334, "type": "electric_scooter", "fusion_lon": 0.0, "lat": 38.952883666666665}, {"rental_uris": {"android": "https://dc.lft.to/lastmile_qr_scan", "ios": "https://dc.lft.to/lastmile_qr_scan"}, "is_reserved": 0, "is_disabled": 0, "name": "36bdc6662782eb6e2f78eebb60e8422f", "bike_id": "36bdc6662782eb6e2f78eebb60e8422f", "fusion_lat": 0.0, "lon": -77.033791, "type": "electric_scooter", "fusion_lon": 0.0, "lat": 38.899646}, {"rental_uris": {"android": "https://dc.lft.to/lastmile_qr_scan", "ios": "https://dc.lft.to/lastmile_qr_scan"}, "is_reserved": 0, "is_disabled": 0, "name": "4c2178db72b8429692615644cad33d5b", "bike_id": "4c2178db72b8429692615644cad33d5b", "fusion_lat": 0.0, "lon": -77.03225333333333, "type": "electric_scooter", "fusion_lon": 0.0, "lat": 38.925487833333335}, {"rental_uris": {"android": "https://dc.lft.to/lastmile_qr_scan", "ios": "https://dc.lft.to/lastmile_qr_scan"}, "is_reserved": 0, "is_disabled": 0, "name": "33404f97106521263758cc56ca933c55", "bike_id": "33404f97106521263758cc56ca933c55", "fusion_lat": 0.0, "lon": -77.072384, "type": "electric_scooter", "fusion_lon": 0.0, "lat": 38.93952433333333}, {"rental_uris": {"android": "https://dc.lft.to/lastmile_qr_scan", "ios": "https://dc.lft.to/lastmile_qr_scan"}, "is_reserved": 0, "is_disabled": 0, "name": "17b8ebe2d2aab8f7f13160d08199edca", "bike_id": "17b8ebe2d2aab8f7f13160d08199edca", "fusion_lat": 0.0, "lon": -77.01223833333333, "type": "electric_scooter", "fusion_lon": 0.0, "lat": 38.898024}, {"rental_uris": {"android": "https://dc.lft.to/lastmile_qr_scan", "ios": "https://dc.lft.to/lastmile_qr_scan"}, "is_reserved": 0, "is_disabled": 0, "name": "6332a35e093e1fbae725e0ca6867ec1e", "bike_id": "6332a35e093e1fbae725e0ca6867ec1e", "fusion_lat": 0.0, "lon": -77.0514905, "type": "electric_scooter", "fusion_lon": 0.0, "lat": 38.92374916666667}, {"rental_uris": {"android": "https://dc.lft.to/lastmile_qr_scan", "ios": "https://dc.lft.to/lastmile_qr_scan"}, "is_reserved": 0, "is_disabled": 0, "name": "9cdfba38cff60dce775524424b0afba6", "bike_id": "9cdfba38cff60dce775524424b0afba6", "fusion_lat": 0.0, "lon": -77.03857133333334, "type": "electric_scooter", "fusion_lon": 0.0, "lat": 38.9321155}, {"rental_uris": {"android": "https://dc.lft.to/lastmile_qr_scan", "ios": "https://dc.lft.to/lastmile_qr_scan"}, "is_reserved": 0, "is_disabled": 0, "name": "b6f340d48a5066571cfab17d5dc45c62", "bike_id": "b6f340d48a5066571cfab17d5dc45c62", "fusion_lat": 0.0, "lon": -77.02909183333334, "type": "electric_bike", "fusion_lon": 0.0, "lat": 38.994468166666664}, {"rental_uris": {"android": "https://dc.lft.to/lastmile_qr_scan", "ios": "https://dc.lft.to/lastmile_qr_scan"}, "is_reserved": 0, "is_disabled": 0, "name": "77d88c82e780314a4e24acf8bf564173", "bike_id": "77d88c82e780314a4e24acf8bf564173", "fusion_lat": 0.0, "lon": -77.02564733333334, "type": "electric_scooter", "fusion_lon": 0.0, "lat": 38.88748016666667}, {"rental_uris": {"android": "https://dc.lft.to/lastmile_qr_scan", "ios": "https://dc.lft.to/lastmile_qr_scan"}, "is_reserved": 0, "is_disabled": 0, "name": "53323e4da56b5ddefb71b9e21b0ce599", "bike_id": "53323e4da56b5ddefb71b9e21b0ce599", "fusion_lat": 0.0, "lon": -77.01964083333333, "type": "electric_scooter", "fusion_lon": 0.0, "lat": 38.9012415}, {"rental_uris": {"android": "https://dc.lft.to/lastmile_qr_scan", "ios": "https://dc.lft.to/lastmile_qr_scan"}, "is_reserved": 0, "is_disabled": 0, "name": "b8c9685693b5a3c402bf440af386e53a", "bike_id": "b8c9685693b5a3c402bf440af386e53a", "fusion_lat": 0.0, "lon": -77.03354483333334, "type": "electric_scooter", "fusion_lon": 0.0, "lat": 38.92153066666667}, {"rental_uris": {"android": "https://dc.lft.to/lastmile_qr_scan", "ios": "https://dc.lft.to/lastmile_qr_scan"}, "is_reserved": 0, "is_disabled": 0, "name": "9c072ea910185901481a5fb8b89b20de", "bike_id": "9c072ea910185901481a5fb8b89b20de", "fusion_lat": 0.0, "lon": -77.032236, "type": "electric_scooter", "fusion_lon": 0.0, "lat": 38.90371116666667}, {"rental_uris": {"android": "https://dc.lft.to/lastmile_qr_scan", "ios": "https://dc.lft.to/lastmile_qr_scan"}, "is_reserved": 0, "is_disabled": 0, "name": "9382bd3f8308141a165275201dfb18f1", "bike_id": "9382bd3f8308141a165275201dfb18f1", "fusion_lat": 0.0, "lon": -77.027849, "type": "electric_scooter", "fusion_lon": 0.0, "lat": 38.9029065}, {"rental_uris": {"android": "https://dc.lft.to/lastmile_qr_scan", "ios": "https://dc.lft.to/lastmile_qr_scan"}, "is_reserved": 0, "is_disabled": 0, "name": "a6d21dd5ba16eb2fbab4f6847771740c", "bike_id": "a6d21dd5ba16eb2fbab4f6847771740c", "fusion_lat": 0.0, "lon": -77.04342733333333, "type": "electric_scooter", "fusion_lon": 0.0, "lat": 38.89838066666667}, {"rental_uris": {"android": "https://dc.lft.to/lastmile_qr_scan", "ios": "https://dc.lft.to/lastmile_qr_scan"}, "is_reserved": 0, "is_disabled": 0, "name": "17129d968fa3249d37c3495b86e23b1b", "bike_id": "17129d968fa3249d37c3495b86e23b1b", "fusion_lat": 0.0, "lon": -77.0441295, "type": "electric_scooter", "fusion_lon": 0.0, "lat": 38.925891}, {"rental_uris": {"android": "https://dc.lft.to/lastmile_qr_scan", "ios": "https://dc.lft.to/lastmile_qr_scan"}, "is_reserved": 0, "is_disabled": 0, "name": "3a06780a4941db103e5954f46d4350a9", "bike_id": "3a06780a4941db103e5954f46d4350a9", "fusion_lat": 0.0, "lon": -77.0445605, "type": "electric_scooter", "fusion_lon": 0.0, "lat": 38.9024735}, {"rental_uris": {"android": "https://dc.lft.to/lastmile_qr_scan", "ios": "https://dc.lft.to/lastmile_qr_scan"}, "is_reserved": 0, "is_disabled": 0, "name": "875ddf5b96f1104816fe650883d783ce", "bike_id": "875ddf5b96f1104816fe650883d783ce", "fusion_lat": 0.0, "lon": -77.06351133333334, "type": "electric_scooter", "fusion_lon": 0.0, "lat": 38.944348166666664}, {"rental_uris": {"android": "https://dc.lft.to/lastmile_qr_scan", "ios": "https://dc.lft.to/lastmile_qr_scan"}, "is_reserved": 0, "is_disabled": 0, "name": "834e1119921a31a3c5a5b62129da41fa", "bike_id": "834e1119921a31a3c5a5b62129da41fa", "fusion_lat": 0.0, "lon": -77.02983916666666, "type": "electric_scooter", "fusion_lon": 0.0, "lat": 38.883151833333336}, {"rental_uris": {"android": "https://dc.lft.to/lastmile_qr_scan", "ios": "https://dc.lft.to/lastmile_qr_scan"}, "is_reserved": 0, "is_disabled": 0, "name": "fe2e340190963f73aac20c42ef269720", "bike_id": "fe2e340190963f73aac20c42ef269720", "fusion_lat": 0.0, "lon": -77.04656516666667, "type": "electric_scooter", "fusion_lon": 0.0, "lat": 38.900067666666665}, {"rental_uris": {"android": "https://dc.lft.to/lastmile_qr_scan", "ios": "https://dc.lft.to/lastmile_qr_scan"}, "is_reserved": 0, "is_disabled": 0, "name": "3f351a372a5eb1c3fd03bafd310208bb", "bike_id": "3f351a372a5eb1c3fd03bafd310208bb", "fusion_lat": 0.0, "lon": -77.02301733333333, "type": "electric_scooter", "fusion_lon": 0.0, "lat": 38.90914933333333}, {"rental_uris": {"android": "https://dc.lft.to/lastmile_qr_scan", "ios": "https://dc.lft.to/lastmile_qr_scan"}, "is_reserved": 0, "is_disabled": 0, "name": "08714812448a98fe8c635ed018f509e6", "bike_id": "08714812448a98fe8c635ed018f509e6", "fusion_lat": 0.0, "lon": -77.04488983333333, "type": "electric_scooter", "fusion_lon": 0.0, "lat": 38.8973465}, {"rental_uris": {"android": "https://dc.lft.to/lastmile_qr_scan", "ios": "https://dc.lft.to/lastmile_qr_scan"}, "is_reserved": 0, "is_disabled": 0, "name": "a05e8500e047831e205e0d2bfa660b3d", "bike_id": "a05e8500e047831e205e0d2bfa660b3d", "fusion_lat": 0.0, "lon": -77.017342, "type": "electric_scooter", "fusion_lon": 0.0, "lat": 38.9142065}, {"rental_uris": {"android": "https://dc.lft.to/lastmile_qr_scan", "ios": "https://dc.lft.to/lastmile_qr_scan"}, "is_reserved": 0, "is_disabled": 0, "name": "cc606786ae3a10ff2a44b3794adf6723", "bike_id": "cc606786ae3a10ff2a44b3794adf6723", "fusion_lat": 0.0, "lon": -77.03544066666667, "type": "electric_scooter", "fusion_lon": 0.0, "lat": 38.90466216666667}, {"rental_uris": {"android": "https://dc.lft.to/lastmile_qr_scan", "ios": "https://dc.lft.to/lastmile_qr_scan"}, "is_reserved": 0, "is_disabled": 0, "name": "b0a8a25e426262291b480cd7a845a809", "bike_id": "b0a8a25e426262291b480cd7a845a809", "fusion_lat": 0.0, "lon": -77.0043755, "type": "electric_scooter", "fusion_lon": 0.0, "lat": 38.91567833333333}, {"rental_uris": {"android": "https://dc.lft.to/lastmile_qr_scan", "ios": "https://dc.lft.to/lastmile_qr_scan"}, "is_reserved": 0, "is_disabled": 0, "name": "1368624fdb9bca9d9723b3d14b293131", "bike_id": "1368624fdb9bca9d9723b3d14b293131", "fusion_lat": 0.0, "lon": -77.00690716666666, "type": "electric_scooter", "fusion_lon": 0.0, "lat": 38.9060265}, {"rental_uris": {"android": "https://dc.lft.to/lastmile_qr_scan", "ios": "https://dc.lft.to/lastmile_qr_scan"}, "is_reserved": 0, "is_disabled": 0, "name": "c44c9c7106ed85d82ac7c35cf9181f50", "bike_id": "c44c9c7106ed85d82ac7c35cf9181f50", "fusion_lat": 0.0, "lon": -76.985086, "type": "electric_scooter", "fusion_lon": 0.0, "lat": 38.900666666666666}, {"rental_uris": {"android": "https://dc.lft.to/lastmile_qr_scan", "ios": "https://dc.lft.to/lastmile_qr_scan"}, "is_reserved": 0, "is_disabled": 0, "name": "dee17b69ea4ad32ed04f1b6f188fa774", "bike_id": "dee17b69ea4ad32ed04f1b6f188fa774", "fusion_lat": 0.0, "lon": -76.94874233333333, "type": "electric_scooter", "fusion_lon": 0.0, "lat": 38.89500666666667}, {"rental_uris": {"android": "https://dc.lft.to/lastmile_qr_scan", "ios": "https://dc.lft.to/lastmile_qr_scan"}, "is_reserved": 0, "is_disabled": 0, "name": "7e8a837198a72bf65962ac76e122881d", "bike_id": "7e8a837198a72bf65962ac76e122881d", "fusion_lat": 0.0, "lon": -77.0436145, "type": "electric_bike", "fusion_lon": 0.0, "lat": 38.898627833333336}, {"rental_uris": {"android": "https://dc.lft.to/lastmile_qr_scan", "ios": "https://dc.lft.to/lastmile_qr_scan"}, "is_reserved": 0, "is_disabled": 0, "name": "5a26ebdf5f09164bc08adb31d717a873", "bike_id": "5a26ebdf5f09164bc08adb31d717a873", "fusion_lat": 0.0, "lon": -77.0502585, "type": "electric_scooter", "fusion_lon": 0.0, "lat": 38.898237333333334}, {"rental_uris": {"android": "https://dc.lft.to/lastmile_qr_scan", "ios": "https://dc.lft.to/lastmile_qr_scan"}, "is_reserved": 0, "is_disabled": 0, "name": "b3ba4b22a7f63b1da7b9a7ecc2c0e0fa", "bike_id": "b3ba4b22a7f63b1da7b9a7ecc2c0e0fa", "fusion_lat": 0.0, "lon": -77.0461445, "type": "electric_scooter", "fusion_lon": 0.0, "lat": 38.898010166666666}, {"rental_uris": {"android": "https://dc.lft.to/lastmile_qr_scan", "ios": "https://dc.lft.to/lastmile_qr_scan"}, "is_reserved": 0, "is_disabled": 0, "name": "53488ea663c81c49c88c617ea4d9f682", "bike_id": "53488ea663c81c49c88c617ea4d9f682", "fusion_lat": 0.0, "lon": -77.04085983333333, "type": "electric_scooter", "fusion_lon": 0.0, "lat": 38.90577733333333}, {"rental_uris": {"android": "https://dc.lft.to/lastmile_qr_scan", "ios": "https://dc.lft.to/lastmile_qr_scan"}, "is_reserved": 0, "is_disabled": 0, "name": "a8f01889c91c1ab607778982b5792961", "bike_id": "a8f01889c91c1ab607778982b5792961", "fusion_lat": 0.0, "lon": -77.0059015, "type": "electric_scooter", "fusion_lon": 0.0, "lat": 38.8753395}, {"rental_uris": {"android": "https://dc.lft.to/lastmile_qr_scan", "ios": "https://dc.lft.to/lastmile_qr_scan"}, "is_reserved": 0, "is_disabled": 0, "name": "e9a74d08ccefcbd0caf785d4cfee9171", "bike_id": "e9a74d08ccefcbd0caf785d4cfee9171", "fusion_lat": 0.0, "lon": -77.04239716666666, "type": "electric_scooter", "fusion_lon": 0.0, "lat": 38.920617166666666}, {"rental_uris": {"android": "https://dc.lft.to/lastmile_qr_scan", "ios": "https://dc.lft.to/lastmile_qr_scan"}, "is_reserved": 0, "is_disabled": 0, "name": "8114f8401da42cd19992c7b38076a33d", "bike_id": "8114f8401da42cd19992c7b38076a33d", "fusion_lat": 0.0, "lon": -77.23388266666667, "type": "electric_bike", "fusion_lon": 0.0, "lat": 38.87175766666667}, {"rental_uris": {"android": "https://dc.lft.to/lastmile_qr_scan", "ios": "https://dc.lft.to/lastmile_qr_scan"}, "is_reserved": 0, "is_disabled": 0, "name": "9d116ee70c3a10a6e5dae9eb53e436cd", "bike_id": "9d116ee70c3a10a6e5dae9eb53e436cd", "fusion_lat": 0.0, "lon": -77.04398583333334, "type": "electric_scooter", "fusion_lon": 0.0, "lat": 38.908871}, {"rental_uris": {"android": "https://dc.lft.to/lastmile_qr_scan", "ios": "https://dc.lft.to/lastmile_qr_scan"}, "is_reserved": 0, "is_disabled": 0, "name": "2cf38b4dd29e22ea49ff299d92b51774", "bike_id": "2cf38b4dd29e22ea49ff299d92b51774", "fusion_lat": 0.0, "lon": -77.019439, "type": "electric_scooter", "fusion_lon": 0.0, "lat": 38.924424333333334}, {"rental_uris": {"android": "https://dc.lft.to/lastmile_qr_scan", "ios": "https://dc.lft.to/lastmile_qr_scan"}, "is_reserved": 0, "is_disabled": 0, "name": "bde11b81720fe560e846b38451f1e9bb", "bike_id": "bde11b81720fe560e846b38451f1e9bb", "fusion_lat": 0.0, "lon": -77.01519783333333, "type": "electric_scooter", "fusion_lon": 0.0, "lat": 38.872816666666665}, {"rental_uris": {"android": "https://dc.lft.to/lastmile_qr_scan", "ios": "https://dc.lft.to/lastmile_qr_scan"}, "is_reserved": 0, "is_disabled": 0, "name": "90c4e02a7b396dcf559096cd01f818b8", "bike_id": "90c4e02a7b396dcf559096cd01f818b8", "fusion_lat": 0.0, "lon": -77.0519995, "type": "electric_scooter", "fusion_lon": 0.0, "lat": 38.92437683333333}, {"rental_uris": {"android": "https://dc.lft.to/lastmile_qr_scan", "ios": "https://dc.lft.to/lastmile_qr_scan"}, "is_reserved": 0, "is_disabled": 0, "name": "2982351ab0045e79ae6f2f8f4b259fb5", "bike_id": "2982351ab0045e79ae6f2f8f4b259fb5", "fusion_lat": 0.0, "lon": -77.03846066666667, "type": "electric_scooter", "fusion_lon": 0.0, "lat": 38.90280216666667}, {"rental_uris": {"android": "https://dc.lft.to/lastmile_qr_scan", "ios": "https://dc.lft.to/lastmile_qr_scan"}, "is_reserved": 0, "is_disabled": 0, "name": "f3f27105ac2cecff096d041f7928be1e", "bike_id": "f3f27105ac2cecff096d041f7928be1e", "fusion_lat": 0.0, "lon": -77.017187, "type": "electric_scooter", "fusion_lon": 0.0, "lat": 38.974912}, {"rental_uris": {"android": "https://dc.lft.to/lastmile_qr_scan", "ios": "https://dc.lft.to/lastmile_qr_scan"}, "is_reserved": 0, "is_disabled": 0, "name": "6279017ba4d7e82feda44c63d346a7cb", "bike_id": "6279017ba4d7e82feda44c63d346a7cb", "fusion_lat": 0.0, "lon": -77.00892416666667, "type": "electric_scooter", "fusion_lon": 0.0, "lat": 38.924674333333336}, {"rental_uris": {"android": "https://dc.lft.to/lastmile_qr_scan", "ios": "https://dc.lft.to/lastmile_qr_scan"}, "is_reserved": 0, "is_disabled": 0, "name": "8c9aefe235a28d8018d7063cf38ba002", "bike_id": "8c9aefe235a28d8018d7063cf38ba002", "fusion_lat": 0.0, "lon": -76.98417, "type": "electric_bike", "fusion_lon": 0.0, "lat": 38.854963833333336}, {"rental_uris": {"android": "https://dc.lft.to/lastmile_qr_scan", "ios": "https://dc.lft.to/lastmile_qr_scan"}, "is_reserved": 0, "is_disabled": 0, "name": "ffa50e3fc977b850e0cf5f883dc70c53", "bike_id": "ffa50e3fc977b850e0cf5f883dc70c53", "fusion_lat": 0.0, "lon": -77.09685783333333, "type": "electric_bike", "fusion_lon": 0.0, "lat": 38.807411333333334}, {"rental_uris": {"android": "https://dc.lft.to/lastmile_qr_scan", "ios": "https://dc.lft.to/lastmile_qr_scan"}, "is_reserved": 0, "is_disabled": 0, "name": "75021577dcb47021b83960c70634925a", "bike_id": "75021577dcb47021b83960c70634925a", "fusion_lat": 0.0, "lon": -77.02373116666666, "type": "electric_scooter", "fusion_lon": 0.0, "lat": 38.90220683333333}, {"rental_uris": {"android": "https://dc.lft.to/lastmile_qr_scan", "ios": "https://dc.lft.to/lastmile_qr_scan"}, "is_reserved": 0, "is_disabled": 0, "name": "ed9b512f133afeb243817ae035d553a4", "bike_id": "ed9b512f133afeb243817ae035d553a4", "fusion_lat": 0.0, "lon": -77.0248985, "type": "electric_scooter", "fusion_lon": 0.0, "lat": 38.94183683333333}, {"rental_uris": {"android": "https://dc.lft.to/lastmile_qr_scan", "ios": "https://dc.lft.to/lastmile_qr_scan"}, "is_reserved": 0, "is_disabled": 0, "name": "6aa86744524e9d780c95fa2cfc81f4cf", "bike_id": "6aa86744524e9d780c95fa2cfc81f4cf", "fusion_lat": 0.0, "lon": -76.99070866666666, "type": "electric_bike", "fusion_lon": 0.0, "lat": 38.898149}, {"rental_uris": {"android": "https://dc.lft.to/lastmile_qr_scan", "ios": "https://dc.lft.to/lastmile_qr_scan"}, "is_reserved": 0, "is_disabled": 0, "name": "788885bf6abc4feb1c2f418398d9dcea", "bike_id": "788885bf6abc4feb1c2f418398d9dcea", "fusion_lat": 0.0, "lon": -76.99650233333334, "type": "electric_bike", "fusion_lon": 0.0, "lat": 38.967775833333334}, {"rental_uris": {"android": "https://dc.lft.to/lastmile_qr_scan", "ios": "https://dc.lft.to/lastmile_qr_scan"}, "is_reserved": 0, "is_disabled": 0, "name": "a76da5484c52513c13bacb11fb1a7e7a", "bike_id": "a76da5484c52513c13bacb11fb1a7e7a", "fusion_lat": 0.0, "lon": -77.01060116666666, "type": "electric_scooter", "fusion_lon": 0.0, "lat": 38.91911966666667}, {"rental_uris": {"android": "https://dc.lft.to/lastmile_qr_scan", "ios": "https://dc.lft.to/lastmile_qr_scan"}, "is_reserved": 0, "is_disabled": 0, "name": "8e618b6c6006265d2ea0fae5182ec0c8", "bike_id": "8e618b6c6006265d2ea0fae5182ec0c8", "fusion_lat": 0.0, "lon": -77.03933783333333, "type": "electric_scooter", "fusion_lon": 0.0, "lat": 38.92491883333334}, {"rental_uris": {"android": "https://dc.lft.to/lastmile_qr_scan", "ios": "https://dc.lft.to/lastmile_qr_scan"}, "is_reserved": 0, "is_disabled": 0, "name": "1cf9dcc4ca16c1014580e8aa35dbd8f0", "bike_id": "1cf9dcc4ca16c1014580e8aa35dbd8f0", "fusion_lat": 0.0, "lon": -76.93225233333334, "type": "electric_scooter", "fusion_lon": 0.0, "lat": 38.888489166666666}, {"rental_uris": {"android": "https://dc.lft.to/lastmile_qr_scan", "ios": "https://dc.lft.to/lastmile_qr_scan"}, "is_reserved": 0, "is_disabled": 0, "name": "576b7134de84a6e1cd543e2f4f44591e", "bike_id": "576b7134de84a6e1cd543e2f4f44591e", "fusion_lat": 0.0, "lon": -77.04947916666667, "type": "electric_scooter", "fusion_lon": 0.0, "lat": 38.905346}, {"rental_uris": {"android": "https://dc.lft.to/lastmile_qr_scan", "ios": "https://dc.lft.to/lastmile_qr_scan"}, "is_reserved": 0, "is_disabled": 0, "name": "fee6dfcaf7606cc4f514f12de947d191", "bike_id": "fee6dfcaf7606cc4f514f12de947d191", "fusion_lat": 0.0, "lon": -77.03869983333334, "type": "electric_scooter", "fusion_lon": 0.0, "lat": 38.92149383333334}, {"rental_uris": {"android": "https://dc.lft.to/lastmile_qr_scan", "ios": "https://dc.lft.to/lastmile_qr_scan"}, "is_reserved": 0, "is_disabled": 0, "name": "d1f042717af088478adb71b8c9b35ed2", "bike_id": "d1f042717af088478adb71b8c9b35ed2", "fusion_lat": 0.0, "lon": -77.028736, "type": "electric_bike", "fusion_lon": 0.0, "lat": 38.92132983333333}, {"rental_uris": {"android": "https://dc.lft.to/lastmile_qr_scan", "ios": "https://dc.lft.to/lastmile_qr_scan"}, "is_reserved": 0, "is_disabled": 0, "name": "575e3f7d06903ce68dab46e8127d9952", "bike_id": "575e3f7d06903ce68dab46e8127d9952", "fusion_lat": 0.0, "lon": -77.05169383333333, "type": "electric_scooter", "fusion_lon": 0.0, "lat": 38.903237833333336}, {"rental_uris": {"android": "https://dc.lft.to/lastmile_qr_scan", "ios": "https://dc.lft.to/lastmile_qr_scan"}, "is_reserved": 0, "is_disabled": 0, "name": "85a1c277d5b7459290a750d51100d906", "bike_id": "85a1c277d5b7459290a750d51100d906", "fusion_lat": 0.0, "lon": -76.97328016666667, "type": "electric_scooter", "fusion_lon": 0.0, "lat": 38.86531016666667}, {"rental_uris": {"android": "https://dc.lft.to/lastmile_qr_scan", "ios": "https://dc.lft.to/lastmile_qr_scan"}, "is_reserved": 0, "is_disabled": 0, "name": "254bd98063db8277cde22bf12023d387", "bike_id": "254bd98063db8277cde22bf12023d387", "fusion_lat": 0.0, "lon": -77.01354766666667, "type": "electric_scooter", "fusion_lon": 0.0, "lat": 38.887406166666665}, {"rental_uris": {"android": "https://dc.lft.to/lastmile_qr_scan", "ios": "https://dc.lft.to/lastmile_qr_scan"}, "is_reserved": 0, "is_disabled": 0, "name": "0a2d4bfab9c41eff748d778581177a83", "bike_id": "0a2d4bfab9c41eff748d778581177a83", "fusion_lat": 0.0, "lon": -77.03758466666666, "type": "electric_scooter", "fusion_lon": 0.0, "lat": 38.92909016666667}, {"rental_uris": {"android": "https://dc.lft.to/lastmile_qr_scan", "ios": "https://dc.lft.to/lastmile_qr_scan"}, "is_reserved": 0, "is_disabled": 0, "name": "fe2dd92c5c1e1f153174b92115537b64", "bike_id": "fe2dd92c5c1e1f153174b92115537b64", "fusion_lat": 0.0, "lon": -76.98845916666667, "type": "electric_scooter", "fusion_lon": 0.0, "lat": 38.900272}, {"rental_uris": {"android": "https://dc.lft.to/lastmile_qr_scan", "ios": "https://dc.lft.to/lastmile_qr_scan"}, "is_reserved": 0, "is_disabled": 0, "name": "3afbaabdcbcf3a83565020c6bf00bc02", "bike_id": "3afbaabdcbcf3a83565020c6bf00bc02", "fusion_lat": 0.0, "lon": -76.9380095, "type": "electric_bike", "fusion_lon": 0.0, "lat": 38.97973533333333}, {"rental_uris": {"android": "https://dc.lft.to/lastmile_qr_scan", "ios": "https://dc.lft.to/lastmile_qr_scan"}, "is_reserved": 0, "is_disabled": 0, "name": "cde620a73d3f15064fb4d6ce8b655425", "bike_id": "cde620a73d3f15064fb4d6ce8b655425", "fusion_lat": 0.0, "lon": -77.01765966666666, "type": "electric_scooter", "fusion_lon": 0.0, "lat": 38.90274183333333}, {"rental_uris": {"android": "https://dc.lft.to/lastmile_qr_scan", "ios": "https://dc.lft.to/lastmile_qr_scan"}, "is_reserved": 0, "is_disabled": 0, "name": "3c7c3052ab92e576f4549e078be87921", "bike_id": "3c7c3052ab92e576f4549e078be87921", "fusion_lat": 0.0, "lon": -77.04150516666667, "type": "electric_scooter", "fusion_lon": 0.0, "lat": 38.9233135}, {"rental_uris": {"android": "https://dc.lft.to/lastmile_qr_scan", "ios": "https://dc.lft.to/lastmile_qr_scan"}, "is_reserved": 0, "is_disabled": 0, "name": "3110e2308751bf21eadfb2836258a85d", "bike_id": "3110e2308751bf21eadfb2836258a85d", "fusion_lat": 0.0, "lon": -77.0453195, "type": "electric_scooter", "fusion_lon": 0.0, "lat": 38.921334333333334}, {"rental_uris": {"android": "https://dc.lft.to/lastmile_qr_scan", "ios": "https://dc.lft.to/lastmile_qr_scan"}, "is_reserved": 0, "is_disabled": 0, "name": "14e9ecbcd1d74bd040abf9b6b9e2651f", "bike_id": "14e9ecbcd1d74bd040abf9b6b9e2651f", "fusion_lat": 0.0, "lon": -77.02430383333333, "type": "electric_scooter", "fusion_lon": 0.0, "lat": 38.89456633333333}, {"rental_uris": {"android": "https://dc.lft.to/lastmile_qr_scan", "ios": "https://dc.lft.to/lastmile_qr_scan"}, "is_reserved": 0, "is_disabled": 0, "name": "9339d47e3b717078483c19908203ad59", "bike_id": "9339d47e3b717078483c19908203ad59", "fusion_lat": 0.0, "lon": -77.02963216666667, "type": "electric_scooter", "fusion_lon": 0.0, "lat": 38.927343}, {"rental_uris": {"android": "https://dc.lft.to/lastmile_qr_scan", "ios": "https://dc.lft.to/lastmile_qr_scan"}, "is_reserved": 0, "is_disabled": 0, "name": "38e2ad7249b6180a3602bd9414b33c69", "bike_id": "38e2ad7249b6180a3602bd9414b33c69", "fusion_lat": 0.0, "lon": -77.02121783333334, "type": "electric_scooter", "fusion_lon": 0.0, "lat": 38.917398}, {"rental_uris": {"android": "https://dc.lft.to/lastmile_qr_scan", "ios": "https://dc.lft.to/lastmile_qr_scan"}, "is_reserved": 0, "is_disabled": 0, "name": "8092d05015c4e2d0cb9358e0b7366b4c", "bike_id": "8092d05015c4e2d0cb9358e0b7366b4c", "fusion_lat": 0.0, "lon": -77.025746, "type": "electric_scooter", "fusion_lon": 0.0, "lat": 38.90362416666667}, {"rental_uris": {"android": "https://dc.lft.to/lastmile_qr_scan", "ios": "https://dc.lft.to/lastmile_qr_scan"}, "is_reserved": 0, "is_disabled": 0, "name": "ed4baaa6eaf507444bddf6636d06110d", "bike_id": "ed4baaa6eaf507444bddf6636d06110d", "fusion_lat": 0.0, "lon": -77.04157216666667, "type": "electric_scooter", "fusion_lon": 0.0, "lat": 38.917172666666666}, {"rental_uris": {"android": "https://dc.lft.to/lastmile_qr_scan", "ios": "https://dc.lft.to/lastmile_qr_scan"}, "is_reserved": 0, "is_disabled": 0, "name": "eae49300025c11703ea6c5ba43472ced", "bike_id": "eae49300025c11703ea6c5ba43472ced", "fusion_lat": 0.0, "lon": -76.99274933333334, "type": "electric_bike", "fusion_lon": 0.0, "lat": 38.97262333333333}, {"rental_uris": {"android": "https://dc.lft.to/lastmile_qr_scan", "ios": "https://dc.lft.to/lastmile_qr_scan"}, "is_reserved": 0, "is_disabled": 0, "name": "5f5a92753d18a875f097da6a0d4bbba9", "bike_id": "5f5a92753d18a875f097da6a0d4bbba9", "fusion_lat": 0.0, "lon": -77.02881916666666, "type": "electric_scooter", "fusion_lon": 0.0, "lat": 38.9135025}, {"rental_uris": {"android": "https://dc.lft.to/lastmile_qr_scan", "ios": "https://dc.lft.to/lastmile_qr_scan"}, "is_reserved": 0, "is_disabled": 0, "name": "c72e2c057bdee79071077bff6bc3c9b7", "bike_id": "c72e2c057bdee79071077bff6bc3c9b7", "fusion_lat": 0.0, "lon": -76.99698666666667, "type": "electric_bike", "fusion_lon": 0.0, "lat": 38.83866783333333}, {"rental_uris": {"android": "https://dc.lft.to/lastmile_qr_scan", "ios": "https://dc.lft.to/lastmile_qr_scan"}, "is_reserved": 0, "is_disabled": 0, "name": "cc4aec06fa6e837dbd7510e30f2b3d62", "bike_id": "cc4aec06fa6e837dbd7510e30f2b3d62", "fusion_lat": 0.0, "lon": -77.0237525, "type": "electric_scooter", "fusion_lon": 0.0, "lat": 38.89221216666667}, {"rental_uris": {"android": "https://dc.lft.to/lastmile_qr_scan", "ios": "https://dc.lft.to/lastmile_qr_scan"}, "is_reserved": 0, "is_disabled": 0, "name": "655e95f49dea8805875c8999c444497d", "bike_id": "655e95f49dea8805875c8999c444497d", "fusion_lat": 0.0, "lon": -77.01958383333333, "type": "electric_scooter", "fusion_lon": 0.0, "lat": 38.923328166666664}, {"rental_uris": {"android": "https://dc.lft.to/lastmile_qr_scan", "ios": "https://dc.lft.to/lastmile_qr_scan"}, "is_reserved": 0, "is_disabled": 0, "name": "c4c693524b38f880a255cae97bbd4cd1", "bike_id": "c4c693524b38f880a255cae97bbd4cd1", "fusion_lat": 0.0, "lon": -77.00733116666666, "type": "electric_scooter", "fusion_lon": 0.0, "lat": 38.89844816666667}, {"rental_uris": {"android": "https://dc.lft.to/lastmile_qr_scan", "ios": "https://dc.lft.to/lastmile_qr_scan"}, "is_reserved": 0, "is_disabled": 0, "name": "85c9f8ac3268e894da24377936b76b2c", "bike_id": "85c9f8ac3268e894da24377936b76b2c", "fusion_lat": 0.0, "lon": -77.01516433333333, "type": "electric_scooter", "fusion_lon": 0.0, "lat": 38.89339866666667}, {"rental_uris": {"android": "https://dc.lft.to/lastmile_qr_scan", "ios": "https://dc.lft.to/lastmile_qr_scan"}, "is_reserved": 0, "is_disabled": 0, "name": "3fa57b7edf24b0d98391a19810cfe444", "bike_id": "3fa57b7edf24b0d98391a19810cfe444", "fusion_lat": 0.0, "lon": -77.00362266666667, "type": "electric_scooter", "fusion_lon": 0.0, "lat": 38.88037283333333}, {"rental_uris": {"android": "https://dc.lft.to/lastmile_qr_scan", "ios": "https://dc.lft.to/lastmile_qr_scan"}, "is_reserved": 0, "is_disabled": 0, "name": "53241903576dd13fe4f5fbf0117391ae", "bike_id": "53241903576dd13fe4f5fbf0117391ae", "fusion_lat": 0.0, "lon": -76.96886366666666, "type": "electric_bike", "fusion_lon": 0.0, "lat": 38.8698565}, {"rental_uris": {"android": "https://dc.lft.to/lastmile_qr_scan", "ios": "https://dc.lft.to/lastmile_qr_scan"}, "is_reserved": 0, "is_disabled": 0, "name": "6149ec5f8a15f16bb41050da358bbb29", "bike_id": "6149ec5f8a15f16bb41050da358bbb29", "fusion_lat": 0.0, "lon": -77.02452616666666, "type": "electric_scooter", "fusion_lon": 0.0, "lat": 38.93665883333333}, {"rental_uris": {"android": "https://dc.lft.to/lastmile_qr_scan", "ios": "https://dc.lft.to/lastmile_qr_scan"}, "is_reserved": 0, "is_disabled": 0, "name": "5de91d859e29e426d52ae40ced52c5c9", "bike_id": "5de91d859e29e426d52ae40ced52c5c9", "fusion_lat": 0.0, "lon": -77.12891883333333, "type": "electric_bike", "fusion_lon": 0.0, "lat": 38.906117333333334}, {"rental_uris": {"android": "https://dc.lft.to/lastmile_qr_scan", "ios": "https://dc.lft.to/lastmile_qr_scan"}, "is_reserved": 0, "is_disabled": 0, "name": "a9817cc1950e7ed7d1e112f3c0517923", "bike_id": "a9817cc1950e7ed7d1e112f3c0517923", "fusion_lat": 0.0, "lon": -77.0173175, "type": "electric_scooter", "fusion_lon": 0.0, "lat": 38.877062}, {"rental_uris": {"android": "https://dc.lft.to/lastmile_qr_scan", "ios": "https://dc.lft.to/lastmile_qr_scan"}, "is_reserved": 0, "is_disabled": 0, "name": "6e3ed6363ead3f74614776eccbfb2f03", "bike_id": "6e3ed6363ead3f74614776eccbfb2f03", "fusion_lat": 0.0, "lon": -77.04001516666666, "type": "electric_scooter", "fusion_lon": 0.0, "lat": 38.93426566666667}, {"rental_uris": {"android": "https://dc.lft.to/lastmile_qr_scan", "ios": "https://dc.lft.to/lastmile_qr_scan"}, "is_reserved": 0, "is_disabled": 0, "name": "c95d5cd684766e31296d4fdbe523cd1b", "bike_id": "c95d5cd684766e31296d4fdbe523cd1b", "fusion_lat": 0.0, "lon": -76.97717633333333, "type": "electric_scooter", "fusion_lon": 0.0, "lat": 38.888182666666665}, {"rental_uris": {"android": "https://dc.lft.to/lastmile_qr_scan", "ios": "https://dc.lft.to/lastmile_qr_scan"}, "is_reserved": 0, "is_disabled": 0, "name": "69952eaf53618aea81136df724748de8", "bike_id": "69952eaf53618aea81136df724748de8", "fusion_lat": 0.0, "lon": -77.0498885, "type": "electric_scooter", "fusion_lon": 0.0, "lat": 38.898318}, {"rental_uris": {"android": "https://dc.lft.to/lastmile_qr_scan", "ios": "https://dc.lft.to/lastmile_qr_scan"}, "is_reserved": 0, "is_disabled": 0, "name": "72400e7968c1f7e43822c36c29074467", "bike_id": "72400e7968c1f7e43822c36c29074467", "fusion_lat": 0.0, "lon": -77.05886283333334, "type": "electric_scooter", "fusion_lon": 0.0, "lat": 38.93606183333333}, {"rental_uris": {"android": "https://dc.lft.to/lastmile_qr_scan", "ios": "https://dc.lft.to/lastmile_qr_scan"}, "is_reserved": 0, "is_disabled": 0, "name": "748dd253d1f4240d644cfdbbac2a0f70", "bike_id": "748dd253d1f4240d644cfdbbac2a0f70", "fusion_lat": 0.0, "lon": -77.04325516666667, "type": "electric_scooter", "fusion_lon": 0.0, "lat": 38.898939166666665}, {"rental_uris": {"android": "https://dc.lft.to/lastmile_qr_scan", "ios": "https://dc.lft.to/lastmile_qr_scan"}, "is_reserved": 0, "is_disabled": 0, "name": "fe949ed5e16165081d48eb476dacad0f", "bike_id": "fe949ed5e16165081d48eb476dacad0f", "fusion_lat": 0.0, "lon": -77.02336983333333, "type": "electric_scooter", "fusion_lon": 0.0, "lat": 38.881345}, {"rental_uris": {"android": "https://dc.lft.to/lastmile_qr_scan", "ios": "https://dc.lft.to/lastmile_qr_scan"}, "is_reserved": 0, "is_disabled": 0, "name": "37c964da8ffd1891028e2cad7a0fa32a", "bike_id": "37c964da8ffd1891028e2cad7a0fa32a", "fusion_lat": 0.0, "lon": -77.04405416666667, "type": "electric_scooter", "fusion_lon": 0.0, "lat": 38.9295175}, {"rental_uris": {"android": "https://dc.lft.to/lastmile_qr_scan", "ios": "https://dc.lft.to/lastmile_qr_scan"}, "is_reserved": 0, "is_disabled": 0, "name": "444d27b4e9ab14a5217a5babdbb58244", "bike_id": "444d27b4e9ab14a5217a5babdbb58244", "fusion_lat": 0.0, "lon": -77.031982, "type": "electric_scooter", "fusion_lon": 0.0, "lat": 38.917844333333335}, {"rental_uris": {"android": "https://dc.lft.to/lastmile_qr_scan", "ios": "https://dc.lft.to/lastmile_qr_scan"}, "is_reserved": 0, "is_disabled": 0, "name": "e8ab47fd5248d96db800ebbd8b970b7e", "bike_id": "e8ab47fd5248d96db800ebbd8b970b7e", "fusion_lat": 0.0, "lon": -77.0266445, "type": "electric_scooter", "fusion_lon": 0.0, "lat": 38.93876516666667}, {"rental_uris": {"android": "https://dc.lft.to/lastmile_qr_scan", "ios": "https://dc.lft.to/lastmile_qr_scan"}, "is_reserved": 0, "is_disabled": 0, "name": "b533a93d0d5d794536ffa1cd763bd362", "bike_id": "b533a93d0d5d794536ffa1cd763bd362", "fusion_lat": 0.0, "lon": -77.04153116666667, "type": "electric_scooter", "fusion_lon": 0.0, "lat": 38.91620616666667}, {"rental_uris": {"android": "https://dc.lft.to/lastmile_qr_scan", "ios": "https://dc.lft.to/lastmile_qr_scan"}, "is_reserved": 0, "is_disabled": 0, "name": "61870156c8c88f40853dd9fe7cf34da0", "bike_id": "61870156c8c88f40853dd9fe7cf34da0", "fusion_lat": 0.0, "lon": -77.01414316666667, "type": "electric_scooter", "fusion_lon": 0.0, "lat": 38.927944833333335}, {"rental_uris": {"android": "https://dc.lft.to/lastmile_qr_scan", "ios": "https://dc.lft.to/lastmile_qr_scan"}, "is_reserved": 0, "is_disabled": 0, "name": "fc296d70e62027764424856ce4a8a8c7", "bike_id": "fc296d70e62027764424856ce4a8a8c7", "fusion_lat": 0.0, "lon": -77.027039, "type": "electric_scooter", "fusion_lon": 0.0, "lat": 38.90667033333333}, {"rental_uris": {"android": "https://dc.lft.to/lastmile_qr_scan", "ios": "https://dc.lft.to/lastmile_qr_scan"}, "is_reserved": 0, "is_disabled": 0, "name": "802051951a721e62c5f8de76ec6d08cb", "bike_id": "802051951a721e62c5f8de76ec6d08cb", "fusion_lat": 0.0, "lon": -76.98360816666667, "type": "electric_scooter", "fusion_lon": 0.0, "lat": 38.88735416666667}, {"rental_uris": {"android": "https://dc.lft.to/lastmile_qr_scan", "ios": "https://dc.lft.to/lastmile_qr_scan"}, "is_reserved": 0, "is_disabled": 0, "name": "4db3c77574eefcd34dd1778149ca8910", "bike_id": "4db3c77574eefcd34dd1778149ca8910", "fusion_lat": 0.0, "lon": -77.027196, "type": "electric_scooter", "fusion_lon": 0.0, "lat": 38.94086266666667}, {"rental_uris": {"android": "https://dc.lft.to/lastmile_qr_scan", "ios": "https://dc.lft.to/lastmile_qr_scan"}, "is_reserved": 0, "is_disabled": 0, "name": "ed20a41a0d16250c36ddf7776357913d", "bike_id": "ed20a41a0d16250c36ddf7776357913d", "fusion_lat": 0.0, "lon": -77.01907733333333, "type": "electric_scooter", "fusion_lon": 0.0, "lat": 38.921748666666666}, {"rental_uris": {"android": "https://dc.lft.to/lastmile_qr_scan", "ios": "https://dc.lft.to/lastmile_qr_scan"}, "is_reserved": 0, "is_disabled": 0, "name": "251b7f21e4a150bd1a9ffc93193f9ac9", "bike_id": "251b7f21e4a150bd1a9ffc93193f9ac9", "fusion_lat": 0.0, "lon": -77.03952283333334, "type": "electric_scooter", "fusion_lon": 0.0, "lat": 38.9083785}, {"rental_uris": {"android": "https://dc.lft.to/lastmile_qr_scan", "ios": "https://dc.lft.to/lastmile_qr_scan"}, "is_reserved": 0, "is_disabled": 0, "name": "4151749b5d176ca943dba8566ee1c9f0", "bike_id": "4151749b5d176ca943dba8566ee1c9f0", "fusion_lat": 0.0, "lon": -77.0047855, "type": "electric_scooter", "fusion_lon": 0.0, "lat": 38.874592166666666}, {"rental_uris": {"android": "https://dc.lft.to/lastmile_qr_scan", "ios": "https://dc.lft.to/lastmile_qr_scan"}, "is_reserved": 0, "is_disabled": 0, "name": "b9dcb79333ef6665ba25ba8c9ed7389a", "bike_id": "b9dcb79333ef6665ba25ba8c9ed7389a", "fusion_lat": 0.0, "lon": -77.053378, "type": "electric_scooter", "fusion_lon": 0.0, "lat": 38.92348233333333}, {"rental_uris": {"android": "https://dc.lft.to/lastmile_qr_scan", "ios": "https://dc.lft.to/lastmile_qr_scan"}, "is_reserved": 0, "is_disabled": 0, "name": "a686844bd18749a971ffde6848293f82", "bike_id": "a686844bd18749a971ffde6848293f82", "fusion_lat": 0.0, "lon": -77.03359983333333, "type": "electric_scooter", "fusion_lon": 0.0, "lat": 38.897490833333336}, {"rental_uris": {"android": "https://dc.lft.to/lastmile_qr_scan", "ios": "https://dc.lft.to/lastmile_qr_scan"}, "is_reserved": 0, "is_disabled": 0, "name": "35a6aa20376285663a955ba6522d12e0", "bike_id": "35a6aa20376285663a955ba6522d12e0", "fusion_lat": 0.0, "lon": -77.01625983333334, "type": "electric_scooter", "fusion_lon": 0.0, "lat": 38.91693216666667}, {"rental_uris": {"android": "https://dc.lft.to/lastmile_qr_scan", "ios": "https://dc.lft.to/lastmile_qr_scan"}, "is_reserved": 0, "is_disabled": 0, "name": "8d74b59f28a56e4af50c61fdddd89be4", "bike_id": "8d74b59f28a56e4af50c61fdddd89be4", "fusion_lat": 0.0, "lon": -76.99695283333334, "type": "electric_scooter", "fusion_lon": 0.0, "lat": 38.884235}, {"rental_uris": {"android": "https://dc.lft.to/lastmile_qr_scan", "ios": "https://dc.lft.to/lastmile_qr_scan"}, "is_reserved": 0, "is_disabled": 0, "name": "9a1786a326a62268967f8c820083a364", "bike_id": "9a1786a326a62268967f8c820083a364", "fusion_lat": 0.0, "lon": -77.01336133333334, "type": "electric_scooter", "fusion_lon": 0.0, "lat": 38.88129633333333}, {"rental_uris": {"android": "https://dc.lft.to/lastmile_qr_scan", "ios": "https://dc.lft.to/lastmile_qr_scan"}, "is_reserved": 0, "is_disabled": 0, "name": "b1b5c5c938787eb3f7e3c3a80b0ac429", "bike_id": "b1b5c5c938787eb3f7e3c3a80b0ac429", "fusion_lat": 0.0, "lon": -77.0486845, "type": "electric_bike", "fusion_lon": 0.0, "lat": 38.90112883333333}, {"rental_uris": {"android": "https://dc.lft.to/lastmile_qr_scan", "ios": "https://dc.lft.to/lastmile_qr_scan"}, "is_reserved": 0, "is_disabled": 0, "name": "65ee7eba14b8934e2b33c488a3c8d426", "bike_id": "65ee7eba14b8934e2b33c488a3c8d426", "fusion_lat": 0.0, "lon": -76.9789995, "type": "electric_bike", "fusion_lon": 0.0, "lat": 38.92694916666667}, {"rental_uris": {"android": "https://dc.lft.to/lastmile_qr_scan", "ios": "https://dc.lft.to/lastmile_qr_scan"}, "is_reserved": 0, "is_disabled": 0, "name": "3bbd0acdfd1d02e8e4dc3096b1a9a899", "bike_id": "3bbd0acdfd1d02e8e4dc3096b1a9a899", "fusion_lat": 0.0, "lon": -77.04538016666666, "type": "electric_scooter", "fusion_lon": 0.0, "lat": 38.901332333333336}, {"rental_uris": {"android": "https://dc.lft.to/lastmile_qr_scan", "ios": "https://dc.lft.to/lastmile_qr_scan"}, "is_reserved": 0, "is_disabled": 0, "name": "d40a896a81333a39caadb5ce0ce4db65", "bike_id": "d40a896a81333a39caadb5ce0ce4db65", "fusion_lat": 0.0, "lon": -77.12739783333333, "type": "electric_bike", "fusion_lon": 0.0, "lat": 38.895719666666665}, {"rental_uris": {"android": "https://dc.lft.to/lastmile_qr_scan", "ios": "https://dc.lft.to/lastmile_qr_scan"}, "is_reserved": 0, "is_disabled": 0, "name": "e0c1694975334d4b8addd75cfca3d448", "bike_id": "e0c1694975334d4b8addd75cfca3d448", "fusion_lat": 0.0, "lon": -77.00583066666667, "type": "electric_bike", "fusion_lon": 0.0, "lat": 38.900074833333335}, {"rental_uris": {"android": "https://dc.lft.to/lastmile_qr_scan", "ios": "https://dc.lft.to/lastmile_qr_scan"}, "is_reserved": 0, "is_disabled": 0, "name": "6c3a64b50951ff36d98b361816e0bcb7", "bike_id": "6c3a64b50951ff36d98b361816e0bcb7", "fusion_lat": 0.0, "lon": -77.01615566666666, "type": "electric_scooter", "fusion_lon": 0.0, "lat": 38.899696666666664}, {"rental_uris": {"android": "https://dc.lft.to/lastmile_qr_scan", "ios": "https://dc.lft.to/lastmile_qr_scan"}, "is_reserved": 0, "is_disabled": 0, "name": "fcdfc5a7a4c8223a125ab95322766c89", "bike_id": "fcdfc5a7a4c8223a125ab95322766c89", "fusion_lat": 0.0, "lon": -77.03875516666666, "type": "electric_bike", "fusion_lon": 0.0, "lat": 39.02620533333333}, {"rental_uris": {"android": "https://dc.lft.to/lastmile_qr_scan", "ios": "https://dc.lft.to/lastmile_qr_scan"}, "is_reserved": 0, "is_disabled": 0, "name": "731f10ea25fa7ceb96ab1612125d58ef", "bike_id": "731f10ea25fa7ceb96ab1612125d58ef", "fusion_lat": 0.0, "lon": -77.0116915, "type": "electric_scooter", "fusion_lon": 0.0, "lat": 38.896663833333335}, {"rental_uris": {"android": "https://dc.lft.to/lastmile_qr_scan", "ios": "https://dc.lft.to/lastmile_qr_scan"}, "is_reserved": 0, "is_disabled": 0, "name": "2304963ec85b4755143f158a8c6d53d3", "bike_id": "2304963ec85b4755143f158a8c6d53d3", "fusion_lat": 0.0, "lon": -77.02280533333334, "type": "electric_scooter", "fusion_lon": 0.0, "lat": 38.898396}, {"rental_uris": {"android": "https://dc.lft.to/lastmile_qr_scan", "ios": "https://dc.lft.to/lastmile_qr_scan"}, "is_reserved": 0, "is_disabled": 0, "name": "c55bcc75a7e7370412a46a91d59fc3f0", "bike_id": "c55bcc75a7e7370412a46a91d59fc3f0", "fusion_lat": 0.0, "lon": -76.998732, "type": "electric_bike", "fusion_lon": 0.0, "lat": 38.94291333333334}, {"rental_uris": {"android": "https://dc.lft.to/lastmile_qr_scan", "ios": "https://dc.lft.to/lastmile_qr_scan"}, "is_reserved": 0, "is_disabled": 0, "name": "a0b1e12a3aa7153763520556817f8100", "bike_id": "a0b1e12a3aa7153763520556817f8100", "fusion_lat": 0.0, "lon": -77.02380333333333, "type": "electric_scooter", "fusion_lon": 0.0, "lat": 38.89199266666667}, {"rental_uris": {"android": "https://dc.lft.to/lastmile_qr_scan", "ios": "https://dc.lft.to/lastmile_qr_scan"},