{"data": {"bikes": [{"type": "electric_scooter", "bike_id": "1449598effd665a3682cc19e39acdde9", "is_disabled": 0, "name": "1449598effd665a3682cc19e39acdde9", "lon": -77.0385455, "is_reserved": 0, "fusion_lon": 0.0, "lat": 38.91650383333333, "rental_uris": {"android": "https://dc.lft.to/lastmile_qr_scan", "ios": "https://dc.lft.to/lastmile_qr_scan"}, "fusion_lat": 0.0}, {"type": "electric_scooter", "bike_id": "37d1e8038b4917ceaa4b417e32351e5b", "is_disabled": 0, "name": "37d1e8038b4917ceaa4b417e32351e5b", "lon": -77.03855983333334, "is_reserved": 0, "fusion_lon": 0.0, "lat": 38.91716916666667, "rental_uris": {"android": "https://dc.lft.to/lastmile_qr_scan", "ios": "https://dc.lft.to/lastmile_qr_scan"}, "fusion_lat": 0.0}, {"type": "electric_scooter", "bike_id": "8ec50f2b6d30d75591726f70690751a7", "is_disabled": 0, "name": "8ec50f2b6d30d75591726f70690751a7", "lon": -77.033014, "is_reserved": 0, "fusion_lon": 0.0, "lat": 38.90981633333333, "rental_uris": {"android": "https://dc.lft.to/lastmile_qr_scan", "ios": "https://dc.lft.to/lastmile_qr_scan"}, "fusion_lat": 0.0}, {"type": "electric_scooter", "bike_id": "039643dea576f28e275063f23798a9b1", "is_disabled": 0, "name": "039643dea576f28e275063f23798a9b1", "lon": -77.0240185, "is_reserved": 0, "fusion_lon": 0.0, "lat": 38.909620833333335, "rental_uris": {"android": "https://dc.lft.to/lastmile_qr_scan", "ios": "https://dc.lft.to/lastmile_qr_scan"}, "fusion_lat": 0.0}, {"type": "electric_scooter", "bike_id": "6a4207085f43d6a20701d89550711762", "is_disabled": 0, "name": "6a4207085f43d6a20701d89550711762", "lon": -77.02547716666666, "is_reserved": 0, "fusion_lon": 0.0, "lat": 38.969986, "rental_uris": {"android": "https://dc.lft.to/lastmile_qr_scan", "ios": "https://dc.lft.to/lastmile_qr_scan"}, "fusion_lat": 0.0}, {"type": "electric_scooter", "bike_id": "943cb0cc98d3f3232f95fd8b99ca687a", "is_disabled": 0, "name": "943cb0cc98d3f3232f95fd8b99ca687a", "lon": -77.04563433333334, "is_reserved": 0, "fusion_lon": 0.0, "lat": 38.9036385, "rental_uris": {"android": "https://dc.lft.to/lastmile_qr_scan", "ios": "https://dc.lft.to/lastmile_qr_scan"}, "fusion_lat": 0.0}, {"type": "electric_scooter", "bike_id": "c12dcc2544adb6df78561bfbc3ccfdb8", "is_disabled": 0, "name": "c12dcc2544adb6df78561bfbc3ccfdb8", "lon": -77.0399145, "is_reserved": 0, "fusion_lon": 0.0, "lat": 38.89542933333333, "rental_uris": {"android": "https://dc.lft.to/lastmile_qr_scan", "ios": "https://dc.lft.to/lastmile_qr_scan"}, "fusion_lat": 0.0}, {"type": "electric_scooter", "bike_id": "e463a6f80b69052d8144d1053d9c6177", "is_disabled": 0, "name": "e463a6f80b69052d8144d1053d9c6177", "lon": -77.02907983333333, "is_reserved": 0, "fusion_lon": 0.0, "lat": 38.8973625, "rental_uris": {"android": "https://dc.lft.to/lastmile_qr_scan", "ios": "https://dc.lft.to/lastmile_qr_scan"}, "fusion_lat": 0.0}, {"type": "electric_bike", "bike_id": "6eb91f80edd18170f3b034488fab41aa", "is_disabled": 0, "name": "6eb91f80edd18170f3b034488fab41aa", "lon": -76.96156816666667, "is_reserved": 0, "fusion_lon": 0.0, "lat": 38.856223666666665, "rental_uris": {"android": "https://dc.lft.to/lastmile_qr_scan", "ios": "https://dc.lft.to/lastmile_qr_scan"}, "fusion_lat": 0.0}, {"type": "electric_scooter", "bike_id": "24fc76dd8e5888debd7ba12f8ecf45c3", "is_disabled": 0, "name": "24fc76dd8e5888debd7ba12f8ecf45c3", "lon": -76.99757, "is_reserved": 0, "fusion_lon": 0.0, "lat": 38.885061, "rental_uris": {"android": "https://dc.lft.to/lastmile_qr_scan", "ios": "https://dc.lft.to/lastmile_qr_scan"}, "fusion_lat": 0.0}, {"type": "electric_scooter", "bike_id": "c86b38b1afe50857e849a1b011fe5e85", "is_disabled": 0, "name": "c86b38b1afe50857e849a1b011fe5e85", "lon": -77.00732816666667, "is_reserved": 0, "fusion_lon": 0.0, "lat": 38.876362666666665, "rental_uris": {"android": "https://dc.lft.to/lastmile_qr_scan", "ios": "https://dc.lft.to/lastmile_qr_scan"}, "fusion_lat": 0.0}, {"type": "electric_scooter", "bike_id": "ef17f44eacf3d8d76add6030b39edbbc", "is_disabled": 0, "name": "ef17f44eacf3d8d76add6030b39edbbc", "lon": -77.00934416666666, "is_reserved": 0, "fusion_lon": 0.0, "lat": 38.91663533333333, "rental_uris": {"android": "https://dc.lft.to/lastmile_qr_scan", "ios": "https://dc.lft.to/lastmile_qr_scan"}, "fusion_lat": 0.0}, {"type": "electric_scooter", "bike_id": "6d214d987fb74e23789a22654a8be570", "is_disabled": 0, "name": "6d214d987fb74e23789a22654a8be570", "lon": -77.026011, "is_reserved": 0, "fusion_lon": 0.0, "lat": 38.98270633333333, "rental_uris": {"android": "https://dc.lft.to/lastmile_qr_scan", "ios": "https://dc.lft.to/lastmile_qr_scan"}, "fusion_lat": 0.0}, {"type": "electric_scooter", "bike_id": "440ee30fd9cc6a9c1390cceea3ca2c80", "is_disabled": 0, "name": "440ee30fd9cc6a9c1390cceea3ca2c80", "lon": -77.04035833333333, "is_reserved": 0, "fusion_lon": 0.0, "lat": 38.91281566666667, "rental_uris": {"android": "https://dc.lft.to/lastmile_qr_scan", "ios": "https://dc.lft.to/lastmile_qr_scan"}, "fusion_lat": 0.0}, {"type": "electric_scooter", "bike_id": "8e65e830e8f580e3bb9b4c9abac1593a", "is_disabled": 0, "name": "8e65e830e8f580e3bb9b4c9abac1593a", "lon": -77.03340916666667, "is_reserved": 0, "fusion_lon": 0.0, "lat": 38.900274333333336, "rental_uris": {"android": "https://dc.lft.to/lastmile_qr_scan", "ios": "https://dc.lft.to/lastmile_qr_scan"}, "fusion_lat": 0.0}, {"type": "electric_scooter", "bike_id": "43e621ef43e46f44c358345f5cf6b74e", "is_disabled": 0, "name": "43e621ef43e46f44c358345f5cf6b74e", "lon": -77.005247, "is_reserved": 0, "fusion_lon": 0.0, "lat": 38.876558, "rental_uris": {"android": "https://dc.lft.to/lastmile_qr_scan", "ios": "https://dc.lft.to/lastmile_qr_scan"}, "fusion_lat": 0.0}, {"type": "electric_scooter", "bike_id": "b19a91e9e9f3aaa502121f99b81c5269", "is_disabled": 0, "name": "b19a91e9e9f3aaa502121f99b81c5269", "lon": -77.05122266666666, "is_reserved": 0, "fusion_lon": 0.0, "lat": 38.905869833333334, "rental_uris": {"android": "https://dc.lft.to/lastmile_qr_scan", "ios": "https://dc.lft.to/lastmile_qr_scan"}, "fusion_lat": 0.0}, {"type": "electric_scooter", "bike_id": "4b6133a412cfd785a389294a9cea685e", "is_disabled": 0, "name": "4b6133a412cfd785a389294a9cea685e", "lon": -77.03322383333334, "is_reserved": 0, "fusion_lon": 0.0, "lat": 38.898748499999996, "rental_uris": {"android": "https://dc.lft.to/lastmile_qr_scan", "ios": "https://dc.lft.to/lastmile_qr_scan"}, "fusion_lat": 0.0}, {"type": "electric_scooter", "bike_id": "bbb6eca96ed277f6b65e337b5bfa8234", "is_disabled": 0, "name": "bbb6eca96ed277f6b65e337b5bfa8234", "lon": -77.01859666666667, "is_reserved": 0, "fusion_lon": 0.0, "lat": 38.903812333333335, "rental_uris": {"android": "https://dc.lft.to/lastmile_qr_scan", "ios": "https://dc.lft.to/lastmile_qr_scan"}, "fusion_lat": 0.0}, {"type": "electric_scooter", "bike_id": "9c3b824d7d4538fc9eb7a11488e7a500", "is_disabled": 0, "name": "9c3b824d7d4538fc9eb7a11488e7a500", "lon": -77.05198333333334, "is_reserved": 0, "fusion_lon": 0.0, "lat": 38.903162, "rental_uris": {"android": "https://dc.lft.to/lastmile_qr_scan", "ios": "https://dc.lft.to/lastmile_qr_scan"}, "fusion_lat": 0.0}, {"type": "electric_scooter", "bike_id": "c9bc3985c9881a2156f85c4006b749ec", "is_disabled": 0, "name": "c9bc3985c9881a2156f85c4006b749ec", "lon": -77.02709966666667, "is_reserved": 0, "fusion_lon": 0.0, "lat": 38.89731283333333, "rental_uris": {"android": "https://dc.lft.to/lastmile_qr_scan", "ios": "https://dc.lft.to/lastmile_qr_scan"}, "fusion_lat": 0.0}, {"type": "electric_scooter", "bike_id": "c80d1962e820897680b3ac1bb40cc74d", "is_disabled": 0, "name": "c80d1962e820897680b3ac1bb40cc74d", "lon": -77.0364915, "is_reserved": 0, "fusion_lon": 0.0, "lat": 38.91257316666667, "rental_uris": {"android": "https://dc.lft.to/lastmile_qr_scan", "ios": "https://dc.lft.to/lastmile_qr_scan"}, "fusion_lat": 0.0}, {"type": "electric_bike", "bike_id": "7f8eb2dc9a6addeb758c9cea88be7fe7", "is_disabled": 0, "name": "7f8eb2dc9a6addeb758c9cea88be7fe7", "lon": -77.03012483333333, "is_reserved": 0, "fusion_lon": 0.0, "lat": 38.900316833333335, "rental_uris": {"android": "https://dc.lft.to/lastmile_qr_scan", "ios": "https://dc.lft.to/lastmile_qr_scan"}, "fusion_lat": 0.0}, {"type": "electric_scooter", "bike_id": "f18318ac2daef3bf7084b92f4e5fe031", "is_disabled": 0, "name": "f18318ac2daef3bf7084b92f4e5fe031", "lon": -77.04168816666666, "is_reserved": 0, "fusion_lon": 0.0, "lat": 38.903699833333334, "rental_uris": {"android": "https://dc.lft.to/lastmile_qr_scan", "ios": "https://dc.lft.to/lastmile_qr_scan"}, "fusion_lat": 0.0}, {"type": "electric_scooter", "bike_id": "7a11e9b84b3cf05ac289f9fc03ec2d99", "is_disabled": 0, "name": "7a11e9b84b3cf05ac289f9fc03ec2d99", "lon": -77.04230516666667, "is_reserved": 0, "fusion_lon": 0.0, "lat": 38.91102683333333, "rental_uris": {"android": "https://dc.lft.to/lastmile_qr_scan", "ios": "https://dc.lft.to/lastmile_qr_scan"}, "fusion_lat": 0.0}, {"type": "electric_scooter", "bike_id": "33a59f7320311f693c24ec89204150d4", "is_disabled": 0, "name": "33a59f7320311f693c24ec89204150d4", "lon": -77.04502383333333, "is_reserved": 0, "fusion_lon": 0.0, "lat": 38.912757, "rental_uris": {"android": "https://dc.lft.to/lastmile_qr_scan", "ios": "https://dc.lft.to/lastmile_qr_scan"}, "fusion_lat": 0.0}, {"type": "electric_scooter", "bike_id": "f0e8700e65ff163b6559ce65ee4815fd", "is_disabled": 0, "name": "f0e8700e65ff163b6559ce65ee4815fd", "lon": -77.03460733333333, "is_reserved": 0, "fusion_lon": 0.0, "lat": 38.90728983333333, "rental_uris": {"android": "https://dc.lft.to/lastmile_qr_scan", "ios": "https://dc.lft.to/lastmile_qr_scan"}, "fusion_lat": 0.0}, {"type": "electric_bike", "bike_id": "b68520ae81165d03bafe1a4794527690", "is_disabled": 0, "name": "b68520ae81165d03bafe1a4794527690", "lon": -76.9824895, "is_reserved": 0, "fusion_lon": 0.0, "lat": 38.9524235, "rental_uris": {"android": "https://dc.lft.to/lastmile_qr_scan", "ios": "https://dc.lft.to/lastmile_qr_scan"}, "fusion_lat": 0.0}, {"type": "electric_scooter", "bike_id": "f5aae745512e607fa0f84042b6f47746", "is_disabled": 0, "name": "f5aae745512e607fa0f84042b6f47746", "lon": -77.02730216666667, "is_reserved": 0, "fusion_lon": 0.0, "lat": 38.91815483333333, "rental_uris": {"android": "https://dc.lft.to/lastmile_qr_scan", "ios": "https://dc.lft.to/lastmile_qr_scan"}, "fusion_lat": 0.0}, {"type": "electric_scooter", "bike_id": "59835d63a6e3ddfd21d67a6f7e245089", "is_disabled": 0, "name": "59835d63a6e3ddfd21d67a6f7e245089", "lon": -77.035431, "is_reserved": 0, "fusion_lon": 0.0, "lat": 38.923342, "rental_uris": {"android": "https://dc.lft.to/lastmile_qr_scan", "ios": "https://dc.lft.to/lastmile_qr_scan"}, "fusion_lat": 0.0}, {"type": "electric_scooter", "bike_id": "78a02aead9e35b611c31ad7fe7a3ab71", "is_disabled": 0, "name": "78a02aead9e35b611c31ad7fe7a3ab71", "lon": -77.00986283333333, "is_reserved": 0, "fusion_lon": 0.0, "lat": 38.87296116666667, "rental_uris": {"android": "https://dc.lft.to/lastmile_qr_scan", "ios": "https://dc.lft.to/lastmile_qr_scan"}, "fusion_lat": 0.0}, {"type": "electric_scooter", "bike_id": "fc4c902b45c901f8a89470812ff2d8f0", "is_disabled": 0, "name": "fc4c902b45c901f8a89470812ff2d8f0", "lon": -77.0361955, "is_reserved": 0, "fusion_lon": 0.0, "lat": 38.9375385, "rental_uris": {"android": "https://dc.lft.to/lastmile_qr_scan", "ios": "https://dc.lft.to/lastmile_qr_scan"}, "fusion_lat": 0.0}, {"type": "electric_bike", "bike_id": "cbdce4497d2753d5fed2f8abb0fb765e", "is_disabled": 0, "name": "cbdce4497d2753d5fed2f8abb0fb765e", "lon": -77.10613483333333, "is_reserved": 0, "fusion_lon": 0.0, "lat": 38.8372745, "rental_uris": {"android": "https://dc.lft.to/lastmile_qr_scan", "ios": "https://dc.lft.to/lastmile_qr_scan"}, "fusion_lat": 0.0}, {"type": "electric_scooter", "bike_id": "ffbc2960eea0cd5f1f92360566cff768", "is_disabled": 0, "name": "ffbc2960eea0cd5f1f92360566cff768", "lon": -77.01425183333333, "is_reserved": 0, "fusion_lon": 0.0, "lat": 38.89972616666667, "rental_uris": {"android": "https://dc.lft.to/lastmile_qr_scan", "ios": "https://dc.lft.to/lastmile_qr_scan"}, "fusion_lat": 0.0}, {"type": "electric_scooter", "bike_id": "991139ad1081afed13dd750a4f511373", "is_disabled": 0, "name": "991139ad1081afed13dd750a4f511373", "lon": -77.04151683333333, "is_reserved": 0, "fusion_lon": 0.0, "lat": 38.92326833333333, "rental_uris": {"android": "https://dc.lft.to/lastmile_qr_scan", "ios": "https://dc.lft.to/lastmile_qr_scan"}, "fusion_lat": 0.0}, {"type": "electric_scooter", "bike_id": "f30436bf911412b1fba15c455dc518b0", "is_disabled": 0, "name": "f30436bf911412b1fba15c455dc518b0", "lon": -77.00170316666667, "is_reserved": 0, "fusion_lon": 0.0, "lat": 38.907775, "rental_uris": {"android": "https://dc.lft.to/lastmile_qr_scan", "ios": "https://dc.lft.to/lastmile_qr_scan"}, "fusion_lat": 0.0}, {"type": "electric_scooter", "bike_id": "42185d93476240f01460144ccdbedace", "is_disabled": 0, "name": "42185d93476240f01460144ccdbedace", "lon": -77.01842833333333, "is_reserved": 0, "fusion_lon": 0.0, "lat": 38.9095665, "rental_uris": {"android": "https://dc.lft.to/lastmile_qr_scan", "ios": "https://dc.lft.to/lastmile_qr_scan"}, "fusion_lat": 0.0}, {"type": "electric_scooter", "bike_id": "96ef57f2e3083b1d434091649826a974", "is_disabled": 0, "name": "96ef57f2e3083b1d434091649826a974", "lon": -77.03449633333334, "is_reserved": 0, "fusion_lon": 0.0, "lat": 38.9222045, "rental_uris": {"android": "https://dc.lft.to/lastmile_qr_scan", "ios": "https://dc.lft.to/lastmile_qr_scan"}, "fusion_lat": 0.0}, {"type": "electric_scooter", "bike_id": "d162f444e8287afc0aaa677dc2c728c5", "is_disabled": 0, "name": "d162f444e8287afc0aaa677dc2c728c5", "lon": -77.02810083333334, "is_reserved": 0, "fusion_lon": 0.0, "lat": 38.91424116666666, "rental_uris": {"android": "https://dc.lft.to/lastmile_qr_scan", "ios": "https://dc.lft.to/lastmile_qr_scan"}, "fusion_lat": 0.0}, {"type": "electric_scooter", "bike_id": "63672ac580740aed3f53c16cf13814b4", "is_disabled": 0, "name": "63672ac580740aed3f53c16cf13814b4", "lon": -77.02811316666667, "is_reserved": 0, "fusion_lon": 0.0, "lat": 38.881767833333335, "rental_uris": {"android": "https://dc.lft.to/lastmile_qr_scan", "ios": "https://dc.lft.to/lastmile_qr_scan"}, "fusion_lat": 0.0}, {"type": "electric_scooter", "bike_id": "bd5e2a56d0d2c39486abcb3b37070320", "is_disabled": 0, "name": "bd5e2a56d0d2c39486abcb3b37070320", "lon": -77.02689416666666, "is_reserved": 0, "fusion_lon": 0.0, "lat": 38.930804, "rental_uris": {"android": "https://dc.lft.to/lastmile_qr_scan", "ios": "https://dc.lft.to/lastmile_qr_scan"}, "fusion_lat": 0.0}, {"type": "electric_scooter", "bike_id": "83e6a14def1eb956e71b081f772e580e", "is_disabled": 0, "name": "83e6a14def1eb956e71b081f772e580e", "lon": -77.01816233333334, "is_reserved": 0, "fusion_lon": 0.0, "lat": 38.9215255, "rental_uris": {"android": "https://dc.lft.to/lastmile_qr_scan", "ios": "https://dc.lft.to/lastmile_qr_scan"}, "fusion_lat": 0.0}, {"type": "electric_scooter", "bike_id": "2027c23cd3e0f5f77b47ff3ee53a006d", "is_disabled": 0, "name": "2027c23cd3e0f5f77b47ff3ee53a006d", "lon": -77.03654983333334, "is_reserved": 0, "fusion_lon": 0.0, "lat": 38.917964166666664, "rental_uris": {"android": "https://dc.lft.to/lastmile_qr_scan", "ios": "https://dc.lft.to/lastmile_qr_scan"}, "fusion_lat": 0.0}, {"type": "electric_scooter", "bike_id": "21b8d08d038b44be8830c00aab354ab8", "is_disabled": 0, "name": "21b8d08d038b44be8830c00aab354ab8", "lon": -77.03424666666666, "is_reserved": 0, "fusion_lon": 0.0, "lat": 38.91401416666667, "rental_uris": {"android": "https://dc.lft.to/lastmile_qr_scan", "ios": "https://dc.lft.to/lastmile_qr_scan"}, "fusion_lat": 0.0}, {"type": "electric_bike", "bike_id": "82b2483e0d0e15fb4d0993317d8652a5", "is_disabled": 0, "name": "82b2483e0d0e15fb4d0993317d8652a5", "lon": -76.9955325, "is_reserved": 0, "fusion_lon": 0.0, "lat": 38.8620535, "rental_uris": {"android": "https://dc.lft.to/lastmile_qr_scan", "ios": "https://dc.lft.to/lastmile_qr_scan"}, "fusion_lat": 0.0}, {"type": "electric_scooter", "bike_id": "78964c3b1d69bc3618b9fea7e7752c9a", "is_disabled": 0, "name": "78964c3b1d69bc3618b9fea7e7752c9a", "lon": -77.02324616666667, "is_reserved": 0, "fusion_lon": 0.0, "lat": 38.89454633333333, "rental_uris": {"android": "https://dc.lft.to/lastmile_qr_scan", "ios": "https://dc.lft.to/lastmile_qr_scan"}, "fusion_lat": 0.0}, {"type": "electric_bike", "bike_id": "cb1a35798d95c2af62c6732d0fe694a4", "is_disabled": 0, "name": "cb1a35798d95c2af62c6732d0fe694a4", "lon": -77.02008483333333, "is_reserved": 0, "fusion_lon": 0.0, "lat": 39.026198, "rental_uris": {"android": "https://dc.lft.to/lastmile_qr_scan", "ios": "https://dc.lft.to/lastmile_qr_scan"}, "fusion_lat": 0.0}, {"type": "electric_scooter", "bike_id": "e3d469d0a191b9064ace52078d239ba1", "is_disabled": 0, "name": "e3d469d0a191b9064ace52078d239ba1", "lon": -77.03277516666667, "is_reserved": 0, "fusion_lon": 0.0, "lat": 38.928813833333336, "rental_uris": {"android": "https://dc.lft.to/lastmile_qr_scan", "ios": "https://dc.lft.to/lastmile_qr_scan"}, "fusion_lat": 0.0}, {"type": "electric_scooter", "bike_id": "62c0afa01edfa1206bf8718e63b12c37", "is_disabled": 0, "name": "62c0afa01edfa1206bf8718e63b12c37", "lon": -77.00820066666667, "is_reserved": 0, "fusion_lon": 0.0, "lat": 38.915629, "rental_uris": {"android": "https://dc.lft.to/lastmile_qr_scan", "ios": "https://dc.lft.to/lastmile_qr_scan"}, "fusion_lat": 0.0}, {"type": "electric_bike", "bike_id": "66673082dddaf55aebe4e49d9560292b", "is_disabled": 0, "name": "66673082dddaf55aebe4e49d9560292b", "lon": -77.11286916666667, "is_reserved": 0, "fusion_lon": 0.0, "lat": 38.83102383333333, "rental_uris": {"android": "https://dc.lft.to/lastmile_qr_scan", "ios": "https://dc.lft.to/lastmile_qr_scan"}, "fusion_lat": 0.0}, {"type": "electric_bike", "bike_id": "becccca18db354550431d19b7f700db2", "is_disabled": 0, "name": "becccca18db354550431d19b7f700db2", "lon": -76.96065083333333, "is_reserved": 0, "fusion_lon": 0.0, "lat": 38.883942833333336, "rental_uris": {"android": "https://dc.lft.to/lastmile_qr_scan", "ios": "https://dc.lft.to/lastmile_qr_scan"}, "fusion_lat": 0.0}, {"type": "electric_scooter", "bike_id": "5c4f553b37018e430346cd0bcd6597de", "is_disabled": 0, "name": "5c4f553b37018e430346cd0bcd6597de", "lon": -77.0004255, "is_reserved": 0, "fusion_lon": 0.0, "lat": 38.9001885, "rental_uris": {"android": "https://dc.lft.to/lastmile_qr_scan", "ios": "https://dc.lft.to/lastmile_qr_scan"}, "fusion_lat": 0.0}, {"type": "electric_scooter", "bike_id": "d93bb28cf93a3c9e52a160b0ce0a56ab", "is_disabled": 0, "name": "d93bb28cf93a3c9e52a160b0ce0a56ab", "lon": -77.02349616666666, "is_reserved": 0, "fusion_lon": 0.0, "lat": 38.9419245, "rental_uris": {"android": "https://dc.lft.to/lastmile_qr_scan", "ios": "https://dc.lft.to/lastmile_qr_scan"}, "fusion_lat": 0.0}, {"type": "electric_scooter", "bike_id": "3b21e754058da02e47f2447b12808cc5", "is_disabled": 0, "name": "3b21e754058da02e47f2447b12808cc5", "lon": -77.042116, "is_reserved": 0, "fusion_lon": 0.0, "lat": 38.9093235, "rental_uris": {"android": "https://dc.lft.to/lastmile_qr_scan", "ios": "https://dc.lft.to/lastmile_qr_scan"}, "fusion_lat": 0.0}, {"type": "electric_scooter", "bike_id": "a97f58c4b148876f5ff649b27a1a072c", "is_disabled": 0, "name": "a97f58c4b148876f5ff649b27a1a072c", "lon": -76.99839366666667, "is_reserved": 0, "fusion_lon": 0.0, "lat": 38.900744, "rental_uris": {"android": "https://dc.lft.to/lastmile_qr_scan", "ios": "https://dc.lft.to/lastmile_qr_scan"}, "fusion_lat": 0.0}, {"type": "electric_scooter", "bike_id": "0b217bf7055589f7760edeeefe68040c", "is_disabled": 0, "name": "0b217bf7055589f7760edeeefe68040c", "lon": -77.06616483333333, "is_reserved": 0, "fusion_lon": 0.0, "lat": 38.91365666666667, "rental_uris": {"android": "https://dc.lft.to/lastmile_qr_scan", "ios": "https://dc.lft.to/lastmile_qr_scan"}, "fusion_lat": 0.0}, {"type": "electric_scooter", "bike_id": "bd71bf2c76c556714882f8be9decfd8e", "is_disabled": 0, "name": "bd71bf2c76c556714882f8be9decfd8e", "lon": -76.92893966666666, "is_reserved": 0, "fusion_lon": 0.0, "lat": 38.8794405, "rental_uris": {"android": "https://dc.lft.to/lastmile_qr_scan", "ios": "https://dc.lft.to/lastmile_qr_scan"}, "fusion_lat": 0.0}, {"type": "electric_scooter", "bike_id": "7fe1f977159299aed2a57f48f90c6557", "is_disabled": 0, "name": "7fe1f977159299aed2a57f48f90c6557", "lon": -76.98371016666667, "is_reserved": 0, "fusion_lon": 0.0, "lat": 38.8926075, "rental_uris": {"android": "https://dc.lft.to/lastmile_qr_scan", "ios": "https://dc.lft.to/lastmile_qr_scan"}, "fusion_lat": 0.0}, {"type": "electric_scooter", "bike_id": "c4234ff22ca6ce5d5ff965e74c1d9cab", "is_disabled": 0, "name": "c4234ff22ca6ce5d5ff965e74c1d9cab", "lon": -77.06360116666667, "is_reserved": 0, "fusion_lon": 0.0, "lat": 38.920169333333334, "rental_uris": {"android": "https://dc.lft.to/lastmile_qr_scan", "ios": "https://dc.lft.to/lastmile_qr_scan"}, "fusion_lat": 0.0}, {"type": "electric_scooter", "bike_id": "e6a47cde144582916a6fb82c36a488fb", "is_disabled": 0, "name": "e6a47cde144582916a6fb82c36a488fb", "lon": -77.0391525, "is_reserved": 0, "fusion_lon": 0.0, "lat": 38.898311666666665, "rental_uris": {"android": "https://dc.lft.to/lastmile_qr_scan", "ios": "https://dc.lft.to/lastmile_qr_scan"}, "fusion_lat": 0.0}, {"type": "electric_scooter", "bike_id": "5ae31d0bac0766cd2ca568987ee27a65", "is_disabled": 0, "name": "5ae31d0bac0766cd2ca568987ee27a65", "lon": -77.04514366666666, "is_reserved": 0, "fusion_lon": 0.0, "lat": 38.89950366666667, "rental_uris": {"android": "https://dc.lft.to/lastmile_qr_scan", "ios": "https://dc.lft.to/lastmile_qr_scan"}, "fusion_lat": 0.0}, {"type": "electric_scooter", "bike_id": "05ec0ca6dc538bdc6f003956d6f02028", "is_disabled": 0, "name": "05ec0ca6dc538bdc6f003956d6f02028", "lon": -76.99849283333333, "is_reserved": 0, "fusion_lon": 0.0, "lat": 38.900516833333334, "rental_uris": {"android": "https://dc.lft.to/lastmile_qr_scan", "ios": "https://dc.lft.to/lastmile_qr_scan"}, "fusion_lat": 0.0}, {"type": "electric_scooter", "bike_id": "5cba2041b5e4941a50267fb2a8c8d679", "is_disabled": 0, "name": "5cba2041b5e4941a50267fb2a8c8d679", "lon": -77.00048466666667, "is_reserved": 0, "fusion_lon": 0.0, "lat": 38.87373566666667, "rental_uris": {"android": "https://dc.lft.to/lastmile_qr_scan", "ios": "https://dc.lft.to/lastmile_qr_scan"}, "fusion_lat": 0.0}, {"type": "electric_scooter", "bike_id": "6a61e55577bced9c9771ebf8ee2132c4", "is_disabled": 0, "name": "6a61e55577bced9c9771ebf8ee2132c4", "lon": -77.00538933333333, "is_reserved": 0, "fusion_lon": 0.0, "lat": 38.88052416666667, "rental_uris": {"android": "https://dc.lft.to/lastmile_qr_scan", "ios": "https://dc.lft.to/lastmile_qr_scan"}, "fusion_lat": 0.0}, {"type": "electric_scooter", "bike_id": "a8f1c19d787dd168d91f3fff49a6521c", "is_disabled": 0, "name": "a8f1c19d787dd168d91f3fff49a6521c", "lon": -77.02380283333333, "is_reserved": 0, "fusion_lon": 0.0, "lat": 38.896205, "rental_uris": {"android": "https://dc.lft.to/lastmile_qr_scan", "ios": "https://dc.lft.to/lastmile_qr_scan"}, "fusion_lat": 0.0}, {"type": "electric_scooter", "bike_id": "bc78c2f78cf6ed8c45bec985762dbdfe", "is_disabled": 0, "name": "bc78c2f78cf6ed8c45bec985762dbdfe", "lon": -77.064149, "is_reserved": 0, "fusion_lon": 0.0, "lat": 38.91459233333333, "rental_uris": {"android": "https://dc.lft.to/lastmile_qr_scan", "ios": "https://dc.lft.to/lastmile_qr_scan"}, "fusion_lat": 0.0}, {"type": "electric_scooter", "bike_id": "b047662d6ddc6ad7d647c38af4025647", "is_disabled": 0, "name": "b047662d6ddc6ad7d647c38af4025647", "lon": -77.018343, "is_reserved": 0, "fusion_lon": 0.0, "lat": 38.90960666666667, "rental_uris": {"android": "https://dc.lft.to/lastmile_qr_scan", "ios": "https://dc.lft.to/lastmile_qr_scan"}, "fusion_lat": 0.0}, {"type": "electric_scooter", "bike_id": "68ee0f329c0c76eb066c268c219b8df8", "is_disabled": 0, "name": "68ee0f329c0c76eb066c268c219b8df8", "lon": -77.00050616666667, "is_reserved": 0, "fusion_lon": 0.0, "lat": 38.90694333333333, "rental_uris": {"android": "https://dc.lft.to/lastmile_qr_scan", "ios": "https://dc.lft.to/lastmile_qr_scan"}, "fusion_lat": 0.0}, {"type": "electric_scooter", "bike_id": "be30e0e3b80e9a8399c824f31379ca1d", "is_disabled": 0, "name": "be30e0e3b80e9a8399c824f31379ca1d", "lon": -77.06452766666666, "is_reserved": 0, "fusion_lon": 0.0, "lat": 38.948814, "rental_uris": {"android": "https://dc.lft.to/lastmile_qr_scan", "ios": "https://dc.lft.to/lastmile_qr_scan"}, "fusion_lat": 0.0}, {"type": "electric_scooter", "bike_id": "fa92154977bd534c2a1550c37993f58b", "is_disabled": 0, "name": "fa92154977bd534c2a1550c37993f58b", "lon": -77.022881, "is_reserved": 0, "fusion_lon": 0.0, "lat": 38.894847, "rental_uris": {"android": "https://dc.lft.to/lastmile_qr_scan", "ios": "https://dc.lft.to/lastmile_qr_scan"}, "fusion_lat": 0.0}, {"type": "electric_scooter", "bike_id": "06b0052442739f5bd2d6f0a801279e90", "is_disabled": 0, "name": "06b0052442739f5bd2d6f0a801279e90", "lon": -76.99152833333333, "is_reserved": 0, "fusion_lon": 0.0, "lat": 38.900283333333334, "rental_uris": {"android": "https://dc.lft.to/lastmile_qr_scan", "ios": "https://dc.lft.to/lastmile_qr_scan"}, "fusion_lat": 0.0}, {"type": "electric_scooter", "bike_id": "5683fd006ec85434881c59792857ed06", "is_disabled": 0, "name": "5683fd006ec85434881c59792857ed06", "lon": -76.92495666666667, "is_reserved": 0, "fusion_lon": 0.0, "lat": 38.885950333333334, "rental_uris": {"android": "https://dc.lft.to/lastmile_qr_scan", "ios": "https://dc.lft.to/lastmile_qr_scan"}, "fusion_lat": 0.0}, {"type": "electric_scooter", "bike_id": "a12a325c6f76a6fb3f908e7c040b362e", "is_disabled": 0, "name": "a12a325c6f76a6fb3f908e7c040b362e", "lon": -77.03718483333333, "is_reserved": 0, "fusion_lon": 0.0, "lat": 38.9035825, "rental_uris": {"android": "https://dc.lft.to/lastmile_qr_scan", "ios": "https://dc.lft.to/lastmile_qr_scan"}, "fusion_lat": 0.0}, {"type": "electric_scooter", "bike_id": "d8013df7d927d8441208c92a01f1f8a1", "is_disabled": 0, "name": "d8013df7d927d8441208c92a01f1f8a1", "lon": -77.04872316666666, "is_reserved": 0, "fusion_lon": 0.0, "lat": 38.89234666666667, "rental_uris": {"android": "https://dc.lft.to/lastmile_qr_scan", "ios": "https://dc.lft.to/lastmile_qr_scan"}, "fusion_lat": 0.0}, {"type": "electric_scooter", "bike_id": "cd9e9b07e9a6fb25c97d3f46ed8befba", "is_disabled": 0, "name": "cd9e9b07e9a6fb25c97d3f46ed8befba", "lon": -77.04333816666667, "is_reserved": 0, "fusion_lon": 0.0, "lat": 38.91302566666667, "rental_uris": {"android": "https://dc.lft.to/lastmile_qr_scan", "ios": "https://dc.lft.to/lastmile_qr_scan"}, "fusion_lat": 0.0}, {"type": "electric_scooter", "bike_id": "8107ec85f9b8e45b1bbbb312ceaa0813", "is_disabled": 0, "name": "8107ec85f9b8e45b1bbbb312ceaa0813", "lon": -77.03284166666667, "is_reserved": 0, "fusion_lon": 0.0, "lat": 38.936383, "rental_uris": {"android": "https://dc.lft.to/lastmile_qr_scan", "ios": "https://dc.lft.to/lastmile_qr_scan"}, "fusion_lat": 0.0}, {"type": "electric_scooter", "bike_id": "5ef2a0bbee3669ee01bbf5a2855682d1", "is_disabled": 0, "name": "5ef2a0bbee3669ee01bbf5a2855682d1", "lon": -77.0335995, "is_reserved": 0, "fusion_lon": 0.0, "lat": 38.902625666666665, "rental_uris": {"android": "https://dc.lft.to/lastmile_qr_scan", "ios": "https://dc.lft.to/lastmile_qr_scan"}, "fusion_lat": 0.0}, {"type": "electric_scooter", "bike_id": "44f30c4f15d1c5a8ecd72f9ca8063c19", "is_disabled": 0, "name": "44f30c4f15d1c5a8ecd72f9ca8063c19", "lon": -77.0511575, "is_reserved": 0, "fusion_lon": 0.0, "lat": 38.906308333333335, "rental_uris": {"android": "https://dc.lft.to/lastmile_qr_scan", "ios": "https://dc.lft.to/lastmile_qr_scan"}, "fusion_lat": 0.0}, {"type": "electric_scooter", "bike_id": "b06f860e0b525263b8e35a1434259a25", "is_disabled": 0, "name": "b06f860e0b525263b8e35a1434259a25", "lon": -77.0122225, "is_reserved": 0, "fusion_lon": 0.0, "lat": 38.91511466666667, "rental_uris": {"android": "https://dc.lft.to/lastmile_qr_scan", "ios": "https://dc.lft.to/lastmile_qr_scan"}, "fusion_lat": 0.0}, {"type": "electric_scooter", "bike_id": "1630d09cb3bd2cc61000a2ed62d9ea8d", "is_disabled": 0, "name": "1630d09cb3bd2cc61000a2ed62d9ea8d", "lon": -77.00911116666667, "is_reserved": 0, "fusion_lon": 0.0, "lat": 38.8953915, "rental_uris": {"android": "https://dc.lft.to/lastmile_qr_scan", "ios": "https://dc.lft.to/lastmile_qr_scan"}, "fusion_lat": 0.0}, {"type": "electric_scooter", "bike_id": "ba4ad6cf1222a824681afef1214938f0", "is_disabled": 0, "name": "ba4ad6cf1222a824681afef1214938f0", "lon": -77.02812983333334, "is_reserved": 0, "fusion_lon": 0.0, "lat": 38.89905266666667, "rental_uris": {"android": "https://dc.lft.to/lastmile_qr_scan", "ios": "https://dc.lft.to/lastmile_qr_scan"}, "fusion_lat": 0.0}, {"type": "electric_scooter", "bike_id": "a265799407801805474fe9090a8522f1", "is_disabled": 0, "name": "a265799407801805474fe9090a8522f1", "lon": -76.985012, "is_reserved": 0, "fusion_lon": 0.0, "lat": 38.860574666666665, "rental_uris": {"android": "https://dc.lft.to/lastmile_qr_scan", "ios": "https://dc.lft.to/lastmile_qr_scan"}, "fusion_lat": 0.0}, {"type": "electric_scooter", "bike_id": "d75fffa9c8960cc767f1c0e0b3121336", "is_disabled": 0, "name": "d75fffa9c8960cc767f1c0e0b3121336", "lon": -77.02097266666667, "is_reserved": 0, "fusion_lon": 0.0, "lat": 38.926994666666666, "rental_uris": {"android": "https://dc.lft.to/lastmile_qr_scan", "ios": "https://dc.lft.to/lastmile_qr_scan"}, "fusion_lat": 0.0}, {"type": "electric_scooter", "bike_id": "bcb0d901ea1c4035ca7d503d51bf5c1d", "is_disabled": 0, "name": "bcb0d901ea1c4035ca7d503d51bf5c1d", "lon": -77.012252, "is_reserved": 0, "fusion_lon": 0.0, "lat": 38.91547083333333, "rental_uris": {"android": "https://dc.lft.to/lastmile_qr_scan", "ios": "https://dc.lft.to/lastmile_qr_scan"}, "fusion_lat": 0.0}, {"type": "electric_scooter", "bike_id": "59feddedb9b9391fe19083f9fcb93ae0", "is_disabled": 0, "name": "59feddedb9b9391fe19083f9fcb93ae0", "lon": -77.02764916666666, "is_reserved": 0, "fusion_lon": 0.0, "lat": 38.934656833333335, "rental_uris": {"android": "https://dc.lft.to/lastmile_qr_scan", "ios": "https://dc.lft.to/lastmile_qr_scan"}, "fusion_lat": 0.0}, {"type": "electric_scooter", "bike_id": "fec6d1ad8aba13e22d40bd72cb7a8598", "is_disabled": 0, "name": "fec6d1ad8aba13e22d40bd72cb7a8598", "lon": -77.0488135, "is_reserved": 0, "fusion_lon": 0.0, "lat": 38.9091025, "rental_uris": {"android": "https://dc.lft.to/lastmile_qr_scan", "ios": "https://dc.lft.to/lastmile_qr_scan"}, "fusion_lat": 0.0}, {"type": "electric_scooter", "bike_id": "464a2b1e9f7e11335619d47724907580", "is_disabled": 0, "name": "464a2b1e9f7e11335619d47724907580", "lon": -77.06802416666666, "is_reserved": 0, "fusion_lon": 0.0, "lat": 38.9156015, "rental_uris": {"android": "https://dc.lft.to/lastmile_qr_scan", "ios": "https://dc.lft.to/lastmile_qr_scan"}, "fusion_lat": 0.0}, {"type": "electric_scooter", "bike_id": "21655c5d43cd9b13827053eb7e1c8cb3", "is_disabled": 0, "name": "21655c5d43cd9b13827053eb7e1c8cb3", "lon": -77.020701, "is_reserved": 0, "fusion_lon": 0.0, "lat": 38.875579, "rental_uris": {"android": "https://dc.lft.to/lastmile_qr_scan", "ios": "https://dc.lft.to/lastmile_qr_scan"}, "fusion_lat": 0.0}, {"type": "electric_bike", "bike_id": "8530ad7f7371b3502e314e79fb3a27d9", "is_disabled": 0, "name": "8530ad7f7371b3502e314e79fb3a27d9", "lon": -77.126729, "is_reserved": 0, "fusion_lon": 0.0, "lat": 38.819162666666664, "rental_uris": {"android": "https://dc.lft.to/lastmile_qr_scan", "ios": "https://dc.lft.to/lastmile_qr_scan"}, "fusion_lat": 0.0}, {"type": "electric_scooter", "bike_id": "2992ba4c36eb567526480f636c08becf", "is_disabled": 0, "name": "2992ba4c36eb567526480f636c08becf", "lon": -77.038752, "is_reserved": 0, "fusion_lon": 0.0, "lat": 38.921500333333334, "rental_uris": {"android": "https://dc.lft.to/lastmile_qr_scan", "ios": "https://dc.lft.to/lastmile_qr_scan"}, "fusion_lat": 0.0}, {"type": "electric_bike", "bike_id": "b31b330f0aa74b9bee41a6fadf0b3cdc", "is_disabled": 0, "name": "b31b330f0aa74b9bee41a6fadf0b3cdc", "lon": -77.08529383333334, "is_reserved": 0, "fusion_lon": 0.0, "lat": 38.856420166666666, "rental_uris": {"android": "https://dc.lft.to/lastmile_qr_scan", "ios": "https://dc.lft.to/lastmile_qr_scan"}, "fusion_lat": 0.0}, {"type": "electric_scooter", "bike_id": "68a3eb8d3dd6c6cf90adbb8a6ba0a2b8", "is_disabled": 0, "name": "68a3eb8d3dd6c6cf90adbb8a6ba0a2b8", "lon": -77.00219, "is_reserved": 0, "fusion_lon": 0.0, "lat": 38.900084666666665, "rental_uris": {"android": "https://dc.lft.to/lastmile_qr_scan", "ios": "https://dc.lft.to/lastmile_qr_scan"}, "fusion_lat": 0.0}, {"type": "electric_scooter", "bike_id": "3882ca9e2c7445ff609103411792dfd9", "is_disabled": 0, "name": "3882ca9e2c7445ff609103411792dfd9", "lon": -77.02448383333333, "is_reserved": 0, "fusion_lon": 0.0, "lat": 38.904402166666664, "rental_uris": {"android": "https://dc.lft.to/lastmile_qr_scan", "ios": "https://dc.lft.to/lastmile_qr_scan"}, "fusion_lat": 0.0}, {"type": "electric_scooter", "bike_id": "9e07ea0920b447e755002f0d51a05d08", "is_disabled": 0, "name": "9e07ea0920b447e755002f0d51a05d08", "lon": -77.03274766666667, "is_reserved": 0, "fusion_lon": 0.0, "lat": 38.93255166666667, "rental_uris": {"android": "https://dc.lft.to/lastmile_qr_scan", "ios": "https://dc.lft.to/lastmile_qr_scan"}, "fusion_lat": 0.0}, {"type": "electric_scooter", "bike_id": "76118554168301e59d49939fedeafcaa", "is_disabled": 0, "name": "76118554168301e59d49939fedeafcaa", "lon": -77.03004733333333, "is_reserved": 0, "fusion_lon": 0.0, "lat": 38.90124566666667, "rental_uris": {"android": "https://dc.lft.to/lastmile_qr_scan", "ios": "https://dc.lft.to/lastmile_qr_scan"}, "fusion_lat": 0.0}, {"type": "electric_scooter", "bike_id": "68b69bcbf79c73a3c8c914a57bab6c93", "is_disabled": 0, "name": "68b69bcbf79c73a3c8c914a57bab6c93", "lon": -77.01749166666667, "is_reserved": 0, "fusion_lon": 0.0, "lat": 38.9398865, "rental_uris": {"android": "https://dc.lft.to/lastmile_qr_scan", "ios": "https://dc.lft.to/lastmile_qr_scan"}, "fusion_lat": 0.0}, {"type": "electric_scooter", "bike_id": "e5bdb8ca8799b116d9f05fd267006c73", "is_disabled": 0, "name": "e5bdb8ca8799b116d9f05fd267006c73", "lon": -77.06478483333333, "is_reserved": 0, "fusion_lon": 0.0, "lat": 38.927042166666666, "rental_uris": {"android": "https://dc.lft.to/lastmile_qr_scan", "ios": "https://dc.lft.to/lastmile_qr_scan"}, "fusion_lat": 0.0}, {"type": "electric_scooter", "bike_id": "892a5d6e38dea28cb4ec3c307dfe2409", "is_disabled": 0, "name": "892a5d6e38dea28cb4ec3c307dfe2409", "lon": -77.05342483333334, "is_reserved": 0, "fusion_lon": 0.0, "lat": 38.906458, "rental_uris": {"android": "https://dc.lft.to/lastmile_qr_scan", "ios": "https://dc.lft.to/lastmile_qr_scan"}, "fusion_lat": 0.0}, {"type": "electric_scooter", "bike_id": "902eda921501cca99a74f481894f7c41", "is_disabled": 0, "name": "902eda921501cca99a74f481894f7c41", "lon": -76.99498833333334, "is_reserved": 0, "fusion_lon": 0.0, "lat": 38.89399083333333, "rental_uris": {"android": "https://dc.lft.to/lastmile_qr_scan", "ios": "https://dc.lft.to/lastmile_qr_scan"}, "fusion_lat": 0.0}, {"type": "electric_scooter", "bike_id": "66fd76eec1c525eb9b6546030c74603e", "is_disabled": 0, "name": "66fd76eec1c525eb9b6546030c74603e", "lon": -77.0269935, "is_reserved": 0, "fusion_lon": 0.0, "lat": 38.91265166666667, "rental_uris": {"android": "https://dc.lft.to/lastmile_qr_scan", "ios": "https://dc.lft.to/lastmile_qr_scan"}, "fusion_lat": 0.0}, {"type": "electric_scooter", "bike_id": "7b20170416c8a502ebc993125c7a1560", "is_disabled": 0, "name": "7b20170416c8a502ebc993125c7a1560", "lon": -77.019841, "is_reserved": 0, "fusion_lon": 0.0, "lat": 38.905034, "rental_uris": {"android": "https://dc.lft.to/lastmile_qr_scan", "ios": "https://dc.lft.to/lastmile_qr_scan"}, "fusion_lat": 0.0}, {"type": "electric_scooter", "bike_id": "bfa1d6d4265ad0679accc8bb819bf7ba", "is_disabled": 0, "name": "bfa1d6d4265ad0679accc8bb819bf7ba", "lon": -77.01021933333334, "is_reserved": 0, "fusion_lon": 0.0, "lat": 38.91416483333333, "rental_uris": {"android": "https://dc.lft.to/lastmile_qr_scan", "ios": "https://dc.lft.to/lastmile_qr_scan"}, "fusion_lat": 0.0}, {"type": "electric_scooter", "bike_id": "384d88d8130a36587bff126788091e29", "is_disabled": 0, "name": "384d88d8130a36587bff126788091e29", "lon": -77.02399883333334, "is_reserved": 0, "fusion_lon": 0.0, "lat": 38.90961633333333, "rental_uris": {"android": "https://dc.lft.to/lastmile_qr_scan", "ios": "https://dc.lft.to/lastmile_qr_scan"}, "fusion_lat": 0.0}, {"type": "electric_scooter", "bike_id": "9cc3612ebfb105435cc4e42ba188e6e2", "is_disabled": 0, "name": "9cc3612ebfb105435cc4e42ba188e6e2", "lon": -77.05340033333333, "is_reserved": 0, "fusion_lon": 0.0, "lat": 38.898820666666666, "rental_uris": {"android": "https://dc.lft.to/lastmile_qr_scan", "ios": "https://dc.lft.to/lastmile_qr_scan"}, "fusion_lat": 0.0}, {"type": "electric_scooter", "bike_id": "0714692f2fecc4bcfe70b0aac1415793", "is_disabled": 0, "name": "0714692f2fecc4bcfe70b0aac1415793", "lon": -77.007112, "is_reserved": 0, "fusion_lon": 0.0, "lat": 38.8849095, "rental_uris": {"android": "https://dc.lft.to/lastmile_qr_scan", "ios": "https://dc.lft.to/lastmile_qr_scan"}, "fusion_lat": 0.0}, {"type": "electric_scooter", "bike_id": "d67005f1c57cf52e4e083ffb57f90a04", "is_disabled": 0, "name": "d67005f1c57cf52e4e083ffb57f90a04", "lon": -76.991638, "is_reserved": 0, "fusion_lon": 0.0, "lat": 38.888102, "rental_uris": {"android": "https://dc.lft.to/lastmile_qr_scan", "ios": "https://dc.lft.to/lastmile_qr_scan"}, "fusion_lat": 0.0}, {"type": "electric_scooter", "bike_id": "4faacfe4883ebb4c81547619ba5f25d8", "is_disabled": 0, "name": "4faacfe4883ebb4c81547619ba5f25d8", "lon": -77.00254216666667, "is_reserved": 0, "fusion_lon": 0.0, "lat": 38.8947455, "rental_uris": {"android": "https://dc.lft.to/lastmile_qr_scan", "ios": "https://dc.lft.to/lastmile_qr_scan"}, "fusion_lat": 0.0}, {"type": "electric_scooter", "bike_id": "cadc7df4663ce0254ae1ddf25e1496d0", "is_disabled": 0, "name": "cadc7df4663ce0254ae1ddf25e1496d0", "lon": -77.03421983333334, "is_reserved": 0, "fusion_lon": 0.0, "lat": 38.90554133333333, "rental_uris": {"android": "https://dc.lft.to/lastmile_qr_scan", "ios": "https://dc.lft.to/lastmile_qr_scan"}, "fusion_lat": 0.0}, {"type": "electric_scooter", "bike_id": "f83cbcb2303f6ceeb521fca8f1cade3f", "is_disabled": 0, "name": "f83cbcb2303f6ceeb521fca8f1cade3f", "lon": -76.98855233333333, "is_reserved": 0, "fusion_lon": 0.0, "lat": 38.90702816666666, "rental_uris": {"android": "https://dc.lft.to/lastmile_qr_scan", "ios": "https://dc.lft.to/lastmile_qr_scan"}, "fusion_lat": 0.0}, {"type": "electric_scooter", "bike_id": "daba37b1228b9f6ed6598495ec752e34", "is_disabled": 0, "name": "daba37b1228b9f6ed6598495ec752e34", "lon": -77.032191, "is_reserved": 0, "fusion_lon": 0.0, "lat": 38.9285235, "rental_uris": {"android": "https://dc.lft.to/lastmile_qr_scan", "ios": "https://dc.lft.to/lastmile_qr_scan"}, "fusion_lat": 0.0}, {"type": "electric_scooter", "bike_id": "7d33644d6366a93b755fe91cf59831d0", "is_disabled": 0, "name": "7d33644d6366a93b755fe91cf59831d0", "lon": -76.98365416666667, "is_reserved": 0, "fusion_lon": 0.0, "lat": 38.922059833333336, "rental_uris": {"android": "https://dc.lft.to/lastmile_qr_scan", "ios": "https://dc.lft.to/lastmile_qr_scan"}, "fusion_lat": 0.0}, {"type": "electric_scooter", "bike_id": "ca17ad5c5ab4368b7cd0634c9d33209f", "is_disabled": 0, "name": "ca17ad5c5ab4368b7cd0634c9d33209f", "lon": -76.9375895, "is_reserved": 0, "fusion_lon": 0.0, "lat": 38.89037883333334, "rental_uris": {"android": "https://dc.lft.to/lastmile_qr_scan", "ios": "https://dc.lft.to/lastmile_qr_scan"}, "fusion_lat": 0.0}, {"type": "electric_scooter", "bike_id": "d8e2c80a489598a253f82c80b8d82474", "is_disabled": 0, "name": "d8e2c80a489598a253f82c80b8d82474", "lon": -77.03291183333333, "is_reserved": 0, "fusion_lon": 0.0, "lat": 38.929331, "rental_uris": {"android": "https://dc.lft.to/lastmile_qr_scan", "ios": "https://dc.lft.to/lastmile_qr_scan"}, "fusion_lat": 0.0}, {"type": "electric_scooter", "bike_id": "35efb4083fffef023111d1e9ee31cd5f", "is_disabled": 0, "name": "35efb4083fffef023111d1e9ee31cd5f", "lon": -77.00568866666667, "is_reserved": 0, "fusion_lon": 0.0, "lat": 38.88499383333333, "rental_uris": {"android": "https://dc.lft.to/lastmile_qr_scan", "ios": "https://dc.lft.to/lastmile_qr_scan"}, "fusion_lat": 0.0}, {"type": "electric_scooter", "bike_id": "22f7192d812c4eb6cc3f26492bc8b559", "is_disabled": 0, "name": "22f7192d812c4eb6cc3f26492bc8b559", "lon": -77.02137283333333, "is_reserved": 0, "fusion_lon": 0.0, "lat": 38.9279355, "rental_uris": {"android": "https://dc.lft.to/lastmile_qr_scan", "ios": "https://dc.lft.to/lastmile_qr_scan"}, "fusion_lat": 0.0}, {"type": "electric_scooter", "bike_id": "740a05c99626ef156c85dada14be6762", "is_disabled": 0, "name": "740a05c99626ef156c85dada14be6762", "lon": -77.02196183333334, "is_reserved": 0, "fusion_lon": 0.0, "lat": 38.916447, "rental_uris": {"android": "https://dc.lft.to/lastmile_qr_scan", "ios": "https://dc.lft.to/lastmile_qr_scan"}, "fusion_lat": 0.0}, {"type": "electric_scooter", "bike_id": "1e8b6cb11e2f0331f9670798df2ac6c1", "is_disabled": 0, "name": "1e8b6cb11e2f0331f9670798df2ac6c1", "lon": -77.02208066666667, "is_reserved": 0, "fusion_lon": 0.0, "lat": 38.905393333333336, "rental_uris": {"android": "https://dc.lft.to/lastmile_qr_scan", "ios": "https://dc.lft.to/lastmile_qr_scan"}, "fusion_lat": 0.0}, {"type": "electric_scooter", "bike_id": "cbcf20bb063a1dd4cd793f096b44c47f", "is_disabled": 0, "name": "cbcf20bb063a1dd4cd793f096b44c47f", "lon": -77.03119483333333, "is_reserved": 0, "fusion_lon": 0.0, "lat": 38.9231345, "rental_uris": {"android": "https://dc.lft.to/lastmile_qr_scan", "ios": "https://dc.lft.to/lastmile_qr_scan"}, "fusion_lat": 0.0}, {"type": "electric_bike", "bike_id": "51708f1f099703b2c4f907bfc47a7e54", "is_disabled": 0, "name": "51708f1f099703b2c4f907bfc47a7e54", "lon": -77.00133583333333, "is_reserved": 0, "fusion_lon": 0.0, "lat": 38.99497983333333, "rental_uris": {"android": "https://dc.lft.to/lastmile_qr_scan", "ios": "https://dc.lft.to/lastmile_qr_scan"}, "fusion_lat": 0.0}, {"type": "electric_bike", "bike_id": "0d3fc2a7e43d4afe86937c59302f004e", "is_disabled": 0, "name": "0d3fc2a7e43d4afe86937c59302f004e", "lon": -76.98971416666667, "is_reserved": 0, "fusion_lon": 0.0, "lat": 38.93065433333334, "rental_uris": {"android": "https://dc.lft.to/lastmile_qr_scan", "ios": "https://dc.lft.to/lastmile_qr_scan"}, "fusion_lat": 0.0}, {"type": "electric_scooter", "bike_id": "9acef866fcd8faa9bc02648ef638bfc5", "is_disabled": 0, "name": "9acef866fcd8faa9bc02648ef638bfc5", "lon": -77.03561133333334, "is_reserved": 0, "fusion_lon": 0.0, "lat": 38.927417166666665, "rental_uris": {"android": "https://dc.lft.to/lastmile_qr_scan", "ios": "https://dc.lft.to/lastmile_qr_scan"}, "fusion_lat": 0.0}, {"type": "electric_scooter", "bike_id": "2a15eca74be868740e8607c9f0a5eb7c", "is_disabled": 0, "name": "2a15eca74be868740e8607c9f0a5eb7c", "lon": -77.0593915, "is_reserved": 0, "fusion_lon": 0.0, "lat": 38.905297166666664, "rental_uris": {"android": "https://dc.lft.to/lastmile_qr_scan", "ios": "https://dc.lft.to/lastmile_qr_scan"}, "fusion_lat": 0.0}, {"type": "electric_scooter", "bike_id": "b13d48a12ace82a766501f8db30ad72e", "is_disabled": 0, "name": "b13d48a12ace82a766501f8db30ad72e", "lon": -76.949337, "is_reserved": 0, "fusion_lon": 0.0, "lat": 38.8952925, "rental_uris": {"android": "https://dc.lft.to/lastmile_qr_scan", "ios": "https://dc.lft.to/lastmile_qr_scan"}, "fusion_lat": 0.0}, {"type": "electric_scooter", "bike_id": "3b7a3509594c60234ff9dd0450b669e3", "is_disabled": 0, "name": "3b7a3509594c60234ff9dd0450b669e3", "lon": -76.97571783333333, "is_reserved": 0, "fusion_lon": 0.0, "lat": 38.944201166666666, "rental_uris": {"android": "https://dc.lft.to/lastmile_qr_scan", "ios": "https://dc.lft.to/lastmile_qr_scan"}, "fusion_lat": 0.0}, {"type": "electric_scooter", "bike_id": "e4f265601ccd2ce7499314e9589eadcd", "is_disabled": 0, "name": "e4f265601ccd2ce7499314e9589eadcd", "lon": -77.02581233333333, "is_reserved": 0, "fusion_lon": 0.0, "lat": 38.90423366666667, "rental_uris": {"android": "https://dc.lft.to/lastmile_qr_scan", "ios": "https://dc.lft.to/lastmile_qr_scan"}, "fusion_lat": 0.0}, {"type": "electric_scooter", "bike_id": "57dbd5d75d5a06a42e3c4bec04923875", "is_disabled": 0, "name": "57dbd5d75d5a06a42e3c4bec04923875", "lon": -77.07337166666667, "is_reserved": 0, "fusion_lon": 0.0, "lat": 38.960915166666666, "rental_uris": {"android": "https://dc.lft.to/lastmile_qr_scan", "ios": "https://dc.lft.to/lastmile_qr_scan"}, "fusion_lat": 0.0}, {"type": "electric_bike", "bike_id": "ae9314a186f8964449103cc740b72d3a", "is_disabled": 0, "name": "ae9314a186f8964449103cc740b72d3a", "lon": -77.0070895, "is_reserved": 0, "fusion_lon": 0.0, "lat": 38.9072625, "rental_uris": {"android": "https://dc.lft.to/lastmile_qr_scan", "ios": "https://dc.lft.to/lastmile_qr_scan"}, "fusion_lat": 0.0}, {"type": "electric_scooter", "bike_id": "b96db4eddf373b4658e79c38c270195d", "is_disabled": 0, "name": "b96db4eddf373b4658e79c38c270195d", "lon": -77.04515716666667, "is_reserved": 0, "fusion_lon": 0.0, "lat": 38.90350166666666, "rental_uris": {"android": "https://dc.lft.to/lastmile_qr_scan", "ios": "https://dc.lft.to/lastmile_qr_scan"}, "fusion_lat": 0.0}, {"type": "electric_bike", "bike_id": "97ca7d79d6c15ace71065b9fe12328d2", "is_disabled": 0, "name": "97ca7d79d6c15ace71065b9fe12328d2", "lon": -76.9579215, "is_reserved": 0, "fusion_lon": 0.0, "lat": 38.98046166666666, "rental_uris": {"android": "https://dc.lft.to/lastmile_qr_scan", "ios": "https://dc.lft.to/lastmile_qr_scan"}, "fusion_lat": 0.0}, {"type": "electric_scooter", "bike_id": "74a36d76aba0af2cbf9c91d963cc632e", "is_disabled": 0, "name": "74a36d76aba0af2cbf9c91d963cc632e", "lon": -77.0461935, "is_reserved": 0, "fusion_lon": 0.0, "lat": 38.91499816666666, "rental_uris": {"android": "https://dc.lft.to/lastmile_qr_scan", "ios": "https://dc.lft.to/lastmile_qr_scan"}, "fusion_lat": 0.0}, {"type": "electric_scooter", "bike_id": "866550bf9e02345c9c27c6b3e4670ecf", "is_disabled": 0, "name": "866550bf9e02345c9c27c6b3e4670ecf", "lon": -77.04237216666667, "is_reserved": 0, "fusion_lon": 0.0, "lat": 38.911201166666665, "rental_uris": {"android": "https://dc.lft.to/lastmile_qr_scan", "ios": "https://dc.lft.to/lastmile_qr_scan"}, "fusion_lat": 0.0}, {"type": "electric_scooter", "bike_id": "d5006a8d8df65314571d9d9386657894", "is_disabled": 0, "name": "d5006a8d8df65314571d9d9386657894", "lon": -77.02890866666667, "is_reserved": 0, "fusion_lon": 0.0, "lat": 38.93609933333333, "rental_uris": {"android": "https://dc.lft.to/lastmile_qr_scan", "ios": "https://dc.lft.to/lastmile_qr_scan"}, "fusion_lat": 0.0}, {"type": "electric_scooter", "bike_id": "f65f25d795157022f7e539f5bdf0567e", "is_disabled": 0, "name": "f65f25d795157022f7e539f5bdf0567e", "lon": -77.01815016666667, "is_reserved": 0, "fusion_lon": 0.0, "lat": 38.91400316666667, "rental_uris": {"android": "https://dc.lft.to/lastmile_qr_scan", "ios": "https://dc.lft.to/lastmile_qr_scan"}, "fusion_lat": 0.0}, {"type": "electric_scooter", "bike_id": "08a4547bcaac27875cb39a045572b40e", "is_disabled": 0, "name": "08a4547bcaac27875cb39a045572b40e", "lon": -77.03648666666666, "is_reserved": 0, "fusion_lon": 0.0, "lat": 38.90309966666667, "rental_uris": {"android": "https://dc.lft.to/lastmile_qr_scan", "ios": "https://dc.lft.to/lastmile_qr_scan"}, "fusion_lat": 0.0}, {"type": "electric_scooter", "bike_id": "e71f2b919ac9f3b1ad80b44123c6fcd5", "is_disabled": 0, "name": "e71f2b919ac9f3b1ad80b44123c6fcd5", "lon": -77.01077716666667, "is_reserved": 0, "fusion_lon": 0.0, "lat": 38.903197, "rental_uris": {"android": "https://dc.lft.to/lastmile_qr_scan", "ios": "https://dc.lft.to/lastmile_qr_scan"}, "fusion_lat": 0.0}, {"type": "electric_scooter", "bike_id": "46c775817083fa4211f9feaa2294196d", "is_disabled": 0, "name": "46c775817083fa4211f9feaa2294196d", "lon": -77.0162575, "is_reserved": 0, "fusion_lon": 0.0, "lat": 38.887303333333335, "rental_uris": {"android": "https://dc.lft.to/lastmile_qr_scan", "ios": "https://dc.lft.to/lastmile_qr_scan"}, "fusion_lat": 0.0}, {"type": "electric_scooter", "bike_id": "74c202072c7dd4ee44cdb1037689a5ea", "is_disabled": 0, "name": "74c202072c7dd4ee44cdb1037689a5ea", "lon": -77.0309045, "is_reserved": 0, "fusion_lon": 0.0, "lat": 38.9106155, "rental_uris": {"android": "https://dc.lft.to/lastmile_qr_scan", "ios": "https://dc.lft.to/lastmile_qr_scan"}, "fusion_lat": 0.0}, {"type": "electric_scooter", "bike_id": "70f11786b62b7c44f1977a8b15fd830a", "is_disabled": 0, "name": "70f11786b62b7c44f1977a8b15fd830a", "lon": -77.03448833333333, "is_reserved": 0, "fusion_lon": 0.0, "lat": 38.91396016666667, "rental_uris": {"android": "https://dc.lft.to/lastmile_qr_scan", "ios": "https://dc.lft.to/lastmile_qr_scan"}, "fusion_lat": 0.0}, {"type": "electric_scooter", "bike_id": "8b04b009fb481d4c877b0148e8fbfa11", "is_disabled": 0, "name": "8b04b009fb481d4c877b0148e8fbfa11", "lon": -77.0394685, "is_reserved": 0, "fusion_lon": 0.0, "lat": 38.90813716666667, "rental_uris": {"android": "https://dc.lft.to/lastmile_qr_scan", "ios": "https://dc.lft.to/lastmile_qr_scan"}, "fusion_lat": 0.0}, {"type": "electric_scooter", "bike_id": "9d592da60ada3038b9cd7597ee0ab4a2", "is_disabled": 0, "name": "9d592da60ada3038b9cd7597ee0ab4a2", "lon": -77.03369316666667, "is_reserved": 0, "fusion_lon": 0.0, "lat": 38.900174666666665, "rental_uris": {"android": "https://dc.lft.to/lastmile_qr_scan", "ios": "https://dc.lft.to/lastmile_qr_scan"}, "fusion_lat": 0.0}, {"type": "electric_scooter", "bike_id": "0055eee667f6fd8917da5dc23af5cbd9", "is_disabled": 0, "name": "0055eee667f6fd8917da5dc23af5cbd9", "lon": -77.003427, "is_reserved": 0, "fusion_lon": 0.0, "lat": 38.8992035, "rental_uris": {"android": "https://dc.lft.to/lastmile_qr_scan", "ios": "https://dc.lft.to/lastmile_qr_scan"}, "fusion_lat": 0.0}, {"type": "electric_scooter", "bike_id": "2be15d50878f9f138b0fcb3c6c0b1c0d", "is_disabled": 0, "name": "2be15d50878f9f138b0fcb3c6c0b1c0d", "lon": -77.00731116666667, "is_reserved": 0, "fusion_lon": 0.0, "lat": 38.9118905, "rental_uris": {"android": "https://dc.lft.to/lastmile_qr_scan", "ios": "https://dc.lft.to/lastmile_qr_scan"}, "fusion_lat": 0.0}, {"type": "electric_scooter", "bike_id": "ca94d57e55d9e5b175ba31e6764c7672", "is_disabled": 0, "name": "ca94d57e55d9e5b175ba31e6764c7672", "lon": -77.00904, "is_reserved": 0, "fusion_lon": 0.0, "lat": 38.89543416666667, "rental_uris": {"android": "https://dc.lft.to/lastmile_qr_scan", "ios": "https://dc.lft.to/lastmile_qr_scan"}, "fusion_lat": 0.0}, {"type": "electric_scooter", "bike_id": "a806d348069e3e6b20e13d7115f51781", "is_disabled": 0, "name": "a806d348069e3e6b20e13d7115f51781", "lon": -76.98081966666666, "is_reserved": 0, "fusion_lon": 0.0, "lat": 38.8942965, "rental_uris": {"android": "https://dc.lft.to/lastmile_qr_scan", "ios": "https://dc.lft.to/lastmile_qr_scan"}, "fusion_lat": 0.0}, {"type": "electric_scooter", "bike_id": "a6183fdd355d6339246cea0faca2fb2d", "is_disabled": 0, "name": "a6183fdd355d6339246cea0faca2fb2d", "lon": -77.0326375, "is_reserved": 0, "fusion_lon": 0.0, "lat": 38.9350645, "rental_uris": {"android": "https://dc.lft.to/lastmile_qr_scan", "ios": "https://dc.lft.to/lastmile_qr_scan"}, "fusion_lat": 0.0}, {"type": "electric_scooter", "bike_id": "5951da1b50a2f0c34809ecc12d8c402c", "is_disabled": 0, "name": "5951da1b50a2f0c34809ecc12d8c402c", "lon": -77.05915116666667, "is_reserved": 0, "fusion_lon": 0.0, "lat": 38.901469166666665, "rental_uris": {"android": "https://dc.lft.to/lastmile_qr_scan", "ios": "https://dc.lft.to/lastmile_qr_scan"}, "fusion_lat": 0.0}, {"type": "electric_scooter", "bike_id": "695461c7b947e21b881cc1f68a650804", "is_disabled": 0, "name": "695461c7b947e21b881cc1f68a650804", "lon": -77.03498883333333, "is_reserved": 0, "fusion_lon": 0.0, "lat": 38.9011005, "rental_uris": {"android": "https://dc.lft.to/lastmile_qr_scan", "ios": "https://dc.lft.to/lastmile_qr_scan"}, "fusion_lat": 0.0}, {"type": "electric_bike", "bike_id": "e9a7b4a3197535295c53f2215ed4a184", "is_disabled": 0, "name": "e9a7b4a3197535295c53f2215ed4a184", "lon": -76.97338716666667, "is_reserved": 0, "fusion_lon": 0.0, "lat": 38.8656505, "rental_uris": {"android": "https://dc.lft.to/lastmile_qr_scan", "ios": "https://dc.lft.to/lastmile_qr_scan"}, "fusion_lat": 0.0}, {"type": "electric_scooter", "bike_id": "a27c5ed5e8d8de4e53d1a7106cfdbe55", "is_disabled": 0, "name": "a27c5ed5e8d8de4e53d1a7106cfdbe55", "lon": -77.03732466666666, "is_reserved": 0, "fusion_lon": 0.0, "lat": 38.90370566666667, "rental_uris": {"android": "https://dc.lft.to/lastmile_qr_scan", "ios": "https://dc.lft.to/lastmile_qr_scan"}, "fusion_lat": 0.0}, {"type": "electric_scooter", "bike_id": "011fc88f69b489a054946b45f1496444", "is_disabled": 0, "name": "011fc88f69b489a054946b45f1496444", "lon": -77.0413815, "is_reserved": 0, "fusion_lon": 0.0, "lat": 38.930643, "rental_uris": {"android": "https://dc.lft.to/lastmile_qr_scan", "ios": "https://dc.lft.to/lastmile_qr_scan"}, "fusion_lat": 0.0}, {"type": "electric_scooter", "bike_id": "681c94ebf95ddb84f4e4e4ca2957bc84", "is_disabled": 0, "name": "681c94ebf95ddb84f4e4e4ca2957bc84", "lon": -77.04339516666667, "is_reserved": 0, "fusion_lon": 0.0, "lat": 38.90417166666667, "rental_uris": {"android": "https://dc.lft.to/lastmile_qr_scan", "ios": "https://dc.lft.to/lastmile_qr_scan"}, "fusion_lat": 0.0}, {"type": "electric_scooter", "bike_id": "36482725a27937df4b0ba1b9a0b21808", "is_disabled": 0, "name": "36482725a27937df4b0ba1b9a0b21808", "lon": -77.00058183333333, "is_reserved": 0, "fusion_lon": 0.0, "lat": 38.88112316666667, "rental_uris": {"android": "https://dc.lft.to/lastmile_qr_scan", "ios": "https://dc.lft.to/lastmile_qr_scan"}, "fusion_lat": 0.0}, {"type": "electric_scooter", "bike_id": "cdb644472b0807b21e3a91e7b0d60978", "is_disabled": 0, "name": "cdb644472b0807b21e3a91e7b0d60978", "lon": -77.04013983333333, "is_reserved": 0, "fusion_lon": 0.0, "lat": 38.92454133333333, "rental_uris": {"android": "https://dc.lft.to/lastmile_qr_scan", "ios": "https://dc.lft.to/lastmile_qr_scan"}, "fusion_lat": 0.0}, {"type": "electric_scooter", "bike_id": "270ae94d49fd62ba79aad51bd49b7905", "is_disabled": 0, "name": "270ae94d49fd62ba79aad51bd49b7905", "lon": -77.0392985, "is_reserved": 0, "fusion_lon": 0.0, "lat": 38.913995166666666, "rental_uris": {"android": "https://dc.lft.to/lastmile_qr_scan", "ios": "https://dc.lft.to/lastmile_qr_scan"}, "fusion_lat": 0.0}, {"type": "electric_scooter", "bike_id": "2cb0cc1118c39f2a7185a005f5d6a2f1", "is_disabled": 0, "name": "2cb0cc1118c39f2a7185a005f5d6a2f1", "lon": -77.0363075, "is_reserved": 0, "fusion_lon": 0.0, "lat": 38.93681633333333, "rental_uris": {"android": "https://dc.lft.to/lastmile_qr_scan", "ios": "https://dc.lft.to/lastmile_qr_scan"}, "fusion_lat": 0.0}, {"type": "electric_scooter", "bike_id": "dd61ff1b9da7fb00995c4d0c3f079506", "is_disabled": 0, "name": "dd61ff1b9da7fb00995c4d0c3f079506", "lon": -77.00625683333334, "is_reserved": 0, "fusion_lon": 0.0, "lat": 38.871889, "rental_uris": {"android": "https://dc.lft.to/lastmile_qr_scan", "ios": "https://dc.lft.to/lastmile_qr_scan"}, "fusion_lat": 0.0}, {"type": "electric_scooter", "bike_id": "efff3deac237e9ddd681b068f8edd314", "is_disabled": 0, "name": "efff3deac237e9ddd681b068f8edd314", "lon": -77.02887183333333, "is_reserved": 0, "fusion_lon": 0.0, "lat": 38.90293716666667, "rental_uris": {"android": "https://dc.lft.to/lastmile_qr_scan", "ios": "https://dc.lft.to/lastmile_qr_scan"}, "fusion_lat": 0.0}, {"type": "electric_scooter", "bike_id": "abdf2c56b94f7f27b1b86e8efa68a5f8", "is_disabled": 0, "name": "abdf2c56b94f7f27b1b86e8efa68a5f8", "lon": -77.03452716666666, "is_reserved": 0, "fusion_lon": 0.0, "lat": 38.916627166666665, "rental_uris": {"android": "https://dc.lft.to/lastmile_qr_scan", "ios": "https://dc.lft.to/lastmile_qr_scan"}, "fusion_lat": 0.0}, {"type": "electric_scooter", "bike_id": "1367886e4451377e6422285dfa56f606", "is_disabled": 0, "name": "1367886e4451377e6422285dfa56f606", "lon": -77.05735866666667, "is_reserved": 0, "fusion_lon": 0.0, "lat": 38.933743, "rental_uris": {"android": "https://dc.lft.to/lastmile_qr_scan", "ios": "https://dc.lft.to/lastmile_qr_scan"}, "fusion_lat": 0.0}, {"type": "electric_scooter", "bike_id": "d0647d910ab8be4f85ca6ede854e5ad6", "is_disabled": 0, "name": "d0647d910ab8be4f85ca6ede854e5ad6", "lon": -77.04887683333334, "is_reserved": 0, "fusion_lon": 0.0, "lat": 38.90030383333333, "rental_uris": {"android": "https://dc.lft.to/lastmile_qr_scan", "ios": "https://dc.lft.to/lastmile_qr_scan"}, "fusion_lat": 0.0}, {"type": "electric_scooter", "bike_id": "a000eabd2587571ab3f7d9e8d4ffb9b8", "is_disabled": 0, "name": "a000eabd2587571ab3f7d9e8d4ffb9b8", "lon": -77.01405266666667, "is_reserved": 0, "fusion_lon": 0.0, "lat": 38.928417, "rental_uris": {"android": "https://dc.lft.to/lastmile_qr_scan", "ios": "https://dc.lft.to/lastmile_qr_scan"}, "fusion_lat": 0.0}, {"type": "electric_bike", "bike_id": "40b45f784b258093b021dde940205e8a", "is_disabled": 0, "name": "40b45f784b258093b021dde940205e8a", "lon": -77.020325, "is_reserved": 0, "fusion_lon": 0.0, "lat": 38.965579, "rental_uris": {"android": "https://dc.lft.to/lastmile_qr_scan", "ios": "https://dc.lft.to/lastmile_qr_scan"}, "fusion_lat": 0.0}, {"type": "electric_bike", "bike_id": "f297a0793fcc4914c18583c7475c5fba", "is_disabled": 0, "name": "f297a0793fcc4914c18583c7475c5fba", "lon": -76.98842033333334, "is_reserved": 0, "fusion_lon": 0.0, "lat": 38.8427715, "rental_uris": {"android": "https://dc.lft.to/lastmile_qr_scan", "ios": "https://dc.lft.to/lastmile_qr_scan"}, "fusion_lat": 0.0}, {"type": "electric_scooter", "bike_id": "fe0d2e5f85cbdd9459f5ce1ee1bfaf09", "is_disabled": 0, "name": "fe0d2e5f85cbdd9459f5ce1ee1bfaf09", "lon": -77.012021, "is_reserved": 0, "fusion_lon": 0.0, "lat": 38.89321233333333, "rental_uris": {"android": "https://dc.lft.to/lastmile_qr_scan", "ios": "https://dc.lft.to/lastmile_qr_scan"}, "fusion_lat": 0.0}, {"type": "electric_scooter", "bike_id": "19dbddce630acfd90f38c434747eb49b", "is_disabled": 0, "name": "19dbddce630acfd90f38c434747eb49b", "lon": -77.02186516666667, "is_reserved": 0, "fusion_lon": 0.0, "lat": 38.90949966666667, "rental_uris": {"android": "https://dc.lft.to/lastmile_qr_scan", "ios": "https://dc.lft.to/lastmile_qr_scan"}, "fusion_lat": 0.0}, {"type": "electric_scooter", "bike_id": "50810d8cfae180c0eacfb710166b0647", "is_disabled": 0, "name": "50810d8cfae180c0eacfb710166b0647", "lon": -77.03446916666667, "is_reserved": 0, "fusion_lon": 0.0, "lat": 38.9080365, "rental_uris": {"android": "https://dc.lft.to/lastmile_qr_scan", "ios": "https://dc.lft.to/lastmile_qr_scan"}, "fusion_lat": 0.0}, {"type": "electric_scooter", "bike_id": "0457428ff0441d62d001e892a4d7d8da", "is_disabled": 0, "name": "0457428ff0441d62d001e892a4d7d8da", "lon": -77.03194133333334, "is_reserved": 0, "fusion_lon": 0.0, "lat": 38.9189835, "rental_uris": {"android": "https://dc.lft.to/lastmile_qr_scan", "ios": "https://dc.lft.to/lastmile_qr_scan"}, "fusion_lat": 0.0}, {"type": "electric_scooter", "bike_id": "9d9206e3a114d23027f788d2dea2f95a", "is_disabled": 0, "name": "9d9206e3a114d23027f788d2dea2f95a", "lon": -77.02383683333333, "is_reserved": 0, "fusion_lon": 0.0, "lat": 38.909532166666665, "rental_uris": {"android": "https://dc.lft.to/lastmile_qr_scan", "ios": "https://dc.lft.to/lastmile_qr_scan"}, "fusion_lat": 0.0}, {"type": "electric_scooter", "bike_id": "385ea16dc5dcaae85239f53631d9cb2e", "is_disabled": 0, "name": "385ea16dc5dcaae85239f53631d9cb2e", "lon": -77.026478, "is_reserved": 0, "fusion_lon": 0.0, "lat": 38.93101866666667, "rental_uris": {"android": "https://dc.lft.to/lastmile_qr_scan", "ios": "https://dc.lft.to/lastmile_qr_scan"}, "fusion_lat": 0.0}, {"type": "electric_bike", "bike_id": "c3f8b3acb44620fae6ca10a55ca3464a", "is_disabled": 0, "name": "c3f8b3acb44620fae6ca10a55ca3464a", "lon": -76.97436316666666, "is_reserved": 0, "fusion_lon": 0.0, "lat": 38.85586816666667, "rental_uris": {"android": "https://dc.lft.to/lastmile_qr_scan", "ios": "https://dc.lft.to/lastmile_qr_scan"}, "fusion_lat": 0.0}, {"type": "electric_scooter", "bike_id": "79cd62133e2c32f05b1c4030ba0ba13f", "is_disabled": 0, "name": "79cd62133e2c32f05b1c4030ba0ba13f", "lon": -76.99445116666666, "is_reserved": 0, "fusion_lon": 0.0, "lat": 38.827676833333335, "rental_uris": {"android": "https://dc.lft.to/lastmile_qr_scan", "ios": "https://dc.lft.to/lastmile_qr_scan"}, "fusion_lat": 0.0}, {"type": "electric_scooter", "bike_id": "ff61564122a5e6f9aa66689bd3776a9e", "is_disabled": 0, "name": "ff61564122a5e6f9aa66689bd3776a9e", "lon": -77.04331733333333, "is_reserved": 0, "fusion_lon": 0.0, "lat": 38.904178333333334, "rental_uris": {"android": "https://dc.lft.to/lastmile_qr_scan", "ios": "https://dc.lft.to/lastmile_qr_scan"}, "fusion_lat": 0.0}, {"type": "electric_scooter", "bike_id": "660f1509ea4883d3f870824389cc85ba", "is_disabled": 0, "name": "660f1509ea4883d3f870824389cc85ba", "lon": -77.05010233333333, "is_reserved": 0, "fusion_lon": 0.0, "lat": 38.905092833333335, "rental_uris": {"android": "https://dc.lft.to/lastmile_qr_scan", "ios": "https://dc.lft.to/lastmile_qr_scan"}, "fusion_lat": 0.0}, {"type": "electric_scooter", "bike_id": "8a33cc187dd36c9f7109b542633fd3db", "is_disabled": 0, "name": "8a33cc187dd36c9f7109b542633fd3db", "lon": -77.00586183333333, "is_reserved": 0, "fusion_lon": 0.0, "lat": 38.9026825, "rental_uris": {"android": "https://dc.lft.to/lastmile_qr_scan", "ios": "https://dc.lft.to/lastmile_qr_scan"}, "fusion_lat": 0.0}, {"type": "electric_scooter", "bike_id": "fac293ad94b5f3f0861bb2fa02c02bfc", "is_disabled": 0, "name": "fac293ad94b5f3f0861bb2fa02c02bfc", "lon": -76.98860866666666, "is_reserved": 0, "fusion_lon": 0.0, "lat": 38.900267666666664, "rental_uris": {"android": "https://dc.lft.to/lastmile_qr_scan", "ios": "https://dc.lft.to/lastmile_qr_scan"}, "fusion_lat": 0.0}, {"type": "electric_scooter", "bike_id": "cf0ec03c2ef6ae88d41b77264fac8e8e", "is_disabled": 0, "name": "cf0ec03c2ef6ae88d41b77264fac8e8e", "lon": -77.06169766666666, "is_reserved": 0, "fusion_lon": 0.0, "lat": 38.9412305, "rental_uris": {"android": "https://dc.lft.to/lastmile_qr_scan", "ios": "https://dc.lft.to/lastmile_qr_scan"}, "fusion_lat": 0.0}, {"type": "electric_scooter", "bike_id": "e03258ee27964fae2077c23322d51705", "is_disabled": 0, "name": "e03258ee27964fae2077c23322d51705", "lon": -77.04349366666666, "is_reserved": 0, "fusion_lon": 0.0, "lat": 38.91123183333333, "rental_uris": {"android": "https://dc.lft.to/lastmile_qr_scan", "ios": "https://dc.lft.to/lastmile_qr_scan"}, "fusion_lat": 0.0}, {"type": "electric_scooter", "bike_id": "ac685f11c54e30fe839a4d86c3da5db1", "is_disabled": 0, "name": "ac685f11c54e30fe839a4d86c3da5db1", "lon": -77.029637, "is_reserved": 0, "fusion_lon": 0.0, "lat": 38.907158, "rental_uris": {"android": "https://dc.lft.to/lastmile_qr_scan", "ios": "https://dc.lft.to/lastmile_qr_scan"}, "fusion_lat": 0.0}, {"type": "electric_scooter", "bike_id": "dd92b76a9710534f7f52837782f80da5", "is_disabled": 0, "name": "dd92b76a9710534f7f52837782f80da5", "lon": -77.04014483333333, "is_reserved": 0, "fusion_lon": 0.0, "lat": 38.905686333333335, "rental_uris": {"android": "https://dc.lft.to/lastmile_qr_scan", "ios": "https://dc.lft.to/lastmile_qr_scan"}, "fusion_lat": 0.0}, {"type": "electric_scooter", "bike_id": "78c9399c1809f0a3ae0b18dd33e56391", "is_disabled": 0, "name": "78c9399c1809f0a3ae0b18dd33e56391", "lon": -77.0437095, "is_reserved": 0, "fusion_lon": 0.0, "lat": 38.92234366666667, "rental_uris": {"android": "https://dc.lft.to/lastmile_qr_scan", "ios": "https://dc.lft.to/lastmile_qr_scan"}, "fusion_lat": 0.0}, {"type": "electric_scooter", "bike_id": "c9e3a00d776333a772d28268135d243d", "is_disabled": 0, "name": "c9e3a00d776333a772d28268135d243d", "lon": -77.0364265, "is_reserved": 0, "fusion_lon": 0.0, "lat": 38.903885333333335, "rental_uris": {"android": "https://dc.lft.to/lastmile_qr_scan", "ios": "https://dc.lft.to/lastmile_qr_scan"}, "fusion_lat": 0.0}, {"type": "electric_scooter", "bike_id": "ab90221cd72d2acf3ddfdb6269c10755", "is_disabled": 0, "name": "ab90221cd72d2acf3ddfdb6269c10755", "lon": -77.03869816666666, "is_reserved": 0, "fusion_lon": 0.0, "lat": 38.917102166666666, "rental_uris": {"android": "https://dc.lft.to/lastmile_qr_scan", "ios": "https://dc.lft.to/lastmile_qr_scan"}, "fusion_lat": 0.0}, {"type": "electric_scooter", "bike_id": "cfd640f186215c7c38bc2d03d8b5bfd5", "is_disabled": 0, "name": "cfd640f186215c7c38bc2d03d8b5bfd5", "lon": -77.01518316666667, "is_reserved": 0, "fusion_lon": 0.0, "lat": 38.872592833333336, "rental_uris": {"android": "https://dc.lft.to/lastmile_qr_scan", "ios": "https://dc.lft.to/lastmile_qr_scan"}, "fusion_lat": 0.0}, {"type": "electric_scooter", "bike_id": "c7287b41c0509cb26610cf496ce8caa2", "is_disabled": 0, "name": "c7287b41c0509cb26610cf496ce8caa2", "lon": -77.02286, "is_reserved": 0, "fusion_lon": 0.0, "lat": 38.9250675, "rental_uris": {"android": "https://dc.lft.to/lastmile_qr_scan", "ios": "https://dc.lft.to/lastmile_qr_scan"}, "fusion_lat": 0.0}, {"type": "electric_scooter", "bike_id": "560620f4ac76c36439f1724c7015fb3b", "is_disabled": 0, "name": "560620f4ac76c36439f1724c7015fb3b", "lon": -77.0131215, "is_reserved": 0, "fusion_lon": 0.0, "lat": 38.921047333333334, "rental_uris": {"android": "https://dc.lft.to/lastmile_qr_scan", "ios": "https://dc.lft.to/lastmile_qr_scan"}, "fusion_lat": 0.0}, {"type": "electric_scooter", "bike_id": "86be4f0b14103b7629d7564754d77116", "is_disabled": 0, "name": "86be4f0b14103b7629d7564754d77116", "lon": -77.03184583333334, "is_reserved": 0, "fusion_lon": 0.0, "lat": 38.90979016666667, "rental_uris": {"android": "https://dc.lft.to/lastmile_qr_scan", "ios": "https://dc.lft.to/lastmile_qr_scan"}, "fusion_lat": 0.0}, {"type": "electric_scooter", "bike_id": "6f0f754cf97da1b5c4dbdb001e5aba62", "is_disabled": 0, "name": "6f0f754cf97da1b5c4dbdb001e5aba62", "lon": -77.0257795, "is_reserved": 0, "fusion_lon": 0.0, "lat": 38.92510216666667, "rental_uris": {"android": "https://dc.lft.to/lastmile_qr_scan", "ios": "https://dc.lft.to/lastmile_qr_scan"}, "fusion_lat": 0.0}, {"type": "electric_bike", "bike_id": "e3b4dc1763443d75083f8613be15ffb4", "is_disabled": 0, "name": "e3b4dc1763443d75083f8613be15ffb4", "lon": -77.10217683333333, "is_reserved": 0, "fusion_lon": 0.0, "lat": 38.9199605, "rental_uris": {"android": "https://dc.lft.to/lastmile_qr_scan", "ios": "https://dc.lft.to/lastmile_qr_scan"}, "fusion_lat": 0.0}, {"type": "electric_scooter", "bike_id": "1c37669e6aba790a2968af8653941d01", "is_disabled": 0, "name": "1c37669e6aba790a2968af8653941d01", "lon": -77.00217466666666, "is_reserved": 0, "fusion_lon": 0.0, "lat": 38.900039166666666, "rental_uris": {"android": "https://dc.lft.to/lastmile_qr_scan", "ios": "https://dc.lft.to/lastmile_qr_scan"}, "fusion_lat": 0.0}, {"type": "electric_bike", "bike_id": "3940be4705cf781c1d81116a69968041", "is_disabled": 0, "name": "3940be4705cf781c1d81116a69968041", "lon": -76.98691833333334, "is_reserved": 0, "fusion_lon": 0.0, "lat": 38.944703, "rental_uris": {"android": "https://dc.lft.to/lastmile_qr_scan", "ios": "https://dc.lft.to/lastmile_qr_scan"}, "fusion_lat": 0.0}, {"type": "electric_scooter", "bike_id": "8c928fb1acff0f9d8d22cf0c1db841ed", "is_disabled": 0, "name": "8c928fb1acff0f9d8d22cf0c1db841ed", "lon": -77.020069, "is_reserved": 0, "fusion_lon": 0.0, "lat": 38.92415366666667, "rental_uris": {"android": "https://dc.lft.to/lastmile_qr_scan", "ios": "https://dc.lft.to/lastmile_qr_scan"}, "fusion_lat": 0.0}, {"type": "electric_scooter", "bike_id": "5be63efe72a7df88f334012605ddbf11", "is_disabled": 0, "name": "5be63efe72a7df88f334012605ddbf11", "lon": -77.01868, "is_reserved": 0, "fusion_lon": 0.0, "lat": 38.876515166666664, "rental_uris": {"android": "https://dc.lft.to/lastmile_qr_scan", "ios": "https://dc.lft.to/lastmile_qr_scan"}, "fusion_lat": 0.0}, {"type": "electric_bike", "bike_id": "ce0acc53aaa1ff151271b83627c14ecd", "is_disabled": 0, "name": "ce0acc53aaa1ff151271b83627c14ecd", "lon": -77.08618833333334, "is_reserved": 0, "fusion_lon": 0.0, "lat": 38.93119083333333, "rental_uris": {"android": "https://dc.lft.to/lastmile_qr_scan", "ios": "https://dc.lft.to/lastmile_qr_scan"}, "fusion_lat": 0.0}, {"type": "electric_scooter", "bike_id": "16167b4896b07d5ba54d05ca2cb8aaea", "is_disabled": 0, "name": "16167b4896b07d5ba54d05ca2cb8aaea", "lon": -77.00662766666666, "is_reserved": 0, "fusion_lon": 0.0, "lat": 38.90002033333333, "rental_uris": {"android": "https://dc.lft.to/lastmile_qr_scan", "ios": "https://dc.lft.to/lastmile_qr_scan"}, "fusion_lat": 0.0}, {"type": "electric_bike", "bike_id": "60115cecc1394d92e607fe942abb8ca1", "is_disabled": 0, "name": "60115cecc1394d92e607fe942abb8ca1", "lon": -77.02252, "is_reserved": 0, "fusion_lon": 0.0, "lat": 38.966747833333336, "rental_uris": {"android": "https://dc.lft.to/lastmile_qr_scan", "ios": "https://dc.lft.to/lastmile_qr_scan"}, "fusion_lat": 0.0}, {"type": "electric_scooter", "bike_id": "13535db2f150c397e09537ace9c59c1d", "is_disabled": 0, "name": "13535db2f150c397e09537ace9c59c1d", "lon": -77.02823816666667, "is_reserved": 0, "fusion_lon": 0.0, "lat": 38.904478833333336, "rental_uris": {"android": "https://dc.lft.to/lastmile_qr_scan", "ios": "https://dc.lft.to/lastmile_qr_scan"}, "fusion_lat": 0.0}, {"type": "electric_bike", "bike_id": "220222f0c10adb71da3cd4c3b9110a27", "is_disabled": 0, "name": "220222f0c10adb71da3cd4c3b9110a27", "lon": -76.96257383333334, "is_reserved": 0, "fusion_lon": 0.0, "lat": 38.9678185, "rental_uris": {"android": "https://dc.lft.to/lastmile_qr_scan", "ios": "https://dc.lft.to/lastmile_qr_scan"}, "fusion_lat": 0.0}, {"type": "electric_scooter", "bike_id": "b0a883ac81e228826cd262e17259b131", "is_disabled": 0, "name": "b0a883ac81e228826cd262e17259b131", "lon": -77.02303833333333, "is_reserved": 0, "fusion_lon": 0.0, "lat": 38.945541666666664, "rental_uris": {"android": "https://dc.lft.to/lastmile_qr_scan", "ios": "https://dc.lft.to/lastmile_qr_scan"}, "fusion_lat": 0.0}, {"type": "electric_scooter", "bike_id": "46359b61144ec8fdedf39b49aa51acfd", "is_disabled": 0, "name": "46359b61144ec8fdedf39b49aa51acfd", "lon": -77.0453, "is_reserved": 0, "fusion_lon": 0.0, "lat": 38.907306166666665, "rental_uris": {"android": "https://dc.lft.to/lastmile_qr_scan", "ios": "https://dc.lft.to/lastmile_qr_scan"}, "fusion_lat": 0.0}, {"type": "electric_bike", "bike_id": "aafdb18741e967696af85554098cbe2e", "is_disabled": 0, "name": "aafdb18741e967696af85554098cbe2e", "lon": -76.96094066666667, "is_reserved": 0, "fusion_lon": 0.0, "lat": 38.9185685, "rental_uris": {"android": "https://dc.lft.to/lastmile_qr_scan", "ios": "https://dc.lft.to/lastmile_qr_scan"}, "fusion_lat": 0.0}, {"type": "electric_bike", "bike_id": "024cc80ee76ab1151e2763b73e6f92c8", "is_disabled": 0, "name": "024cc80ee76ab1151e2763b73e6f92c8", "lon": -77.08403233333334, "is_reserved": 0, "fusion_lon": 0.0, "lat": 38.9130055, "rental_uris": {"android": "https://dc.lft.to/lastmile_qr_scan", "ios": "https://dc.lft.to/lastmile_qr_scan"}, "fusion_lat": 0.0}, {"type": "electric_scooter", "bike_id": "682c3896648d8ef1512303f604dbe345", "is_disabled": 0, "name": "682c3896648d8ef1512303f604dbe345", "lon": -77.0462355, "is_reserved": 0, "fusion_lon": 0.0, "lat": 38.90259116666667, "rental_uris": {"android": "https://dc.lft.to/lastmile_qr_scan", "ios": "https://dc.lft.to/lastmile_qr_scan"}, "fusion_lat": 0.0}, {"type": "electric_scooter", "bike_id": "160503625655f4d40eddd455c6de0128", "is_disabled": 0, "name": "160503625655f4d40eddd455c6de0128", "lon": -77.03400816666667, "is_reserved": 0, "fusion_lon": 0.0, "lat": 38.92436283333333, "rental_uris": {"android": "https://dc.lft.to/lastmile_qr_scan", "ios": "https://dc.lft.to/lastmile_qr_scan"}, "fusion_lat": 0.0}, {"type": "electric_scooter", "bike_id": "f246c61d23739ab196dfbaf906887296", "is_disabled": 0, "name": "f246c61d23739ab196dfbaf906887296", "lon": -77.02011933333333, "is_reserved": 0, "fusion_lon": 0.0, "lat": 38.924183166666666, "rental_uris": {"android": "https://dc.lft.to/lastmile_qr_scan", "ios": "https://dc.lft.to/lastmile_qr_scan"}, "fusion_lat": 0.0}, {"type": "electric_scooter", "bike_id": "f130f69fa8e2a3244de1ea2b3eeefa67", "is_disabled": 0, "name": "f130f69fa8e2a3244de1ea2b3eeefa67", "lon": -77.04134366666666, "is_reserved": 0, "fusion_lon": 0.0, "lat": 38.9027655, "rental_uris": {"android": "https://dc.lft.to/lastmile_qr_scan", "ios": "https://dc.lft.to/lastmile_qr_scan"}, "fusion_lat": 0.0}, {"type": "electric_scooter", "bike_id": "d1e9154d060d9382c87fb170f4ee0377", "is_disabled": 0, "name": "d1e9154d060d9382c87fb170f4ee0377", "lon": -77.0460785, "is_reserved": 0, "fusion_lon": 0.0, "lat": 38.93287433333333, "rental_uris": {"android": "https://dc.lft.to/lastmile_qr_scan", "ios": "https://dc.lft.to/lastmile_qr_scan"}, "fusion_lat": 0.0}, {"type": "electric_scooter", "bike_id": "07b20fb56bebd3dabc67168220512e57", "is_disabled": 0, "name": "07b20fb56bebd3dabc67168220512e57", "lon": -77.05020366666666, "is_reserved": 0, "fusion_lon": 0.0, "lat": 38.90524716666667, "rental_uris": {"android": "https://dc.lft.to/lastmile_qr_scan", "ios": "https://dc.lft.to/lastmile_qr_scan"}, "fusion_lat": 0.0}, {"type": "electric_scooter", "bike_id": "6b2d39e32af2a2b1a10a80e28eb45832", "is_disabled": 0, "name": "6b2d39e32af2a2b1a10a80e28eb45832", "lon": -77.05511533333333, "is_reserved": 0, "fusion_lon": 0.0, "lat": 38.928251333333336, "rental_uris": {"android": "https://dc.lft.to/lastmile_qr_scan", "ios": "https://dc.lft.to/lastmile_qr_scan"}, "fusion_lat": 0.0}, {"type": "electric_scooter", "bike_id": "c088d863c9d44f0a0de9452e5361ed38", "is_disabled": 0, "name": "c088d863c9d44f0a0de9452e5361ed38", "lon": -77.072744, "is_reserved": 0, "fusion_lon": 0.0, "lat": 38.934777, "rental_uris": {"android": "https://dc.lft.to/lastmile_qr_scan", "ios": "https://dc.lft.to/lastmile_qr_scan"}, "fusion_lat": 0.0}, {"type": "electric_scooter", "bike_id": "b18d76a593da7338acd7d1f40a55b044", "is_disabled": 0, "name": "b18d76a593da7338acd7d1f40a55b044", "lon": -76.94465533333333, "is_reserved": 0, "fusion_lon": 0.0, "lat": 38.8903235, "rental_uris": {"android": "https://dc.lft.to/lastmile_qr_scan", "ios": "https://dc.lft.to/lastmile_qr_scan"}, "fusion_lat": 0.0}, {"type": "electric_scooter", "bike_id": "61a631d5d165f115544cd2d1d9b7b5fe", "is_disabled": 0, "name": "61a631d5d165f115544cd2d1d9b7b5fe", "lon": -77.00125083333333, "is_reserved": 0, "fusion_lon": 0.0, "lat": 38.87887666666666, "rental_uris": {"android": "https://dc.lft.to/lastmile_qr_scan", "ios": "https://dc.lft.to/lastmile_qr_scan"}, "fusion_lat": 0.0}, {"type": "electric_scooter", "bike_id": "6ef97fbfd9c87f750cea34f466095db5", "is_disabled": 0, "name": "6ef97fbfd9c87f750cea34f466095db5", "lon": -77.021722, "is_reserved": 0, "fusion_lon": 0.0, "lat": 38.90833, "rental_uris": {"android": "https://dc.lft.to/lastmile_qr_scan", "ios": "https://dc.lft.to/lastmile_qr_scan"}, "fusion_lat": 0.0}, {"type": "electric_scooter", "bike_id": "f924a617d0286d865a79e8fd764f6a78", "is_disabled": 0, "name": "f924a617d0286d865a79e8fd764f6a78", "lon": -77.03459116666667, "is_reserved": 0, "fusion_lon": 0.0, "lat": 38.915729666666664, "rental_uris": {"android": "https://dc.lft.to/lastmile_qr_scan", "ios": "https://dc.lft.to/lastmile_qr_scan"}, "fusion_lat": 0.0}, {"type": "electric_scooter", "bike_id": "db82f15a27e953f0823b1abab1bfffd4", "is_disabled": 0, "name": "db82f15a27e953f0823b1abab1bfffd4", "lon": -77.01983233333333, "is_reserved": 0, "fusion_lon": 0.0, "lat": 38.8858695, "rental_uris": {"android": "https://dc.lft.to/lastmile_qr_scan", "ios": "https://dc.lft.to/lastmile_qr_scan"}, "fusion_lat": 0.0}, {"type": "electric_scooter", "bike_id": "f4168c93218abb022f609a18412e1c6c", "is_disabled": 0, "name": "f4168c93218abb022f609a18412e1c6c", "lon": -77.012028, "is_reserved": 0, "fusion_lon": 0.0, "lat": 38.90006866666667, "rental_uris": {"android": "https://dc.lft.to/lastmile_qr_scan", "ios": "https://dc.lft.to/lastmile_qr_scan"}, "fusion_lat": 0.0}, {"type": "electric_scooter", "bike_id": "8c10c1b775a15d0c86b3386cfbc7bb57", "is_disabled": 0, "name": "8c10c1b775a15d0c86b3386cfbc7bb57", "lon": -77.033361, "is_reserved": 0, "fusion_lon": 0.0, "lat": 38.91706083333333, "rental_uris": {"android": "https://dc.lft.to/lastmile_qr_scan", "ios": "https://dc.lft.to/lastmile_qr_scan"}, "fusion_lat": 0.0}, {"type": "electric_scooter", "bike_id": "1f6b305e5454c52111f43c59cfce35b7", "is_disabled": 0, "name": "1f6b305e5454c52111f43c59cfce35b7", "lon": -77.03494333333333, "is_reserved": 0, "fusion_lon": 0.0, "lat": 38.935694, "rental_uris": {"android": "https://dc.lft.to/lastmile_qr_scan", "ios": "https://dc.lft.to/lastmile_qr_scan"}, "fusion_lat": 0.0}, {"type": "electric_scooter", "bike_id": "4b7599975e3f0496c5633ed49e365da5", "is_disabled": 0, "name": "4b7599975e3f0496c5633ed49e365da5", "lon": -77.038688, "is_reserved": 0, "fusion_lon": 0.0, "lat": 38.90977633333333, "rental_uris": {"android": "https://dc.lft.to/lastmile_qr_scan", "ios": "https://dc.lft.to/lastmile_qr_scan"}, "fusion_lat": 0.0}, {"type": "electric_scooter", "bike_id": "465c414a77c24a71d7ae96113da8e044", "is_disabled": 0, "name": "465c414a77c24a71d7ae96113da8e044", "lon": -77.0191535, "is_reserved": 0, "fusion_lon": 0.0, "lat": 38.91728533333333, "rental_uris": {"android": "https://dc.lft.to/lastmile_qr_scan", "ios": "https://dc.lft.to/lastmile_qr_scan"}, "fusion_lat": 0.0}, {"type": "electric_bike", "bike_id": "02ea15bc488d5b901e600090f320f113", "is_disabled": 0, "name": "02ea15bc488d5b901e600090f320f113", "lon": -76.95060583333333, "is_reserved": 0, "fusion_lon": 0.0, "lat": 39.08510916666667, "rental_uris": {"android": "https://dc.lft.to/lastmile_qr_scan", "ios": "https://dc.lft.to/lastmile_qr_scan"}, "fusion_lat": 0.0}, {"type": "electric_scooter", "bike_id": "5c9e852272928467d53b21724c96970d", "is_disabled": 0, "name": "5c9e852272928467d53b21724c96970d", "lon": -77.03517783333334, "is_reserved": 0, "fusion_lon": 0.0, "lat": 38.935948833333335, "rental_uris": {"android": "https://dc.lft.to/lastmile_qr_scan", "ios": "https://dc.lft.to/lastmile_qr_scan"}, "fusion_lat": 0.0}, {"type": "electric_scooter", "bike_id": "79c1e974408dd1f5197ec0a63813f273", "is_disabled": 0, "name": "79c1e974408dd1f5197ec0a63813f273", "lon": -77.03489033333334, "is_reserved": 0, "fusion_lon": 0.0, "lat": 38.92143166666666, "rental_uris": {"android": "https://dc.lft.to/lastmile_qr_scan", "ios": "https://dc.lft.to/lastmile_qr_scan"}, "fusion_lat": 0.0}, {"type": "electric_scooter", "bike_id": "6f30fcdd5de54315aacddb444379b672", "is_disabled": 0, "name": "6f30fcdd5de54315aacddb444379b672", "lon": -77.01573883333333, "is_reserved": 0, "fusion_lon": 0.0, "lat": 38.88331866666667, "rental_uris": {"android": "https://dc.lft.to/lastmile_qr_scan", "ios": "https://dc.lft.to/lastmile_qr_scan"}, "fusion_lat": 0.0}, {"type": "electric_scooter", "bike_id": "1545c811f5de20ac6ea3a2eef12da13f", "is_disabled": 0, "name": "1545c811f5de20ac6ea3a2eef12da13f", "lon": -77.02150816666666, "is_reserved": 0, "fusion_lon": 0.0, "lat": 38.924428666666664, "rental_uris": {"android": "https://dc.lft.to/lastmile_qr_scan", "ios": "https://dc.lft.to/lastmile_qr_scan"}, "fusion_lat": 0.0}, {"type": "electric_scooter", "bike_id": "2ff8de14c4338f85292c280568f6db63", "is_disabled": 0, "name": "2ff8de14c4338f85292c280568f6db63", "lon": -77.0131095, "is_reserved": 0, "fusion_lon": 0.0, "lat": 38.897313833333335, "rental_uris": {"android": "https://dc.lft.to/lastmile_qr_scan", "ios": "https://dc.lft.to/lastmile_qr_scan"}, "fusion_lat": 0.0}, {"type": "electric_scooter", "bike_id": "1b793af4ae43e35a44753a407ae10a4f", "is_disabled": 0, "name": "1b793af4ae43e35a44753a407ae10a4f", "lon": -77.01840033333333, "is_reserved": 0, "fusion_lon": 0.0, "lat": 38.921475666666666, "rental_uris": {"android": "https://dc.lft.to/lastmile_qr_scan", "ios": "https://dc.lft.to/lastmile_qr_scan"}, "fusion_lat": 0.0}, {"type": "electric_scooter", "bike_id": "458d7f3a05a30da1a59f24faef55f9e5", "is_disabled": 0, "name": "458d7f3a05a30da1a59f24faef55f9e5", "lon": -76.98617066666667, "is_reserved": 0, "fusion_lon": 0.0, "lat": 38.907205166666664, "rental_uris": {"android": "https://dc.lft.to/lastmile_qr_scan", "ios": "https://dc.lft.to/lastmile_qr_scan"}, "fusion_lat": 0.0}, {"type": "electric_scooter", "bike_id": "74430c03289bdfbb6fc77949cf95790f", "is_disabled": 0, "name": "74430c03289bdfbb6fc77949cf95790f", "lon": -77.00332833333333, "is_reserved": 0, "fusion_lon": 0.0, "lat": 38.895038666666665, "rental_uris": {"android": "https://dc.lft.to/lastmile_qr_scan", "ios": "https://dc.lft.to/lastmile_qr_scan"}, "fusion_lat": 0.0}, {"type": "electric_scooter", "bike_id": "1f400e5ddc02ff3dd9cb3c876ffa4386", "is_disabled": 0, "name": "1f400e5ddc02ff3dd9cb3c876ffa4386", "lon": -77.0334945, "is_reserved": 0, "fusion_lon": 0.0, "lat": 38.9350325, "rental_uris": {"android": "https://dc.lft.to/lastmile_qr_scan", "ios": "https://dc.lft.to/lastmile_qr_scan"}, "fusion_lat": 0.0}, {"type": "electric_scooter", "bike_id": "d9e680127216106bb2fb0af01d15800a", "is_disabled": 0, "name": "d9e680127216106bb2fb0af01d15800a", "lon": -77.03651266666667, "is_reserved": 0, "fusion_lon": 0.0, "lat": 38.93589433333333, "rental_uris": {"android": "https://dc.lft.to/lastmile_qr_scan", "ios": "https://dc.lft.to/lastmile_qr_scan"}, "fusion_lat": 0.0}, {"type": "electric_scooter", "bike_id": "bdd882d3fbf167cf5e216243ea75f4b8", "is_disabled": 0, "name": "bdd882d3fbf167cf5e216243ea75f4b8", "lon": -77.07328666666666, "is_reserved": 0, "fusion_lon": 0.0, "lat": 38.92603283333333, "rental_uris": {"android": "https://dc.lft.to/lastmile_qr_scan", "ios": "https://dc.lft.to/lastmile_qr_scan"}, "fusion_lat": 0.0}, {"type": "electric_scooter", "bike_id": "7ef4bcdf14156c5f2ac43d4dfbf9d9df", "is_disabled": 0, "name": "7ef4bcdf14156c5f2ac43d4dfbf9d9df", "lon": -77.04425216666667, "is_reserved": 0, "fusion_lon": 0.0, "lat": 38.89620633333333, "rental_uris": {"android": "https://dc.lft.to/lastmile_qr_scan", "ios": "https://dc.lft.to/lastmile_qr_scan"}, "fusion_lat": 0.0}, {"type": "electric_bike", "bike_id": "bf5e993e884182e41cd2d64e848babf0", "is_disabled": 0, "name": "bf5e993e884182e41cd2d64e848babf0", "lon": -77.004131, "is_reserved": 0, "fusion_lon": 0.0, "lat": 38.9852965, "rental_uris": {"android": "https://dc.lft.to/lastmile_qr_scan", "ios": "https://dc.lft.to/lastmile_qr_scan"}, "fusion_lat": 0.0}, {"type": "electric_scooter", "bike_id": "3a4755bb3f43c8b88ce2c8efe0bdc19c", "is_disabled": 0, "name": "3a4755bb3f43c8b88ce2c8efe0bdc19c", "lon": -77.01672616666667, "is_reserved": 0, "fusion_lon": 0.0, "lat": 38.920389, "rental_uris": {"android": "https://dc.lft.to/lastmile_qr_scan", "ios": "https://dc.lft.to/lastmile_qr_scan"}, "fusion_lat": 0.0}, {"type": "electric_scooter", "bike_id": "8146c43ed79f3eacce59988c3581959e", "is_disabled": 0, "name": "8146c43ed79f3eacce59988c3581959e", "lon": -77.02738183333334, "is_reserved": 0, "fusion_lon": 0.0, "lat": 38.933815, "rental_uris": {"android": "https://dc.lft.to/lastmile_qr_scan", "ios": "https://dc.lft.to/lastmile_qr_scan"}, "fusion_lat": 0.0}, {"type": "electric_scooter", "bike_id": "51a5f29199684fd80faa474f8f483b78", "is_disabled": 0, "name": "51a5f29199684fd80faa474f8f483b78", "lon": -77.041791, "is_reserved": 0, "fusion_lon": 0.0, "lat": 38.905460833333336, "rental_uris": {"android": "https://dc.lft.to/lastmile_qr_scan", "ios": "https://dc.lft.to/lastmile_qr_scan"}, "fusion_lat": 0.0}, {"type": "electric_scooter", "bike_id": "a1718190f0ee3c4ab725d62ba9438557", "is_disabled": 0, "name": "a1718190f0ee3c4ab725d62ba9438557", "lon": -77.0318, "is_reserved": 0, "fusion_lon": 0.0, "lat": 38.911721166666666, "rental_uris": {"android": "https://dc.lft.to/lastmile_qr_scan", "ios": "https://dc.lft.to/lastmile_qr_scan"}, "fusion_lat": 0.0}, {"type": "electric_scooter", "bike_id": "3df41949c3116e8f8ae6ac659ccff8ea", "is_disabled": 0, "name": "3df41949c3116e8f8ae6ac659ccff8ea", "lon": -77.00026183333334, "is_reserved": 0, "fusion_lon": 0.0, "lat": 38.9002145, "rental_uris": {"android": "https://dc.lft.to/lastmile_qr_scan", "ios": "https://dc.lft.to/lastmile_qr_scan"}, "fusion_lat": 0.0}, {"type": "electric_scooter", "bike_id": "672c76cb5dd8fa4b040f250bfb9661f1", "is_disabled": 0, "name": "672c76cb5dd8fa4b040f250bfb9661f1", "lon": -77.02027033333333, "is_reserved": 0, "fusion_lon": 0.0, "lat": 38.934043333333335, "rental_uris": {"android": "https://dc.lft.to/lastmile_qr_scan", "ios": "https://dc.lft.to/lastmile_qr_scan"}, "fusion_lat": 0.0}, {"type": "electric_bike", "bike_id": "d1ec680a802589af03279693126813f2", "is_disabled": 0, "name": "d1ec680a802589af03279693126813f2", "lon": -76.99915916666667, "is_reserved": 0, "fusion_lon": 0.0, "lat": 38.86450516666667, "rental_uris": {"android": "https://dc.lft.to/lastmile_qr_scan", "ios": "https://dc.lft.to/lastmile_qr_scan"}, "fusion_lat": 0.0}, {"type": "electric_scooter", "bike_id": "1125c87874d1429ff0b9bc772f1889b0", "is_disabled": 0, "name": "1125c87874d1429ff0b9bc772f1889b0", "lon": -77.02581266666667, "is_reserved": 0, "fusion_lon": 0.0, "lat": 38.9042525, "rental_uris": {"android": "https://dc.lft.to/lastmile_qr_scan", "ios": "https://dc.lft.to/lastmile_qr_scan"}, "fusion_lat": 0.0}, {"type": "electric_scooter", "bike_id": "6576aa4ae166ab7a31ccf0596599d384", "is_disabled": 0, "name": "6576aa4ae166ab7a31ccf0596599d384", "lon": -76.936336, "is_reserved": 0, "fusion_lon": 0.0, "lat": 38.902663833333335, "rental_uris": {"android": "https://dc.lft.to/lastmile_qr_scan", "ios": "https://dc.lft.to/lastmile_qr_scan"}, "fusion_lat": 0.0}, {"type": "electric_scooter", "bike_id": "5b8e25e27c1f456cb914738efc7decdd", "is_disabled": 0, "name": "5b8e25e27c1f456cb914738efc7decdd", "lon": -77.05322866666667, "is_reserved": 0, "fusion_lon": 0.0, "lat": 38.925661166666664, "rental_uris": {"android": "https://dc.lft.to/lastmile_qr_scan", "ios": "https://dc.lft.to/lastmile_qr_scan"}, "fusion_lat": 0.0}, {"type": "electric_scooter", "bike_id": "1116881dfdb085a504cbafb435a78506", "is_disabled": 0, "name": "1116881dfdb085a504cbafb435a78506", "lon": -77.06238133333333, "is_reserved": 0, "fusion_lon": 0.0, "lat": 38.911569, "rental_uris": {"android": "https://dc.lft.to/lastmile_qr_scan", "ios": "https://dc.lft.to/lastmile_qr_scan"}, "fusion_lat": 0.0}, {"type": "electric_scooter", "bike_id": "77a0947e6d3e3619e319baa71a2880f6", "is_disabled": 0, "name": "77a0947e6d3e3619e319baa71a2880f6", "lon": -77.01630433333334, "is_reserved": 0, "fusion_lon": 0.0, "lat": 38.9005325, "rental_uris": {"android": "https://dc.lft.to/lastmile_qr_scan", "ios": "https://dc.lft.to/lastmile_qr_scan"}, "fusion_lat": 0.0}, {"type": "electric_bike", "bike_id": "f82dee0addee0c7be8740989a8430631", "is_disabled": 0, "name": "f82dee0addee0c7be8740989a8430631", "lon": -77.08964183333333, "is_reserved": 0, "fusion_lon": 0.0, "lat": 38.841126833333334, "rental_uris": {"android": "https://dc.lft.to/lastmile_qr_scan", "ios": "https://dc.lft.to/lastmile_qr_scan"}, "fusion_lat": 0.0}, {"type": "electric_scooter", "bike_id": "1c34880eff75580948708271a6f7087c", "is_disabled": 0, "name": "1c34880eff75580948708271a6f7087c", "lon": -76.98358, "is_reserved": 0, "fusion_lon": 0.0, "lat": 38.88731583333333, "rental_uris": {"android": "https://dc.lft.to/lastmile_qr_scan", "ios": "https://dc.lft.to/lastmile_qr_scan"}, "fusion_lat": 0.0}, {"type": "electric_bike", "bike_id": "5621a9f0d037ac0f4cf1f44add5bb15b", "is_disabled": 0, "name": "5621a9f0d037ac0f4cf1f44add5bb15b", "lon": -76.95743166666666, "is_reserved": 0, "fusion_lon": 0.0, "lat": 38.888577166666664, "rental_uris": {"android": "https://dc.lft.to/lastmile_qr_scan", "ios": "https://dc.lft.to/lastmile_qr_scan"}, "fusion_lat": 0.0}, {"type": "electric_bike", "bike_id": "baa9443cbac6df366a3de21179a2f21c", "is_disabled": 0, "name": "baa9443cbac6df366a3de21179a2f21c", "lon": -77.008853, "is_reserved": 0, "fusion_lon": 0.0, "lat": 38.905609, "rental_uris": {"android": "https://dc.lft.to/lastmile_qr_scan", "ios": "https://dc.lft.to/lastmile_qr_scan"}, "fusion_lat": 0.0}, {"type": "electric_scooter", "bike_id": "c6ff7fc7d4deb41d64fa8ec05e20bd2f", "is_disabled": 0, "name": "c6ff7fc7d4deb41d64fa8ec05e20bd2f", "lon": -77.03455333333333, "is_reserved": 0, "fusion_lon": 0.0, "lat": 38.91010166666667, "rental_uris": {"android": "https://dc.lft.to/lastmile_qr_scan", "ios": "https://dc.lft.to/lastmile_qr_scan"}, "fusion_lat": 0.0}, {"type": "electric_scooter", "bike_id": "57bfb3bad08c797b828584b2d87bcf31", "is_disabled": 0, "name": "57bfb3bad08c797b828584b2d87bcf31", "lon": -76.947157, "is_reserved": 0, "fusion_lon": 0.0, "lat": 38.890869, "rental_uris": {"android": "https://dc.lft.to/lastmile_qr_scan", "ios": "https://dc.lft.to/lastmile_qr_scan"}, "fusion_lat": 0.0}, {"type": "electric_scooter", "bike_id": "317ba526fbc4b03d1ab0d4252490f96f", "is_disabled": 0, "name": "317ba526fbc4b03d1ab0d4252490f96f", "lon": -77.03936383333334, "is_reserved": 0, "fusion_lon": 0.0, "lat": 38.92461866666667, "rental_uris": {"android": "https://dc.lft.to/lastmile_qr_scan", "ios": "https://dc.lft.to/lastmile_qr_scan"}, "fusion_lat": 0.0}, {"type": "electric_scooter", "bike_id": "6ca8f3d767586eee633dfd7fcc3cd90e", "is_disabled": 0, "name": "6ca8f3d767586eee633dfd7fcc3cd90e", "lon": -77.02506516666666, "is_reserved": 0, "fusion_lon": 0.0, "lat": 38.8944295, "rental_uris": {"android": "https://dc.lft.to/lastmile_qr_scan", "ios": "https://dc.lft.to/lastmile_qr_scan"}, "fusion_lat": 0.0}, {"type": "electric_scooter", "bike_id": "c372b0035bd0f6f394a46114de12969a", "is_disabled": 0, "name": "c372b0035bd0f6f394a46114de12969a", "lon": -77.04240383333334, "is_reserved": 0, "fusion_lon": 0.0, "lat": 38.9215425, "rental_uris": {"android": "https://dc.lft.to/lastmile_qr_scan", "ios": "https://dc.lft.to/lastmile_qr_scan"}, "fusion_lat": 0.0}, {"type": "electric_scooter", "bike_id": "65cfc68b84ab3796544dc7ea78a4679e", "is_disabled": 0, "name": "65cfc68b84ab3796544dc7ea78a4679e", "lon": -77.04487283333333, "is_reserved": 0, "fusion_lon": 0.0, "lat": 38.91922616666667, "rental_uris": {"android": "https://dc.lft.to/lastmile_qr_scan", "ios": "https://dc.lft.to/lastmile_qr_scan"}, "fusion_lat": 0.0}, {"type": "electric_scooter", "bike_id": "a3174073e7b06d9b800596da7625a7cf", "is_disabled": 0, "name": "a3174073e7b06d9b800596da7625a7cf", "lon": -77.01421783333333, "is_reserved": 0, "fusion_lon": 0.0, "lat": 38.89967033333333, "rental_uris": {"android": "https://dc.lft.to/lastmile_qr_scan", "ios": "https://dc.lft.to/lastmile_qr_scan"}, "fusion_lat": 0.0}, {"type": "electric_scooter", "bike_id": "3d8608b424c6083a6562f0e43aacff9e", "is_disabled": 0, "name": "3d8608b424c6083a6562f0e43aacff9e", "lon": -77.03843233333333, "is_reserved": 0, "fusion_lon": 0.0, "lat": 38.91002816666666, "rental_uris": {"android": "https://dc.lft.to/lastmile_qr_scan", "ios": "https://dc.lft.to/lastmile_qr_scan"}, "fusion_lat": 0.0}, {"type": "electric_scooter", "bike_id": "248d46807ffa265d0d344e2730d7eef8", "is_disabled": 0, "name": "248d46807ffa265d0d344e2730d7eef8", "lon": -77.02951133333333, "is_reserved": 0, "fusion_lon": 0.0, "lat": 38.90654633333333, "rental_uris": {"android": "https://dc.lft.to/lastmile_qr_scan", "ios": "https://dc.lft.to/lastmile_qr_scan"}, "fusion_lat": 0.0}, {"type": "electric_scooter", "bike_id": "8be2cb96f468e38f696a5d2fc50e75a2", "is_disabled": 0, "name": "8be2cb96f468e38f696a5d2fc50e75a2", "lon": -76.9915565, "is_reserved": 0, "fusion_lon": 0.0, "lat": 38.9052315, "rental_uris": {"android": "https://dc.lft.to/lastmile_qr_scan", "ios": "https://dc.lft.to/lastmile_qr_scan"}, "fusion_lat": 0.0}, {"type": "electric_scooter", "bike_id": "fc3c43baab3eed611430d469f0804513", "is_disabled": 0, "name": "fc3c43baab3eed611430d469f0804513", "lon": -77.0093675, "is_reserved": 0, "fusion_lon": 0.0, "lat": 38.91801316666667, "rental_uris": {"android": "https://dc.lft.to/lastmile_qr_scan", "ios": "https://dc.lft.to/lastmile_qr_scan"}, "fusion_lat": 0.0}, {"type": "electric_scooter", "bike_id": "d31b31570237de8033fedf185efd8fce", "is_disabled": 0, "name": "d31b31570237de8033fedf185efd8fce", "lon": -77.0365315, "is_reserved": 0, "fusion_lon": 0.0, "lat": 38.912569500000004, "rental_uris": {"android": "https://dc.lft.to/lastmile_qr_scan", "ios": "https://dc.lft.to/lastmile_qr_scan"}, "fusion_lat": 0.0}, {"type": "electric_scooter", "bike_id": "ca1e8899ed2b7d8ce989cf7c49b171c2", "is_disabled": 0, "name": "ca1e8899ed2b7d8ce989cf7c49b171c2", "lon": -77.0217695, "is_reserved": 0, "fusion_lon": 0.0, "lat": 38.919923, "rental_uris": {"android": "https://dc.lft.to/lastmile_qr_scan", "ios": "https://dc.lft.to/lastmile_qr_scan"}, "fusion_lat": 0.0}, {"type": "electric_scooter", "bike_id": "e82317420f854bca3840a2981790b4a2", "is_disabled": 0, "name": "e82317420f854bca3840a2981790b4a2", "lon": -77.06105883333333, "is_reserved": 0, "fusion_lon": 0.0, "lat": 38.9021645, "rental_uris": {"android": "https://dc.lft.to/lastmile_qr_scan", "ios": "https://dc.lft.to/lastmile_qr_scan"}, "fusion_lat": 0.0}, {"type": "electric_scooter", "bike_id": "2cda242ff205e0906ce43e9f071c8261", "is_disabled": 0, "name": "2cda242ff205e0906ce43e9f071c8261", "lon": -77.06655516666666, "is_reserved": 0, "fusion_lon": 0.0, "lat": 38.95054116666667, "rental_uris": {"android": "https://dc.lft.to/lastmile_qr_scan", "ios": "https://dc.lft.to/lastmile_qr_scan"}, "fusion_lat": 0.0}, {"type": "electric_scooter", "bike_id": "ee0bc66c49db1c606bcde90e10d641c3", "is_disabled": 0, "name": "ee0bc66c49db1c606bcde90e10d641c3", "lon": -77.00330733333334, "is_reserved": 0, "fusion_lon": 0.0, "lat": 38.89499883333333, "rental_uris": {"android": "https://dc.lft.to/lastmile_qr_scan", "ios": "https://dc.lft.to/lastmile_qr_scan"}, "fusion_lat": 0.0}, {"type": "electric_scooter", "bike_id": "182e5574e8383a275cdf2e2ba3b0a267", "is_disabled": 0, "name": "182e5574e8383a275cdf2e2ba3b0a267", "lon": -77.0294015, "is_reserved": 0, "fusion_lon": 0.0, "lat": 38.90717933333333, "rental_uris": {"android": "https://dc.lft.to/lastmile_qr_scan", "ios": "https://dc.lft.to/lastmile_qr_scan"}, "fusion_lat": 0.0}, {"type": "electric_scooter", "bike_id": "3a7f2133e47298640346374427af67f3", "is_disabled": 0, "name": "3a7f2133e47298640346374427af67f3", "lon": -77.02287633333333, "is_reserved": 0, "fusion_lon": 0.0, "lat": 38.916851333333334, "rental_uris": {"android": "https://dc.lft.to/lastmile_qr_scan", "ios": "https://dc.lft.to/lastmile_qr_scan"}, "fusion_lat": 0.0}, {"type": "electric_scooter", "bike_id": "f11ecf9dfa326aa7bf30f40bfc318b9b", "is_disabled": 0, "name": "f11ecf9dfa326aa7bf30f40bfc318b9b", "lon": -76.99505866666667, "is_reserved": 0, "fusion_lon": 0.0, "lat": 38.88076, "rental_uris": {"android": "https://dc.lft.to/lastmile_qr_scan", "ios": "https://dc.lft.to/lastmile_qr_scan"}, "fusion_lat": 0.0}, {"type": "electric_bike", "bike_id": "6c5907f3f98ba01cb1d62215a27ddf4e", "is_disabled": 0, "name": "6c5907f3f98ba01cb1d62215a27ddf4e", "lon": -77.23411566666667, "is_reserved": 0, "fusion_lon": 0.0, "lat": 38.8758005, "rental_uris": {"android": "https://dc.lft.to/lastmile_qr_scan", "ios": "https://dc.lft.to/lastmile_qr_scan"}, "fusion_lat": 0.0}, {"type": "electric_scooter", "bike_id": "58e3261f40aa5373db8ad16455382604", "is_disabled": 0, "name": "58e3261f40aa5373db8ad16455382604", "lon": -77.03705133333334, "is_reserved": 0, "fusion_lon": 0.0, "lat": 38.926377333333335, "rental_uris": {"android": "https://dc.lft.to/lastmile_qr_scan", "ios": "https://dc.lft.to/lastmile_qr_scan"}, "fusion_lat": 0.0}, {"type": "electric_scooter", "bike_id": "a5d0b13ca181b42c1a15ed209ab185d0", "is_disabled": 0, "name": "a5d0b13ca181b42c1a15ed209ab185d0", "lon": -77.0184215, "is_reserved": 0, "fusion_lon": 0.0, "lat": 38.909604333333334, "rental_uris": {"android": "https://dc.lft.to/lastmile_qr_scan", "ios": "https://dc.lft.to/lastmile_qr_scan"}, "fusion_lat": 0.0}, {"type": "electric_scooter", "bike_id": "b0c56d1cc9284a8338c0f0c48c19c133", "is_disabled": 0, "name": "b0c56d1cc9284a8338c0f0c48c19c133", "lon": -77.041682, "is_reserved": 0, "fusion_lon": 0.0, "lat": 38.90129783333333, "rental_uris": {"android": "https://dc.lft.to/lastmile_qr_scan", "ios": "https://dc.lft.to/lastmile_qr_scan"}, "fusion_lat": 0.0}, {"type": "electric_scooter", "bike_id": "3c22f7f80410581fbdba25f7dbe4a2f6", "is_disabled": 0, "name": "3c22f7f80410581fbdba25f7dbe4a2f6", "lon": -77.03637183333333, "is_reserved": 0, "fusion_lon": 0.0, "lat": 38.925945666666664, "rental_uris": {"android": "https://dc.lft.to/lastmile_qr_scan", "ios": "https://dc.lft.to/lastmile_qr_scan"}, "fusion_lat": 0.0}, {"type": "electric_scooter", "bike_id": "aa2b8045f0c1e3be4f4f832d3e67b8a0", "is_disabled": 0, "name": "aa2b8045f0c1e3be4f4f832d3e67b8a0", "lon": -77.0395985, "is_reserved": 0, "fusion_lon": 0.0, "lat": 38.89248583333333, "rental_uris": {"android": "https://dc.lft.to/lastmile_qr_scan", "ios": "https://dc.lft.to/lastmile_qr_scan"}, "fusion_lat": 0.0}, {"type": "electric_scooter", "bike_id": "d3a6a9bdfb18e819e3c1a4fecb4febdb", "is_disabled": 0, "name": "d3a6a9bdfb18e819e3c1a4fecb4febdb", "lon": -77.00217316666667, "is_reserved": 0, "fusion_lon": 0.0, "lat": 38.90001933333333, "rental_uris": {"android": "https://dc.lft.to/lastmile_qr_scan", "ios": "https://dc.lft.to/lastmile_qr_scan"}, "fusion_lat": 0.0}, {"type": "electric_scooter", "bike_id": "2c009dfc434db8e875330ca4e01b534b", "is_disabled": 0, "name": "2c009dfc434db8e875330ca4e01b534b", "lon": -77.0089415, "is_reserved": 0, "fusion_lon": 0.0, "lat": 38.90063283333333, "rental_uris": {"android": "https://dc.lft.to/lastmile_qr_scan", "ios": "https://dc.lft.to/lastmile_qr_scan"}, "fusion_lat": 0.0}, {"type": "electric_scooter", "bike_id": "7cc4ab98abc340611333cf6383c79fd3", "is_disabled": 0, "name": "7cc4ab98abc340611333cf6383c79fd3", "lon": -77.06037766666667, "is_reserved": 0, "fusion_lon": 0.0, "lat": 38.9022395, "rental_uris": {"android": "https://dc.lft.to/lastmile_qr_scan", "ios": "https://dc.lft.to/lastmile_qr_scan"}, "fusion_lat": 0.0}, {"type": "electric_scooter", "bike_id": "2303b2e094b3667e76ed205fc134873f", "is_disabled": 0, "name": "2303b2e094b3667e76ed205fc134873f", "lon": -77.0433355, "is_reserved": 0, "fusion_lon": 0.0, "lat": 38.91699066666666, "rental_uris": {"android": "https://dc.lft.to/lastmile_qr_scan", "ios": "https://dc.lft.to/lastmile_qr_scan"}, "fusion_lat": 0.0}, {"type": "electric_scooter", "bike_id": "7cfd88e9f9c4ab2eb6fdf2ec6c2ac067", "is_disabled": 0, "name": "7cfd88e9f9c4ab2eb6fdf2ec6c2ac067", "lon": -77.02203133333333, "is_reserved": 0, "fusion_lon": 0.0, "lat": 38.91765, "rental_uris": {"android": "https://dc.lft.to/lastmile_qr_scan", "ios": "https://dc.lft.to/lastmile_qr_scan"}, "fusion_lat": 0.0}, {"type": "electric_scooter", "bike_id": "1af9c2e59229748f2364979eecf4262f", "is_disabled": 0, "name": "1af9c2e59229748f2364979eecf4262f", "lon": -77.02563016666667, "is_reserved": 0, "fusion_lon": 0.0, "lat": 38.941895833333334, "rental_uris": {"android": "https://dc.lft.to/lastmile_qr_scan", "ios": "https://dc.lft.to/lastmile_qr_scan"}, "fusion_lat": 0.0}, {"type": "electric_scooter", "bike_id": "c47245b07a574dec8c72c3949bf67fb5", "is_disabled": 0, "name": "c47245b07a574dec8c72c3949bf67fb5", "lon": -77.0713625, "is_reserved": 0, "fusion_lon": 0.0, "lat": 38.92621966666667, "rental_uris": {"android": "https://dc.lft.to/lastmile_qr_scan", "ios": "https://dc.lft.to/lastmile_qr_scan"}, "fusion_lat": 0.0}, {"type": "electric_scooter", "bike_id": "c58ae71c4733c723f189d835f8493e69", "is_disabled": 0, "name": "c58ae71c4733c723f189d835f8493e69", "lon": -77.04599216666666, "is_reserved": 0, "fusion_lon": 0.0, "lat": 38.902115333333334, "rental_uris": {"android": "https://dc.lft.to/lastmile_qr_scan", "ios": "https://dc.lft.to/lastmile_qr_scan"}, "fusion_lat": 0.0},