{"data": {"bikes": [{"is_disabled": 0, "fusion_lon": 0.0, "fusion_lat": 0.0, "lat": 38.903144833333336, "type": "electric_scooter", "lon": -76.98008433333334, "bike_id": "d5c14c05bbf906aa7726671d0650da79", "rental_uris": {"android": "https://dc.lft.to/lastmile_qr_scan", "ios": "https://dc.lft.to/lastmile_qr_scan"}, "name": "d5c14c05bbf906aa7726671d0650da79", "is_reserved": 0}, {"is_disabled": 0, "fusion_lon": 0.0, "fusion_lat": 0.0, "lat": 38.89735866666667, "type": "electric_bike", "lon": -76.905409, "bike_id": "50c08470197a1f722fd007f6a1449ced", "rental_uris": {"android": "https://dc.lft.to/lastmile_qr_scan", "ios": "https://dc.lft.to/lastmile_qr_scan"}, "name": "50c08470197a1f722fd007f6a1449ced", "is_reserved": 0}, {"is_disabled": 0, "fusion_lon": 0.0, "fusion_lat": 0.0, "lat": 39.0520865, "type": "electric_bike", "lon": -77.04407416666666, "bike_id": "269a4e8b35aaf8cc453d227c60348221", "rental_uris": {"android": "https://dc.lft.to/lastmile_qr_scan", "ios": "https://dc.lft.to/lastmile_qr_scan"}, "name": "269a4e8b35aaf8cc453d227c60348221", "is_reserved": 0}, {"is_disabled": 0, "fusion_lon": 0.0, "fusion_lat": 0.0, "lat": 38.968188833333336, "type": "electric_scooter", "lon": -77.00890166666667, "bike_id": "2c0f93a2562d34ab0e6778609031c0e9", "rental_uris": {"android": "https://dc.lft.to/lastmile_qr_scan", "ios": "https://dc.lft.to/lastmile_qr_scan"}, "name": "2c0f93a2562d34ab0e6778609031c0e9", "is_reserved": 0}, {"is_disabled": 0, "fusion_lon": 0.0, "fusion_lat": 0.0, "lat": 38.91659166666667, "type": "electric_scooter", "lon": -77.04652666666667, "bike_id": "008588f63518e068b20fc072b5ba2521", "rental_uris": {"android": "https://dc.lft.to/lastmile_qr_scan", "ios": "https://dc.lft.to/lastmile_qr_scan"}, "name": "008588f63518e068b20fc072b5ba2521", "is_reserved": 0}, {"is_disabled": 0, "fusion_lon": 0.0, "fusion_lat": 0.0, "lat": 38.9043225, "type": "electric_scooter", "lon": -77.0316905, "bike_id": "7158767e5848f86e4752ced3908a4693", "rental_uris": {"android": "https://dc.lft.to/lastmile_qr_scan", "ios": "https://dc.lft.to/lastmile_qr_scan"}, "name": "7158767e5848f86e4752ced3908a4693", "is_reserved": 0}, {"is_disabled": 0, "fusion_lon": 0.0, "fusion_lat": 0.0, "lat": 38.939144166666665, "type": "electric_scooter", "lon": -77.077951, "bike_id": "08f5ce24e7e6629993d8d094bbd96614", "rental_uris": {"android": "https://dc.lft.to/lastmile_qr_scan", "ios": "https://dc.lft.to/lastmile_qr_scan"}, "name": "08f5ce24e7e6629993d8d094bbd96614", "is_reserved": 0}, {"is_disabled": 0, "fusion_lon": 0.0, "fusion_lat": 0.0, "lat": 38.91505383333333, "type": "electric_scooter", "lon": -77.0092245, "bike_id": "90a90ceb5aaa372729a669b352fd226b", "rental_uris": {"android": "https://dc.lft.to/lastmile_qr_scan", "ios": "https://dc.lft.to/lastmile_qr_scan"}, "name": "90a90ceb5aaa372729a669b352fd226b", "is_reserved": 0}, {"is_disabled": 0, "fusion_lon": 0.0, "fusion_lat": 0.0, "lat": 38.88689333333333, "type": "electric_scooter", "lon": -77.01374116666666, "bike_id": "6f4c3b5dca0651b3c0501bf0e63147fb", "rental_uris": {"android": "https://dc.lft.to/lastmile_qr_scan", "ios": "https://dc.lft.to/lastmile_qr_scan"}, "name": "6f4c3b5dca0651b3c0501bf0e63147fb", "is_reserved": 0}, {"is_disabled": 0, "fusion_lon": 0.0, "fusion_lat": 0.0, "lat": 38.90178616666667, "type": "electric_scooter", "lon": -77.050099, "bike_id": "02fbbb6354379ca73865fe5db9588348", "rental_uris": {"android": "https://dc.lft.to/lastmile_qr_scan", "ios": "https://dc.lft.to/lastmile_qr_scan"}, "name": "02fbbb6354379ca73865fe5db9588348", "is_reserved": 0}, {"is_disabled": 0, "fusion_lon": 0.0, "fusion_lat": 0.0, "lat": 38.88673133333333, "type": "electric_scooter", "lon": -77.00360516666667, "bike_id": "ecdaafc4a9ab23fd130da2e967d61256", "rental_uris": {"android": "https://dc.lft.to/lastmile_qr_scan", "ios": "https://dc.lft.to/lastmile_qr_scan"}, "name": "ecdaafc4a9ab23fd130da2e967d61256", "is_reserved": 0}, {"is_disabled": 0, "fusion_lon": 0.0, "fusion_lat": 0.0, "lat": 38.927385666666666, "type": "electric_scooter", "lon": -77.027075, "bike_id": "867142947ee5cf5b5f0b048081c98537", "rental_uris": {"android": "https://dc.lft.to/lastmile_qr_scan", "ios": "https://dc.lft.to/lastmile_qr_scan"}, "name": "867142947ee5cf5b5f0b048081c98537", "is_reserved": 0}, {"is_disabled": 0, "fusion_lon": 0.0, "fusion_lat": 0.0, "lat": 38.92479516666667, "type": "electric_scooter", "lon": -77.03786716666667, "bike_id": "279a69ec08836f7e7a1862d043591c8d", "rental_uris": {"android": "https://dc.lft.to/lastmile_qr_scan", "ios": "https://dc.lft.to/lastmile_qr_scan"}, "name": "279a69ec08836f7e7a1862d043591c8d", "is_reserved": 0}, {"is_disabled": 0, "fusion_lon": 0.0, "fusion_lat": 0.0, "lat": 38.91607116666667, "type": "electric_scooter", "lon": -77.0460105, "bike_id": "0b78d5816dfc643028b7ba15d5c93e5f", "rental_uris": {"android": "https://dc.lft.to/lastmile_qr_scan", "ios": "https://dc.lft.to/lastmile_qr_scan"}, "name": "0b78d5816dfc643028b7ba15d5c93e5f", "is_reserved": 0}, {"is_disabled": 0, "fusion_lon": 0.0, "fusion_lat": 0.0, "lat": 38.913497166666666, "type": "electric_scooter", "lon": -77.064139, "bike_id": "3aeccfe4ffd85f5027c2dfb74340f6a4", "rental_uris": {"android": "https://dc.lft.to/lastmile_qr_scan", "ios": "https://dc.lft.to/lastmile_qr_scan"}, "name": "3aeccfe4ffd85f5027c2dfb74340f6a4", "is_reserved": 0}, {"is_disabled": 0, "fusion_lon": 0.0, "fusion_lat": 0.0, "lat": 38.88636783333333, "type": "electric_scooter", "lon": -76.95512466666666, "bike_id": "71d3a941f458164b48faa4929252db08", "rental_uris": {"android": "https://dc.lft.to/lastmile_qr_scan", "ios": "https://dc.lft.to/lastmile_qr_scan"}, "name": "71d3a941f458164b48faa4929252db08", "is_reserved": 0}, {"is_disabled": 0, "fusion_lon": 0.0, "fusion_lat": 0.0, "lat": 38.915912166666665, "type": "electric_scooter", "lon": -77.021299, "bike_id": "6f47de6ff9cd726489611e186efd00c3", "rental_uris": {"android": "https://dc.lft.to/lastmile_qr_scan", "ios": "https://dc.lft.to/lastmile_qr_scan"}, "name": "6f47de6ff9cd726489611e186efd00c3", "is_reserved": 0}, {"is_disabled": 0, "fusion_lon": 0.0, "fusion_lat": 0.0, "lat": 38.9000615, "type": "electric_scooter", "lon": -77.03935166666666, "bike_id": "eefd392a7f86d3ce13f204d1fdf5ac9b", "rental_uris": {"android": "https://dc.lft.to/lastmile_qr_scan", "ios": "https://dc.lft.to/lastmile_qr_scan"}, "name": "eefd392a7f86d3ce13f204d1fdf5ac9b", "is_reserved": 0}, {"is_disabled": 0, "fusion_lon": 0.0, "fusion_lat": 0.0, "lat": 38.939694, "type": "electric_scooter", "lon": -77.03282466666667, "bike_id": "c9e3cae28c74d9040230401a1d64f5af", "rental_uris": {"android": "https://dc.lft.to/lastmile_qr_scan", "ios": "https://dc.lft.to/lastmile_qr_scan"}, "name": "c9e3cae28c74d9040230401a1d64f5af", "is_reserved": 0}, {"is_disabled": 0, "fusion_lon": 0.0, "fusion_lat": 0.0, "lat": 38.905299, "type": "electric_scooter", "lon": -77.05641733333333, "bike_id": "d464d224f77fa6a3ad9f671154d1fe09", "rental_uris": {"android": "https://dc.lft.to/lastmile_qr_scan", "ios": "https://dc.lft.to/lastmile_qr_scan"}, "name": "d464d224f77fa6a3ad9f671154d1fe09", "is_reserved": 0}, {"is_disabled": 0, "fusion_lon": 0.0, "fusion_lat": 0.0, "lat": 38.923744666666664, "type": "electric_scooter", "lon": -77.05030533333333, "bike_id": "e3b610a6a9b4953754978cd99c7e9fc3", "rental_uris": {"android": "https://dc.lft.to/lastmile_qr_scan", "ios": "https://dc.lft.to/lastmile_qr_scan"}, "name": "e3b610a6a9b4953754978cd99c7e9fc3", "is_reserved": 0}, {"is_disabled": 0, "fusion_lon": 0.0, "fusion_lat": 0.0, "lat": 38.912684, "type": "electric_scooter", "lon": -77.02562566666667, "bike_id": "1c52e8f023606eb3d0c99c4137186653", "rental_uris": {"android": "https://dc.lft.to/lastmile_qr_scan", "ios": "https://dc.lft.to/lastmile_qr_scan"}, "name": "1c52e8f023606eb3d0c99c4137186653", "is_reserved": 0}, {"is_disabled": 0, "fusion_lon": 0.0, "fusion_lat": 0.0, "lat": 38.930273, "type": "electric_scooter", "lon": -77.03452116666666, "bike_id": "d5c8b5a9eebd65f40b6f909b4ce44080", "rental_uris": {"android": "https://dc.lft.to/lastmile_qr_scan", "ios": "https://dc.lft.to/lastmile_qr_scan"}, "name": "d5c8b5a9eebd65f40b6f909b4ce44080", "is_reserved": 0}, {"is_disabled": 0, "fusion_lon": 0.0, "fusion_lat": 0.0, "lat": 38.885367, "type": "electric_scooter", "lon": -76.927057, "bike_id": "0c93bb24cf1cc18620a2050c7dc7d37b", "rental_uris": {"android": "https://dc.lft.to/lastmile_qr_scan", "ios": "https://dc.lft.to/lastmile_qr_scan"}, "name": "0c93bb24cf1cc18620a2050c7dc7d37b", "is_reserved": 0}, {"is_disabled": 0, "fusion_lon": 0.0, "fusion_lat": 0.0, "lat": 38.898335333333335, "type": "electric_scooter", "lon": -76.9463465, "bike_id": "b8dbc2d084045d006150ee550ed5217f", "rental_uris": {"android": "https://dc.lft.to/lastmile_qr_scan", "ios": "https://dc.lft.to/lastmile_qr_scan"}, "name": "b8dbc2d084045d006150ee550ed5217f", "is_reserved": 0}, {"is_disabled": 0, "fusion_lon": 0.0, "fusion_lat": 0.0, "lat": 38.82782616666667, "type": "electric_bike", "lon": -77.11080466666667, "bike_id": "33e90ad8ee6e5dee483447f80d240cbf", "rental_uris": {"android": "https://dc.lft.to/lastmile_qr_scan", "ios": "https://dc.lft.to/lastmile_qr_scan"}, "name": "33e90ad8ee6e5dee483447f80d240cbf", "is_reserved": 0}, {"is_disabled": 0, "fusion_lon": 0.0, "fusion_lat": 0.0, "lat": 38.96265283333334, "type": "electric_scooter", "lon": -77.02898333333333, "bike_id": "045d94d9e266926d763fa12f54f16857", "rental_uris": {"android": "https://dc.lft.to/lastmile_qr_scan", "ios": "https://dc.lft.to/lastmile_qr_scan"}, "name": "045d94d9e266926d763fa12f54f16857", "is_reserved": 0}, {"is_disabled": 0, "fusion_lon": 0.0, "fusion_lat": 0.0, "lat": 38.923835833333335, "type": "electric_scooter", "lon": -77.03019716666667, "bike_id": "a7e8be8fcb18b07b3d798eceb2857f1f", "rental_uris": {"android": "https://dc.lft.to/lastmile_qr_scan", "ios": "https://dc.lft.to/lastmile_qr_scan"}, "name": "a7e8be8fcb18b07b3d798eceb2857f1f", "is_reserved": 0}, {"is_disabled": 0, "fusion_lon": 0.0, "fusion_lat": 0.0, "lat": 38.907910666666666, "type": "electric_scooter", "lon": -77.03041866666666, "bike_id": "c370172d5eaa80b453fe423de91fc4d7", "rental_uris": {"android": "https://dc.lft.to/lastmile_qr_scan", "ios": "https://dc.lft.to/lastmile_qr_scan"}, "name": "c370172d5eaa80b453fe423de91fc4d7", "is_reserved": 0}, {"is_disabled": 0, "fusion_lon": 0.0, "fusion_lat": 0.0, "lat": 38.904793833333336, "type": "electric_bike", "lon": -76.95053566666667, "bike_id": "3ab9dee4d880a196ecbf50d9436ec8f0", "rental_uris": {"android": "https://dc.lft.to/lastmile_qr_scan", "ios": "https://dc.lft.to/lastmile_qr_scan"}, "name": "3ab9dee4d880a196ecbf50d9436ec8f0", "is_reserved": 0}, {"is_disabled": 0, "fusion_lon": 0.0, "fusion_lat": 0.0, "lat": 38.86524433333334, "type": "electric_scooter", "lon": -76.98964483333333, "bike_id": "1d362a073b1c4031df4b3a90b53ce1b9", "rental_uris": {"android": "https://dc.lft.to/lastmile_qr_scan", "ios": "https://dc.lft.to/lastmile_qr_scan"}, "name": "1d362a073b1c4031df4b3a90b53ce1b9", "is_reserved": 0}, {"is_disabled": 0, "fusion_lon": 0.0, "fusion_lat": 0.0, "lat": 38.899044, "type": "electric_scooter", "lon": -77.03975, "bike_id": "c681938dc7175fb22b6c7fed4ecfe368", "rental_uris": {"android": "https://dc.lft.to/lastmile_qr_scan", "ios": "https://dc.lft.to/lastmile_qr_scan"}, "name": "c681938dc7175fb22b6c7fed4ecfe368", "is_reserved": 0}, {"is_disabled": 0, "fusion_lon": 0.0, "fusion_lat": 0.0, "lat": 38.8461985, "type": "electric_scooter", "lon": -76.996277, "bike_id": "023376a7f92fba8b17d48fad98f48a97", "rental_uris": {"android": "https://dc.lft.to/lastmile_qr_scan", "ios": "https://dc.lft.to/lastmile_qr_scan"}, "name": "023376a7f92fba8b17d48fad98f48a97", "is_reserved": 0}, {"is_disabled": 0, "fusion_lon": 0.0, "fusion_lat": 0.0, "lat": 38.903333833333335, "type": "electric_scooter", "lon": -76.98018766666667, "bike_id": "e9f7c9b64b184344ebc3e6b622aaaff9", "rental_uris": {"android": "https://dc.lft.to/lastmile_qr_scan", "ios": "https://dc.lft.to/lastmile_qr_scan"}, "name": "e9f7c9b64b184344ebc3e6b622aaaff9", "is_reserved": 0}, {"is_disabled": 0, "fusion_lon": 0.0, "fusion_lat": 0.0, "lat": 38.924435, "type": "electric_scooter", "lon": -77.02607033333334, "bike_id": "c644c4b60c1f83b5eb6ed67c17249d9e", "rental_uris": {"android": "https://dc.lft.to/lastmile_qr_scan", "ios": "https://dc.lft.to/lastmile_qr_scan"}, "name": "c644c4b60c1f83b5eb6ed67c17249d9e", "is_reserved": 0}, {"is_disabled": 0, "fusion_lon": 0.0, "fusion_lat": 0.0, "lat": 38.96016483333333, "type": "electric_scooter", "lon": -77.03313883333334, "bike_id": "2b5d042f20f3779c2e61d6ae640d485d", "rental_uris": {"android": "https://dc.lft.to/lastmile_qr_scan", "ios": "https://dc.lft.to/lastmile_qr_scan"}, "name": "2b5d042f20f3779c2e61d6ae640d485d", "is_reserved": 0}, {"is_disabled": 0, "fusion_lon": 0.0, "fusion_lat": 0.0, "lat": 38.918133833333336, "type": "electric_scooter", "lon": -77.0313495, "bike_id": "b494b32d50e883170b291bf2e319a12d", "rental_uris": {"android": "https://dc.lft.to/lastmile_qr_scan", "ios": "https://dc.lft.to/lastmile_qr_scan"}, "name": "b494b32d50e883170b291bf2e319a12d", "is_reserved": 0}, {"is_disabled": 0, "fusion_lon": 0.0, "fusion_lat": 0.0, "lat": 38.927661, "type": "electric_scooter", "lon": -77.02782133333334, "bike_id": "ac06dd6bd4ff5ebf1bdedac4e685da3d", "rental_uris": {"android": "https://dc.lft.to/lastmile_qr_scan", "ios": "https://dc.lft.to/lastmile_qr_scan"}, "name": "ac06dd6bd4ff5ebf1bdedac4e685da3d", "is_reserved": 0}, {"is_disabled": 0, "fusion_lon": 0.0, "fusion_lat": 0.0, "lat": 38.83120533333334, "type": "electric_bike", "lon": -77.043267, "bike_id": "9c5ed14b64bc30cb732720bdaf7d9aa4", "rental_uris": {"android": "https://dc.lft.to/lastmile_qr_scan", "ios": "https://dc.lft.to/lastmile_qr_scan"}, "name": "9c5ed14b64bc30cb732720bdaf7d9aa4", "is_reserved": 0}, {"is_disabled": 0, "fusion_lon": 0.0, "fusion_lat": 0.0, "lat": 38.94306616666667, "type": "electric_scooter", "lon": -77.02350316666667, "bike_id": "f3944ef61f9a5dc79a87956370e9fe4f", "rental_uris": {"android": "https://dc.lft.to/lastmile_qr_scan", "ios": "https://dc.lft.to/lastmile_qr_scan"}, "name": "f3944ef61f9a5dc79a87956370e9fe4f", "is_reserved": 0}, {"is_disabled": 0, "fusion_lon": 0.0, "fusion_lat": 0.0, "lat": 38.930474833333335, "type": "electric_scooter", "lon": -77.00417083333333, "bike_id": "ba3fa264f3ccc27df16d3347e5d210c1", "rental_uris": {"android": "https://dc.lft.to/lastmile_qr_scan", "ios": "https://dc.lft.to/lastmile_qr_scan"}, "name": "ba3fa264f3ccc27df16d3347e5d210c1", "is_reserved": 0}, {"is_disabled": 0, "fusion_lon": 0.0, "fusion_lat": 0.0, "lat": 38.93877066666667, "type": "electric_scooter", "lon": -77.03335316666667, "bike_id": "e77e7668e6f3956dd08721b15924d5dd", "rental_uris": {"android": "https://dc.lft.to/lastmile_qr_scan", "ios": "https://dc.lft.to/lastmile_qr_scan"}, "name": "e77e7668e6f3956dd08721b15924d5dd", "is_reserved": 0}, {"is_disabled": 0, "fusion_lon": 0.0, "fusion_lat": 0.0, "lat": 39.1151525, "type": "electric_bike", "lon": -77.19548583333334, "bike_id": "75f9209d464e554ab81ebf31c375c649", "rental_uris": {"android": "https://dc.lft.to/lastmile_qr_scan", "ios": "https://dc.lft.to/lastmile_qr_scan"}, "name": "75f9209d464e554ab81ebf31c375c649", "is_reserved": 0}, {"is_disabled": 0, "fusion_lon": 0.0, "fusion_lat": 0.0, "lat": 38.99256916666667, "type": "electric_bike", "lon": -77.04999283333333, "bike_id": "17dfa5d72f155d4b2a620ab76ddbf68b", "rental_uris": {"android": "https://dc.lft.to/lastmile_qr_scan", "ios": "https://dc.lft.to/lastmile_qr_scan"}, "name": "17dfa5d72f155d4b2a620ab76ddbf68b", "is_reserved": 0}, {"is_disabled": 0, "fusion_lon": 0.0, "fusion_lat": 0.0, "lat": 38.83813966666666, "type": "electric_scooter", "lon": -77.0043115, "bike_id": "c6ac06c1a2bdda79d115135bf2d81ab7", "rental_uris": {"android": "https://dc.lft.to/lastmile_qr_scan", "ios": "https://dc.lft.to/lastmile_qr_scan"}, "name": "c6ac06c1a2bdda79d115135bf2d81ab7", "is_reserved": 0}, {"is_disabled": 0, "fusion_lon": 0.0, "fusion_lat": 0.0, "lat": 38.990813, "type": "electric_bike", "lon": -77.00179683333333, "bike_id": "bc27ea81af32d59c318431d2de67713f", "rental_uris": {"android": "https://dc.lft.to/lastmile_qr_scan", "ios": "https://dc.lft.to/lastmile_qr_scan"}, "name": "bc27ea81af32d59c318431d2de67713f", "is_reserved": 0}, {"is_disabled": 0, "fusion_lon": 0.0, "fusion_lat": 0.0, "lat": 38.85717483333333, "type": "electric_bike", "lon": -76.98110916666667, "bike_id": "9f7ff5b1e5f3726efebb775494d135d5", "rental_uris": {"android": "https://dc.lft.to/lastmile_qr_scan", "ios": "https://dc.lft.to/lastmile_qr_scan"}, "name": "9f7ff5b1e5f3726efebb775494d135d5", "is_reserved": 0}, {"is_disabled": 0, "fusion_lon": 0.0, "fusion_lat": 0.0, "lat": 38.916903833333336, "type": "electric_scooter", "lon": -77.01615616666666, "bike_id": "0c951a2ccc0e747e30dcb1f4ff4a2969", "rental_uris": {"android": "https://dc.lft.to/lastmile_qr_scan", "ios": "https://dc.lft.to/lastmile_qr_scan"}, "name": "0c951a2ccc0e747e30dcb1f4ff4a2969", "is_reserved": 0}, {"is_disabled": 0, "fusion_lon": 0.0, "fusion_lat": 0.0, "lat": 38.9419355, "type": "electric_scooter", "lon": -77.023909, "bike_id": "1a5dda7b75c9044e1c2710d471c5a426", "rental_uris": {"android": "https://dc.lft.to/lastmile_qr_scan", "ios": "https://dc.lft.to/lastmile_qr_scan"}, "name": "1a5dda7b75c9044e1c2710d471c5a426", "is_reserved": 0}, {"is_disabled": 0, "fusion_lon": 0.0, "fusion_lat": 0.0, "lat": 38.892238166666665, "type": "electric_scooter", "lon": -77.03338883333333, "bike_id": "d3f749a9cb151b00bd9b09231afe9c8c", "rental_uris": {"android": "https://dc.lft.to/lastmile_qr_scan", "ios": "https://dc.lft.to/lastmile_qr_scan"}, "name": "d3f749a9cb151b00bd9b09231afe9c8c", "is_reserved": 0}, {"is_disabled": 0, "fusion_lon": 0.0, "fusion_lat": 0.0, "lat": 38.931755, "type": "electric_scooter", "lon": -77.02810833333334, "bike_id": "be9eb643aefe742ec795ed0d4d938adb", "rental_uris": {"android": "https://dc.lft.to/lastmile_qr_scan", "ios": "https://dc.lft.to/lastmile_qr_scan"}, "name": "be9eb643aefe742ec795ed0d4d938adb", "is_reserved": 0}, {"is_disabled": 0, "fusion_lon": 0.0, "fusion_lat": 0.0, "lat": 38.920524666666665, "type": "electric_scooter", "lon": -77.03390533333334, "bike_id": "ceea9b3788bdb266df1736e3586ad5f4", "rental_uris": {"android": "https://dc.lft.to/lastmile_qr_scan", "ios": "https://dc.lft.to/lastmile_qr_scan"}, "name": "ceea9b3788bdb266df1736e3586ad5f4", "is_reserved": 0}, {"is_disabled": 0, "fusion_lon": 0.0, "fusion_lat": 0.0, "lat": 38.900981, "type": "electric_scooter", "lon": -76.98844483333333, "bike_id": "17e621be53b19fc221f12ff98fd56bae", "rental_uris": {"android": "https://dc.lft.to/lastmile_qr_scan", "ios": "https://dc.lft.to/lastmile_qr_scan"}, "name": "17e621be53b19fc221f12ff98fd56bae", "is_reserved": 0}, {"is_disabled": 0, "fusion_lon": 0.0, "fusion_lat": 0.0, "lat": 38.8338125, "type": "electric_scooter", "lon": -76.99302116666667, "bike_id": "7d6c29e3d9c7e62c5370487a263c65c1", "rental_uris": {"android": "https://dc.lft.to/lastmile_qr_scan", "ios": "https://dc.lft.to/lastmile_qr_scan"}, "name": "7d6c29e3d9c7e62c5370487a263c65c1", "is_reserved": 0}, {"is_disabled": 0, "fusion_lon": 0.0, "fusion_lat": 0.0, "lat": 38.916147333333335, "type": "electric_scooter", "lon": -77.048573, "bike_id": "0f963a54b800b024041331a024309988", "rental_uris": {"android": "https://dc.lft.to/lastmile_qr_scan", "ios": "https://dc.lft.to/lastmile_qr_scan"}, "name": "0f963a54b800b024041331a024309988", "is_reserved": 0}, {"is_disabled": 0, "fusion_lon": 0.0, "fusion_lat": 0.0, "lat": 38.91898366666667, "type": "electric_scooter", "lon": -77.01790666666666, "bike_id": "e15513a968f1fca4552ac1b2481f41d0", "rental_uris": {"android": "https://dc.lft.to/lastmile_qr_scan", "ios": "https://dc.lft.to/lastmile_qr_scan"}, "name": "e15513a968f1fca4552ac1b2481f41d0", "is_reserved": 0}, {"is_disabled": 0, "fusion_lon": 0.0, "fusion_lat": 0.0, "lat": 38.90220583333333, "type": "electric_scooter", "lon": -77.03313, "bike_id": "b0bd3d06394baeb4eb51771983a54a6a", "rental_uris": {"android": "https://dc.lft.to/lastmile_qr_scan", "ios": "https://dc.lft.to/lastmile_qr_scan"}, "name": "b0bd3d06394baeb4eb51771983a54a6a", "is_reserved": 0}, {"is_disabled": 0, "fusion_lon": 0.0, "fusion_lat": 0.0, "lat": 38.9142775, "type": "electric_scooter", "lon": -77.034639, "bike_id": "225c89ac276e704ed63a99383be2ac93", "rental_uris": {"android": "https://dc.lft.to/lastmile_qr_scan", "ios": "https://dc.lft.to/lastmile_qr_scan"}, "name": "225c89ac276e704ed63a99383be2ac93", "is_reserved": 0}, {"is_disabled": 0, "fusion_lon": 0.0, "fusion_lat": 0.0, "lat": 38.907689, "type": "electric_scooter", "lon": -77.06311066666666, "bike_id": "6c4f1362b489f3442a9b62159f2dd946", "rental_uris": {"android": "https://dc.lft.to/lastmile_qr_scan", "ios": "https://dc.lft.to/lastmile_qr_scan"}, "name": "6c4f1362b489f3442a9b62159f2dd946", "is_reserved": 0}, {"is_disabled": 0, "fusion_lon": 0.0, "fusion_lat": 0.0, "lat": 38.852088, "type": "electric_bike", "lon": -77.10126883333334, "bike_id": "c99d741d6010162858a61deec080a42e", "rental_uris": {"android": "https://dc.lft.to/lastmile_qr_scan", "ios": "https://dc.lft.to/lastmile_qr_scan"}, "name": "c99d741d6010162858a61deec080a42e", "is_reserved": 0}, {"is_disabled": 0, "fusion_lon": 0.0, "fusion_lat": 0.0, "lat": 38.932798166666664, "type": "electric_scooter", "lon": -76.97421783333333, "bike_id": "935f7df50fae52fdfb370c579dfb3164", "rental_uris": {"android": "https://dc.lft.to/lastmile_qr_scan", "ios": "https://dc.lft.to/lastmile_qr_scan"}, "name": "935f7df50fae52fdfb370c579dfb3164", "is_reserved": 0}, {"is_disabled": 0, "fusion_lon": 0.0, "fusion_lat": 0.0, "lat": 38.90512916666667, "type": "electric_bike", "lon": -76.98127416666667, "bike_id": "46d8e5a0fd4bea8b4c33570bae0428d0", "rental_uris": {"android": "https://dc.lft.to/lastmile_qr_scan", "ios": "https://dc.lft.to/lastmile_qr_scan"}, "name": "46d8e5a0fd4bea8b4c33570bae0428d0", "is_reserved": 0}, {"is_disabled": 0, "fusion_lon": 0.0, "fusion_lat": 0.0, "lat": 38.927572166666664, "type": "electric_scooter", "lon": -77.00591483333334, "bike_id": "c3aa1ef4595f172f393e31134954cf1f", "rental_uris": {"android": "https://dc.lft.to/lastmile_qr_scan", "ios": "https://dc.lft.to/lastmile_qr_scan"}, "name": "c3aa1ef4595f172f393e31134954cf1f", "is_reserved": 0}, {"is_disabled": 0, "fusion_lon": 0.0, "fusion_lat": 0.0, "lat": 38.933230333333334, "type": "electric_scooter", "lon": -77.02932516666667, "bike_id": "950e5dc4dd81d5a3e67d27a836d02a51", "rental_uris": {"android": "https://dc.lft.to/lastmile_qr_scan", "ios": "https://dc.lft.to/lastmile_qr_scan"}, "name": "950e5dc4dd81d5a3e67d27a836d02a51", "is_reserved": 0}, {"is_disabled": 0, "fusion_lon": 0.0, "fusion_lat": 0.0, "lat": 38.9683335, "type": "electric_scooter", "lon": -77.01515383333333, "bike_id": "0aa21663707d8dfc87959e7fe4794a4f", "rental_uris": {"android": "https://dc.lft.to/lastmile_qr_scan", "ios": "https://dc.lft.to/lastmile_qr_scan"}, "name": "0aa21663707d8dfc87959e7fe4794a4f", "is_reserved": 0}, {"is_disabled": 0, "fusion_lon": 0.0, "fusion_lat": 0.0, "lat": 38.92405483333334, "type": "electric_scooter", "lon": -77.05172666666667, "bike_id": "fae02c7f2939cb4bdfbb131d2bcd8528", "rental_uris": {"android": "https://dc.lft.to/lastmile_qr_scan", "ios": "https://dc.lft.to/lastmile_qr_scan"}, "name": "fae02c7f2939cb4bdfbb131d2bcd8528", "is_reserved": 0}, {"is_disabled": 0, "fusion_lon": 0.0, "fusion_lat": 0.0, "lat": 38.9353335, "type": "electric_scooter", "lon": -77.020718, "bike_id": "74d1f471dec1edeb9020fe60a1ad5db0", "rental_uris": {"android": "https://dc.lft.to/lastmile_qr_scan", "ios": "https://dc.lft.to/lastmile_qr_scan"}, "name": "74d1f471dec1edeb9020fe60a1ad5db0", "is_reserved": 0}, {"is_disabled": 0, "fusion_lon": 0.0, "fusion_lat": 0.0, "lat": 39.00002716666667, "type": "electric_bike", "lon": -76.9180575, "bike_id": "8a1854500cb818392d3fd90892fe9c53", "rental_uris": {"android": "https://dc.lft.to/lastmile_qr_scan", "ios": "https://dc.lft.to/lastmile_qr_scan"}, "name": "8a1854500cb818392d3fd90892fe9c53", "is_reserved": 0}, {"is_disabled": 0, "fusion_lon": 0.0, "fusion_lat": 0.0, "lat": 38.91945366666667, "type": "electric_scooter", "lon": -77.02397316666666, "bike_id": "7804450e46f75abdaa2fd23c8746865f", "rental_uris": {"android": "https://dc.lft.to/lastmile_qr_scan", "ios": "https://dc.lft.to/lastmile_qr_scan"}, "name": "7804450e46f75abdaa2fd23c8746865f", "is_reserved": 0}, {"is_disabled": 0, "fusion_lon": 0.0, "fusion_lat": 0.0, "lat": 38.92455116666667, "type": "electric_scooter", "lon": -76.99902266666666, "bike_id": "880196f8872d1e6b32bd9d868fef8ad7", "rental_uris": {"android": "https://dc.lft.to/lastmile_qr_scan", "ios": "https://dc.lft.to/lastmile_qr_scan"}, "name": "880196f8872d1e6b32bd9d868fef8ad7", "is_reserved": 0}, {"is_disabled": 0, "fusion_lon": 0.0, "fusion_lat": 0.0, "lat": 38.94199583333334, "type": "electric_scooter", "lon": -77.02576983333333, "bike_id": "61e10ebea6a187c8116ee410d38ac794", "rental_uris": {"android": "https://dc.lft.to/lastmile_qr_scan", "ios": "https://dc.lft.to/lastmile_qr_scan"}, "name": "61e10ebea6a187c8116ee410d38ac794", "is_reserved": 0}, {"is_disabled": 0, "fusion_lon": 0.0, "fusion_lat": 0.0, "lat": 38.91418933333333, "type": "electric_scooter", "lon": -77.04325616666667, "bike_id": "809f75c2982a951074061f97912fb3a4", "rental_uris": {"android": "https://dc.lft.to/lastmile_qr_scan", "ios": "https://dc.lft.to/lastmile_qr_scan"}, "name": "809f75c2982a951074061f97912fb3a4", "is_reserved": 0}, {"is_disabled": 0, "fusion_lon": 0.0, "fusion_lat": 0.0, "lat": 38.91113566666667, "type": "electric_scooter", "lon": -77.037193, "bike_id": "929bd30100e4b7f94bd5b3d272fbdb01", "rental_uris": {"android": "https://dc.lft.to/lastmile_qr_scan", "ios": "https://dc.lft.to/lastmile_qr_scan"}, "name": "929bd30100e4b7f94bd5b3d272fbdb01", "is_reserved": 0}, {"is_disabled": 0, "fusion_lon": 0.0, "fusion_lat": 0.0, "lat": 38.949787666666666, "type": "electric_scooter", "lon": -77.06763166666667, "bike_id": "9bcabdb819058da23d1daf6d4ea539d2", "rental_uris": {"android": "https://dc.lft.to/lastmile_qr_scan", "ios": "https://dc.lft.to/lastmile_qr_scan"}, "name": "9bcabdb819058da23d1daf6d4ea539d2", "is_reserved": 0}, {"is_disabled": 0, "fusion_lon": 0.0, "fusion_lat": 0.0, "lat": 38.889707333333334, "type": "electric_bike", "lon": -76.94864266666667, "bike_id": "0043527b852412fa2857040d0e8c4d3c", "rental_uris": {"android": "https://dc.lft.to/lastmile_qr_scan", "ios": "https://dc.lft.to/lastmile_qr_scan"}, "name": "0043527b852412fa2857040d0e8c4d3c", "is_reserved": 0}, {"is_disabled": 0, "fusion_lon": 0.0, "fusion_lat": 0.0, "lat": 38.9073445, "type": "electric_scooter", "lon": -77.03445166666667, "bike_id": "aaa2bb1d2dc19bd66a0c58ee6ce7d4ab", "rental_uris": {"android": "https://dc.lft.to/lastmile_qr_scan", "ios": "https://dc.lft.to/lastmile_qr_scan"}, "name": "aaa2bb1d2dc19bd66a0c58ee6ce7d4ab", "is_reserved": 0}, {"is_disabled": 0, "fusion_lon": 0.0, "fusion_lat": 0.0, "lat": 38.88825816666667, "type": "electric_bike", "lon": -77.12748366666666, "bike_id": "59c54f8d94a3b45520b5be95289a471c", "rental_uris": {"android": "https://dc.lft.to/lastmile_qr_scan", "ios": "https://dc.lft.to/lastmile_qr_scan"}, "name": "59c54f8d94a3b45520b5be95289a471c", "is_reserved": 0}, {"is_disabled": 0, "fusion_lon": 0.0, "fusion_lat": 0.0, "lat": 38.9344015, "type": "electric_scooter", "lon": -77.03286233333333, "bike_id": "c594bac8137defd21a02bb6b81809074", "rental_uris": {"android": "https://dc.lft.to/lastmile_qr_scan", "ios": "https://dc.lft.to/lastmile_qr_scan"}, "name": "c594bac8137defd21a02bb6b81809074", "is_reserved": 0}, {"is_disabled": 0, "fusion_lon": 0.0, "fusion_lat": 0.0, "lat": 38.99091266666667, "type": "electric_bike", "lon": -76.87494383333333, "bike_id": "27488efbd77d2c0e8c3201c7f164603d", "rental_uris": {"android": "https://dc.lft.to/lastmile_qr_scan", "ios": "https://dc.lft.to/lastmile_qr_scan"}, "name": "27488efbd77d2c0e8c3201c7f164603d", "is_reserved": 0}, {"is_disabled": 0, "fusion_lon": 0.0, "fusion_lat": 0.0, "lat": 38.975736166666664, "type": "electric_bike", "lon": -76.96405616666667, "bike_id": "ce574ebcd6bf1c3941881dac1fbc022b", "rental_uris": {"android": "https://dc.lft.to/lastmile_qr_scan", "ios": "https://dc.lft.to/lastmile_qr_scan"}, "name": "ce574ebcd6bf1c3941881dac1fbc022b", "is_reserved": 0}, {"is_disabled": 0, "fusion_lon": 0.0, "fusion_lat": 0.0, "lat": 38.9309975, "type": "electric_scooter", "lon": -77.02469333333333, "bike_id": "16ad77751e9c2fa59c521e47a79b6a3e", "rental_uris": {"android": "https://dc.lft.to/lastmile_qr_scan", "ios": "https://dc.lft.to/lastmile_qr_scan"}, "name": "16ad77751e9c2fa59c521e47a79b6a3e", "is_reserved": 0}, {"is_disabled": 0, "fusion_lon": 0.0, "fusion_lat": 0.0, "lat": 38.907717166666664, "type": "electric_scooter", "lon": -77.03275216666667, "bike_id": "74864ab4f795a46bc869831ed35e9bfb", "rental_uris": {"android": "https://dc.lft.to/lastmile_qr_scan", "ios": "https://dc.lft.to/lastmile_qr_scan"}, "name": "74864ab4f795a46bc869831ed35e9bfb", "is_reserved": 0}, {"is_disabled": 0, "fusion_lon": 0.0, "fusion_lat": 0.0, "lat": 38.92456933333333, "type": "electric_bike", "lon": -76.99948566666667, "bike_id": "152f6913ef857e5db4ee018c052c5a80", "rental_uris": {"android": "https://dc.lft.to/lastmile_qr_scan", "ios": "https://dc.lft.to/lastmile_qr_scan"}, "name": "152f6913ef857e5db4ee018c052c5a80", "is_reserved": 0}, {"is_disabled": 0, "fusion_lon": 0.0, "fusion_lat": 0.0, "lat": 38.91907533333333, "type": "electric_scooter", "lon": -77.02755433333333, "bike_id": "6fec4df973462e8a791fe33a6e6cbe66", "rental_uris": {"android": "https://dc.lft.to/lastmile_qr_scan", "ios": "https://dc.lft.to/lastmile_qr_scan"}, "name": "6fec4df973462e8a791fe33a6e6cbe66", "is_reserved": 0}, {"is_disabled": 0, "fusion_lon": 0.0, "fusion_lat": 0.0, "lat": 38.89741033333333, "type": "electric_scooter", "lon": -77.02765983333333, "bike_id": "85c4140cdac2aabb976906e543a2baf2", "rental_uris": {"android": "https://dc.lft.to/lastmile_qr_scan", "ios": "https://dc.lft.to/lastmile_qr_scan"}, "name": "85c4140cdac2aabb976906e543a2baf2", "is_reserved": 0}, {"is_disabled": 0, "fusion_lon": 0.0, "fusion_lat": 0.0, "lat": 38.8735165, "type": "electric_scooter", "lon": -77.01739116666667, "bike_id": "9d60c31937aeb9da5ef5d2f3010990fb", "rental_uris": {"android": "https://dc.lft.to/lastmile_qr_scan", "ios": "https://dc.lft.to/lastmile_qr_scan"}, "name": "9d60c31937aeb9da5ef5d2f3010990fb", "is_reserved": 0}, {"is_disabled": 0, "fusion_lon": 0.0, "fusion_lat": 0.0, "lat": 38.90853216666667, "type": "electric_scooter", "lon": -77.06074833333334, "bike_id": "0b2824be440da3f686190067c10cd407", "rental_uris": {"android": "https://dc.lft.to/lastmile_qr_scan", "ios": "https://dc.lft.to/lastmile_qr_scan"}, "name": "0b2824be440da3f686190067c10cd407", "is_reserved": 0}, {"is_disabled": 0, "fusion_lon": 0.0, "fusion_lat": 0.0, "lat": 38.945247333333334, "type": "electric_bike", "lon": -77.02649566666666, "bike_id": "85d3d85ffd53e6361971101252b06935", "rental_uris": {"android": "https://dc.lft.to/lastmile_qr_scan", "ios": "https://dc.lft.to/lastmile_qr_scan"}, "name": "85d3d85ffd53e6361971101252b06935", "is_reserved": 0}, {"is_disabled": 0, "fusion_lon": 0.0, "fusion_lat": 0.0, "lat": 38.897471333333336, "type": "electric_scooter", "lon": -77.05122233333333, "bike_id": "a235170fbf586b3c56381bda2ccf5954", "rental_uris": {"android": "https://dc.lft.to/lastmile_qr_scan", "ios": "https://dc.lft.to/lastmile_qr_scan"}, "name": "a235170fbf586b3c56381bda2ccf5954", "is_reserved": 0}, {"is_disabled": 0, "fusion_lon": 0.0, "fusion_lat": 0.0, "lat": 38.9363625, "type": "electric_scooter", "lon": -77.02698083333334, "bike_id": "2ef8f27973547d1deb081b22fc15620c", "rental_uris": {"android": "https://dc.lft.to/lastmile_qr_scan", "ios": "https://dc.lft.to/lastmile_qr_scan"}, "name": "2ef8f27973547d1deb081b22fc15620c", "is_reserved": 0}, {"is_disabled": 0, "fusion_lon": 0.0, "fusion_lat": 0.0, "lat": 38.93525266666666, "type": "electric_scooter", "lon": -77.066359, "bike_id": "5fa2a60da015e5a64eca0137befee8ec", "rental_uris": {"android": "https://dc.lft.to/lastmile_qr_scan", "ios": "https://dc.lft.to/lastmile_qr_scan"}, "name": "5fa2a60da015e5a64eca0137befee8ec", "is_reserved": 0}, {"is_disabled": 0, "fusion_lon": 0.0, "fusion_lat": 0.0, "lat": 38.9103275, "type": "electric_scooter", "lon": -77.04271766666666, "bike_id": "174ddc7ece223fcaa12bb822708e892c", "rental_uris": {"android": "https://dc.lft.to/lastmile_qr_scan", "ios": "https://dc.lft.to/lastmile_qr_scan"}, "name": "174ddc7ece223fcaa12bb822708e892c", "is_reserved": 0}, {"is_disabled": 0, "fusion_lon": 0.0, "fusion_lat": 0.0, "lat": 38.894214, "type": "electric_bike", "lon": -76.98461216666666, "bike_id": "7d231634628c7d706ea3a09cefa3b991", "rental_uris": {"android": "https://dc.lft.to/lastmile_qr_scan", "ios": "https://dc.lft.to/lastmile_qr_scan"}, "name": "7d231634628c7d706ea3a09cefa3b991", "is_reserved": 0}, {"is_disabled": 0, "fusion_lon": 0.0, "fusion_lat": 0.0, "lat": 38.91603716666667, "type": "electric_scooter", "lon": -77.04603933333334, "bike_id": "210f60d82da93ff06865f6c2dbabdd0e", "rental_uris": {"android": "https://dc.lft.to/lastmile_qr_scan", "ios": "https://dc.lft.to/lastmile_qr_scan"}, "name": "210f60d82da93ff06865f6c2dbabdd0e", "is_reserved": 0}, {"is_disabled": 0, "fusion_lon": 0.0, "fusion_lat": 0.0, "lat": 38.91792733333333, "type": "electric_scooter", "lon": -77.0430105, "bike_id": "fefdf62f925b7f17613678476a555ffa", "rental_uris": {"android": "https://dc.lft.to/lastmile_qr_scan", "ios": "https://dc.lft.to/lastmile_qr_scan"}, "name": "fefdf62f925b7f17613678476a555ffa", "is_reserved": 0}, {"is_disabled": 0, "fusion_lon": 0.0, "fusion_lat": 0.0, "lat": 38.92554533333333, "type": "electric_bike", "lon": -77.00139566666667, "bike_id": "0b2f8b92a7ad3497cb85ed90e03c44ca", "rental_uris": {"android": "https://dc.lft.to/lastmile_qr_scan", "ios": "https://dc.lft.to/lastmile_qr_scan"}, "name": "0b2f8b92a7ad3497cb85ed90e03c44ca", "is_reserved": 0}, {"is_disabled": 0, "fusion_lon": 0.0, "fusion_lat": 0.0, "lat": 38.907053, "type": "electric_scooter", "lon": -76.986885, "bike_id": "51892591c32001e89ca983b95da0277e", "rental_uris": {"android": "https://dc.lft.to/lastmile_qr_scan", "ios": "https://dc.lft.to/lastmile_qr_scan"}, "name": "51892591c32001e89ca983b95da0277e", "is_reserved": 0}, {"is_disabled": 0, "fusion_lon": 0.0, "fusion_lat": 0.0, "lat": 38.91999283333333, "type": "electric_bike", "lon": -77.07176933333334, "bike_id": "7249d275c17679667ab30649085e1c74", "rental_uris": {"android": "https://dc.lft.to/lastmile_qr_scan", "ios": "https://dc.lft.to/lastmile_qr_scan"}, "name": "7249d275c17679667ab30649085e1c74", "is_reserved": 0}, {"is_disabled": 0, "fusion_lon": 0.0, "fusion_lat": 0.0, "lat": 38.913075666666664, "type": "electric_scooter", "lon": -77.04670433333334, "bike_id": "2f66354ae4f74ed3bd43debd03539966", "rental_uris": {"android": "https://dc.lft.to/lastmile_qr_scan", "ios": "https://dc.lft.to/lastmile_qr_scan"}, "name": "2f66354ae4f74ed3bd43debd03539966", "is_reserved": 0}, {"is_disabled": 0, "fusion_lon": 0.0, "fusion_lat": 0.0, "lat": 38.893601833333335, "type": "electric_scooter", "lon": -77.02183166666667, "bike_id": "e122cd5a4a2dd6b0ca53da10bdba66f8", "rental_uris": {"android": "https://dc.lft.to/lastmile_qr_scan", "ios": "https://dc.lft.to/lastmile_qr_scan"}, "name": "e122cd5a4a2dd6b0ca53da10bdba66f8", "is_reserved": 0}, {"is_disabled": 0, "fusion_lon": 0.0, "fusion_lat": 0.0, "lat": 38.89503833333333, "type": "electric_scooter", "lon": -76.94879316666666, "bike_id": "c86945b4e749c484d7e94236dcde0250", "rental_uris": {"android": "https://dc.lft.to/lastmile_qr_scan", "ios": "https://dc.lft.to/lastmile_qr_scan"}, "name": "c86945b4e749c484d7e94236dcde0250", "is_reserved": 0}, {"is_disabled": 0, "fusion_lon": 0.0, "fusion_lat": 0.0, "lat": 38.946104166666665, "type": "electric_scooter", "lon": -77.03467183333333, "bike_id": "d3032d71cb84f3531d9b1b9ff73a57a1", "rental_uris": {"android": "https://dc.lft.to/lastmile_qr_scan", "ios": "https://dc.lft.to/lastmile_qr_scan"}, "name": "d3032d71cb84f3531d9b1b9ff73a57a1", "is_reserved": 0}, {"is_disabled": 0, "fusion_lon": 0.0, "fusion_lat": 0.0, "lat": 38.915662833333336, "type": "electric_scooter", "lon": -77.02008833333333, "bike_id": "8bb7c7aeb2bf3f964023358709806cf9", "rental_uris": {"android": "https://dc.lft.to/lastmile_qr_scan", "ios": "https://dc.lft.to/lastmile_qr_scan"}, "name": "8bb7c7aeb2bf3f964023358709806cf9", "is_reserved": 0}, {"is_disabled": 0, "fusion_lon": 0.0, "fusion_lat": 0.0, "lat": 38.926358, "type": "electric_scooter", "lon": -77.04263766666666, "bike_id": "1a821e2832379325a6984393cf92f342", "rental_uris": {"android": "https://dc.lft.to/lastmile_qr_scan", "ios": "https://dc.lft.to/lastmile_qr_scan"}, "name": "1a821e2832379325a6984393cf92f342", "is_reserved": 0}, {"is_disabled": 0, "fusion_lon": 0.0, "fusion_lat": 0.0, "lat": 38.90496433333333, "type": "electric_scooter", "lon": -77.02961666666667, "bike_id": "fa52d64a1de73c5fab9911b39e0ff149", "rental_uris": {"android": "https://dc.lft.to/lastmile_qr_scan", "ios": "https://dc.lft.to/lastmile_qr_scan"}, "name": "fa52d64a1de73c5fab9911b39e0ff149", "is_reserved": 0}, {"is_disabled": 0, "fusion_lon": 0.0, "fusion_lat": 0.0, "lat": 38.9067025, "type": "electric_scooter", "lon": -77.02716516666666, "bike_id": "3b02cdffbaadecfae5201deaa5fe8029", "rental_uris": {"android": "https://dc.lft.to/lastmile_qr_scan", "ios": "https://dc.lft.to/lastmile_qr_scan"}, "name": "3b02cdffbaadecfae5201deaa5fe8029", "is_reserved": 0}, {"is_disabled": 0, "fusion_lon": 0.0, "fusion_lat": 0.0, "lat": 38.844282166666666, "type": "electric_scooter", "lon": -76.99779166666667, "bike_id": "137edf32a764b1cba3e5d20af64b70b2", "rental_uris": {"android": "https://dc.lft.to/lastmile_qr_scan", "ios": "https://dc.lft.to/lastmile_qr_scan"}, "name": "137edf32a764b1cba3e5d20af64b70b2", "is_reserved": 0}, {"is_disabled": 0, "fusion_lon": 0.0, "fusion_lat": 0.0, "lat": 38.910508666666665, "type": "electric_scooter", "lon": -77.02281066666667, "bike_id": "c1a39b6751a019272d865653d68f607b", "rental_uris": {"android": "https://dc.lft.to/lastmile_qr_scan", "ios": "https://dc.lft.to/lastmile_qr_scan"}, "name": "c1a39b6751a019272d865653d68f607b", "is_reserved": 0}, {"is_disabled": 0, "fusion_lon": 0.0, "fusion_lat": 0.0, "lat": 38.924622666666664, "type": "electric_scooter", "lon": -77.029665, "bike_id": "d3ac6299387cfe8e2dafae0d73642c4e", "rental_uris": {"android": "https://dc.lft.to/lastmile_qr_scan", "ios": "https://dc.lft.to/lastmile_qr_scan"}, "name": "d3ac6299387cfe8e2dafae0d73642c4e", "is_reserved": 0}, {"is_disabled": 0, "fusion_lon": 0.0, "fusion_lat": 0.0, "lat": 38.91716683333333, "type": "electric_scooter", "lon": -77.03311633333334, "bike_id": "2e8f527dff9b182503f55bbb4a5f78e9", "rental_uris": {"android": "https://dc.lft.to/lastmile_qr_scan", "ios": "https://dc.lft.to/lastmile_qr_scan"}, "name": "2e8f527dff9b182503f55bbb4a5f78e9", "is_reserved": 0}, {"is_disabled": 0, "fusion_lon": 0.0, "fusion_lat": 0.0, "lat": 38.90388166666666, "type": "electric_scooter", "lon": -76.99004883333333, "bike_id": "9475058828b9fb4b6a69d5f4375b521d", "rental_uris": {"android": "https://dc.lft.to/lastmile_qr_scan", "ios": "https://dc.lft.to/lastmile_qr_scan"}, "name": "9475058828b9fb4b6a69d5f4375b521d", "is_reserved": 0}, {"is_disabled": 0, "fusion_lon": 0.0, "fusion_lat": 0.0, "lat": 38.95193033333334, "type": "electric_scooter", "lon": -77.0260965, "bike_id": "d3ad141fec29b9af781d2f90eb2ef80a", "rental_uris": {"android": "https://dc.lft.to/lastmile_qr_scan", "ios": "https://dc.lft.to/lastmile_qr_scan"}, "name": "d3ad141fec29b9af781d2f90eb2ef80a", "is_reserved": 0}, {"is_disabled": 0, "fusion_lon": 0.0, "fusion_lat": 0.0, "lat": 38.94626233333334, "type": "electric_bike", "lon": -76.93412766666667, "bike_id": "6008bbe644ad29dcbdd8c4e0d087276f", "rental_uris": {"android": "https://dc.lft.to/lastmile_qr_scan", "ios": "https://dc.lft.to/lastmile_qr_scan"}, "name": "6008bbe644ad29dcbdd8c4e0d087276f", "is_reserved": 0}, {"is_disabled": 0, "fusion_lon": 0.0, "fusion_lat": 0.0, "lat": 38.881101, "type": "electric_bike", "lon": -77.01664516666666, "bike_id": "7473b302ba67782c2c4b793bc7e48669", "rental_uris": {"android": "https://dc.lft.to/lastmile_qr_scan", "ios": "https://dc.lft.to/lastmile_qr_scan"}, "name": "7473b302ba67782c2c4b793bc7e48669", "is_reserved": 0}, {"is_disabled": 0, "fusion_lon": 0.0, "fusion_lat": 0.0, "lat": 38.92809966666667, "type": "electric_scooter", "lon": -77.03626933333334, "bike_id": "4d3de80e0b4ca1462c5d43689b043e97", "rental_uris": {"android": "https://dc.lft.to/lastmile_qr_scan", "ios": "https://dc.lft.to/lastmile_qr_scan"}, "name": "4d3de80e0b4ca1462c5d43689b043e97", "is_reserved": 0}, {"is_disabled": 0, "fusion_lon": 0.0, "fusion_lat": 0.0, "lat": 38.8982525, "type": "electric_scooter", "lon": -76.9465095, "bike_id": "f0f0a1b91656e17183dbaae2d24ddeff", "rental_uris": {"android": "https://dc.lft.to/lastmile_qr_scan", "ios": "https://dc.lft.to/lastmile_qr_scan"}, "name": "f0f0a1b91656e17183dbaae2d24ddeff", "is_reserved": 0}, {"is_disabled": 0, "fusion_lon": 0.0, "fusion_lat": 0.0, "lat": 38.9026175, "type": "electric_scooter", "lon": -77.034445, "bike_id": "dfc9fbd72b6ac2e46abf829fa27c0fa7", "rental_uris": {"android": "https://dc.lft.to/lastmile_qr_scan", "ios": "https://dc.lft.to/lastmile_qr_scan"}, "name": "dfc9fbd72b6ac2e46abf829fa27c0fa7", "is_reserved": 0}, {"is_disabled": 0, "fusion_lon": 0.0, "fusion_lat": 0.0, "lat": 38.943037, "type": "electric_scooter", "lon": -77.02759816666666, "bike_id": "c5e18973d2e9795e35afc0e7b03b9324", "rental_uris": {"android": "https://dc.lft.to/lastmile_qr_scan", "ios": "https://dc.lft.to/lastmile_qr_scan"}, "name": "c5e18973d2e9795e35afc0e7b03b9324", "is_reserved": 0}, {"is_disabled": 0, "fusion_lon": 0.0, "fusion_lat": 0.0, "lat": 38.90523233333333, "type": "electric_scooter", "lon": -77.05326766666667, "bike_id": "46e4ee6ba2ee0411cb1102c3314ac027", "rental_uris": {"android": "https://dc.lft.to/lastmile_qr_scan", "ios": "https://dc.lft.to/lastmile_qr_scan"}, "name": "46e4ee6ba2ee0411cb1102c3314ac027", "is_reserved": 0}, {"is_disabled": 0, "fusion_lon": 0.0, "fusion_lat": 0.0, "lat": 38.910090333333336, "type": "electric_scooter", "lon": -77.08076366666667, "bike_id": "ed3bd1503a6150e0de3c3903a76d9264", "rental_uris": {"android": "https://dc.lft.to/lastmile_qr_scan", "ios": "https://dc.lft.to/lastmile_qr_scan"}, "name": "ed3bd1503a6150e0de3c3903a76d9264", "is_reserved": 0}, {"is_disabled": 0, "fusion_lon": 0.0, "fusion_lat": 0.0, "lat": 38.92069466666667, "type": "electric_scooter", "lon": -77.04379083333333, "bike_id": "5b0341a4434b95addc61336f6cc77937", "rental_uris": {"android": "https://dc.lft.to/lastmile_qr_scan", "ios": "https://dc.lft.to/lastmile_qr_scan"}, "name": "5b0341a4434b95addc61336f6cc77937", "is_reserved": 0}, {"is_disabled": 0, "fusion_lon": 0.0, "fusion_lat": 0.0, "lat": 38.89412733333333, "type": "electric_scooter", "lon": -77.01086016666666, "bike_id": "a686d6cb94cb26a5adf0692c0138ba72", "rental_uris": {"android": "https://dc.lft.to/lastmile_qr_scan", "ios": "https://dc.lft.to/lastmile_qr_scan"}, "name": "a686d6cb94cb26a5adf0692c0138ba72", "is_reserved": 0}, {"is_disabled": 0, "fusion_lon": 0.0, "fusion_lat": 0.0, "lat": 38.86959316666667, "type": "electric_scooter", "lon": -76.96033433333334, "bike_id": "2783424f62835d99ee3742b492f16c30", "rental_uris": {"android": "https://dc.lft.to/lastmile_qr_scan", "ios": "https://dc.lft.to/lastmile_qr_scan"}, "name": "2783424f62835d99ee3742b492f16c30", "is_reserved": 0}, {"is_disabled": 0, "fusion_lon": 0.0, "fusion_lat": 0.0, "lat": 38.923357333333335, "type": "electric_scooter", "lon": -77.04190583333333, "bike_id": "d011c783c4ee15faaad45abc9a3a83d5", "rental_uris": {"android": "https://dc.lft.to/lastmile_qr_scan", "ios": "https://dc.lft.to/lastmile_qr_scan"}, "name": "d011c783c4ee15faaad45abc9a3a83d5", "is_reserved": 0}, {"is_disabled": 0, "fusion_lon": 0.0, "fusion_lat": 0.0, "lat": 38.900098166666666, "type": "electric_scooter", "lon": -77.03326833333334, "bike_id": "6d72b6c1ef56eb3a91a544afc7c4555b", "rental_uris": {"android": "https://dc.lft.to/lastmile_qr_scan", "ios": "https://dc.lft.to/lastmile_qr_scan"}, "name": "6d72b6c1ef56eb3a91a544afc7c4555b", "is_reserved": 0}, {"is_disabled": 0, "fusion_lon": 0.0, "fusion_lat": 0.0, "lat": 38.909614166666664, "type": "electric_scooter", "lon": -77.023741, "bike_id": "43ac708984cef86a1fee0fe7acc177ed", "rental_uris": {"android": "https://dc.lft.to/lastmile_qr_scan", "ios": "https://dc.lft.to/lastmile_qr_scan"}, "name": "43ac708984cef86a1fee0fe7acc177ed", "is_reserved": 0}, {"is_disabled": 0, "fusion_lon": 0.0, "fusion_lat": 0.0, "lat": 38.81029433333333, "type": "electric_bike", "lon": -77.08435766666666, "bike_id": "4095a34cafdc9f58d5862262eb0f2c66", "rental_uris": {"android": "https://dc.lft.to/lastmile_qr_scan", "ios": "https://dc.lft.to/lastmile_qr_scan"}, "name": "4095a34cafdc9f58d5862262eb0f2c66", "is_reserved": 0}, {"is_disabled": 0, "fusion_lon": 0.0, "fusion_lat": 0.0, "lat": 38.918864, "type": "electric_scooter", "lon": -77.071186, "bike_id": "f7b9b78d5792f8dcd8a83cb1610fe26a", "rental_uris": {"android": "https://dc.lft.to/lastmile_qr_scan", "ios": "https://dc.lft.to/lastmile_qr_scan"}, "name": "f7b9b78d5792f8dcd8a83cb1610fe26a", "is_reserved": 0}, {"is_disabled": 0, "fusion_lon": 0.0, "fusion_lat": 0.0, "lat": 38.919380833333335, "type": "electric_bike", "lon": -76.97503333333333, "bike_id": "498837eaffecdd934217c9a936f20860", "rental_uris": {"android": "https://dc.lft.to/lastmile_qr_scan", "ios": "https://dc.lft.to/lastmile_qr_scan"}, "name": "498837eaffecdd934217c9a936f20860", "is_reserved": 0}, {"is_disabled": 0, "fusion_lon": 0.0, "fusion_lat": 0.0, "lat": 38.9077645, "type": "electric_scooter", "lon": -77.03197583333333, "bike_id": "147227e99b5c5dbcac5a842c7cd22a28", "rental_uris": {"android": "https://dc.lft.to/lastmile_qr_scan", "ios": "https://dc.lft.to/lastmile_qr_scan"}, "name": "147227e99b5c5dbcac5a842c7cd22a28", "is_reserved": 0}, {"is_disabled": 0, "fusion_lon": 0.0, "fusion_lat": 0.0, "lat": 38.90376933333334, "type": "electric_scooter", "lon": -77.02918233333334, "bike_id": "560b5b2d339251e5c05b886e2bce5625", "rental_uris": {"android": "https://dc.lft.to/lastmile_qr_scan", "ios": "https://dc.lft.to/lastmile_qr_scan"}, "name": "560b5b2d339251e5c05b886e2bce5625", "is_reserved": 0}, {"is_disabled": 0, "fusion_lon": 0.0, "fusion_lat": 0.0, "lat": 38.8635075, "type": "electric_scooter", "lon": -76.990663, "bike_id": "f1cc583755e75a41244f4d3fb4b943c4", "rental_uris": {"android": "https://dc.lft.to/lastmile_qr_scan", "ios": "https://dc.lft.to/lastmile_qr_scan"}, "name": "f1cc583755e75a41244f4d3fb4b943c4", "is_reserved": 0}, {"is_disabled": 0, "fusion_lon": 0.0, "fusion_lat": 0.0, "lat": 38.9053705, "type": "electric_scooter", "lon": -77.04996283333334, "bike_id": "1ddf0b83d50f6b85d117f8ebf5e34cb2", "rental_uris": {"android": "https://dc.lft.to/lastmile_qr_scan", "ios": "https://dc.lft.to/lastmile_qr_scan"}, "name": "1ddf0b83d50f6b85d117f8ebf5e34cb2", "is_reserved": 0}, {"is_disabled": 0, "fusion_lon": 0.0, "fusion_lat": 0.0, "lat": 38.927964333333335, "type": "electric_scooter", "lon": -77.014624, "bike_id": "a5eae49a657389391a3590d41df788ed", "rental_uris": {"android": "https://dc.lft.to/lastmile_qr_scan", "ios": "https://dc.lft.to/lastmile_qr_scan"}, "name": "a5eae49a657389391a3590d41df788ed", "is_reserved": 0}, {"is_disabled": 0, "fusion_lon": 0.0, "fusion_lat": 0.0, "lat": 38.99068966666667, "type": "electric_bike", "lon": -77.10027516666666, "bike_id": "13ffbd86fc78edbbb1e0791156f62776", "rental_uris": {"android": "https://dc.lft.to/lastmile_qr_scan", "ios": "https://dc.lft.to/lastmile_qr_scan"}, "name": "13ffbd86fc78edbbb1e0791156f62776", "is_reserved": 0}, {"is_disabled": 0, "fusion_lon": 0.0, "fusion_lat": 0.0, "lat": 38.9909155, "type": "electric_bike", "lon": -76.87495133333333, "bike_id": "3521567b479dff9751eb3b00066074cd", "rental_uris": {"android": "https://dc.lft.to/lastmile_qr_scan", "ios": "https://dc.lft.to/lastmile_qr_scan"}, "name": "3521567b479dff9751eb3b00066074cd", "is_reserved": 0}, {"is_disabled": 0, "fusion_lon": 0.0, "fusion_lat": 0.0, "lat": 38.8859125, "type": "electric_scooter", "lon": -77.02000883333334, "bike_id": "db6dbbc2c4d35226a67d2e5913367f5d", "rental_uris": {"android": "https://dc.lft.to/lastmile_qr_scan", "ios": "https://dc.lft.to/lastmile_qr_scan"}, "name": "db6dbbc2c4d35226a67d2e5913367f5d", "is_reserved": 0}, {"is_disabled": 0, "fusion_lon": 0.0, "fusion_lat": 0.0, "lat": 38.926917, "type": "electric_scooter", "lon": -77.037383, "bike_id": "886135639e71f4546007b0227b4a4c5a", "rental_uris": {"android": "https://dc.lft.to/lastmile_qr_scan", "ios": "https://dc.lft.to/lastmile_qr_scan"}, "name": "886135639e71f4546007b0227b4a4c5a", "is_reserved": 0}, {"is_disabled": 0, "fusion_lon": 0.0, "fusion_lat": 0.0, "lat": 38.91155066666666, "type": "electric_scooter", "lon": -77.04153316666667, "bike_id": "154482631c228dc16fab17c3032b903d", "rental_uris": {"android": "https://dc.lft.to/lastmile_qr_scan", "ios": "https://dc.lft.to/lastmile_qr_scan"}, "name": "154482631c228dc16fab17c3032b903d", "is_reserved": 0}, {"is_disabled": 0, "fusion_lon": 0.0, "fusion_lat": 0.0, "lat": 38.89603483333333, "type": "electric_scooter", "lon": -77.00931633333333, "bike_id": "75dfa24cc05e9401f62e8b93f8d4ca52", "rental_uris": {"android": "https://dc.lft.to/lastmile_qr_scan", "ios": "https://dc.lft.to/lastmile_qr_scan"}, "name": "75dfa24cc05e9401f62e8b93f8d4ca52", "is_reserved": 0}, {"is_disabled": 0, "fusion_lon": 0.0, "fusion_lat": 0.0, "lat": 38.910408, "type": "electric_scooter", "lon": -77.040122, "bike_id": "1264ff6b5508f9a127bb82f272d89517", "rental_uris": {"android": "https://dc.lft.to/lastmile_qr_scan", "ios": "https://dc.lft.to/lastmile_qr_scan"}, "name": "1264ff6b5508f9a127bb82f272d89517", "is_reserved": 0}, {"is_disabled": 0, "fusion_lon": 0.0, "fusion_lat": 0.0, "lat": 38.90682733333333, "type": "electric_scooter", "lon": -76.97997866666667, "bike_id": "84162ab009e383388f829b8607948e05", "rental_uris": {"android": "https://dc.lft.to/lastmile_qr_scan", "ios": "https://dc.lft.to/lastmile_qr_scan"}, "name": "84162ab009e383388f829b8607948e05", "is_reserved": 0}, {"is_disabled": 0, "fusion_lon": 0.0, "fusion_lat": 0.0, "lat": 38.942014, "type": "electric_scooter", "lon": -77.02587816666667, "bike_id": "8cc8a290b0fb6790b388fc10b48d61f4", "rental_uris": {"android": "https://dc.lft.to/lastmile_qr_scan", "ios": "https://dc.lft.to/lastmile_qr_scan"}, "name": "8cc8a290b0fb6790b388fc10b48d61f4", "is_reserved": 0}, {"is_disabled": 0, "fusion_lon": 0.0, "fusion_lat": 0.0, "lat": 38.935325, "type": "electric_scooter", "lon": -77.05435716666666, "bike_id": "08dd20898a897656a1577a20a906fee9", "rental_uris": {"android": "https://dc.lft.to/lastmile_qr_scan", "ios": "https://dc.lft.to/lastmile_qr_scan"}, "name": "08dd20898a897656a1577a20a906fee9", "is_reserved": 0}, {"is_disabled": 0, "fusion_lon": 0.0, "fusion_lat": 0.0, "lat": 38.8580395, "type": "electric_scooter", "lon": -76.9865485, "bike_id": "734162bd5eb8d2971f3c7d13eb75861c", "rental_uris": {"android": "https://dc.lft.to/lastmile_qr_scan", "ios": "https://dc.lft.to/lastmile_qr_scan"}, "name": "734162bd5eb8d2971f3c7d13eb75861c", "is_reserved": 0}, {"is_disabled": 0, "fusion_lon": 0.0, "fusion_lat": 0.0, "lat": 38.96099383333333, "type": "electric_scooter", "lon": -77.06898016666666, "bike_id": "b6752a38255b2d6faf37792341276f80", "rental_uris": {"android": "https://dc.lft.to/lastmile_qr_scan", "ios": "https://dc.lft.to/lastmile_qr_scan"}, "name": "b6752a38255b2d6faf37792341276f80", "is_reserved": 0}, {"is_disabled": 0, "fusion_lon": 0.0, "fusion_lat": 0.0, "lat": 38.90881366666667, "type": "electric_scooter", "lon": -77.03545833333334, "bike_id": "ac3e47d3550c123dd09f75dce5b2a450", "rental_uris": {"android": "https://dc.lft.to/lastmile_qr_scan", "ios": "https://dc.lft.to/lastmile_qr_scan"}, "name": "ac3e47d3550c123dd09f75dce5b2a450", "is_reserved": 0}, {"is_disabled": 0, "fusion_lon": 0.0, "fusion_lat": 0.0, "lat": 38.91182283333333, "type": "electric_scooter", "lon": -77.035094, "bike_id": "8052121cfc4d9468ceb049fda5a6e26e", "rental_uris": {"android": "https://dc.lft.to/lastmile_qr_scan", "ios": "https://dc.lft.to/lastmile_qr_scan"}, "name": "8052121cfc4d9468ceb049fda5a6e26e", "is_reserved": 0}, {"is_disabled": 0, "fusion_lon": 0.0, "fusion_lat": 0.0, "lat": 38.9341135, "type": "electric_scooter", "lon": -77.03260233333333, "bike_id": "dcf3cdf5a2bc719a73da63c1b9bedc9e", "rental_uris": {"android": "https://dc.lft.to/lastmile_qr_scan", "ios": "https://dc.lft.to/lastmile_qr_scan"}, "name": "dcf3cdf5a2bc719a73da63c1b9bedc9e", "is_reserved": 0}, {"is_disabled": 0, "fusion_lon": 0.0, "fusion_lat": 0.0, "lat": 38.8652985, "type": "electric_scooter", "lon": -76.98961816666667, "bike_id": "1ce90d6b195bcc42cba85b302d437511", "rental_uris": {"android": "https://dc.lft.to/lastmile_qr_scan", "ios": "https://dc.lft.to/lastmile_qr_scan"}, "name": "1ce90d6b195bcc42cba85b302d437511", "is_reserved": 0}, {"is_disabled": 0, "fusion_lon": 0.0, "fusion_lat": 0.0, "lat": 38.90361133333333, "type": "electric_scooter", "lon": -77.01620883333334, "bike_id": "f81ea2d08e1950bd576c63dc8522b297", "rental_uris": {"android": "https://dc.lft.to/lastmile_qr_scan", "ios": "https://dc.lft.to/lastmile_qr_scan"}, "name": "f81ea2d08e1950bd576c63dc8522b297", "is_reserved": 0}, {"is_disabled": 0, "fusion_lon": 0.0, "fusion_lat": 0.0, "lat": 38.916124333333336, "type": "electric_scooter", "lon": -77.03149583333334, "bike_id": "3f4ae03b9752d60490fd060304138a53", "rental_uris": {"android": "https://dc.lft.to/lastmile_qr_scan", "ios": "https://dc.lft.to/lastmile_qr_scan"}, "name": "3f4ae03b9752d60490fd060304138a53", "is_reserved": 0}, {"is_disabled": 0, "fusion_lon": 0.0, "fusion_lat": 0.0, "lat": 38.92975716666667, "type": "electric_scooter", "lon": -77.02075633333334, "bike_id": "1eeb50e4980c98dac698428bf5e282e7", "rental_uris": {"android": "https://dc.lft.to/lastmile_qr_scan", "ios": "https://dc.lft.to/lastmile_qr_scan"}, "name": "1eeb50e4980c98dac698428bf5e282e7", "is_reserved": 0}, {"is_disabled": 0, "fusion_lon": 0.0, "fusion_lat": 0.0, "lat": 38.934762666666664, "type": "electric_scooter", "lon": -77.035787, "bike_id": "c0be99fa4df0729e18a63be633a8027b", "rental_uris": {"android": "https://dc.lft.to/lastmile_qr_scan", "ios": "https://dc.lft.to/lastmile_qr_scan"}, "name": "c0be99fa4df0729e18a63be633a8027b", "is_reserved": 0}, {"is_disabled": 0, "fusion_lon": 0.0, "fusion_lat": 0.0, "lat": 38.90154483333333, "type": "electric_scooter", "lon": -77.0228865, "bike_id": "065b70fc204d15213dbb4330c7959729", "rental_uris": {"android": "https://dc.lft.to/lastmile_qr_scan", "ios": "https://dc.lft.to/lastmile_qr_scan"}, "name": "065b70fc204d15213dbb4330c7959729", "is_reserved": 0}, {"is_disabled": 0, "fusion_lon": 0.0, "fusion_lat": 0.0, "lat": 38.949831, "type": "electric_scooter", "lon": -77.02700716666666, "bike_id": "1d2d81bb7fd35786692ff14b8f88b828", "rental_uris": {"android": "https://dc.lft.to/lastmile_qr_scan", "ios": "https://dc.lft.to/lastmile_qr_scan"}, "name": "1d2d81bb7fd35786692ff14b8f88b828", "is_reserved": 0}, {"is_disabled": 0, "fusion_lon": 0.0, "fusion_lat": 0.0, "lat": 38.9153715, "type": "electric_scooter", "lon": -77.01842933333333, "bike_id": "d6a76cbb0e2e01cfd98dcfb0c651c6cf", "rental_uris": {"android": "https://dc.lft.to/lastmile_qr_scan", "ios": "https://dc.lft.to/lastmile_qr_scan"}, "name": "d6a76cbb0e2e01cfd98dcfb0c651c6cf", "is_reserved": 0}, {"is_disabled": 0, "fusion_lon": 0.0, "fusion_lat": 0.0, "lat": 38.9206555, "type": "electric_scooter", "lon": -77.043539, "bike_id": "128914073a1a28512d0faba175c39d76", "rental_uris": {"android": "https://dc.lft.to/lastmile_qr_scan", "ios": "https://dc.lft.to/lastmile_qr_scan"}, "name": "128914073a1a28512d0faba175c39d76", "is_reserved": 0}, {"is_disabled": 0, "fusion_lon": 0.0, "fusion_lat": 0.0, "lat": 38.93541833333333, "type": "electric_scooter", "lon": -77.0342385, "bike_id": "418094f5577297604f019b0867a100a5", "rental_uris": {"android": "https://dc.lft.to/lastmile_qr_scan", "ios": "https://dc.lft.to/lastmile_qr_scan"}, "name": "418094f5577297604f019b0867a100a5", "is_reserved": 0}, {"is_disabled": 0, "fusion_lon": 0.0, "fusion_lat": 0.0, "lat": 38.911811, "type": "electric_scooter", "lon": -77.00441816666667, "bike_id": "8b7882678eeeebc5f33c174f4cde314b", "rental_uris": {"android": "https://dc.lft.to/lastmile_qr_scan", "ios": "https://dc.lft.to/lastmile_qr_scan"}, "name": "8b7882678eeeebc5f33c174f4cde314b", "is_reserved": 0}, {"is_disabled": 0, "fusion_lon": 0.0, "fusion_lat": 0.0, "lat": 38.895569, "type": "electric_scooter", "lon": -77.01096816666667, "bike_id": "46ba6002e56f480651d5db19c636803c", "rental_uris": {"android": "https://dc.lft.to/lastmile_qr_scan", "ios": "https://dc.lft.to/lastmile_qr_scan"}, "name": "46ba6002e56f480651d5db19c636803c", "is_reserved": 0}, {"is_disabled": 0, "fusion_lon": 0.0, "fusion_lat": 0.0, "lat": 38.919186833333335, "type": "electric_scooter", "lon": -77.0302735, "bike_id": "a5c519d481a67280dcf83c8c7e41838c", "rental_uris": {"android": "https://dc.lft.to/lastmile_qr_scan", "ios": "https://dc.lft.to/lastmile_qr_scan"}, "name": "a5c519d481a67280dcf83c8c7e41838c", "is_reserved": 0}, {"is_disabled": 0, "fusion_lon": 0.0, "fusion_lat": 0.0, "lat": 38.89487666666667, "type": "electric_bike", "lon": -76.995199, "bike_id": "1c66b2ae7fdec266f22af12393fc6913", "rental_uris": {"android": "https://dc.lft.to/lastmile_qr_scan", "ios": "https://dc.lft.to/lastmile_qr_scan"}, "name": "1c66b2ae7fdec266f22af12393fc6913", "is_reserved": 0}, {"is_disabled": 0, "fusion_lon": 0.0, "fusion_lat": 0.0, "lat": 38.922586, "type": "electric_scooter", "lon": -77.0413585, "bike_id": "a9c0987a902a2415a5245ab741455155", "rental_uris": {"android": "https://dc.lft.to/lastmile_qr_scan", "ios": "https://dc.lft.to/lastmile_qr_scan"}, "name": "a9c0987a902a2415a5245ab741455155", "is_reserved": 0}, {"is_disabled": 0, "fusion_lon": 0.0, "fusion_lat": 0.0, "lat": 38.9378925, "type": "electric_scooter", "lon": -77.01880383333334, "bike_id": "da568a995c2137282ec99b571596534e", "rental_uris": {"android": "https://dc.lft.to/lastmile_qr_scan", "ios": "https://dc.lft.to/lastmile_qr_scan"}, "name": "da568a995c2137282ec99b571596534e", "is_reserved": 0}, {"is_disabled": 0, "fusion_lon": 0.0, "fusion_lat": 0.0, "lat": 38.90840516666667, "type": "electric_scooter", "lon": -76.99702016666667, "bike_id": "ba5bb18c7dc1c8d36970f96242d6e064", "rental_uris": {"android": "https://dc.lft.to/lastmile_qr_scan", "ios": "https://dc.lft.to/lastmile_qr_scan"}, "name": "ba5bb18c7dc1c8d36970f96242d6e064", "is_reserved": 0}, {"is_disabled": 0, "fusion_lon": 0.0, "fusion_lat": 0.0, "lat": 38.922213666666664, "type": "electric_scooter", "lon": -77.033041, "bike_id": "aa655a0589ef3efef4bbac8cf2dbea62", "rental_uris": {"android": "https://dc.lft.to/lastmile_qr_scan", "ios": "https://dc.lft.to/lastmile_qr_scan"}, "name": "aa655a0589ef3efef4bbac8cf2dbea62", "is_reserved": 0}, {"is_disabled": 0, "fusion_lon": 0.0, "fusion_lat": 0.0, "lat": 38.961307166666664, "type": "electric_scooter", "lon": -77.0851865, "bike_id": "0e9919633fdfb70c43b37911194d705b", "rental_uris": {"android": "https://dc.lft.to/lastmile_qr_scan", "ios": "https://dc.lft.to/lastmile_qr_scan"}, "name": "0e9919633fdfb70c43b37911194d705b", "is_reserved": 0}, {"is_disabled": 0, "fusion_lon": 0.0, "fusion_lat": 0.0, "lat": 38.887467666666666, "type": "electric_scooter", "lon": -77.01537133333333, "bike_id": "f69d3d7487d503548252f71b72f5403f", "rental_uris": {"android": "https://dc.lft.to/lastmile_qr_scan", "ios": "https://dc.lft.to/lastmile_qr_scan"}, "name": "f69d3d7487d503548252f71b72f5403f", "is_reserved": 0}, {"is_disabled": 0, "fusion_lon": 0.0, "fusion_lat": 0.0, "lat": 38.9161895, "type": "electric_scooter", "lon": -77.04869166666667, "bike_id": "02e9ffa9d11bb7310f2347ce889500c4", "rental_uris": {"android": "https://dc.lft.to/lastmile_qr_scan", "ios": "https://dc.lft.to/lastmile_qr_scan"}, "name": "02e9ffa9d11bb7310f2347ce889500c4", "is_reserved": 0}, {"is_disabled": 0, "fusion_lon": 0.0, "fusion_lat": 0.0, "lat": 38.89567566666667, "type": "electric_bike", "lon": -77.127387, "bike_id": "22e4631de44b44a51da2c88a4df406ba", "rental_uris": {"android": "https://dc.lft.to/lastmile_qr_scan", "ios": "https://dc.lft.to/lastmile_qr_scan"}, "name": "22e4631de44b44a51da2c88a4df406ba", "is_reserved": 0}, {"is_disabled": 0, "fusion_lon": 0.0, "fusion_lat": 0.0, "lat": 38.905618, "type": "electric_scooter", "lon": -77.03468533333333, "bike_id": "9ab14b3f285e4b53f01b09060070b2a8", "rental_uris": {"android": "https://dc.lft.to/lastmile_qr_scan", "ios": "https://dc.lft.to/lastmile_qr_scan"}, "name": "9ab14b3f285e4b53f01b09060070b2a8", "is_reserved": 0}, {"is_disabled": 0, "fusion_lon": 0.0, "fusion_lat": 0.0, "lat": 38.922652666666664, "type": "electric_bike", "lon": -77.07723633333333, "bike_id": "82928749d7e3d66d802ae46fdc0fd747", "rental_uris": {"android": "https://dc.lft.to/lastmile_qr_scan", "ios": "https://dc.lft.to/lastmile_qr_scan"}, "name": "82928749d7e3d66d802ae46fdc0fd747", "is_reserved": 0}, {"is_disabled": 0, "fusion_lon": 0.0, "fusion_lat": 0.0, "lat": 38.90686016666667, "type": "electric_scooter", "lon": -77.02693866666667, "bike_id": "3f2cab6b0deafb01db1aa8f88f7043aa", "rental_uris": {"android": "https://dc.lft.to/lastmile_qr_scan", "ios": "https://dc.lft.to/lastmile_qr_scan"}, "name": "3f2cab6b0deafb01db1aa8f88f7043aa", "is_reserved": 0}, {"is_disabled": 0, "fusion_lon": 0.0, "fusion_lat": 0.0, "lat": 38.845152, "type": "electric_bike", "lon": -77.0780025, "bike_id": "98f4d7f254f4c7ea5a87c2461bfb1450", "rental_uris": {"android": "https://dc.lft.to/lastmile_qr_scan", "ios": "https://dc.lft.to/lastmile_qr_scan"}, "name": "98f4d7f254f4c7ea5a87c2461bfb1450", "is_reserved": 0}, {"is_disabled": 0, "fusion_lon": 0.0, "fusion_lat": 0.0, "lat": 38.90841416666667, "type": "electric_scooter", "lon": -76.9970585, "bike_id": "842bda58f3b5d84c796e98ba0d67ad57", "rental_uris": {"android": "https://dc.lft.to/lastmile_qr_scan", "ios": "https://dc.lft.to/lastmile_qr_scan"}, "name": "842bda58f3b5d84c796e98ba0d67ad57", "is_reserved": 0}, {"is_disabled": 0, "fusion_lon": 0.0, "fusion_lat": 0.0, "lat": 38.9168395, "type": "electric_scooter", "lon": -77.02710583333334, "bike_id": "c2b710ad0c0be12f8aec441cf3ceec6d", "rental_uris": {"android": "https://dc.lft.to/lastmile_qr_scan", "ios": "https://dc.lft.to/lastmile_qr_scan"}, "name": "c2b710ad0c0be12f8aec441cf3ceec6d", "is_reserved": 0}, {"is_disabled": 0, "fusion_lon": 0.0, "fusion_lat": 0.0, "lat": 38.9018745, "type": "electric_scooter", "lon": -77.03907833333334, "bike_id": "933e16ebc4d42850da3d524ee378dacb", "rental_uris": {"android": "https://dc.lft.to/lastmile_qr_scan", "ios": "https://dc.lft.to/lastmile_qr_scan"}, "name": "933e16ebc4d42850da3d524ee378dacb", "is_reserved": 0}, {"is_disabled": 0, "fusion_lon": 0.0, "fusion_lat": 0.0, "lat": 38.90170616666666, "type": "electric_scooter", "lon": -77.02484283333334, "bike_id": "c2f503b5d45739a53a1dd4845ad1e8b8", "rental_uris": {"android": "https://dc.lft.to/lastmile_qr_scan", "ios": "https://dc.lft.to/lastmile_qr_scan"}, "name": "c2f503b5d45739a53a1dd4845ad1e8b8", "is_reserved": 0}, {"is_disabled": 0, "fusion_lon": 0.0, "fusion_lat": 0.0, "lat": 38.90547516666667, "type": "electric_scooter", "lon": -77.04720583333334, "bike_id": "6e5f32eaed061395c26a4e23d849b3fd", "rental_uris": {"android": "https://dc.lft.to/lastmile_qr_scan", "ios": "https://dc.lft.to/lastmile_qr_scan"}, "name": "6e5f32eaed061395c26a4e23d849b3fd", "is_reserved": 0}, {"is_disabled": 0, "fusion_lon": 0.0, "fusion_lat": 0.0, "lat": 38.86526333333333, "type": "electric_scooter", "lon": -76.98964816666667, "bike_id": "299aaff1ca37ac498fa7086681711f1a", "rental_uris": {"android": "https://dc.lft.to/lastmile_qr_scan", "ios": "https://dc.lft.to/lastmile_qr_scan"}, "name": "299aaff1ca37ac498fa7086681711f1a", "is_reserved": 0}, {"is_disabled": 0, "fusion_lon": 0.0, "fusion_lat": 0.0, "lat": 38.898487333333335, "type": "electric_scooter", "lon": -76.94491866666667, "bike_id": "5cf2189edc6a00edc76ec8d87cb79680", "rental_uris": {"android": "https://dc.lft.to/lastmile_qr_scan", "ios": "https://dc.lft.to/lastmile_qr_scan"}, "name": "5cf2189edc6a00edc76ec8d87cb79680", "is_reserved": 0}, {"is_disabled": 0, "fusion_lon": 0.0, "fusion_lat": 0.0, "lat": 38.87643816666667, "type": "electric_scooter", "lon": -77.00762116666667, "bike_id": "4c76451833bbba5d57c0e10c18b53921", "rental_uris": {"android": "https://dc.lft.to/lastmile_qr_scan", "ios": "https://dc.lft.to/lastmile_qr_scan"}, "name": "4c76451833bbba5d57c0e10c18b53921", "is_reserved": 0}, {"is_disabled": 0, "fusion_lon": 0.0, "fusion_lat": 0.0, "lat": 38.941875833333334, "type": "electric_scooter", "lon": -77.04253416666667, "bike_id": "4f8288bbd8c2e825ae67ea89b5d610ac", "rental_uris": {"android": "https://dc.lft.to/lastmile_qr_scan", "ios": "https://dc.lft.to/lastmile_qr_scan"}, "name": "4f8288bbd8c2e825ae67ea89b5d610ac", "is_reserved": 0}, {"is_disabled": 0, "fusion_lon": 0.0, "fusion_lat": 0.0, "lat": 38.888803833333334, "type": "electric_bike", "lon": -77.02859883333333, "bike_id": "3c9631f50d4ce4744c1ba8fc8819d914", "rental_uris": {"android": "https://dc.lft.to/lastmile_qr_scan", "ios": "https://dc.lft.to/lastmile_qr_scan"}, "name": "3c9631f50d4ce4744c1ba8fc8819d914", "is_reserved": 0}, {"is_disabled": 0, "fusion_lon": 0.0, "fusion_lat": 0.0, "lat": 38.895540833333335, "type": "electric_scooter", "lon": -76.9487675, "bike_id": "6c6394ab676c8852d3f1154f17b33601", "rental_uris": {"android": "https://dc.lft.to/lastmile_qr_scan", "ios": "https://dc.lft.to/lastmile_qr_scan"}, "name": "6c6394ab676c8852d3f1154f17b33601", "is_reserved": 0}, {"is_disabled": 0, "fusion_lon": 0.0, "fusion_lat": 0.0, "lat": 39.022994833333335, "type": "electric_bike", "lon": -77.021015, "bike_id": "33d93d44243775d0b026d16027310c0c", "rental_uris": {"android": "https://dc.lft.to/lastmile_qr_scan", "ios": "https://dc.lft.to/lastmile_qr_scan"}, "name": "33d93d44243775d0b026d16027310c0c", "is_reserved": 0}, {"is_disabled": 0, "fusion_lon": 0.0, "fusion_lat": 0.0, "lat": 38.901805, "type": "electric_scooter", "lon": -77.05008133333334, "bike_id": "039039efecaf9418fb95307d8c12c211", "rental_uris": {"android": "https://dc.lft.to/lastmile_qr_scan", "ios": "https://dc.lft.to/lastmile_qr_scan"}, "name": "039039efecaf9418fb95307d8c12c211", "is_reserved": 0}, {"is_disabled": 0, "fusion_lon": 0.0, "fusion_lat": 0.0, "lat": 38.9042435, "type": "electric_scooter", "lon": -77.051578, "bike_id": "ace004810dfee58ce65a5f10f03bbc74", "rental_uris": {"android": "https://dc.lft.to/lastmile_qr_scan", "ios": "https://dc.lft.to/lastmile_qr_scan"}, "name": "ace004810dfee58ce65a5f10f03bbc74", "is_reserved": 0}, {"is_disabled": 0, "fusion_lon": 0.0, "fusion_lat": 0.0, "lat": 38.89330283333334, "type": "electric_scooter", "lon": -77.02127066666667, "bike_id": "51837e43ab334ab6fc7b46269ddc27d3", "rental_uris": {"android": "https://dc.lft.to/lastmile_qr_scan", "ios": "https://dc.lft.to/lastmile_qr_scan"}, "name": "51837e43ab334ab6fc7b46269ddc27d3", "is_reserved": 0}, {"is_disabled": 0, "fusion_lon": 0.0, "fusion_lat": 0.0, "lat": 38.93189516666666, "type": "electric_scooter", "lon": -77.04147, "bike_id": "7c07d46649e639553f543b02339b9ba3", "rental_uris": {"android": "https://dc.lft.to/lastmile_qr_scan", "ios": "https://dc.lft.to/lastmile_qr_scan"}, "name": "7c07d46649e639553f543b02339b9ba3", "is_reserved": 0}, {"is_disabled": 0, "fusion_lon": 0.0, "fusion_lat": 0.0, "lat": 38.9087035, "type": "electric_scooter", "lon": -77.03011083333334, "bike_id": "9df395535b11e786d527b5820369b270", "rental_uris": {"android": "https://dc.lft.to/lastmile_qr_scan", "ios": "https://dc.lft.to/lastmile_qr_scan"}, "name": "9df395535b11e786d527b5820369b270", "is_reserved": 0}, {"is_disabled": 0, "fusion_lon": 0.0, "fusion_lat": 0.0, "lat": 38.900690833333336, "type": "electric_scooter", "lon": -77.0128685, "bike_id": "4b8bdf41ed332de03417a68ffc707cc6", "rental_uris": {"android": "https://dc.lft.to/lastmile_qr_scan", "ios": "https://dc.lft.to/lastmile_qr_scan"}, "name": "4b8bdf41ed332de03417a68ffc707cc6", "is_reserved": 0}, {"is_disabled": 0, "fusion_lon": 0.0, "fusion_lat": 0.0, "lat": 38.894741833333335, "type": "electric_scooter", "lon": -76.93305266666667, "bike_id": "6b6a82ee388a492c0ef28a39be3990e8", "rental_uris": {"android": "https://dc.lft.to/lastmile_qr_scan", "ios": "https://dc.lft.to/lastmile_qr_scan"}, "name": "6b6a82ee388a492c0ef28a39be3990e8", "is_reserved": 0}, {"is_disabled": 0, "fusion_lon": 0.0, "fusion_lat": 0.0, "lat": 38.93123383333333, "type": "electric_scooter", "lon": -77.01991716666667, "bike_id": "d4f87cc4c2ed5cb67ae7a04c267ff306", "rental_uris": {"android": "https://dc.lft.to/lastmile_qr_scan", "ios": "https://dc.lft.to/lastmile_qr_scan"}, "name": "d4f87cc4c2ed5cb67ae7a04c267ff306", "is_reserved": 0}, {"is_disabled": 0, "fusion_lon": 0.0, "fusion_lat": 0.0, "lat": 38.90826666666667, "type": "electric_scooter", "lon": -77.04165966666666, "bike_id": "eb6a873a8bec6d5d7f624fbd9476b040", "rental_uris": {"android": "https://dc.lft.to/lastmile_qr_scan", "ios": "https://dc.lft.to/lastmile_qr_scan"}, "name": "eb6a873a8bec6d5d7f624fbd9476b040", "is_reserved": 0}, {"is_disabled": 0, "fusion_lon": 0.0, "fusion_lat": 0.0, "lat": 38.896277, "type": "electric_scooter", "lon": -77.02927966666667, "bike_id": "dadbbbbf348def4d164b3f4c085f6e79", "rental_uris": {"android": "https://dc.lft.to/lastmile_qr_scan", "ios": "https://dc.lft.to/lastmile_qr_scan"}, "name": "dadbbbbf348def4d164b3f4c085f6e79", "is_reserved": 0}, {"is_disabled": 0, "fusion_lon": 0.0, "fusion_lat": 0.0, "lat": 38.904986666666666, "type": "electric_scooter", "lon": -77.029565, "bike_id": "ca6402da8004702c53d74f1b650c3bf3", "rental_uris": {"android": "https://dc.lft.to/lastmile_qr_scan", "ios": "https://dc.lft.to/lastmile_qr_scan"}, "name": "ca6402da8004702c53d74f1b650c3bf3", "is_reserved": 0}, {"is_disabled": 0, "fusion_lon": 0.0, "fusion_lat": 0.0, "lat": 38.921002333333334, "type": "electric_scooter", "lon": -77.03047066666667, "bike_id": "6f3185cd5e096bbd9b7745872079bad3", "rental_uris": {"android": "https://dc.lft.to/lastmile_qr_scan", "ios": "https://dc.lft.to/lastmile_qr_scan"}, "name": "6f3185cd5e096bbd9b7745872079bad3", "is_reserved": 0}, {"is_disabled": 0, "fusion_lon": 0.0, "fusion_lat": 0.0, "lat": 38.928789333333334, "type": "electric_scooter", "lon": -77.04131583333333, "bike_id": "8fcc1d2ab304e962b6c720bd21f4b032", "rental_uris": {"android": "https://dc.lft.to/lastmile_qr_scan", "ios": "https://dc.lft.to/lastmile_qr_scan"}, "name": "8fcc1d2ab304e962b6c720bd21f4b032", "is_reserved": 0}, {"is_disabled": 0, "fusion_lon": 0.0, "fusion_lat": 0.0, "lat": 38.897234, "type": "electric_scooter", "lon": -77.00931333333334, "bike_id": "26dc21f9274db3ee49dd957575fabb93", "rental_uris": {"android": "https://dc.lft.to/lastmile_qr_scan", "ios": "https://dc.lft.to/lastmile_qr_scan"}, "name": "26dc21f9274db3ee49dd957575fabb93", "is_reserved": 0}, {"is_disabled": 0, "fusion_lon": 0.0, "fusion_lat": 0.0, "lat": 38.931466, "type": "electric_scooter", "lon": -77.0345845, "bike_id": "4c395ff35a09fd28004c7f3665d22472", "rental_uris": {"android": "https://dc.lft.to/lastmile_qr_scan", "ios": "https://dc.lft.to/lastmile_qr_scan"}, "name": "4c395ff35a09fd28004c7f3665d22472", "is_reserved": 0}, {"is_disabled": 0, "fusion_lon": 0.0, "fusion_lat": 0.0, "lat": 38.941316666666665, "type": "electric_scooter", "lon": -77.018215, "bike_id": "a42eb2c4ca7ec0d245abd4cee51ccc9f", "rental_uris": {"android": "https://dc.lft.to/lastmile_qr_scan", "ios": "https://dc.lft.to/lastmile_qr_scan"}, "name": "a42eb2c4ca7ec0d245abd4cee51ccc9f", "is_reserved": 0}, {"is_disabled": 0, "fusion_lon": 0.0, "fusion_lat": 0.0, "lat": 38.890040166666665, "type": "electric_scooter", "lon": -77.04901033333333, "bike_id": "0b64403801a069e277dda223bd6fbc77", "rental_uris": {"android": "https://dc.lft.to/lastmile_qr_scan", "ios": "https://dc.lft.to/lastmile_qr_scan"}, "name": "0b64403801a069e277dda223bd6fbc77", "is_reserved": 0}, {"is_disabled": 0, "fusion_lon": 0.0, "fusion_lat": 0.0, "lat": 38.86058883333333, "type": "electric_scooter", "lon": -76.985096, "bike_id": "33d918c07e1376aa4504a8fd904d539a", "rental_uris": {"android": "https://dc.lft.to/lastmile_qr_scan", "ios": "https://dc.lft.to/lastmile_qr_scan"}, "name": "33d918c07e1376aa4504a8fd904d539a", "is_reserved": 0}, {"is_disabled": 0, "fusion_lon": 0.0, "fusion_lat": 0.0, "lat": 38.928647833333336, "type": "electric_scooter", "lon": -77.01416816666666, "bike_id": "2f649d98c8739d4a37fa5edfce93dcd3", "rental_uris": {"android": "https://dc.lft.to/lastmile_qr_scan", "ios": "https://dc.lft.to/lastmile_qr_scan"}, "name": "2f649d98c8739d4a37fa5edfce93dcd3", "is_reserved": 0}, {"is_disabled": 0, "fusion_lon": 0.0, "fusion_lat": 0.0, "lat": 38.93498433333333, "type": "electric_scooter", "lon": -77.02602333333333, "bike_id": "e7c7d0001d562a3df828cf9578f82ef1", "rental_uris": {"android": "https://dc.lft.to/lastmile_qr_scan", "ios": "https://dc.lft.to/lastmile_qr_scan"}, "name": "e7c7d0001d562a3df828cf9578f82ef1", "is_reserved": 0}, {"is_disabled": 0, "fusion_lon": 0.0, "fusion_lat": 0.0, "lat": 38.92372666666667, "type": "electric_scooter", "lon": -77.028157, "bike_id": "c6e7d643d38aa6688c4fab200e704579", "rental_uris": {"android": "https://dc.lft.to/lastmile_qr_scan", "ios": "https://dc.lft.to/lastmile_qr_scan"}, "name": "c6e7d643d38aa6688c4fab200e704579", "is_reserved": 0}, {"is_disabled": 0, "fusion_lon": 0.0, "fusion_lat": 0.0, "lat": 38.923196, "type": "electric_scooter", "lon": -77.04516683333334, "bike_id": "eacfe227d25012de65edb053f7ed86c2", "rental_uris": {"android": "https://dc.lft.to/lastmile_qr_scan", "ios": "https://dc.lft.to/lastmile_qr_scan"}, "name": "eacfe227d25012de65edb053f7ed86c2", "is_reserved": 0}, {"is_disabled": 0, "fusion_lon": 0.0, "fusion_lat": 0.0, "lat": 38.85917, "type": "electric_scooter", "lon": -76.98780066666667, "bike_id": "018e2d5bc3c70d3466c79d085483a968", "rental_uris": {"android": "https://dc.lft.to/lastmile_qr_scan", "ios": "https://dc.lft.to/lastmile_qr_scan"}, "name": "018e2d5bc3c70d3466c79d085483a968", "is_reserved": 0}, {"is_disabled": 0, "fusion_lon": 0.0, "fusion_lat": 0.0, "lat": 38.92605616666667, "type": "electric_scooter", "lon": -77.0215775, "bike_id": "f861f9cab83a35347155c6cbbffe98fd", "rental_uris": {"android": "https://dc.lft.to/lastmile_qr_scan", "ios": "https://dc.lft.to/lastmile_qr_scan"}, "name": "f861f9cab83a35347155c6cbbffe98fd", "is_reserved": 0}, {"is_disabled": 0, "fusion_lon": 0.0, "fusion_lat": 0.0, "lat": 38.88390583333333, "type": "electric_scooter", "lon": -77.0173485, "bike_id": "904a896b4b73822bbd40f890314ae368", "rental_uris": {"android": "https://dc.lft.to/lastmile_qr_scan", "ios": "https://dc.lft.to/lastmile_qr_scan"}, "name": "904a896b4b73822bbd40f890314ae368", "is_reserved": 0}, {"is_disabled": 0, "fusion_lon": 0.0, "fusion_lat": 0.0, "lat": 38.910101166666664, "type": "electric_scooter", "lon": -77.0209455, "bike_id": "282caacc14c4f6b6061c60380e778901", "rental_uris": {"android": "https://dc.lft.to/lastmile_qr_scan", "ios": "https://dc.lft.to/lastmile_qr_scan"}, "name": "282caacc14c4f6b6061c60380e778901", "is_reserved": 0}, {"is_disabled": 0, "fusion_lon": 0.0, "fusion_lat": 0.0, "lat": 38.9209265, "type": "electric_scooter", "lon": -77.02588533333333, "bike_id": "442e5292e3337e23553df297880cbc08", "rental_uris": {"android": "https://dc.lft.to/lastmile_qr_scan", "ios": "https://dc.lft.to/lastmile_qr_scan"}, "name": "442e5292e3337e23553df297880cbc08", "is_reserved": 0}, {"is_disabled": 0, "fusion_lon": 0.0, "fusion_lat": 0.0, "lat": 38.884521, "type": "electric_scooter", "lon": -76.95097966666667, "bike_id": "fd9f8380e7a25df80067bf346d2b8516", "rental_uris": {"android": "https://dc.lft.to/lastmile_qr_scan", "ios": "https://dc.lft.to/lastmile_qr_scan"}, "name": "fd9f8380e7a25df80067bf346d2b8516", "is_reserved": 0}, {"is_disabled": 0, "fusion_lon": 0.0, "fusion_lat": 0.0, "lat": 38.89785283333333, "type": "electric_scooter", "lon": -77.04753033333333, "bike_id": "7e9b894700ab16998868b7f3a27112b3", "rental_uris": {"android": "https://dc.lft.to/lastmile_qr_scan", "ios": "https://dc.lft.to/lastmile_qr_scan"}, "name": "7e9b894700ab16998868b7f3a27112b3", "is_reserved": 0}, {"is_disabled": 0, "fusion_lon": 0.0, "fusion_lat": 0.0, "lat": 38.91039716666667, "type": "electric_scooter", "lon": -77.042561, "bike_id": "08b6e11cb58a38ba9f1b22f3ed5757ff", "rental_uris": {"android": "https://dc.lft.to/lastmile_qr_scan", "ios": "https://dc.lft.to/lastmile_qr_scan"}, "name": "08b6e11cb58a38ba9f1b22f3ed5757ff", "is_reserved": 0}, {"is_disabled": 0, "fusion_lon": 0.0, "fusion_lat": 0.0, "lat": 38.92349766666667, "type": "electric_scooter", "lon": -77.03901316666666, "bike_id": "4c464efa31e1f1a498fd26bf179c8ce2", "rental_uris": {"android": "https://dc.lft.to/lastmile_qr_scan", "ios": "https://dc.lft.to/lastmile_qr_scan"}, "name": "4c464efa31e1f1a498fd26bf179c8ce2", "is_reserved": 0}, {"is_disabled": 0, "fusion_lon": 0.0, "fusion_lat": 0.0, "lat": 38.93416466666667, "type": "electric_scooter", "lon": -77.0426695, "bike_id": "fbbfb5944c4cde127b3131fed4ab5169", "rental_uris": {"android": "https://dc.lft.to/lastmile_qr_scan", "ios": "https://dc.lft.to/lastmile_qr_scan"}, "name": "fbbfb5944c4cde127b3131fed4ab5169", "is_reserved": 0}, {"is_disabled": 0, "fusion_lon": 0.0, "fusion_lat": 0.0, "lat": 38.89579366666667, "type": "electric_bike", "lon": -76.97618766666666, "bike_id": "f919d43c477b5cbaa5f43ebea67c4ea0", "rental_uris": {"android": "https://dc.lft.to/lastmile_qr_scan", "ios": "https://dc.lft.to/lastmile_qr_scan"}, "name": "f919d43c477b5cbaa5f43ebea67c4ea0", "is_reserved": 0}, {"is_disabled": 0, "fusion_lon": 0.0, "fusion_lat": 0.0, "lat": 38.92055766666667, "type": "electric_scooter", "lon": -77.03436466666666, "bike_id": "fbd30b6ac66c048c0e4f871a4fee1ba4", "rental_uris": {"android": "https://dc.lft.to/lastmile_qr_scan", "ios": "https://dc.lft.to/lastmile_qr_scan"}, "name": "fbd30b6ac66c048c0e4f871a4fee1ba4", "is_reserved": 0}, {"is_disabled": 0, "fusion_lon": 0.0, "fusion_lat": 0.0, "lat": 38.916306, "type": "electric_scooter", "lon": -77.03197083333333, "bike_id": "a1139434e07eb3fbc0a2d67168910a8b", "rental_uris": {"android": "https://dc.lft.to/lastmile_qr_scan", "ios": "https://dc.lft.to/lastmile_qr_scan"}, "name": "a1139434e07eb3fbc0a2d67168910a8b", "is_reserved": 0}, {"is_disabled": 0, "fusion_lon": 0.0, "fusion_lat": 0.0, "lat": 38.9072145, "type": "electric_scooter", "lon": -77.02877216666667, "bike_id": "859cca6de36cb9fcd5b490a2eba2dc92", "rental_uris": {"android": "https://dc.lft.to/lastmile_qr_scan", "ios": "https://dc.lft.to/lastmile_qr_scan"}, "name": "859cca6de36cb9fcd5b490a2eba2dc92", "is_reserved": 0}, {"is_disabled": 0, "fusion_lon": 0.0, "fusion_lat": 0.0, "lat": 38.94523083333333, "type": "electric_scooter", "lon": -77.02982716666666, "bike_id": "e176ae91edfbe2af6bd4135ddf821e32", "rental_uris": {"android": "https://dc.lft.to/lastmile_qr_scan", "ios": "https://dc.lft.to/lastmile_qr_scan"}, "name": "e176ae91edfbe2af6bd4135ddf821e32", "is_reserved": 0}, {"is_disabled": 0, "fusion_lon": 0.0, "fusion_lat": 0.0, "lat": 38.910931, "type": "electric_bike", "lon": -77.08774133333333, "bike_id": "d16f489260bf08cb5b2491fb390dd66e", "rental_uris": {"android": "https://dc.lft.to/lastmile_qr_scan", "ios": "https://dc.lft.to/lastmile_qr_scan"}, "name": "d16f489260bf08cb5b2491fb390dd66e", "is_reserved": 0}, {"is_disabled": 0, "fusion_lon": 0.0, "fusion_lat": 0.0, "lat": 38.92568716666667, "type": "electric_scooter", "lon": -77.0526275, "bike_id": "9e01e4f44602f8c468c5e03113953637", "rental_uris": {"android": "https://dc.lft.to/lastmile_qr_scan", "ios": "https://dc.lft.to/lastmile_qr_scan"}, "name": "9e01e4f44602f8c468c5e03113953637", "is_reserved": 0}, {"is_disabled": 0, "fusion_lon": 0.0, "fusion_lat": 0.0, "lat": 38.918102833333336, "type": "electric_scooter", "lon": -77.03442433333333, "bike_id": "df4c4a93d7d7ddea90ecd881fb287c4d", "rental_uris": {"android": "https://dc.lft.to/lastmile_qr_scan", "ios": "https://dc.lft.to/lastmile_qr_scan"}, "name": "df4c4a93d7d7ddea90ecd881fb287c4d", "is_reserved": 0}, {"is_disabled": 0, "fusion_lon": 0.0, "fusion_lat": 0.0, "lat": 38.883764, "type": "electric_scooter", "lon": -76.92375566666666, "bike_id": "5a19faea567d8364e3210a901f8b2214", "rental_uris": {"android": "https://dc.lft.to/lastmile_qr_scan", "ios": "https://dc.lft.to/lastmile_qr_scan"}, "name": "5a19faea567d8364e3210a901f8b2214", "is_reserved": 0}, {"is_disabled": 0, "fusion_lon": 0.0, "fusion_lat": 0.0, "lat": 38.90246633333334, "type": "electric_scooter", "lon": -77.05399566666667, "bike_id": "7f4af54c5ea40108954c280eb5be9ed8", "rental_uris": {"android": "https://dc.lft.to/lastmile_qr_scan", "ios": "https://dc.lft.to/lastmile_qr_scan"}, "name": "7f4af54c5ea40108954c280eb5be9ed8", "is_reserved": 0}, {"is_disabled": 0, "fusion_lon": 0.0, "fusion_lat": 0.0, "lat": 38.916279833333334, "type": "electric_scooter", "lon": -77.04084283333333, "bike_id": "18cd0a41686e0f5a6394e0354ac82e89", "rental_uris": {"android": "https://dc.lft.to/lastmile_qr_scan", "ios": "https://dc.lft.to/lastmile_qr_scan"}, "name": "18cd0a41686e0f5a6394e0354ac82e89", "is_reserved": 0}, {"is_disabled": 0, "fusion_lon": 0.0, "fusion_lat": 0.0, "lat": 38.889150666666666, "type": "electric_scooter", "lon": -76.980085, "bike_id": "ef6a0e5885e4025b5ac6ba90059fb4f6", "rental_uris": {"android": "https://dc.lft.to/lastmile_qr_scan", "ios": "https://dc.lft.to/lastmile_qr_scan"}, "name": "ef6a0e5885e4025b5ac6ba90059fb4f6", "is_reserved": 0}, {"is_disabled": 0, "fusion_lon": 0.0, "fusion_lat": 0.0, "lat": 38.9288685, "type": "electric_scooter", "lon": -77.03732966666666, "bike_id": "4f01a4675a82ce83220f7ef101acdb84", "rental_uris": {"android": "https://dc.lft.to/lastmile_qr_scan", "ios": "https://dc.lft.to/lastmile_qr_scan"}, "name": "4f01a4675a82ce83220f7ef101acdb84", "is_reserved": 0}, {"is_disabled": 0, "fusion_lon": 0.0, "fusion_lat": 0.0, "lat": 38.90539316666667, "type": "electric_scooter", "lon": -77.0500415, "bike_id": "07380304f0c312968ced8f5b815da421", "rental_uris": {"android": "https://dc.lft.to/lastmile_qr_scan", "ios": "https://dc.lft.to/lastmile_qr_scan"}, "name": "07380304f0c312968ced8f5b815da421", "is_reserved": 0}, {"is_disabled": 0, "fusion_lon": 0.0, "fusion_lat": 0.0, "lat": 38.900088333333336, "type": "electric_scooter", "lon": -77.03379583333333, "bike_id": "0eaa1baa0eaea437ebb7acac6a6334bd", "rental_uris": {"android": "https://dc.lft.to/lastmile_qr_scan", "ios": "https://dc.lft.to/lastmile_qr_scan"}, "name": "0eaa1baa0eaea437ebb7acac6a6334bd", "is_reserved": 0}, {"is_disabled": 0, "fusion_lon": 0.0, "fusion_lat": 0.0, "lat": 38.924405166666666, "type": "electric_bike", "lon": -76.907592, "bike_id": "ba56672faa1409371fcbafb856a71370", "rental_uris": {"android": "https://dc.lft.to/lastmile_qr_scan", "ios": "https://dc.lft.to/lastmile_qr_scan"}, "name": "ba56672faa1409371fcbafb856a71370", "is_reserved": 0}, {"is_disabled": 0, "fusion_lon": 0.0, "fusion_lat": 0.0, "lat": 38.8995305, "type": "electric_scooter", "lon": -77.00213666666667, "bike_id": "6a0a5ac7f9b1eb4004aa28d36c04228a", "rental_uris": {"android": "https://dc.lft.to/lastmile_qr_scan", "ios": "https://dc.lft.to/lastmile_qr_scan"}, "name": "6a0a5ac7f9b1eb4004aa28d36c04228a", "is_reserved": 0}, {"is_disabled": 0, "fusion_lon": 0.0, "fusion_lat": 0.0, "lat": 38.896739333333336, "type": "electric_bike", "lon": -76.98166466666666, "bike_id": "d9c18cc950671bf4bee6875656b8c27d", "rental_uris": {"android": "https://dc.lft.to/lastmile_qr_scan", "ios": "https://dc.lft.to/lastmile_qr_scan"}, "name": "d9c18cc950671bf4bee6875656b8c27d", "is_reserved": 0}, {"is_disabled": 0, "fusion_lon": 0.0, "fusion_lat": 0.0, "lat": 38.904290833333334, "type": "electric_scooter", "lon": -77.06884, "bike_id": "a87d9cd1576b82c1772a95136b529f00", "rental_uris": {"android": "https://dc.lft.to/lastmile_qr_scan", "ios": "https://dc.lft.to/lastmile_qr_scan"}, "name": "a87d9cd1576b82c1772a95136b529f00", "is_reserved": 0}, {"is_disabled": 0, "fusion_lon": 0.0, "fusion_lat": 0.0, "lat": 38.871974, "type": "electric_scooter", "lon": -76.97825133333333, "bike_id": "e2d5215b428afc85a64e485b582519cb", "rental_uris": {"android": "https://dc.lft.to/lastmile_qr_scan", "ios": "https://dc.lft.to/lastmile_qr_scan"}, "name": "e2d5215b428afc85a64e485b582519cb", "is_reserved": 0}, {"is_disabled": 0, "fusion_lon": 0.0, "fusion_lat": 0.0, "lat": 38.896896, "type": "electric_scooter", "lon": -77.01148733333333, "bike_id": "a071e02f78fb8e2e53bb607e8e573c1a", "rental_uris": {"android": "https://dc.lft.to/lastmile_qr_scan", "ios": "https://dc.lft.to/lastmile_qr_scan"}, "name": "a071e02f78fb8e2e53bb607e8e573c1a", "is_reserved": 0}, {"is_disabled": 0, "fusion_lon": 0.0, "fusion_lat": 0.0, "lat": 38.90590133333333, "type": "electric_scooter", "lon": -77.06914533333334, "bike_id": "b6476b0f2e372c2e6eb6ced8735b7bec", "rental_uris": {"android": "https://dc.lft.to/lastmile_qr_scan", "ios": "https://dc.lft.to/lastmile_qr_scan"}, "name": "b6476b0f2e372c2e6eb6ced8735b7bec", "is_reserved": 0}, {"is_disabled": 0, "fusion_lon": 0.0, "fusion_lat": 0.0, "lat": 38.961439, "type": "electric_scooter", "lon": -77.02808483333334, "bike_id": "4f2477b4c8a6506c64352dde4962f5b4", "rental_uris": {"android": "https://dc.lft.to/lastmile_qr_scan", "ios": "https://dc.lft.to/lastmile_qr_scan"}, "name": "4f2477b4c8a6506c64352dde4962f5b4", "is_reserved": 0}, {"is_disabled": 0, "fusion_lon": 0.0, "fusion_lat": 0.0, "lat": 38.9080285, "type": "electric_scooter", "lon": -77.001509, "bike_id": "7dcfdfda86920c5dac03fbb2618aceaf", "rental_uris": {"android": "https://dc.lft.to/lastmile_qr_scan", "ios": "https://dc.lft.to/lastmile_qr_scan"}, "name": "7dcfdfda86920c5dac03fbb2618aceaf", "is_reserved": 0}, {"is_disabled": 0, "fusion_lon": 0.0, "fusion_lat": 0.0, "lat": 38.8807695, "type": "electric_scooter", "lon": -77.01666466666667, "bike_id": "e42f1e701881f032b412d5e7d1b3be3d", "rental_uris": {"android": "https://dc.lft.to/lastmile_qr_scan", "ios": "https://dc.lft.to/lastmile_qr_scan"}, "name": "e42f1e701881f032b412d5e7d1b3be3d", "is_reserved": 0}, {"is_disabled": 0, "fusion_lon": 0.0, "fusion_lat": 0.0, "lat": 38.858419833333336, "type": "electric_bike", "lon": -76.99285366666666, "bike_id": "9257eb5177d21a85e45dc396013f1019", "rental_uris": {"android": "https://dc.lft.to/lastmile_qr_scan", "ios": "https://dc.lft.to/lastmile_qr_scan"}, "name": "9257eb5177d21a85e45dc396013f1019", "is_reserved": 0}, {"is_disabled": 0, "fusion_lon": 0.0, "fusion_lat": 0.0, "lat": 38.922511, "type": "electric_scooter", "lon": -77.03077766666667, "bike_id": "1b319bd07c8e9e2da3d1dc5463f94f93", "rental_uris": {"android": "https://dc.lft.to/lastmile_qr_scan", "ios": "https://dc.lft.to/lastmile_qr_scan"}, "name": "1b319bd07c8e9e2da3d1dc5463f94f93", "is_reserved": 0}, {"is_disabled": 0, "fusion_lon": 0.0, "fusion_lat": 0.0, "lat": 38.9182345, "type": "electric_scooter", "lon": -77.03252816666667, "bike_id": "1e577433937389c7148e4bd23c0bb405", "rental_uris": {"android": "https://dc.lft.to/lastmile_qr_scan", "ios": "https://dc.lft.to/lastmile_qr_scan"}, "name": "1e577433937389c7148e4bd23c0bb405", "is_reserved": 0}, {"is_disabled": 0, "fusion_lon": 0.0, "fusion_lat": 0.0, "lat": 38.879873333333336, "type": "electric_bike", "lon": -76.91596433333333, "bike_id": "55189e59ec09b93698e502bdc5128d38", "rental_uris": {"android": "https://dc.lft.to/lastmile_qr_scan", "ios": "https://dc.lft.to/lastmile_qr_scan"}, "name": "55189e59ec09b93698e502bdc5128d38", "is_reserved": 0}, {"is_disabled": 0, "fusion_lon": 0.0, "fusion_lat": 0.0, "lat": 38.87311533333333, "type": "electric_bike", "lon": -76.97104616666667, "bike_id": "5fd17f6dd02b0949340dda066e0899f2", "rental_uris": {"android": "https://dc.lft.to/lastmile_qr_scan", "ios": "https://dc.lft.to/lastmile_qr_scan"}, "name": "5fd17f6dd02b0949340dda066e0899f2", "is_reserved": 0}, {"is_disabled": 0, "fusion_lon": 0.0, "fusion_lat": 0.0, "lat": 38.965015333333334, "type": "electric_scooter", "lon": -77.02482783333333, "bike_id": "7f46265feb5ffebd91b294724f585304", "rental_uris": {"android": "https://dc.lft.to/lastmile_qr_scan", "ios": "https://dc.lft.to/lastmile_qr_scan"}, "name": "7f46265feb5ffebd91b294724f585304", "is_reserved": 0}, {"is_disabled": 0, "fusion_lon": 0.0, "fusion_lat": 0.0, "lat": 38.953789666666665, "type": "electric_scooter", "lon": -77.02556283333334, "bike_id": "685357461baf541220c629eaa5f9ca1d", "rental_uris": {"android": "https://dc.lft.to/lastmile_qr_scan", "ios": "https://dc.lft.to/lastmile_qr_scan"}, "name": "685357461baf541220c629eaa5f9ca1d", "is_reserved": 0}, {"is_disabled": 0, "fusion_lon": 0.0, "fusion_lat": 0.0, "lat": 38.966572666666664, "type": "electric_bike", "lon": -76.93025766666666, "bike_id": "5297a05503ab6188b2d1e0107f505942", "rental_uris": {"android": "https://dc.lft.to/lastmile_qr_scan", "ios": "https://dc.lft.to/lastmile_qr_scan"}, "name": "5297a05503ab6188b2d1e0107f505942", "is_reserved": 0}, {"is_disabled": 0, "fusion_lon": 0.0, "fusion_lat": 0.0, "lat": 38.89224166666666, "type": "electric_scooter", "lon": -77.0333665, "bike_id": "fbc07da3019725290113b34c6077d73a", "rental_uris": {"android": "https://dc.lft.to/lastmile_qr_scan", "ios": "https://dc.lft.to/lastmile_qr_scan"}, "name": "fbc07da3019725290113b34c6077d73a", "is_reserved": 0}, {"is_disabled": 0, "fusion_lon": 0.0, "fusion_lat": 0.0, "lat": 38.930147166666664, "type": "electric_scooter", "lon": -77.0784995, "bike_id": "38b17618fcf647c20904796f94bcad0a", "rental_uris": {"android": "https://dc.lft.to/lastmile_qr_scan", "ios": "https://dc.lft.to/lastmile_qr_scan"}, "name": "38b17618fcf647c20904796f94bcad0a", "is_reserved": 0}, {"is_disabled": 0, "fusion_lon": 0.0, "fusion_lat": 0.0, "lat": 38.92416883333333, "type": "electric_scooter", "lon": -77.04161883333333, "bike_id": "fb485204ceae0d924f1fd42e4151de6f", "rental_uris": {"android": "https://dc.lft.to/lastmile_qr_scan", "ios": "https://dc.lft.to/lastmile_qr_scan"}, "name": "fb485204ceae0d924f1fd42e4151de6f", "is_reserved": 0}, {"is_disabled": 0, "fusion_lon": 0.0, "fusion_lat": 0.0, "lat": 38.90732416666667, "type": "electric_scooter", "lon": -77.03844333333333, "bike_id": "1191a50f4f34eb1ce2a5718fee7a0cab", "rental_uris": {"android": "https://dc.lft.to/lastmile_qr_scan", "ios": "https://dc.lft.to/lastmile_qr_scan"}, "name": "1191a50f4f34eb1ce2a5718fee7a0cab", "is_reserved": 0}, {"is_disabled": 0, "fusion_lon": 0.0, "fusion_lat": 0.0, "lat": 38.9337185, "type": "electric_scooter", "lon": -77.05733583333334, "bike_id": "244564af8aa98023232cb2b793b619c9", "rental_uris": {"android": "https://dc.lft.to/lastmile_qr_scan", "ios": "https://dc.lft.to/lastmile_qr_scan"}, "name": "244564af8aa98023232cb2b793b619c9", "is_reserved": 0}, {"is_disabled": 0, "fusion_lon": 0.0, "fusion_lat": 0.0, "lat": 38.91173633333333, "type": "electric_scooter", "lon": -77.00464533333333, "bike_id": "cae9142c751ad875b9efbc30e5ba142a", "rental_uris": {"android": "https://dc.lft.to/lastmile_qr_scan", "ios": "https://dc.lft.to/lastmile_qr_scan"}, "name": "cae9142c751ad875b9efbc30e5ba142a", "is_reserved": 0}, {"is_disabled": 0, "fusion_lon": 0.0, "fusion_lat": 0.0, "lat": 38.9037705, "type": "electric_scooter", "lon": -77.05023, "bike_id": "e83845d227909f66def70325f58c2c9c", "rental_uris": {"android": "https://dc.lft.to/lastmile_qr_scan", "ios": "https://dc.lft.to/lastmile_qr_scan"}, "name": "e83845d227909f66def70325f58c2c9c", "is_reserved": 0}, {"is_disabled": 0, "fusion_lon": 0.0, "fusion_lat": 0.0, "lat": 38.908491166666664, "type": "electric_scooter", "lon": -77.00219666666666, "bike_id": "d5426486b2cd01cb8fe0cf5024ee92f4", "rental_uris": {"android": "https://dc.lft.to/lastmile_qr_scan", "ios": "https://dc.lft.to/lastmile_qr_scan"}, "name": "d5426486b2cd01cb8fe0cf5024ee92f4", "is_reserved": 0}, {"is_disabled": 0, "fusion_lon": 0.0, "fusion_lat": 0.0, "lat": 38.91625716666667, "type": "electric_scooter", "lon": -77.04598383333334, "bike_id": "f89c1329bd284f30cbc5ac2c8727851e", "rental_uris": {"android": "https://dc.lft.to/lastmile_qr_scan", "ios": "https://dc.lft.to/lastmile_qr_scan"}, "name": "f89c1329bd284f30cbc5ac2c8727851e", "is_reserved": 0}, {"is_disabled": 0, "fusion_lon": 0.0, "fusion_lat": 0.0, "lat": 38.91629066666667, "type": "electric_bike", "lon": -77.01353266666666, "bike_id": "16f14a8fd9a27fd6b963082838fd4fd6", "rental_uris": {"android": "https://dc.lft.to/lastmile_qr_scan", "ios": "https://dc.lft.to/lastmile_qr_scan"}, "name": "16f14a8fd9a27fd6b963082838fd4fd6", "is_reserved": 0}, {"is_disabled": 0, "fusion_lon": 0.0, "fusion_lat": 0.0, "lat": 38.902614166666666, "type": "electric_scooter", "lon": -77.03445566666667, "bike_id": "d9baaf82b025ee3b15091d5f77652513", "rental_uris": {"android": "https://dc.lft.to/lastmile_qr_scan", "ios": "https://dc.lft.to/lastmile_qr_scan"}, "name": "d9baaf82b025ee3b15091d5f77652513", "is_reserved": 0}, {"is_disabled": 0, "fusion_lon": 0.0, "fusion_lat": 0.0, "lat": 38.919047, "type": "electric_scooter", "lon": -77.024093, "bike_id": "aec160e5c4d19a18c7af3f2f4fc64ebb", "rental_uris": {"android": "https://dc.lft.to/lastmile_qr_scan", "ios": "https://dc.lft.to/lastmile_qr_scan"}, "name": "aec160e5c4d19a18c7af3f2f4fc64ebb", "is_reserved": 0}, {"is_disabled": 0, "fusion_lon": 0.0, "fusion_lat": 0.0, "lat": 38.89746483333333, "type": "electric_scooter", "lon": -77.04799316666667, "bike_id": "c3d223a133581fe698f39c3159cdffcd", "rental_uris": {"android": "https://dc.lft.to/lastmile_qr_scan", "ios": "https://dc.lft.to/lastmile_qr_scan"}, "name": "c3d223a133581fe698f39c3159cdffcd", "is_reserved": 0}, {"is_disabled": 0, "fusion_lon": 0.0, "fusion_lat": 0.0, "lat": 38.9099965, "type": "electric_scooter", "lon": -77.03207716666667, "bike_id": "6c069073395e889c4656e1006c928693", "rental_uris": {"android": "https://dc.lft.to/lastmile_qr_scan", "ios": "https://dc.lft.to/lastmile_qr_scan"}, "name": "6c069073395e889c4656e1006c928693", "is_reserved": 0}, {"is_disabled": 0, "fusion_lon": 0.0, "fusion_lat": 0.0, "lat": 38.968071333333334, "type": "electric_scooter", "lon": -77.02120066666667, "bike_id": "0bc14931add3976f3a1340b7f83c2b88", "rental_uris": {"android": "https://dc.lft.to/lastmile_qr_scan", "ios": "https://dc.lft.to/lastmile_qr_scan"}, "name": "0bc14931add3976f3a1340b7f83c2b88", "is_reserved": 0}, {"is_disabled": 0, "fusion_lon": 0.0, "fusion_lat": 0.0, "lat": 38.90133183333333, "type": "electric_scooter", "lon": -77.01770316666666, "bike_id": "46babb7025562f458dbd532f5e693d35", "rental_uris": {"android": "https://dc.lft.to/lastmile_qr_scan", "ios": "https://dc.lft.to/lastmile_qr_scan"}, "name": "46babb7025562f458dbd532f5e693d35", "is_reserved": 0}, {"is_disabled": 0, "fusion_lon": 0.0, "fusion_lat": 0.0, "lat": 38.88017466666667, "type": "electric_scooter", "lon": -76.98236666666666, "bike_id": "a5efa0fa4718f28bf1d9117cd3df42e5", "rental_uris": {"android": "https://dc.lft.to/lastmile_qr_scan", "ios": "https://dc.lft.to/lastmile_qr_scan"}, "name": "a5efa0fa4718f28bf1d9117cd3df42e5", "is_reserved": 0}, {"is_disabled": 0, "fusion_lon": 0.0, "fusion_lat": 0.0, "lat": 38.914968333333334, "type": "electric_scooter", "lon": -77.03207783333333, "bike_id": "e0955ff13c41503c1fca0fab094ff8ea", "rental_uris": {"android": "https://dc.lft.to/lastmile_qr_scan", "ios": "https://dc.lft.to/lastmile_qr_scan"}, "name": "e0955ff13c41503c1fca0fab094ff8ea", "is_reserved": 0}, {"is_disabled": 0, "fusion_lon": 0.0, "fusion_lat": 0.0, "lat": 38.88326883333333, "type": "electric_scooter", "lon": -77.01667, "bike_id": "7bcd1264c0c9b421f0b506a196d8c1b5", "rental_uris": {"android": "https://dc.lft.to/lastmile_qr_scan", "ios": "https://dc.lft.to/lastmile_qr_scan"}, "name": "7bcd1264c0c9b421f0b506a196d8c1b5", "is_reserved": 0}, {"is_disabled": 0, "fusion_lon": 0.0, "fusion_lat": 0.0, "lat": 38.901532333333336, "type": "electric_scooter", "lon": -77.0400285, "bike_id": "7ce05cf0b601339338a1bf3feec37c03", "rental_uris": {"android": "https://dc.lft.to/lastmile_qr_scan", "ios": "https://dc.lft.to/lastmile_qr_scan"}, "name": "7ce05cf0b601339338a1bf3feec37c03", "is_reserved": 0}, {"is_disabled": 0, "fusion_lon": 0.0, "fusion_lat": 0.0, "lat": 38.940879333333335, "type": "electric_scooter", "lon": -77.03813266666667, "bike_id": "6f345db6518b2dc95dc40b13eed27c77", "rental_uris": {"android": "https://dc.lft.to/lastmile_qr_scan", "ios": "https://dc.lft.to/lastmile_qr_scan"}, "name": "6f345db6518b2dc95dc40b13eed27c77", "is_reserved": 0}, {"is_disabled": 0, "fusion_lon": 0.0, "fusion_lat": 0.0, "lat": 38.9716575, "type": "electric_bike", "lon": -76.98023633333334, "bike_id": "f3e683fc8de9031d5e792c4e1faf9fe4", "rental_uris": {"android": "https://dc.lft.to/lastmile_qr_scan", "ios": "https://dc.lft.to/lastmile_qr_scan"}, "name": "f3e683fc8de9031d5e792c4e1faf9fe4", "is_reserved": 0}, {"is_disabled": 0, "fusion_lon": 0.0, "fusion_lat": 0.0, "lat": 38.8935345, "type": "electric_scooter", "lon": -76.984675, "bike_id": "60a7d5c97a828f89f1e95996b8362983", "rental_uris": {"android": "https://dc.lft.to/lastmile_qr_scan", "ios": "https://dc.lft.to/lastmile_qr_scan"}, "name": "60a7d5c97a828f89f1e95996b8362983", "is_reserved": 0}, {"is_disabled": 0, "fusion_lon": 0.0, "fusion_lat": 0.0, "lat": 38.93963466666666, "type": "electric_scooter", "lon": -77.027511, "bike_id": "4063b4b9c4ec5eba9626e4160e328381", "rental_uris": {"android": "https://dc.lft.to/lastmile_qr_scan", "ios": "https://dc.lft.to/lastmile_qr_scan"}, "name": "4063b4b9c4ec5eba9626e4160e328381", "is_reserved": 0}, {"is_disabled": 0, "fusion_lon": 0.0, "fusion_lat": 0.0, "lat": 38.91887216666667, "type": "electric_scooter", "lon": -77.015931, "bike_id": "e149a9c015949e36287ada37316bdcc1", "rental_uris": {"android": "https://dc.lft.to/lastmile_qr_scan", "ios": "https://dc.lft.to/lastmile_qr_scan"}, "name": "e149a9c015949e36287ada37316bdcc1", "is_reserved": 0}, {"is_disabled": 0, "fusion_lon": 0.0, "fusion_lat": 0.0, "lat": 38.931894, "type": "electric_bike", "lon": -77.22943816666667, "bike_id": "f2b54728308970b06794b0ee6d8152a9", "rental_uris": {"android": "https://dc.lft.to/lastmile_qr_scan", "ios": "https://dc.lft.to/lastmile_qr_scan"}, "name": "f2b54728308970b06794b0ee6d8152a9", "is_reserved": 0}, {"is_disabled": 0, "fusion_lon": 0.0, "fusion_lat": 0.0, "lat": 38.920563, "type": "electric_scooter", "lon": -76.998748, "bike_id": "6bc824ff715c4c6c3a127ded644f65ff", "rental_uris": {"android": "https://dc.lft.to/lastmile_qr_scan", "ios": "https://dc.lft.to/lastmile_qr_scan"}, "name": "6bc824ff715c4c6c3a127ded644f65ff", "is_reserved": 0}, {"is_disabled": 0, "fusion_lon": 0.0, "fusion_lat": 0.0, "lat": 38.88373966666666, "type": "electric_scooter", "lon": -76.92646216666667, "bike_id": "af060bcad667b0c5e899746a2decfe5e", "rental_uris": {"android": "https://dc.lft.to/lastmile_qr_scan", "ios": "https://dc.lft.to/lastmile_qr_scan"}, "name": "af060bcad667b0c5e899746a2decfe5e", "is_reserved": 0}, {"is_disabled": 0, "fusion_lon": 0.0, "fusion_lat": 0.0, "lat": 38.992549, "type": "electric_bike", "lon": -77.049972, "bike_id": "c74da72c9b538cf8efaee4ff6930f117", "rental_uris": {"android": "https://dc.lft.to/lastmile_qr_scan", "ios": "https://dc.lft.to/lastmile_qr_scan"}, "name": "c74da72c9b538cf8efaee4ff6930f117", "is_reserved": 0}, {"is_disabled": 0, "fusion_lon": 0.0, "fusion_lat": 0.0, "lat": 38.91277866666667, "type": "electric_scooter", "lon": -77.03862233333334, "bike_id": "9100cf53526f0005ed041694718d9314", "rental_uris": {"android": "https://dc.lft.to/lastmile_qr_scan", "ios": "https://dc.lft.to/lastmile_qr_scan"}, "name": "9100cf53526f0005ed041694718d9314", "is_reserved": 0},