{"data": {"bikes": [{"lat": 38.97212966666667, "lon": -77.03337133333333, "is_disabled": 0, "fusion_lon": 0.0, "is_reserved": 0, "name": "a91657468abf55a379433052d3975855", "type": "electric_scooter", "bike_id": "a91657468abf55a379433052d3975855", "rental_uris": {"ios": "https://dc.lft.to/lastmile_qr_scan", "android": "https://dc.lft.to/lastmile_qr_scan"}, "fusion_lat": 0.0}, {"lat": 38.900496, "lon": -76.988407, "is_disabled": 0, "fusion_lon": 0.0, "is_reserved": 0, "name": "62bbba1a07b2a2544d75ae5dfaca9d9e", "type": "electric_scooter", "bike_id": "62bbba1a07b2a2544d75ae5dfaca9d9e", "rental_uris": {"ios": "https://dc.lft.to/lastmile_qr_scan", "android": "https://dc.lft.to/lastmile_qr_scan"}, "fusion_lat": 0.0}, {"lat": 38.92550583333333, "lon": -77.00072916666667, "is_disabled": 0, "fusion_lon": 0.0, "is_reserved": 0, "name": "3cea02d9bee97d7deced1eecc9f910a4", "type": "electric_scooter", "bike_id": "3cea02d9bee97d7deced1eecc9f910a4", "rental_uris": {"ios": "https://dc.lft.to/lastmile_qr_scan", "android": "https://dc.lft.to/lastmile_qr_scan"}, "fusion_lat": 0.0}, {"lat": 38.90062733333333, "lon": -77.04541983333333, "is_disabled": 0, "fusion_lon": 0.0, "is_reserved": 0, "name": "a9496a1dea9000730ef27d2785145e8a", "type": "electric_scooter", "bike_id": "a9496a1dea9000730ef27d2785145e8a", "rental_uris": {"ios": "https://dc.lft.to/lastmile_qr_scan", "android": "https://dc.lft.to/lastmile_qr_scan"}, "fusion_lat": 0.0}, {"lat": 38.90417733333334, "lon": -77.04502216666667, "is_disabled": 0, "fusion_lon": 0.0, "is_reserved": 0, "name": "c783ca7d2b1eab9c1a773cc2b1e57272", "type": "electric_scooter", "bike_id": "c783ca7d2b1eab9c1a773cc2b1e57272", "rental_uris": {"ios": "https://dc.lft.to/lastmile_qr_scan", "android": "https://dc.lft.to/lastmile_qr_scan"}, "fusion_lat": 0.0}, {"lat": 38.9210715, "lon": -77.03253383333333, "is_disabled": 0, "fusion_lon": 0.0, "is_reserved": 0, "name": "aa7c9fe3eb1c825055ffd7191bf86e57", "type": "electric_scooter", "bike_id": "aa7c9fe3eb1c825055ffd7191bf86e57", "rental_uris": {"ios": "https://dc.lft.to/lastmile_qr_scan", "android": "https://dc.lft.to/lastmile_qr_scan"}, "fusion_lat": 0.0}, {"lat": 38.89938166666666, "lon": -77.03146383333333, "is_disabled": 0, "fusion_lon": 0.0, "is_reserved": 0, "name": "bb8c49066c3a34ed47b9f14e1f90cec3", "type": "electric_scooter", "bike_id": "bb8c49066c3a34ed47b9f14e1f90cec3", "rental_uris": {"ios": "https://dc.lft.to/lastmile_qr_scan", "android": "https://dc.lft.to/lastmile_qr_scan"}, "fusion_lat": 0.0}, {"lat": 38.8960125, "lon": -77.01338133333333, "is_disabled": 0, "fusion_lon": 0.0, "is_reserved": 0, "name": "57eeb86392384226c04a85b4cfe58dad", "type": "electric_scooter", "bike_id": "57eeb86392384226c04a85b4cfe58dad", "rental_uris": {"ios": "https://dc.lft.to/lastmile_qr_scan", "android": "https://dc.lft.to/lastmile_qr_scan"}, "fusion_lat": 0.0}, {"lat": 38.909249, "lon": -76.99959483333333, "is_disabled": 0, "fusion_lon": 0.0, "is_reserved": 0, "name": "666fb07a25314c83dcb06df0d832ad40", "type": "electric_scooter", "bike_id": "666fb07a25314c83dcb06df0d832ad40", "rental_uris": {"ios": "https://dc.lft.to/lastmile_qr_scan", "android": "https://dc.lft.to/lastmile_qr_scan"}, "fusion_lat": 0.0}, {"lat": 38.91165383333333, "lon": -77.002664, "is_disabled": 0, "fusion_lon": 0.0, "is_reserved": 0, "name": "5d02906fcd319c679c17859622e32163", "type": "electric_bike", "bike_id": "5d02906fcd319c679c17859622e32163", "rental_uris": {"ios": "https://dc.lft.to/lastmile_qr_scan", "android": "https://dc.lft.to/lastmile_qr_scan"}, "fusion_lat": 0.0}, {"lat": 38.916838, "lon": -77.02892633333333, "is_disabled": 0, "fusion_lon": 0.0, "is_reserved": 0, "name": "dc77d0319da90484c63e624e1f9f0c70", "type": "electric_scooter", "bike_id": "dc77d0319da90484c63e624e1f9f0c70", "rental_uris": {"ios": "https://dc.lft.to/lastmile_qr_scan", "android": "https://dc.lft.to/lastmile_qr_scan"}, "fusion_lat": 0.0}, {"lat": 38.871868666666664, "lon": -77.00643433333333, "is_disabled": 0, "fusion_lon": 0.0, "is_reserved": 0, "name": "399f9c295206257b0962ac588a48930b", "type": "electric_scooter", "bike_id": "399f9c295206257b0962ac588a48930b", "rental_uris": {"ios": "https://dc.lft.to/lastmile_qr_scan", "android": "https://dc.lft.to/lastmile_qr_scan"}, "fusion_lat": 0.0}, {"lat": 38.902445666666665, "lon": -77.03339633333333, "is_disabled": 0, "fusion_lon": 0.0, "is_reserved": 0, "name": "408cbadaf295dcd9e19aac7aa03d7df2", "type": "electric_scooter", "bike_id": "408cbadaf295dcd9e19aac7aa03d7df2", "rental_uris": {"ios": "https://dc.lft.to/lastmile_qr_scan", "android": "https://dc.lft.to/lastmile_qr_scan"}, "fusion_lat": 0.0}, {"lat": 38.893465, "lon": -76.95228, "is_disabled": 0, "fusion_lon": 0.0, "is_reserved": 0, "name": "d8d73ef59fe15521628627c24eeff8e2", "type": "electric_scooter", "bike_id": "d8d73ef59fe15521628627c24eeff8e2", "rental_uris": {"ios": "https://dc.lft.to/lastmile_qr_scan", "android": "https://dc.lft.to/lastmile_qr_scan"}, "fusion_lat": 0.0}, {"lat": 38.905508166666664, "lon": -77.003095, "is_disabled": 0, "fusion_lon": 0.0, "is_reserved": 0, "name": "de34755eb25e36b66b60e586dfe88d04", "type": "electric_scooter", "bike_id": "de34755eb25e36b66b60e586dfe88d04", "rental_uris": {"ios": "https://dc.lft.to/lastmile_qr_scan", "android": "https://dc.lft.to/lastmile_qr_scan"}, "fusion_lat": 0.0}, {"lat": 38.887435333333336, "lon": -77.025672, "is_disabled": 0, "fusion_lon": 0.0, "is_reserved": 0, "name": "12abdb9547f8bd8c6c5bec41747c4b5d", "type": "electric_scooter", "bike_id": "12abdb9547f8bd8c6c5bec41747c4b5d", "rental_uris": {"ios": "https://dc.lft.to/lastmile_qr_scan", "android": "https://dc.lft.to/lastmile_qr_scan"}, "fusion_lat": 0.0}, {"lat": 38.906830166666666, "lon": -77.038645, "is_disabled": 0, "fusion_lon": 0.0, "is_reserved": 0, "name": "13c7c220a642e31cb1769fb1bb6ec392", "type": "electric_scooter", "bike_id": "13c7c220a642e31cb1769fb1bb6ec392", "rental_uris": {"ios": "https://dc.lft.to/lastmile_qr_scan", "android": "https://dc.lft.to/lastmile_qr_scan"}, "fusion_lat": 0.0}, {"lat": 38.936169666666665, "lon": -77.08647416666666, "is_disabled": 0, "fusion_lon": 0.0, "is_reserved": 0, "name": "a301004a23632b8d07c2c60796aca255", "type": "electric_scooter", "bike_id": "a301004a23632b8d07c2c60796aca255", "rental_uris": {"ios": "https://dc.lft.to/lastmile_qr_scan", "android": "https://dc.lft.to/lastmile_qr_scan"}, "fusion_lat": 0.0}, {"lat": 38.9140415, "lon": -77.0298565, "is_disabled": 0, "fusion_lon": 0.0, "is_reserved": 0, "name": "16b733551b50155cd3bb307fdba8ac60", "type": "electric_scooter", "bike_id": "16b733551b50155cd3bb307fdba8ac60", "rental_uris": {"ios": "https://dc.lft.to/lastmile_qr_scan", "android": "https://dc.lft.to/lastmile_qr_scan"}, "fusion_lat": 0.0}, {"lat": 38.948287666666666, "lon": -77.10001816666667, "is_disabled": 0, "fusion_lon": 0.0, "is_reserved": 0, "name": "a2f943294d2c0b276aace0aeb4fe12b3", "type": "electric_scooter", "bike_id": "a2f943294d2c0b276aace0aeb4fe12b3", "rental_uris": {"ios": "https://dc.lft.to/lastmile_qr_scan", "android": "https://dc.lft.to/lastmile_qr_scan"}, "fusion_lat": 0.0}, {"lat": 38.902982333333334, "lon": -77.05824633333333, "is_disabled": 0, "fusion_lon": 0.0, "is_reserved": 0, "name": "db05d6dd97a3cffe0f376f3268f0ab29", "type": "electric_scooter", "bike_id": "db05d6dd97a3cffe0f376f3268f0ab29", "rental_uris": {"ios": "https://dc.lft.to/lastmile_qr_scan", "android": "https://dc.lft.to/lastmile_qr_scan"}, "fusion_lat": 0.0}, {"lat": 38.98478016666667, "lon": -77.02629216666666, "is_disabled": 0, "fusion_lon": 0.0, "is_reserved": 0, "name": "e38fcce93dd0a48b78b677e3e135c4e0", "type": "electric_scooter", "bike_id": "e38fcce93dd0a48b78b677e3e135c4e0", "rental_uris": {"ios": "https://dc.lft.to/lastmile_qr_scan", "android": "https://dc.lft.to/lastmile_qr_scan"}, "fusion_lat": 0.0}, {"lat": 38.9070775, "lon": -77.04336883333333, "is_disabled": 0, "fusion_lon": 0.0, "is_reserved": 0, "name": "93bbddaf527f96a1eb7e98d93384ff64", "type": "electric_scooter", "bike_id": "93bbddaf527f96a1eb7e98d93384ff64", "rental_uris": {"ios": "https://dc.lft.to/lastmile_qr_scan", "android": "https://dc.lft.to/lastmile_qr_scan"}, "fusion_lat": 0.0}, {"lat": 38.8899835, "lon": -76.97739016666667, "is_disabled": 0, "fusion_lon": 0.0, "is_reserved": 0, "name": "460a5daeab25386e1356cc09b39e6802", "type": "electric_scooter", "bike_id": "460a5daeab25386e1356cc09b39e6802", "rental_uris": {"ios": "https://dc.lft.to/lastmile_qr_scan", "android": "https://dc.lft.to/lastmile_qr_scan"}, "fusion_lat": 0.0}, {"lat": 38.90124133333333, "lon": -77.01669683333333, "is_disabled": 0, "fusion_lon": 0.0, "is_reserved": 0, "name": "d2debcab22acfd690ee4ab8ea66a48d0", "type": "electric_scooter", "bike_id": "d2debcab22acfd690ee4ab8ea66a48d0", "rental_uris": {"ios": "https://dc.lft.to/lastmile_qr_scan", "android": "https://dc.lft.to/lastmile_qr_scan"}, "fusion_lat": 0.0}, {"lat": 38.91696133333333, "lon": -77.043486, "is_disabled": 0, "fusion_lon": 0.0, "is_reserved": 0, "name": "e9e022116d9911187b0507164952b70c", "type": "electric_scooter", "bike_id": "e9e022116d9911187b0507164952b70c", "rental_uris": {"ios": "https://dc.lft.to/lastmile_qr_scan", "android": "https://dc.lft.to/lastmile_qr_scan"}, "fusion_lat": 0.0}, {"lat": 38.91576716666667, "lon": -77.01240833333334, "is_disabled": 0, "fusion_lon": 0.0, "is_reserved": 0, "name": "e182d67d559d32fa300332a6e0469404", "type": "electric_scooter", "bike_id": "e182d67d559d32fa300332a6e0469404", "rental_uris": {"ios": "https://dc.lft.to/lastmile_qr_scan", "android": "https://dc.lft.to/lastmile_qr_scan"}, "fusion_lat": 0.0}, {"lat": 38.897291333333335, "lon": -77.02723866666666, "is_disabled": 0, "fusion_lon": 0.0, "is_reserved": 0, "name": "ba9e7d6f0aa196f239ffe17dde337dc0", "type": "electric_scooter", "bike_id": "ba9e7d6f0aa196f239ffe17dde337dc0", "rental_uris": {"ios": "https://dc.lft.to/lastmile_qr_scan", "android": "https://dc.lft.to/lastmile_qr_scan"}, "fusion_lat": 0.0}, {"lat": 38.8800545, "lon": -77.02484683333333, "is_disabled": 0, "fusion_lon": 0.0, "is_reserved": 0, "name": "57473028d982bf3a6db9d2c9bd703965", "type": "electric_scooter", "bike_id": "57473028d982bf3a6db9d2c9bd703965", "rental_uris": {"ios": "https://dc.lft.to/lastmile_qr_scan", "android": "https://dc.lft.to/lastmile_qr_scan"}, "fusion_lat": 0.0}, {"lat": 38.9174, "lon": -77.02123233333333, "is_disabled": 0, "fusion_lon": 0.0, "is_reserved": 0, "name": "3142dab524fae3023a2bde9e4f2544a6", "type": "electric_scooter", "bike_id": "3142dab524fae3023a2bde9e4f2544a6", "rental_uris": {"ios": "https://dc.lft.to/lastmile_qr_scan", "android": "https://dc.lft.to/lastmile_qr_scan"}, "fusion_lat": 0.0}, {"lat": 38.901436333333336, "lon": -77.0448335, "is_disabled": 0, "fusion_lon": 0.0, "is_reserved": 0, "name": "ce3a6a8505b7fd7b0707396091f1c6f5", "type": "electric_scooter", "bike_id": "ce3a6a8505b7fd7b0707396091f1c6f5", "rental_uris": {"ios": "https://dc.lft.to/lastmile_qr_scan", "android": "https://dc.lft.to/lastmile_qr_scan"}, "fusion_lat": 0.0}, {"lat": 38.8943575, "lon": -76.94987133333333, "is_disabled": 0, "fusion_lon": 0.0, "is_reserved": 0, "name": "4c28216370a9ab7f51ac9a8804ca8a1b", "type": "electric_scooter", "bike_id": "4c28216370a9ab7f51ac9a8804ca8a1b", "rental_uris": {"ios": "https://dc.lft.to/lastmile_qr_scan", "android": "https://dc.lft.to/lastmile_qr_scan"}, "fusion_lat": 0.0}, {"lat": 38.9199305, "lon": -77.01792666666667, "is_disabled": 0, "fusion_lon": 0.0, "is_reserved": 0, "name": "df44f2d2e94e9f1df19f901c44a78cdb", "type": "electric_scooter", "bike_id": "df44f2d2e94e9f1df19f901c44a78cdb", "rental_uris": {"ios": "https://dc.lft.to/lastmile_qr_scan", "android": "https://dc.lft.to/lastmile_qr_scan"}, "fusion_lat": 0.0}, {"lat": 38.91240116666667, "lon": -77.0222605, "is_disabled": 0, "fusion_lon": 0.0, "is_reserved": 0, "name": "8c49a908028380c5b038cc1e9bf8363b", "type": "electric_scooter", "bike_id": "8c49a908028380c5b038cc1e9bf8363b", "rental_uris": {"ios": "https://dc.lft.to/lastmile_qr_scan", "android": "https://dc.lft.to/lastmile_qr_scan"}, "fusion_lat": 0.0}, {"lat": 38.902629833333336, "lon": -77.03778183333333, "is_disabled": 0, "fusion_lon": 0.0, "is_reserved": 0, "name": "5abcd3ad78fcc75b6cf512603fd2db83", "type": "electric_scooter", "bike_id": "5abcd3ad78fcc75b6cf512603fd2db83", "rental_uris": {"ios": "https://dc.lft.to/lastmile_qr_scan", "android": "https://dc.lft.to/lastmile_qr_scan"}, "fusion_lat": 0.0}, {"lat": 38.9224845, "lon": -77.01945966666666, "is_disabled": 0, "fusion_lon": 0.0, "is_reserved": 0, "name": "dfcbd8e02b1d11c26d0afe447c5510c9", "type": "electric_scooter", "bike_id": "dfcbd8e02b1d11c26d0afe447c5510c9", "rental_uris": {"ios": "https://dc.lft.to/lastmile_qr_scan", "android": "https://dc.lft.to/lastmile_qr_scan"}, "fusion_lat": 0.0}, {"lat": 38.90008666666667, "lon": -77.04128766666666, "is_disabled": 0, "fusion_lon": 0.0, "is_reserved": 0, "name": "ff1d4ac5eef4017a8c2ea1679526411b", "type": "electric_scooter", "bike_id": "ff1d4ac5eef4017a8c2ea1679526411b", "rental_uris": {"ios": "https://dc.lft.to/lastmile_qr_scan", "android": "https://dc.lft.to/lastmile_qr_scan"}, "fusion_lat": 0.0}, {"lat": 38.90990883333333, "lon": -77.03201916666667, "is_disabled": 0, "fusion_lon": 0.0, "is_reserved": 0, "name": "6cba44532c555e0317ced0a1cbfa0ec1", "type": "electric_scooter", "bike_id": "6cba44532c555e0317ced0a1cbfa0ec1", "rental_uris": {"ios": "https://dc.lft.to/lastmile_qr_scan", "android": "https://dc.lft.to/lastmile_qr_scan"}, "fusion_lat": 0.0}, {"lat": 38.90644266666666, "lon": -77.03856083333334, "is_disabled": 0, "fusion_lon": 0.0, "is_reserved": 0, "name": "df751f694922538c0ae1aa5e201b7e46", "type": "electric_scooter", "bike_id": "df751f694922538c0ae1aa5e201b7e46", "rental_uris": {"ios": "https://dc.lft.to/lastmile_qr_scan", "android": "https://dc.lft.to/lastmile_qr_scan"}, "fusion_lat": 0.0}, {"lat": 38.9167765, "lon": -77.022805, "is_disabled": 0, "fusion_lon": 0.0, "is_reserved": 0, "name": "8777251e60c6e20bfcb3e5c5d921ed51", "type": "electric_scooter", "bike_id": "8777251e60c6e20bfcb3e5c5d921ed51", "rental_uris": {"ios": "https://dc.lft.to/lastmile_qr_scan", "android": "https://dc.lft.to/lastmile_qr_scan"}, "fusion_lat": 0.0}, {"lat": 38.900794833333336, "lon": -77.044729, "is_disabled": 0, "fusion_lon": 0.0, "is_reserved": 0, "name": "f1c05cbcf0eb4ecbaa63d75d50a77b28", "type": "electric_scooter", "bike_id": "f1c05cbcf0eb4ecbaa63d75d50a77b28", "rental_uris": {"ios": "https://dc.lft.to/lastmile_qr_scan", "android": "https://dc.lft.to/lastmile_qr_scan"}, "fusion_lat": 0.0}, {"lat": 38.90769066666667, "lon": -77.0243745, "is_disabled": 0, "fusion_lon": 0.0, "is_reserved": 0, "name": "e2c27a32f6b7326a28e8ab87dab61cc0", "type": "electric_bike", "bike_id": "e2c27a32f6b7326a28e8ab87dab61cc0", "rental_uris": {"ios": "https://dc.lft.to/lastmile_qr_scan", "android": "https://dc.lft.to/lastmile_qr_scan"}, "fusion_lat": 0.0}, {"lat": 38.923322, "lon": -77.0418955, "is_disabled": 0, "fusion_lon": 0.0, "is_reserved": 0, "name": "7385ffe4a4684d8b3d26bdb2c2f3ca66", "type": "electric_scooter", "bike_id": "7385ffe4a4684d8b3d26bdb2c2f3ca66", "rental_uris": {"ios": "https://dc.lft.to/lastmile_qr_scan", "android": "https://dc.lft.to/lastmile_qr_scan"}, "fusion_lat": 0.0}, {"lat": 38.90563433333333, "lon": -77.001932, "is_disabled": 0, "fusion_lon": 0.0, "is_reserved": 0, "name": "8ee064523c443b11f5fec1090e9c7971", "type": "electric_scooter", "bike_id": "8ee064523c443b11f5fec1090e9c7971", "rental_uris": {"ios": "https://dc.lft.to/lastmile_qr_scan", "android": "https://dc.lft.to/lastmile_qr_scan"}, "fusion_lat": 0.0}, {"lat": 38.90762266666667, "lon": -77.03580383333333, "is_disabled": 0, "fusion_lon": 0.0, "is_reserved": 0, "name": "9e44a60ff61be84c6fc54384b8d0ae9c", "type": "electric_scooter", "bike_id": "9e44a60ff61be84c6fc54384b8d0ae9c", "rental_uris": {"ios": "https://dc.lft.to/lastmile_qr_scan", "android": "https://dc.lft.to/lastmile_qr_scan"}, "fusion_lat": 0.0}, {"lat": 38.91102516666667, "lon": -77.0241815, "is_disabled": 0, "fusion_lon": 0.0, "is_reserved": 0, "name": "83b0a28b377b20cefa3c8562dbad12fe", "type": "electric_scooter", "bike_id": "83b0a28b377b20cefa3c8562dbad12fe", "rental_uris": {"ios": "https://dc.lft.to/lastmile_qr_scan", "android": "https://dc.lft.to/lastmile_qr_scan"}, "fusion_lat": 0.0}, {"lat": 38.934089666666665, "lon": -77.04306566666666, "is_disabled": 0, "fusion_lon": 0.0, "is_reserved": 0, "name": "6da4118fc7f00f252e66e03499965e20", "type": "electric_bike", "bike_id": "6da4118fc7f00f252e66e03499965e20", "rental_uris": {"ios": "https://dc.lft.to/lastmile_qr_scan", "android": "https://dc.lft.to/lastmile_qr_scan"}, "fusion_lat": 0.0}, {"lat": 38.8922295, "lon": -77.03163383333333, "is_disabled": 0, "fusion_lon": 0.0, "is_reserved": 0, "name": "bf4615c171c2aa40fac0d858d7ab5f2d", "type": "electric_scooter", "bike_id": "bf4615c171c2aa40fac0d858d7ab5f2d", "rental_uris": {"ios": "https://dc.lft.to/lastmile_qr_scan", "android": "https://dc.lft.to/lastmile_qr_scan"}, "fusion_lat": 0.0}, {"lat": 38.90549733333334, "lon": -77.0425195, "is_disabled": 0, "fusion_lon": 0.0, "is_reserved": 0, "name": "8abe4512a6fd933153b67a845b3da563", "type": "electric_scooter", "bike_id": "8abe4512a6fd933153b67a845b3da563", "rental_uris": {"ios": "https://dc.lft.to/lastmile_qr_scan", "android": "https://dc.lft.to/lastmile_qr_scan"}, "fusion_lat": 0.0}, {"lat": 38.90384866666667, "lon": -77.02973866666666, "is_disabled": 0, "fusion_lon": 0.0, "is_reserved": 0, "name": "7c35f803efbfe48a420e41f71aab11e2", "type": "electric_scooter", "bike_id": "7c35f803efbfe48a420e41f71aab11e2", "rental_uris": {"ios": "https://dc.lft.to/lastmile_qr_scan", "android": "https://dc.lft.to/lastmile_qr_scan"}, "fusion_lat": 0.0}, {"lat": 38.89827566666666, "lon": -77.05000416666667, "is_disabled": 0, "fusion_lon": 0.0, "is_reserved": 0, "name": "ddff9d8a7dc777bd4017d908d47db4ef", "type": "electric_scooter", "bike_id": "ddff9d8a7dc777bd4017d908d47db4ef", "rental_uris": {"ios": "https://dc.lft.to/lastmile_qr_scan", "android": "https://dc.lft.to/lastmile_qr_scan"}, "fusion_lat": 0.0}, {"lat": 38.902459, "lon": -77.0460975, "is_disabled": 0, "fusion_lon": 0.0, "is_reserved": 0, "name": "7e7addc43c59a0e81b689ad205081911", "type": "electric_scooter", "bike_id": "7e7addc43c59a0e81b689ad205081911", "rental_uris": {"ios": "https://dc.lft.to/lastmile_qr_scan", "android": "https://dc.lft.to/lastmile_qr_scan"}, "fusion_lat": 0.0}, {"lat": 38.92065066666667, "lon": -77.0346315, "is_disabled": 0, "fusion_lon": 0.0, "is_reserved": 0, "name": "1f2501e07f70a2b9d0c8bb22cee061b3", "type": "electric_scooter", "bike_id": "1f2501e07f70a2b9d0c8bb22cee061b3", "rental_uris": {"ios": "https://dc.lft.to/lastmile_qr_scan", "android": "https://dc.lft.to/lastmile_qr_scan"}, "fusion_lat": 0.0}, {"lat": 38.8871385, "lon": -77.02829183333333, "is_disabled": 0, "fusion_lon": 0.0, "is_reserved": 0, "name": "1cda4222e3bf4c033abae4731e7eb12f", "type": "electric_scooter", "bike_id": "1cda4222e3bf4c033abae4731e7eb12f", "rental_uris": {"ios": "https://dc.lft.to/lastmile_qr_scan", "android": "https://dc.lft.to/lastmile_qr_scan"}, "fusion_lat": 0.0}, {"lat": 38.8974935, "lon": -77.00752516666667, "is_disabled": 0, "fusion_lon": 0.0, "is_reserved": 0, "name": "17d8d975ca9fd0ca2ad933b41d5d8a7a", "type": "electric_scooter", "bike_id": "17d8d975ca9fd0ca2ad933b41d5d8a7a", "rental_uris": {"ios": "https://dc.lft.to/lastmile_qr_scan", "android": "https://dc.lft.to/lastmile_qr_scan"}, "fusion_lat": 0.0}, {"lat": 38.857255, "lon": -76.977743, "is_disabled": 0, "fusion_lon": 0.0, "is_reserved": 0, "name": "7b374db197931cbc4d5921561090c4c5", "type": "electric_bike", "bike_id": "7b374db197931cbc4d5921561090c4c5", "rental_uris": {"ios": "https://dc.lft.to/lastmile_qr_scan", "android": "https://dc.lft.to/lastmile_qr_scan"}, "fusion_lat": 0.0}, {"lat": 38.90085583333333, "lon": -77.04477683333333, "is_disabled": 0, "fusion_lon": 0.0, "is_reserved": 0, "name": "c9109295334d4cf62aa9278a2769efdb", "type": "electric_scooter", "bike_id": "c9109295334d4cf62aa9278a2769efdb", "rental_uris": {"ios": "https://dc.lft.to/lastmile_qr_scan", "android": "https://dc.lft.to/lastmile_qr_scan"}, "fusion_lat": 0.0}, {"lat": 38.90005416666666, "lon": -77.006666, "is_disabled": 0, "fusion_lon": 0.0, "is_reserved": 0, "name": "c88890eb570c4f94c909397b8799e3b8", "type": "electric_scooter", "bike_id": "c88890eb570c4f94c909397b8799e3b8", "rental_uris": {"ios": "https://dc.lft.to/lastmile_qr_scan", "android": "https://dc.lft.to/lastmile_qr_scan"}, "fusion_lat": 0.0}, {"lat": 38.9031875, "lon": -77.03352283333334, "is_disabled": 0, "fusion_lon": 0.0, "is_reserved": 0, "name": "81916a5f7cc79a4193b42ac6231ff90a", "type": "electric_scooter", "bike_id": "81916a5f7cc79a4193b42ac6231ff90a", "rental_uris": {"ios": "https://dc.lft.to/lastmile_qr_scan", "android": "https://dc.lft.to/lastmile_qr_scan"}, "fusion_lat": 0.0}, {"lat": 38.924481666666665, "lon": -77.020393, "is_disabled": 0, "fusion_lon": 0.0, "is_reserved": 0, "name": "dd03f632599e84d0fa8a7412948b3fef", "type": "electric_scooter", "bike_id": "dd03f632599e84d0fa8a7412948b3fef", "rental_uris": {"ios": "https://dc.lft.to/lastmile_qr_scan", "android": "https://dc.lft.to/lastmile_qr_scan"}, "fusion_lat": 0.0}, {"lat": 38.887621833333334, "lon": -76.9869475, "is_disabled": 0, "fusion_lon": 0.0, "is_reserved": 0, "name": "0823fad618958af4419a74a41e8e48d1", "type": "electric_scooter", "bike_id": "0823fad618958af4419a74a41e8e48d1", "rental_uris": {"ios": "https://dc.lft.to/lastmile_qr_scan", "android": "https://dc.lft.to/lastmile_qr_scan"}, "fusion_lat": 0.0}, {"lat": 38.9222885, "lon": -77.0200605, "is_disabled": 0, "fusion_lon": 0.0, "is_reserved": 0, "name": "6497baa989752e472acc624e68f783cf", "type": "electric_scooter", "bike_id": "6497baa989752e472acc624e68f783cf", "rental_uris": {"ios": "https://dc.lft.to/lastmile_qr_scan", "android": "https://dc.lft.to/lastmile_qr_scan"}, "fusion_lat": 0.0}, {"lat": 38.91031266666667, "lon": -77.0426175, "is_disabled": 0, "fusion_lon": 0.0, "is_reserved": 0, "name": "f96e2c7d35e876bdfe6f2429c2273e09", "type": "electric_scooter", "bike_id": "f96e2c7d35e876bdfe6f2429c2273e09", "rental_uris": {"ios": "https://dc.lft.to/lastmile_qr_scan", "android": "https://dc.lft.to/lastmile_qr_scan"}, "fusion_lat": 0.0}, {"lat": 38.897143666666665, "lon": -77.00798516666667, "is_disabled": 0, "fusion_lon": 0.0, "is_reserved": 0, "name": "45f7a5cb48d16b7f64efb34dcb620e82", "type": "electric_scooter", "bike_id": "45f7a5cb48d16b7f64efb34dcb620e82", "rental_uris": {"ios": "https://dc.lft.to/lastmile_qr_scan", "android": "https://dc.lft.to/lastmile_qr_scan"}, "fusion_lat": 0.0}, {"lat": 38.906634333333336, "lon": -77.0270435, "is_disabled": 0, "fusion_lon": 0.0, "is_reserved": 0, "name": "da0be9780576a48448dd4b84e993c567", "type": "electric_scooter", "bike_id": "da0be9780576a48448dd4b84e993c567", "rental_uris": {"ios": "https://dc.lft.to/lastmile_qr_scan", "android": "https://dc.lft.to/lastmile_qr_scan"}, "fusion_lat": 0.0}, {"lat": 38.884168833333334, "lon": -77.00815383333334, "is_disabled": 0, "fusion_lon": 0.0, "is_reserved": 0, "name": "7be8524d3b813e8a0e5d58fe4c1be54e", "type": "electric_scooter", "bike_id": "7be8524d3b813e8a0e5d58fe4c1be54e", "rental_uris": {"ios": "https://dc.lft.to/lastmile_qr_scan", "android": "https://dc.lft.to/lastmile_qr_scan"}, "fusion_lat": 0.0}, {"lat": 38.900240833333335, "lon": -77.03998316666667, "is_disabled": 0, "fusion_lon": 0.0, "is_reserved": 0, "name": "b5c39766ff3eed13fb6e47d7e645f3de", "type": "electric_scooter", "bike_id": "b5c39766ff3eed13fb6e47d7e645f3de", "rental_uris": {"ios": "https://dc.lft.to/lastmile_qr_scan", "android": "https://dc.lft.to/lastmile_qr_scan"}, "fusion_lat": 0.0}, {"lat": 38.92345066666667, "lon": -77.01907433333334, "is_disabled": 0, "fusion_lon": 0.0, "is_reserved": 0, "name": "b713c9ac85e06ecfa3fdbe7075c294d2", "type": "electric_scooter", "bike_id": "b713c9ac85e06ecfa3fdbe7075c294d2", "rental_uris": {"ios": "https://dc.lft.to/lastmile_qr_scan", "android": "https://dc.lft.to/lastmile_qr_scan"}, "fusion_lat": 0.0}, {"lat": 38.896669333333335, "lon": -76.9320555, "is_disabled": 0, "fusion_lon": 0.0, "is_reserved": 0, "name": "a4e39153f21b30ba90acf39184fb6e65", "type": "electric_scooter", "bike_id": "a4e39153f21b30ba90acf39184fb6e65", "rental_uris": {"ios": "https://dc.lft.to/lastmile_qr_scan", "android": "https://dc.lft.to/lastmile_qr_scan"}, "fusion_lat": 0.0}, {"lat": 38.924625166666665, "lon": -77.0224875, "is_disabled": 0, "fusion_lon": 0.0, "is_reserved": 0, "name": "19ebbdccd7b9063397a3511c00f8c4c5", "type": "electric_scooter", "bike_id": "19ebbdccd7b9063397a3511c00f8c4c5", "rental_uris": {"ios": "https://dc.lft.to/lastmile_qr_scan", "android": "https://dc.lft.to/lastmile_qr_scan"}, "fusion_lat": 0.0}, {"lat": 38.901565, "lon": -77.02564416666667, "is_disabled": 0, "fusion_lon": 0.0, "is_reserved": 0, "name": "e8f6af5e5b44190c29b1017bf929efac", "type": "electric_scooter", "bike_id": "e8f6af5e5b44190c29b1017bf929efac", "rental_uris": {"ios": "https://dc.lft.to/lastmile_qr_scan", "android": "https://dc.lft.to/lastmile_qr_scan"}, "fusion_lat": 0.0}, {"lat": 38.90175683333333, "lon": -77.02714266666666, "is_disabled": 0, "fusion_lon": 0.0, "is_reserved": 0, "name": "28863c4b52665a381e66c310babb0583", "type": "electric_scooter", "bike_id": "28863c4b52665a381e66c310babb0583", "rental_uris": {"ios": "https://dc.lft.to/lastmile_qr_scan", "android": "https://dc.lft.to/lastmile_qr_scan"}, "fusion_lat": 0.0}, {"lat": 38.911904, "lon": -77.04538166666667, "is_disabled": 0, "fusion_lon": 0.0, "is_reserved": 0, "name": "2b715ede3167f68c94ab4cd01b9f32d5", "type": "electric_scooter", "bike_id": "2b715ede3167f68c94ab4cd01b9f32d5", "rental_uris": {"ios": "https://dc.lft.to/lastmile_qr_scan", "android": "https://dc.lft.to/lastmile_qr_scan"}, "fusion_lat": 0.0}, {"lat": 38.91910333333333, "lon": -77.02460416666666, "is_disabled": 0, "fusion_lon": 0.0, "is_reserved": 0, "name": "3a663e79c6fc02b2cb0553a23401c980", "type": "electric_scooter", "bike_id": "3a663e79c6fc02b2cb0553a23401c980", "rental_uris": {"ios": "https://dc.lft.to/lastmile_qr_scan", "android": "https://dc.lft.to/lastmile_qr_scan"}, "fusion_lat": 0.0}, {"lat": 38.8710625, "lon": -76.965779, "is_disabled": 0, "fusion_lon": 0.0, "is_reserved": 0, "name": "07fadbc49adc62ca235a0b0b52c9fc7c", "type": "electric_scooter", "bike_id": "07fadbc49adc62ca235a0b0b52c9fc7c", "rental_uris": {"ios": "https://dc.lft.to/lastmile_qr_scan", "android": "https://dc.lft.to/lastmile_qr_scan"}, "fusion_lat": 0.0}, {"lat": 38.87730883333333, "lon": -77.11851883333334, "is_disabled": 0, "fusion_lon": 0.0, "is_reserved": 0, "name": "b8bca6bcc32533c508ca44ff49e30397", "type": "electric_bike", "bike_id": "b8bca6bcc32533c508ca44ff49e30397", "rental_uris": {"ios": "https://dc.lft.to/lastmile_qr_scan", "android": "https://dc.lft.to/lastmile_qr_scan"}, "fusion_lat": 0.0}, {"lat": 38.92396216666667, "lon": -77.04064766666667, "is_disabled": 0, "fusion_lon": 0.0, "is_reserved": 0, "name": "bb0f03cb7ac1fb91fa5368774ad120fd", "type": "electric_scooter", "bike_id": "bb0f03cb7ac1fb91fa5368774ad120fd", "rental_uris": {"ios": "https://dc.lft.to/lastmile_qr_scan", "android": "https://dc.lft.to/lastmile_qr_scan"}, "fusion_lat": 0.0}, {"lat": 38.90389166666667, "lon": -77.06021883333334, "is_disabled": 0, "fusion_lon": 0.0, "is_reserved": 0, "name": "adc5c4ac873ab95e838ae41389bbb389", "type": "electric_scooter", "bike_id": "adc5c4ac873ab95e838ae41389bbb389", "rental_uris": {"ios": "https://dc.lft.to/lastmile_qr_scan", "android": "https://dc.lft.to/lastmile_qr_scan"}, "fusion_lat": 0.0}, {"lat": 38.9232005, "lon": -77.02120183333334, "is_disabled": 0, "fusion_lon": 0.0, "is_reserved": 0, "name": "8ba028c038be1d62712e0515670d6c19", "type": "electric_scooter", "bike_id": "8ba028c038be1d62712e0515670d6c19", "rental_uris": {"ios": "https://dc.lft.to/lastmile_qr_scan", "android": "https://dc.lft.to/lastmile_qr_scan"}, "fusion_lat": 0.0}, {"lat": 38.91876766666667, "lon": -77.0431045, "is_disabled": 0, "fusion_lon": 0.0, "is_reserved": 0, "name": "4284e8c5904a41a2ca34d9eed95169d7", "type": "electric_scooter", "bike_id": "4284e8c5904a41a2ca34d9eed95169d7", "rental_uris": {"ios": "https://dc.lft.to/lastmile_qr_scan", "android": "https://dc.lft.to/lastmile_qr_scan"}, "fusion_lat": 0.0}, {"lat": 38.903127166666664, "lon": -77.0346985, "is_disabled": 0, "fusion_lon": 0.0, "is_reserved": 0, "name": "119571c920eac52ec30db81282affb90", "type": "electric_scooter", "bike_id": "119571c920eac52ec30db81282affb90", "rental_uris": {"ios": "https://dc.lft.to/lastmile_qr_scan", "android": "https://dc.lft.to/lastmile_qr_scan"}, "fusion_lat": 0.0}, {"lat": 38.8791305, "lon": -77.00198, "is_disabled": 0, "fusion_lon": 0.0, "is_reserved": 0, "name": "b8b43783bb686e14a7edb0aadfe42a74", "type": "electric_scooter", "bike_id": "b8b43783bb686e14a7edb0aadfe42a74", "rental_uris": {"ios": "https://dc.lft.to/lastmile_qr_scan", "android": "https://dc.lft.to/lastmile_qr_scan"}, "fusion_lat": 0.0}, {"lat": 38.91825266666667, "lon": -77.024221, "is_disabled": 0, "fusion_lon": 0.0, "is_reserved": 0, "name": "67623000c5b68a8b7f12e5da588a8689", "type": "electric_scooter", "bike_id": "67623000c5b68a8b7f12e5da588a8689", "rental_uris": {"ios": "https://dc.lft.to/lastmile_qr_scan", "android": "https://dc.lft.to/lastmile_qr_scan"}, "fusion_lat": 0.0}, {"lat": 38.91052783333333, "lon": -77.052874, "is_disabled": 0, "fusion_lon": 0.0, "is_reserved": 0, "name": "e2d1df2e865bbf13992ff3b30d5da2cc", "type": "electric_scooter", "bike_id": "e2d1df2e865bbf13992ff3b30d5da2cc", "rental_uris": {"ios": "https://dc.lft.to/lastmile_qr_scan", "android": "https://dc.lft.to/lastmile_qr_scan"}, "fusion_lat": 0.0}, {"lat": 38.90038833333333, "lon": -77.001988, "is_disabled": 0, "fusion_lon": 0.0, "is_reserved": 0, "name": "5424888f4dfaf1e92d276d009be35310", "type": "electric_scooter", "bike_id": "5424888f4dfaf1e92d276d009be35310", "rental_uris": {"ios": "https://dc.lft.to/lastmile_qr_scan", "android": "https://dc.lft.to/lastmile_qr_scan"}, "fusion_lat": 0.0}, {"lat": 38.90550416666667, "lon": -77.04175916666667, "is_disabled": 0, "fusion_lon": 0.0, "is_reserved": 0, "name": "427d4130cb011e015cc789fb8ebd4306", "type": "electric_scooter", "bike_id": "427d4130cb011e015cc789fb8ebd4306", "rental_uris": {"ios": "https://dc.lft.to/lastmile_qr_scan", "android": "https://dc.lft.to/lastmile_qr_scan"}, "fusion_lat": 0.0}, {"lat": 38.895020333333335, "lon": -77.010823, "is_disabled": 0, "fusion_lon": 0.0, "is_reserved": 0, "name": "6dc1680176fb146dfdc0be0e761c99e9", "type": "electric_scooter", "bike_id": "6dc1680176fb146dfdc0be0e761c99e9", "rental_uris": {"ios": "https://dc.lft.to/lastmile_qr_scan", "android": "https://dc.lft.to/lastmile_qr_scan"}, "fusion_lat": 0.0}, {"lat": 38.9020015, "lon": -77.02340583333333, "is_disabled": 0, "fusion_lon": 0.0, "is_reserved": 0, "name": "b4916062eb42d58d4346bb0c9469fcf1", "type": "electric_scooter", "bike_id": "b4916062eb42d58d4346bb0c9469fcf1", "rental_uris": {"ios": "https://dc.lft.to/lastmile_qr_scan", "android": "https://dc.lft.to/lastmile_qr_scan"}, "fusion_lat": 0.0}, {"lat": 38.877147666666666, "lon": -77.01837716666667, "is_disabled": 0, "fusion_lon": 0.0, "is_reserved": 0, "name": "c93e03da623ce54876cacb7a89923b3f", "type": "electric_scooter", "bike_id": "c93e03da623ce54876cacb7a89923b3f", "rental_uris": {"ios": "https://dc.lft.to/lastmile_qr_scan", "android": "https://dc.lft.to/lastmile_qr_scan"}, "fusion_lat": 0.0}, {"lat": 38.89946316666666, "lon": -77.04501266666666, "is_disabled": 0, "fusion_lon": 0.0, "is_reserved": 0, "name": "1cf0e2f70215853b17dd1899ba6c9963", "type": "electric_scooter", "bike_id": "1cf0e2f70215853b17dd1899ba6c9963", "rental_uris": {"ios": "https://dc.lft.to/lastmile_qr_scan", "android": "https://dc.lft.to/lastmile_qr_scan"}, "fusion_lat": 0.0}, {"lat": 38.91711566666667, "lon": -76.976491, "is_disabled": 0, "fusion_lon": 0.0, "is_reserved": 0, "name": "9d5dd978eb6df01a0405c75d6a91e994", "type": "electric_scooter", "bike_id": "9d5dd978eb6df01a0405c75d6a91e994", "rental_uris": {"ios": "https://dc.lft.to/lastmile_qr_scan", "android": "https://dc.lft.to/lastmile_qr_scan"}, "fusion_lat": 0.0}, {"lat": 38.88719583333334, "lon": -77.02831766666667, "is_disabled": 0, "fusion_lon": 0.0, "is_reserved": 0, "name": "cab43505b0341b39b78bcb53f5f52cb9", "type": "electric_scooter", "bike_id": "cab43505b0341b39b78bcb53f5f52cb9", "rental_uris": {"ios": "https://dc.lft.to/lastmile_qr_scan", "android": "https://dc.lft.to/lastmile_qr_scan"}, "fusion_lat": 0.0}, {"lat": 38.90266866666666, "lon": -76.928938, "is_disabled": 0, "fusion_lon": 0.0, "is_reserved": 0, "name": "164fa5cbccd8b01c20eae9b31401de80", "type": "electric_scooter", "bike_id": "164fa5cbccd8b01c20eae9b31401de80", "rental_uris": {"ios": "https://dc.lft.to/lastmile_qr_scan", "android": "https://dc.lft.to/lastmile_qr_scan"}, "fusion_lat": 0.0}, {"lat": 38.902724, "lon": -77.03321566666666, "is_disabled": 0, "fusion_lon": 0.0, "is_reserved": 0, "name": "b5c1a566e4363ab2a090b67d744c8f73", "type": "electric_scooter", "bike_id": "b5c1a566e4363ab2a090b67d744c8f73", "rental_uris": {"ios": "https://dc.lft.to/lastmile_qr_scan", "android": "https://dc.lft.to/lastmile_qr_scan"}, "fusion_lat": 0.0}, {"lat": 38.920371, "lon": -77.04207216666667, "is_disabled": 0, "fusion_lon": 0.0, "is_reserved": 0, "name": "d1ee3318830b0db0a14f35a2101ca501", "type": "electric_scooter", "bike_id": "d1ee3318830b0db0a14f35a2101ca501", "rental_uris": {"ios": "https://dc.lft.to/lastmile_qr_scan", "android": "https://dc.lft.to/lastmile_qr_scan"}, "fusion_lat": 0.0}, {"lat": 38.921715, "lon": -77.0422935, "is_disabled": 0, "fusion_lon": 0.0, "is_reserved": 0, "name": "9f741e318572b83db78c63822ad089d1", "type": "electric_scooter", "bike_id": "9f741e318572b83db78c63822ad089d1", "rental_uris": {"ios": "https://dc.lft.to/lastmile_qr_scan", "android": "https://dc.lft.to/lastmile_qr_scan"}, "fusion_lat": 0.0}, {"lat": 38.89224866666667, "lon": -77.0408785, "is_disabled": 0, "fusion_lon": 0.0, "is_reserved": 0, "name": "3ec92c50942ae6d7aebfb8ef9b9fd404", "type": "electric_scooter", "bike_id": "3ec92c50942ae6d7aebfb8ef9b9fd404", "rental_uris": {"ios": "https://dc.lft.to/lastmile_qr_scan", "android": "https://dc.lft.to/lastmile_qr_scan"}, "fusion_lat": 0.0}, {"lat": 38.89221083333333, "lon": -77.02355366666667, "is_disabled": 0, "fusion_lon": 0.0, "is_reserved": 0, "name": "c42534d7b7e121a820bf3d525cca34fd", "type": "electric_scooter", "bike_id": "c42534d7b7e121a820bf3d525cca34fd", "rental_uris": {"ios": "https://dc.lft.to/lastmile_qr_scan", "android": "https://dc.lft.to/lastmile_qr_scan"}, "fusion_lat": 0.0}, {"lat": 38.91565133333334, "lon": -77.0218465, "is_disabled": 0, "fusion_lon": 0.0, "is_reserved": 0, "name": "917ba8632026891a06937f79227e9cf9", "type": "electric_scooter", "bike_id": "917ba8632026891a06937f79227e9cf9", "rental_uris": {"ios": "https://dc.lft.to/lastmile_qr_scan", "android": "https://dc.lft.to/lastmile_qr_scan"}, "fusion_lat": 0.0}, {"lat": 38.89744, "lon": -77.01356666666666, "is_disabled": 0, "fusion_lon": 0.0, "is_reserved": 0, "name": "b3f39239ff32a7ce7b33e61b122e2610", "type": "electric_scooter", "bike_id": "b3f39239ff32a7ce7b33e61b122e2610", "rental_uris": {"ios": "https://dc.lft.to/lastmile_qr_scan", "android": "https://dc.lft.to/lastmile_qr_scan"}, "fusion_lat": 0.0}, {"lat": 38.900797, "lon": -77.00913083333333, "is_disabled": 0, "fusion_lon": 0.0, "is_reserved": 0, "name": "fa7c5d5d993337822c9c25c6ead94e8c", "type": "electric_scooter", "bike_id": "fa7c5d5d993337822c9c25c6ead94e8c", "rental_uris": {"ios": "https://dc.lft.to/lastmile_qr_scan", "android": "https://dc.lft.to/lastmile_qr_scan"}, "fusion_lat": 0.0}, {"lat": 38.966075333333336, "lon": -77.02743616666666, "is_disabled": 0, "fusion_lon": 0.0, "is_reserved": 0, "name": "fbcbebb73e116b3ee7561c0778ce5938", "type": "electric_scooter", "bike_id": "fbcbebb73e116b3ee7561c0778ce5938", "rental_uris": {"ios": "https://dc.lft.to/lastmile_qr_scan", "android": "https://dc.lft.to/lastmile_qr_scan"}, "fusion_lat": 0.0}, {"lat": 38.92109, "lon": -77.04131383333333, "is_disabled": 0, "fusion_lon": 0.0, "is_reserved": 0, "name": "645fbcafc7a6256f7ed15e0c13565675", "type": "electric_scooter", "bike_id": "645fbcafc7a6256f7ed15e0c13565675", "rental_uris": {"ios": "https://dc.lft.to/lastmile_qr_scan", "android": "https://dc.lft.to/lastmile_qr_scan"}, "fusion_lat": 0.0}, {"lat": 38.89579033333333, "lon": -76.98322716666667, "is_disabled": 0, "fusion_lon": 0.0, "is_reserved": 0, "name": "409410c8db620d59b108eb92f25bd271", "type": "electric_scooter", "bike_id": "409410c8db620d59b108eb92f25bd271", "rental_uris": {"ios": "https://dc.lft.to/lastmile_qr_scan", "android": "https://dc.lft.to/lastmile_qr_scan"}, "fusion_lat": 0.0}, {"lat": 38.903809, "lon": -77.045132, "is_disabled": 0, "fusion_lon": 0.0, "is_reserved": 0, "name": "fc51dc92630c50fba9474da10ec2ed5e", "type": "electric_scooter", "bike_id": "fc51dc92630c50fba9474da10ec2ed5e", "rental_uris": {"ios": "https://dc.lft.to/lastmile_qr_scan", "android": "https://dc.lft.to/lastmile_qr_scan"}, "fusion_lat": 0.0}, {"lat": 38.89043266666667, "lon": -76.93758433333333, "is_disabled": 0, "fusion_lon": 0.0, "is_reserved": 0, "name": "5ad9a8ac7a5975fc4eaa2f4b0848661c", "type": "electric_scooter", "bike_id": "5ad9a8ac7a5975fc4eaa2f4b0848661c", "rental_uris": {"ios": "https://dc.lft.to/lastmile_qr_scan", "android": "https://dc.lft.to/lastmile_qr_scan"}, "fusion_lat": 0.0}, {"lat": 38.9231765, "lon": -77.01958833333333, "is_disabled": 0, "fusion_lon": 0.0, "is_reserved": 0, "name": "431608780d71021f0c5db348c378df3e", "type": "electric_scooter", "bike_id": "431608780d71021f0c5db348c378df3e", "rental_uris": {"ios": "https://dc.lft.to/lastmile_qr_scan", "android": "https://dc.lft.to/lastmile_qr_scan"}, "fusion_lat": 0.0}, {"lat": 38.933961833333335, "lon": -77.057439, "is_disabled": 0, "fusion_lon": 0.0, "is_reserved": 0, "name": "924c21ccf979aa6cf22ba809dff7c62e", "type": "electric_scooter", "bike_id": "924c21ccf979aa6cf22ba809dff7c62e", "rental_uris": {"ios": "https://dc.lft.to/lastmile_qr_scan", "android": "https://dc.lft.to/lastmile_qr_scan"}, "fusion_lat": 0.0}, {"lat": 38.902115, "lon": -77.04869883333333, "is_disabled": 0, "fusion_lon": 0.0, "is_reserved": 0, "name": "a9f91d3ffdfba7e6b1bb308f54dea991", "type": "electric_scooter", "bike_id": "a9f91d3ffdfba7e6b1bb308f54dea991", "rental_uris": {"ios": "https://dc.lft.to/lastmile_qr_scan", "android": "https://dc.lft.to/lastmile_qr_scan"}, "fusion_lat": 0.0}, {"lat": 38.909576333333334, "lon": -77.0338745, "is_disabled": 0, "fusion_lon": 0.0, "is_reserved": 0, "name": "f32ef33279528c63e67330f70068f731", "type": "electric_scooter", "bike_id": "f32ef33279528c63e67330f70068f731", "rental_uris": {"ios": "https://dc.lft.to/lastmile_qr_scan", "android": "https://dc.lft.to/lastmile_qr_scan"}, "fusion_lat": 0.0}, {"lat": 38.9027775, "lon": -77.03448433333334, "is_disabled": 0, "fusion_lon": 0.0, "is_reserved": 0, "name": "babf3922c90108ca5a9cbd89fe035f1a", "type": "electric_scooter", "bike_id": "babf3922c90108ca5a9cbd89fe035f1a", "rental_uris": {"ios": "https://dc.lft.to/lastmile_qr_scan", "android": "https://dc.lft.to/lastmile_qr_scan"}, "fusion_lat": 0.0}, {"lat": 38.9025105, "lon": -76.98480283333333, "is_disabled": 0, "fusion_lon": 0.0, "is_reserved": 0, "name": "22ba47e809fd38d5ec49f6cd87b8022b", "type": "electric_scooter", "bike_id": "22ba47e809fd38d5ec49f6cd87b8022b", "rental_uris": {"ios": "https://dc.lft.to/lastmile_qr_scan", "android": "https://dc.lft.to/lastmile_qr_scan"}, "fusion_lat": 0.0}, {"lat": 38.90910433333333, "lon": -77.0397185, "is_disabled": 0, "fusion_lon": 0.0, "is_reserved": 0, "name": "8ac8abc66e359d3bf3a1fb78f96b6fac", "type": "electric_scooter", "bike_id": "8ac8abc66e359d3bf3a1fb78f96b6fac", "rental_uris": {"ios": "https://dc.lft.to/lastmile_qr_scan", "android": "https://dc.lft.to/lastmile_qr_scan"}, "fusion_lat": 0.0}, {"lat": 38.92170633333333, "lon": -77.01805233333333, "is_disabled": 0, "fusion_lon": 0.0, "is_reserved": 0, "name": "2b23364b21e988a294e36d24aefb5f68", "type": "electric_scooter", "bike_id": "2b23364b21e988a294e36d24aefb5f68", "rental_uris": {"ios": "https://dc.lft.to/lastmile_qr_scan", "android": "https://dc.lft.to/lastmile_qr_scan"}, "fusion_lat": 0.0}, {"lat": 38.98461, "lon": -77.02691966666667, "is_disabled": 0, "fusion_lon": 0.0, "is_reserved": 0, "name": "d38ff787ed4bde1698d79e1f7d3d993d", "type": "electric_scooter", "bike_id": "d38ff787ed4bde1698d79e1f7d3d993d", "rental_uris": {"ios": "https://dc.lft.to/lastmile_qr_scan", "android": "https://dc.lft.to/lastmile_qr_scan"}, "fusion_lat": 0.0}, {"lat": 38.899959, "lon": -77.0229125, "is_disabled": 0, "fusion_lon": 0.0, "is_reserved": 0, "name": "f6f00243111c014aeb115f0f9ba7586b", "type": "electric_scooter", "bike_id": "f6f00243111c014aeb115f0f9ba7586b", "rental_uris": {"ios": "https://dc.lft.to/lastmile_qr_scan", "android": "https://dc.lft.to/lastmile_qr_scan"}, "fusion_lat": 0.0}, {"lat": 38.897950333333334, "lon": -77.00924016666667, "is_disabled": 0, "fusion_lon": 0.0, "is_reserved": 0, "name": "2c6e47d55c2e5dc36c9df78fa400f771", "type": "electric_scooter", "bike_id": "2c6e47d55c2e5dc36c9df78fa400f771", "rental_uris": {"ios": "https://dc.lft.to/lastmile_qr_scan", "android": "https://dc.lft.to/lastmile_qr_scan"}, "fusion_lat": 0.0}, {"lat": 38.91544433333333, "lon": -77.03205533333333, "is_disabled": 0, "fusion_lon": 0.0, "is_reserved": 0, "name": "253cbf2812fbf2642c00e16b280c29db", "type": "electric_scooter", "bike_id": "253cbf2812fbf2642c00e16b280c29db", "rental_uris": {"ios": "https://dc.lft.to/lastmile_qr_scan", "android": "https://dc.lft.to/lastmile_qr_scan"}, "fusion_lat": 0.0}, {"lat": 38.909431166666664, "lon": -77.04760616666667, "is_disabled": 0, "fusion_lon": 0.0, "is_reserved": 0, "name": "4ffa8efe06597c1db5217ca4cb09d6f6", "type": "electric_bike", "bike_id": "4ffa8efe06597c1db5217ca4cb09d6f6", "rental_uris": {"ios": "https://dc.lft.to/lastmile_qr_scan", "android": "https://dc.lft.to/lastmile_qr_scan"}, "fusion_lat": 0.0}, {"lat": 38.905053, "lon": -77.04826216666666, "is_disabled": 0, "fusion_lon": 0.0, "is_reserved": 0, "name": "0a4e650a9595dd5d879a4bdeee4f58f8", "type": "electric_scooter", "bike_id": "0a4e650a9595dd5d879a4bdeee4f58f8", "rental_uris": {"ios": "https://dc.lft.to/lastmile_qr_scan", "android": "https://dc.lft.to/lastmile_qr_scan"}, "fusion_lat": 0.0}, {"lat": 38.885384, "lon": -76.97888416666666, "is_disabled": 0, "fusion_lon": 0.0, "is_reserved": 0, "name": "7c52ecef565afb8ec7514f5fc8a2c6d0", "type": "electric_scooter", "bike_id": "7c52ecef565afb8ec7514f5fc8a2c6d0", "rental_uris": {"ios": "https://dc.lft.to/lastmile_qr_scan", "android": "https://dc.lft.to/lastmile_qr_scan"}, "fusion_lat": 0.0}, {"lat": 38.90658583333333, "lon": -77.0141265, "is_disabled": 0, "fusion_lon": 0.0, "is_reserved": 0, "name": "546c4eb25ef37a5d46a8dcc8977678bd", "type": "electric_scooter", "bike_id": "546c4eb25ef37a5d46a8dcc8977678bd", "rental_uris": {"ios": "https://dc.lft.to/lastmile_qr_scan", "android": "https://dc.lft.to/lastmile_qr_scan"}, "fusion_lat": 0.0}, {"lat": 38.92384833333333, "lon": -77.03665783333334, "is_disabled": 0, "fusion_lon": 0.0, "is_reserved": 0, "name": "74cf2dd472565eff565a42e25950c962", "type": "electric_scooter", "bike_id": "74cf2dd472565eff565a42e25950c962", "rental_uris": {"ios": "https://dc.lft.to/lastmile_qr_scan", "android": "https://dc.lft.to/lastmile_qr_scan"}, "fusion_lat": 0.0}, {"lat": 38.8985495, "lon": -77.01381166666667, "is_disabled": 0, "fusion_lon": 0.0, "is_reserved": 0, "name": "75fe4aa8736c59657c15b2cf8572d110", "type": "electric_scooter", "bike_id": "75fe4aa8736c59657c15b2cf8572d110", "rental_uris": {"ios": "https://dc.lft.to/lastmile_qr_scan", "android": "https://dc.lft.to/lastmile_qr_scan"}, "fusion_lat": 0.0}, {"lat": 38.903712666666664, "lon": -77.05041266666667, "is_disabled": 0, "fusion_lon": 0.0, "is_reserved": 0, "name": "10d178166dea8c4f206dc420f604e560", "type": "electric_scooter", "bike_id": "10d178166dea8c4f206dc420f604e560", "rental_uris": {"ios": "https://dc.lft.to/lastmile_qr_scan", "android": "https://dc.lft.to/lastmile_qr_scan"}, "fusion_lat": 0.0}, {"lat": 38.8983725, "lon": -77.007346, "is_disabled": 0, "fusion_lon": 0.0, "is_reserved": 0, "name": "4aa4137d31ba94e23c5d8522fa32ec82", "type": "electric_scooter", "bike_id": "4aa4137d31ba94e23c5d8522fa32ec82", "rental_uris": {"ios": "https://dc.lft.to/lastmile_qr_scan", "android": "https://dc.lft.to/lastmile_qr_scan"}, "fusion_lat": 0.0}, {"lat": 38.92445166666667, "lon": -76.9899215, "is_disabled": 0, "fusion_lon": 0.0, "is_reserved": 0, "name": "441ccbf71c9a09d749f882571480e5a3", "type": "electric_scooter", "bike_id": "441ccbf71c9a09d749f882571480e5a3", "rental_uris": {"ios": "https://dc.lft.to/lastmile_qr_scan", "android": "https://dc.lft.to/lastmile_qr_scan"}, "fusion_lat": 0.0}, {"lat": 38.8969625, "lon": -76.96306183333333, "is_disabled": 0, "fusion_lon": 0.0, "is_reserved": 0, "name": "9d301607bde1c27a71cae2f3438ef459", "type": "electric_bike", "bike_id": "9d301607bde1c27a71cae2f3438ef459", "rental_uris": {"ios": "https://dc.lft.to/lastmile_qr_scan", "android": "https://dc.lft.to/lastmile_qr_scan"}, "fusion_lat": 0.0}, {"lat": 38.929722, "lon": -77.03282166666666, "is_disabled": 0, "fusion_lon": 0.0, "is_reserved": 0, "name": "6c8c589b9020a8f16986f4dc94f40cf7", "type": "electric_scooter", "bike_id": "6c8c589b9020a8f16986f4dc94f40cf7", "rental_uris": {"ios": "https://dc.lft.to/lastmile_qr_scan", "android": "https://dc.lft.to/lastmile_qr_scan"}, "fusion_lat": 0.0}, {"lat": 38.917986, "lon": -77.02488116666666, "is_disabled": 0, "fusion_lon": 0.0, "is_reserved": 0, "name": "e3d685ff4d4ea5ed37d63a93f48082f9", "type": "electric_scooter", "bike_id": "e3d685ff4d4ea5ed37d63a93f48082f9", "rental_uris": {"ios": "https://dc.lft.to/lastmile_qr_scan", "android": "https://dc.lft.to/lastmile_qr_scan"}, "fusion_lat": 0.0}, {"lat": 38.92319783333333, "lon": -77.03973, "is_disabled": 0, "fusion_lon": 0.0, "is_reserved": 0, "name": "4c252724dd746b78a77e8ca6095692ba", "type": "electric_scooter", "bike_id": "4c252724dd746b78a77e8ca6095692ba", "rental_uris": {"ios": "https://dc.lft.to/lastmile_qr_scan", "android": "https://dc.lft.to/lastmile_qr_scan"}, "fusion_lat": 0.0}, {"lat": 38.9099305, "lon": -77.03203633333334, "is_disabled": 0, "fusion_lon": 0.0, "is_reserved": 0, "name": "f1a819f4149a4ecfdf1cab95ecea814a", "type": "electric_scooter", "bike_id": "f1a819f4149a4ecfdf1cab95ecea814a", "rental_uris": {"ios": "https://dc.lft.to/lastmile_qr_scan", "android": "https://dc.lft.to/lastmile_qr_scan"}, "fusion_lat": 0.0}, {"lat": 38.897263833333334, "lon": -77.04598983333334, "is_disabled": 0, "fusion_lon": 0.0, "is_reserved": 0, "name": "41b5be7d4b8e4fed84e770cc5bec80f9", "type": "electric_scooter", "bike_id": "41b5be7d4b8e4fed84e770cc5bec80f9", "rental_uris": {"ios": "https://dc.lft.to/lastmile_qr_scan", "android": "https://dc.lft.to/lastmile_qr_scan"}, "fusion_lat": 0.0}, {"lat": 38.889312333333336, "lon": -76.99379383333333, "is_disabled": 0, "fusion_lon": 0.0, "is_reserved": 0, "name": "99c08c6752fe97e4f94eaed7d4d790ab", "type": "electric_scooter", "bike_id": "99c08c6752fe97e4f94eaed7d4d790ab", "rental_uris": {"ios": "https://dc.lft.to/lastmile_qr_scan", "android": "https://dc.lft.to/lastmile_qr_scan"}, "fusion_lat": 0.0}, {"lat": 38.8875305, "lon": -76.996173, "is_disabled": 0, "fusion_lon": 0.0, "is_reserved": 0, "name": "2f2344f7b5d7f44a59461e0ff60e3cdc", "type": "electric_scooter", "bike_id": "2f2344f7b5d7f44a59461e0ff60e3cdc", "rental_uris": {"ios": "https://dc.lft.to/lastmile_qr_scan", "android": "https://dc.lft.to/lastmile_qr_scan"}, "fusion_lat": 0.0}, {"lat": 38.90363116666666, "lon": -77.03171316666666, "is_disabled": 0, "fusion_lon": 0.0, "is_reserved": 0, "name": "c2c89151bf9406ea5418e6938df7cbeb", "type": "electric_scooter", "bike_id": "c2c89151bf9406ea5418e6938df7cbeb", "rental_uris": {"ios": "https://dc.lft.to/lastmile_qr_scan", "android": "https://dc.lft.to/lastmile_qr_scan"}, "fusion_lat": 0.0}, {"lat": 38.90716966666667, "lon": -77.0762085, "is_disabled": 0, "fusion_lon": 0.0, "is_reserved": 0, "name": "47c174105e527ac91eea0090ca37993b", "type": "electric_scooter", "bike_id": "47c174105e527ac91eea0090ca37993b", "rental_uris": {"ios": "https://dc.lft.to/lastmile_qr_scan", "android": "https://dc.lft.to/lastmile_qr_scan"}, "fusion_lat": 0.0}, {"lat": 38.8475505, "lon": -76.99499183333333, "is_disabled": 0, "fusion_lon": 0.0, "is_reserved": 0, "name": "c40a6856391c98779096a2c851ad191e", "type": "electric_scooter", "bike_id": "c40a6856391c98779096a2c851ad191e", "rental_uris": {"ios": "https://dc.lft.to/lastmile_qr_scan", "android": "https://dc.lft.to/lastmile_qr_scan"}, "fusion_lat": 0.0}, {"lat": 38.909882833333334, "lon": -77.03198733333333, "is_disabled": 0, "fusion_lon": 0.0, "is_reserved": 0, "name": "381fbe3dee64df8e6166f15cecb0983c", "type": "electric_scooter", "bike_id": "381fbe3dee64df8e6166f15cecb0983c", "rental_uris": {"ios": "https://dc.lft.to/lastmile_qr_scan", "android": "https://dc.lft.to/lastmile_qr_scan"}, "fusion_lat": 0.0}, {"lat": 38.8960535, "lon": -77.05031466666667, "is_disabled": 0, "fusion_lon": 0.0, "is_reserved": 0, "name": "a7354d3c6959e7ba04480b111edb59e0", "type": "electric_scooter", "bike_id": "a7354d3c6959e7ba04480b111edb59e0", "rental_uris": {"ios": "https://dc.lft.to/lastmile_qr_scan", "android": "https://dc.lft.to/lastmile_qr_scan"}, "fusion_lat": 0.0}, {"lat": 39.0861455, "lon": -77.152531, "is_disabled": 0, "fusion_lon": 0.0, "is_reserved": 0, "name": "42f85901333efe24cfa87a9a4398181c", "type": "electric_bike", "bike_id": "42f85901333efe24cfa87a9a4398181c", "rental_uris": {"ios": "https://dc.lft.to/lastmile_qr_scan", "android": "https://dc.lft.to/lastmile_qr_scan"}, "fusion_lat": 0.0}, {"lat": 38.879218333333334, "lon": -77.023776, "is_disabled": 0, "fusion_lon": 0.0, "is_reserved": 0, "name": "e5229becd5395d38c878e8b87588a312", "type": "electric_scooter", "bike_id": "e5229becd5395d38c878e8b87588a312", "rental_uris": {"ios": "https://dc.lft.to/lastmile_qr_scan", "android": "https://dc.lft.to/lastmile_qr_scan"}, "fusion_lat": 0.0}, {"lat": 38.896119666666664, "lon": -77.046099, "is_disabled": 0, "fusion_lon": 0.0, "is_reserved": 0, "name": "5727dd6025fc25c3962b843f0ae443d5", "type": "electric_scooter", "bike_id": "5727dd6025fc25c3962b843f0ae443d5", "rental_uris": {"ios": "https://dc.lft.to/lastmile_qr_scan", "android": "https://dc.lft.to/lastmile_qr_scan"}, "fusion_lat": 0.0}, {"lat": 38.915594166666665, "lon": -77.0252155, "is_disabled": 0, "fusion_lon": 0.0, "is_reserved": 0, "name": "8ec3c71ab8bdbf8e3080110054229233", "type": "electric_scooter", "bike_id": "8ec3c71ab8bdbf8e3080110054229233", "rental_uris": {"ios": "https://dc.lft.to/lastmile_qr_scan", "android": "https://dc.lft.to/lastmile_qr_scan"}, "fusion_lat": 0.0}, {"lat": 38.9011905, "lon": -77.042987, "is_disabled": 0, "fusion_lon": 0.0, "is_reserved": 0, "name": "6c403e57d409a26b97a44fe83b96e129", "type": "electric_scooter", "bike_id": "6c403e57d409a26b97a44fe83b96e129", "rental_uris": {"ios": "https://dc.lft.to/lastmile_qr_scan", "android": "https://dc.lft.to/lastmile_qr_scan"}, "fusion_lat": 0.0}, {"lat": 38.92414933333333, "lon": -77.01932133333334, "is_disabled": 0, "fusion_lon": 0.0, "is_reserved": 0, "name": "8c67842b904f306d07ba031549c7ec62", "type": "electric_scooter", "bike_id": "8c67842b904f306d07ba031549c7ec62", "rental_uris": {"ios": "https://dc.lft.to/lastmile_qr_scan", "android": "https://dc.lft.to/lastmile_qr_scan"}, "fusion_lat": 0.0}, {"lat": 38.897572833333335, "lon": -77.0275995, "is_disabled": 0, "fusion_lon": 0.0, "is_reserved": 0, "name": "ade2a5d9217dfca50d4bd9a03594f467", "type": "electric_scooter", "bike_id": "ade2a5d9217dfca50d4bd9a03594f467", "rental_uris": {"ios": "https://dc.lft.to/lastmile_qr_scan", "android": "https://dc.lft.to/lastmile_qr_scan"}, "fusion_lat": 0.0}, {"lat": 38.89726116666667, "lon": -77.00365883333333, "is_disabled": 0, "fusion_lon": 0.0, "is_reserved": 0, "name": "2e01c0d751060d7cb9d0a0fe7c9b609d", "type": "electric_scooter", "bike_id": "2e01c0d751060d7cb9d0a0fe7c9b609d", "rental_uris": {"ios": "https://dc.lft.to/lastmile_qr_scan", "android": "https://dc.lft.to/lastmile_qr_scan"}, "fusion_lat": 0.0}, {"lat": 38.875435, "lon": -77.00573766666666, "is_disabled": 0, "fusion_lon": 0.0, "is_reserved": 0, "name": "b09d93d6a7e432ae9d2d204bb0f929f1", "type": "electric_scooter", "bike_id": "b09d93d6a7e432ae9d2d204bb0f929f1", "rental_uris": {"ios": "https://dc.lft.to/lastmile_qr_scan", "android": "https://dc.lft.to/lastmile_qr_scan"}, "fusion_lat": 0.0}, {"lat": 38.91035, "lon": -77.075586, "is_disabled": 0, "fusion_lon": 0.0, "is_reserved": 0, "name": "3d5613f3cb7ea67dec56073029af4b85", "type": "electric_bike", "bike_id": "3d5613f3cb7ea67dec56073029af4b85", "rental_uris": {"ios": "https://dc.lft.to/lastmile_qr_scan", "android": "https://dc.lft.to/lastmile_qr_scan"}, "fusion_lat": 0.0}, {"lat": 38.936224333333335, "lon": -77.05875883333333, "is_disabled": 0, "fusion_lon": 0.0, "is_reserved": 0, "name": "933f7da1e50dec1cabcb7d2819ced4c5", "type": "electric_scooter", "bike_id": "933f7da1e50dec1cabcb7d2819ced4c5", "rental_uris": {"ios": "https://dc.lft.to/lastmile_qr_scan", "android": "https://dc.lft.to/lastmile_qr_scan"}, "fusion_lat": 0.0}, {"lat": 38.87035616666667, "lon": -77.22872633333333, "is_disabled": 0, "fusion_lon": 0.0, "is_reserved": 0, "name": "2a236fe9e95e7712a06661d9ea544195", "type": "electric_bike", "bike_id": "2a236fe9e95e7712a06661d9ea544195", "rental_uris": {"ios": "https://dc.lft.to/lastmile_qr_scan", "android": "https://dc.lft.to/lastmile_qr_scan"}, "fusion_lat": 0.0}, {"lat": 38.92677966666667, "lon": -77.02776983333334, "is_disabled": 0, "fusion_lon": 0.0, "is_reserved": 0, "name": "4bdafa97a127bd0413c07f9ec5f73cab", "type": "electric_scooter", "bike_id": "4bdafa97a127bd0413c07f9ec5f73cab", "rental_uris": {"ios": "https://dc.lft.to/lastmile_qr_scan", "android": "https://dc.lft.to/lastmile_qr_scan"}, "fusion_lat": 0.0}, {"lat": 38.91719283333333, "lon": -77.0333855, "is_disabled": 0, "fusion_lon": 0.0, "is_reserved": 0, "name": "f83df1bbcdfc78e2223639b2da42f322", "type": "electric_scooter", "bike_id": "f83df1bbcdfc78e2223639b2da42f322", "rental_uris": {"ios": "https://dc.lft.to/lastmile_qr_scan", "android": "https://dc.lft.to/lastmile_qr_scan"}, "fusion_lat": 0.0}, {"lat": 38.899324, "lon": -77.04095283333334, "is_disabled": 0, "fusion_lon": 0.0, "is_reserved": 0, "name": "a533623fb334fe0056b45a897e0e90cb", "type": "electric_scooter", "bike_id": "a533623fb334fe0056b45a897e0e90cb", "rental_uris": {"ios": "https://dc.lft.to/lastmile_qr_scan", "android": "https://dc.lft.to/lastmile_qr_scan"}, "fusion_lat": 0.0}, {"lat": 38.864863166666666, "lon": -76.97747783333334, "is_disabled": 0, "fusion_lon": 0.0, "is_reserved": 0, "name": "76e693dd3e629d3dc6b392fe3e229a91", "type": "electric_bike", "bike_id": "76e693dd3e629d3dc6b392fe3e229a91", "rental_uris": {"ios": "https://dc.lft.to/lastmile_qr_scan", "android": "https://dc.lft.to/lastmile_qr_scan"}, "fusion_lat": 0.0}, {"lat": 38.90151433333333, "lon": -76.99026583333334, "is_disabled": 0, "fusion_lon": 0.0, "is_reserved": 0, "name": "7bfa372860c42aa0d080b744d5790e61", "type": "electric_scooter", "bike_id": "7bfa372860c42aa0d080b744d5790e61", "rental_uris": {"ios": "https://dc.lft.to/lastmile_qr_scan", "android": "https://dc.lft.to/lastmile_qr_scan"}, "fusion_lat": 0.0}, {"lat": 38.915955, "lon": -76.99363366666667, "is_disabled": 0, "fusion_lon": 0.0, "is_reserved": 0, "name": "39bc209548d6f231bca98661d9c20b40", "type": "electric_scooter", "bike_id": "39bc209548d6f231bca98661d9c20b40", "rental_uris": {"ios": "https://dc.lft.to/lastmile_qr_scan", "android": "https://dc.lft.to/lastmile_qr_scan"}, "fusion_lat": 0.0}, {"lat": 38.8475385, "lon": -76.99506766666667, "is_disabled": 0, "fusion_lon": 0.0, "is_reserved": 0, "name": "d997e70e011abbcbe4dc5e5c85563246", "type": "electric_scooter", "bike_id": "d997e70e011abbcbe4dc5e5c85563246", "rental_uris": {"ios": "https://dc.lft.to/lastmile_qr_scan", "android": "https://dc.lft.to/lastmile_qr_scan"}, "fusion_lat": 0.0}, {"lat": 38.948128, "lon": -77.10015616666666, "is_disabled": 0, "fusion_lon": 0.0, "is_reserved": 0, "name": "29031d99e21aa8e60eb4bf8db1fe1447", "type": "electric_bike", "bike_id": "29031d99e21aa8e60eb4bf8db1fe1447", "rental_uris": {"ios": "https://dc.lft.to/lastmile_qr_scan", "android": "https://dc.lft.to/lastmile_qr_scan"}, "fusion_lat": 0.0}, {"lat": 38.900302833333335, "lon": -77.037555, "is_disabled": 0, "fusion_lon": 0.0, "is_reserved": 0, "name": "8f52f3844e05c296ddd0c951dd753a71", "type": "electric_scooter", "bike_id": "8f52f3844e05c296ddd0c951dd753a71", "rental_uris": {"ios": "https://dc.lft.to/lastmile_qr_scan", "android": "https://dc.lft.to/lastmile_qr_scan"}, "fusion_lat": 0.0}, {"lat": 38.926495333333335, "lon": -77.0431775, "is_disabled": 0, "fusion_lon": 0.0, "is_reserved": 0, "name": "4feecbb8400ddc40abdb9043d40c5ab6", "type": "electric_scooter", "bike_id": "4feecbb8400ddc40abdb9043d40c5ab6", "rental_uris": {"ios": "https://dc.lft.to/lastmile_qr_scan", "android": "https://dc.lft.to/lastmile_qr_scan"}, "fusion_lat": 0.0}, {"lat": 38.893359333333336, "lon": -77.031789, "is_disabled": 0, "fusion_lon": 0.0, "is_reserved": 0, "name": "c6a6f99b3f78d07d902eaa762164fa66", "type": "electric_scooter", "bike_id": "c6a6f99b3f78d07d902eaa762164fa66", "rental_uris": {"ios": "https://dc.lft.to/lastmile_qr_scan", "android": "https://dc.lft.to/lastmile_qr_scan"}, "fusion_lat": 0.0}, {"lat": 38.91662016666667, "lon": -77.030029, "is_disabled": 0, "fusion_lon": 0.0, "is_reserved": 0, "name": "fd7d129b91ec7257409c2069ab06e926", "type": "electric_scooter", "bike_id": "fd7d129b91ec7257409c2069ab06e926", "rental_uris": {"ios": "https://dc.lft.to/lastmile_qr_scan", "android": "https://dc.lft.to/lastmile_qr_scan"}, "fusion_lat": 0.0}, {"lat": 38.8598735, "lon": -76.99654166666667, "is_disabled": 0, "fusion_lon": 0.0, "is_reserved": 0, "name": "4a5f11c58df94c7379309f5bd2b705cd", "type": "electric_scooter", "bike_id": "4a5f11c58df94c7379309f5bd2b705cd", "rental_uris": {"ios": "https://dc.lft.to/lastmile_qr_scan", "android": "https://dc.lft.to/lastmile_qr_scan"}, "fusion_lat": 0.0}, {"lat": 38.92282633333333, "lon": -77.036663, "is_disabled": 0, "fusion_lon": 0.0, "is_reserved": 0, "name": "99b3c3c7b3e3e6e84828993e237da2cc", "type": "electric_scooter", "bike_id": "99b3c3c7b3e3e6e84828993e237da2cc", "rental_uris": {"ios": "https://dc.lft.to/lastmile_qr_scan", "android": "https://dc.lft.to/lastmile_qr_scan"}, "fusion_lat": 0.0}, {"lat": 38.918862, "lon": -77.02201283333333, "is_disabled": 0, "fusion_lon": 0.0, "is_reserved": 0, "name": "20f0994d4dce801a7358f187673e8a7d", "type": "electric_scooter", "bike_id": "20f0994d4dce801a7358f187673e8a7d", "rental_uris": {"ios": "https://dc.lft.to/lastmile_qr_scan", "android": "https://dc.lft.to/lastmile_qr_scan"}, "fusion_lat": 0.0}, {"lat": 38.87660233333333, "lon": -77.00308183333334, "is_disabled": 0, "fusion_lon": 0.0, "is_reserved": 0, "name": "8c6cea28319b5c61430a308eeb49e218", "type": "electric_scooter", "bike_id": "8c6cea28319b5c61430a308eeb49e218", "rental_uris": {"ios": "https://dc.lft.to/lastmile_qr_scan", "android": "https://dc.lft.to/lastmile_qr_scan"}, "fusion_lat": 0.0}, {"lat": 38.95739716666667, "lon": -77.0022525, "is_disabled": 0, "fusion_lon": 0.0, "is_reserved": 0, "name": "ebed157f7f365fb875042a88db6f5585", "type": "electric_scooter", "bike_id": "ebed157f7f365fb875042a88db6f5585", "rental_uris": {"ios": "https://dc.lft.to/lastmile_qr_scan", "android": "https://dc.lft.to/lastmile_qr_scan"}, "fusion_lat": 0.0}, {"lat": 38.917223666666665, "lon": -77.04607583333333, "is_disabled": 0, "fusion_lon": 0.0, "is_reserved": 0, "name": "200d7408dfd2b1243f69d50dbf5ca191", "type": "electric_scooter", "bike_id": "200d7408dfd2b1243f69d50dbf5ca191", "rental_uris": {"ios": "https://dc.lft.to/lastmile_qr_scan", "android": "https://dc.lft.to/lastmile_qr_scan"}, "fusion_lat": 0.0}, {"lat": 38.92413483333333, "lon": -77.0506475, "is_disabled": 0, "fusion_lon": 0.0, "is_reserved": 0, "name": "b469ef46ffd78ef65b6e9526798bcc18", "type": "electric_scooter", "bike_id": "b469ef46ffd78ef65b6e9526798bcc18", "rental_uris": {"ios": "https://dc.lft.to/lastmile_qr_scan", "android": "https://dc.lft.to/lastmile_qr_scan"}, "fusion_lat": 0.0}, {"lat": 38.89726666666667, "lon": -77.05525083333333, "is_disabled": 0, "fusion_lon": 0.0, "is_reserved": 0, "name": "56459aff3ea8486fc88b701a0dce2022", "type": "electric_scooter", "bike_id": "56459aff3ea8486fc88b701a0dce2022", "rental_uris": {"ios": "https://dc.lft.to/lastmile_qr_scan", "android": "https://dc.lft.to/lastmile_qr_scan"}, "fusion_lat": 0.0}, {"lat": 38.92672266666667, "lon": -77.02785766666666, "is_disabled": 0, "fusion_lon": 0.0, "is_reserved": 0, "name": "e344f988ae42f4e53aa9d50c1312a56e", "type": "electric_scooter", "bike_id": "e344f988ae42f4e53aa9d50c1312a56e", "rental_uris": {"ios": "https://dc.lft.to/lastmile_qr_scan", "android": "https://dc.lft.to/lastmile_qr_scan"}, "fusion_lat": 0.0}, {"lat": 38.9318755, "lon": -77.04299616666667, "is_disabled": 0, "fusion_lon": 0.0, "is_reserved": 0, "name": "63eaa859b3f12f76187cd502a5c53e2f", "type": "electric_scooter", "bike_id": "63eaa859b3f12f76187cd502a5c53e2f", "rental_uris": {"ios": "https://dc.lft.to/lastmile_qr_scan", "android": "https://dc.lft.to/lastmile_qr_scan"}, "fusion_lat": 0.0}, {"lat": 38.924331333333335, "lon": -77.02034283333333, "is_disabled": 0, "fusion_lon": 0.0, "is_reserved": 0, "name": "26efd8b74d90030606aa6ef70ea59e1d", "type": "electric_scooter", "bike_id": "26efd8b74d90030606aa6ef70ea59e1d", "rental_uris": {"ios": "https://dc.lft.to/lastmile_qr_scan", "android": "https://dc.lft.to/lastmile_qr_scan"}, "fusion_lat": 0.0}, {"lat": 38.892203, "lon": -77.02657266666667, "is_disabled": 0, "fusion_lon": 0.0, "is_reserved": 0, "name": "309aae4f75f1ed305570d7016d263516", "type": "electric_scooter", "bike_id": "309aae4f75f1ed305570d7016d263516", "rental_uris": {"ios": "https://dc.lft.to/lastmile_qr_scan", "android": "https://dc.lft.to/lastmile_qr_scan"}, "fusion_lat": 0.0}, {"lat": 38.874643166666665, "lon": -77.01454166666667, "is_disabled": 0, "fusion_lon": 0.0, "is_reserved": 0, "name": "d658193a852fc3ab3f38cc0179077af0", "type": "electric_scooter", "bike_id": "d658193a852fc3ab3f38cc0179077af0", "rental_uris": {"ios": "https://dc.lft.to/lastmile_qr_scan", "android": "https://dc.lft.to/lastmile_qr_scan"}, "fusion_lat": 0.0}, {"lat": 38.91107383333333, "lon": -77.04533883333333, "is_disabled": 0, "fusion_lon": 0.0, "is_reserved": 0, "name": "fa8654258c1dc1d7c119972a4297c6ee", "type": "electric_scooter", "bike_id": "fa8654258c1dc1d7c119972a4297c6ee", "rental_uris": {"ios": "https://dc.lft.to/lastmile_qr_scan", "android": "https://dc.lft.to/lastmile_qr_scan"}, "fusion_lat": 0.0}, {"lat": 38.843057, "lon": -76.995344, "is_disabled": 0, "fusion_lon": 0.0, "is_reserved": 0, "name": "1132263fa8445e5249e02f73888445a8", "type": "electric_scooter", "bike_id": "1132263fa8445e5249e02f73888445a8", "rental_uris": {"ios": "https://dc.lft.to/lastmile_qr_scan", "android": "https://dc.lft.to/lastmile_qr_scan"}, "fusion_lat": 0.0}, {"lat": 38.92333266666667, "lon": -77.0567905, "is_disabled": 0, "fusion_lon": 0.0, "is_reserved": 0, "name": "ba603d66af30130e399dfe7a64f04b33", "type": "electric_scooter", "bike_id": "ba603d66af30130e399dfe7a64f04b33", "rental_uris": {"ios": "https://dc.lft.to/lastmile_qr_scan", "android": "https://dc.lft.to/lastmile_qr_scan"}, "fusion_lat": 0.0}, {"lat": 38.8922225, "lon": -77.041971, "is_disabled": 0, "fusion_lon": 0.0, "is_reserved": 0, "name": "2dc16e59d702363b2a22b9b1bb3eac14", "type": "electric_scooter", "bike_id": "2dc16e59d702363b2a22b9b1bb3eac14", "rental_uris": {"ios": "https://dc.lft.to/lastmile_qr_scan", "android": "https://dc.lft.to/lastmile_qr_scan"}, "fusion_lat": 0.0}, {"lat": 38.906302833333335, "lon": -77.02500433333333, "is_disabled": 0, "fusion_lon": 0.0, "is_reserved": 0, "name": "c13041269d357c8d41bce27ab1afe1ca", "type": "electric_scooter", "bike_id": "c13041269d357c8d41bce27ab1afe1ca", "rental_uris": {"ios": "https://dc.lft.to/lastmile_qr_scan", "android": "https://dc.lft.to/lastmile_qr_scan"}, "fusion_lat": 0.0}, {"lat": 38.923117166666664, "lon": -77.04113366666667, "is_disabled": 0, "fusion_lon": 0.0, "is_reserved": 0, "name": "10b2b7051492670662d230fd00e2474f", "type": "electric_scooter", "bike_id": "10b2b7051492670662d230fd00e2474f", "rental_uris": {"ios": "https://dc.lft.to/lastmile_qr_scan", "android": "https://dc.lft.to/lastmile_qr_scan"}, "fusion_lat": 0.0}, {"lat": 38.925869166666665, "lon": -77.20986, "is_disabled": 0, "fusion_lon": 0.0, "is_reserved": 0, "name": "66249f43a583ce804ec4e16c3e240efa", "type": "electric_bike", "bike_id": "66249f43a583ce804ec4e16c3e240efa", "rental_uris": {"ios": "https://dc.lft.to/lastmile_qr_scan", "android": "https://dc.lft.to/lastmile_qr_scan"}, "fusion_lat": 0.0}, {"lat": 38.916200333333336, "lon": -77.03196516666667, "is_disabled": 0, "fusion_lon": 0.0, "is_reserved": 0, "name": "5749200462a9c3471076789a91d095f6", "type": "electric_scooter", "bike_id": "5749200462a9c3471076789a91d095f6", "rental_uris": {"ios": "https://dc.lft.to/lastmile_qr_scan", "android": "https://dc.lft.to/lastmile_qr_scan"}, "fusion_lat": 0.0}, {"lat": 38.900681666666664, "lon": -77.0208865, "is_disabled": 0, "fusion_lon": 0.0, "is_reserved": 0, "name": "40c41b7a21f11e25536f3b144c9fbb35", "type": "electric_scooter", "bike_id": "40c41b7a21f11e25536f3b144c9fbb35", "rental_uris": {"ios": "https://dc.lft.to/lastmile_qr_scan", "android": "https://dc.lft.to/lastmile_qr_scan"}, "fusion_lat": 0.0}, {"lat": 38.915038, "lon": -77.01569166666667, "is_disabled": 0, "fusion_lon": 0.0, "is_reserved": 0, "name": "aa7f5d5922ef1cffc7f67ae064e3d59d", "type": "electric_scooter", "bike_id": "aa7f5d5922ef1cffc7f67ae064e3d59d", "rental_uris": {"ios": "https://dc.lft.to/lastmile_qr_scan", "android": "https://dc.lft.to/lastmile_qr_scan"}, "fusion_lat": 0.0}, {"lat": 38.92463933333333, "lon": -77.05239766666666, "is_disabled": 0, "fusion_lon": 0.0, "is_reserved": 0, "name": "0885107fca6c9e9dea3fe6481ddf99ec", "type": "electric_scooter", "bike_id": "0885107fca6c9e9dea3fe6481ddf99ec", "rental_uris": {"ios": "https://dc.lft.to/lastmile_qr_scan", "android": "https://dc.lft.to/lastmile_qr_scan"}, "fusion_lat": 0.0}, {"lat": 38.82781766666667, "lon": -77.12496016666667, "is_disabled": 0, "fusion_lon": 0.0, "is_reserved": 0, "name": "7f855274a5561961d629871a14e9f3e4", "type": "electric_bike", "bike_id": "7f855274a5561961d629871a14e9f3e4", "rental_uris": {"ios": "https://dc.lft.to/lastmile_qr_scan", "android": "https://dc.lft.to/lastmile_qr_scan"}, "fusion_lat": 0.0}, {"lat": 38.91610716666667, "lon": -77.04516133333334, "is_disabled": 0, "fusion_lon": 0.0, "is_reserved": 0, "name": "eb4beee192dc08e5764555d01c050bfa", "type": "electric_scooter", "bike_id": "eb4beee192dc08e5764555d01c050bfa", "rental_uris": {"ios": "https://dc.lft.to/lastmile_qr_scan", "android": "https://dc.lft.to/lastmile_qr_scan"}, "fusion_lat": 0.0}, {"lat": 38.887654166666664, "lon": -77.01303233333333, "is_disabled": 0, "fusion_lon": 0.0, "is_reserved": 0, "name": "31026f4cf3ec33155d5147cfebcdd555", "type": "electric_scooter", "bike_id": "31026f4cf3ec33155d5147cfebcdd555", "rental_uris": {"ios": "https://dc.lft.to/lastmile_qr_scan", "android": "https://dc.lft.to/lastmile_qr_scan"}, "fusion_lat": 0.0}, {"lat": 38.95423183333333, "lon": -77.02766666666666, "is_disabled": 0, "fusion_lon": 0.0, "is_reserved": 0, "name": "ad8757b695fc1c9786097ee452377756", "type": "electric_scooter", "bike_id": "ad8757b695fc1c9786097ee452377756", "rental_uris": {"ios": "https://dc.lft.to/lastmile_qr_scan", "android": "https://dc.lft.to/lastmile_qr_scan"}, "fusion_lat": 0.0}, {"lat": 38.91588016666667, "lon": -77.01725, "is_disabled": 0, "fusion_lon": 0.0, "is_reserved": 0, "name": "92687cefd4129dc49a69b9f87a73831f", "type": "electric_scooter", "bike_id": "92687cefd4129dc49a69b9f87a73831f", "rental_uris": {"ios": "https://dc.lft.to/lastmile_qr_scan", "android": "https://dc.lft.to/lastmile_qr_scan"}, "fusion_lat": 0.0}, {"lat": 38.8993555, "lon": -77.0203165, "is_disabled": 0, "fusion_lon": 0.0, "is_reserved": 0, "name": "9299155eace34d003d511619a2a73807", "type": "electric_scooter", "bike_id": "9299155eace34d003d511619a2a73807", "rental_uris": {"ios": "https://dc.lft.to/lastmile_qr_scan", "android": "https://dc.lft.to/lastmile_qr_scan"}, "fusion_lat": 0.0}, {"lat": 38.88683, "lon": -76.9764345, "is_disabled": 0, "fusion_lon": 0.0, "is_reserved": 0, "name": "c51c9ed4262bda97bb3fc438905c0eb3", "type": "electric_scooter", "bike_id": "c51c9ed4262bda97bb3fc438905c0eb3", "rental_uris": {"ios": "https://dc.lft.to/lastmile_qr_scan", "android": "https://dc.lft.to/lastmile_qr_scan"}, "fusion_lat": 0.0}, {"lat": 38.87823316666667, "lon": -76.996085, "is_disabled": 0, "fusion_lon": 0.0, "is_reserved": 0, "name": "55efe6ce5e0767a68079caf03f15f2c2", "type": "electric_scooter", "bike_id": "55efe6ce5e0767a68079caf03f15f2c2", "rental_uris": {"ios": "https://dc.lft.to/lastmile_qr_scan", "android": "https://dc.lft.to/lastmile_qr_scan"}, "fusion_lat": 0.0}, {"lat": 38.91576366666666, "lon": -77.04495683333333, "is_disabled": 0, "fusion_lon": 0.0, "is_reserved": 0, "name": "7fe0f7bfb6d05015050a1f4cd9450517", "type": "electric_scooter", "bike_id": "7fe0f7bfb6d05015050a1f4cd9450517", "rental_uris": {"ios": "https://dc.lft.to/lastmile_qr_scan", "android": "https://dc.lft.to/lastmile_qr_scan"}, "fusion_lat": 0.0}, {"lat": 38.9202625, "lon": -77.07167666666666, "is_disabled": 0, "fusion_lon": 0.0, "is_reserved": 0, "name": "a50edf0e2146391703268e7233f39938", "type": "electric_scooter", "bike_id": "a50edf0e2146391703268e7233f39938", "rental_uris": {"ios": "https://dc.lft.to/lastmile_qr_scan", "android": "https://dc.lft.to/lastmile_qr_scan"}, "fusion_lat": 0.0}, {"lat": 38.916022, "lon": -77.0490915, "is_disabled": 0, "fusion_lon": 0.0, "is_reserved": 0, "name": "d2fb0156ad31971bab3e9610b7085456", "type": "electric_scooter", "bike_id": "d2fb0156ad31971bab3e9610b7085456", "rental_uris": {"ios": "https://dc.lft.to/lastmile_qr_scan", "android": "https://dc.lft.to/lastmile_qr_scan"}, "fusion_lat": 0.0}, {"lat": 38.874075, "lon": -77.0019685, "is_disabled": 0, "fusion_lon": 0.0, "is_reserved": 0, "name": "c0e025fd42410140d450e3400e854a2d", "type": "electric_scooter", "bike_id": "c0e025fd42410140d450e3400e854a2d", "rental_uris": {"ios": "https://dc.lft.to/lastmile_qr_scan", "android": "https://dc.lft.to/lastmile_qr_scan"}, "fusion_lat": 0.0}, {"lat": 38.877137166666664, "lon": -77.01656816666667, "is_disabled": 0, "fusion_lon": 0.0, "is_reserved": 0, "name": "e9df41a3960b6a813d0e795a810afe15", "type": "electric_scooter", "bike_id": "e9df41a3960b6a813d0e795a810afe15", "rental_uris": {"ios": "https://dc.lft.to/lastmile_qr_scan", "android": "https://dc.lft.to/lastmile_qr_scan"}, "fusion_lat": 0.0}, {"lat": 38.88732366666667, "lon": -77.02383633333334, "is_disabled": 0, "fusion_lon": 0.0, "is_reserved": 0, "name": "b914d274d6e467b01a6ae13ff8705edd", "type": "electric_scooter", "bike_id": "b914d274d6e467b01a6ae13ff8705edd", "rental_uris": {"ios": "https://dc.lft.to/lastmile_qr_scan", "android": "https://dc.lft.to/lastmile_qr_scan"}, "fusion_lat": 0.0}, {"lat": 38.902016833333334, "lon": -77.023845, "is_disabled": 0, "fusion_lon": 0.0, "is_reserved": 0, "name": "4df88413e47aca8ddf552f6c1c72082b", "type": "electric_scooter", "bike_id": "4df88413e47aca8ddf552f6c1c72082b", "rental_uris": {"ios": "https://dc.lft.to/lastmile_qr_scan", "android": "https://dc.lft.to/lastmile_qr_scan"}, "fusion_lat": 0.0}, {"lat": 38.92227, "lon": -77.0440785, "is_disabled": 0, "fusion_lon": 0.0, "is_reserved": 0, "name": "de4cf8c8b67ef58700b803670751efaa", "type": "electric_scooter", "bike_id": "de4cf8c8b67ef58700b803670751efaa", "rental_uris": {"ios": "https://dc.lft.to/lastmile_qr_scan", "android": "https://dc.lft.to/lastmile_qr_scan"}, "fusion_lat": 0.0}, {"lat": 38.83155516666667, "lon": -76.99576366666666, "is_disabled": 0, "fusion_lon": 0.0, "is_reserved": 0, "name": "ff51175fa59c5c640d19bf75ab0bfb28", "type": "electric_bike", "bike_id": "ff51175fa59c5c640d19bf75ab0bfb28", "rental_uris": {"ios": "https://dc.lft.to/lastmile_qr_scan", "android": "https://dc.lft.to/lastmile_qr_scan"}, "fusion_lat": 0.0}, {"lat": 38.8988555, "lon": -77.00836616666666, "is_disabled": 0, "fusion_lon": 0.0, "is_reserved": 0, "name": "2c30c1cf8f28b1fabf5f4d33e41d0372", "type": "electric_scooter", "bike_id": "2c30c1cf8f28b1fabf5f4d33e41d0372", "rental_uris": {"ios": "https://dc.lft.to/lastmile_qr_scan", "android": "https://dc.lft.to/lastmile_qr_scan"}, "fusion_lat": 0.0}, {"lat": 38.91331266666667, "lon": -77.03193983333334, "is_disabled": 0, "fusion_lon": 0.0, "is_reserved": 0, "name": "33979ea164ffbb1ec0357aee43b59cd4", "type": "electric_scooter", "bike_id": "33979ea164ffbb1ec0357aee43b59cd4", "rental_uris": {"ios": "https://dc.lft.to/lastmile_qr_scan", "android": "https://dc.lft.to/lastmile_qr_scan"}, "fusion_lat": 0.0}, {"lat": 38.887263833333336, "lon": -77.02380616666666, "is_disabled": 0, "fusion_lon": 0.0, "is_reserved": 0, "name": "cd7ae3825e057c39386c8162156bbc34", "type": "electric_scooter", "bike_id": "cd7ae3825e057c39386c8162156bbc34", "rental_uris": {"ios": "https://dc.lft.to/lastmile_qr_scan", "android": "https://dc.lft.to/lastmile_qr_scan"}, "fusion_lat": 0.0}, {"lat": 38.89769966666667, "lon": -77.05465616666666, "is_disabled": 0, "fusion_lon": 0.0, "is_reserved": 0, "name": "f6e67e510bf427fad5cfdc06f8bb0757", "type": "electric_scooter", "bike_id": "f6e67e510bf427fad5cfdc06f8bb0757", "rental_uris": {"ios": "https://dc.lft.to/lastmile_qr_scan", "android": "https://dc.lft.to/lastmile_qr_scan"}, "fusion_lat": 0.0}, {"lat": 38.896001, "lon": -77.00933583333334, "is_disabled": 0, "fusion_lon": 0.0, "is_reserved": 0, "name": "c2702281acfbbe9816f2f7d076f8cfa8", "type": "electric_scooter", "bike_id": "c2702281acfbbe9816f2f7d076f8cfa8", "rental_uris": {"ios": "https://dc.lft.to/lastmile_qr_scan", "android": "https://dc.lft.to/lastmile_qr_scan"}, "fusion_lat": 0.0}, {"lat": 38.9309015, "lon": -77.02482, "is_disabled": 0, "fusion_lon": 0.0, "is_reserved": 0, "name": "02c87440bb6d5ac0a5dd402ba15f9a90", "type": "electric_scooter", "bike_id": "02c87440bb6d5ac0a5dd402ba15f9a90", "rental_uris": {"ios": "https://dc.lft.to/lastmile_qr_scan", "android": "https://dc.lft.to/lastmile_qr_scan"}, "fusion_lat": 0.0}, {"lat": 38.9179985, "lon": -77.02491316666666, "is_disabled": 0, "fusion_lon": 0.0, "is_reserved": 0, "name": "f0be96c970bd1b484e5fb0f55593fd9a", "type": "electric_scooter", "bike_id": "f0be96c970bd1b484e5fb0f55593fd9a", "rental_uris": {"ios": "https://dc.lft.to/lastmile_qr_scan", "android": "https://dc.lft.to/lastmile_qr_scan"}, "fusion_lat": 0.0}, {"lat": 38.918847, "lon": -77.024754, "is_disabled": 0, "fusion_lon": 0.0, "is_reserved": 0, "name": "27275eea089ee3af62c4d1fd4f53d32b", "type": "electric_scooter", "bike_id": "27275eea089ee3af62c4d1fd4f53d32b", "rental_uris": {"ios": "https://dc.lft.to/lastmile_qr_scan", "android": "https://dc.lft.to/lastmile_qr_scan"}, "fusion_lat": 0.0}, {"lat": 38.9223755, "lon": -77.07314483333333, "is_disabled": 0, "fusion_lon": 0.0, "is_reserved": 0, "name": "6e8fb549be3d6737c4bcaa60b5e5e050", "type": "electric_scooter", "bike_id": "6e8fb549be3d6737c4bcaa60b5e5e050", "rental_uris": {"ios": "https://dc.lft.to/lastmile_qr_scan", "android": "https://dc.lft.to/lastmile_qr_scan"}, "fusion_lat": 0.0}, {"lat": 38.90938, "lon": -77.04502566666666, "is_disabled": 0, "fusion_lon": 0.0, "is_reserved": 0, "name": "7c7f8ad97d09117a00929ccd003ae1bd", "type": "electric_scooter", "bike_id": "7c7f8ad97d09117a00929ccd003ae1bd", "rental_uris": {"ios": "https://dc.lft.to/lastmile_qr_scan", "android": "https://dc.lft.to/lastmile_qr_scan"}, "fusion_lat": 0.0}, {"lat": 38.956766, "lon": -77.01363016666667, "is_disabled": 0, "fusion_lon": 0.0, "is_reserved": 0, "name": "4ced26ef0c2ab5a7efe831306de8cfaa", "type": "electric_scooter", "bike_id": "4ced26ef0c2ab5a7efe831306de8cfaa", "rental_uris": {"ios": "https://dc.lft.to/lastmile_qr_scan", "android": "https://dc.lft.to/lastmile_qr_scan"}, "fusion_lat": 0.0}, {"lat": 38.91800533333333, "lon": -77.0271005, "is_disabled": 0, "fusion_lon": 0.0, "is_reserved": 0, "name": "f4be5e65d144f394a455828c1ded9e21", "type": "electric_scooter", "bike_id": "f4be5e65d144f394a455828c1ded9e21", "rental_uris": {"ios": "https://dc.lft.to/lastmile_qr_scan", "android": "https://dc.lft.to/lastmile_qr_scan"}, "fusion_lat": 0.0}, {"lat": 38.884103, "lon": -77.0259715, "is_disabled": 0, "fusion_lon": 0.0, "is_reserved": 0, "name": "6cf751488104b3a397da130d3348f2da", "type": "electric_scooter", "bike_id": "6cf751488104b3a397da130d3348f2da", "rental_uris": {"ios": "https://dc.lft.to/lastmile_qr_scan", "android": "https://dc.lft.to/lastmile_qr_scan"}, "fusion_lat": 0.0}, {"lat": 38.900527, "lon": -77.021989, "is_disabled": 0, "fusion_lon": 0.0, "is_reserved": 0, "name": "b46a047f28b01d33f80cd71e67425f96", "type": "electric_scooter", "bike_id": "b46a047f28b01d33f80cd71e67425f96", "rental_uris": {"ios": "https://dc.lft.to/lastmile_qr_scan", "android": "https://dc.lft.to/lastmile_qr_scan"}, "fusion_lat": 0.0}, {"lat": 38.887464333333334, "lon": -76.90081783333333, "is_disabled": 0, "fusion_lon": 0.0, "is_reserved": 0, "name": "1dfa90911f71f2edbcd9313f3d420233", "type": "electric_bike", "bike_id": "1dfa90911f71f2edbcd9313f3d420233", "rental_uris": {"ios": "https://dc.lft.to/lastmile_qr_scan", "android": "https://dc.lft.to/lastmile_qr_scan"}, "fusion_lat": 0.0}, {"lat": 38.95653566666667, "lon": -77.01965616666666, "is_disabled": 0, "fusion_lon": 0.0, "is_reserved": 0, "name": "e84ea6565285713237961e9af3795574", "type": "electric_scooter", "bike_id": "e84ea6565285713237961e9af3795574", "rental_uris": {"ios": "https://dc.lft.to/lastmile_qr_scan", "android": "https://dc.lft.to/lastmile_qr_scan"}, "fusion_lat": 0.0}, {"lat": 38.892207166666665, "lon": -77.04198133333334, "is_disabled": 0, "fusion_lon": 0.0, "is_reserved": 0, "name": "fdc84ed926fb15d198424e6b156f0f78", "type": "electric_scooter", "bike_id": "fdc84ed926fb15d198424e6b156f0f78", "rental_uris": {"ios": "https://dc.lft.to/lastmile_qr_scan", "android": "https://dc.lft.to/lastmile_qr_scan"}, "fusion_lat": 0.0}, {"lat": 38.8817545, "lon": -76.9926155, "is_disabled": 0, "fusion_lon": 0.0, "is_reserved": 0, "name": "2472810c1297013fe9f36a59fea79fbb", "type": "electric_scooter", "bike_id": "2472810c1297013fe9f36a59fea79fbb", "rental_uris": {"ios": "https://dc.lft.to/lastmile_qr_scan", "android": "https://dc.lft.to/lastmile_qr_scan"}, "fusion_lat": 0.0}, {"lat": 38.87818033333333, "lon": -77.022451, "is_disabled": 0, "fusion_lon": 0.0, "is_reserved": 0, "name": "2a72010b554ea41e02e2aff91b70fecd", "type": "electric_scooter", "bike_id": "2a72010b554ea41e02e2aff91b70fecd", "rental_uris": {"ios": "https://dc.lft.to/lastmile_qr_scan", "android": "https://dc.lft.to/lastmile_qr_scan"}, "fusion_lat": 0.0}, {"lat": 38.90421716666667, "lon": -77.02962183333334, "is_disabled": 0, "fusion_lon": 0.0, "is_reserved": 0, "name": "f8c79745fd933918eaa8b993661f7816", "type": "electric_scooter", "bike_id": "f8c79745fd933918eaa8b993661f7816", "rental_uris": {"ios": "https://dc.lft.to/lastmile_qr_scan", "android": "https://dc.lft.to/lastmile_qr_scan"}, "fusion_lat": 0.0}, {"lat": 38.90432833333333, "lon": -77.02002766666666, "is_disabled": 0, "fusion_lon": 0.0, "is_reserved": 0, "name": "0740634841078738c3fe9743e6d25b8d", "type": "electric_scooter", "bike_id": "0740634841078738c3fe9743e6d25b8d", "rental_uris": {"ios": "https://dc.lft.to/lastmile_qr_scan", "android": "https://dc.lft.to/lastmile_qr_scan"}, "fusion_lat": 0.0}, {"lat": 38.917108666666664, "lon": -77.02475366666667, "is_disabled": 0, "fusion_lon": 0.0, "is_reserved": 0, "name": "983e1629ab73132e221e68d600d00b55", "type": "electric_scooter", "bike_id": "983e1629ab73132e221e68d600d00b55", "rental_uris": {"ios": "https://dc.lft.to/lastmile_qr_scan", "android": "https://dc.lft.to/lastmile_qr_scan"}, "fusion_lat": 0.0}, {"lat": 38.928825833333335, "lon": -77.0345395, "is_disabled": 0, "fusion_lon": 0.0, "is_reserved": 0, "name": "566df93e66574cd827ab582e9de0045f", "type": "electric_scooter", "bike_id": "566df93e66574cd827ab582e9de0045f", "rental_uris": {"ios": "https://dc.lft.to/lastmile_qr_scan", "android": "https://dc.lft.to/lastmile_qr_scan"}, "fusion_lat": 0.0}, {"lat": 38.902372666666665, "lon": -77.04701483333334, "is_disabled": 0, "fusion_lon": 0.0, "is_reserved": 0, "name": "6ae87edb3176d21e814ae7abd9ecc045", "type": "electric_scooter", "bike_id": "6ae87edb3176d21e814ae7abd9ecc045", "rental_uris": {"ios": "https://dc.lft.to/lastmile_qr_scan", "android": "https://dc.lft.to/lastmile_qr_scan"}, "fusion_lat": 0.0}, {"lat": 38.909055, "lon": -77.04420333333333, "is_disabled": 0, "fusion_lon": 0.0, "is_reserved": 0, "name": "0521d11f0bddd96bc5b46c4731954c2f", "type": "electric_scooter", "bike_id": "0521d11f0bddd96bc5b46c4731954c2f", "rental_uris": {"ios": "https://dc.lft.to/lastmile_qr_scan", "android": "https://dc.lft.to/lastmile_qr_scan"}, "fusion_lat": 0.0}, {"lat": 38.91106883333333, "lon": -77.04546966666666, "is_disabled": 0, "fusion_lon": 0.0, "is_reserved": 0, "name": "9eac595bfed0d26d4c74f8c0f58bc4e2", "type": "electric_scooter", "bike_id": "9eac595bfed0d26d4c74f8c0f58bc4e2", "rental_uris": {"ios": "https://dc.lft.to/lastmile_qr_scan", "android": "https://dc.lft.to/lastmile_qr_scan"}, "fusion_lat": 0.0}, {"lat": 38.90140733333333, "lon": -77.01904616666667, "is_disabled": 0, "fusion_lon": 0.0, "is_reserved": 0, "name": "9fd4ea5166785f6f6dcd5b00da4f9930", "type": "electric_scooter", "bike_id": "9fd4ea5166785f6f6dcd5b00da4f9930", "rental_uris": {"ios": "https://dc.lft.to/lastmile_qr_scan", "android": "https://dc.lft.to/lastmile_qr_scan"}, "fusion_lat": 0.0}, {"lat": 38.911026, "lon": -77.03190933333333, "is_disabled": 0, "fusion_lon": 0.0, "is_reserved": 0, "name": "1dd32f4a2ee7b2ac4d1fbe2995ce6a0f", "type": "electric_scooter", "bike_id": "1dd32f4a2ee7b2ac4d1fbe2995ce6a0f", "rental_uris": {"ios": "https://dc.lft.to/lastmile_qr_scan", "android": "https://dc.lft.to/lastmile_qr_scan"}, "fusion_lat": 0.0}, {"lat": 38.807573166666664, "lon": -77.12986133333334, "is_disabled": 0, "fusion_lon": 0.0, "is_reserved": 0, "name": "21b6707514bfc73272020bf9b1f24bc1", "type": "electric_bike", "bike_id": "21b6707514bfc73272020bf9b1f24bc1", "rental_uris": {"ios": "https://dc.lft.to/lastmile_qr_scan", "android": "https://dc.lft.to/lastmile_qr_scan"}, "fusion_lat": 0.0}, {"lat": 38.924663, "lon": -77.05238433333334, "is_disabled": 0, "fusion_lon": 0.0, "is_reserved": 0, "name": "c4e4d2779e5662e4676a45be1ba106f6", "type": "electric_scooter", "bike_id": "c4e4d2779e5662e4676a45be1ba106f6", "rental_uris": {"ios": "https://dc.lft.to/lastmile_qr_scan", "android": "https://dc.lft.to/lastmile_qr_scan"}, "fusion_lat": 0.0}, {"lat": 38.8954385, "lon": -76.94955866666666, "is_disabled": 0, "fusion_lon": 0.0, "is_reserved": 0, "name": "591073976b5dbd5f6779d1efe29a3a74", "type": "electric_scooter", "bike_id": "591073976b5dbd5f6779d1efe29a3a74", "rental_uris": {"ios": "https://dc.lft.to/lastmile_qr_scan", "android": "https://dc.lft.to/lastmile_qr_scan"}, "fusion_lat": 0.0}, {"lat": 38.90845216666666, "lon": -77.0434985, "is_disabled": 0, "fusion_lon": 0.0, "is_reserved": 0, "name": "846d0dc279d74533dcb3307ff7430248", "type": "electric_scooter", "bike_id": "846d0dc279d74533dcb3307ff7430248", "rental_uris": {"ios": "https://dc.lft.to/lastmile_qr_scan", "android": "https://dc.lft.to/lastmile_qr_scan"}, "fusion_lat": 0.0}, {"lat": 38.8955425, "lon": -76.94871816666667, "is_disabled": 0, "fusion_lon": 0.0, "is_reserved": 0, "name": "a6b15e8d051dcefd602a0783b48388ab", "type": "electric_scooter", "bike_id": "a6b15e8d051dcefd602a0783b48388ab", "rental_uris": {"ios": "https://dc.lft.to/lastmile_qr_scan", "android": "https://dc.lft.to/lastmile_qr_scan"}, "fusion_lat": 0.0}, {"lat": 38.87531533333333, "lon": -77.00506966666667, "is_disabled": 0, "fusion_lon": 0.0, "is_reserved": 0, "name": "fc419439de116281af18de0cb44e69cf", "type": "electric_scooter", "bike_id": "fc419439de116281af18de0cb44e69cf", "rental_uris": {"ios": "https://dc.lft.to/lastmile_qr_scan", "android": "https://dc.lft.to/lastmile_qr_scan"}, "fusion_lat": 0.0}, {"lat": 38.89363866666667, "lon": -77.04612, "is_disabled": 0, "fusion_lon": 0.0, "is_reserved": 0, "name": "1b1cc707154dc8594f9e0802ec1855f5", "type": "electric_scooter", "bike_id": "1b1cc707154dc8594f9e0802ec1855f5", "rental_uris": {"ios": "https://dc.lft.to/lastmile_qr_scan", "android": "https://dc.lft.to/lastmile_qr_scan"}, "fusion_lat": 0.0}, {"lat": 38.89826716666666, "lon": -76.94652916666666, "is_disabled": 0, "fusion_lon": 0.0, "is_reserved": 0, "name": "1eff9e75bd7a0335c5e565a816299e50", "type": "electric_scooter", "bike_id": "1eff9e75bd7a0335c5e565a816299e50", "rental_uris": {"ios": "https://dc.lft.to/lastmile_qr_scan", "android": "https://dc.lft.to/lastmile_qr_scan"}, "fusion_lat": 0.0}, {"lat": 38.90066316666667, "lon": -76.92745866666667, "is_disabled": 0, "fusion_lon": 0.0, "is_reserved": 0, "name": "f71808c98baa8210444667d18539a2d9", "type": "electric_scooter", "bike_id": "f71808c98baa8210444667d18539a2d9", "rental_uris": {"ios": "https://dc.lft.to/lastmile_qr_scan", "android": "https://dc.lft.to/lastmile_qr_scan"}, "fusion_lat": 0.0}, {"lat": 38.89611566666667, "lon": -77.0215415, "is_disabled": 0, "fusion_lon": 0.0, "is_reserved": 0, "name": "b4ccdb0d51ed549dcf5083d1007a9fe7", "type": "electric_scooter", "bike_id": "b4ccdb0d51ed549dcf5083d1007a9fe7", "rental_uris": {"ios": "https://dc.lft.to/lastmile_qr_scan", "android": "https://dc.lft.to/lastmile_qr_scan"}, "fusion_lat": 0.0}, {"lat": 38.91914083333333, "lon": -77.02372816666667, "is_disabled": 0, "fusion_lon": 0.0, "is_reserved": 0, "name": "05c120c951d30524f6b4eb6c8173ad56", "type": "electric_scooter", "bike_id": "05c120c951d30524f6b4eb6c8173ad56", "rental_uris": {"ios": "https://dc.lft.to/lastmile_qr_scan", "android": "https://dc.lft.to/lastmile_qr_scan"}, "fusion_lat": 0.0}, {"lat": 38.90937516666666, "lon": -77.03054683333333, "is_disabled": 0, "fusion_lon": 0.0, "is_reserved": 0, "name": "01be0ab780fcfa3a4fb15e2a7103898b", "type": "electric_scooter", "bike_id": "01be0ab780fcfa3a4fb15e2a7103898b", "rental_uris": {"ios": "https://dc.lft.to/lastmile_qr_scan", "android": "https://dc.lft.to/lastmile_qr_scan"}, "fusion_lat": 0.0}, {"lat": 38.93696966666667, "lon": -77.02118066666667, "is_disabled": 0, "fusion_lon": 0.0, "is_reserved": 0, "name": "c03d38a19b7d80056c922c7070ffb3a9", "type": "electric_scooter", "bike_id": "c03d38a19b7d80056c922c7070ffb3a9", "rental_uris": {"ios": "https://dc.lft.to/lastmile_qr_scan", "android": "https://dc.lft.to/lastmile_qr_scan"}, "fusion_lat": 0.0}, {"lat": 38.92330883333333, "lon": -77.0269745, "is_disabled": 0, "fusion_lon": 0.0, "is_reserved": 0, "name": "e81986f824978faf1fc513fddb77a385", "type": "electric_scooter", "bike_id": "e81986f824978faf1fc513fddb77a385", "rental_uris": {"ios": "https://dc.lft.to/lastmile_qr_scan", "android": "https://dc.lft.to/lastmile_qr_scan"}, "fusion_lat": 0.0}, {"lat": 38.901654666666666, "lon": -77.026017, "is_disabled": 0, "fusion_lon": 0.0, "is_reserved": 0, "name": "a71bf84526b3e654952b473328ec0365", "type": "electric_scooter", "bike_id": "a71bf84526b3e654952b473328ec0365", "rental_uris": {"ios": "https://dc.lft.to/lastmile_qr_scan", "android": "https://dc.lft.to/lastmile_qr_scan"}, "fusion_lat": 0.0}, {"lat": 38.9065715, "lon": -77.026926, "is_disabled": 0, "fusion_lon": 0.0, "is_reserved": 0, "name": "69982dfb95e3fb82505cde7a365fb537", "type": "electric_scooter", "bike_id": "69982dfb95e3fb82505cde7a365fb537", "rental_uris": {"ios": "https://dc.lft.to/lastmile_qr_scan", "android": "https://dc.lft.to/lastmile_qr_scan"}, "fusion_lat": 0.0}, {"lat": 38.89356983333333, "lon": -76.98660216666667, "is_disabled": 0, "fusion_lon": 0.0, "is_reserved": 0, "name": "740dd8b143911a16fb07e8ece45c2bda", "type": "electric_scooter", "bike_id": "740dd8b143911a16fb07e8ece45c2bda", "rental_uris": {"ios": "https://dc.lft.to/lastmile_qr_scan", "android": "https://dc.lft.to/lastmile_qr_scan"}, "fusion_lat": 0.0}, {"lat": 38.917297833333336, "lon": -77.02701066666667, "is_disabled": 0, "fusion_lon": 0.0, "is_reserved": 0, "name": "3c671691eb4b31236b134228073a4f1b", "type": "electric_scooter", "bike_id": "3c671691eb4b31236b134228073a4f1b", "rental_uris": {"ios": "https://dc.lft.to/lastmile_qr_scan", "android": "https://dc.lft.to/lastmile_qr_scan"}, "fusion_lat": 0.0}, {"lat": 38.957991, "lon": -77.015141, "is_disabled": 0, "fusion_lon": 0.0, "is_reserved": 0, "name": "7175f35b748d00fb60f0d5d1eae91d1c", "type": "electric_scooter", "bike_id": "7175f35b748d00fb60f0d5d1eae91d1c", "rental_uris": {"ios": "https://dc.lft.to/lastmile_qr_scan", "android": "https://dc.lft.to/lastmile_qr_scan"}, "fusion_lat": 0.0}, {"lat": 38.90506233333333, "lon": -77.04782883333333, "is_disabled": 0, "fusion_lon": 0.0, "is_reserved": 0, "name": "c5afab6f56a5fca16af7bc7284125414", "type": "electric_scooter", "bike_id": "c5afab6f56a5fca16af7bc7284125414", "rental_uris": {"ios": "https://dc.lft.to/lastmile_qr_scan", "android": "https://dc.lft.to/lastmile_qr_scan"}, "fusion_lat": 0.0}, {"lat": 38.921683333333334, "lon": -77.03832683333333, "is_disabled": 0, "fusion_lon": 0.0, "is_reserved": 0, "name": "776b6e4047b406cd9160549eee6e030a", "type": "electric_scooter", "bike_id": "776b6e4047b406cd9160549eee6e030a", "rental_uris": {"ios": "https://dc.lft.to/lastmile_qr_scan", "android": "https://dc.lft.to/lastmile_qr_scan"}, "fusion_lat": 0.0}, {"lat": 38.9077475, "lon": -77.07165883333333, "is_disabled": 0, "fusion_lon": 0.0, "is_reserved": 0, "name": "b2603b69fb9233158ac71aa953dd9dd7", "type": "electric_scooter", "bike_id": "b2603b69fb9233158ac71aa953dd9dd7", "rental_uris": {"ios": "https://dc.lft.to/lastmile_qr_scan", "android": "https://dc.lft.to/lastmile_qr_scan"}, "fusion_lat": 0.0}, {"lat": 38.898281833333336, "lon": -76.9465145, "is_disabled": 0, "fusion_lon": 0.0, "is_reserved": 0, "name": "013f785cb13a262abb9271f7bd5251e3", "type": "electric_scooter", "bike_id": "013f785cb13a262abb9271f7bd5251e3", "rental_uris": {"ios": "https://dc.lft.to/lastmile_qr_scan", "android": "https://dc.lft.to/lastmile_qr_scan"}, "fusion_lat": 0.0}, {"lat": 38.895929333333335, "lon": -77.006073, "is_disabled": 0, "fusion_lon": 0.0, "is_reserved": 0, "name": "8eb78e0958db957e25128f1b4caa4707", "type": "electric_scooter", "bike_id": "8eb78e0958db957e25128f1b4caa4707", "rental_uris": {"ios": "https://dc.lft.to/lastmile_qr_scan", "android": "https://dc.lft.to/lastmile_qr_scan"}, "fusion_lat": 0.0}, {"lat": 38.91635433333333, "lon": -77.050734, "is_disabled": 0, "fusion_lon": 0.0, "is_reserved": 0, "name": "d3631191679832dafc64aa9459945408", "type": "electric_scooter", "bike_id": "d3631191679832dafc64aa9459945408", "rental_uris": {"ios": "https://dc.lft.to/lastmile_qr_scan", "android": "https://dc.lft.to/lastmile_qr_scan"}, "fusion_lat": 0.0}, {"lat": 38.9000765, "lon": -76.99308033333334, "is_disabled": 0, "fusion_lon": 0.0, "is_reserved": 0, "name": "67aeec153f843b25b7b8c27da87858bd", "type": "electric_scooter", "bike_id": "67aeec153f843b25b7b8c27da87858bd", "rental_uris": {"ios": "https://dc.lft.to/lastmile_qr_scan", "android": "https://dc.lft.to/lastmile_qr_scan"}, "fusion_lat": 0.0}, {"lat": 38.9343975, "lon": -77.09059816666667, "is_disabled": 0, "fusion_lon": 0.0, "is_reserved": 0, "name": "2872a81f897167956d1be1512cbb79ec", "type": "electric_scooter", "bike_id": "2872a81f897167956d1be1512cbb79ec", "rental_uris": {"ios": "https://dc.lft.to/lastmile_qr_scan", "android": "https://dc.lft.to/lastmile_qr_scan"}, "fusion_lat": 0.0}, {"lat": 38.901307333333335, "lon": -77.0321285, "is_disabled": 0, "fusion_lon": 0.0, "is_reserved": 0, "name": "bb17d1888eb3faca81c7de6b6a443a88", "type": "electric_scooter", "bike_id": "bb17d1888eb3faca81c7de6b6a443a88", "rental_uris": {"ios": "https://dc.lft.to/lastmile_qr_scan", "android": "https://dc.lft.to/lastmile_qr_scan"}, "fusion_lat": 0.0}, {"lat": 38.9172735, "lon": -77.02594116666667, "is_disabled": 0, "fusion_lon": 0.0, "is_reserved": 0, "name": "11a889844a18c9680ddeaacf5a4aa212", "type": "electric_scooter", "bike_id": "11a889844a18c9680ddeaacf5a4aa212", "rental_uris": {"ios": "https://dc.lft.to/lastmile_qr_scan", "android": "https://dc.lft.to/lastmile_qr_scan"}, "fusion_lat": 0.0}, {"lat": 38.90477833333333, "lon": -77.03471016666667, "is_disabled": 0, "fusion_lon": 0.0, "is_reserved": 0, "name": "bbd5725466b28f623c014b756736b7ea", "type": "electric_scooter", "bike_id": "bbd5725466b28f623c014b756736b7ea", "rental_uris": {"ios": "https://dc.lft.to/lastmile_qr_scan", "android": "https://dc.lft.to/lastmile_qr_scan"}, "fusion_lat": 0.0}, {"lat": 38.911829166666664, "lon": -77.03503133333334, "is_disabled": 0, "fusion_lon": 0.0, "is_reserved": 0, "name": "df4c1218e2cca29b37c12d9ba3f538e4", "type": "electric_scooter", "bike_id": "df4c1218e2cca29b37c12d9ba3f538e4", "rental_uris": {"ios": "https://dc.lft.to/lastmile_qr_scan", "android": "https://dc.lft.to/lastmile_qr_scan"}, "fusion_lat": 0.0}, {"lat": 38.89218866666667, "lon": -77.02776933333334, "is_disabled": 0, "fusion_lon": 0.0, "is_reserved": 0, "name": "81f4303d1a31acde33ff635f392f35b6", "type": "electric_scooter", "bike_id": "81f4303d1a31acde33ff635f392f35b6", "rental_uris": {"ios": "https://dc.lft.to/lastmile_qr_scan", "android": "https://dc.lft.to/lastmile_qr_scan"}, "fusion_lat": 0.0}, {"lat": 38.910602, "lon": -77.03427733333334, "is_disabled": 0, "fusion_lon": 0.0, "is_reserved": 0, "name": "cda3c9ebbde3527b32d53a7ae387d6a1", "type": "electric_scooter", "bike_id": "cda3c9ebbde3527b32d53a7ae387d6a1", "rental_uris": {"ios": "https://dc.lft.to/lastmile_qr_scan", "android": "https://dc.lft.to/lastmile_qr_scan"}, "fusion_lat": 0.0}, {"lat": 38.899148333333336, "lon": -77.041212, "is_disabled": 0, "fusion_lon": 0.0, "is_reserved": 0, "name": "f393db7343e1f6ebe56979968cd140a5", "type": "electric_scooter", "bike_id": "f393db7343e1f6ebe56979968cd140a5", "rental_uris": {"ios": "https://dc.lft.to/lastmile_qr_scan", "android": "https://dc.lft.to/lastmile_qr_scan"}, "fusion_lat": 0.0}, {"lat": 38.917974, "lon": -77.02489233333333, "is_disabled": 0, "fusion_lon": 0.0, "is_reserved": 0, "name": "e29fd911451a7501793d4cae2041c178", "type": "electric_scooter", "bike_id": "e29fd911451a7501793d4cae2041c178", "rental_uris": {"ios": "https://dc.lft.to/lastmile_qr_scan", "android": "https://dc.lft.to/lastmile_qr_scan"}, "fusion_lat": 0.0}, {"lat": 38.8990585, "lon": -76.94558, "is_disabled": 0, "fusion_lon": 0.0, "is_reserved": 0, "name": "fb5da638572b2e7d3f97589c64095041", "type": "electric_scooter", "bike_id": "fb5da638572b2e7d3f97589c64095041", "rental_uris": {"ios": "https://dc.lft.to/lastmile_qr_scan", "android": "https://dc.lft.to/lastmile_qr_scan"}, "fusion_lat": 0.0}, {"lat": 38.89685933333333, "lon": -76.9371145, "is_disabled": 0, "fusion_lon": 0.0, "is_reserved": 0, "name": "7c488757504c8c2eca6df342b949d909", "type": "electric_scooter", "bike_id": "7c488757504c8c2eca6df342b949d909", "rental_uris": {"ios": "https://dc.lft.to/lastmile_qr_scan", "android": "https://dc.lft.to/lastmile_qr_scan"}, "fusion_lat": 0.0}, {"lat": 38.89656466666667, "lon": -77.01907033333333, "is_disabled": 0, "fusion_lon": 0.0, "is_reserved": 0, "name": "133672c0c950fd8fd6ef29dbd6165b28", "type": "electric_scooter", "bike_id": "133672c0c950fd8fd6ef29dbd6165b28", "rental_uris": {"ios": "https://dc.lft.to/lastmile_qr_scan", "android": "https://dc.lft.to/lastmile_qr_scan"}, "fusion_lat": 0.0}, {"lat": 38.95058816666667, "lon": -77.08033183333333, "is_disabled": 0, "fusion_lon": 0.0, "is_reserved": 0, "name": "d91406d2d169f3baff743572cb00f48d", "type": "electric_scooter", "bike_id": "d91406d2d169f3baff743572cb00f48d", "rental_uris": {"ios": "https://dc.lft.to/lastmile_qr_scan", "android": "https://dc.lft.to/lastmile_qr_scan"}, "fusion_lat": 0.0}, {"lat": 38.91412316666667, "lon": -77.0087565, "is_disabled": 0, "fusion_lon": 0.0, "is_reserved": 0, "name": "d791d5af507d2018818944cea32b0d8e", "type": "electric_scooter", "bike_id": "d791d5af507d2018818944cea32b0d8e", "rental_uris": {"ios": "https://dc.lft.to/lastmile_qr_scan", "android": "https://dc.lft.to/lastmile_qr_scan"}, "fusion_lat": 0.0}, {"lat": 38.8757455, "lon": -77.23409466666666, "is_disabled": 0, "fusion_lon": 0.0, "is_reserved": 0, "name": "f59b1626a7dd76f30d35bbb42f3d5969", "type": "electric_bike", "bike_id": "f59b1626a7dd76f30d35bbb42f3d5969", "rental_uris": {"ios": "https://dc.lft.to/lastmile_qr_scan", "android": "https://dc.lft.to/lastmile_qr_scan"}, "fusion_lat": 0.0}, {"lat": 38.899028666666666, "lon": -76.99958833333334, "is_disabled": 0, "fusion_lon": 0.0, "is_reserved": 0, "name": "5bd43bf157fd9564c991e99e703836c6", "type": "electric_scooter", "bike_id": "5bd43bf157fd9564c991e99e703836c6", "rental_uris": {"ios": "https://dc.lft.to/lastmile_qr_scan", "android": "https://dc.lft.to/lastmile_qr_scan"}, "fusion_lat": 0.0}, {"lat": 38.915251, "lon": -77.0486435, "is_disabled": 0, "fusion_lon": 0.0, "is_reserved": 0, "name": "e4334f9e60302b2b6b5ad35dcd745a85", "type": "electric_scooter", "bike_id": "e4334f9e60302b2b6b5ad35dcd745a85", "rental_uris": {"ios": "https://dc.lft.to/lastmile_qr_scan", "android": "https://dc.lft.to/lastmile_qr_scan"}, "fusion_lat": 0.0}, {"lat": 38.90551416666667, "lon": -77.04757416666666, "is_disabled": 0, "fusion_lon": 0.0, "is_reserved": 0, "name": "95fd0f8c7cda5914c0518f24559c7fa5", "type": "electric_scooter", "bike_id": "95fd0f8c7cda5914c0518f24559c7fa5", "rental_uris": {"ios": "https://dc.lft.to/lastmile_qr_scan", "android": "https://dc.lft.to/lastmile_qr_scan"}, "fusion_lat": 0.0}, {"lat": 38.92027933333333, "lon": -77.01031733333333, "is_disabled": 0, "fusion_lon": 0.0, "is_reserved": 0, "name": "433b2e6183b00f0909c80cdc8f6b3164", "type": "electric_scooter", "bike_id": "433b2e6183b00f0909c80cdc8f6b3164", "rental_uris": {"ios": "https://dc.lft.to/lastmile_qr_scan", "android": "https://dc.lft.to/lastmile_qr_scan"}, "fusion_lat": 0.0}, {"lat": 38.92838533333333, "lon": -77.00601166666667, "is_disabled": 0, "fusion_lon": 0.0, "is_reserved": 0, "name": "12275c0b45779f000ac01f8ab97a52dc", "type": "electric_scooter", "bike_id": "12275c0b45779f000ac01f8ab97a52dc", "rental_uris": {"ios": "https://dc.lft.to/lastmile_qr_scan", "android": "https://dc.lft.to/lastmile_qr_scan"}, "fusion_lat": 0.0}, {"lat": 38.9026105, "lon": -77.06287583333334, "is_disabled": 0, "fusion_lon": 0.0, "is_reserved": 0, "name": "3627858436e9043b7cd01284d4c808d6", "type": "electric_scooter", "bike_id": "3627858436e9043b7cd01284d4c808d6", "rental_uris": {"ios": "https://dc.lft.to/lastmile_qr_scan", "android": "https://dc.lft.to/lastmile_qr_scan"}, "fusion_lat": 0.0}, {"lat": 38.8067005, "lon": -77.0692075, "is_disabled": 0, "fusion_lon": 0.0, "is_reserved": 0, "name": "a558a9a63989eba8e76780b83220a54f", "type": "electric_bike", "bike_id": "a558a9a63989eba8e76780b83220a54f", "rental_uris": {"ios": "https://dc.lft.to/lastmile_qr_scan", "android": "https://dc.lft.to/lastmile_qr_scan"}, "fusion_lat": 0.0}, {"lat": 38.930871833333335, "lon": -77.03406533333333, "is_disabled": 0, "fusion_lon": 0.0, "is_reserved": 0, "name": "6bed76f59d3afb7cdd13da00578889c7", "type": "electric_scooter", "bike_id": "6bed76f59d3afb7cdd13da00578889c7", "rental_uris": {"ios": "https://dc.lft.to/lastmile_qr_scan", "android": "https://dc.lft.to/lastmile_qr_scan"}, "fusion_lat": 0.0},