{"data": {"bikes": [{"fusion_lat": 0.0, "name": "6e2e1cb333455e7e03f613c57c11bc93", "is_disabled": 0, "rental_uris": {"android": "https://dc.lft.to/lastmile_qr_scan", "ios": "https://dc.lft.to/lastmile_qr_scan"}, "fusion_lon": 0.0, "lat": 38.94498683333333, "bike_id": "6e2e1cb333455e7e03f613c57c11bc93", "type": "electric_scooter", "is_reserved": 0, "lon": -77.03880766666667}, {"fusion_lat": 0.0, "name": "e0429c283530cf655d38c1785726d469", "is_disabled": 0, "rental_uris": {"android": "https://dc.lft.to/lastmile_qr_scan", "ios": "https://dc.lft.to/lastmile_qr_scan"}, "fusion_lon": 0.0, "lat": 38.8901545, "bike_id": "e0429c283530cf655d38c1785726d469", "type": "electric_scooter", "is_reserved": 0, "lon": -76.93737183333333}, {"fusion_lat": 0.0, "name": "0dcd2756fed53051a6c77ce17bf382f3", "is_disabled": 0, "rental_uris": {"android": "https://dc.lft.to/lastmile_qr_scan", "ios": "https://dc.lft.to/lastmile_qr_scan"}, "fusion_lon": 0.0, "lat": 38.98390216666667, "bike_id": "0dcd2756fed53051a6c77ce17bf382f3", "type": "electric_scooter", "is_reserved": 0, "lon": -77.02629833333333}, {"fusion_lat": 0.0, "name": "a9193bccf659e6c46b66f6fdd17dec1f", "is_disabled": 0, "rental_uris": {"android": "https://dc.lft.to/lastmile_qr_scan", "ios": "https://dc.lft.to/lastmile_qr_scan"}, "fusion_lon": 0.0, "lat": 38.895745, "bike_id": "a9193bccf659e6c46b66f6fdd17dec1f", "type": "electric_scooter", "is_reserved": 0, "lon": -76.94894666666667}, {"fusion_lat": 0.0, "name": "e071f865a014aacd9ca45b6c9ec5851b", "is_disabled": 0, "rental_uris": {"android": "https://dc.lft.to/lastmile_qr_scan", "ios": "https://dc.lft.to/lastmile_qr_scan"}, "fusion_lon": 0.0, "lat": 38.918372833333336, "bike_id": "e071f865a014aacd9ca45b6c9ec5851b", "type": "electric_scooter", "is_reserved": 0, "lon": -77.04019066666666}, {"fusion_lat": 0.0, "name": "74c6c490088749fb4456eb34490f77f2", "is_disabled": 0, "rental_uris": {"android": "https://dc.lft.to/lastmile_qr_scan", "ios": "https://dc.lft.to/lastmile_qr_scan"}, "fusion_lon": 0.0, "lat": 38.917862, "bike_id": "74c6c490088749fb4456eb34490f77f2", "type": "electric_scooter", "is_reserved": 0, "lon": -77.04104633333333}, {"fusion_lat": 0.0, "name": "985d8ccce689e9dfd45b1150d47f7ec9", "is_disabled": 0, "rental_uris": {"android": "https://dc.lft.to/lastmile_qr_scan", "ios": "https://dc.lft.to/lastmile_qr_scan"}, "fusion_lon": 0.0, "lat": 38.914044833333335, "bike_id": "985d8ccce689e9dfd45b1150d47f7ec9", "type": "electric_scooter", "is_reserved": 0, "lon": -77.03220433333334}, {"fusion_lat": 0.0, "name": "276800074d6071b011fa5ad9092fa9d1", "is_disabled": 0, "rental_uris": {"android": "https://dc.lft.to/lastmile_qr_scan", "ios": "https://dc.lft.to/lastmile_qr_scan"}, "fusion_lon": 0.0, "lat": 38.945219, "bike_id": "276800074d6071b011fa5ad9092fa9d1", "type": "electric_scooter", "is_reserved": 0, "lon": -77.02274866666667}, {"fusion_lat": 0.0, "name": "9be5b6d5238db873c8264c7130161f12", "is_disabled": 0, "rental_uris": {"android": "https://dc.lft.to/lastmile_qr_scan", "ios": "https://dc.lft.to/lastmile_qr_scan"}, "fusion_lon": 0.0, "lat": 38.915126, "bike_id": "9be5b6d5238db873c8264c7130161f12", "type": "electric_scooter", "is_reserved": 0, "lon": -77.02697383333333}, {"fusion_lat": 0.0, "name": "08d1079686df6b7f32426764a0920f40", "is_disabled": 0, "rental_uris": {"android": "https://dc.lft.to/lastmile_qr_scan", "ios": "https://dc.lft.to/lastmile_qr_scan"}, "fusion_lon": 0.0, "lat": 38.892304, "bike_id": "08d1079686df6b7f32426764a0920f40", "type": "electric_scooter", "is_reserved": 0, "lon": -77.04994566666667}, {"fusion_lat": 0.0, "name": "513a2237841c2f3e5cef11665fc09a72", "is_disabled": 0, "rental_uris": {"android": "https://dc.lft.to/lastmile_qr_scan", "ios": "https://dc.lft.to/lastmile_qr_scan"}, "fusion_lon": 0.0, "lat": 38.912395833333335, "bike_id": "513a2237841c2f3e5cef11665fc09a72", "type": "electric_scooter", "is_reserved": 0, "lon": -77.009235}, {"fusion_lat": 0.0, "name": "2d7ba9283f94cd57561012e302fd2d0d", "is_disabled": 0, "rental_uris": {"android": "https://dc.lft.to/lastmile_qr_scan", "ios": "https://dc.lft.to/lastmile_qr_scan"}, "fusion_lon": 0.0, "lat": 38.881122500000004, "bike_id": "2d7ba9283f94cd57561012e302fd2d0d", "type": "electric_scooter", "is_reserved": 0, "lon": -77.01635216666666}, {"fusion_lat": 0.0, "name": "c1a9af901051ecb39672b376a92ae087", "is_disabled": 0, "rental_uris": {"android": "https://dc.lft.to/lastmile_qr_scan", "ios": "https://dc.lft.to/lastmile_qr_scan"}, "fusion_lon": 0.0, "lat": 38.88196216666667, "bike_id": "c1a9af901051ecb39672b376a92ae087", "type": "electric_scooter", "is_reserved": 0, "lon": -77.0006385}, {"fusion_lat": 0.0, "name": "9314def4c7507650b7ef130ce9dfebd8", "is_disabled": 0, "rental_uris": {"android": "https://dc.lft.to/lastmile_qr_scan", "ios": "https://dc.lft.to/lastmile_qr_scan"}, "fusion_lon": 0.0, "lat": 38.9658975, "bike_id": "9314def4c7507650b7ef130ce9dfebd8", "type": "electric_scooter", "is_reserved": 0, "lon": -77.01595133333333}, {"fusion_lat": 0.0, "name": "fe59f6db12d6ec1af97cf53c5be379f6", "is_disabled": 0, "rental_uris": {"android": "https://dc.lft.to/lastmile_qr_scan", "ios": "https://dc.lft.to/lastmile_qr_scan"}, "fusion_lon": 0.0, "lat": 38.914741166666666, "bike_id": "fe59f6db12d6ec1af97cf53c5be379f6", "type": "electric_scooter", "is_reserved": 0, "lon": -76.98450133333333}, {"fusion_lat": 0.0, "name": "fcfcbc0602856401a9cb6ec82ea7d054", "is_disabled": 0, "rental_uris": {"android": "https://dc.lft.to/lastmile_qr_scan", "ios": "https://dc.lft.to/lastmile_qr_scan"}, "fusion_lon": 0.0, "lat": 38.89846466666667, "bike_id": "fcfcbc0602856401a9cb6ec82ea7d054", "type": "electric_scooter", "is_reserved": 0, "lon": -77.04076616666667}, {"fusion_lat": 0.0, "name": "876dddf36bd1c4876799c7b5d82ff0dd", "is_disabled": 0, "rental_uris": {"android": "https://dc.lft.to/lastmile_qr_scan", "ios": "https://dc.lft.to/lastmile_qr_scan"}, "fusion_lon": 0.0, "lat": 38.933820833333336, "bike_id": "876dddf36bd1c4876799c7b5d82ff0dd", "type": "electric_scooter", "is_reserved": 0, "lon": -77.03890383333334}, {"fusion_lat": 0.0, "name": "1de659c788ce48113f8bd078d5647f49", "is_disabled": 0, "rental_uris": {"android": "https://dc.lft.to/lastmile_qr_scan", "ios": "https://dc.lft.to/lastmile_qr_scan"}, "fusion_lon": 0.0, "lat": 38.919611, "bike_id": "1de659c788ce48113f8bd078d5647f49", "type": "electric_scooter", "is_reserved": 0, "lon": -77.03208533333333}, {"fusion_lat": 0.0, "name": "14be2dcf471f25ee62f21867b8dd0a39", "is_disabled": 0, "rental_uris": {"android": "https://dc.lft.to/lastmile_qr_scan", "ios": "https://dc.lft.to/lastmile_qr_scan"}, "fusion_lon": 0.0, "lat": 38.9364345, "bike_id": "14be2dcf471f25ee62f21867b8dd0a39", "type": "electric_scooter", "is_reserved": 0, "lon": -77.0336375}, {"fusion_lat": 0.0, "name": "bfc56af56f19818f09a3bc7675bfc9fa", "is_disabled": 0, "rental_uris": {"android": "https://dc.lft.to/lastmile_qr_scan", "ios": "https://dc.lft.to/lastmile_qr_scan"}, "fusion_lon": 0.0, "lat": 38.9438705, "bike_id": "bfc56af56f19818f09a3bc7675bfc9fa", "type": "electric_scooter", "is_reserved": 0, "lon": -77.09503416666666}, {"fusion_lat": 0.0, "name": "9425756a53db4e0d571a9e22e8740212", "is_disabled": 0, "rental_uris": {"android": "https://dc.lft.to/lastmile_qr_scan", "ios": "https://dc.lft.to/lastmile_qr_scan"}, "fusion_lon": 0.0, "lat": 38.9207895, "bike_id": "9425756a53db4e0d571a9e22e8740212", "type": "electric_scooter", "is_reserved": 0, "lon": -77.014797}, {"fusion_lat": 0.0, "name": "e83358fd0affa787ee491ecec77e605b", "is_disabled": 0, "rental_uris": {"android": "https://dc.lft.to/lastmile_qr_scan", "ios": "https://dc.lft.to/lastmile_qr_scan"}, "fusion_lon": 0.0, "lat": 38.91749883333333, "bike_id": "e83358fd0affa787ee491ecec77e605b", "type": "electric_scooter", "is_reserved": 0, "lon": -77.00671966666667}, {"fusion_lat": 0.0, "name": "fe0d59de5219207884b11adc1d0bdc17", "is_disabled": 0, "rental_uris": {"android": "https://dc.lft.to/lastmile_qr_scan", "ios": "https://dc.lft.to/lastmile_qr_scan"}, "fusion_lon": 0.0, "lat": 38.91558883333333, "bike_id": "fe0d59de5219207884b11adc1d0bdc17", "type": "electric_scooter", "is_reserved": 0, "lon": -77.01037016666666}, {"fusion_lat": 0.0, "name": "2c9da6a65b6fa8847c212a733d492c48", "is_disabled": 0, "rental_uris": {"android": "https://dc.lft.to/lastmile_qr_scan", "ios": "https://dc.lft.to/lastmile_qr_scan"}, "fusion_lon": 0.0, "lat": 38.901271666666666, "bike_id": "2c9da6a65b6fa8847c212a733d492c48", "type": "electric_scooter", "is_reserved": 0, "lon": -77.04461016666667}, {"fusion_lat": 0.0, "name": "df878eebde8744f014a9f4ccbba68e3e", "is_disabled": 0, "rental_uris": {"android": "https://dc.lft.to/lastmile_qr_scan", "ios": "https://dc.lft.to/lastmile_qr_scan"}, "fusion_lon": 0.0, "lat": 38.915175833333336, "bike_id": "df878eebde8744f014a9f4ccbba68e3e", "type": "electric_scooter", "is_reserved": 0, "lon": -77.04151616666667}, {"fusion_lat": 0.0, "name": "64c865af7d5de56f97f8c33a86861785", "is_disabled": 0, "rental_uris": {"android": "https://dc.lft.to/lastmile_qr_scan", "ios": "https://dc.lft.to/lastmile_qr_scan"}, "fusion_lon": 0.0, "lat": 38.881526666666666, "bike_id": "64c865af7d5de56f97f8c33a86861785", "type": "electric_scooter", "is_reserved": 0, "lon": -77.02678033333333}, {"fusion_lat": 0.0, "name": "7a2cfb1c034045d08e6a96f2a9990a46", "is_disabled": 0, "rental_uris": {"android": "https://dc.lft.to/lastmile_qr_scan", "ios": "https://dc.lft.to/lastmile_qr_scan"}, "fusion_lon": 0.0, "lat": 38.8621225, "bike_id": "7a2cfb1c034045d08e6a96f2a9990a46", "type": "electric_scooter", "is_reserved": 0, "lon": -76.9947575}, {"fusion_lat": 0.0, "name": "16ff528e58cc7b4475f475127aa0b475", "is_disabled": 0, "rental_uris": {"android": "https://dc.lft.to/lastmile_qr_scan", "ios": "https://dc.lft.to/lastmile_qr_scan"}, "fusion_lon": 0.0, "lat": 39.036115, "bike_id": "16ff528e58cc7b4475f475127aa0b475", "type": "electric_bike", "is_reserved": 0, "lon": -77.05533716666666}, {"fusion_lat": 0.0, "name": "5119cd272efb694b19e0bdb04d501f81", "is_disabled": 0, "rental_uris": {"android": "https://dc.lft.to/lastmile_qr_scan", "ios": "https://dc.lft.to/lastmile_qr_scan"}, "fusion_lon": 0.0, "lat": 38.90520333333333, "bike_id": "5119cd272efb694b19e0bdb04d501f81", "type": "electric_scooter", "is_reserved": 0, "lon": -77.02943666666667}, {"fusion_lat": 0.0, "name": "b5f9b92e4695f5693ae015a3ce2d3448", "is_disabled": 0, "rental_uris": {"android": "https://dc.lft.to/lastmile_qr_scan", "ios": "https://dc.lft.to/lastmile_qr_scan"}, "fusion_lon": 0.0, "lat": 38.92645366666667, "bike_id": "b5f9b92e4695f5693ae015a3ce2d3448", "type": "electric_scooter", "is_reserved": 0, "lon": -77.03860583333334}, {"fusion_lat": 0.0, "name": "62494f03477572b618a49b43d8103196", "is_disabled": 0, "rental_uris": {"android": "https://dc.lft.to/lastmile_qr_scan", "ios": "https://dc.lft.to/lastmile_qr_scan"}, "fusion_lon": 0.0, "lat": 38.919179, "bike_id": "62494f03477572b618a49b43d8103196", "type": "electric_scooter", "is_reserved": 0, "lon": -77.024122}, {"fusion_lat": 0.0, "name": "7d5c460af8f24f1a0fb9d1c6695eee23", "is_disabled": 0, "rental_uris": {"android": "https://dc.lft.to/lastmile_qr_scan", "ios": "https://dc.lft.to/lastmile_qr_scan"}, "fusion_lon": 0.0, "lat": 38.9142285, "bike_id": "7d5c460af8f24f1a0fb9d1c6695eee23", "type": "electric_scooter", "is_reserved": 0, "lon": -77.03207883333333}, {"fusion_lat": 0.0, "name": "ef8b1c31561b3f3ba3743fe56aa1bdfa", "is_disabled": 0, "rental_uris": {"android": "https://dc.lft.to/lastmile_qr_scan", "ios": "https://dc.lft.to/lastmile_qr_scan"}, "fusion_lon": 0.0, "lat": 38.86220483333334, "bike_id": "ef8b1c31561b3f3ba3743fe56aa1bdfa", "type": "electric_bike", "is_reserved": 0, "lon": -76.99557766666666}, {"fusion_lat": 0.0, "name": "895959d1bf2e3af6a4837923a7908a45", "is_disabled": 0, "rental_uris": {"android": "https://dc.lft.to/lastmile_qr_scan", "ios": "https://dc.lft.to/lastmile_qr_scan"}, "fusion_lon": 0.0, "lat": 38.92147, "bike_id": "895959d1bf2e3af6a4837923a7908a45", "type": "electric_scooter", "is_reserved": 0, "lon": -77.04228516666667}, {"fusion_lat": 0.0, "name": "a8b913d26ae792bb318c589e45e1b73e", "is_disabled": 0, "rental_uris": {"android": "https://dc.lft.to/lastmile_qr_scan", "ios": "https://dc.lft.to/lastmile_qr_scan"}, "fusion_lon": 0.0, "lat": 38.908492, "bike_id": "a8b913d26ae792bb318c589e45e1b73e", "type": "electric_scooter", "is_reserved": 0, "lon": -77.0637715}, {"fusion_lat": 0.0, "name": "b066c5ad1a09658fd3472389d4c49dd2", "is_disabled": 0, "rental_uris": {"android": "https://dc.lft.to/lastmile_qr_scan", "ios": "https://dc.lft.to/lastmile_qr_scan"}, "fusion_lon": 0.0, "lat": 38.926134, "bike_id": "b066c5ad1a09658fd3472389d4c49dd2", "type": "electric_scooter", "is_reserved": 0, "lon": -77.039563}, {"fusion_lat": 0.0, "name": "4bead7d0fe7b45579081267063aa83de", "is_disabled": 0, "rental_uris": {"android": "https://dc.lft.to/lastmile_qr_scan", "ios": "https://dc.lft.to/lastmile_qr_scan"}, "fusion_lon": 0.0, "lat": 38.90454416666667, "bike_id": "4bead7d0fe7b45579081267063aa83de", "type": "electric_scooter", "is_reserved": 0, "lon": -77.00168733333334}, {"fusion_lat": 0.0, "name": "448b658d175036a6f9b6a0efe15a9708", "is_disabled": 0, "rental_uris": {"android": "https://dc.lft.to/lastmile_qr_scan", "ios": "https://dc.lft.to/lastmile_qr_scan"}, "fusion_lon": 0.0, "lat": 38.91314783333333, "bike_id": "448b658d175036a6f9b6a0efe15a9708", "type": "electric_scooter", "is_reserved": 0, "lon": -77.0144975}, {"fusion_lat": 0.0, "name": "35e9ab6c1e84157d0a45d2e69b952f29", "is_disabled": 0, "rental_uris": {"android": "https://dc.lft.to/lastmile_qr_scan", "ios": "https://dc.lft.to/lastmile_qr_scan"}, "fusion_lon": 0.0, "lat": 38.876831833333334, "bike_id": "35e9ab6c1e84157d0a45d2e69b952f29", "type": "electric_scooter", "is_reserved": 0, "lon": -77.00070933333333}, {"fusion_lat": 0.0, "name": "e8e7192f6f3f3fbd35b7e66e63e61755", "is_disabled": 0, "rental_uris": {"android": "https://dc.lft.to/lastmile_qr_scan", "ios": "https://dc.lft.to/lastmile_qr_scan"}, "fusion_lon": 0.0, "lat": 38.87680966666667, "bike_id": "e8e7192f6f3f3fbd35b7e66e63e61755", "type": "electric_scooter", "is_reserved": 0, "lon": -77.00072833333333}, {"fusion_lat": 0.0, "name": "4bbf086fec7478213af4b9b45e28410c", "is_disabled": 0, "rental_uris": {"android": "https://dc.lft.to/lastmile_qr_scan", "ios": "https://dc.lft.to/lastmile_qr_scan"}, "fusion_lon": 0.0, "lat": 38.92807583333333, "bike_id": "4bbf086fec7478213af4b9b45e28410c", "type": "electric_scooter", "is_reserved": 0, "lon": -77.04363183333334}, {"fusion_lat": 0.0, "name": "484e9a27d49f710390623ae6f99d8598", "is_disabled": 0, "rental_uris": {"android": "https://dc.lft.to/lastmile_qr_scan", "ios": "https://dc.lft.to/lastmile_qr_scan"}, "fusion_lon": 0.0, "lat": 38.90422233333334, "bike_id": "484e9a27d49f710390623ae6f99d8598", "type": "electric_scooter", "is_reserved": 0, "lon": -76.9497805}, {"fusion_lat": 0.0, "name": "078907702a470b3d9be5d7510b7cf6a0", "is_disabled": 0, "rental_uris": {"android": "https://dc.lft.to/lastmile_qr_scan", "ios": "https://dc.lft.to/lastmile_qr_scan"}, "fusion_lon": 0.0, "lat": 38.940785, "bike_id": "078907702a470b3d9be5d7510b7cf6a0", "type": "electric_scooter", "is_reserved": 0, "lon": -77.02397}, {"fusion_lat": 0.0, "name": "56bab6caa9e578ec258fdba67e3c12fa", "is_disabled": 0, "rental_uris": {"android": "https://dc.lft.to/lastmile_qr_scan", "ios": "https://dc.lft.to/lastmile_qr_scan"}, "fusion_lon": 0.0, "lat": 38.92825716666667, "bike_id": "56bab6caa9e578ec258fdba67e3c12fa", "type": "electric_scooter", "is_reserved": 0, "lon": -77.02258283333333}, {"fusion_lat": 0.0, "name": "9ea99c77d284d0dbf356a6cc9829aa37", "is_disabled": 0, "rental_uris": {"android": "https://dc.lft.to/lastmile_qr_scan", "ios": "https://dc.lft.to/lastmile_qr_scan"}, "fusion_lon": 0.0, "lat": 38.87653666666667, "bike_id": "9ea99c77d284d0dbf356a6cc9829aa37", "type": "electric_scooter", "is_reserved": 0, "lon": -77.00333566666667}, {"fusion_lat": 0.0, "name": "16c40eb28d8f72fe79f4732ef82facb9", "is_disabled": 0, "rental_uris": {"android": "https://dc.lft.to/lastmile_qr_scan", "ios": "https://dc.lft.to/lastmile_qr_scan"}, "fusion_lon": 0.0, "lat": 38.901416166666664, "bike_id": "16c40eb28d8f72fe79f4732ef82facb9", "type": "electric_scooter", "is_reserved": 0, "lon": -77.03468116666667}, {"fusion_lat": 0.0, "name": "34d8f656e79fa8ad0d27e1bff321d194", "is_disabled": 0, "rental_uris": {"android": "https://dc.lft.to/lastmile_qr_scan", "ios": "https://dc.lft.to/lastmile_qr_scan"}, "fusion_lon": 0.0, "lat": 38.85354783333333, "bike_id": "34d8f656e79fa8ad0d27e1bff321d194", "type": "electric_bike", "is_reserved": 0, "lon": -77.13463816666666}, {"fusion_lat": 0.0, "name": "35278ee144d647ba634c56a5efe3cc6b", "is_disabled": 0, "rental_uris": {"android": "https://dc.lft.to/lastmile_qr_scan", "ios": "https://dc.lft.to/lastmile_qr_scan"}, "fusion_lon": 0.0, "lat": 38.91480116666666, "bike_id": "35278ee144d647ba634c56a5efe3cc6b", "type": "electric_scooter", "is_reserved": 0, "lon": -77.036702}, {"fusion_lat": 0.0, "name": "d86a39e93711d8e802adbaad2f426c48", "is_disabled": 0, "rental_uris": {"android": "https://dc.lft.to/lastmile_qr_scan", "ios": "https://dc.lft.to/lastmile_qr_scan"}, "fusion_lon": 0.0, "lat": 38.91345866666666, "bike_id": "d86a39e93711d8e802adbaad2f426c48", "type": "electric_scooter", "is_reserved": 0, "lon": -77.023919}, {"fusion_lat": 0.0, "name": "ac6ecaa224854c2b1f4986fc5c4143a6", "is_disabled": 0, "rental_uris": {"android": "https://dc.lft.to/lastmile_qr_scan", "ios": "https://dc.lft.to/lastmile_qr_scan"}, "fusion_lon": 0.0, "lat": 38.910808, "bike_id": "ac6ecaa224854c2b1f4986fc5c4143a6", "type": "electric_scooter", "is_reserved": 0, "lon": -77.02097983333333}, {"fusion_lat": 0.0, "name": "688f2e249ae55ae655cd57e79223ad29", "is_disabled": 0, "rental_uris": {"android": "https://dc.lft.to/lastmile_qr_scan", "ios": "https://dc.lft.to/lastmile_qr_scan"}, "fusion_lon": 0.0, "lat": 38.91553783333333, "bike_id": "688f2e249ae55ae655cd57e79223ad29", "type": "electric_scooter", "is_reserved": 0, "lon": -77.038742}, {"fusion_lat": 0.0, "name": "c7538a779368f16489c6779727ab65f7", "is_disabled": 0, "rental_uris": {"android": "https://dc.lft.to/lastmile_qr_scan", "ios": "https://dc.lft.to/lastmile_qr_scan"}, "fusion_lon": 0.0, "lat": 38.8475725, "bike_id": "c7538a779368f16489c6779727ab65f7", "type": "electric_scooter", "is_reserved": 0, "lon": -76.99504883333333}, {"fusion_lat": 0.0, "name": "18fa4aa2edc4a0b28233383dae8cf4a6", "is_disabled": 0, "rental_uris": {"android": "https://dc.lft.to/lastmile_qr_scan", "ios": "https://dc.lft.to/lastmile_qr_scan"}, "fusion_lon": 0.0, "lat": 38.874859666666666, "bike_id": "18fa4aa2edc4a0b28233383dae8cf4a6", "type": "electric_scooter", "is_reserved": 0, "lon": -77.000344}, {"fusion_lat": 0.0, "name": "48ef867fb875ce552bf029d4b33f4fd0", "is_disabled": 0, "rental_uris": {"android": "https://dc.lft.to/lastmile_qr_scan", "ios": "https://dc.lft.to/lastmile_qr_scan"}, "fusion_lon": 0.0, "lat": 38.922695, "bike_id": "48ef867fb875ce552bf029d4b33f4fd0", "type": "electric_scooter", "is_reserved": 0, "lon": -77.04232816666666}, {"fusion_lat": 0.0, "name": "248686022403f3afd5dca9597feae1c5", "is_disabled": 0, "rental_uris": {"android": "https://dc.lft.to/lastmile_qr_scan", "ios": "https://dc.lft.to/lastmile_qr_scan"}, "fusion_lon": 0.0, "lat": 38.914889, "bike_id": "248686022403f3afd5dca9597feae1c5", "type": "electric_scooter", "is_reserved": 0, "lon": -77.01327166666667}, {"fusion_lat": 0.0, "name": "46e12f0ddc4499e2fce233867e830321", "is_disabled": 0, "rental_uris": {"android": "https://dc.lft.to/lastmile_qr_scan", "ios": "https://dc.lft.to/lastmile_qr_scan"}, "fusion_lon": 0.0, "lat": 38.915791666666664, "bike_id": "46e12f0ddc4499e2fce233867e830321", "type": "electric_scooter", "is_reserved": 0, "lon": -77.01234266666667}, {"fusion_lat": 0.0, "name": "c6e7ea9115aff3df79d0658ea0f34582", "is_disabled": 0, "rental_uris": {"android": "https://dc.lft.to/lastmile_qr_scan", "ios": "https://dc.lft.to/lastmile_qr_scan"}, "fusion_lon": 0.0, "lat": 38.91990283333333, "bike_id": "c6e7ea9115aff3df79d0658ea0f34582", "type": "electric_scooter", "is_reserved": 0, "lon": -76.973073}, {"fusion_lat": 0.0, "name": "657a4f2d1492a0497b57ce7332a20784", "is_disabled": 0, "rental_uris": {"android": "https://dc.lft.to/lastmile_qr_scan", "ios": "https://dc.lft.to/lastmile_qr_scan"}, "fusion_lon": 0.0, "lat": 38.9069855, "bike_id": "657a4f2d1492a0497b57ce7332a20784", "type": "electric_scooter", "is_reserved": 0, "lon": -77.06528066666667}, {"fusion_lat": 0.0, "name": "a95972d083a8c7cf6725d40aebf996e2", "is_disabled": 0, "rental_uris": {"android": "https://dc.lft.to/lastmile_qr_scan", "ios": "https://dc.lft.to/lastmile_qr_scan"}, "fusion_lon": 0.0, "lat": 38.90447233333333, "bike_id": "a95972d083a8c7cf6725d40aebf996e2", "type": "electric_scooter", "is_reserved": 0, "lon": -77.03468383333333}, {"fusion_lat": 0.0, "name": "6be26de7eed65ad134e895a78e066030", "is_disabled": 0, "rental_uris": {"android": "https://dc.lft.to/lastmile_qr_scan", "ios": "https://dc.lft.to/lastmile_qr_scan"}, "fusion_lon": 0.0, "lat": 38.9110395, "bike_id": "6be26de7eed65ad134e895a78e066030", "type": "electric_scooter", "is_reserved": 0, "lon": -77.0166795}, {"fusion_lat": 0.0, "name": "53568dad52c4f33e25ceede4a469bd93", "is_disabled": 0, "rental_uris": {"android": "https://dc.lft.to/lastmile_qr_scan", "ios": "https://dc.lft.to/lastmile_qr_scan"}, "fusion_lon": 0.0, "lat": 38.89919166666667, "bike_id": "53568dad52c4f33e25ceede4a469bd93", "type": "electric_scooter", "is_reserved": 0, "lon": -77.03380216666666}, {"fusion_lat": 0.0, "name": "9589398385b0699bd8af397a86b8c39e", "is_disabled": 0, "rental_uris": {"android": "https://dc.lft.to/lastmile_qr_scan", "ios": "https://dc.lft.to/lastmile_qr_scan"}, "fusion_lon": 0.0, "lat": 38.91817, "bike_id": "9589398385b0699bd8af397a86b8c39e", "type": "electric_scooter", "is_reserved": 0, "lon": -77.0251655}, {"fusion_lat": 0.0, "name": "aded8ec54722d9129e1de3ad3e540e23", "is_disabled": 0, "rental_uris": {"android": "https://dc.lft.to/lastmile_qr_scan", "ios": "https://dc.lft.to/lastmile_qr_scan"}, "fusion_lon": 0.0, "lat": 38.89855133333333, "bike_id": "aded8ec54722d9129e1de3ad3e540e23", "type": "electric_scooter", "is_reserved": 0, "lon": -77.02431166666666}, {"fusion_lat": 0.0, "name": "6befb38c8138fd70a91442c48d5b03ea", "is_disabled": 0, "rental_uris": {"android": "https://dc.lft.to/lastmile_qr_scan", "ios": "https://dc.lft.to/lastmile_qr_scan"}, "fusion_lon": 0.0, "lat": 38.916896666666666, "bike_id": "6befb38c8138fd70a91442c48d5b03ea", "type": "electric_scooter", "is_reserved": 0, "lon": -77.022905}, {"fusion_lat": 0.0, "name": "5b97ef44ba835e58a578fc72a0be1ef4", "is_disabled": 0, "rental_uris": {"android": "https://dc.lft.to/lastmile_qr_scan", "ios": "https://dc.lft.to/lastmile_qr_scan"}, "fusion_lon": 0.0, "lat": 38.91606483333333, "bike_id": "5b97ef44ba835e58a578fc72a0be1ef4", "type": "electric_scooter", "is_reserved": 0, "lon": -77.0455725}, {"fusion_lat": 0.0, "name": "d31a2e4bd2cc61f15b1d825301ec043d", "is_disabled": 0, "rental_uris": {"android": "https://dc.lft.to/lastmile_qr_scan", "ios": "https://dc.lft.to/lastmile_qr_scan"}, "fusion_lon": 0.0, "lat": 38.9164105, "bike_id": "d31a2e4bd2cc61f15b1d825301ec043d", "type": "electric_scooter", "is_reserved": 0, "lon": -77.02258566666667}, {"fusion_lat": 0.0, "name": "345e7efd25b16f63b88373ea29436bff", "is_disabled": 0, "rental_uris": {"android": "https://dc.lft.to/lastmile_qr_scan", "ios": "https://dc.lft.to/lastmile_qr_scan"}, "fusion_lon": 0.0, "lat": 38.923178166666666, "bike_id": "345e7efd25b16f63b88373ea29436bff", "type": "electric_scooter", "is_reserved": 0, "lon": -77.04386683333334}, {"fusion_lat": 0.0, "name": "49bf3957899b42e95bcf7f3e22bf444e", "is_disabled": 0, "rental_uris": {"android": "https://dc.lft.to/lastmile_qr_scan", "ios": "https://dc.lft.to/lastmile_qr_scan"}, "fusion_lon": 0.0, "lat": 38.869347166666664, "bike_id": "49bf3957899b42e95bcf7f3e22bf444e", "type": "electric_scooter", "is_reserved": 0, "lon": -77.01383466666667}, {"fusion_lat": 0.0, "name": "f01a50e6f5529c1662c857e268b1c9e2", "is_disabled": 0, "rental_uris": {"android": "https://dc.lft.to/lastmile_qr_scan", "ios": "https://dc.lft.to/lastmile_qr_scan"}, "fusion_lon": 0.0, "lat": 38.87536083333333, "bike_id": "f01a50e6f5529c1662c857e268b1c9e2", "type": "electric_scooter", "is_reserved": 0, "lon": -77.00513166666667}, {"fusion_lat": 0.0, "name": "4e4090a24eb67a02003e14bf190e5cb1", "is_disabled": 0, "rental_uris": {"android": "https://dc.lft.to/lastmile_qr_scan", "ios": "https://dc.lft.to/lastmile_qr_scan"}, "fusion_lon": 0.0, "lat": 38.89540733333333, "bike_id": "4e4090a24eb67a02003e14bf190e5cb1", "type": "electric_scooter", "is_reserved": 0, "lon": -76.9495075}, {"fusion_lat": 0.0, "name": "617faa5301ed44ad539a1526236b8973", "is_disabled": 0, "rental_uris": {"android": "https://dc.lft.to/lastmile_qr_scan", "ios": "https://dc.lft.to/lastmile_qr_scan"}, "fusion_lon": 0.0, "lat": 38.89682883333333, "bike_id": "617faa5301ed44ad539a1526236b8973", "type": "electric_scooter", "is_reserved": 0, "lon": -77.050967}, {"fusion_lat": 0.0, "name": "30a631ad8af5a5eee45bcfb0ad9a34f4", "is_disabled": 0, "rental_uris": {"android": "https://dc.lft.to/lastmile_qr_scan", "ios": "https://dc.lft.to/lastmile_qr_scan"}, "fusion_lon": 0.0, "lat": 38.9145435, "bike_id": "30a631ad8af5a5eee45bcfb0ad9a34f4", "type": "electric_scooter", "is_reserved": 0, "lon": -77.07224916666667}, {"fusion_lat": 0.0, "name": "3519b412fbde8cdeee7707f9ee6b09f6", "is_disabled": 0, "rental_uris": {"android": "https://dc.lft.to/lastmile_qr_scan", "ios": "https://dc.lft.to/lastmile_qr_scan"}, "fusion_lon": 0.0, "lat": 38.873858, "bike_id": "3519b412fbde8cdeee7707f9ee6b09f6", "type": "electric_scooter", "is_reserved": 0, "lon": -77.00036283333333}, {"fusion_lat": 0.0, "name": "bb31fb66789e37e7f905fb42883567b0", "is_disabled": 0, "rental_uris": {"android": "https://dc.lft.to/lastmile_qr_scan", "ios": "https://dc.lft.to/lastmile_qr_scan"}, "fusion_lon": 0.0, "lat": 38.91554, "bike_id": "bb31fb66789e37e7f905fb42883567b0", "type": "electric_scooter", "is_reserved": 0, "lon": -77.031722}, {"fusion_lat": 0.0, "name": "df99f4464fdffb93b5b96ac15cff50fa", "is_disabled": 0, "rental_uris": {"android": "https://dc.lft.to/lastmile_qr_scan", "ios": "https://dc.lft.to/lastmile_qr_scan"}, "fusion_lon": 0.0, "lat": 38.90603483333334, "bike_id": "df99f4464fdffb93b5b96ac15cff50fa", "type": "electric_scooter", "is_reserved": 0, "lon": -77.06298733333334}, {"fusion_lat": 0.0, "name": "18f821d93bde62ec3236cd84ba179c5a", "is_disabled": 0, "rental_uris": {"android": "https://dc.lft.to/lastmile_qr_scan", "ios": "https://dc.lft.to/lastmile_qr_scan"}, "fusion_lon": 0.0, "lat": 38.87661766666667, "bike_id": "18f821d93bde62ec3236cd84ba179c5a", "type": "electric_scooter", "is_reserved": 0, "lon": -76.9962525}, {"fusion_lat": 0.0, "name": "682b7a81c5fd748e4f38996779685db3", "is_disabled": 0, "rental_uris": {"android": "https://dc.lft.to/lastmile_qr_scan", "ios": "https://dc.lft.to/lastmile_qr_scan"}, "fusion_lon": 0.0, "lat": 38.9221615, "bike_id": "682b7a81c5fd748e4f38996779685db3", "type": "electric_scooter", "is_reserved": 0, "lon": -77.03784566666667}, {"fusion_lat": 0.0, "name": "01976a9b1db901b83cc25595f234a11d", "is_disabled": 0, "rental_uris": {"android": "https://dc.lft.to/lastmile_qr_scan", "ios": "https://dc.lft.to/lastmile_qr_scan"}, "fusion_lon": 0.0, "lat": 38.9105985, "bike_id": "01976a9b1db901b83cc25595f234a11d", "type": "electric_scooter", "is_reserved": 0, "lon": -77.06516933333333}, {"fusion_lat": 0.0, "name": "f0511fe71184d876245cc591413d2428", "is_disabled": 0, "rental_uris": {"android": "https://dc.lft.to/lastmile_qr_scan", "ios": "https://dc.lft.to/lastmile_qr_scan"}, "fusion_lon": 0.0, "lat": 38.924722333333335, "bike_id": "f0511fe71184d876245cc591413d2428", "type": "electric_scooter", "is_reserved": 0, "lon": -77.0391845}, {"fusion_lat": 0.0, "name": "6c5bf433f25fa6ebf5d461e5685c831b", "is_disabled": 0, "rental_uris": {"android": "https://dc.lft.to/lastmile_qr_scan", "ios": "https://dc.lft.to/lastmile_qr_scan"}, "fusion_lon": 0.0, "lat": 38.92102166666667, "bike_id": "6c5bf433f25fa6ebf5d461e5685c831b", "type": "electric_scooter", "is_reserved": 0, "lon": -77.02217216666666}, {"fusion_lat": 0.0, "name": "2776274e93c85ec1cbeca83ffe343d9f", "is_disabled": 0, "rental_uris": {"android": "https://dc.lft.to/lastmile_qr_scan", "ios": "https://dc.lft.to/lastmile_qr_scan"}, "fusion_lon": 0.0, "lat": 38.858010166666666, "bike_id": "2776274e93c85ec1cbeca83ffe343d9f", "type": "electric_bike", "is_reserved": 0, "lon": -76.98726833333333}, {"fusion_lat": 0.0, "name": "b8e5eabe9e72c832031e05ffea033c78", "is_disabled": 0, "rental_uris": {"android": "https://dc.lft.to/lastmile_qr_scan", "ios": "https://dc.lft.to/lastmile_qr_scan"}, "fusion_lon": 0.0, "lat": 38.91446033333333, "bike_id": "b8e5eabe9e72c832031e05ffea033c78", "type": "electric_bike", "is_reserved": 0, "lon": -77.04169633333333}, {"fusion_lat": 0.0, "name": "13900c59a0d8667120da0a4603eb0906", "is_disabled": 0, "rental_uris": {"android": "https://dc.lft.to/lastmile_qr_scan", "ios": "https://dc.lft.to/lastmile_qr_scan"}, "fusion_lon": 0.0, "lat": 38.90567566666667, "bike_id": "13900c59a0d8667120da0a4603eb0906", "type": "electric_scooter", "is_reserved": 0, "lon": -77.03119366666667}, {"fusion_lat": 0.0, "name": "8c0e631a98a9122fa71ae6bc99270106", "is_disabled": 0, "rental_uris": {"android": "https://dc.lft.to/lastmile_qr_scan", "ios": "https://dc.lft.to/lastmile_qr_scan"}, "fusion_lon": 0.0, "lat": 38.901026333333334, "bike_id": "8c0e631a98a9122fa71ae6bc99270106", "type": "electric_scooter", "is_reserved": 0, "lon": -77.01938783333334}, {"fusion_lat": 0.0, "name": "788487675aad02ebef18cf735be00c90", "is_disabled": 0, "rental_uris": {"android": "https://dc.lft.to/lastmile_qr_scan", "ios": "https://dc.lft.to/lastmile_qr_scan"}, "fusion_lon": 0.0, "lat": 38.86259183333333, "bike_id": "788487675aad02ebef18cf735be00c90", "type": "electric_bike", "is_reserved": 0, "lon": -76.98342233333334}, {"fusion_lat": 0.0, "name": "83740f271a0fd8ebf3f1eec5aeab97eb", "is_disabled": 0, "rental_uris": {"android": "https://dc.lft.to/lastmile_qr_scan", "ios": "https://dc.lft.to/lastmile_qr_scan"}, "fusion_lon": 0.0, "lat": 38.90606366666667, "bike_id": "83740f271a0fd8ebf3f1eec5aeab97eb", "type": "electric_scooter", "is_reserved": 0, "lon": -77.02685333333334}, {"fusion_lat": 0.0, "name": "d4bb1d794dbb5ffee6b971e3d1c96a33", "is_disabled": 0, "rental_uris": {"android": "https://dc.lft.to/lastmile_qr_scan", "ios": "https://dc.lft.to/lastmile_qr_scan"}, "fusion_lon": 0.0, "lat": 38.890103, "bike_id": "d4bb1d794dbb5ffee6b971e3d1c96a33", "type": "electric_scooter", "is_reserved": 0, "lon": -77.02113683333333}, {"fusion_lat": 0.0, "name": "9de344b0723d951dddec86d9f5a73b26", "is_disabled": 0, "rental_uris": {"android": "https://dc.lft.to/lastmile_qr_scan", "ios": "https://dc.lft.to/lastmile_qr_scan"}, "fusion_lon": 0.0, "lat": 38.915525, "bike_id": "9de344b0723d951dddec86d9f5a73b26", "type": "electric_scooter", "is_reserved": 0, "lon": -77.0387365}, {"fusion_lat": 0.0, "name": "4a066ad5e9681cc28bf9632673327693", "is_disabled": 0, "rental_uris": {"android": "https://dc.lft.to/lastmile_qr_scan", "ios": "https://dc.lft.to/lastmile_qr_scan"}, "fusion_lon": 0.0, "lat": 38.920623166666665, "bike_id": "4a066ad5e9681cc28bf9632673327693", "type": "electric_scooter", "is_reserved": 0, "lon": -76.99864833333334}, {"fusion_lat": 0.0, "name": "52b7e04d1ed56b393238c8673ca65a49", "is_disabled": 0, "rental_uris": {"android": "https://dc.lft.to/lastmile_qr_scan", "ios": "https://dc.lft.to/lastmile_qr_scan"}, "fusion_lon": 0.0, "lat": 38.923676666666665, "bike_id": "52b7e04d1ed56b393238c8673ca65a49", "type": "electric_scooter", "is_reserved": 0, "lon": -77.04257016666666}, {"fusion_lat": 0.0, "name": "4e05095e8be565f2023caee2fe5083e0", "is_disabled": 0, "rental_uris": {"android": "https://dc.lft.to/lastmile_qr_scan", "ios": "https://dc.lft.to/lastmile_qr_scan"}, "fusion_lon": 0.0, "lat": 38.896956333333335, "bike_id": "4e05095e8be565f2023caee2fe5083e0", "type": "electric_scooter", "is_reserved": 0, "lon": -77.043524}, {"fusion_lat": 0.0, "name": "60fbddc3fcf2d812ee025af272de99ec", "is_disabled": 0, "rental_uris": {"android": "https://dc.lft.to/lastmile_qr_scan", "ios": "https://dc.lft.to/lastmile_qr_scan"}, "fusion_lon": 0.0, "lat": 38.917241833333335, "bike_id": "60fbddc3fcf2d812ee025af272de99ec", "type": "electric_scooter", "is_reserved": 0, "lon": -77.00816566666667}, {"fusion_lat": 0.0, "name": "33879356fbb20b4f8790cd9bd600a501", "is_disabled": 0, "rental_uris": {"android": "https://dc.lft.to/lastmile_qr_scan", "ios": "https://dc.lft.to/lastmile_qr_scan"}, "fusion_lon": 0.0, "lat": 38.908599833333334, "bike_id": "33879356fbb20b4f8790cd9bd600a501", "type": "electric_bike", "is_reserved": 0, "lon": -76.999632}, {"fusion_lat": 0.0, "name": "be1cb8a5ea88768c3f0a6061590ac4a1", "is_disabled": 0, "rental_uris": {"android": "https://dc.lft.to/lastmile_qr_scan", "ios": "https://dc.lft.to/lastmile_qr_scan"}, "fusion_lon": 0.0, "lat": 38.924615333333335, "bike_id": "be1cb8a5ea88768c3f0a6061590ac4a1", "type": "electric_scooter", "is_reserved": 0, "lon": -76.99330933333333}, {"fusion_lat": 0.0, "name": "fc8e85b260d88045229f119be410283a", "is_disabled": 0, "rental_uris": {"android": "https://dc.lft.to/lastmile_qr_scan", "ios": "https://dc.lft.to/lastmile_qr_scan"}, "fusion_lon": 0.0, "lat": 38.92016266666667, "bike_id": "fc8e85b260d88045229f119be410283a", "type": "electric_scooter", "is_reserved": 0, "lon": -76.995588}, {"fusion_lat": 0.0, "name": "334c5f7bafab30c65718fc584d317712", "is_disabled": 0, "rental_uris": {"android": "https://dc.lft.to/lastmile_qr_scan", "ios": "https://dc.lft.to/lastmile_qr_scan"}, "fusion_lon": 0.0, "lat": 38.969302, "bike_id": "334c5f7bafab30c65718fc584d317712", "type": "electric_bike", "is_reserved": 0, "lon": -77.026202}, {"fusion_lat": 0.0, "name": "9b22037994583c4050555a3fa6891549", "is_disabled": 0, "rental_uris": {"android": "https://dc.lft.to/lastmile_qr_scan", "ios": "https://dc.lft.to/lastmile_qr_scan"}, "fusion_lon": 0.0, "lat": 38.8491405, "bike_id": "9b22037994583c4050555a3fa6891549", "type": "electric_bike", "is_reserved": 0, "lon": -77.0998035}, {"fusion_lat": 0.0, "name": "96a0027409d689f669c19b6532f13dc8", "is_disabled": 0, "rental_uris": {"android": "https://dc.lft.to/lastmile_qr_scan", "ios": "https://dc.lft.to/lastmile_qr_scan"}, "fusion_lon": 0.0, "lat": 38.9039175, "bike_id": "96a0027409d689f669c19b6532f13dc8", "type": "electric_scooter", "is_reserved": 0, "lon": -77.03323066666667}, {"fusion_lat": 0.0, "name": "84cfe46b3f39864fe4213216e7d3e6a1", "is_disabled": 0, "rental_uris": {"android": "https://dc.lft.to/lastmile_qr_scan", "ios": "https://dc.lft.to/lastmile_qr_scan"}, "fusion_lon": 0.0, "lat": 38.9281065, "bike_id": "84cfe46b3f39864fe4213216e7d3e6a1", "type": "electric_scooter", "is_reserved": 0, "lon": -77.04358116666667}, {"fusion_lat": 0.0, "name": "e5c6cd911b8c1232ea4919bcc65b6072", "is_disabled": 0, "rental_uris": {"android": "https://dc.lft.to/lastmile_qr_scan", "ios": "https://dc.lft.to/lastmile_qr_scan"}, "fusion_lon": 0.0, "lat": 38.8765305, "bike_id": "e5c6cd911b8c1232ea4919bcc65b6072", "type": "electric_scooter", "is_reserved": 0, "lon": -77.0074035}, {"fusion_lat": 0.0, "name": "9aa5bb0697452ee8d520ebd3287d4cbf", "is_disabled": 0, "rental_uris": {"android": "https://dc.lft.to/lastmile_qr_scan", "ios": "https://dc.lft.to/lastmile_qr_scan"}, "fusion_lon": 0.0, "lat": 38.86515716666667, "bike_id": "9aa5bb0697452ee8d520ebd3287d4cbf", "type": "electric_bike", "is_reserved": 0, "lon": -76.97334216666667}, {"fusion_lat": 0.0, "name": "e552977e03145ea3cce98ca3f3f6a029", "is_disabled": 0, "rental_uris": {"android": "https://dc.lft.to/lastmile_qr_scan", "ios": "https://dc.lft.to/lastmile_qr_scan"}, "fusion_lon": 0.0, "lat": 38.8770425, "bike_id": "e552977e03145ea3cce98ca3f3f6a029", "type": "electric_scooter", "is_reserved": 0, "lon": -77.007406}, {"fusion_lat": 0.0, "name": "30854d8443a94cf1f22d68e9121e7891", "is_disabled": 0, "rental_uris": {"android": "https://dc.lft.to/lastmile_qr_scan", "ios": "https://dc.lft.to/lastmile_qr_scan"}, "fusion_lon": 0.0, "lat": 38.918439166666666, "bike_id": "30854d8443a94cf1f22d68e9121e7891", "type": "electric_scooter", "is_reserved": 0, "lon": -76.96548116666666}, {"fusion_lat": 0.0, "name": "70e800c7cf63062b73353db36c301880", "is_disabled": 0, "rental_uris": {"android": "https://dc.lft.to/lastmile_qr_scan", "ios": "https://dc.lft.to/lastmile_qr_scan"}, "fusion_lon": 0.0, "lat": 38.911042333333334, "bike_id": "70e800c7cf63062b73353db36c301880", "type": "electric_scooter", "is_reserved": 0, "lon": -77.01396833333334}, {"fusion_lat": 0.0, "name": "91e2920c5708aa9bfe346457355b755e", "is_disabled": 0, "rental_uris": {"android": "https://dc.lft.to/lastmile_qr_scan", "ios": "https://dc.lft.to/lastmile_qr_scan"}, "fusion_lon": 0.0, "lat": 38.91805133333333, "bike_id": "91e2920c5708aa9bfe346457355b755e", "type": "electric_scooter", "is_reserved": 0, "lon": -77.03664633333334}, {"fusion_lat": 0.0, "name": "56f3d69cd739ec7b97e60df21be6ebbd", "is_disabled": 0, "rental_uris": {"android": "https://dc.lft.to/lastmile_qr_scan", "ios": "https://dc.lft.to/lastmile_qr_scan"}, "fusion_lon": 0.0, "lat": 38.9147215, "bike_id": "56f3d69cd739ec7b97e60df21be6ebbd", "type": "electric_scooter", "is_reserved": 0, "lon": -76.983908}, {"fusion_lat": 0.0, "name": "161b004c3cc053f10f6106b0edded0f5", "is_disabled": 0, "rental_uris": {"android": "https://dc.lft.to/lastmile_qr_scan", "ios": "https://dc.lft.to/lastmile_qr_scan"}, "fusion_lon": 0.0, "lat": 38.98476466666666, "bike_id": "161b004c3cc053f10f6106b0edded0f5", "type": "electric_scooter", "is_reserved": 0, "lon": -77.026437}, {"fusion_lat": 0.0, "name": "bb672ec92582e4809200118901fffac4", "is_disabled": 0, "rental_uris": {"android": "https://dc.lft.to/lastmile_qr_scan", "ios": "https://dc.lft.to/lastmile_qr_scan"}, "fusion_lon": 0.0, "lat": 38.91357466666667, "bike_id": "bb672ec92582e4809200118901fffac4", "type": "electric_scooter", "is_reserved": 0, "lon": -77.03332216666666}, {"fusion_lat": 0.0, "name": "65b5fdee82af3ae4525e4bb5c072bdca", "is_disabled": 0, "rental_uris": {"android": "https://dc.lft.to/lastmile_qr_scan", "ios": "https://dc.lft.to/lastmile_qr_scan"}, "fusion_lon": 0.0, "lat": 38.9500085, "bike_id": "65b5fdee82af3ae4525e4bb5c072bdca", "type": "electric_scooter", "is_reserved": 0, "lon": -77.01950833333333}, {"fusion_lat": 0.0, "name": "100398019759294a3f0d10c6f92ed5a3", "is_disabled": 0, "rental_uris": {"android": "https://dc.lft.to/lastmile_qr_scan", "ios": "https://dc.lft.to/lastmile_qr_scan"}, "fusion_lon": 0.0, "lat": 38.91597, "bike_id": "100398019759294a3f0d10c6f92ed5a3", "type": "electric_scooter", "is_reserved": 0, "lon": -77.031829}, {"fusion_lat": 0.0, "name": "d73f588f7001ff4f58340f8f5245c12b", "is_disabled": 0, "rental_uris": {"android": "https://dc.lft.to/lastmile_qr_scan", "ios": "https://dc.lft.to/lastmile_qr_scan"}, "fusion_lon": 0.0, "lat": 38.92868383333333, "bike_id": "d73f588f7001ff4f58340f8f5245c12b", "type": "electric_scooter", "is_reserved": 0, "lon": -77.034226}, {"fusion_lat": 0.0, "name": "6ab4ad35a8a268197dffb28e4aab2093", "is_disabled": 0, "rental_uris": {"android": "https://dc.lft.to/lastmile_qr_scan", "ios": "https://dc.lft.to/lastmile_qr_scan"}, "fusion_lon": 0.0, "lat": 38.91660616666667, "bike_id": "6ab4ad35a8a268197dffb28e4aab2093", "type": "electric_scooter", "is_reserved": 0, "lon": -77.02819166666667}, {"fusion_lat": 0.0, "name": "7a2b174b94e9c473761b3da438dca6be", "is_disabled": 0, "rental_uris": {"android": "https://dc.lft.to/lastmile_qr_scan", "ios": "https://dc.lft.to/lastmile_qr_scan"}, "fusion_lon": 0.0, "lat": 38.91845, "bike_id": "7a2b174b94e9c473761b3da438dca6be", "type": "electric_scooter", "is_reserved": 0, "lon": -77.04099066666667}, {"fusion_lat": 0.0, "name": "9d5b1247cc4627368e3071c67f21dfde", "is_disabled": 0, "rental_uris": {"android": "https://dc.lft.to/lastmile_qr_scan", "ios": "https://dc.lft.to/lastmile_qr_scan"}, "fusion_lon": 0.0, "lat": 38.903915166666664, "bike_id": "9d5b1247cc4627368e3071c67f21dfde", "type": "electric_scooter", "is_reserved": 0, "lon": -77.01849016666667}, {"fusion_lat": 0.0, "name": "a112c5e2fe171333098710a0d532db2a", "is_disabled": 0, "rental_uris": {"android": "https://dc.lft.to/lastmile_qr_scan", "ios": "https://dc.lft.to/lastmile_qr_scan"}, "fusion_lon": 0.0, "lat": 38.926451666666665, "bike_id": "a112c5e2fe171333098710a0d532db2a", "type": "electric_scooter", "is_reserved": 0, "lon": -77.04142133333333}, {"fusion_lat": 0.0, "name": "fc996ee1936313fa2c8008a7acabc89a", "is_disabled": 0, "rental_uris": {"android": "https://dc.lft.to/lastmile_qr_scan", "ios": "https://dc.lft.to/lastmile_qr_scan"}, "fusion_lon": 0.0, "lat": 38.87373266666667, "bike_id": "fc996ee1936313fa2c8008a7acabc89a", "type": "electric_scooter", "is_reserved": 0, "lon": -77.000673}, {"fusion_lat": 0.0, "name": "4e09bbd40e6b7dc2674680e6589d145c", "is_disabled": 0, "rental_uris": {"android": "https://dc.lft.to/lastmile_qr_scan", "ios": "https://dc.lft.to/lastmile_qr_scan"}, "fusion_lon": 0.0, "lat": 38.9180265, "bike_id": "4e09bbd40e6b7dc2674680e6589d145c", "type": "electric_scooter", "is_reserved": 0, "lon": -77.03446566666666}, {"fusion_lat": 0.0, "name": "fdfc361a9ceecae3af4b5ec123598852", "is_disabled": 0, "rental_uris": {"android": "https://dc.lft.to/lastmile_qr_scan", "ios": "https://dc.lft.to/lastmile_qr_scan"}, "fusion_lon": 0.0, "lat": 38.89469416666667, "bike_id": "fdfc361a9ceecae3af4b5ec123598852", "type": "electric_scooter", "is_reserved": 0, "lon": -77.01771183333334}, {"fusion_lat": 0.0, "name": "6b9826e962b89c231e6e64b0da485da2", "is_disabled": 0, "rental_uris": {"android": "https://dc.lft.to/lastmile_qr_scan", "ios": "https://dc.lft.to/lastmile_qr_scan"}, "fusion_lon": 0.0, "lat": 38.930093166666666, "bike_id": "6b9826e962b89c231e6e64b0da485da2", "type": "electric_scooter", "is_reserved": 0, "lon": -77.06635816666666}, {"fusion_lat": 0.0, "name": "89e9d0d0deb77dfdf83e378db54f6bb1", "is_disabled": 0, "rental_uris": {"android": "https://dc.lft.to/lastmile_qr_scan", "ios": "https://dc.lft.to/lastmile_qr_scan"}, "fusion_lon": 0.0, "lat": 38.90562166666667, "bike_id": "89e9d0d0deb77dfdf83e378db54f6bb1", "type": "electric_scooter", "is_reserved": 0, "lon": -77.02226933333333}, {"fusion_lat": 0.0, "name": "2d0ff436e2c106bd9183bdc267fe7583", "is_disabled": 0, "rental_uris": {"android": "https://dc.lft.to/lastmile_qr_scan", "ios": "https://dc.lft.to/lastmile_qr_scan"}, "fusion_lon": 0.0, "lat": 38.90745166666667, "bike_id": "2d0ff436e2c106bd9183bdc267fe7583", "type": "electric_scooter", "is_reserved": 0, "lon": -77.00155966666667}, {"fusion_lat": 0.0, "name": "2eeb507e420fa4b4b664620581b6de31", "is_disabled": 0, "rental_uris": {"android": "https://dc.lft.to/lastmile_qr_scan", "ios": "https://dc.lft.to/lastmile_qr_scan"}, "fusion_lon": 0.0, "lat": 38.913404, "bike_id": "2eeb507e420fa4b4b664620581b6de31", "type": "electric_scooter", "is_reserved": 0, "lon": -77.0487295}, {"fusion_lat": 0.0, "name": "76960254a09571af6e350ce49ef42553", "is_disabled": 0, "rental_uris": {"android": "https://dc.lft.to/lastmile_qr_scan", "ios": "https://dc.lft.to/lastmile_qr_scan"}, "fusion_lon": 0.0, "lat": 38.924072333333335, "bike_id": "76960254a09571af6e350ce49ef42553", "type": "electric_scooter", "is_reserved": 0, "lon": -77.036425}, {"fusion_lat": 0.0, "name": "4e51547af035519c6e6cd6b345a9bcc2", "is_disabled": 0, "rental_uris": {"android": "https://dc.lft.to/lastmile_qr_scan", "ios": "https://dc.lft.to/lastmile_qr_scan"}, "fusion_lon": 0.0, "lat": 38.912564, "bike_id": "4e51547af035519c6e6cd6b345a9bcc2", "type": "electric_scooter", "is_reserved": 0, "lon": -77.04926366666666}, {"fusion_lat": 0.0, "name": "624bbba4cdcbb5c83c8bee33678c47a6", "is_disabled": 0, "rental_uris": {"android": "https://dc.lft.to/lastmile_qr_scan", "ios": "https://dc.lft.to/lastmile_qr_scan"}, "fusion_lon": 0.0, "lat": 38.9077905, "bike_id": "624bbba4cdcbb5c83c8bee33678c47a6", "type": "electric_scooter", "is_reserved": 0, "lon": -77.03477416666666}, {"fusion_lat": 0.0, "name": "827a80c14c2fddb68ddd005122c0868a", "is_disabled": 0, "rental_uris": {"android": "https://dc.lft.to/lastmile_qr_scan", "ios": "https://dc.lft.to/lastmile_qr_scan"}, "fusion_lon": 0.0, "lat": 38.91406383333333, "bike_id": "827a80c14c2fddb68ddd005122c0868a", "type": "electric_scooter", "is_reserved": 0, "lon": -77.03220416666667}, {"fusion_lat": 0.0, "name": "885407988015e236423298a881799e60", "is_disabled": 0, "rental_uris": {"android": "https://dc.lft.to/lastmile_qr_scan", "ios": "https://dc.lft.to/lastmile_qr_scan"}, "fusion_lon": 0.0, "lat": 38.92383516666666, "bike_id": "885407988015e236423298a881799e60", "type": "electric_scooter", "is_reserved": 0, "lon": -77.02037916666667}, {"fusion_lat": 0.0, "name": "b70d6aee1f150057eafd4223c74b6ad7", "is_disabled": 0, "rental_uris": {"android": "https://dc.lft.to/lastmile_qr_scan", "ios": "https://dc.lft.to/lastmile_qr_scan"}, "fusion_lon": 0.0, "lat": 38.89867983333333, "bike_id": "b70d6aee1f150057eafd4223c74b6ad7", "type": "electric_scooter", "is_reserved": 0, "lon": -77.02039716666667}, {"fusion_lat": 0.0, "name": "d318acad26ba8334eb3f5769171f93eb", "is_disabled": 0, "rental_uris": {"android": "https://dc.lft.to/lastmile_qr_scan", "ios": "https://dc.lft.to/lastmile_qr_scan"}, "fusion_lon": 0.0, "lat": 38.90010633333333, "bike_id": "d318acad26ba8334eb3f5769171f93eb", "type": "electric_scooter", "is_reserved": 0, "lon": -77.04479116666667}, {"fusion_lat": 0.0, "name": "08740443f73dc1b22ca517eaf347d160", "is_disabled": 0, "rental_uris": {"android": "https://dc.lft.to/lastmile_qr_scan", "ios": "https://dc.lft.to/lastmile_qr_scan"}, "fusion_lon": 0.0, "lat": 38.927129666666666, "bike_id": "08740443f73dc1b22ca517eaf347d160", "type": "electric_scooter", "is_reserved": 0, "lon": -77.05388966666666}, {"fusion_lat": 0.0, "name": "6b37835bec4460d19b32de4ca1a8d9bd", "is_disabled": 0, "rental_uris": {"android": "https://dc.lft.to/lastmile_qr_scan", "ios": "https://dc.lft.to/lastmile_qr_scan"}, "fusion_lon": 0.0, "lat": 38.92616966666667, "bike_id": "6b37835bec4460d19b32de4ca1a8d9bd", "type": "electric_scooter", "is_reserved": 0, "lon": -77.07570766666667}, {"fusion_lat": 0.0, "name": "c5a059e4ea31ec56f5bf47ca15f1dcf5", "is_disabled": 0, "rental_uris": {"android": "https://dc.lft.to/lastmile_qr_scan", "ios": "https://dc.lft.to/lastmile_qr_scan"}, "fusion_lon": 0.0, "lat": 38.907763, "bike_id": "c5a059e4ea31ec56f5bf47ca15f1dcf5", "type": "electric_scooter", "is_reserved": 0, "lon": -77.04230616666666}, {"fusion_lat": 0.0, "name": "6c553cf0ffa253fd8b5b3ad064bd45ce", "is_disabled": 0, "rental_uris": {"android": "https://dc.lft.to/lastmile_qr_scan", "ios": "https://dc.lft.to/lastmile_qr_scan"}, "fusion_lon": 0.0, "lat": 38.90020583333333, "bike_id": "6c553cf0ffa253fd8b5b3ad064bd45ce", "type": "electric_scooter", "is_reserved": 0, "lon": -77.00372916666667}, {"fusion_lat": 0.0, "name": "69fc08f26e7d58ce0244306b095a0b00", "is_disabled": 0, "rental_uris": {"android": "https://dc.lft.to/lastmile_qr_scan", "ios": "https://dc.lft.to/lastmile_qr_scan"}, "fusion_lon": 0.0, "lat": 38.92804066666667, "bike_id": "69fc08f26e7d58ce0244306b095a0b00", "type": "electric_scooter", "is_reserved": 0, "lon": -77.04363333333333}, {"fusion_lat": 0.0, "name": "fd26660cdf8697482451f631b57109dc", "is_disabled": 0, "rental_uris": {"android": "https://dc.lft.to/lastmile_qr_scan", "ios": "https://dc.lft.to/lastmile_qr_scan"}, "fusion_lon": 0.0, "lat": 38.87918233333333, "bike_id": "fd26660cdf8697482451f631b57109dc", "type": "electric_scooter", "is_reserved": 0, "lon": -77.00717583333333}, {"fusion_lat": 0.0, "name": "802d49332e93bb6fd8ad107ba19805ed", "is_disabled": 0, "rental_uris": {"android": "https://dc.lft.to/lastmile_qr_scan", "ios": "https://dc.lft.to/lastmile_qr_scan"}, "fusion_lon": 0.0, "lat": 38.901094666666665, "bike_id": "802d49332e93bb6fd8ad107ba19805ed", "type": "electric_scooter", "is_reserved": 0, "lon": -76.97432416666666}, {"fusion_lat": 0.0, "name": "47768e87d094f57d2842eb9af900e61d", "is_disabled": 0, "rental_uris": {"android": "https://dc.lft.to/lastmile_qr_scan", "ios": "https://dc.lft.to/lastmile_qr_scan"}, "fusion_lon": 0.0, "lat": 38.922996833333336, "bike_id": "47768e87d094f57d2842eb9af900e61d", "type": "electric_scooter", "is_reserved": 0, "lon": -77.0182435}, {"fusion_lat": 0.0, "name": "6d3064a17f912416d764ce268905eb81", "is_disabled": 0, "rental_uris": {"android": "https://dc.lft.to/lastmile_qr_scan", "ios": "https://dc.lft.to/lastmile_qr_scan"}, "fusion_lon": 0.0, "lat": 38.9288205, "bike_id": "6d3064a17f912416d764ce268905eb81", "type": "electric_scooter", "is_reserved": 0, "lon": -77.03233216666666}, {"fusion_lat": 0.0, "name": "069d56c3ef61d2a866d899413d844f65", "is_disabled": 0, "rental_uris": {"android": "https://dc.lft.to/lastmile_qr_scan", "ios": "https://dc.lft.to/lastmile_qr_scan"}, "fusion_lon": 0.0, "lat": 38.897409333333336, "bike_id": "069d56c3ef61d2a866d899413d844f65", "type": "electric_scooter", "is_reserved": 0, "lon": -77.02447766666667}, {"fusion_lat": 0.0, "name": "bc8a34521e820b7946e085668b29734d", "is_disabled": 0, "rental_uris": {"android": "https://dc.lft.to/lastmile_qr_scan", "ios": "https://dc.lft.to/lastmile_qr_scan"}, "fusion_lon": 0.0, "lat": 38.900412833333334, "bike_id": "bc8a34521e820b7946e085668b29734d", "type": "electric_scooter", "is_reserved": 0, "lon": -77.03373716666667}, {"fusion_lat": 0.0, "name": "876068c47a0a192026b5b876cda4ff19", "is_disabled": 0, "rental_uris": {"android": "https://dc.lft.to/lastmile_qr_scan", "ios": "https://dc.lft.to/lastmile_qr_scan"}, "fusion_lon": 0.0, "lat": 38.934599166666665, "bike_id": "876068c47a0a192026b5b876cda4ff19", "type": "electric_scooter", "is_reserved": 0, "lon": -77.04124333333333}, {"fusion_lat": 0.0, "name": "0981d7256f99b2e27d8823579c511387", "is_disabled": 0, "rental_uris": {"android": "https://dc.lft.to/lastmile_qr_scan", "ios": "https://dc.lft.to/lastmile_qr_scan"}, "fusion_lon": 0.0, "lat": 38.921218833333334, "bike_id": "0981d7256f99b2e27d8823579c511387", "type": "electric_scooter", "is_reserved": 0, "lon": -77.01213833333334}, {"fusion_lat": 0.0, "name": "9165efa92e3884d2e7ecae652d14e81a", "is_disabled": 0, "rental_uris": {"android": "https://dc.lft.to/lastmile_qr_scan", "ios": "https://dc.lft.to/lastmile_qr_scan"}, "fusion_lon": 0.0, "lat": 38.90910216666666, "bike_id": "9165efa92e3884d2e7ecae652d14e81a", "type": "electric_scooter", "is_reserved": 0, "lon": -76.99933883333334}, {"fusion_lat": 0.0, "name": "21a6b5eb8bfd6d59b53aa1dc0c315c56", "is_disabled": 0, "rental_uris": {"android": "https://dc.lft.to/lastmile_qr_scan", "ios": "https://dc.lft.to/lastmile_qr_scan"}, "fusion_lon": 0.0, "lat": 38.92483033333333, "bike_id": "21a6b5eb8bfd6d59b53aa1dc0c315c56", "type": "electric_scooter", "is_reserved": 0, "lon": -77.02076833333334}, {"fusion_lat": 0.0, "name": "edb76dddaf3d9812dfff76a98ae37675", "is_disabled": 0, "rental_uris": {"android": "https://dc.lft.to/lastmile_qr_scan", "ios": "https://dc.lft.to/lastmile_qr_scan"}, "fusion_lon": 0.0, "lat": 38.9072925, "bike_id": "edb76dddaf3d9812dfff76a98ae37675", "type": "electric_scooter", "is_reserved": 0, "lon": -77.011445}, {"fusion_lat": 0.0, "name": "b8ff1699375fbc60582553e698f3c998", "is_disabled": 0, "rental_uris": {"android": "https://dc.lft.to/lastmile_qr_scan", "ios": "https://dc.lft.to/lastmile_qr_scan"}, "fusion_lon": 0.0, "lat": 38.907892833333335, "bike_id": "b8ff1699375fbc60582553e698f3c998", "type": "electric_scooter", "is_reserved": 0, "lon": -77.04254583333334}, {"fusion_lat": 0.0, "name": "4880d0b36cc4c8b020051984f34a291e", "is_disabled": 0, "rental_uris": {"android": "https://dc.lft.to/lastmile_qr_scan", "ios": "https://dc.lft.to/lastmile_qr_scan"}, "fusion_lon": 0.0, "lat": 38.91176766666667, "bike_id": "4880d0b36cc4c8b020051984f34a291e", "type": "electric_scooter", "is_reserved": 0, "lon": -77.02834866666667}, {"fusion_lat": 0.0, "name": "92be63ab6d892fc7373e33478961abf7", "is_disabled": 0, "rental_uris": {"android": "https://dc.lft.to/lastmile_qr_scan", "ios": "https://dc.lft.to/lastmile_qr_scan"}, "fusion_lon": 0.0, "lat": 38.911814166666666, "bike_id": "92be63ab6d892fc7373e33478961abf7", "type": "electric_scooter", "is_reserved": 0, "lon": -77.029648}, {"fusion_lat": 0.0, "name": "09fef8b0472322a50d25ad54c55bef86", "is_disabled": 0, "rental_uris": {"android": "https://dc.lft.to/lastmile_qr_scan", "ios": "https://dc.lft.to/lastmile_qr_scan"}, "fusion_lon": 0.0, "lat": 38.9073225, "bike_id": "09fef8b0472322a50d25ad54c55bef86", "type": "electric_scooter", "is_reserved": 0, "lon": -77.04757883333333}, {"fusion_lat": 0.0, "name": "d94cd55eb5cf8e652c12eb1a3f68e374", "is_disabled": 0, "rental_uris": {"android": "https://dc.lft.to/lastmile_qr_scan", "ios": "https://dc.lft.to/lastmile_qr_scan"}, "fusion_lon": 0.0, "lat": 38.90105966666667, "bike_id": "d94cd55eb5cf8e652c12eb1a3f68e374", "type": "electric_scooter", "is_reserved": 0, "lon": -76.9304365}, {"fusion_lat": 0.0, "name": "f772abdc6353164635abf5eb14807a90", "is_disabled": 0, "rental_uris": {"android": "https://dc.lft.to/lastmile_qr_scan", "ios": "https://dc.lft.to/lastmile_qr_scan"}, "fusion_lon": 0.0, "lat": 38.89911383333333, "bike_id": "f772abdc6353164635abf5eb14807a90", "type": "electric_scooter", "is_reserved": 0, "lon": -76.94588}, {"fusion_lat": 0.0, "name": "874e11f0be369a9379c86e9e78fe495e", "is_disabled": 0, "rental_uris": {"android": "https://dc.lft.to/lastmile_qr_scan", "ios": "https://dc.lft.to/lastmile_qr_scan"}, "fusion_lon": 0.0, "lat": 38.93905383333333, "bike_id": "874e11f0be369a9379c86e9e78fe495e", "type": "electric_scooter", "is_reserved": 0, "lon": -77.07797666666667}, {"fusion_lat": 0.0, "name": "bfbc522ea1e5ad89201608dc98758b6f", "is_disabled": 0, "rental_uris": {"android": "https://dc.lft.to/lastmile_qr_scan", "ios": "https://dc.lft.to/lastmile_qr_scan"}, "fusion_lon": 0.0, "lat": 38.8852675, "bike_id": "bfbc522ea1e5ad89201608dc98758b6f", "type": "electric_scooter", "is_reserved": 0, "lon": -76.92920716666667}, {"fusion_lat": 0.0, "name": "eda7f63dca310b65b8f0018bdc8de0e2", "is_disabled": 0, "rental_uris": {"android": "https://dc.lft.to/lastmile_qr_scan", "ios": "https://dc.lft.to/lastmile_qr_scan"}, "fusion_lon": 0.0, "lat": 38.89902716666667, "bike_id": "eda7f63dca310b65b8f0018bdc8de0e2", "type": "electric_scooter", "is_reserved": 0, "lon": -76.93355016666666}, {"fusion_lat": 0.0, "name": "5ed9f1ae91873950d89345133462863d", "is_disabled": 0, "rental_uris": {"android": "https://dc.lft.to/lastmile_qr_scan", "ios": "https://dc.lft.to/lastmile_qr_scan"}, "fusion_lon": 0.0, "lat": 38.923085, "bike_id": "5ed9f1ae91873950d89345133462863d", "type": "electric_scooter", "is_reserved": 0, "lon": -77.04206616666667}, {"fusion_lat": 0.0, "name": "df2894ed4c8e2393a6558493f23e6b4f", "is_disabled": 0, "rental_uris": {"android": "https://dc.lft.to/lastmile_qr_scan", "ios": "https://dc.lft.to/lastmile_qr_scan"}, "fusion_lon": 0.0, "lat": 38.928357166666665, "bike_id": "df2894ed4c8e2393a6558493f23e6b4f", "type": "electric_scooter", "is_reserved": 0, "lon": -77.01587}, {"fusion_lat": 0.0, "name": "1dbd1fd477e03103b98580fca60e643f", "is_disabled": 0, "rental_uris": {"android": "https://dc.lft.to/lastmile_qr_scan", "ios": "https://dc.lft.to/lastmile_qr_scan"}, "fusion_lon": 0.0, "lat": 38.912567333333335, "bike_id": "1dbd1fd477e03103b98580fca60e643f", "type": "electric_scooter", "is_reserved": 0, "lon": -77.03874833333333}, {"fusion_lat": 0.0, "name": "b5285587b887929c0d7775624a716a27", "is_disabled": 0, "rental_uris": {"android": "https://dc.lft.to/lastmile_qr_scan", "ios": "https://dc.lft.to/lastmile_qr_scan"}, "fusion_lon": 0.0, "lat": 38.87575416666667, "bike_id": "b5285587b887929c0d7775624a716a27", "type": "electric_bike", "is_reserved": 0, "lon": -77.23412466666667}, {"fusion_lat": 0.0, "name": "d91bb3349847d2a279b6c678628241dc", "is_disabled": 0, "rental_uris": {"android": "https://dc.lft.to/lastmile_qr_scan", "ios": "https://dc.lft.to/lastmile_qr_scan"}, "fusion_lon": 0.0, "lat": 38.910833, "bike_id": "d91bb3349847d2a279b6c678628241dc", "type": "electric_scooter", "is_reserved": 0, "lon": -77.00934616666666}, {"fusion_lat": 0.0, "name": "e2fc167e6b30e3a85dac1222352b5823", "is_disabled": 0, "rental_uris": {"android": "https://dc.lft.to/lastmile_qr_scan", "ios": "https://dc.lft.to/lastmile_qr_scan"}, "fusion_lon": 0.0, "lat": 38.90790483333333, "bike_id": "e2fc167e6b30e3a85dac1222352b5823", "type": "electric_scooter", "is_reserved": 0, "lon": -77.04266083333333}, {"fusion_lat": 0.0, "name": "edfa40146c3d70f1bf584ea8c70452ff", "is_disabled": 0, "rental_uris": {"android": "https://dc.lft.to/lastmile_qr_scan", "ios": "https://dc.lft.to/lastmile_qr_scan"}, "fusion_lon": 0.0, "lat": 38.97376116666667, "bike_id": "edfa40146c3d70f1bf584ea8c70452ff", "type": "electric_scooter", "is_reserved": 0, "lon": -77.012848}, {"fusion_lat": 0.0, "name": "dcdef9dda6d38d66ae7b656419838c9d", "is_disabled": 0, "rental_uris": {"android": "https://dc.lft.to/lastmile_qr_scan", "ios": "https://dc.lft.to/lastmile_qr_scan"}, "fusion_lon": 0.0, "lat": 38.924418833333334, "bike_id": "dcdef9dda6d38d66ae7b656419838c9d", "type": "electric_scooter", "is_reserved": 0, "lon": -77.044568}, {"fusion_lat": 0.0, "name": "6ae85104dcc793cccb00dc8341206721", "is_disabled": 0, "rental_uris": {"android": "https://dc.lft.to/lastmile_qr_scan", "ios": "https://dc.lft.to/lastmile_qr_scan"}, "fusion_lon": 0.0, "lat": 38.86210533333333, "bike_id": "6ae85104dcc793cccb00dc8341206721", "type": "electric_scooter", "is_reserved": 0, "lon": -76.99474983333333}, {"fusion_lat": 0.0, "name": "06ed6e96410fc7ba7c0a66d4f91f5625", "is_disabled": 0, "rental_uris": {"android": "https://dc.lft.to/lastmile_qr_scan", "ios": "https://dc.lft.to/lastmile_qr_scan"}, "fusion_lon": 0.0, "lat": 38.89712383333333, "bike_id": "06ed6e96410fc7ba7c0a66d4f91f5625", "type": "electric_scooter", "is_reserved": 0, "lon": -77.0131155}, {"fusion_lat": 0.0, "name": "10376c597227a439ac4220548e7d267b", "is_disabled": 0, "rental_uris": {"android": "https://dc.lft.to/lastmile_qr_scan", "ios": "https://dc.lft.to/lastmile_qr_scan"}, "fusion_lon": 0.0, "lat": 38.961838666666665, "bike_id": "10376c597227a439ac4220548e7d267b", "type": "electric_bike", "is_reserved": 0, "lon": -77.0527205}, {"fusion_lat": 0.0, "name": "4ddda85b79dea0e3954cf0d78ad574bc", "is_disabled": 0, "rental_uris": {"android": "https://dc.lft.to/lastmile_qr_scan", "ios": "https://dc.lft.to/lastmile_qr_scan"}, "fusion_lon": 0.0, "lat": 38.91273066666667, "bike_id": "4ddda85b79dea0e3954cf0d78ad574bc", "type": "electric_scooter", "is_reserved": 0, "lon": -77.030371}, {"fusion_lat": 0.0, "name": "0c7ff679e051e8ed6fa3558e711db336", "is_disabled": 0, "rental_uris": {"android": "https://dc.lft.to/lastmile_qr_scan", "ios": "https://dc.lft.to/lastmile_qr_scan"}, "fusion_lon": 0.0, "lat": 38.904245833333334, "bike_id": "0c7ff679e051e8ed6fa3558e711db336", "type": "electric_scooter", "is_reserved": 0, "lon": -77.0188475}, {"fusion_lat": 0.0, "name": "04d2df2fd8f92cc9057263c574dc3f11", "is_disabled": 0, "rental_uris": {"android": "https://dc.lft.to/lastmile_qr_scan", "ios": "https://dc.lft.to/lastmile_qr_scan"}, "fusion_lon": 0.0, "lat": 38.8913015, "bike_id": "04d2df2fd8f92cc9057263c574dc3f11", "type": "electric_scooter", "is_reserved": 0, "lon": -76.94382133333333}, {"fusion_lat": 0.0, "name": "1a5660edb6389cb766e8266e073219d7", "is_disabled": 0, "rental_uris": {"android": "https://dc.lft.to/lastmile_qr_scan", "ios": "https://dc.lft.to/lastmile_qr_scan"}, "fusion_lon": 0.0, "lat": 38.8875755, "bike_id": "1a5660edb6389cb766e8266e073219d7", "type": "electric_scooter", "is_reserved": 0, "lon": -76.997867}, {"fusion_lat": 0.0, "name": "35ec02ac112e780965a413cd3f84c24b", "is_disabled": 0, "rental_uris": {"android": "https://dc.lft.to/lastmile_qr_scan", "ios": "https://dc.lft.to/lastmile_qr_scan"}, "fusion_lon": 0.0, "lat": 38.900546166666665, "bike_id": "35ec02ac112e780965a413cd3f84c24b", "type": "electric_scooter", "is_reserved": 0, "lon": -77.04494083333333}, {"fusion_lat": 0.0, "name": "af08607b4cd2f22d44532cb7c52f74e9", "is_disabled": 0, "rental_uris": {"android": "https://dc.lft.to/lastmile_qr_scan", "ios": "https://dc.lft.to/lastmile_qr_scan"}, "fusion_lon": 0.0, "lat": 38.911196333333336, "bike_id": "af08607b4cd2f22d44532cb7c52f74e9", "type": "electric_scooter", "is_reserved": 0, "lon": -77.0383465}, {"fusion_lat": 0.0, "name": "99b726ab33caf9a8766a5f63fe055a1d", "is_disabled": 0, "rental_uris": {"android": "https://dc.lft.to/lastmile_qr_scan", "ios": "https://dc.lft.to/lastmile_qr_scan"}, "fusion_lon": 0.0, "lat": 38.917098, "bike_id": "99b726ab33caf9a8766a5f63fe055a1d", "type": "electric_scooter", "is_reserved": 0, "lon": -77.02747316666667}, {"fusion_lat": 0.0, "name": "d97dc9ad4b9c1aaedd80aa5cb4d3b0d3", "is_disabled": 0, "rental_uris": {"android": "https://dc.lft.to/lastmile_qr_scan", "ios": "https://dc.lft.to/lastmile_qr_scan"}, "fusion_lon": 0.0, "lat": 38.936311, "bike_id": "d97dc9ad4b9c1aaedd80aa5cb4d3b0d3", "type": "electric_scooter", "is_reserved": 0, "lon": -77.07310316666667}, {"fusion_lat": 0.0, "name": "bfe753e48f7211c769270fbf4ca4e376", "is_disabled": 0, "rental_uris": {"android": "https://dc.lft.to/lastmile_qr_scan", "ios": "https://dc.lft.to/lastmile_qr_scan"}, "fusion_lon": 0.0, "lat": 38.847567166666664, "bike_id": "bfe753e48f7211c769270fbf4ca4e376", "type": "electric_scooter", "is_reserved": 0, "lon": -76.9950105}, {"fusion_lat": 0.0, "name": "39d9b1615c81a3c5ab09c175e1513bb1", "is_disabled": 0, "rental_uris": {"android": "https://dc.lft.to/lastmile_qr_scan", "ios": "https://dc.lft.to/lastmile_qr_scan"}, "fusion_lon": 0.0, "lat": 38.9452115, "bike_id": "39d9b1615c81a3c5ab09c175e1513bb1", "type": "electric_scooter", "is_reserved": 0, "lon": -77.03894916666667}, {"fusion_lat": 0.0, "name": "8fb375d471b1771401a6c2e3241f4fea", "is_disabled": 0, "rental_uris": {"android": "https://dc.lft.to/lastmile_qr_scan", "ios": "https://dc.lft.to/lastmile_qr_scan"}, "fusion_lon": 0.0, "lat": 38.923522, "bike_id": "8fb375d471b1771401a6c2e3241f4fea", "type": "electric_scooter", "is_reserved": 0, "lon": -76.992528}, {"fusion_lat": 0.0, "name": "0b56b04925ad210fbbe1bfe48e103c19", "is_disabled": 0, "rental_uris": {"android": "https://dc.lft.to/lastmile_qr_scan", "ios": "https://dc.lft.to/lastmile_qr_scan"}, "fusion_lon": 0.0, "lat": 38.793871833333334, "bike_id": "0b56b04925ad210fbbe1bfe48e103c19", "type": "electric_bike", "is_reserved": 0, "lon": -77.04925716666666}, {"fusion_lat": 0.0, "name": "0b5f815fa520ec1c7daa09858a991ff5", "is_disabled": 0, "rental_uris": {"android": "https://dc.lft.to/lastmile_qr_scan", "ios": "https://dc.lft.to/lastmile_qr_scan"}, "fusion_lon": 0.0, "lat": 38.901619833333335, "bike_id": "0b5f815fa520ec1c7daa09858a991ff5", "type": "electric_scooter", "is_reserved": 0, "lon": -76.9926105}, {"fusion_lat": 0.0, "name": "1da827e9b00ab1e7367812d8b179e03b", "is_disabled": 0, "rental_uris": {"android": "https://dc.lft.to/lastmile_qr_scan", "ios": "https://dc.lft.to/lastmile_qr_scan"}, "fusion_lon": 0.0, "lat": 38.894511333333334, "bike_id": "1da827e9b00ab1e7367812d8b179e03b", "type": "electric_scooter", "is_reserved": 0, "lon": -77.04546316666666}, {"fusion_lat": 0.0, "name": "b2a989de0304cbc1ea724a8d0eee85ba", "is_disabled": 0, "rental_uris": {"android": "https://dc.lft.to/lastmile_qr_scan", "ios": "https://dc.lft.to/lastmile_qr_scan"}, "fusion_lon": 0.0, "lat": 38.89729283333333, "bike_id": "b2a989de0304cbc1ea724a8d0eee85ba", "type": "electric_scooter", "is_reserved": 0, "lon": -76.94703116666666}, {"fusion_lat": 0.0, "name": "33a766d2c5968a48763f821ee3827855", "is_disabled": 0, "rental_uris": {"android": "https://dc.lft.to/lastmile_qr_scan", "ios": "https://dc.lft.to/lastmile_qr_scan"}, "fusion_lon": 0.0, "lat": 38.90089566666666, "bike_id": "33a766d2c5968a48763f821ee3827855", "type": "electric_bike", "is_reserved": 0, "lon": -77.04920066666666}, {"fusion_lat": 0.0, "name": "b1fa3c54ff58937097113e0dcc3334c8", "is_disabled": 0, "rental_uris": {"android": "https://dc.lft.to/lastmile_qr_scan", "ios": "https://dc.lft.to/lastmile_qr_scan"}, "fusion_lon": 0.0, "lat": 38.90855583333333, "bike_id": "b1fa3c54ff58937097113e0dcc3334c8", "type": "electric_scooter", "is_reserved": 0, "lon": -77.0638655}, {"fusion_lat": 0.0, "name": "1cfb97cf5dc02b91fd25255f0af22431", "is_disabled": 0, "rental_uris": {"android": "https://dc.lft.to/lastmile_qr_scan", "ios": "https://dc.lft.to/lastmile_qr_scan"}, "fusion_lon": 0.0, "lat": 38.960673166666666, "bike_id": "1cfb97cf5dc02b91fd25255f0af22431", "type": "electric_scooter", "is_reserved": 0, "lon": -77.00102083333333}, {"fusion_lat": 0.0, "name": "34b8d0421bc76a429655d3648824838f", "is_disabled": 0, "rental_uris": {"android": "https://dc.lft.to/lastmile_qr_scan", "ios": "https://dc.lft.to/lastmile_qr_scan"}, "fusion_lon": 0.0, "lat": 38.906668833333335, "bike_id": "34b8d0421bc76a429655d3648824838f", "type": "electric_scooter", "is_reserved": 0, "lon": -77.0711795}, {"fusion_lat": 0.0, "name": "8f3d58210f68e50ded267e81ea838cce", "is_disabled": 0, "rental_uris": {"android": "https://dc.lft.to/lastmile_qr_scan", "ios": "https://dc.lft.to/lastmile_qr_scan"}, "fusion_lon": 0.0, "lat": 38.90699033333333, "bike_id": "8f3d58210f68e50ded267e81ea838cce", "type": "electric_scooter", "is_reserved": 0, "lon": -77.03770033333333}, {"fusion_lat": 0.0, "name": "2ab34ce3794024639cc0e62d0dda12f3", "is_disabled": 0, "rental_uris": {"android": "https://dc.lft.to/lastmile_qr_scan", "ios": "https://dc.lft.to/lastmile_qr_scan"}, "fusion_lon": 0.0, "lat": 38.91319283333333, "bike_id": "2ab34ce3794024639cc0e62d0dda12f3", "type": "electric_scooter", "is_reserved": 0, "lon": -77.04721383333333}, {"fusion_lat": 0.0, "name": "493a661a74c14f6a94e6d0c9cb4be586", "is_disabled": 0, "rental_uris": {"android": "https://dc.lft.to/lastmile_qr_scan", "ios": "https://dc.lft.to/lastmile_qr_scan"}, "fusion_lon": 0.0, "lat": 38.9171605, "bike_id": "493a661a74c14f6a94e6d0c9cb4be586", "type": "electric_scooter", "is_reserved": 0, "lon": -76.96872916666666}, {"fusion_lat": 0.0, "name": "102a10070cabbd7f38f445fc61149999", "is_disabled": 0, "rental_uris": {"android": "https://dc.lft.to/lastmile_qr_scan", "ios": "https://dc.lft.to/lastmile_qr_scan"}, "fusion_lon": 0.0, "lat": 38.88223, "bike_id": "102a10070cabbd7f38f445fc61149999", "type": "electric_scooter", "is_reserved": 0, "lon": -77.02941366666667}, {"fusion_lat": 0.0, "name": "385f7e564ecd16fbbf28df2f4ec46b39", "is_disabled": 0, "rental_uris": {"android": "https://dc.lft.to/lastmile_qr_scan", "ios": "https://dc.lft.to/lastmile_qr_scan"}, "fusion_lon": 0.0, "lat": 38.89308183333333, "bike_id": "385f7e564ecd16fbbf28df2f4ec46b39", "type": "electric_scooter", "is_reserved": 0, "lon": -77.01234866666667}, {"fusion_lat": 0.0, "name": "64a1932739f15205e8c699565891464e", "is_disabled": 0, "rental_uris": {"android": "https://dc.lft.to/lastmile_qr_scan", "ios": "https://dc.lft.to/lastmile_qr_scan"}, "fusion_lon": 0.0, "lat": 38.9050085, "bike_id": "64a1932739f15205e8c699565891464e", "type": "electric_scooter", "is_reserved": 0, "lon": -77.02951716666666}, {"fusion_lat": 0.0, "name": "511951636f570ac494df34fe8806526d", "is_disabled": 0, "rental_uris": {"android": "https://dc.lft.to/lastmile_qr_scan", "ios": "https://dc.lft.to/lastmile_qr_scan"}, "fusion_lon": 0.0, "lat": 38.900374666666664, "bike_id": "511951636f570ac494df34fe8806526d", "type": "electric_scooter", "is_reserved": 0, "lon": -77.0319795}, {"fusion_lat": 0.0, "name": "c1e09210b9b7a0402abe91f4c28c3bbd", "is_disabled": 0, "rental_uris": {"android": "https://dc.lft.to/lastmile_qr_scan", "ios": "https://dc.lft.to/lastmile_qr_scan"}, "fusion_lon": 0.0, "lat": 38.88488983333333, "bike_id": "c1e09210b9b7a0402abe91f4c28c3bbd", "type": "electric_scooter", "is_reserved": 0, "lon": -77.0072235}, {"fusion_lat": 0.0, "name": "15e426c03e04078544152a95be0576f8", "is_disabled": 0, "rental_uris": {"android": "https://dc.lft.to/lastmile_qr_scan", "ios": "https://dc.lft.to/lastmile_qr_scan"}, "fusion_lon": 0.0, "lat": 38.899945, "bike_id": "15e426c03e04078544152a95be0576f8", "type": "electric_scooter", "is_reserved": 0, "lon": -76.99014583333333}, {"fusion_lat": 0.0, "name": "6caded6204d2399df6ad3683b996c626", "is_disabled": 0, "rental_uris": {"android": "https://dc.lft.to/lastmile_qr_scan", "ios": "https://dc.lft.to/lastmile_qr_scan"}, "fusion_lon": 0.0, "lat": 38.901627, "bike_id": "6caded6204d2399df6ad3683b996c626", "type": "electric_scooter", "is_reserved": 0, "lon": -77.02297283333333}, {"fusion_lat": 0.0, "name": "78464ec83917997d0565410023fd9ecf", "is_disabled": 0, "rental_uris": {"android": "https://dc.lft.to/lastmile_qr_scan", "ios": "https://dc.lft.to/lastmile_qr_scan"}, "fusion_lon": 0.0, "lat": 38.96488316666667, "bike_id": "78464ec83917997d0565410023fd9ecf", "type": "electric_bike", "is_reserved": 0, "lon": -77.02213516666667}, {"fusion_lat": 0.0, "name": "0115dbcd2361d4203ea002b191c66239", "is_disabled": 0, "rental_uris": {"android": "https://dc.lft.to/lastmile_qr_scan", "ios": "https://dc.lft.to/lastmile_qr_scan"}, "fusion_lon": 0.0, "lat": 38.9242675, "bike_id": "0115dbcd2361d4203ea002b191c66239", "type": "electric_scooter", "is_reserved": 0, "lon": -77.02718216666666}, {"fusion_lat": 0.0, "name": "47691f0bedec36db47e6033472bb97f0", "is_disabled": 0, "rental_uris": {"android": "https://dc.lft.to/lastmile_qr_scan", "ios": "https://dc.lft.to/lastmile_qr_scan"}, "fusion_lon": 0.0, "lat": 38.89876316666667, "bike_id": "47691f0bedec36db47e6033472bb97f0", "type": "electric_scooter", "is_reserved": 0, "lon": -76.931861}, {"fusion_lat": 0.0, "name": "9ba063dff71c38d081f0c28df6fa7641", "is_disabled": 0, "rental_uris": {"android": "https://dc.lft.to/lastmile_qr_scan", "ios": "https://dc.lft.to/lastmile_qr_scan"}, "fusion_lon": 0.0, "lat": 38.91880833333333, "bike_id": "9ba063dff71c38d081f0c28df6fa7641", "type": "electric_scooter", "is_reserved": 0, "lon": -77.023009}, {"fusion_lat": 0.0, "name": "d0dde5b4b1df1f3bc5d394cc79828aa9", "is_disabled": 0, "rental_uris": {"android": "https://dc.lft.to/lastmile_qr_scan", "ios": "https://dc.lft.to/lastmile_qr_scan"}, "fusion_lon": 0.0, "lat": 38.909777, "bike_id": "d0dde5b4b1df1f3bc5d394cc79828aa9", "type": "electric_scooter", "is_reserved": 0, "lon": -77.032072}, {"fusion_lat": 0.0, "name": "9bf76e9683f49f34619194bdd8bdee6e", "is_disabled": 0, "rental_uris": {"android": "https://dc.lft.to/lastmile_qr_scan", "ios": "https://dc.lft.to/lastmile_qr_scan"}, "fusion_lon": 0.0, "lat": 38.92459433333333, "bike_id": "9bf76e9683f49f34619194bdd8bdee6e", "type": "electric_scooter", "is_reserved": 0, "lon": -77.02021116666667}, {"fusion_lat": 0.0, "name": "875ee20261ef3f41026b8318d6664d6c", "is_disabled": 0, "rental_uris": {"android": "https://dc.lft.to/lastmile_qr_scan", "ios": "https://dc.lft.to/lastmile_qr_scan"}, "fusion_lon": 0.0, "lat": 38.8781395, "bike_id": "875ee20261ef3f41026b8318d6664d6c", "type": "electric_scooter", "is_reserved": 0, "lon": -77.01326566666667}, {"fusion_lat": 0.0, "name": "440c23f6fd73cb7d72453c6147e43b5f", "is_disabled": 0, "rental_uris": {"android": "https://dc.lft.to/lastmile_qr_scan", "ios": "https://dc.lft.to/lastmile_qr_scan"}, "fusion_lon": 0.0, "lat": 38.8770555, "bike_id": "440c23f6fd73cb7d72453c6147e43b5f", "type": "electric_scooter", "is_reserved": 0, "lon": -77.007466}, {"fusion_lat": 0.0, "name": "85b5861fca36a7915239e4d9e8bc5de8", "is_disabled": 0, "rental_uris": {"android": "https://dc.lft.to/lastmile_qr_scan", "ios": "https://dc.lft.to/lastmile_qr_scan"}, "fusion_lon": 0.0, "lat": 38.882313, "bike_id": "85b5861fca36a7915239e4d9e8bc5de8", "type": "electric_scooter", "is_reserved": 0, "lon": -77.02619233333333}, {"fusion_lat": 0.0, "name": "415bb5206c649ed673d8eaeb7e66aecf", "is_disabled": 0, "rental_uris": {"android": "https://dc.lft.to/lastmile_qr_scan", "ios": "https://dc.lft.to/lastmile_qr_scan"}, "fusion_lon": 0.0, "lat": 38.9238635, "bike_id": "415bb5206c649ed673d8eaeb7e66aecf", "type": "electric_scooter", "is_reserved": 0, "lon": -77.04310933333333}, {"fusion_lat": 0.0, "name": "fe37a48302d816e8d6f4f645c976e6d2", "is_disabled": 0, "rental_uris": {"android": "https://dc.lft.to/lastmile_qr_scan", "ios": "https://dc.lft.to/lastmile_qr_scan"}, "fusion_lon": 0.0, "lat": 38.903107, "bike_id": "fe37a48302d816e8d6f4f645c976e6d2", "type": "electric_scooter", "is_reserved": 0, "lon": -76.978109}, {"fusion_lat": 0.0, "name": "b2b5489f5c1de3b2855022559e8e7036", "is_disabled": 0, "rental_uris": {"android": "https://dc.lft.to/lastmile_qr_scan", "ios": "https://dc.lft.to/lastmile_qr_scan"}, "fusion_lon": 0.0, "lat": 38.90418566666666, "bike_id": "b2b5489f5c1de3b2855022559e8e7036", "type": "electric_scooter", "is_reserved": 0, "lon": -77.0513205}, {"fusion_lat": 0.0, "name": "7cb14b63cd97d08bce014ced1ecc3aff", "is_disabled": 0, "rental_uris": {"android": "https://dc.lft.to/lastmile_qr_scan", "ios": "https://dc.lft.to/lastmile_qr_scan"}, "fusion_lon": 0.0, "lat": 38.9002315, "bike_id": "7cb14b63cd97d08bce014ced1ecc3aff", "type": "electric_scooter", "is_reserved": 0, "lon": -77.01180083333334}, {"fusion_lat": 0.0, "name": "70e0e3c4c50bcaf4ee4c70f2b359b211", "is_disabled": 0, "rental_uris": {"android": "https://dc.lft.to/lastmile_qr_scan", "ios": "https://dc.lft.to/lastmile_qr_scan"}, "fusion_lon": 0.0, "lat": 38.91336233333333, "bike_id": "70e0e3c4c50bcaf4ee4c70f2b359b211", "type": "electric_scooter", "is_reserved": 0, "lon": -77.0454575}, {"fusion_lat": 0.0, "name": "de7f2bcbbf073d7f2a4578c5c96e66a4", "is_disabled": 0, "rental_uris": {"android": "https://dc.lft.to/lastmile_qr_scan", "ios": "https://dc.lft.to/lastmile_qr_scan"}, "fusion_lon": 0.0, "lat": 38.9057175, "bike_id": "de7f2bcbbf073d7f2a4578c5c96e66a4", "type": "electric_scooter", "is_reserved": 0, "lon": -77.03116183333333}, {"fusion_lat": 0.0, "name": "ec86549ae3b7187b06081dc12ba12945", "is_disabled": 0, "rental_uris": {"android": "https://dc.lft.to/lastmile_qr_scan", "ios": "https://dc.lft.to/lastmile_qr_scan"}, "fusion_lon": 0.0, "lat": 38.894479, "bike_id": "ec86549ae3b7187b06081dc12ba12945", "type": "electric_scooter", "is_reserved": 0, "lon": -77.04546333333333}, {"fusion_lat": 0.0, "name": "e7dc04533b8fecd7989f124c28160886", "is_disabled": 0, "rental_uris": {"android": "https://dc.lft.to/lastmile_qr_scan", "ios": "https://dc.lft.to/lastmile_qr_scan"}, "fusion_lon": 0.0, "lat": 38.87766333333333, "bike_id": "e7dc04533b8fecd7989f124c28160886", "type": "electric_scooter", "is_reserved": 0, "lon": -77.005563}, {"fusion_lat": 0.0, "name": "6cd96ca13ab67fa883c639cfba284442", "is_disabled": 0, "rental_uris": {"android": "https://dc.lft.to/lastmile_qr_scan", "ios": "https://dc.lft.to/lastmile_qr_scan"}, "fusion_lon": 0.0, "lat": 38.88189533333333, "bike_id": "6cd96ca13ab67fa883c639cfba284442", "type": "electric_scooter", "is_reserved": 0, "lon": -77.00355183333333}, {"fusion_lat": 0.0, "name": "3e6d982c0dc38f5e0b827d8e99484f66", "is_disabled": 0, "rental_uris": {"android": "https://dc.lft.to/lastmile_qr_scan", "ios": "https://dc.lft.to/lastmile_qr_scan"}, "fusion_lon": 0.0, "lat": 38.939293666666664, "bike_id": "3e6d982c0dc38f5e0b827d8e99484f66", "type": "electric_scooter", "is_reserved": 0, "lon": -77.07479616666667}, {"fusion_lat": 0.0, "name": "896abe631f9024a7349711f5e2ee7631", "is_disabled": 0, "rental_uris": {"android": "https://dc.lft.to/lastmile_qr_scan", "ios": "https://dc.lft.to/lastmile_qr_scan"}, "fusion_lon": 0.0, "lat": 38.902296666666665, "bike_id": "896abe631f9024a7349711f5e2ee7631", "type": "electric_scooter", "is_reserved": 0, "lon": -77.0166885}, {"fusion_lat": 0.0, "name": "f8b8986cf55260ff93e0c4b723355074", "is_disabled": 0, "rental_uris": {"android": "https://dc.lft.to/lastmile_qr_scan", "ios": "https://dc.lft.to/lastmile_qr_scan"}, "fusion_lon": 0.0, "lat": 38.92333166666667, "bike_id": "f8b8986cf55260ff93e0c4b723355074", "type": "electric_scooter", "is_reserved": 0, "lon": -77.025558}, {"fusion_lat": 0.0, "name": "430f02a111c05bbb46ba2bcd0c6b221b", "is_disabled": 0, "rental_uris": {"android": "https://dc.lft.to/lastmile_qr_scan", "ios": "https://dc.lft.to/lastmile_qr_scan"}, "fusion_lon": 0.0, "lat": 38.802927333333336, "bike_id": "430f02a111c05bbb46ba2bcd0c6b221b", "type": "electric_bike", "is_reserved": 0, "lon": -77.059425}, {"fusion_lat": 0.0, "name": "24ff4763d0a070fa2c60f4bb4a7ce3f7", "is_disabled": 0, "rental_uris": {"android": "https://dc.lft.to/lastmile_qr_scan", "ios": "https://dc.lft.to/lastmile_qr_scan"}, "fusion_lon": 0.0, "lat": 38.88549233333333, "bike_id": "24ff4763d0a070fa2c60f4bb4a7ce3f7", "type": "electric_scooter", "is_reserved": 0, "lon": -76.996268}, {"fusion_lat": 0.0, "name": "5f9918650c2dee5c51c1aecc394177ac", "is_disabled": 0, "rental_uris": {"android": "https://dc.lft.to/lastmile_qr_scan", "ios": "https://dc.lft.to/lastmile_qr_scan"}, "fusion_lon": 0.0, "lat": 38.923808, "bike_id": "5f9918650c2dee5c51c1aecc394177ac", "type": "electric_scooter", "is_reserved": 0, "lon": -77.044713}, {"fusion_lat": 0.0, "name": "621589bbe2d5b2d043df8b34980b6275", "is_disabled": 0, "rental_uris": {"android": "https://dc.lft.to/lastmile_qr_scan", "ios": "https://dc.lft.to/lastmile_qr_scan"}, "fusion_lon": 0.0, "lat": 38.9491995, "bike_id": "621589bbe2d5b2d043df8b34980b6275", "type": "electric_scooter", "is_reserved": 0, "lon": -77.01854216666666}, {"fusion_lat": 0.0, "name": "810bec1bdb105aed3266552772535148", "is_disabled": 0, "rental_uris": {"android": "https://dc.lft.to/lastmile_qr_scan", "ios": "https://dc.lft.to/lastmile_qr_scan"}, "fusion_lon": 0.0, "lat": 38.881225666666666, "bike_id": "810bec1bdb105aed3266552772535148", "type": "electric_scooter", "is_reserved": 0, "lon": -76.995172}, {"fusion_lat": 0.0, "name": "8176a2910a226da390c867f526816355", "is_disabled": 0, "rental_uris": {"android": "https://dc.lft.to/lastmile_qr_scan", "ios": "https://dc.lft.to/lastmile_qr_scan"}, "fusion_lon": 0.0, "lat": 38.91620866666667, "bike_id": "8176a2910a226da390c867f526816355", "type": "electric_scooter", "is_reserved": 0, "lon": -77.038611}, {"fusion_lat": 0.0, "name": "54d78331ab7a60104fd94151f114fb3a", "is_disabled": 0, "rental_uris": {"android": "https://dc.lft.to/lastmile_qr_scan", "ios": "https://dc.lft.to/lastmile_qr_scan"}, "fusion_lon": 0.0, "lat": 38.91920966666667, "bike_id": "54d78331ab7a60104fd94151f114fb3a", "type": "electric_scooter", "is_reserved": 0, "lon": -77.0317935}, {"fusion_lat": 0.0, "name": "32ca23068d44a342fdddefed259d3d77", "is_disabled": 0, "rental_uris": {"android": "https://dc.lft.to/lastmile_qr_scan", "ios": "https://dc.lft.to/lastmile_qr_scan"}, "fusion_lon": 0.0, "lat": 38.930533, "bike_id": "32ca23068d44a342fdddefed259d3d77", "type": "electric_scooter", "is_reserved": 0, "lon": -77.0336855}, {"fusion_lat": 0.0, "name": "e32daaa0f177d957ea2d473a3c1cf44a", "is_disabled": 0, "rental_uris": {"android": "https://dc.lft.to/lastmile_qr_scan", "ios": "https://dc.lft.to/lastmile_qr_scan"}, "fusion_lon": 0.0, "lat": 38.90563916666667, "bike_id": "e32daaa0f177d957ea2d473a3c1cf44a", "type": "electric_scooter", "is_reserved": 0, "lon": -76.98144316666666}, {"fusion_lat": 0.0, "name": "1e2c4510a03672d90073741d18c9016d", "is_disabled": 0, "rental_uris": {"android": "https://dc.lft.to/lastmile_qr_scan", "ios": "https://dc.lft.to/lastmile_qr_scan"}, "fusion_lon": 0.0, "lat": 38.91925033333333, "bike_id": "1e2c4510a03672d90073741d18c9016d", "type": "electric_scooter", "is_reserved": 0, "lon": -77.03118733333334}, {"fusion_lat": 0.0, "name": "3b3f91a001eeb5e3f3a153a2e73cbf32", "is_disabled": 0, "rental_uris": {"android": "https://dc.lft.to/lastmile_qr_scan", "ios": "https://dc.lft.to/lastmile_qr_scan"}, "fusion_lon": 0.0, "lat": 38.9165085, "bike_id": "3b3f91a001eeb5e3f3a153a2e73cbf32", "type": "electric_scooter", "is_reserved": 0, "lon": -77.00951016666667}, {"fusion_lat": 0.0, "name": "e66fa0e30b4472a1ecd418cc04a32b04", "is_disabled": 0, "rental_uris": {"android": "https://dc.lft.to/lastmile_qr_scan", "ios": "https://dc.lft.to/lastmile_qr_scan"}, "fusion_lon": 0.0, "lat": 38.88624466666667, "bike_id": "e66fa0e30b4472a1ecd418cc04a32b04", "type": "electric_scooter", "is_reserved": 0, "lon": -77.01811566666667}, {"fusion_lat": 0.0, "name": "dabf29e49db3f42a5926c2f5c0b2c27d", "is_disabled": 0, "rental_uris": {"android": "https://dc.lft.to/lastmile_qr_scan", "ios": "https://dc.lft.to/lastmile_qr_scan"}, "fusion_lon": 0.0, "lat": 38.92334666666667, "bike_id": "dabf29e49db3f42a5926c2f5c0b2c27d", "type": "electric_scooter", "is_reserved": 0, "lon": -77.04195983333334}, {"fusion_lat": 0.0, "name": "b2a95a1d7d59a362a15673c028b62301", "is_disabled": 0, "rental_uris": {"android": "https://dc.lft.to/lastmile_qr_scan", "ios": "https://dc.lft.to/lastmile_qr_scan"}, "fusion_lon": 0.0, "lat": 38.8860375, "bike_id": "b2a95a1d7d59a362a15673c028b62301", "type": "electric_scooter", "is_reserved": 0, "lon": -77.04509316666666}, {"fusion_lat": 0.0, "name": "cf9b6962af15afb2a5b50638efcb9ae8", "is_disabled": 0, "rental_uris": {"android": "https://dc.lft.to/lastmile_qr_scan", "ios": "https://dc.lft.to/lastmile_qr_scan"}, "fusion_lon": 0.0, "lat": 38.900366166666664, "bike_id": "cf9b6962af15afb2a5b50638efcb9ae8", "type": "electric_scooter", "is_reserved": 0, "lon": -77.00196483333333}, {"fusion_lat": 0.0, "name": "b665b63329063fbd054325bead307064", "is_disabled": 0, "rental_uris": {"android": "https://dc.lft.to/lastmile_qr_scan", "ios": "https://dc.lft.to/lastmile_qr_scan"}, "fusion_lon": 0.0, "lat": 38.869604833333334, "bike_id": "b665b63329063fbd054325bead307064", "type": "electric_scooter", "is_reserved": 0, "lon": -77.01375383333334}, {"fusion_lat": 0.0, "name": "fee44bf67b9d709bffdff993e6763b77", "is_disabled": 0, "rental_uris": {"android": "https://dc.lft.to/lastmile_qr_scan", "ios": "https://dc.lft.to/lastmile_qr_scan"}, "fusion_lon": 0.0, "lat": 38.909692666666665, "bike_id": "fee44bf67b9d709bffdff993e6763b77", "type": "electric_scooter", "is_reserved": 0, "lon": -77.0314735}, {"fusion_lat": 0.0, "name": "f66f2e5e55774fe5036874ad52dbbd28", "is_disabled": 0, "rental_uris": {"android": "https://dc.lft.to/lastmile_qr_scan", "ios": "https://dc.lft.to/lastmile_qr_scan"}, "fusion_lon": 0.0, "lat": 38.86514866666667, "bike_id": "f66f2e5e55774fe5036874ad52dbbd28", "type": "electric_bike", "is_reserved": 0, "lon": -77.129393}, {"fusion_lat": 0.0, "name": "f48a3664d8e38a3a5f8487d7f8c41254", "is_disabled": 0, "rental_uris": {"android": "https://dc.lft.to/lastmile_qr_scan", "ios": "https://dc.lft.to/lastmile_qr_scan"}, "fusion_lon": 0.0, "lat": 38.91807333333333, "bike_id": "f48a3664d8e38a3a5f8487d7f8c41254", "type": "electric_scooter", "is_reserved": 0, "lon": -77.03311}, {"fusion_lat": 0.0, "name": "9366562e76913940134ac71a7eacfafb", "is_disabled": 0, "rental_uris": {"android": "https://dc.lft.to/lastmile_qr_scan", "ios": "https://dc.lft.to/lastmile_qr_scan"}, "fusion_lon": 0.0, "lat": 38.87966, "bike_id": "9366562e76913940134ac71a7eacfafb", "type": "electric_bike", "is_reserved": 0, "lon": -76.91619466666667}, {"fusion_lat": 0.0, "name": "734b76b59db6789bc6d904c5d0a6de21", "is_disabled": 0, "rental_uris": {"android": "https://dc.lft.to/lastmile_qr_scan", "ios": "https://dc.lft.to/lastmile_qr_scan"}, "fusion_lon": 0.0, "lat": 38.9242, "bike_id": "734b76b59db6789bc6d904c5d0a6de21", "type": "electric_scooter", "is_reserved": 0, "lon": -77.01961}, {"fusion_lat": 0.0, "name": "07800e87eecc90c150c00c5893779188", "is_disabled": 0, "rental_uris": {"android": "https://dc.lft.to/lastmile_qr_scan", "ios": "https://dc.lft.to/lastmile_qr_scan"}, "fusion_lon": 0.0, "lat": 38.915525, "bike_id": "07800e87eecc90c150c00c5893779188", "type": "electric_scooter", "is_reserved": 0, "lon": -77.03175483333334}, {"fusion_lat": 0.0, "name": "a81da14d30a24a51806cedbd886eba2c", "is_disabled": 0, "rental_uris": {"android": "https://dc.lft.to/lastmile_qr_scan", "ios": "https://dc.lft.to/lastmile_qr_scan"}, "fusion_lon": 0.0, "lat": 38.900264666666665, "bike_id": "a81da14d30a24a51806cedbd886eba2c", "type": "electric_scooter", "is_reserved": 0, "lon": -76.9945705}, {"fusion_lat": 0.0, "name": "823976f34fdaeeb78c9a2350e39dd89f", "is_disabled": 0, "rental_uris": {"android": "https://dc.lft.to/lastmile_qr_scan", "ios": "https://dc.lft.to/lastmile_qr_scan"}, "fusion_lon": 0.0, "lat": 38.921105, "bike_id": "823976f34fdaeeb78c9a2350e39dd89f", "type": "electric_scooter", "is_reserved": 0, "lon": -77.04213416666667}, {"fusion_lat": 0.0, "name": "b9b8009151714afc231f3ba3a833d6b1", "is_disabled": 0, "rental_uris": {"android": "https://dc.lft.to/lastmile_qr_scan", "ios": "https://dc.lft.to/lastmile_qr_scan"}, "fusion_lon": 0.0, "lat": 38.911197666666666, "bike_id": "b9b8009151714afc231f3ba3a833d6b1", "type": "electric_scooter", "is_reserved": 0, "lon": -77.03283633333334}, {"fusion_lat": 0.0, "name": "c4fc66db709e5d3f40c3aeace96667b3", "is_disabled": 0, "rental_uris": {"android": "https://dc.lft.to/lastmile_qr_scan", "ios": "https://dc.lft.to/lastmile_qr_scan"}, "fusion_lon": 0.0, "lat": 38.93882633333333, "bike_id": "c4fc66db709e5d3f40c3aeace96667b3", "type": "electric_scooter", "is_reserved": 0, "lon": -77.032855}, {"fusion_lat": 0.0, "name": "448b4cc1595ad70113f2d69e24867c01", "is_disabled": 0, "rental_uris": {"android": "https://dc.lft.to/lastmile_qr_scan", "ios": "https://dc.lft.to/lastmile_qr_scan"}, "fusion_lon": 0.0, "lat": 38.913218666666666, "bike_id": "448b4cc1595ad70113f2d69e24867c01", "type": "electric_scooter", "is_reserved": 0, "lon": -77.0213745}, {"fusion_lat": 0.0, "name": "fd45fc494e9142a547933654cd59f844", "is_disabled": 0, "rental_uris": {"android": "https://dc.lft.to/lastmile_qr_scan", "ios": "https://dc.lft.to/lastmile_qr_scan"}, "fusion_lon": 0.0, "lat": 38.928067666666664, "bike_id": "fd45fc494e9142a547933654cd59f844", "type": "electric_scooter", "is_reserved": 0, "lon": -77.036105}, {"fusion_lat": 0.0, "name": "90251be1bcdd1419d87c636065f4b2ca", "is_disabled": 0, "rental_uris": {"android": "https://dc.lft.to/lastmile_qr_scan", "ios": "https://dc.lft.to/lastmile_qr_scan"}, "fusion_lon": 0.0, "lat": 38.915493, "bike_id": "90251be1bcdd1419d87c636065f4b2ca", "type": "electric_scooter", "is_reserved": 0, "lon": -77.03228683333333}, {"fusion_lat": 0.0, "name": "dc6d0ae58a9ffb708f3035fa1fab8ebf", "is_disabled": 0, "rental_uris": {"android": "https://dc.lft.to/lastmile_qr_scan", "ios": "https://dc.lft.to/lastmile_qr_scan"}, "fusion_lon": 0.0, "lat": 38.879482833333334, "bike_id": "dc6d0ae58a9ffb708f3035fa1fab8ebf", "type": "electric_scooter", "is_reserved": 0, "lon": -77.0084455}, {"fusion_lat": 0.0, "name": "bf40a14cab9ff403f9d972cdc5d94d73", "is_disabled": 0, "rental_uris": {"android": "https://dc.lft.to/lastmile_qr_scan", "ios": "https://dc.lft.to/lastmile_qr_scan"}, "fusion_lon": 0.0, "lat": 38.919938, "bike_id": "bf40a14cab9ff403f9d972cdc5d94d73", "type": "electric_scooter", "is_reserved": 0, "lon": -77.01708583333334}, {"fusion_lat": 0.0, "name": "166fd6050fc87ae9512a3842abca2e50", "is_disabled": 0, "rental_uris": {"android": "https://dc.lft.to/lastmile_qr_scan", "ios": "https://dc.lft.to/lastmile_qr_scan"}, "fusion_lon": 0.0, "lat": 38.91814733333333, "bike_id": "166fd6050fc87ae9512a3842abca2e50", "type": "electric_scooter", "is_reserved": 0, "lon": -77.03936966666667}, {"fusion_lat": 0.0, "name": "e4319254b663b010bedffa09f7294789", "is_disabled": 0, "rental_uris": {"android": "https://dc.lft.to/lastmile_qr_scan", "ios": "https://dc.lft.to/lastmile_qr_scan"}, "fusion_lon": 0.0, "lat": 38.90610083333333, "bike_id": "e4319254b663b010bedffa09f7294789", "type": "electric_scooter", "is_reserved": 0, "lon": -77.04132166666666}, {"fusion_lat": 0.0, "name": "c71011c5bb4e6df66b82904ef0becb72", "is_disabled": 0, "rental_uris": {"android": "https://dc.lft.to/lastmile_qr_scan", "ios": "https://dc.lft.to/lastmile_qr_scan"}, "fusion_lon": 0.0, "lat": 38.9623535, "bike_id": "c71011c5bb4e6df66b82904ef0becb72", "type": "electric_bike", "is_reserved": 0, "lon": -76.9280575}, {"fusion_lat": 0.0, "name": "e947e8ae466260bf4c9ca8225fdd7102", "is_disabled": 0, "rental_uris": {"android": "https://dc.lft.to/lastmile_qr_scan", "ios": "https://dc.lft.to/lastmile_qr_scan"}, "fusion_lon": 0.0, "lat": 38.9130885, "bike_id": "e947e8ae466260bf4c9ca8225fdd7102", "type": "electric_scooter", "is_reserved": 0, "lon": -77.0458395}, {"fusion_lat": 0.0, "name": "d7277ec119be44d6409bd443f6d34f0f", "is_disabled": 0, "rental_uris": {"android": "https://dc.lft.to/lastmile_qr_scan", "ios": "https://dc.lft.to/lastmile_qr_scan"}, "fusion_lon": 0.0, "lat": 38.90661633333333, "bike_id": "d7277ec119be44d6409bd443f6d34f0f", "type": "electric_scooter", "is_reserved": 0, "lon": -77.009333}, {"fusion_lat": 0.0, "name": "dd1c807b9272f79aa0529356680d5d06", "is_disabled": 0, "rental_uris": {"android": "https://dc.lft.to/lastmile_qr_scan", "ios": "https://dc.lft.to/lastmile_qr_scan"}, "fusion_lon": 0.0, "lat": 38.916065833333334, "bike_id": "dd1c807b9272f79aa0529356680d5d06", "type": "electric_scooter", "is_reserved": 0, "lon": -77.0217475}, {"fusion_lat": 0.0, "name": "fa36af5bd279b33804ab048bed24d379", "is_disabled": 0, "rental_uris": {"android": "https://dc.lft.to/lastmile_qr_scan", "ios": "https://dc.lft.to/lastmile_qr_scan"}, "fusion_lon": 0.0, "lat": 38.90614166666667, "bike_id": "fa36af5bd279b33804ab048bed24d379", "type": "electric_scooter", "is_reserved": 0, "lon": -77.02684633333334}, {"fusion_lat": 0.0, "name": "9d30e01eb986662f2c213075871cc386", "is_disabled": 0, "rental_uris": {"android": "https://dc.lft.to/lastmile_qr_scan", "ios": "https://dc.lft.to/lastmile_qr_scan"}, "fusion_lon": 0.0, "lat": 38.906513833333335, "bike_id": "9d30e01eb986662f2c213075871cc386", "type": "electric_scooter", "is_reserved": 0, "lon": -77.02418083333333}, {"fusion_lat": 0.0, "name": "400bc0d8f1ac24f97b067c21ae33544c", "is_disabled": 0, "rental_uris": {"android": "https://dc.lft.to/lastmile_qr_scan", "ios": "https://dc.lft.to/lastmile_qr_scan"}, "fusion_lon": 0.0, "lat": 38.9247885, "bike_id": "400bc0d8f1ac24f97b067c21ae33544c", "type": "electric_scooter", "is_reserved": 0, "lon": -77.02652333333333}, {"fusion_lat": 0.0, "name": "ba7c3f4531415591dd3bf09d7f20d702", "is_disabled": 0, "rental_uris": {"android": "https://dc.lft.to/lastmile_qr_scan", "ios": "https://dc.lft.to/lastmile_qr_scan"}, "fusion_lon": 0.0, "lat": 38.959530666666666, "bike_id": "ba7c3f4531415591dd3bf09d7f20d702", "type": "electric_scooter", "is_reserved": 0, "lon": -77.00894683333334}, {"fusion_lat": 0.0, "name": "c00b7a3053bfccef93bd64f5e17a227b", "is_disabled": 0, "rental_uris": {"android": "https://dc.lft.to/lastmile_qr_scan", "ios": "https://dc.lft.to/lastmile_qr_scan"}, "fusion_lon": 0.0, "lat": 38.93453133333333, "bike_id": "c00b7a3053bfccef93bd64f5e17a227b", "type": "electric_scooter", "is_reserved": 0, "lon": -77.03866566666666}, {"fusion_lat": 0.0, "name": "8312c0f8c25b241abec284f9a1d8f95b", "is_disabled": 0, "rental_uris": {"android": "https://dc.lft.to/lastmile_qr_scan", "ios": "https://dc.lft.to/lastmile_qr_scan"}, "fusion_lon": 0.0, "lat": 38.95665533333333, "bike_id": "8312c0f8c25b241abec284f9a1d8f95b", "type": "electric_bike", "is_reserved": 0, "lon": -77.0113485}, {"fusion_lat": 0.0, "name": "7966266e3bb81cede0038d18a65e6e7c", "is_disabled": 0, "rental_uris": {"android": "https://dc.lft.to/lastmile_qr_scan", "ios": "https://dc.lft.to/lastmile_qr_scan"}, "fusion_lon": 0.0, "lat": 38.91404683333333, "bike_id": "7966266e3bb81cede0038d18a65e6e7c", "type": "electric_scooter", "is_reserved": 0, "lon": -77.03229533333334}, {"fusion_lat": 0.0, "name": "ae355e057119f0d5f7f22651f4631155", "is_disabled": 0, "rental_uris": {"android": "https://dc.lft.to/lastmile_qr_scan", "ios": "https://dc.lft.to/lastmile_qr_scan"}, "fusion_lon": 0.0, "lat": 38.89857166666667, "bike_id": "ae355e057119f0d5f7f22651f4631155", "type": "electric_scooter", "is_reserved": 0, "lon": -77.029763}, {"fusion_lat": 0.0, "name": "cb5f07051331b0e12cd0b978b0ed6dc7", "is_disabled": 0, "rental_uris": {"android": "https://dc.lft.to/lastmile_qr_scan", "ios": "https://dc.lft.to/lastmile_qr_scan"}, "fusion_lon": 0.0, "lat": 38.907673333333335, "bike_id": "cb5f07051331b0e12cd0b978b0ed6dc7", "type": "electric_scooter", "is_reserved": 0, "lon": -77.05657783333334}, {"fusion_lat": 0.0, "name": "a47e20d11f0d868d5228d6936263f3bf", "is_disabled": 0, "rental_uris": {"android": "https://dc.lft.to/lastmile_qr_scan", "ios": "https://dc.lft.to/lastmile_qr_scan"}, "fusion_lon": 0.0, "lat": 38.881456166666666, "bike_id": "a47e20d11f0d868d5228d6936263f3bf", "type": "electric_scooter", "is_reserved": 0, "lon": -76.99509433333333}, {"fusion_lat": 0.0, "name": "d8889b888ac2a969149541d02ca99780", "is_disabled": 0, "rental_uris": {"android": "https://dc.lft.to/lastmile_qr_scan", "ios": "https://dc.lft.to/lastmile_qr_scan"}, "fusion_lon": 0.0, "lat": 38.797574166666664, "bike_id": "d8889b888ac2a969149541d02ca99780", "type": "electric_bike", "is_reserved": 0, "lon": -77.047544}, {"fusion_lat": 0.0, "name": "677ddfef1a908cd4390407aac5f06bae", "is_disabled": 0, "rental_uris": {"android": "https://dc.lft.to/lastmile_qr_scan", "ios": "https://dc.lft.to/lastmile_qr_scan"}, "fusion_lon": 0.0, "lat": 38.92224133333333, "bike_id": "677ddfef1a908cd4390407aac5f06bae", "type": "electric_scooter", "is_reserved": 0, "lon": -77.02367766666667}, {"fusion_lat": 0.0, "name": "a96cad3c0270c0a8e1b96d8e82022ba4", "is_disabled": 0, "rental_uris": {"android": "https://dc.lft.to/lastmile_qr_scan", "ios": "https://dc.lft.to/lastmile_qr_scan"}, "fusion_lon": 0.0, "lat": 38.89309316666667, "bike_id": "a96cad3c0270c0a8e1b96d8e82022ba4", "type": "electric_bike", "is_reserved": 0, "lon": -76.95147666666666}, {"fusion_lat": 0.0, "name": "6eb1995a7ef36c9ede6c70c1ec797d8b", "is_disabled": 0, "rental_uris": {"android": "https://dc.lft.to/lastmile_qr_scan", "ios": "https://dc.lft.to/lastmile_qr_scan"}, "fusion_lon": 0.0, "lat": 38.88504566666667, "bike_id": "6eb1995a7ef36c9ede6c70c1ec797d8b", "type": "electric_scooter", "is_reserved": 0, "lon": -77.01735583333334}, {"fusion_lat": 0.0, "name": "fd6906469f32151a759d298711139e3d", "is_disabled": 0, "rental_uris": {"android": "https://dc.lft.to/lastmile_qr_scan", "ios": "https://dc.lft.to/lastmile_qr_scan"}, "fusion_lon": 0.0, "lat": 38.939616666666666, "bike_id": "fd6906469f32151a759d298711139e3d", "type": "electric_scooter", "is_reserved": 0, "lon": -77.0328725}, {"fusion_lat": 0.0, "name": "0459405b32fde3d3a804ca2b708ee5a1", "is_disabled": 0, "rental_uris": {"android": "https://dc.lft.to/lastmile_qr_scan", "ios": "https://dc.lft.to/lastmile_qr_scan"}, "fusion_lon": 0.0, "lat": 38.8278645, "bike_id": "0459405b32fde3d3a804ca2b708ee5a1", "type": "electric_bike", "is_reserved": 0, "lon": -77.124898}, {"fusion_lat": 0.0, "name": "a4aa4cff511322df4811f2c5510c252e", "is_disabled": 0, "rental_uris": {"android": "https://dc.lft.to/lastmile_qr_scan", "ios": "https://dc.lft.to/lastmile_qr_scan"}, "fusion_lon": 0.0, "lat": 38.95585033333333, "bike_id": "a4aa4cff511322df4811f2c5510c252e", "type": "electric_scooter", "is_reserved": 0, "lon": -77.02812333333334}, {"fusion_lat": 0.0, "name": "2de6240059e4a7b9da06d65995c0fc67", "is_disabled": 0, "rental_uris": {"android": "https://dc.lft.to/lastmile_qr_scan", "ios": "https://dc.lft.to/lastmile_qr_scan"}, "fusion_lon": 0.0, "lat": 38.915815, "bike_id": "2de6240059e4a7b9da06d65995c0fc67", "type": "electric_scooter", "is_reserved": 0, "lon": -77.012362}, {"fusion_lat": 0.0, "name": "cc59ab82e3577f07fc23386bf98cfeb4", "is_disabled": 0, "rental_uris": {"android": "https://dc.lft.to/lastmile_qr_scan", "ios": "https://dc.lft.to/lastmile_qr_scan"}, "fusion_lon": 0.0, "lat": 38.8442635, "bike_id": "cc59ab82e3577f07fc23386bf98cfeb4", "type": "electric_scooter", "is_reserved": 0, "lon": -76.99783966666666}, {"fusion_lat": 0.0, "name": "0ddc5aa4cd985164257664d5baf4289d", "is_disabled": 0, "rental_uris": {"android": "https://dc.lft.to/lastmile_qr_scan", "ios": "https://dc.lft.to/lastmile_qr_scan"}, "fusion_lon": 0.0, "lat": 38.87470016666666, "bike_id": "0ddc5aa4cd985164257664d5baf4289d", "type": "electric_scooter", "is_reserved": 0, "lon": -77.00473916666667}, {"fusion_lat": 0.0, "name": "cb0be9519639cb6112ffe193700101ab", "is_disabled": 0, "rental_uris": {"android": "https://dc.lft.to/lastmile_qr_scan", "ios": "https://dc.lft.to/lastmile_qr_scan"}, "fusion_lon": 0.0, "lat": 38.876578333333335, "bike_id": "cb0be9519639cb6112ffe193700101ab", "type": "electric_scooter", "is_reserved": 0, "lon": -77.00328883333333}, {"fusion_lat": 0.0, "name": "ce19452253253ca5794d8a8592ee2690", "is_disabled": 0, "rental_uris": {"android": "https://dc.lft.to/lastmile_qr_scan", "ios": "https://dc.lft.to/lastmile_qr_scan"}, "fusion_lon": 0.0, "lat": 38.91405683333333, "bike_id": "ce19452253253ca5794d8a8592ee2690", "type": "electric_scooter", "is_reserved": 0, "lon": -77.03225316666666}, {"fusion_lat": 0.0, "name": "42a9276a4fb2166299a931ed3ebc1f06", "is_disabled": 0, "rental_uris": {"android": "https://dc.lft.to/lastmile_qr_scan", "ios": "https://dc.lft.to/lastmile_qr_scan"}, "fusion_lon": 0.0, "lat": 38.920792, "bike_id": "42a9276a4fb2166299a931ed3ebc1f06", "type": "electric_scooter", "is_reserved": 0, "lon": -77.023062}, {"fusion_lat": 0.0, "name": "0ab4ebf04089e6272a08724225f11f84", "is_disabled": 0, "rental_uris": {"android": "https://dc.lft.to/lastmile_qr_scan", "ios": "https://dc.lft.to/lastmile_qr_scan"}, "fusion_lon": 0.0, "lat": 38.911157, "bike_id": "0ab4ebf04089e6272a08724225f11f84", "type": "electric_scooter", "is_reserved": 0, "lon": -77.08134766666667}, {"fusion_lat": 0.0, "name": "3f5ce56c9ec8223f9f51fcf37fcae201", "is_disabled": 0, "rental_uris": {"android": "https://dc.lft.to/lastmile_qr_scan", "ios": "https://dc.lft.to/lastmile_qr_scan"}, "fusion_lon": 0.0, "lat": 38.89610666666667, "bike_id": "3f5ce56c9ec8223f9f51fcf37fcae201", "type": "electric_scooter", "is_reserved": 0, "lon": -77.02217283333333}, {"fusion_lat": 0.0, "name": "ad392832788df1a69d82974e9c6014d9", "is_disabled": 0, "rental_uris": {"android": "https://dc.lft.to/lastmile_qr_scan", "ios": "https://dc.lft.to/lastmile_qr_scan"}, "fusion_lon": 0.0, "lat": 38.9296965, "bike_id": "ad392832788df1a69d82974e9c6014d9", "type": "electric_scooter", "is_reserved": 0, "lon": -77.04192033333334}, {"fusion_lat": 0.0, "name": "50364fa866bcc3c8d4a58159172b6a28", "is_disabled": 0, "rental_uris": {"android": "https://dc.lft.to/lastmile_qr_scan", "ios": "https://dc.lft.to/lastmile_qr_scan"}, "fusion_lon": 0.0, "lat": 38.95245283333333, "bike_id": "50364fa866bcc3c8d4a58159172b6a28", "type": "electric_scooter", "is_reserved": 0, "lon": -77.02382066666667}, {"fusion_lat": 0.0, "name": "2a9344de46bfabb2ad380b5c6be74c02", "is_disabled": 0, "rental_uris": {"android": "https://dc.lft.to/lastmile_qr_scan", "ios": "https://dc.lft.to/lastmile_qr_scan"}, "fusion_lon": 0.0, "lat": 38.906392, "bike_id": "2a9344de46bfabb2ad380b5c6be74c02", "type": "electric_scooter", "is_reserved": 0, "lon": -77.06929266666667}, {"fusion_lat": 0.0, "name": "6a19865f57137beaa6b7a1a0f10d1bfc", "is_disabled": 0, "rental_uris": {"android": "https://dc.lft.to/lastmile_qr_scan", "ios": "https://dc.lft.to/lastmile_qr_scan"}, "fusion_lon": 0.0, "lat": 38.928688333333334, "bike_id": "6a19865f57137beaa6b7a1a0f10d1bfc", "type": "electric_scooter", "is_reserved": 0, "lon": -77.0327995}, {"fusion_lat": 0.0, "name": "8d313135105954f6546abb1b5389e324", "is_disabled": 0, "rental_uris": {"android": "https://dc.lft.to/lastmile_qr_scan", "ios": "https://dc.lft.to/lastmile_qr_scan"}, "fusion_lon": 0.0, "lat": 38.92678333333333, "bike_id": "8d313135105954f6546abb1b5389e324", "type": "electric_scooter", "is_reserved": 0, "lon": -77.03102516666667}, {"fusion_lat": 0.0, "name": "4d1448b9984496d17914e141fee8a13a", "is_disabled": 0, "rental_uris": {"android": "https://dc.lft.to/lastmile_qr_scan", "ios": "https://dc.lft.to/lastmile_qr_scan"},