{"data": {"bikes": [{"type": "electric_scooter", "name": "5d0d5b9adbe0bb8da5ee6da80e5a5585", "fusion_lon": 0.0, "is_reserved": 0, "lon": -77.038443, "fusion_lat": 0.0, "is_disabled": 0, "bike_id": "5d0d5b9adbe0bb8da5ee6da80e5a5585", "lat": 38.90264466666667, "rental_uris": {"ios": "https://dc.lft.to/lastmile_qr_scan", "android": "https://dc.lft.to/lastmile_qr_scan"}}, {"type": "electric_scooter", "name": "9d1608b00784ecd84bb06f7e6604b07d", "fusion_lon": 0.0, "is_reserved": 0, "lon": -77.01123266666667, "fusion_lat": 0.0, "is_disabled": 0, "bike_id": "9d1608b00784ecd84bb06f7e6604b07d", "lat": 38.898795, "rental_uris": {"ios": "https://dc.lft.to/lastmile_qr_scan", "android": "https://dc.lft.to/lastmile_qr_scan"}}, {"type": "electric_scooter", "name": "d03431cd2328a5316bc25889d26fcf25", "fusion_lon": 0.0, "is_reserved": 0, "lon": -76.98490783333334, "fusion_lat": 0.0, "is_disabled": 0, "bike_id": "d03431cd2328a5316bc25889d26fcf25", "lat": 38.9050605, "rental_uris": {"ios": "https://dc.lft.to/lastmile_qr_scan", "android": "https://dc.lft.to/lastmile_qr_scan"}}, {"type": "electric_scooter", "name": "f3a2297176150e6ad745174bdb032cd3", "fusion_lon": 0.0, "is_reserved": 0, "lon": -77.00803616666667, "fusion_lat": 0.0, "is_disabled": 0, "bike_id": "f3a2297176150e6ad745174bdb032cd3", "lat": 38.87910983333333, "rental_uris": {"ios": "https://dc.lft.to/lastmile_qr_scan", "android": "https://dc.lft.to/lastmile_qr_scan"}}, {"type": "electric_scooter", "name": "eb8ec72f25451422d1e89b41a144f21f", "fusion_lon": 0.0, "is_reserved": 0, "lon": -77.005805, "fusion_lat": 0.0, "is_disabled": 0, "bike_id": "eb8ec72f25451422d1e89b41a144f21f", "lat": 38.90269883333333, "rental_uris": {"ios": "https://dc.lft.to/lastmile_qr_scan", "android": "https://dc.lft.to/lastmile_qr_scan"}}, {"type": "electric_scooter", "name": "047bd645b395c1f7676ca3f879018dfc", "fusion_lon": 0.0, "is_reserved": 0, "lon": -77.04706, "fusion_lat": 0.0, "is_disabled": 0, "bike_id": "047bd645b395c1f7676ca3f879018dfc", "lat": 38.90944416666667, "rental_uris": {"ios": "https://dc.lft.to/lastmile_qr_scan", "android": "https://dc.lft.to/lastmile_qr_scan"}}, {"type": "electric_scooter", "name": "50ec803fa4bf70b54b495a4f2eafeb06", "fusion_lon": 0.0, "is_reserved": 0, "lon": -77.042451, "fusion_lat": 0.0, "is_disabled": 0, "bike_id": "50ec803fa4bf70b54b495a4f2eafeb06", "lat": 38.907268333333334, "rental_uris": {"ios": "https://dc.lft.to/lastmile_qr_scan", "android": "https://dc.lft.to/lastmile_qr_scan"}}, {"type": "electric_scooter", "name": "ed6f17ef54b1870e3b9f32c7a5ae769c", "fusion_lon": 0.0, "is_reserved": 0, "lon": -77.043896, "fusion_lat": 0.0, "is_disabled": 0, "bike_id": "ed6f17ef54b1870e3b9f32c7a5ae769c", "lat": 38.915546, "rental_uris": {"ios": "https://dc.lft.to/lastmile_qr_scan", "android": "https://dc.lft.to/lastmile_qr_scan"}}, {"type": "electric_scooter", "name": "dba92ac5a08b942d407347a4976c1d31", "fusion_lon": 0.0, "is_reserved": 0, "lon": -77.0250645, "fusion_lat": 0.0, "is_disabled": 0, "bike_id": "dba92ac5a08b942d407347a4976c1d31", "lat": 38.91104433333334, "rental_uris": {"ios": "https://dc.lft.to/lastmile_qr_scan", "android": "https://dc.lft.to/lastmile_qr_scan"}}, {"type": "electric_scooter", "name": "4e246a17e065db50f00f566e5e0f9498", "fusion_lon": 0.0, "is_reserved": 0, "lon": -77.07163333333334, "fusion_lat": 0.0, "is_disabled": 0, "bike_id": "4e246a17e065db50f00f566e5e0f9498", "lat": 38.90870283333334, "rental_uris": {"ios": "https://dc.lft.to/lastmile_qr_scan", "android": "https://dc.lft.to/lastmile_qr_scan"}}, {"type": "electric_scooter", "name": "af8e01fbb84fc0fa44422e59bb134c08", "fusion_lon": 0.0, "is_reserved": 0, "lon": -76.9925165, "fusion_lat": 0.0, "is_disabled": 0, "bike_id": "af8e01fbb84fc0fa44422e59bb134c08", "lat": 38.882656833333336, "rental_uris": {"ios": "https://dc.lft.to/lastmile_qr_scan", "android": "https://dc.lft.to/lastmile_qr_scan"}}, {"type": "electric_bike", "name": "040fef1cbd18b12ba968b9501471d15f", "fusion_lon": 0.0, "is_reserved": 0, "lon": -77.00918266666666, "fusion_lat": 0.0, "is_disabled": 0, "bike_id": "040fef1cbd18b12ba968b9501471d15f", "lat": 38.827834333333335, "rental_uris": {"ios": "https://dc.lft.to/lastmile_qr_scan", "android": "https://dc.lft.to/lastmile_qr_scan"}}, {"type": "electric_scooter", "name": "cedc8a96a25ecebaca76c91d148642d3", "fusion_lon": 0.0, "is_reserved": 0, "lon": -77.025839, "fusion_lat": 0.0, "is_disabled": 0, "bike_id": "cedc8a96a25ecebaca76c91d148642d3", "lat": 38.92036866666667, "rental_uris": {"ios": "https://dc.lft.to/lastmile_qr_scan", "android": "https://dc.lft.to/lastmile_qr_scan"}}, {"type": "electric_scooter", "name": "73a8ec494aa370a69e562a98b47f6092", "fusion_lon": 0.0, "is_reserved": 0, "lon": -77.0328185, "fusion_lat": 0.0, "is_disabled": 0, "bike_id": "73a8ec494aa370a69e562a98b47f6092", "lat": 38.89890716666667, "rental_uris": {"ios": "https://dc.lft.to/lastmile_qr_scan", "android": "https://dc.lft.to/lastmile_qr_scan"}}, {"type": "electric_scooter", "name": "f8501671e34718e7ea5e8feee808f9b9", "fusion_lon": 0.0, "is_reserved": 0, "lon": -77.00932233333333, "fusion_lat": 0.0, "is_disabled": 0, "bike_id": "f8501671e34718e7ea5e8feee808f9b9", "lat": 38.908379833333335, "rental_uris": {"ios": "https://dc.lft.to/lastmile_qr_scan", "android": "https://dc.lft.to/lastmile_qr_scan"}}, {"type": "electric_scooter", "name": "7076e1bc8f38363b9bab23bf97f0dfeb", "fusion_lon": 0.0, "is_reserved": 0, "lon": -77.00921433333333, "fusion_lat": 0.0, "is_disabled": 0, "bike_id": "7076e1bc8f38363b9bab23bf97f0dfeb", "lat": 38.879412, "rental_uris": {"ios": "https://dc.lft.to/lastmile_qr_scan", "android": "https://dc.lft.to/lastmile_qr_scan"}}, {"type": "electric_scooter", "name": "a2d33aa34caee72de59eeb0dcff7116a", "fusion_lon": 0.0, "is_reserved": 0, "lon": -77.0321305, "fusion_lat": 0.0, "is_disabled": 0, "bike_id": "a2d33aa34caee72de59eeb0dcff7116a", "lat": 38.911955, "rental_uris": {"ios": "https://dc.lft.to/lastmile_qr_scan", "android": "https://dc.lft.to/lastmile_qr_scan"}}, {"type": "electric_scooter", "name": "a4f65978a7e53963000dbded8aa397f8", "fusion_lon": 0.0, "is_reserved": 0, "lon": -77.01429216666666, "fusion_lat": 0.0, "is_disabled": 0, "bike_id": "a4f65978a7e53963000dbded8aa397f8", "lat": 38.95228483333333, "rental_uris": {"ios": "https://dc.lft.to/lastmile_qr_scan", "android": "https://dc.lft.to/lastmile_qr_scan"}}, {"type": "electric_scooter", "name": "2702a506751252a96de20e446c571cdf", "fusion_lon": 0.0, "is_reserved": 0, "lon": -77.04384766666666, "fusion_lat": 0.0, "is_disabled": 0, "bike_id": "2702a506751252a96de20e446c571cdf", "lat": 38.907258166666665, "rental_uris": {"ios": "https://dc.lft.to/lastmile_qr_scan", "android": "https://dc.lft.to/lastmile_qr_scan"}}, {"type": "electric_scooter", "name": "2126b30f96d97cc7ec1ea666a9fc374b", "fusion_lon": 0.0, "is_reserved": 0, "lon": -77.035915, "fusion_lat": 0.0, "is_disabled": 0, "bike_id": "2126b30f96d97cc7ec1ea666a9fc374b", "lat": 38.936753833333334, "rental_uris": {"ios": "https://dc.lft.to/lastmile_qr_scan", "android": "https://dc.lft.to/lastmile_qr_scan"}}, {"type": "electric_scooter", "name": "dd300565e7b5013b5b1f6bbe8e1d02b2", "fusion_lon": 0.0, "is_reserved": 0, "lon": -77.03493216666666, "fusion_lat": 0.0, "is_disabled": 0, "bike_id": "dd300565e7b5013b5b1f6bbe8e1d02b2", "lat": 38.924841, "rental_uris": {"ios": "https://dc.lft.to/lastmile_qr_scan", "android": "https://dc.lft.to/lastmile_qr_scan"}}, {"type": "electric_scooter", "name": "9ef88525661c2c5a35c25f4d5135e827", "fusion_lon": 0.0, "is_reserved": 0, "lon": -77.01182066666667, "fusion_lat": 0.0, "is_disabled": 0, "bike_id": "9ef88525661c2c5a35c25f4d5135e827", "lat": 38.9002545, "rental_uris": {"ios": "https://dc.lft.to/lastmile_qr_scan", "android": "https://dc.lft.to/lastmile_qr_scan"}}, {"type": "electric_scooter", "name": "6492868d035cf651dbc1349e19837a26", "fusion_lon": 0.0, "is_reserved": 0, "lon": -77.013003, "fusion_lat": 0.0, "is_disabled": 0, "bike_id": "6492868d035cf651dbc1349e19837a26", "lat": 38.930333833333336, "rental_uris": {"ios": "https://dc.lft.to/lastmile_qr_scan", "android": "https://dc.lft.to/lastmile_qr_scan"}}, {"type": "electric_scooter", "name": "b0e0be61e617fd2f9d5da6bf6b72dc73", "fusion_lon": 0.0, "is_reserved": 0, "lon": -77.0450415, "fusion_lat": 0.0, "is_disabled": 0, "bike_id": "b0e0be61e617fd2f9d5da6bf6b72dc73", "lat": 38.89225166666667, "rental_uris": {"ios": "https://dc.lft.to/lastmile_qr_scan", "android": "https://dc.lft.to/lastmile_qr_scan"}}, {"type": "electric_scooter", "name": "4828c9d22769b47ec1840bd44c2636c7", "fusion_lon": 0.0, "is_reserved": 0, "lon": -77.023067, "fusion_lat": 0.0, "is_disabled": 0, "bike_id": "4828c9d22769b47ec1840bd44c2636c7", "lat": 38.87897433333333, "rental_uris": {"ios": "https://dc.lft.to/lastmile_qr_scan", "android": "https://dc.lft.to/lastmile_qr_scan"}}, {"type": "electric_scooter", "name": "be1aa4e6d95454fd7c544afc225c6db2", "fusion_lon": 0.0, "is_reserved": 0, "lon": -77.0269365, "fusion_lat": 0.0, "is_disabled": 0, "bike_id": "be1aa4e6d95454fd7c544afc225c6db2", "lat": 38.915207833333334, "rental_uris": {"ios": "https://dc.lft.to/lastmile_qr_scan", "android": "https://dc.lft.to/lastmile_qr_scan"}}, {"type": "electric_scooter", "name": "92bfb2981c2625ea38b6b554d82aeb00", "fusion_lon": 0.0, "is_reserved": 0, "lon": -77.0056345, "fusion_lat": 0.0, "is_disabled": 0, "bike_id": "92bfb2981c2625ea38b6b554d82aeb00", "lat": 38.88502716666667, "rental_uris": {"ios": "https://dc.lft.to/lastmile_qr_scan", "android": "https://dc.lft.to/lastmile_qr_scan"}}, {"type": "electric_scooter", "name": "d5ec7ad96a0ee2e4ec80b9aa897cbc53", "fusion_lon": 0.0, "is_reserved": 0, "lon": -77.03310216666667, "fusion_lat": 0.0, "is_disabled": 0, "bike_id": "d5ec7ad96a0ee2e4ec80b9aa897cbc53", "lat": 38.92742666666667, "rental_uris": {"ios": "https://dc.lft.to/lastmile_qr_scan", "android": "https://dc.lft.to/lastmile_qr_scan"}}, {"type": "electric_scooter", "name": "01bdfc4a6dec43beb6dcf87ded7719d7", "fusion_lon": 0.0, "is_reserved": 0, "lon": -77.038099, "fusion_lat": 0.0, "is_disabled": 0, "bike_id": "01bdfc4a6dec43beb6dcf87ded7719d7", "lat": 38.93106516666667, "rental_uris": {"ios": "https://dc.lft.to/lastmile_qr_scan", "android": "https://dc.lft.to/lastmile_qr_scan"}}, {"type": "electric_scooter", "name": "ace918f009a3a8a1c9df0fed8e33b7a4", "fusion_lon": 0.0, "is_reserved": 0, "lon": -76.9722025, "fusion_lat": 0.0, "is_disabled": 0, "bike_id": "ace918f009a3a8a1c9df0fed8e33b7a4", "lat": 38.925392333333335, "rental_uris": {"ios": "https://dc.lft.to/lastmile_qr_scan", "android": "https://dc.lft.to/lastmile_qr_scan"}}, {"type": "electric_scooter", "name": "558da8f08ba9b9af5dd02e34a6e0107f", "fusion_lon": 0.0, "is_reserved": 0, "lon": -77.05319183333333, "fusion_lat": 0.0, "is_disabled": 0, "bike_id": "558da8f08ba9b9af5dd02e34a6e0107f", "lat": 38.91554766666667, "rental_uris": {"ios": "https://dc.lft.to/lastmile_qr_scan", "android": "https://dc.lft.to/lastmile_qr_scan"}}, {"type": "electric_scooter", "name": "f66afafa8a14b1bd99f2e367310b2b4f", "fusion_lon": 0.0, "is_reserved": 0, "lon": -77.03477316666667, "fusion_lat": 0.0, "is_disabled": 0, "bike_id": "f66afafa8a14b1bd99f2e367310b2b4f", "lat": 38.90587133333333, "rental_uris": {"ios": "https://dc.lft.to/lastmile_qr_scan", "android": "https://dc.lft.to/lastmile_qr_scan"}}, {"type": "electric_scooter", "name": "b406be32650df932f1dd96f843863509", "fusion_lon": 0.0, "is_reserved": 0, "lon": -76.93029316666667, "fusion_lat": 0.0, "is_disabled": 0, "bike_id": "b406be32650df932f1dd96f843863509", "lat": 38.9001075, "rental_uris": {"ios": "https://dc.lft.to/lastmile_qr_scan", "android": "https://dc.lft.to/lastmile_qr_scan"}}, {"type": "electric_scooter", "name": "0e40a12e4263e72108392f6ba9144e66", "fusion_lon": 0.0, "is_reserved": 0, "lon": -77.02973216666666, "fusion_lat": 0.0, "is_disabled": 0, "bike_id": "0e40a12e4263e72108392f6ba9144e66", "lat": 38.89614, "rental_uris": {"ios": "https://dc.lft.to/lastmile_qr_scan", "android": "https://dc.lft.to/lastmile_qr_scan"}}, {"type": "electric_scooter", "name": "b9a90c3456bdf36f0a4b8172ccc01974", "fusion_lon": 0.0, "is_reserved": 0, "lon": -77.03374733333334, "fusion_lat": 0.0, "is_disabled": 0, "bike_id": "b9a90c3456bdf36f0a4b8172ccc01974", "lat": 38.909734666666665, "rental_uris": {"ios": "https://dc.lft.to/lastmile_qr_scan", "android": "https://dc.lft.to/lastmile_qr_scan"}}, {"type": "electric_scooter", "name": "cce723a1ee726fb4cb348fe1b75eb44a", "fusion_lon": 0.0, "is_reserved": 0, "lon": -76.98589583333333, "fusion_lat": 0.0, "is_disabled": 0, "bike_id": "cce723a1ee726fb4cb348fe1b75eb44a", "lat": 38.86696516666667, "rental_uris": {"ios": "https://dc.lft.to/lastmile_qr_scan", "android": "https://dc.lft.to/lastmile_qr_scan"}}, {"type": "electric_scooter", "name": "4be39bc002c6e9c20afa492c3dc5f0a8", "fusion_lon": 0.0, "is_reserved": 0, "lon": -77.04352133333333, "fusion_lat": 0.0, "is_disabled": 0, "bike_id": "4be39bc002c6e9c20afa492c3dc5f0a8", "lat": 38.9004135, "rental_uris": {"ios": "https://dc.lft.to/lastmile_qr_scan", "android": "https://dc.lft.to/lastmile_qr_scan"}}, {"type": "electric_scooter", "name": "bff47041635dcdae9f5a6b3bd51fdb60", "fusion_lon": 0.0, "is_reserved": 0, "lon": -77.0344995, "fusion_lat": 0.0, "is_disabled": 0, "bike_id": "bff47041635dcdae9f5a6b3bd51fdb60", "lat": 38.90259666666667, "rental_uris": {"ios": "https://dc.lft.to/lastmile_qr_scan", "android": "https://dc.lft.to/lastmile_qr_scan"}}, {"type": "electric_bike", "name": "f44c7f1158b7200289a9b96ecf1f8480", "fusion_lon": 0.0, "is_reserved": 0, "lon": -77.03274916666666, "fusion_lat": 0.0, "is_disabled": 0, "bike_id": "f44c7f1158b7200289a9b96ecf1f8480", "lat": 38.9344195, "rental_uris": {"ios": "https://dc.lft.to/lastmile_qr_scan", "android": "https://dc.lft.to/lastmile_qr_scan"}}, {"type": "electric_bike", "name": "7f534606f271e5e46a686290fd65b377", "fusion_lon": 0.0, "is_reserved": 0, "lon": -77.01455666666666, "fusion_lat": 0.0, "is_disabled": 0, "bike_id": "7f534606f271e5e46a686290fd65b377", "lat": 38.9627695, "rental_uris": {"ios": "https://dc.lft.to/lastmile_qr_scan", "android": "https://dc.lft.to/lastmile_qr_scan"}}, {"type": "electric_scooter", "name": "ee23b6b05031ca717377aee998cf6d37", "fusion_lon": 0.0, "is_reserved": 0, "lon": -77.04239416666667, "fusion_lat": 0.0, "is_disabled": 0, "bike_id": "ee23b6b05031ca717377aee998cf6d37", "lat": 38.922739, "rental_uris": {"ios": "https://dc.lft.to/lastmile_qr_scan", "android": "https://dc.lft.to/lastmile_qr_scan"}}, {"type": "electric_bike", "name": "da7eb168c7017ce4ff5ecb744b35e95e", "fusion_lon": 0.0, "is_reserved": 0, "lon": -76.97729133333333, "fusion_lat": 0.0, "is_disabled": 0, "bike_id": "da7eb168c7017ce4ff5ecb744b35e95e", "lat": 38.951745, "rental_uris": {"ios": "https://dc.lft.to/lastmile_qr_scan", "android": "https://dc.lft.to/lastmile_qr_scan"}}, {"type": "electric_scooter", "name": "9ec05989c1c51ca984dcd5c2c3f4cf50", "fusion_lon": 0.0, "is_reserved": 0, "lon": -76.94958283333334, "fusion_lat": 0.0, "is_disabled": 0, "bike_id": "9ec05989c1c51ca984dcd5c2c3f4cf50", "lat": 38.9049045, "rental_uris": {"ios": "https://dc.lft.to/lastmile_qr_scan", "android": "https://dc.lft.to/lastmile_qr_scan"}}, {"type": "electric_scooter", "name": "46fc33b4bae52ef90df74a1da1bc4748", "fusion_lon": 0.0, "is_reserved": 0, "lon": -77.04131516666666, "fusion_lat": 0.0, "is_disabled": 0, "bike_id": "46fc33b4bae52ef90df74a1da1bc4748", "lat": 38.921387833333334, "rental_uris": {"ios": "https://dc.lft.to/lastmile_qr_scan", "android": "https://dc.lft.to/lastmile_qr_scan"}}, {"type": "electric_scooter", "name": "0c61b8973a35063c5718fc2f85ad1f59", "fusion_lon": 0.0, "is_reserved": 0, "lon": -76.93111999999999, "fusion_lat": 0.0, "is_disabled": 0, "bike_id": "0c61b8973a35063c5718fc2f85ad1f59", "lat": 38.889899, "rental_uris": {"ios": "https://dc.lft.to/lastmile_qr_scan", "android": "https://dc.lft.to/lastmile_qr_scan"}}, {"type": "electric_scooter", "name": "42412a0eb5a281701d13d8bc6178634a", "fusion_lon": 0.0, "is_reserved": 0, "lon": -77.00646666666667, "fusion_lat": 0.0, "is_disabled": 0, "bike_id": "42412a0eb5a281701d13d8bc6178634a", "lat": 38.94906016666667, "rental_uris": {"ios": "https://dc.lft.to/lastmile_qr_scan", "android": "https://dc.lft.to/lastmile_qr_scan"}}, {"type": "electric_scooter", "name": "0eb5c1a11eb8fb591ad0ed76db547498", "fusion_lon": 0.0, "is_reserved": 0, "lon": -77.0730145, "fusion_lat": 0.0, "is_disabled": 0, "bike_id": "0eb5c1a11eb8fb591ad0ed76db547498", "lat": 38.908871166666664, "rental_uris": {"ios": "https://dc.lft.to/lastmile_qr_scan", "android": "https://dc.lft.to/lastmile_qr_scan"}}, {"type": "electric_scooter", "name": "4f29aa5e4414caef61fa5328c232ebf4", "fusion_lon": 0.0, "is_reserved": 0, "lon": -77.00139283333333, "fusion_lat": 0.0, "is_disabled": 0, "bike_id": "4f29aa5e4414caef61fa5328c232ebf4", "lat": 38.907408, "rental_uris": {"ios": "https://dc.lft.to/lastmile_qr_scan", "android": "https://dc.lft.to/lastmile_qr_scan"}}, {"type": "electric_scooter", "name": "78dd23f78760031ff5d25e4dfdafc2e2", "fusion_lon": 0.0, "is_reserved": 0, "lon": -77.05101383333333, "fusion_lat": 0.0, "is_disabled": 0, "bike_id": "78dd23f78760031ff5d25e4dfdafc2e2", "lat": 38.901835, "rental_uris": {"ios": "https://dc.lft.to/lastmile_qr_scan", "android": "https://dc.lft.to/lastmile_qr_scan"}}, {"type": "electric_scooter", "name": "ba8e4ab29fb9deb2a22b642276e44626", "fusion_lon": 0.0, "is_reserved": 0, "lon": -77.04887183333334, "fusion_lat": 0.0, "is_disabled": 0, "bike_id": "ba8e4ab29fb9deb2a22b642276e44626", "lat": 38.90539166666667, "rental_uris": {"ios": "https://dc.lft.to/lastmile_qr_scan", "android": "https://dc.lft.to/lastmile_qr_scan"}}, {"type": "electric_scooter", "name": "8056a2d904074c61b0cfd5afa389597c", "fusion_lon": 0.0, "is_reserved": 0, "lon": -77.04378033333333, "fusion_lat": 0.0, "is_disabled": 0, "bike_id": "8056a2d904074c61b0cfd5afa389597c", "lat": 38.89223283333333, "rental_uris": {"ios": "https://dc.lft.to/lastmile_qr_scan", "android": "https://dc.lft.to/lastmile_qr_scan"}}, {"type": "electric_scooter", "name": "8400eec6e9cd5509d3d0d2ac39334610", "fusion_lon": 0.0, "is_reserved": 0, "lon": -77.0504385, "fusion_lat": 0.0, "is_disabled": 0, "bike_id": "8400eec6e9cd5509d3d0d2ac39334610", "lat": 38.90304416666667, "rental_uris": {"ios": "https://dc.lft.to/lastmile_qr_scan", "android": "https://dc.lft.to/lastmile_qr_scan"}}, {"type": "electric_scooter", "name": "f8271193871006701c6c45d4bf086e0a", "fusion_lon": 0.0, "is_reserved": 0, "lon": -77.037993, "fusion_lat": 0.0, "is_disabled": 0, "bike_id": "f8271193871006701c6c45d4bf086e0a", "lat": 38.92570416666667, "rental_uris": {"ios": "https://dc.lft.to/lastmile_qr_scan", "android": "https://dc.lft.to/lastmile_qr_scan"}}, {"type": "electric_scooter", "name": "8fe4ca7b4ba307ece522d47e0f41e60b", "fusion_lon": 0.0, "is_reserved": 0, "lon": -77.03167166666667, "fusion_lat": 0.0, "is_disabled": 0, "bike_id": "8fe4ca7b4ba307ece522d47e0f41e60b", "lat": 38.89219416666667, "rental_uris": {"ios": "https://dc.lft.to/lastmile_qr_scan", "android": "https://dc.lft.to/lastmile_qr_scan"}}, {"type": "electric_scooter", "name": "9e5e52ca7038321367572c438728ff61", "fusion_lon": 0.0, "is_reserved": 0, "lon": -77.02271783333333, "fusion_lat": 0.0, "is_disabled": 0, "bike_id": "9e5e52ca7038321367572c438728ff61", "lat": 38.9028625, "rental_uris": {"ios": "https://dc.lft.to/lastmile_qr_scan", "android": "https://dc.lft.to/lastmile_qr_scan"}}, {"type": "electric_scooter", "name": "ab77a94b4e5641b6cca9629a57d31521", "fusion_lon": 0.0, "is_reserved": 0, "lon": -76.99788966666667, "fusion_lat": 0.0, "is_disabled": 0, "bike_id": "ab77a94b4e5641b6cca9629a57d31521", "lat": 38.885618666666666, "rental_uris": {"ios": "https://dc.lft.to/lastmile_qr_scan", "android": "https://dc.lft.to/lastmile_qr_scan"}}, {"type": "electric_scooter", "name": "2d0815040d104fa0a5ae174b6218c543", "fusion_lon": 0.0, "is_reserved": 0, "lon": -77.05879833333333, "fusion_lat": 0.0, "is_disabled": 0, "bike_id": "2d0815040d104fa0a5ae174b6218c543", "lat": 38.93634483333334, "rental_uris": {"ios": "https://dc.lft.to/lastmile_qr_scan", "android": "https://dc.lft.to/lastmile_qr_scan"}}, {"type": "electric_scooter", "name": "38db6720f4e88e7527afd79852074720", "fusion_lon": 0.0, "is_reserved": 0, "lon": -77.02090566666666, "fusion_lat": 0.0, "is_disabled": 0, "bike_id": "38db6720f4e88e7527afd79852074720", "lat": 38.94528566666666, "rental_uris": {"ios": "https://dc.lft.to/lastmile_qr_scan", "android": "https://dc.lft.to/lastmile_qr_scan"}}, {"type": "electric_scooter", "name": "3d2ebe0799867e525722a4e88f28ae8a", "fusion_lon": 0.0, "is_reserved": 0, "lon": -77.04153033333333, "fusion_lat": 0.0, "is_disabled": 0, "bike_id": "3d2ebe0799867e525722a4e88f28ae8a", "lat": 38.91839733333333, "rental_uris": {"ios": "https://dc.lft.to/lastmile_qr_scan", "android": "https://dc.lft.to/lastmile_qr_scan"}}, {"type": "electric_scooter", "name": "fb2223c09cf39e827229c5de7ad444e1", "fusion_lon": 0.0, "is_reserved": 0, "lon": -77.03198416666666, "fusion_lat": 0.0, "is_disabled": 0, "bike_id": "fb2223c09cf39e827229c5de7ad444e1", "lat": 38.91794016666667, "rental_uris": {"ios": "https://dc.lft.to/lastmile_qr_scan", "android": "https://dc.lft.to/lastmile_qr_scan"}}, {"type": "electric_scooter", "name": "54ee427ed5c4c37db63dbb0117033acb", "fusion_lon": 0.0, "is_reserved": 0, "lon": -77.0195475, "fusion_lat": 0.0, "is_disabled": 0, "bike_id": "54ee427ed5c4c37db63dbb0117033acb", "lat": 38.92314233333333, "rental_uris": {"ios": "https://dc.lft.to/lastmile_qr_scan", "android": "https://dc.lft.to/lastmile_qr_scan"}}, {"type": "electric_bike", "name": "722f27d6efb8b6d897feb7700d6df376", "fusion_lon": 0.0, "is_reserved": 0, "lon": -77.0497635, "fusion_lat": 0.0, "is_disabled": 0, "bike_id": "722f27d6efb8b6d897feb7700d6df376", "lat": 39.062946, "rental_uris": {"ios": "https://dc.lft.to/lastmile_qr_scan", "android": "https://dc.lft.to/lastmile_qr_scan"}}, {"type": "electric_scooter", "name": "eee9e517cda47bd994690365bd7fab13", "fusion_lon": 0.0, "is_reserved": 0, "lon": -77.02349783333334, "fusion_lat": 0.0, "is_disabled": 0, "bike_id": "eee9e517cda47bd994690365bd7fab13", "lat": 38.8921995, "rental_uris": {"ios": "https://dc.lft.to/lastmile_qr_scan", "android": "https://dc.lft.to/lastmile_qr_scan"}}, {"type": "electric_scooter", "name": "c09d2a3086b968f2b9a78f58a551daa3", "fusion_lon": 0.0, "is_reserved": 0, "lon": -77.06836316666667, "fusion_lat": 0.0, "is_disabled": 0, "bike_id": "c09d2a3086b968f2b9a78f58a551daa3", "lat": 38.91720516666667, "rental_uris": {"ios": "https://dc.lft.to/lastmile_qr_scan", "android": "https://dc.lft.to/lastmile_qr_scan"}}, {"type": "electric_scooter", "name": "98d14772fa4ae30cc676dfdc06648b95", "fusion_lon": 0.0, "is_reserved": 0, "lon": -76.93383683333333, "fusion_lat": 0.0, "is_disabled": 0, "bike_id": "98d14772fa4ae30cc676dfdc06648b95", "lat": 38.8991435, "rental_uris": {"ios": "https://dc.lft.to/lastmile_qr_scan", "android": "https://dc.lft.to/lastmile_qr_scan"}}, {"type": "electric_scooter", "name": "098da1f2fcc2f118bcbc3ea3d6524981", "fusion_lon": 0.0, "is_reserved": 0, "lon": -76.93057216666666, "fusion_lat": 0.0, "is_disabled": 0, "bike_id": "098da1f2fcc2f118bcbc3ea3d6524981", "lat": 38.901542, "rental_uris": {"ios": "https://dc.lft.to/lastmile_qr_scan", "android": "https://dc.lft.to/lastmile_qr_scan"}}, {"type": "electric_scooter", "name": "106c302d5d0b830c24c034fd6c1c243c", "fusion_lon": 0.0, "is_reserved": 0, "lon": -77.03725066666667, "fusion_lat": 0.0, "is_disabled": 0, "bike_id": "106c302d5d0b830c24c034fd6c1c243c", "lat": 38.90641133333333, "rental_uris": {"ios": "https://dc.lft.to/lastmile_qr_scan", "android": "https://dc.lft.to/lastmile_qr_scan"}}, {"type": "electric_scooter", "name": "ad27462dd1b7e7d4356caab7785cc8ae", "fusion_lon": 0.0, "is_reserved": 0, "lon": -77.03126366666666, "fusion_lat": 0.0, "is_disabled": 0, "bike_id": "ad27462dd1b7e7d4356caab7785cc8ae", "lat": 38.92017283333333, "rental_uris": {"ios": "https://dc.lft.to/lastmile_qr_scan", "android": "https://dc.lft.to/lastmile_qr_scan"}}, {"type": "electric_scooter", "name": "34a7f0701e2af7d091d1a3fd1561aa7b", "fusion_lon": 0.0, "is_reserved": 0, "lon": -77.02150733333333, "fusion_lat": 0.0, "is_disabled": 0, "bike_id": "34a7f0701e2af7d091d1a3fd1561aa7b", "lat": 38.924488, "rental_uris": {"ios": "https://dc.lft.to/lastmile_qr_scan", "android": "https://dc.lft.to/lastmile_qr_scan"}}, {"type": "electric_scooter", "name": "12fc526aebdb9ffccb2d5c3d3ce9d0d4", "fusion_lon": 0.0, "is_reserved": 0, "lon": -77.02169566666667, "fusion_lat": 0.0, "is_disabled": 0, "bike_id": "12fc526aebdb9ffccb2d5c3d3ce9d0d4", "lat": 38.942946, "rental_uris": {"ios": "https://dc.lft.to/lastmile_qr_scan", "android": "https://dc.lft.to/lastmile_qr_scan"}}, {"type": "electric_scooter", "name": "dd555625645ecfa7ab136a4d04a68d41", "fusion_lon": 0.0, "is_reserved": 0, "lon": -77.02778416666666, "fusion_lat": 0.0, "is_disabled": 0, "bike_id": "dd555625645ecfa7ab136a4d04a68d41", "lat": 38.9561405, "rental_uris": {"ios": "https://dc.lft.to/lastmile_qr_scan", "android": "https://dc.lft.to/lastmile_qr_scan"}}, {"type": "electric_scooter", "name": "8f7e9df0312afb49ccfb669f02f62e2f", "fusion_lon": 0.0, "is_reserved": 0, "lon": -77.03830466666666, "fusion_lat": 0.0, "is_disabled": 0, "bike_id": "8f7e9df0312afb49ccfb669f02f62e2f", "lat": 38.907681833333335, "rental_uris": {"ios": "https://dc.lft.to/lastmile_qr_scan", "android": "https://dc.lft.to/lastmile_qr_scan"}}, {"type": "electric_scooter", "name": "76502b158a12edb2f54db7d6834f3f15", "fusion_lon": 0.0, "is_reserved": 0, "lon": -76.95102266666666, "fusion_lat": 0.0, "is_disabled": 0, "bike_id": "76502b158a12edb2f54db7d6834f3f15", "lat": 38.8881915, "rental_uris": {"ios": "https://dc.lft.to/lastmile_qr_scan", "android": "https://dc.lft.to/lastmile_qr_scan"}}, {"type": "electric_scooter", "name": "436479af7b8d29b5f709f617d372a6f5", "fusion_lon": 0.0, "is_reserved": 0, "lon": -77.03505, "fusion_lat": 0.0, "is_disabled": 0, "bike_id": "436479af7b8d29b5f709f617d372a6f5", "lat": 38.92317333333333, "rental_uris": {"ios": "https://dc.lft.to/lastmile_qr_scan", "android": "https://dc.lft.to/lastmile_qr_scan"}}, {"type": "electric_scooter", "name": "a2934175f97e4eba85816393279590ca", "fusion_lon": 0.0, "is_reserved": 0, "lon": -77.030654, "fusion_lat": 0.0, "is_disabled": 0, "bike_id": "a2934175f97e4eba85816393279590ca", "lat": 38.909383, "rental_uris": {"ios": "https://dc.lft.to/lastmile_qr_scan", "android": "https://dc.lft.to/lastmile_qr_scan"}}, {"type": "electric_scooter", "name": "766d5d62cc38f30e9708cb2ccb3e43e0", "fusion_lon": 0.0, "is_reserved": 0, "lon": -77.02396383333334, "fusion_lat": 0.0, "is_disabled": 0, "bike_id": "766d5d62cc38f30e9708cb2ccb3e43e0", "lat": 38.900306, "rental_uris": {"ios": "https://dc.lft.to/lastmile_qr_scan", "android": "https://dc.lft.to/lastmile_qr_scan"}}, {"type": "electric_scooter", "name": "2b2fe19d382d4845ff5b6b4ef9dfba92", "fusion_lon": 0.0, "is_reserved": 0, "lon": -76.99265666666666, "fusion_lat": 0.0, "is_disabled": 0, "bike_id": "2b2fe19d382d4845ff5b6b4ef9dfba92", "lat": 38.8929865, "rental_uris": {"ios": "https://dc.lft.to/lastmile_qr_scan", "android": "https://dc.lft.to/lastmile_qr_scan"}}, {"type": "electric_scooter", "name": "8533a52ac7463341a8c35bb8d32c5ed1", "fusion_lon": 0.0, "is_reserved": 0, "lon": -77.03219166666666, "fusion_lat": 0.0, "is_disabled": 0, "bike_id": "8533a52ac7463341a8c35bb8d32c5ed1", "lat": 38.919272666666664, "rental_uris": {"ios": "https://dc.lft.to/lastmile_qr_scan", "android": "https://dc.lft.to/lastmile_qr_scan"}}, {"type": "electric_scooter", "name": "cd63e57584caeaae5c9dc36ace24e52f", "fusion_lon": 0.0, "is_reserved": 0, "lon": -76.99828116666667, "fusion_lat": 0.0, "is_disabled": 0, "bike_id": "cd63e57584caeaae5c9dc36ace24e52f", "lat": 38.876788833333336, "rental_uris": {"ios": "https://dc.lft.to/lastmile_qr_scan", "android": "https://dc.lft.to/lastmile_qr_scan"}}, {"type": "electric_scooter", "name": "212e25c433d08d94fbe0fbc66d1e025f", "fusion_lon": 0.0, "is_reserved": 0, "lon": -77.04155083333333, "fusion_lat": 0.0, "is_disabled": 0, "bike_id": "212e25c433d08d94fbe0fbc66d1e025f", "lat": 38.923542, "rental_uris": {"ios": "https://dc.lft.to/lastmile_qr_scan", "android": "https://dc.lft.to/lastmile_qr_scan"}}, {"type": "electric_bike", "name": "1f9527db07e6e31b167815a0dafb3099", "fusion_lon": 0.0, "is_reserved": 0, "lon": -76.92926316666667, "fusion_lat": 0.0, "is_disabled": 0, "bike_id": "1f9527db07e6e31b167815a0dafb3099", "lat": 38.902731333333335, "rental_uris": {"ios": "https://dc.lft.to/lastmile_qr_scan", "android": "https://dc.lft.to/lastmile_qr_scan"}}, {"type": "electric_scooter", "name": "97c606dae212454e678894f6803b13a7", "fusion_lon": 0.0, "is_reserved": 0, "lon": -77.03302816666667, "fusion_lat": 0.0, "is_disabled": 0, "bike_id": "97c606dae212454e678894f6803b13a7", "lat": 38.899180666666666, "rental_uris": {"ios": "https://dc.lft.to/lastmile_qr_scan", "android": "https://dc.lft.to/lastmile_qr_scan"}}, {"type": "electric_scooter", "name": "9680fbedc36f36548a7583df4e780f75", "fusion_lon": 0.0, "is_reserved": 0, "lon": -77.01991766666667, "fusion_lat": 0.0, "is_disabled": 0, "bike_id": "9680fbedc36f36548a7583df4e780f75", "lat": 38.96625516666667, "rental_uris": {"ios": "https://dc.lft.to/lastmile_qr_scan", "android": "https://dc.lft.to/lastmile_qr_scan"}}, {"type": "electric_scooter", "name": "38ae599fc9e8f72b286408371d22600b", "fusion_lon": 0.0, "is_reserved": 0, "lon": -77.00768883333333, "fusion_lat": 0.0, "is_disabled": 0, "bike_id": "38ae599fc9e8f72b286408371d22600b", "lat": 38.895991333333335, "rental_uris": {"ios": "https://dc.lft.to/lastmile_qr_scan", "android": "https://dc.lft.to/lastmile_qr_scan"}}, {"type": "electric_scooter", "name": "310e54c8c65396d589fbe135586fd21d", "fusion_lon": 0.0, "is_reserved": 0, "lon": -77.050281, "fusion_lat": 0.0, "is_disabled": 0, "bike_id": "310e54c8c65396d589fbe135586fd21d", "lat": 38.896743666666666, "rental_uris": {"ios": "https://dc.lft.to/lastmile_qr_scan", "android": "https://dc.lft.to/lastmile_qr_scan"}}, {"type": "electric_scooter", "name": "2b2e3581145985ad9785fd977f087807", "fusion_lon": 0.0, "is_reserved": 0, "lon": -77.0437395, "fusion_lat": 0.0, "is_disabled": 0, "bike_id": "2b2e3581145985ad9785fd977f087807", "lat": 38.89218066666667, "rental_uris": {"ios": "https://dc.lft.to/lastmile_qr_scan", "android": "https://dc.lft.to/lastmile_qr_scan"}}, {"type": "electric_scooter", "name": "b8e3c29f315cdeac5d106a3d2b44eba4", "fusion_lon": 0.0, "is_reserved": 0, "lon": -77.00133233333334, "fusion_lat": 0.0, "is_disabled": 0, "bike_id": "b8e3c29f315cdeac5d106a3d2b44eba4", "lat": 38.905143833333334, "rental_uris": {"ios": "https://dc.lft.to/lastmile_qr_scan", "android": "https://dc.lft.to/lastmile_qr_scan"}}, {"type": "electric_scooter", "name": "5dbedf6c63ad3fe17b8aa4e1edd84461", "fusion_lon": 0.0, "is_reserved": 0, "lon": -77.04154566666666, "fusion_lat": 0.0, "is_disabled": 0, "bike_id": "5dbedf6c63ad3fe17b8aa4e1edd84461", "lat": 38.918418333333335, "rental_uris": {"ios": "https://dc.lft.to/lastmile_qr_scan", "android": "https://dc.lft.to/lastmile_qr_scan"}}, {"type": "electric_bike", "name": "bd7bf6df1ebde660244fdbacb5c197e5", "fusion_lon": 0.0, "is_reserved": 0, "lon": -76.99927183333334, "fusion_lat": 0.0, "is_disabled": 0, "bike_id": "bd7bf6df1ebde660244fdbacb5c197e5", "lat": 39.0399055, "rental_uris": {"ios": "https://dc.lft.to/lastmile_qr_scan", "android": "https://dc.lft.to/lastmile_qr_scan"}}, {"type": "electric_scooter", "name": "8a98f5e933cbde4e48c788ff754c7db8", "fusion_lon": 0.0, "is_reserved": 0, "lon": -77.04073516666666, "fusion_lat": 0.0, "is_disabled": 0, "bike_id": "8a98f5e933cbde4e48c788ff754c7db8", "lat": 38.9056065, "rental_uris": {"ios": "https://dc.lft.to/lastmile_qr_scan", "android": "https://dc.lft.to/lastmile_qr_scan"}}, {"type": "electric_scooter", "name": "aa798f7500096a6d37be3e01e30d772c", "fusion_lon": 0.0, "is_reserved": 0, "lon": -77.00213883333333, "fusion_lat": 0.0, "is_disabled": 0, "bike_id": "aa798f7500096a6d37be3e01e30d772c", "lat": 38.911029, "rental_uris": {"ios": "https://dc.lft.to/lastmile_qr_scan", "android": "https://dc.lft.to/lastmile_qr_scan"}}, {"type": "electric_scooter", "name": "a79929d85d2dc24988792d2f06c24e1c", "fusion_lon": 0.0, "is_reserved": 0, "lon": -77.04017883333333, "fusion_lat": 0.0, "is_disabled": 0, "bike_id": "a79929d85d2dc24988792d2f06c24e1c", "lat": 38.917936, "rental_uris": {"ios": "https://dc.lft.to/lastmile_qr_scan", "android": "https://dc.lft.to/lastmile_qr_scan"}}, {"type": "electric_scooter", "name": "e5c19fe42f141b2941ccc9f8148a2957", "fusion_lon": 0.0, "is_reserved": 0, "lon": -77.03691616666667, "fusion_lat": 0.0, "is_disabled": 0, "bike_id": "e5c19fe42f141b2941ccc9f8148a2957", "lat": 38.920311166666664, "rental_uris": {"ios": "https://dc.lft.to/lastmile_qr_scan", "android": "https://dc.lft.to/lastmile_qr_scan"}}, {"type": "electric_scooter", "name": "7bd3b81cad12e6f8c18453f83c59d10e", "fusion_lon": 0.0, "is_reserved": 0, "lon": -77.03660716666667, "fusion_lat": 0.0, "is_disabled": 0, "bike_id": "7bd3b81cad12e6f8c18453f83c59d10e", "lat": 38.922382666666664, "rental_uris": {"ios": "https://dc.lft.to/lastmile_qr_scan", "android": "https://dc.lft.to/lastmile_qr_scan"}}, {"type": "electric_scooter", "name": "4e44555c97470ec59646eec0321b25fb", "fusion_lon": 0.0, "is_reserved": 0, "lon": -77.03881933333334, "fusion_lat": 0.0, "is_disabled": 0, "bike_id": "4e44555c97470ec59646eec0321b25fb", "lat": 38.90241066666667, "rental_uris": {"ios": "https://dc.lft.to/lastmile_qr_scan", "android": "https://dc.lft.to/lastmile_qr_scan"}}, {"type": "electric_scooter", "name": "0ab491ac3e660a1c70b08c07d28fce07", "fusion_lon": 0.0, "is_reserved": 0, "lon": -77.007108, "fusion_lat": 0.0, "is_disabled": 0, "bike_id": "0ab491ac3e660a1c70b08c07d28fce07", "lat": 38.884922833333334, "rental_uris": {"ios": "https://dc.lft.to/lastmile_qr_scan", "android": "https://dc.lft.to/lastmile_qr_scan"}}, {"type": "electric_scooter", "name": "0b46d98ea62e9f68d9098aab6405b5ba", "fusion_lon": 0.0, "is_reserved": 0, "lon": -77.03456166666666, "fusion_lat": 0.0, "is_disabled": 0, "bike_id": "0b46d98ea62e9f68d9098aab6405b5ba", "lat": 38.90369533333333, "rental_uris": {"ios": "https://dc.lft.to/lastmile_qr_scan", "android": "https://dc.lft.to/lastmile_qr_scan"}}, {"type": "electric_scooter", "name": "856edb157ab55595c743f67ec9e8b20b", "fusion_lon": 0.0, "is_reserved": 0, "lon": -77.04307283333333, "fusion_lat": 0.0, "is_disabled": 0, "bike_id": "856edb157ab55595c743f67ec9e8b20b", "lat": 38.892231833333334, "rental_uris": {"ios": "https://dc.lft.to/lastmile_qr_scan", "android": "https://dc.lft.to/lastmile_qr_scan"}}, {"type": "electric_scooter", "name": "61771d923d163b33ae1c04f1c1114c4c", "fusion_lon": 0.0, "is_reserved": 0, "lon": -77.02219233333334, "fusion_lat": 0.0, "is_disabled": 0, "bike_id": "61771d923d163b33ae1c04f1c1114c4c", "lat": 38.95527283333333, "rental_uris": {"ios": "https://dc.lft.to/lastmile_qr_scan", "android": "https://dc.lft.to/lastmile_qr_scan"}}, {"type": "electric_scooter", "name": "f025177eb8bad34aaecf03174a46a97c", "fusion_lon": 0.0, "is_reserved": 0, "lon": -77.045016, "fusion_lat": 0.0, "is_disabled": 0, "bike_id": "f025177eb8bad34aaecf03174a46a97c", "lat": 38.892258, "rental_uris": {"ios": "https://dc.lft.to/lastmile_qr_scan", "android": "https://dc.lft.to/lastmile_qr_scan"}}, {"type": "electric_scooter", "name": "e31052583bd7d4e200b751df4957b78f", "fusion_lon": 0.0, "is_reserved": 0, "lon": -77.02809233333333, "fusion_lat": 0.0, "is_disabled": 0, "bike_id": "e31052583bd7d4e200b751df4957b78f", "lat": 38.9153765, "rental_uris": {"ios": "https://dc.lft.to/lastmile_qr_scan", "android": "https://dc.lft.to/lastmile_qr_scan"}}, {"type": "electric_scooter", "name": "aadc6bc904658a172ed4f2237fb4b963", "fusion_lon": 0.0, "is_reserved": 0, "lon": -77.04554666666667, "fusion_lat": 0.0, "is_disabled": 0, "bike_id": "aadc6bc904658a172ed4f2237fb4b963", "lat": 38.907517166666665, "rental_uris": {"ios": "https://dc.lft.to/lastmile_qr_scan", "android": "https://dc.lft.to/lastmile_qr_scan"}}, {"type": "electric_scooter", "name": "eee840e7e76f0b60f95804833343fcec", "fusion_lon": 0.0, "is_reserved": 0, "lon": -77.00024783333333, "fusion_lat": 0.0, "is_disabled": 0, "bike_id": "eee840e7e76f0b60f95804833343fcec", "lat": 38.873712, "rental_uris": {"ios": "https://dc.lft.to/lastmile_qr_scan", "android": "https://dc.lft.to/lastmile_qr_scan"}}, {"type": "electric_scooter", "name": "1043a334c9b947c555bdfdea98a5312d", "fusion_lon": 0.0, "is_reserved": 0, "lon": -76.98923966666666, "fusion_lat": 0.0, "is_disabled": 0, "bike_id": "1043a334c9b947c555bdfdea98a5312d", "lat": 38.90254083333333, "rental_uris": {"ios": "https://dc.lft.to/lastmile_qr_scan", "android": "https://dc.lft.to/lastmile_qr_scan"}}, {"type": "electric_scooter", "name": "19600ff280f83e0811984a3e6b3af42c", "fusion_lon": 0.0, "is_reserved": 0, "lon": -77.040023, "fusion_lat": 0.0, "is_disabled": 0, "bike_id": "19600ff280f83e0811984a3e6b3af42c", "lat": 38.93433066666667, "rental_uris": {"ios": "https://dc.lft.to/lastmile_qr_scan", "android": "https://dc.lft.to/lastmile_qr_scan"}}, {"type": "electric_scooter", "name": "5278f9c51d3e5f2a75db586d9f2ec68d", "fusion_lon": 0.0, "is_reserved": 0, "lon": -77.0363925, "fusion_lat": 0.0, "is_disabled": 0, "bike_id": "5278f9c51d3e5f2a75db586d9f2ec68d", "lat": 38.915019, "rental_uris": {"ios": "https://dc.lft.to/lastmile_qr_scan", "android": "https://dc.lft.to/lastmile_qr_scan"}}, {"type": "electric_scooter", "name": "3688ed1aababcc167d492011c1fa77e8", "fusion_lon": 0.0, "is_reserved": 0, "lon": -77.0355885, "fusion_lat": 0.0, "is_disabled": 0, "bike_id": "3688ed1aababcc167d492011c1fa77e8", "lat": 38.90480483333333, "rental_uris": {"ios": "https://dc.lft.to/lastmile_qr_scan", "android": "https://dc.lft.to/lastmile_qr_scan"}}, {"type": "electric_scooter", "name": "604f5861a7ca1f472c6b96338d1d5dc5", "fusion_lon": 0.0, "is_reserved": 0, "lon": -77.00306116666667, "fusion_lat": 0.0, "is_disabled": 0, "bike_id": "604f5861a7ca1f472c6b96338d1d5dc5", "lat": 38.9002505, "rental_uris": {"ios": "https://dc.lft.to/lastmile_qr_scan", "android": "https://dc.lft.to/lastmile_qr_scan"}}, {"type": "electric_scooter", "name": "db600b28069aa5b6982f4dd1ce6b9d3d", "fusion_lon": 0.0, "is_reserved": 0, "lon": -77.038403, "fusion_lat": 0.0, "is_disabled": 0, "bike_id": "db600b28069aa5b6982f4dd1ce6b9d3d", "lat": 38.903821, "rental_uris": {"ios": "https://dc.lft.to/lastmile_qr_scan", "android": "https://dc.lft.to/lastmile_qr_scan"}}, {"type": "electric_scooter", "name": "3561673079ad611423656c7ca4c015d3", "fusion_lon": 0.0, "is_reserved": 0, "lon": -76.93371466666666, "fusion_lat": 0.0, "is_disabled": 0, "bike_id": "3561673079ad611423656c7ca4c015d3", "lat": 38.899137333333336, "rental_uris": {"ios": "https://dc.lft.to/lastmile_qr_scan", "android": "https://dc.lft.to/lastmile_qr_scan"}}, {"type": "electric_bike", "name": "8782280a82140649ebd86bd982f4120d", "fusion_lon": 0.0, "is_reserved": 0, "lon": -77.10131583333333, "fusion_lat": 0.0, "is_disabled": 0, "bike_id": "8782280a82140649ebd86bd982f4120d", "lat": 38.852075166666665, "rental_uris": {"ios": "https://dc.lft.to/lastmile_qr_scan", "android": "https://dc.lft.to/lastmile_qr_scan"}}, {"type": "electric_scooter", "name": "06c23702cb2beb49028d725efe68aeb1", "fusion_lon": 0.0, "is_reserved": 0, "lon": -77.00858383333333, "fusion_lat": 0.0, "is_disabled": 0, "bike_id": "06c23702cb2beb49028d725efe68aeb1", "lat": 38.910826, "rental_uris": {"ios": "https://dc.lft.to/lastmile_qr_scan", "android": "https://dc.lft.to/lastmile_qr_scan"}}, {"type": "electric_scooter", "name": "ead9492b2dadbfd3868a052b94c49e5f", "fusion_lon": 0.0, "is_reserved": 0, "lon": -77.0505935, "fusion_lat": 0.0, "is_disabled": 0, "bike_id": "ead9492b2dadbfd3868a052b94c49e5f", "lat": 38.924194, "rental_uris": {"ios": "https://dc.lft.to/lastmile_qr_scan", "android": "https://dc.lft.to/lastmile_qr_scan"}}, {"type": "electric_scooter", "name": "e83e701ca3dc6f1cd17d636786f0236f", "fusion_lon": 0.0, "is_reserved": 0, "lon": -77.04488183333333, "fusion_lat": 0.0, "is_disabled": 0, "bike_id": "e83e701ca3dc6f1cd17d636786f0236f", "lat": 38.8979455, "rental_uris": {"ios": "https://dc.lft.to/lastmile_qr_scan", "android": "https://dc.lft.to/lastmile_qr_scan"}}, {"type": "electric_scooter", "name": "52dcb8b8b16b0fb5fc29eb62b7f74df6", "fusion_lon": 0.0, "is_reserved": 0, "lon": -77.031015, "fusion_lat": 0.0, "is_disabled": 0, "bike_id": "52dcb8b8b16b0fb5fc29eb62b7f74df6", "lat": 38.9286245, "rental_uris": {"ios": "https://dc.lft.to/lastmile_qr_scan", "android": "https://dc.lft.to/lastmile_qr_scan"}}, {"type": "electric_scooter", "name": "7133c7004ef2f8c7c36a7285d045fc13", "fusion_lon": 0.0, "is_reserved": 0, "lon": -77.0497355, "fusion_lat": 0.0, "is_disabled": 0, "bike_id": "7133c7004ef2f8c7c36a7285d045fc13", "lat": 38.907167333333334, "rental_uris": {"ios": "https://dc.lft.to/lastmile_qr_scan", "android": "https://dc.lft.to/lastmile_qr_scan"}}, {"type": "electric_scooter", "name": "9edc3608c1c86eea732e08b671435f6e", "fusion_lon": 0.0, "is_reserved": 0, "lon": -77.021206, "fusion_lat": 0.0, "is_disabled": 0, "bike_id": "9edc3608c1c86eea732e08b671435f6e", "lat": 38.91898116666667, "rental_uris": {"ios": "https://dc.lft.to/lastmile_qr_scan", "android": "https://dc.lft.to/lastmile_qr_scan"}}, {"type": "electric_scooter", "name": "6fc5f36e07c5f108fe9e33dcde05c660", "fusion_lon": 0.0, "is_reserved": 0, "lon": -77.01824666666667, "fusion_lat": 0.0, "is_disabled": 0, "bike_id": "6fc5f36e07c5f108fe9e33dcde05c660", "lat": 38.922617833333334, "rental_uris": {"ios": "https://dc.lft.to/lastmile_qr_scan", "android": "https://dc.lft.to/lastmile_qr_scan"}}, {"type": "electric_scooter", "name": "78363627c9db484448754119c389d6fe", "fusion_lon": 0.0, "is_reserved": 0, "lon": -77.03413366666666, "fusion_lat": 0.0, "is_disabled": 0, "bike_id": "78363627c9db484448754119c389d6fe", "lat": 38.932470333333335, "rental_uris": {"ios": "https://dc.lft.to/lastmile_qr_scan", "android": "https://dc.lft.to/lastmile_qr_scan"}}, {"type": "electric_bike", "name": "fffa056ecbad9f3c5abb0d6bdcf1be49", "fusion_lon": 0.0, "is_reserved": 0, "lon": -77.00312383333333, "fusion_lat": 0.0, "is_disabled": 0, "bike_id": "fffa056ecbad9f3c5abb0d6bdcf1be49", "lat": 38.90744483333334, "rental_uris": {"ios": "https://dc.lft.to/lastmile_qr_scan", "android": "https://dc.lft.to/lastmile_qr_scan"}}, {"type": "electric_scooter", "name": "5976bfdf6447c7495013b115fd2df3dd", "fusion_lon": 0.0, "is_reserved": 0, "lon": -77.01354933333333, "fusion_lat": 0.0, "is_disabled": 0, "bike_id": "5976bfdf6447c7495013b115fd2df3dd", "lat": 38.870894166666666, "rental_uris": {"ios": "https://dc.lft.to/lastmile_qr_scan", "android": "https://dc.lft.to/lastmile_qr_scan"}}, {"type": "electric_scooter", "name": "926caa16640a3ee8d8559aaee97eb681", "fusion_lon": 0.0, "is_reserved": 0, "lon": -77.05053033333333, "fusion_lat": 0.0, "is_disabled": 0, "bike_id": "926caa16640a3ee8d8559aaee97eb681", "lat": 38.905162, "rental_uris": {"ios": "https://dc.lft.to/lastmile_qr_scan", "android": "https://dc.lft.to/lastmile_qr_scan"}}, {"type": "electric_scooter", "name": "71e1cc882b1d55f10e6c04fe02b29cc2", "fusion_lon": 0.0, "is_reserved": 0, "lon": -77.032073, "fusion_lat": 0.0, "is_disabled": 0, "bike_id": "71e1cc882b1d55f10e6c04fe02b29cc2", "lat": 38.892375, "rental_uris": {"ios": "https://dc.lft.to/lastmile_qr_scan", "android": "https://dc.lft.to/lastmile_qr_scan"}}, {"type": "electric_scooter", "name": "dc1266ddefacdc84183cef61d75a5610", "fusion_lon": 0.0, "is_reserved": 0, "lon": -77.02291733333334, "fusion_lat": 0.0, "is_disabled": 0, "bike_id": "dc1266ddefacdc84183cef61d75a5610", "lat": 38.9091235, "rental_uris": {"ios": "https://dc.lft.to/lastmile_qr_scan", "android": "https://dc.lft.to/lastmile_qr_scan"}}, {"type": "electric_scooter", "name": "e73f4c90b407ea3925363cafbc24be65", "fusion_lon": 0.0, "is_reserved": 0, "lon": -77.02279316666667, "fusion_lat": 0.0, "is_disabled": 0, "bike_id": "e73f4c90b407ea3925363cafbc24be65", "lat": 38.9145605, "rental_uris": {"ios": "https://dc.lft.to/lastmile_qr_scan", "android": "https://dc.lft.to/lastmile_qr_scan"}}, {"type": "electric_scooter", "name": "31ab97c2a5135fe3fb3661046d44ff1a", "fusion_lon": 0.0, "is_reserved": 0, "lon": -77.033451, "fusion_lat": 0.0, "is_disabled": 0, "bike_id": "31ab97c2a5135fe3fb3661046d44ff1a", "lat": 38.928714, "rental_uris": {"ios": "https://dc.lft.to/lastmile_qr_scan", "android": "https://dc.lft.to/lastmile_qr_scan"}}, {"type": "electric_scooter", "name": "0f6378c5987030403601aaa40575cd6c", "fusion_lon": 0.0, "is_reserved": 0, "lon": -77.02107766666667, "fusion_lat": 0.0, "is_disabled": 0, "bike_id": "0f6378c5987030403601aaa40575cd6c", "lat": 38.906054833333336, "rental_uris": {"ios": "https://dc.lft.to/lastmile_qr_scan", "android": "https://dc.lft.to/lastmile_qr_scan"}}, {"type": "electric_scooter", "name": "530a93716ed2b3cc3c8546959f741442", "fusion_lon": 0.0, "is_reserved": 0, "lon": -76.92621916666667, "fusion_lat": 0.0, "is_disabled": 0, "bike_id": "530a93716ed2b3cc3c8546959f741442", "lat": 38.88458, "rental_uris": {"ios": "https://dc.lft.to/lastmile_qr_scan", "android": "https://dc.lft.to/lastmile_qr_scan"}}, {"type": "electric_scooter", "name": "ed5bdd92c47674f8c6d170f2a1c93194", "fusion_lon": 0.0, "is_reserved": 0, "lon": -77.03772783333334, "fusion_lat": 0.0, "is_disabled": 0, "bike_id": "ed5bdd92c47674f8c6d170f2a1c93194", "lat": 38.926909333333334, "rental_uris": {"ios": "https://dc.lft.to/lastmile_qr_scan", "android": "https://dc.lft.to/lastmile_qr_scan"}}, {"type": "electric_scooter", "name": "0e5b34719b5c989708ccccc5adfd7a13", "fusion_lon": 0.0, "is_reserved": 0, "lon": -76.996266, "fusion_lat": 0.0, "is_disabled": 0, "bike_id": "0e5b34719b5c989708ccccc5adfd7a13", "lat": 38.885297666666666, "rental_uris": {"ios": "https://dc.lft.to/lastmile_qr_scan", "android": "https://dc.lft.to/lastmile_qr_scan"}}, {"type": "electric_bike", "name": "08a4d64bba18933fd8963730915b7768", "fusion_lon": 0.0, "is_reserved": 0, "lon": -77.10832883333333, "fusion_lat": 0.0, "is_disabled": 0, "bike_id": "08a4d64bba18933fd8963730915b7768", "lat": 38.81201733333333, "rental_uris": {"ios": "https://dc.lft.to/lastmile_qr_scan", "android": "https://dc.lft.to/lastmile_qr_scan"}}, {"type": "electric_scooter", "name": "275703cc5b16e0e30078398162daa547", "fusion_lon": 0.0, "is_reserved": 0, "lon": -77.03050066666667, "fusion_lat": 0.0, "is_disabled": 0, "bike_id": "275703cc5b16e0e30078398162daa547", "lat": 38.91710916666667, "rental_uris": {"ios": "https://dc.lft.to/lastmile_qr_scan", "android": "https://dc.lft.to/lastmile_qr_scan"}}, {"type": "electric_scooter", "name": "0d0b8ebfe92c577fe4cee66da59f4669", "fusion_lon": 0.0, "is_reserved": 0, "lon": -77.04529816666667, "fusion_lat": 0.0, "is_disabled": 0, "bike_id": "0d0b8ebfe92c577fe4cee66da59f4669", "lat": 38.913095, "rental_uris": {"ios": "https://dc.lft.to/lastmile_qr_scan", "android": "https://dc.lft.to/lastmile_qr_scan"}}, {"type": "electric_scooter", "name": "f84ecbef954941c2516696aec8577295", "fusion_lon": 0.0, "is_reserved": 0, "lon": -77.03848783333333, "fusion_lat": 0.0, "is_disabled": 0, "bike_id": "f84ecbef954941c2516696aec8577295", "lat": 38.9166505, "rental_uris": {"ios": "https://dc.lft.to/lastmile_qr_scan", "android": "https://dc.lft.to/lastmile_qr_scan"}}, {"type": "electric_scooter", "name": "139ea533bf34db65f9923ca8ced865ec", "fusion_lon": 0.0, "is_reserved": 0, "lon": -76.99513716666667, "fusion_lat": 0.0, "is_disabled": 0, "bike_id": "139ea533bf34db65f9923ca8ced865ec", "lat": 38.88610633333333, "rental_uris": {"ios": "https://dc.lft.to/lastmile_qr_scan", "android": "https://dc.lft.to/lastmile_qr_scan"}}, {"type": "electric_bike", "name": "b7eebdd1fced40735909bedf9b6cab2c", "fusion_lon": 0.0, "is_reserved": 0, "lon": -77.02624066666667, "fusion_lat": 0.0, "is_disabled": 0, "bike_id": "b7eebdd1fced40735909bedf9b6cab2c", "lat": 38.9622455, "rental_uris": {"ios": "https://dc.lft.to/lastmile_qr_scan", "android": "https://dc.lft.to/lastmile_qr_scan"}}, {"type": "electric_scooter", "name": "f01f3fc3fcd07942d1cf445a19e58e25", "fusion_lon": 0.0, "is_reserved": 0, "lon": -77.04171716666667, "fusion_lat": 0.0, "is_disabled": 0, "bike_id": "f01f3fc3fcd07942d1cf445a19e58e25", "lat": 38.89848683333334, "rental_uris": {"ios": "https://dc.lft.to/lastmile_qr_scan", "android": "https://dc.lft.to/lastmile_qr_scan"}}, {"type": "electric_scooter", "name": "6d0fa922477902a8c02d15586e3b3f36", "fusion_lon": 0.0, "is_reserved": 0, "lon": -77.0258585, "fusion_lat": 0.0, "is_disabled": 0, "bike_id": "6d0fa922477902a8c02d15586e3b3f36", "lat": 38.92036783333333, "rental_uris": {"ios": "https://dc.lft.to/lastmile_qr_scan", "android": "https://dc.lft.to/lastmile_qr_scan"}}, {"type": "electric_scooter", "name": "4e3f3ae241899e5d5c10ab1a488a300c", "fusion_lon": 0.0, "is_reserved": 0, "lon": -77.03395266666666, "fusion_lat": 0.0, "is_disabled": 0, "bike_id": "4e3f3ae241899e5d5c10ab1a488a300c", "lat": 38.9167675, "rental_uris": {"ios": "https://dc.lft.to/lastmile_qr_scan", "android": "https://dc.lft.to/lastmile_qr_scan"}}, {"type": "electric_scooter", "name": "5f71d840b4f171981ee81cb47bdfbb4f", "fusion_lon": 0.0, "is_reserved": 0, "lon": -77.04500066666667, "fusion_lat": 0.0, "is_disabled": 0, "bike_id": "5f71d840b4f171981ee81cb47bdfbb4f", "lat": 38.911999, "rental_uris": {"ios": "https://dc.lft.to/lastmile_qr_scan", "android": "https://dc.lft.to/lastmile_qr_scan"}}, {"type": "electric_scooter", "name": "780b77451f1fba6f4708b649a026f571", "fusion_lon": 0.0, "is_reserved": 0, "lon": -77.03850883333334, "fusion_lat": 0.0, "is_disabled": 0, "bike_id": "780b77451f1fba6f4708b649a026f571", "lat": 38.906349166666665, "rental_uris": {"ios": "https://dc.lft.to/lastmile_qr_scan", "android": "https://dc.lft.to/lastmile_qr_scan"}}, {"type": "electric_scooter", "name": "8c3d6dddf2da5c6c22321c70351ef503", "fusion_lon": 0.0, "is_reserved": 0, "lon": -76.99773, "fusion_lat": 0.0, "is_disabled": 0, "bike_id": "8c3d6dddf2da5c6c22321c70351ef503", "lat": 38.84426716666667, "rental_uris": {"ios": "https://dc.lft.to/lastmile_qr_scan", "android": "https://dc.lft.to/lastmile_qr_scan"}}, {"type": "electric_scooter", "name": "844f1cf1b2831eb206730aa5fd12211c", "fusion_lon": 0.0, "is_reserved": 0, "lon": -76.937333, "fusion_lat": 0.0, "is_disabled": 0, "bike_id": "844f1cf1b2831eb206730aa5fd12211c", "lat": 38.890167166666664, "rental_uris": {"ios": "https://dc.lft.to/lastmile_qr_scan", "android": "https://dc.lft.to/lastmile_qr_scan"}}, {"type": "electric_scooter", "name": "01af367ea9cbbaece3c9df0154b554c2", "fusion_lon": 0.0, "is_reserved": 0, "lon": -77.02002433333334, "fusion_lat": 0.0, "is_disabled": 0, "bike_id": "01af367ea9cbbaece3c9df0154b554c2", "lat": 38.885712166666664, "rental_uris": {"ios": "https://dc.lft.to/lastmile_qr_scan", "android": "https://dc.lft.to/lastmile_qr_scan"}}, {"type": "electric_scooter", "name": "1211d6ef70e0d299ab1ead9384bc41f0", "fusion_lon": 0.0, "is_reserved": 0, "lon": -77.05416066666666, "fusion_lat": 0.0, "is_disabled": 0, "bike_id": "1211d6ef70e0d299ab1ead9384bc41f0", "lat": 38.928246333333334, "rental_uris": {"ios": "https://dc.lft.to/lastmile_qr_scan", "android": "https://dc.lft.to/lastmile_qr_scan"}}, {"type": "electric_scooter", "name": "74262753086652fd6ee4b136d625b07b", "fusion_lon": 0.0, "is_reserved": 0, "lon": -77.03310416666666, "fusion_lat": 0.0, "is_disabled": 0, "bike_id": "74262753086652fd6ee4b136d625b07b", "lat": 38.908280833333336, "rental_uris": {"ios": "https://dc.lft.to/lastmile_qr_scan", "android": "https://dc.lft.to/lastmile_qr_scan"}}, {"type": "electric_bike", "name": "f3e2d292e657b4623d5bdc1d82b6d9e2", "fusion_lon": 0.0, "is_reserved": 0, "lon": -77.01950933333333, "fusion_lat": 0.0, "is_disabled": 0, "bike_id": "f3e2d292e657b4623d5bdc1d82b6d9e2", "lat": 38.9226295, "rental_uris": {"ios": "https://dc.lft.to/lastmile_qr_scan", "android": "https://dc.lft.to/lastmile_qr_scan"}}, {"type": "electric_bike", "name": "1150a56afc574bd4d7cded7dd46c0d8b", "fusion_lon": 0.0, "is_reserved": 0, "lon": -77.01976083333334, "fusion_lat": 0.0, "is_disabled": 0, "bike_id": "1150a56afc574bd4d7cded7dd46c0d8b", "lat": 38.91122633333333, "rental_uris": {"ios": "https://dc.lft.to/lastmile_qr_scan", "android": "https://dc.lft.to/lastmile_qr_scan"}}, {"type": "electric_scooter", "name": "53676e097b32d81d766935a7d37d1f55", "fusion_lon": 0.0, "is_reserved": 0, "lon": -76.99163416666667, "fusion_lat": 0.0, "is_disabled": 0, "bike_id": "53676e097b32d81d766935a7d37d1f55", "lat": 38.891153, "rental_uris": {"ios": "https://dc.lft.to/lastmile_qr_scan", "android": "https://dc.lft.to/lastmile_qr_scan"}}, {"type": "electric_scooter", "name": "20e70d066fab486f7dc3fe952d6fecb8", "fusion_lon": 0.0, "is_reserved": 0, "lon": -77.0413685, "fusion_lat": 0.0, "is_disabled": 0, "bike_id": "20e70d066fab486f7dc3fe952d6fecb8", "lat": 38.909037166666664, "rental_uris": {"ios": "https://dc.lft.to/lastmile_qr_scan", "android": "https://dc.lft.to/lastmile_qr_scan"}}, {"type": "electric_scooter", "name": "524be5b70c9b01e690357d4bf53f632f", "fusion_lon": 0.0, "is_reserved": 0, "lon": -77.005685, "fusion_lat": 0.0, "is_disabled": 0, "bike_id": "524be5b70c9b01e690357d4bf53f632f", "lat": 38.837031, "rental_uris": {"ios": "https://dc.lft.to/lastmile_qr_scan", "android": "https://dc.lft.to/lastmile_qr_scan"}}, {"type": "electric_bike", "name": "00887dbcfac4efd2a0f52238a7482634", "fusion_lon": 0.0, "is_reserved": 0, "lon": -76.96613383333333, "fusion_lat": 0.0, "is_disabled": 0, "bike_id": "00887dbcfac4efd2a0f52238a7482634", "lat": 38.942237666666664, "rental_uris": {"ios": "https://dc.lft.to/lastmile_qr_scan", "android": "https://dc.lft.to/lastmile_qr_scan"}}, {"type": "electric_scooter", "name": "59f1d2830eee950e9154410b335d76d3", "fusion_lon": 0.0, "is_reserved": 0, "lon": -77.03438666666666, "fusion_lat": 0.0, "is_disabled": 0, "bike_id": "59f1d2830eee950e9154410b335d76d3", "lat": 38.9332135, "rental_uris": {"ios": "https://dc.lft.to/lastmile_qr_scan", "android": "https://dc.lft.to/lastmile_qr_scan"}}, {"type": "electric_scooter", "name": "8ccd007ba9b3bfa62d3bf1013f2bea3f", "fusion_lon": 0.0, "is_reserved": 0, "lon": -77.05789683333333, "fusion_lat": 0.0, "is_disabled": 0, "bike_id": "8ccd007ba9b3bfa62d3bf1013f2bea3f", "lat": 38.902652333333336, "rental_uris": {"ios": "https://dc.lft.to/lastmile_qr_scan", "android": "https://dc.lft.to/lastmile_qr_scan"}}, {"type": "electric_scooter", "name": "d1d617672bbf8686ae7c8c90eba5b979", "fusion_lon": 0.0, "is_reserved": 0, "lon": -77.05023716666666, "fusion_lat": 0.0, "is_disabled": 0, "bike_id": "d1d617672bbf8686ae7c8c90eba5b979", "lat": 38.89776583333333, "rental_uris": {"ios": "https://dc.lft.to/lastmile_qr_scan", "android": "https://dc.lft.to/lastmile_qr_scan"}}, {"type": "electric_bike", "name": "da012d70c8069f6decc9472fc2acaa03", "fusion_lon": 0.0, "is_reserved": 0, "lon": -76.884009, "fusion_lat": 0.0, "is_disabled": 0, "bike_id": "da012d70c8069f6decc9472fc2acaa03", "lat": 38.93169316666667, "rental_uris": {"ios": "https://dc.lft.to/lastmile_qr_scan", "android": "https://dc.lft.to/lastmile_qr_scan"}}, {"type": "electric_scooter", "name": "23c66a49607b94a075c1d59f6f3e1c69", "fusion_lon": 0.0, "is_reserved": 0, "lon": -77.0502535, "fusion_lat": 0.0, "is_disabled": 0, "bike_id": "23c66a49607b94a075c1d59f6f3e1c69", "lat": 38.901931166666664, "rental_uris": {"ios": "https://dc.lft.to/lastmile_qr_scan", "android": "https://dc.lft.to/lastmile_qr_scan"}}, {"type": "electric_scooter", "name": "209c7ce07fd4d25fb2181ed14d957e37", "fusion_lon": 0.0, "is_reserved": 0, "lon": -77.03989283333334, "fusion_lat": 0.0, "is_disabled": 0, "bike_id": "209c7ce07fd4d25fb2181ed14d957e37", "lat": 38.93400833333333, "rental_uris": {"ios": "https://dc.lft.to/lastmile_qr_scan", "android": "https://dc.lft.to/lastmile_qr_scan"}}, {"type": "electric_scooter", "name": "a23718f63dcb56d962a5909dd29627b9", "fusion_lon": 0.0, "is_reserved": 0, "lon": -77.05003983333333, "fusion_lat": 0.0, "is_disabled": 0, "bike_id": "a23718f63dcb56d962a5909dd29627b9", "lat": 38.892308166666666, "rental_uris": {"ios": "https://dc.lft.to/lastmile_qr_scan", "android": "https://dc.lft.to/lastmile_qr_scan"}}, {"type": "electric_scooter", "name": "6e5869e422e787e099f76dcbdc3366ad", "fusion_lon": 0.0, "is_reserved": 0, "lon": -76.99514433333333, "fusion_lat": 0.0, "is_disabled": 0, "bike_id": "6e5869e422e787e099f76dcbdc3366ad", "lat": 38.88612033333333, "rental_uris": {"ios": "https://dc.lft.to/lastmile_qr_scan", "android": "https://dc.lft.to/lastmile_qr_scan"}}, {"type": "electric_scooter", "name": "12d14910e53d8ccc12f58968bff52396", "fusion_lon": 0.0, "is_reserved": 0, "lon": -77.04201666666667, "fusion_lat": 0.0, "is_disabled": 0, "bike_id": "12d14910e53d8ccc12f58968bff52396", "lat": 38.906951166666666, "rental_uris": {"ios": "https://dc.lft.to/lastmile_qr_scan", "android": "https://dc.lft.to/lastmile_qr_scan"}}, {"type": "electric_scooter", "name": "c3eb094ae808259ce5e240bab4d91a62", "fusion_lon": 0.0, "is_reserved": 0, "lon": -77.04466516666666, "fusion_lat": 0.0, "is_disabled": 0, "bike_id": "c3eb094ae808259ce5e240bab4d91a62", "lat": 38.89612733333333, "rental_uris": {"ios": "https://dc.lft.to/lastmile_qr_scan", "android": "https://dc.lft.to/lastmile_qr_scan"}}, {"type": "electric_scooter", "name": "ffbb0a5a6b1776404e8691061674ec39", "fusion_lon": 0.0, "is_reserved": 0, "lon": -77.03413483333334, "fusion_lat": 0.0, "is_disabled": 0, "bike_id": "ffbb0a5a6b1776404e8691061674ec39", "lat": 38.919217333333336, "rental_uris": {"ios": "https://dc.lft.to/lastmile_qr_scan", "android": "https://dc.lft.to/lastmile_qr_scan"}}, {"type": "electric_bike", "name": "7d0532b83f0db8b14c6e85a20128cc4b", "fusion_lon": 0.0, "is_reserved": 0, "lon": -77.18563716666667, "fusion_lat": 0.0, "is_disabled": 0, "bike_id": "7d0532b83f0db8b14c6e85a20128cc4b", "lat": 38.929677166666664, "rental_uris": {"ios": "https://dc.lft.to/lastmile_qr_scan", "android": "https://dc.lft.to/lastmile_qr_scan"}}, {"type": "electric_bike", "name": "760b91ada5adf5f7db422bf34b53100a", "fusion_lon": 0.0, "is_reserved": 0, "lon": -77.0464195, "fusion_lat": 0.0, "is_disabled": 0, "bike_id": "760b91ada5adf5f7db422bf34b53100a", "lat": 39.05499233333333, "rental_uris": {"ios": "https://dc.lft.to/lastmile_qr_scan", "android": "https://dc.lft.to/lastmile_qr_scan"}}, {"type": "electric_scooter", "name": "53630d97997e555a96b12fecd502d5c3", "fusion_lon": 0.0, "is_reserved": 0, "lon": -77.03495233333334, "fusion_lat": 0.0, "is_disabled": 0, "bike_id": "53630d97997e555a96b12fecd502d5c3", "lat": 38.918332666666664, "rental_uris": {"ios": "https://dc.lft.to/lastmile_qr_scan", "android": "https://dc.lft.to/lastmile_qr_scan"}}, {"type": "electric_scooter", "name": "3376f9e5e89fd68ceaabc80b76a65816", "fusion_lon": 0.0, "is_reserved": 0, "lon": -77.044991, "fusion_lat": 0.0, "is_disabled": 0, "bike_id": "3376f9e5e89fd68ceaabc80b76a65816", "lat": 38.91059033333333, "rental_uris": {"ios": "https://dc.lft.to/lastmile_qr_scan", "android": "https://dc.lft.to/lastmile_qr_scan"}}, {"type": "electric_scooter", "name": "dc3023a2980f6e214fed1a1357066005", "fusion_lon": 0.0, "is_reserved": 0, "lon": -77.04058833333333, "fusion_lat": 0.0, "is_disabled": 0, "bike_id": "dc3023a2980f6e214fed1a1357066005", "lat": 38.92395583333333, "rental_uris": {"ios": "https://dc.lft.to/lastmile_qr_scan", "android": "https://dc.lft.to/lastmile_qr_scan"}}, {"type": "electric_scooter", "name": "bde142c2154283a2612d94ae5fc890cf", "fusion_lon": 0.0, "is_reserved": 0, "lon": -77.0453135, "fusion_lat": 0.0, "is_disabled": 0, "bike_id": "bde142c2154283a2612d94ae5fc890cf", "lat": 38.90066616666667, "rental_uris": {"ios": "https://dc.lft.to/lastmile_qr_scan", "android": "https://dc.lft.to/lastmile_qr_scan"}}, {"type": "electric_bike", "name": "3d8c1024ac81c863dfd549804c44c573", "fusion_lon": 0.0, "is_reserved": 0, "lon": -77.01936, "fusion_lat": 0.0, "is_disabled": 0, "bike_id": "3d8c1024ac81c863dfd549804c44c573", "lat": 38.90471316666667, "rental_uris": {"ios": "https://dc.lft.to/lastmile_qr_scan", "android": "https://dc.lft.to/lastmile_qr_scan"}}, {"type": "electric_scooter", "name": "1140d7e5bc8bdd529da742af6e6cd28b", "fusion_lon": 0.0, "is_reserved": 0, "lon": -77.03318766666666, "fusion_lat": 0.0, "is_disabled": 0, "bike_id": "1140d7e5bc8bdd529da742af6e6cd28b", "lat": 38.916951166666664, "rental_uris": {"ios": "https://dc.lft.to/lastmile_qr_scan", "android": "https://dc.lft.to/lastmile_qr_scan"}}, {"type": "electric_scooter", "name": "03b728c92194c7d4c46665760f5e965c", "fusion_lon": 0.0, "is_reserved": 0, "lon": -77.04365516666667, "fusion_lat": 0.0, "is_disabled": 0, "bike_id": "03b728c92194c7d4c46665760f5e965c", "lat": 38.9167455, "rental_uris": {"ios": "https://dc.lft.to/lastmile_qr_scan", "android": "https://dc.lft.to/lastmile_qr_scan"}}, {"type": "electric_scooter", "name": "c6c453b2160b99cad9bbf459ef4bedba", "fusion_lon": 0.0, "is_reserved": 0, "lon": -77.0435, "fusion_lat": 0.0, "is_disabled": 0, "bike_id": "c6c453b2160b99cad9bbf459ef4bedba", "lat": 38.9042845, "rental_uris": {"ios": "https://dc.lft.to/lastmile_qr_scan", "android": "https://dc.lft.to/lastmile_qr_scan"}}, {"type": "electric_scooter", "name": "3955f714421302c5f9a2cf1369759395", "fusion_lon": 0.0, "is_reserved": 0, "lon": -77.02960666666667, "fusion_lat": 0.0, "is_disabled": 0, "bike_id": "3955f714421302c5f9a2cf1369759395", "lat": 38.9550175, "rental_uris": {"ios": "https://dc.lft.to/lastmile_qr_scan", "android": "https://dc.lft.to/lastmile_qr_scan"}}, {"type": "electric_scooter", "name": "389a900a285f2f64aba41cd2af8af0ff", "fusion_lon": 0.0, "is_reserved": 0, "lon": -77.02206133333334, "fusion_lat": 0.0, "is_disabled": 0, "bike_id": "389a900a285f2f64aba41cd2af8af0ff", "lat": 38.89232916666667, "rental_uris": {"ios": "https://dc.lft.to/lastmile_qr_scan", "android": "https://dc.lft.to/lastmile_qr_scan"}}, {"type": "electric_scooter", "name": "bf9f3fe5c7360ec62ee336739e9df582", "fusion_lon": 0.0, "is_reserved": 0, "lon": -77.03377466666667, "fusion_lat": 0.0, "is_disabled": 0, "bike_id": "bf9f3fe5c7360ec62ee336739e9df582", "lat": 38.921669, "rental_uris": {"ios": "https://dc.lft.to/lastmile_qr_scan", "android": "https://dc.lft.to/lastmile_qr_scan"}}, {"type": "electric_scooter", "name": "6a277182fe0fb26d42cf782d0e574542", "fusion_lon": 0.0, "is_reserved": 0, "lon": -77.04281283333333, "fusion_lat": 0.0, "is_disabled": 0, "bike_id": "6a277182fe0fb26d42cf782d0e574542", "lat": 38.907446666666665, "rental_uris": {"ios": "https://dc.lft.to/lastmile_qr_scan", "android": "https://dc.lft.to/lastmile_qr_scan"}}, {"type": "electric_scooter", "name": "ef5f50877392e54735430e668b1b29bb", "fusion_lon": 0.0, "is_reserved": 0, "lon": -77.02556016666666, "fusion_lat": 0.0, "is_disabled": 0, "bike_id": "ef5f50877392e54735430e668b1b29bb", "lat": 38.91551366666667, "rental_uris": {"ios": "https://dc.lft.to/lastmile_qr_scan", "android": "https://dc.lft.to/lastmile_qr_scan"}}, {"type": "electric_scooter", "name": "7ca2f498042e7c6cbd3c3b3cd1787421", "fusion_lon": 0.0, "is_reserved": 0, "lon": -77.0306495, "fusion_lat": 0.0, "is_disabled": 0, "bike_id": "7ca2f498042e7c6cbd3c3b3cd1787421", "lat": 38.92243583333333, "rental_uris": {"ios": "https://dc.lft.to/lastmile_qr_scan", "android": "https://dc.lft.to/lastmile_qr_scan"}}, {"type": "electric_scooter", "name": "be36ede82804cce89b8bdf9908ae0d12", "fusion_lon": 0.0, "is_reserved": 0, "lon": -77.04750216666666, "fusion_lat": 0.0, "is_disabled": 0, "bike_id": "be36ede82804cce89b8bdf9908ae0d12", "lat": 38.9008775, "rental_uris": {"ios": "https://dc.lft.to/lastmile_qr_scan", "android": "https://dc.lft.to/lastmile_qr_scan"}}, {"type": "electric_scooter", "name": "6ad4bdc7bcbfe729c6c1e9d71bad9dcf", "fusion_lon": 0.0, "is_reserved": 0, "lon": -77.0629325, "fusion_lat": 0.0, "is_disabled": 0, "bike_id": "6ad4bdc7bcbfe729c6c1e9d71bad9dcf", "lat": 38.9060835, "rental_uris": {"ios": "https://dc.lft.to/lastmile_qr_scan", "android": "https://dc.lft.to/lastmile_qr_scan"}}, {"type": "electric_scooter", "name": "18c99f8285924b77b282253ce11e9839", "fusion_lon": 0.0, "is_reserved": 0, "lon": -77.04471983333333, "fusion_lat": 0.0, "is_disabled": 0, "bike_id": "18c99f8285924b77b282253ce11e9839", "lat": 38.911087, "rental_uris": {"ios": "https://dc.lft.to/lastmile_qr_scan", "android": "https://dc.lft.to/lastmile_qr_scan"}}, {"type": "electric_scooter", "name": "0da88e0424229fa7d9708e01dc796b0e", "fusion_lon": 0.0, "is_reserved": 0, "lon": -77.0449395, "fusion_lat": 0.0, "is_disabled": 0, "bike_id": "0da88e0424229fa7d9708e01dc796b0e", "lat": 38.90730933333333, "rental_uris": {"ios": "https://dc.lft.to/lastmile_qr_scan", "android": "https://dc.lft.to/lastmile_qr_scan"}}, {"type": "electric_scooter", "name": "d4014ecb2423ded8e057bafd419e71d1", "fusion_lon": 0.0, "is_reserved": 0, "lon": -77.02677466666667, "fusion_lat": 0.0, "is_disabled": 0, "bike_id": "d4014ecb2423ded8e057bafd419e71d1", "lat": 38.90373866666667, "rental_uris": {"ios": "https://dc.lft.to/lastmile_qr_scan", "android": "https://dc.lft.to/lastmile_qr_scan"}}, {"type": "electric_scooter", "name": "aeb85f35c405a0017e6d616860c8ec35", "fusion_lon": 0.0, "is_reserved": 0, "lon": -76.99484733333334, "fusion_lat": 0.0, "is_disabled": 0, "bike_id": "aeb85f35c405a0017e6d616860c8ec35", "lat": 38.835781833333336, "rental_uris": {"ios": "https://dc.lft.to/lastmile_qr_scan", "android": "https://dc.lft.to/lastmile_qr_scan"}}, {"type": "electric_scooter", "name": "b276aabaad4aa4275098275cc29260e1", "fusion_lon": 0.0, "is_reserved": 0, "lon": -77.00269983333334, "fusion_lat": 0.0, "is_disabled": 0, "bike_id": "b276aabaad4aa4275098275cc29260e1", "lat": 38.885209833333334, "rental_uris": {"ios": "https://dc.lft.to/lastmile_qr_scan", "android": "https://dc.lft.to/lastmile_qr_scan"}}, {"type": "electric_scooter", "name": "31c26603d14e52c2a4cf641bc3c692e2", "fusion_lon": 0.0, "is_reserved": 0, "lon": -77.03295683333333, "fusion_lat": 0.0, "is_disabled": 0, "bike_id": "31c26603d14e52c2a4cf641bc3c692e2", "lat": 38.93787283333333, "rental_uris": {"ios": "https://dc.lft.to/lastmile_qr_scan", "android": "https://dc.lft.to/lastmile_qr_scan"}}, {"type": "electric_scooter", "name": "cac35f07fac733503cecfd49f798e60c", "fusion_lon": 0.0, "is_reserved": 0, "lon": -77.04261083333333, "fusion_lat": 0.0, "is_disabled": 0, "bike_id": "cac35f07fac733503cecfd49f798e60c", "lat": 38.9037255, "rental_uris": {"ios": "https://dc.lft.to/lastmile_qr_scan", "android": "https://dc.lft.to/lastmile_qr_scan"}}, {"type": "electric_scooter", "name": "163847130305da0f5617a2fa9a18d423", "fusion_lon": 0.0, "is_reserved": 0, "lon": -77.03203683333334, "fusion_lat": 0.0, "is_disabled": 0, "bike_id": "163847130305da0f5617a2fa9a18d423", "lat": 38.92028233333333, "rental_uris": {"ios": "https://dc.lft.to/lastmile_qr_scan", "android": "https://dc.lft.to/lastmile_qr_scan"}}, {"type": "electric_scooter", "name": "aeb96bd95ec618710e5b3eba95b9330f", "fusion_lon": 0.0, "is_reserved": 0, "lon": -77.02514266666667, "fusion_lat": 0.0, "is_disabled": 0, "bike_id": "aeb96bd95ec618710e5b3eba95b9330f", "lat": 38.92136583333333, "rental_uris": {"ios": "https://dc.lft.to/lastmile_qr_scan", "android": "https://dc.lft.to/lastmile_qr_scan"}}, {"type": "electric_scooter", "name": "8eee0faf1b30cf83ffe0968203a5e984", "fusion_lon": 0.0, "is_reserved": 0, "lon": -77.04223916666666, "fusion_lat": 0.0, "is_disabled": 0, "bike_id": "8eee0faf1b30cf83ffe0968203a5e984", "lat": 38.920675833333334, "rental_uris": {"ios": "https://dc.lft.to/lastmile_qr_scan", "android": "https://dc.lft.to/lastmile_qr_scan"}}, {"type": "electric_scooter", "name": "5ec29785ca9399103ddc2d45dd8520b0", "fusion_lon": 0.0, "is_reserved": 0, "lon": -76.98629566666666, "fusion_lat": 0.0, "is_disabled": 0, "bike_id": "5ec29785ca9399103ddc2d45dd8520b0", "lat": 38.907363, "rental_uris": {"ios": "https://dc.lft.to/lastmile_qr_scan", "android": "https://dc.lft.to/lastmile_qr_scan"}}, {"type": "electric_scooter", "name": "57791cbfabd0c4f3b3a54f6709031530", "fusion_lon": 0.0, "is_reserved": 0, "lon": -77.00244183333334, "fusion_lat": 0.0, "is_disabled": 0, "bike_id": "57791cbfabd0c4f3b3a54f6709031530", "lat": 38.876259, "rental_uris": {"ios": "https://dc.lft.to/lastmile_qr_scan", "android": "https://dc.lft.to/lastmile_qr_scan"}}, {"type": "electric_scooter", "name": "64f2112c288cd91ba3eed4f0cf8e6fcb", "fusion_lon": 0.0, "is_reserved": 0, "lon": -77.050527, "fusion_lat": 0.0, "is_disabled": 0, "bike_id": "64f2112c288cd91ba3eed4f0cf8e6fcb", "lat": 38.9031045, "rental_uris": {"ios": "https://dc.lft.to/lastmile_qr_scan", "android": "https://dc.lft.to/lastmile_qr_scan"}}, {"type": "electric_scooter", "name": "269528cb1e473563efe4a72e9a82ad4f", "fusion_lon": 0.0, "is_reserved": 0, "lon": -77.04244083333333, "fusion_lat": 0.0, "is_disabled": 0, "bike_id": "269528cb1e473563efe4a72e9a82ad4f", "lat": 38.922360166666664, "rental_uris": {"ios": "https://dc.lft.to/lastmile_qr_scan", "android": "https://dc.lft.to/lastmile_qr_scan"}}, {"type": "electric_scooter", "name": "b06d8650688d282ed3b40ba21d8628d6", "fusion_lon": 0.0, "is_reserved": 0, "lon": -77.0153315, "fusion_lat": 0.0, "is_disabled": 0, "bike_id": "b06d8650688d282ed3b40ba21d8628d6", "lat": 38.90053833333333, "rental_uris": {"ios": "https://dc.lft.to/lastmile_qr_scan", "android": "https://dc.lft.to/lastmile_qr_scan"}}, {"type": "electric_scooter", "name": "5e8a95f397968b7a6af045e3b6c16032", "fusion_lon": 0.0, "is_reserved": 0, "lon": -76.98884633333333, "fusion_lat": 0.0, "is_disabled": 0, "bike_id": "5e8a95f397968b7a6af045e3b6c16032", "lat": 38.86657683333333, "rental_uris": {"ios": "https://dc.lft.to/lastmile_qr_scan", "android": "https://dc.lft.to/lastmile_qr_scan"}}, {"type": "electric_bike", "name": "a4af0411ac25f873e4afbf5464c43e9f", "fusion_lon": 0.0, "is_reserved": 0, "lon": -77.01278933333333, "fusion_lat": 0.0, "is_disabled": 0, "bike_id": "a4af0411ac25f873e4afbf5464c43e9f", "lat": 38.9565595, "rental_uris": {"ios": "https://dc.lft.to/lastmile_qr_scan", "android": "https://dc.lft.to/lastmile_qr_scan"}}, {"type": "electric_scooter", "name": "72070e564fc6489d71838a57827116c5", "fusion_lon": 0.0, "is_reserved": 0, "lon": -77.03103716666666, "fusion_lat": 0.0, "is_disabled": 0, "bike_id": "72070e564fc6489d71838a57827116c5", "lat": 38.9076155, "rental_uris": {"ios": "https://dc.lft.to/lastmile_qr_scan", "android": "https://dc.lft.to/lastmile_qr_scan"}}, {"type": "electric_scooter", "name": "7de38d4e71daf967c88b7d609b7bd6d0", "fusion_lon": 0.0, "is_reserved": 0, "lon": -77.02684883333333, "fusion_lat": 0.0, "is_disabled": 0, "bike_id": "7de38d4e71daf967c88b7d609b7bd6d0", "lat": 38.9024235, "rental_uris": {"ios": "https://dc.lft.to/lastmile_qr_scan", "android": "https://dc.lft.to/lastmile_qr_scan"}}, {"type": "electric_scooter", "name": "c7f70491457c411aead0a2b0b4f54227", "fusion_lon": 0.0, "is_reserved": 0, "lon": -77.03691166666667, "fusion_lat": 0.0, "is_disabled": 0, "bike_id": "c7f70491457c411aead0a2b0b4f54227", "lat": 38.9182065, "rental_uris": {"ios": "https://dc.lft.to/lastmile_qr_scan", "android": "https://dc.lft.to/lastmile_qr_scan"}}, {"type": "electric_scooter", "name": "74166b6c807afdd767013a26d24d4c47", "fusion_lon": 0.0, "is_reserved": 0, "lon": -77.01543583333333, "fusion_lat": 0.0, "is_disabled": 0, "bike_id": "74166b6c807afdd767013a26d24d4c47", "lat": 38.893918666666664, "rental_uris": {"ios": "https://dc.lft.to/lastmile_qr_scan", "android": "https://dc.lft.to/lastmile_qr_scan"}}, {"type": "electric_scooter", "name": "abb68b6e69b74362f90801df1a5d0da8", "fusion_lon": 0.0, "is_reserved": 0, "lon": -77.03795366666667, "fusion_lat": 0.0, "is_disabled": 0, "bike_id": "abb68b6e69b74362f90801df1a5d0da8", "lat": 38.904520833333336, "rental_uris": {"ios": "https://dc.lft.to/lastmile_qr_scan", "android": "https://dc.lft.to/lastmile_qr_scan"}}, {"type": "electric_scooter", "name": "8bfde4d6e66782e50aab4b037bf75125", "fusion_lon": 0.0, "is_reserved": 0, "lon": -77.04001483333333, "fusion_lat": 0.0, "is_disabled": 0, "bike_id": "8bfde4d6e66782e50aab4b037bf75125", "lat": 38.901257, "rental_uris": {"ios": "https://dc.lft.to/lastmile_qr_scan", "android": "https://dc.lft.to/lastmile_qr_scan"}}, {"type": "electric_bike", "name": "e7dd62781cdde692d1e36f9fae799fed", "fusion_lon": 0.0, "is_reserved": 0, "lon": -77.04386533333333, "fusion_lat": 0.0, "is_disabled": 0, "bike_id": "e7dd62781cdde692d1e36f9fae799fed", "lat": 39.047170666666666, "rental_uris": {"ios": "https://dc.lft.to/lastmile_qr_scan", "android": "https://dc.lft.to/lastmile_qr_scan"}}, {"type": "electric_scooter", "name": "3ea0c4972647999692374254a00d8b35", "fusion_lon": 0.0, "is_reserved": 0, "lon": -77.03318916666667, "fusion_lat": 0.0, "is_disabled": 0, "bike_id": "3ea0c4972647999692374254a00d8b35", "lat": 38.945112, "rental_uris": {"ios": "https://dc.lft.to/lastmile_qr_scan", "android": "https://dc.lft.to/lastmile_qr_scan"}}, {"type": "electric_bike", "name": "efb4447f87f0acfbbecc513a1363da2d", "fusion_lon": 0.0, "is_reserved": 0, "lon": -76.98749683333334, "fusion_lat": 0.0, "is_disabled": 0, "bike_id": "efb4447f87f0acfbbecc513a1363da2d", "lat": 38.945567833333335, "rental_uris": {"ios": "https://dc.lft.to/lastmile_qr_scan", "android": "https://dc.lft.to/lastmile_qr_scan"}}, {"type": "electric_scooter", "name": "92e450e263e5b1f4e8f35f8389ba5ab4", "fusion_lon": 0.0, "is_reserved": 0, "lon": -77.03335766666666, "fusion_lat": 0.0, "is_disabled": 0, "bike_id": "92e450e263e5b1f4e8f35f8389ba5ab4", "lat": 38.9216265, "rental_uris": {"ios": "https://dc.lft.to/lastmile_qr_scan", "android": "https://dc.lft.to/lastmile_qr_scan"}}, {"type": "electric_scooter", "name": "ba708623f987f44537f2f3ab1a92df25", "fusion_lon": 0.0, "is_reserved": 0, "lon": -77.03427866666667, "fusion_lat": 0.0, "is_disabled": 0, "bike_id": "ba708623f987f44537f2f3ab1a92df25", "lat": 38.90344283333334, "rental_uris": {"ios": "https://dc.lft.to/lastmile_qr_scan", "android": "https://dc.lft.to/lastmile_qr_scan"}}, {"type": "electric_scooter", "name": "6e37e6e241bbed885b4f7346d4bb1b3d", "fusion_lon": 0.0, "is_reserved": 0, "lon": -77.03858166666667, "fusion_lat": 0.0, "is_disabled": 0, "bike_id": "6e37e6e241bbed885b4f7346d4bb1b3d", "lat": 38.90629583333333, "rental_uris": {"ios": "https://dc.lft.to/lastmile_qr_scan", "android": "https://dc.lft.to/lastmile_qr_scan"}}, {"type": "electric_bike", "name": "5fc89d8145e709212484b215869005cd", "fusion_lon": 0.0, "is_reserved": 0, "lon": -77.1186415, "fusion_lat": 0.0, "is_disabled": 0, "bike_id": "5fc89d8145e709212484b215869005cd", "lat": 38.858949833333334, "rental_uris": {"ios": "https://dc.lft.to/lastmile_qr_scan", "android": "https://dc.lft.to/lastmile_qr_scan"}}, {"type": "electric_scooter", "name": "5af64c5fbc286e97de4b46212502081a", "fusion_lon": 0.0, "is_reserved": 0, "lon": -77.03148733333333, "fusion_lat": 0.0, "is_disabled": 0, "bike_id": "5af64c5fbc286e97de4b46212502081a", "lat": 38.911236333333335, "rental_uris": {"ios": "https://dc.lft.to/lastmile_qr_scan", "android": "https://dc.lft.to/lastmile_qr_scan"}}, {"type": "electric_scooter", "name": "5b2ccafa914ca63f91239e7a9ca57d42", "fusion_lon": 0.0, "is_reserved": 0, "lon": -77.0386655, "fusion_lat": 0.0, "is_disabled": 0, "bike_id": "5b2ccafa914ca63f91239e7a9ca57d42", "lat": 38.90789266666667, "rental_uris": {"ios": "https://dc.lft.to/lastmile_qr_scan", "android": "https://dc.lft.to/lastmile_qr_scan"}}, {"type": "electric_scooter", "name": "79ecdb506508e610345c6b5270f2ee1d", "fusion_lon": 0.0, "is_reserved": 0, "lon": -76.98825983333333, "fusion_lat": 0.0, "is_disabled": 0, "bike_id": "79ecdb506508e610345c6b5270f2ee1d", "lat": 38.9003425, "rental_uris": {"ios": "https://dc.lft.to/lastmile_qr_scan", "android": "https://dc.lft.to/lastmile_qr_scan"}}, {"type": "electric_scooter", "name": "bfe1f8906e8a5dc1e7defd24ca179103", "fusion_lon": 0.0, "is_reserved": 0, "lon": -76.99272616666667, "fusion_lat": 0.0, "is_disabled": 0, "bike_id": "bfe1f8906e8a5dc1e7defd24ca179103", "lat": 38.90602966666667, "rental_uris": {"ios": "https://dc.lft.to/lastmile_qr_scan", "android": "https://dc.lft.to/lastmile_qr_scan"}}, {"type": "electric_scooter", "name": "a0b3327839d21e328d3a6b310356e2c1", "fusion_lon": 0.0, "is_reserved": 0, "lon": -77.04213166666666, "fusion_lat": 0.0, "is_disabled": 0, "bike_id": "a0b3327839d21e328d3a6b310356e2c1", "lat": 38.90279866666667, "rental_uris": {"ios": "https://dc.lft.to/lastmile_qr_scan", "android": "https://dc.lft.to/lastmile_qr_scan"}}, {"type": "electric_scooter", "name": "b0ee98c0865ebaa385c5aaa4821ee592", "fusion_lon": 0.0, "is_reserved": 0, "lon": -77.03182183333334, "fusion_lat": 0.0, "is_disabled": 0, "bike_id": "b0ee98c0865ebaa385c5aaa4821ee592", "lat": 38.892343, "rental_uris": {"ios": "https://dc.lft.to/lastmile_qr_scan", "android": "https://dc.lft.to/lastmile_qr_scan"}}, {"type": "electric_scooter", "name": "b0642d23e3f270a3198bf5db642d3ca2", "fusion_lon": 0.0, "is_reserved": 0, "lon": -77.03822333333333, "fusion_lat": 0.0, "is_disabled": 0, "bike_id": "b0642d23e3f270a3198bf5db642d3ca2", "lat": 38.90721766666667, "rental_uris": {"ios": "https://dc.lft.to/lastmile_qr_scan", "android": "https://dc.lft.to/lastmile_qr_scan"}}, {"type": "electric_scooter", "name": "ce8849ff5bbf6c98e64f76ced4ebb9fc", "fusion_lon": 0.0, "is_reserved": 0, "lon": -77.02577333333333, "fusion_lat": 0.0, "is_disabled": 0, "bike_id": "ce8849ff5bbf6c98e64f76ced4ebb9fc", "lat": 38.92046666666667, "rental_uris": {"ios": "https://dc.lft.to/lastmile_qr_scan", "android": "https://dc.lft.to/lastmile_qr_scan"}}, {"type": "electric_scooter", "name": "253cbcfc0f0f06e69edc34182b5d9bab", "fusion_lon": 0.0, "is_reserved": 0, "lon": -77.0317065, "fusion_lat": 0.0, "is_disabled": 0, "bike_id": "253cbcfc0f0f06e69edc34182b5d9bab", "lat": 38.92099183333333, "rental_uris": {"ios": "https://dc.lft.to/lastmile_qr_scan", "android": "https://dc.lft.to/lastmile_qr_scan"}}, {"type": "electric_scooter", "name": "13fae760416b4bcb689207d4e2ba7dd8", "fusion_lon": 0.0, "is_reserved": 0, "lon": -76.91198933333334, "fusion_lat": 0.0, "is_disabled": 0, "bike_id": "13fae760416b4bcb689207d4e2ba7dd8", "lat": 38.89178116666667, "rental_uris": {"ios": "https://dc.lft.to/lastmile_qr_scan", "android": "https://dc.lft.to/lastmile_qr_scan"}}, {"type": "electric_scooter", "name": "de1b604ba1f489cdf402e0ccbaf0a466", "fusion_lon": 0.0, "is_reserved": 0, "lon": -77.038572, "fusion_lat": 0.0, "is_disabled": 0, "bike_id": "de1b604ba1f489cdf402e0ccbaf0a466", "lat": 38.91715883333333, "rental_uris": {"ios": "https://dc.lft.to/lastmile_qr_scan", "android": "https://dc.lft.to/lastmile_qr_scan"}}, {"type": "electric_scooter", "name": "89c50c10e2fb375b79b4ad89c441110e", "fusion_lon": 0.0, "is_reserved": 0, "lon": -77.0436015, "fusion_lat": 0.0, "is_disabled": 0, "bike_id": "89c50c10e2fb375b79b4ad89c441110e", "lat": 38.901017833333334, "rental_uris": {"ios": "https://dc.lft.to/lastmile_qr_scan", "android": "https://dc.lft.to/lastmile_qr_scan"}}, {"type": "electric_scooter", "name": "489ed6f37e6f64b048bf5ca149dfdbda", "fusion_lon": 0.0, "is_reserved": 0, "lon": -76.97744316666666, "fusion_lat": 0.0, "is_disabled": 0, "bike_id": "489ed6f37e6f64b048bf5ca149dfdbda", "lat": 38.871639, "rental_uris": {"ios": "https://dc.lft.to/lastmile_qr_scan", "android": "https://dc.lft.to/lastmile_qr_scan"}}, {"type": "electric_scooter", "name": "d726157da62094817886e3f40804c147", "fusion_lon": 0.0, "is_reserved": 0, "lon": -77.03462033333334, "fusion_lat": 0.0, "is_disabled": 0, "bike_id": "d726157da62094817886e3f40804c147", "lat": 38.915537666666665, "rental_uris": {"ios": "https://dc.lft.to/lastmile_qr_scan", "android": "https://dc.lft.to/lastmile_qr_scan"}}, {"type": "electric_scooter", "name": "b2ac47301fd05c510195be9e28de1f4d", "fusion_lon": 0.0, "is_reserved": 0, "lon": -77.022125, "fusion_lat": 0.0, "is_disabled": 0, "bike_id": "b2ac47301fd05c510195be9e28de1f4d", "lat": 38.896327666666664, "rental_uris": {"ios": "https://dc.lft.to/lastmile_qr_scan", "android": "https://dc.lft.to/lastmile_qr_scan"}}, {"type": "electric_scooter", "name": "356dbfc6f624c514e467160fba9d17ad", "fusion_lon": 0.0, "is_reserved": 0, "lon": -77.04018033333334, "fusion_lat": 0.0, "is_disabled": 0, "bike_id": "356dbfc6f624c514e467160fba9d17ad", "lat": 38.90116016666666, "rental_uris": {"ios": "https://dc.lft.to/lastmile_qr_scan", "android": "https://dc.lft.to/lastmile_qr_scan"}}, {"type": "electric_scooter", "name": "5b355b5c81d216390e691c19ce6f03c5", "fusion_lon": 0.0, "is_reserved": 0, "lon": -77.04391733333334, "fusion_lat": 0.0, "is_disabled": 0, "bike_id": "5b355b5c81d216390e691c19ce6f03c5", "lat": 38.90221316666667, "rental_uris": {"ios": "https://dc.lft.to/lastmile_qr_scan", "android": "https://dc.lft.to/lastmile_qr_scan"}}, {"type": "electric_scooter", "name": "bbda8a35f53276898c2096a306e74837", "fusion_lon": 0.0, "is_reserved": 0, "lon": -77.04133116666667, "fusion_lat": 0.0, "is_disabled": 0, "bike_id": "bbda8a35f53276898c2096a306e74837", "lat": 38.90576516666667, "rental_uris": {"ios": "https://dc.lft.to/lastmile_qr_scan", "android": "https://dc.lft.to/lastmile_qr_scan"}}, {"type": "electric_bike", "name": "613abde271dae70179884543d400d1aa", "fusion_lon": 0.0, "is_reserved": 0, "lon": -77.10839383333334, "fusion_lat": 0.0, "is_disabled": 0, "bike_id": "613abde271dae70179884543d400d1aa", "lat": 38.81201766666667, "rental_uris": {"ios": "https://dc.lft.to/lastmile_qr_scan", "android": "https://dc.lft.to/lastmile_qr_scan"}}, {"type": "electric_bike", "name": "dbe6bd8e1b76c92b3b2ff8d66b2aef86", "fusion_lon": 0.0, "is_reserved": 0, "lon": -77.070059, "fusion_lat": 0.0, "is_disabled": 0, "bike_id": "dbe6bd8e1b76c92b3b2ff8d66b2aef86", "lat": 38.905871166666664, "rental_uris": {"ios": "https://dc.lft.to/lastmile_qr_scan", "android": "https://dc.lft.to/lastmile_qr_scan"}}, {"type": "electric_scooter", "name": "b9ee33687b8ea6e7ed54dc457665c20e", "fusion_lon": 0.0, "is_reserved": 0, "lon": -76.927041, "fusion_lat": 0.0, "is_disabled": 0, "bike_id": "b9ee33687b8ea6e7ed54dc457665c20e", "lat": 38.88207333333333, "rental_uris": {"ios": "https://dc.lft.to/lastmile_qr_scan", "android": "https://dc.lft.to/lastmile_qr_scan"}}, {"type": "electric_scooter", "name": "4e34964acafb7d2fa4aa3f013f2ba30f", "fusion_lon": 0.0, "is_reserved": 0, "lon": -77.00801783333333, "fusion_lat": 0.0, "is_disabled": 0, "bike_id": "4e34964acafb7d2fa4aa3f013f2ba30f", "lat": 38.897135166666665, "rental_uris": {"ios": "https://dc.lft.to/lastmile_qr_scan", "android": "https://dc.lft.to/lastmile_qr_scan"}}, {"type": "electric_scooter", "name": "f9e6e8aba1dd0e0d124b289f6eb0e1da", "fusion_lon": 0.0, "is_reserved": 0, "lon": -77.0444945, "fusion_lat": 0.0, "is_disabled": 0, "bike_id": "f9e6e8aba1dd0e0d124b289f6eb0e1da", "lat": 38.91011866666667, "rental_uris": {"ios": "https://dc.lft.to/lastmile_qr_scan", "android": "https://dc.lft.to/lastmile_qr_scan"}}, {"type": "electric_scooter", "name": "fdf09d07e845389e1b14fc18049909bb", "fusion_lon": 0.0, "is_reserved": 0, "lon": -76.98272783333333, "fusion_lat": 0.0, "is_disabled": 0, "bike_id": "fdf09d07e845389e1b14fc18049909bb", "lat": 38.88532766666667, "rental_uris": {"ios": "https://dc.lft.to/lastmile_qr_scan", "android": "https://dc.lft.to/lastmile_qr_scan"}}, {"type": "electric_scooter", "name": "2cffd998b7b7569833ab7202fd3f1451", "fusion_lon": 0.0, "is_reserved": 0, "lon": -77.02806166666667, "fusion_lat": 0.0, "is_disabled": 0, "bike_id": "2cffd998b7b7569833ab7202fd3f1451", "lat": 38.90732583333333, "rental_uris": {"ios": "https://dc.lft.to/lastmile_qr_scan", "android": "https://dc.lft.to/lastmile_qr_scan"}}, {"type": "electric_scooter", "name": "ed253d7a0beac4bb7a431a4750e3833f", "fusion_lon": 0.0, "is_reserved": 0, "lon": -77.0199265, "fusion_lat": 0.0, "is_disabled": 0, "bike_id": "ed253d7a0beac4bb7a431a4750e3833f", "lat": 38.91909316666667, "rental_uris": {"ios": "https://dc.lft.to/lastmile_qr_scan", "android": "https://dc.lft.to/lastmile_qr_scan"}}, {"type": "electric_bike", "name": "e198b3ce46b994936221086c2fd27568", "fusion_lon": 0.0, "is_reserved": 0, "lon": -77.03181566666666, "fusion_lat": 0.0, "is_disabled": 0, "bike_id": "e198b3ce46b994936221086c2fd27568", "lat": 38.91302866666667, "rental_uris": {"ios": "https://dc.lft.to/lastmile_qr_scan", "android": "https://dc.lft.to/lastmile_qr_scan"}}, {"type": "electric_scooter", "name": "761b06c44482020b55f179323601bdfe", "fusion_lon": 0.0, "is_reserved": 0, "lon": -77.05245716666667, "fusion_lat": 0.0, "is_disabled": 0, "bike_id": "761b06c44482020b55f179323601bdfe", "lat": 38.92515383333333, "rental_uris": {"ios": "https://dc.lft.to/lastmile_qr_scan", "android": "https://dc.lft.to/lastmile_qr_scan"}}, {"type": "electric_scooter", "name": "400fc0653a0d87b28c90aadea9aac49c", "fusion_lon": 0.0, "is_reserved": 0, "lon": -77.0367355, "fusion_lat": 0.0, "is_disabled": 0, "bike_id": "400fc0653a0d87b28c90aadea9aac49c", "lat": 38.90272216666666, "rental_uris": {"ios": "https://dc.lft.to/lastmile_qr_scan", "android": "https://dc.lft.to/lastmile_qr_scan"}}, {"type": "electric_scooter", "name": "54358e9534b5b82a61ff99f706d7825f", "fusion_lon": 0.0, "is_reserved": 0, "lon": -77.034638, "fusion_lat": 0.0, "is_disabled": 0, "bike_id": "54358e9534b5b82a61ff99f706d7825f", "lat": 38.918200666666664, "rental_uris": {"ios": "https://dc.lft.to/lastmile_qr_scan", "android": "https://dc.lft.to/lastmile_qr_scan"}}, {"type": "electric_bike", "name": "4d12cd316975dbdd4d47bfad29845dae", "fusion_lon": 0.0, "is_reserved": 0, "lon": -76.90736216666667, "fusion_lat": 0.0, "is_disabled": 0, "bike_id": "4d12cd316975dbdd4d47bfad29845dae", "lat": 38.89628866666666, "rental_uris": {"ios": "https://dc.lft.to/lastmile_qr_scan", "android": "https://dc.lft.to/lastmile_qr_scan"}}, {"type": "electric_scooter", "name": "684c59c6b9d791c37a1656a6f62992af", "fusion_lon": 0.0, "is_reserved": 0, "lon": -77.04675183333333, "fusion_lat": 0.0, "is_disabled": 0, "bike_id": "684c59c6b9d791c37a1656a6f62992af", "lat": 38.895108666666665, "rental_uris": {"ios": "https://dc.lft.to/lastmile_qr_scan", "android": "https://dc.lft.to/lastmile_qr_scan"}}, {"type": "electric_scooter", "name": "023d903bbf695d3541f95de0a4f079e6", "fusion_lon": 0.0, "is_reserved": 0, "lon": -76.98826383333333, "fusion_lat": 0.0, "is_disabled": 0, "bike_id": "023d903bbf695d3541f95de0a4f079e6", "lat": 38.90045416666667, "rental_uris": {"ios": "https://dc.lft.to/lastmile_qr_scan", "android": "https://dc.lft.to/lastmile_qr_scan"}}, {"type": "electric_scooter", "name": "4da43cf39a30a7e707d726a5d52653ba", "fusion_lon": 0.0, "is_reserved": 0, "lon": -77.0291125, "fusion_lat": 0.0, "is_disabled": 0, "bike_id": "4da43cf39a30a7e707d726a5d52653ba", "lat": 38.90050933333333, "rental_uris": {"ios": "https://dc.lft.to/lastmile_qr_scan", "android": "https://dc.lft.to/lastmile_qr_scan"}}, {"type": "electric_scooter", "name": "c6bcb22e9e017235e1a422cd2b67d2b2", "fusion_lon": 0.0, "is_reserved": 0, "lon": -77.05566433333334, "fusion_lat": 0.0, "is_disabled": 0, "bike_id": "c6bcb22e9e017235e1a422cd2b67d2b2", "lat": 38.897336833333334, "rental_uris": {"ios": "https://dc.lft.to/lastmile_qr_scan", "android": "https://dc.lft.to/lastmile_qr_scan"}}, {"type": "electric_scooter", "name": "b7ff0d39c3fb1b3b39b6411ef552574a", "fusion_lon": 0.0, "is_reserved": 0, "lon": -77.043159, "fusion_lat": 0.0, "is_disabled": 0, "bike_id": "b7ff0d39c3fb1b3b39b6411ef552574a", "lat": 38.9055445, "rental_uris": {"ios": "https://dc.lft.to/lastmile_qr_scan", "android": "https://dc.lft.to/lastmile_qr_scan"}}, {"type": "electric_scooter", "name": "15c531dd39595c1a1b12633c5dca2d7b", "fusion_lon": 0.0, "is_reserved": 0, "lon": -77.03847533333334, "fusion_lat": 0.0, "is_disabled": 0, "bike_id": "15c531dd39595c1a1b12633c5dca2d7b", "lat": 38.903913333333335, "rental_uris": {"ios": "https://dc.lft.to/lastmile_qr_scan", "android": "https://dc.lft.to/lastmile_qr_scan"}}, {"type": "electric_scooter", "name": "540409e4ed88bf840047d8498e69f50d", "fusion_lon": 0.0, "is_reserved": 0, "lon": -77.03857266666667, "fusion_lat": 0.0, "is_disabled": 0, "bike_id": "540409e4ed88bf840047d8498e69f50d", "lat": 38.9117505, "rental_uris": {"ios": "https://dc.lft.to/lastmile_qr_scan", "android": "https://dc.lft.to/lastmile_qr_scan"}}, {"type": "electric_scooter", "name": "860e36c63e5761162a78d09d2e904659", "fusion_lon": 0.0, "is_reserved": 0, "lon": -77.04398666666667, "fusion_lat": 0.0, "is_disabled": 0, "bike_id": "860e36c63e5761162a78d09d2e904659", "lat": 38.90568366666667, "rental_uris": {"ios": "https://dc.lft.to/lastmile_qr_scan", "android": "https://dc.lft.to/lastmile_qr_scan"}}, {"type": "electric_scooter", "name": "4a82474c6ddf0a5d0767dbf399d53060", "fusion_lon": 0.0, "is_reserved": 0, "lon": -77.03328866666666, "fusion_lat": 0.0, "is_disabled": 0, "bike_id": "4a82474c6ddf0a5d0767dbf399d53060", "lat": 38.902593333333336, "rental_uris": {"ios": "https://dc.lft.to/lastmile_qr_scan", "android": "https://dc.lft.to/lastmile_qr_scan"}}, {"type": "electric_scooter", "name": "f3475e12858dda838924fde572c3d050", "fusion_lon": 0.0, "is_reserved": 0, "lon": -77.04278683333334, "fusion_lat": 0.0, "is_disabled": 0, "bike_id": "f3475e12858dda838924fde572c3d050", "lat": 38.922902, "rental_uris": {"ios": "https://dc.lft.to/lastmile_qr_scan", "android": "https://dc.lft.to/lastmile_qr_scan"}}, {"type": "electric_scooter", "name": "e8de78f02f51c3dc1edaa312e27e8499", "fusion_lon": 0.0, "is_reserved": 0, "lon": -77.02575366666666, "fusion_lat": 0.0, "is_disabled": 0, "bike_id": "e8de78f02f51c3dc1edaa312e27e8499", "lat": 38.913341333333335, "rental_uris": {"ios": "https://dc.lft.to/lastmile_qr_scan", "android": "https://dc.lft.to/lastmile_qr_scan"}}, {"type": "electric_bike", "name": "42bb64401e0e2d8adc5739bec4d92840", "fusion_lon": 0.0, "is_reserved": 0, "lon": -77.1252725, "fusion_lat": 0.0, "is_disabled": 0, "bike_id": "42bb64401e0e2d8adc5739bec4d92840", "lat": 39.05638033333334, "rental_uris": {"ios": "https://dc.lft.to/lastmile_qr_scan", "android": "https://dc.lft.to/lastmile_qr_scan"}}, {"type": "electric_scooter", "name": "25156460a606e03fa6a427011bf6c92d", "fusion_lon": 0.0, "is_reserved": 0, "lon": -77.034415, "fusion_lat": 0.0, "is_disabled": 0, "bike_id": "25156460a606e03fa6a427011bf6c92d", "lat": 38.910281499999996, "rental_uris": {"ios": "https://dc.lft.to/lastmile_qr_scan", "android": "https://dc.lft.to/lastmile_qr_scan"}}, {"type": "electric_scooter", "name": "75135070ffc339ae2f122af10209ceab", "fusion_lon": 0.0, "is_reserved": 0, "lon": -77.04286383333333, "fusion_lat": 0.0, "is_disabled": 0, "bike_id": "75135070ffc339ae2f122af10209ceab", "lat": 38.92260983333333, "rental_uris": {"ios": "https://dc.lft.to/lastmile_qr_scan", "android": "https://dc.lft.to/lastmile_qr_scan"}}, {"type": "electric_scooter", "name": "0b3949f045c86e161c8cd5437b4583f0", "fusion_lon": 0.0, "is_reserved": 0, "lon": -76.9949605, "fusion_lat": 0.0, "is_disabled": 0, "bike_id": "0b3949f045c86e161c8cd5437b4583f0", "lat": 38.86223416666667, "rental_uris": {"ios": "https://dc.lft.to/lastmile_qr_scan", "android": "https://dc.lft.to/lastmile_qr_scan"}}, {"type": "electric_scooter", "name": "d8c8c52caf8e0f0fc6fe3885987d9609", "fusion_lon": 0.0, "is_reserved": 0, "lon": -77.02973166666666, "fusion_lat": 0.0, "is_disabled": 0, "bike_id": "d8c8c52caf8e0f0fc6fe3885987d9609", "lat": 38.91890883333333, "rental_uris": {"ios": "https://dc.lft.to/lastmile_qr_scan", "android": "https://dc.lft.to/lastmile_qr_scan"}}, {"type": "electric_bike", "name": "2befc45f2fc6f54485fb63d94396ab68", "fusion_lon": 0.0, "is_reserved": 0, "lon": -76.98350333333333, "fusion_lat": 0.0, "is_disabled": 0, "bike_id": "2befc45f2fc6f54485fb63d94396ab68", "lat": 38.862605, "rental_uris": {"ios": "https://dc.lft.to/lastmile_qr_scan", "android": "https://dc.lft.to/lastmile_qr_scan"}}, {"type": "electric_scooter", "name": "c8b8542c15ce546bd251f3b2bf501e6f", "fusion_lon": 0.0, "is_reserved": 0, "lon": -77.02934433333333, "fusion_lat": 0.0, "is_disabled": 0, "bike_id": "c8b8542c15ce546bd251f3b2bf501e6f", "lat": 38.92082216666667, "rental_uris": {"ios": "https://dc.lft.to/lastmile_qr_scan", "android": "https://dc.lft.to/lastmile_qr_scan"}}, {"type": "electric_scooter", "name": "6e5d073d8fe1972b4dbe5801ee61ffae", "fusion_lon": 0.0, "is_reserved": 0, "lon": -77.0466325, "fusion_lat": 0.0, "is_disabled": 0, "bike_id": "6e5d073d8fe1972b4dbe5801ee61ffae", "lat": 38.906374, "rental_uris": {"ios": "https://dc.lft.to/lastmile_qr_scan", "android": "https://dc.lft.to/lastmile_qr_scan"}}, {"type": "electric_scooter", "name": "6a6454dfe3f265a8f1c29c3cdb9ee13a", "fusion_lon": 0.0, "is_reserved": 0, "lon": -77.048841, "fusion_lat": 0.0, "is_disabled": 0, "bike_id": "6a6454dfe3f265a8f1c29c3cdb9ee13a", "lat": 38.90078233333333, "rental_uris": {"ios": "https://dc.lft.to/lastmile_qr_scan", "android": "https://dc.lft.to/lastmile_qr_scan"}}, {"type": "electric_scooter", "name": "c4336ca8e24f5ff5f18a0f48d22f9aff", "fusion_lon": 0.0, "is_reserved": 0, "lon": -77.03149016666667, "fusion_lat": 0.0, "is_disabled": 0, "bike_id": "c4336ca8e24f5ff5f18a0f48d22f9aff", "lat": 38.911207166666664, "rental_uris": {"ios": "https://dc.lft.to/lastmile_qr_scan", "android": "https://dc.lft.to/lastmile_qr_scan"}}, {"type": "electric_scooter", "name": "beb771609dd76123d2c3b1462f4d8c1e", "fusion_lon": 0.0, "is_reserved": 0, "lon": -77.02263233333333, "fusion_lat": 0.0, "is_disabled": 0, "bike_id": "beb771609dd76123d2c3b1462f4d8c1e", "lat": 38.920939833333335, "rental_uris": {"ios": "https://dc.lft.to/lastmile_qr_scan", "android": "https://dc.lft.to/lastmile_qr_scan"}}, {"type": "electric_scooter", "name": "49f7d4d7942cfd2870857da845251002", "fusion_lon": 0.0, "is_reserved": 0, "lon": -76.9391525, "fusion_lat": 0.0, "is_disabled": 0, "bike_id": "49f7d4d7942cfd2870857da845251002", "lat": 38.891423333333336, "rental_uris": {"ios": "https://dc.lft.to/lastmile_qr_scan", "android": "https://dc.lft.to/lastmile_qr_scan"}}, {"type": "electric_scooter", "name": "994ef1c4fbfb9768d4d29f050014bb3a", "fusion_lon": 0.0, "is_reserved": 0, "lon": -76.9810235, "fusion_lat": 0.0, "is_disabled": 0, "bike_id": "994ef1c4fbfb9768d4d29f050014bb3a", "lat": 38.90532733333333, "rental_uris": {"ios": "https://dc.lft.to/lastmile_qr_scan", "android": "https://dc.lft.to/lastmile_qr_scan"}}, {"type": "electric_scooter", "name": "c9a612842a14cbae6184d46a6fe93b3e", "fusion_lon": 0.0, "is_reserved": 0, "lon": -77.04310466666666, "fusion_lat": 0.0, "is_disabled": 0, "bike_id": "c9a612842a14cbae6184d46a6fe93b3e", "lat": 38.905529, "rental_uris": {"ios": "https://dc.lft.to/lastmile_qr_scan", "android": "https://dc.lft.to/lastmile_qr_scan"}}, {"type": "electric_scooter", "name": "9b7d86e9a76cdc53f796d162071e1159", "fusion_lon": 0.0, "is_reserved": 0, "lon": -77.02508816666666, "fusion_lat": 0.0, "is_disabled": 0, "bike_id": "9b7d86e9a76cdc53f796d162071e1159", "lat": 38.905694, "rental_uris": {"ios": "https://dc.lft.to/lastmile_qr_scan", "android": "https://dc.lft.to/lastmile_qr_scan"}}, {"type": "electric_bike", "name": "9199a15bc84d48255c9f061e37b15c3b", "fusion_lon": 0.0, "is_reserved": 0, "lon": -77.1201965, "fusion_lat": 0.0, "is_disabled": 0, "bike_id": "9199a15bc84d48255c9f061e37b15c3b", "lat": 38.857876, "rental_uris": {"ios": "https://dc.lft.to/lastmile_qr_scan", "android": "https://dc.lft.to/lastmile_qr_scan"}}, {"type": "electric_scooter", "name": "aac17613d5742f139c4e1cbbc6a1f936", "fusion_lon": 0.0, "is_reserved": 0, "lon": -77.00313533333333, "fusion_lat": 0.0, "is_disabled": 0, "bike_id": "aac17613d5742f139c4e1cbbc6a1f936", "lat": 38.8765885, "rental_uris": {"ios": "https://dc.lft.to/lastmile_qr_scan", "android": "https://dc.lft.to/lastmile_qr_scan"}}, {"type": "electric_scooter", "name": "f00a1677b052d0192932a1fbc216b662", "fusion_lon": 0.0, "is_reserved": 0, "lon": -77.03356183333334, "fusion_lat": 0.0, "is_disabled": 0, "bike_id": "f00a1677b052d0192932a1fbc216b662", "lat": 38.94516433333333, "rental_uris": {"ios": "https://dc.lft.to/lastmile_qr_scan", "android": "https://dc.lft.to/lastmile_qr_scan"}}, {"type": "electric_bike", "name": "afca05c98c3e18b01c8ba4b69ee9dad3", "fusion_lon": 0.0, "is_reserved": 0, "lon": -76.99909099999999, "fusion_lat": 0.0, "is_disabled": 0, "bike_id": "afca05c98c3e18b01c8ba4b69ee9dad3", "lat": 38.81911783333334, "rental_uris": {"ios": "https://dc.lft.to/lastmile_qr_scan", "android": "https://dc.lft.to/lastmile_qr_scan"}}, {"type": "electric_scooter", "name": "c26177536a1144c5d1e298da6eb66585", "fusion_lon": 0.0, "is_reserved": 0, "lon": -77.04348883333333, "fusion_lat": 0.0, "is_disabled": 0, "bike_id": "c26177536a1144c5d1e298da6eb66585", "lat": 38.90037816666667, "rental_uris": {"ios": "https://dc.lft.to/lastmile_qr_scan", "android": "https://dc.lft.to/lastmile_qr_scan"}}, {"type": "electric_scooter", "name": "59926fa9d48e4c3f5e1277e796bbf78a", "fusion_lon": 0.0, "is_reserved": 0, "lon": -77.03207116666667, "fusion_lat": 0.0, "is_disabled": 0, "bike_id": "59926fa9d48e4c3f5e1277e796bbf78a", "lat": 38.89232583333333, "rental_uris": {"ios": "https://dc.lft.to/lastmile_qr_scan", "android": "https://dc.lft.to/lastmile_qr_scan"}}, {"type": "electric_scooter", "name": "7de7c9e970234f0f7a32524a50ee9feb", "fusion_lon": 0.0, "is_reserved": 0, "lon": -77.013006, "fusion_lat": 0.0, "is_disabled": 0, "bike_id": "7de7c9e970234f0f7a32524a50ee9feb", "lat": 38.912658, "rental_uris": {"ios": "https://dc.lft.to/lastmile_qr_scan", "android": "https://dc.lft.to/lastmile_qr_scan"}}, {"type": "electric_scooter", "name": "6228902e050d8b5afc637b991ef853e9", "fusion_lon": 0.0, "is_reserved": 0, "lon": -76.98082383333333, "fusion_lat": 0.0, "is_disabled": 0, "bike_id": "6228902e050d8b5afc637b991ef853e9", "lat": 38.870102333333335, "rental_uris": {"ios": "https://dc.lft.to/lastmile_qr_scan", "android": "https://dc.lft.to/lastmile_qr_scan"}}, {"type": "electric_scooter", "name": "b3a17be7dcc9c1b7f56e7a45657d262b", "fusion_lon": 0.0, "is_reserved": 0, "lon": -77.031489, "fusion_lat": 0.0, "is_disabled": 0, "bike_id": "b3a17be7dcc9c1b7f56e7a45657d262b", "lat": 38.9142095, "rental_uris": {"ios": "https://dc.lft.to/lastmile_qr_scan", "android": "https://dc.lft.to/lastmile_qr_scan"}}, {"type": "electric_scooter", "name": "b994e5c44efc9d0be7816be50c7ef2db", "fusion_lon": 0.0, "is_reserved": 0, "lon": -77.03832633333333, "fusion_lat": 0.0, "is_disabled": 0, "bike_id": "b994e5c44efc9d0be7816be50c7ef2db", "lat": 38.9032625, "rental_uris": {"ios": "https://dc.lft.to/lastmile_qr_scan", "android": "https://dc.lft.to/lastmile_qr_scan"}}, {"type": "electric_scooter", "name": "f1fccc7259a2608394d431a31724710c", "fusion_lon": 0.0, "is_reserved": 0, "lon": -77.0263905, "fusion_lat": 0.0, "is_disabled": 0, "bike_id": "f1fccc7259a2608394d431a31724710c", "lat": 38.96908766666667, "rental_uris": {"ios": "https://dc.lft.to/lastmile_qr_scan", "android": "https://dc.lft.to/lastmile_qr_scan"}}, {"type": "electric_scooter", "name": "6fb18fdd3fe5357ddc66616d13da1046", "fusion_lon": 0.0, "is_reserved": 0, "lon": -77.00673983333333, "fusion_lat": 0.0, "is_disabled": 0, "bike_id": "6fb18fdd3fe5357ddc66616d13da1046", "lat": 38.90014933333333, "rental_uris": {"ios": "https://dc.lft.to/lastmile_qr_scan", "android": "https://dc.lft.to/lastmile_qr_scan"}}, {"type": "electric_scooter", "name": "c78cbdefbe135de4bdbdcebb2b445c78", "fusion_lon": 0.0, "is_reserved": 0, "lon": -77.01202733333334, "fusion_lat": 0.0, "is_disabled": 0, "bike_id": "c78cbdefbe135de4bdbdcebb2b445c78", "lat": 38.864087166666664, "rental_uris": {"ios": "https://dc.lft.to/lastmile_qr_scan", "android": "https://dc.lft.to/lastmile_qr_scan"}}, {"type": "electric_scooter", "name": "d250a387f89421007a41a8f094ebcf9c", "fusion_lon": 0.0, "is_reserved": 0, "lon": -77.0259525, "fusion_lat": 0.0, "is_disabled": 0, "bike_id": "d250a387f89421007a41a8f094ebcf9c", "lat": 38.91694066666667, "rental_uris": {"ios": "https://dc.lft.to/lastmile_qr_scan", "android": "https://dc.lft.to/lastmile_qr_scan"}},