{"data": {"bikes": [{"is_reserved": 0, "rental_uris": {"ios": "https://dc.lft.to/lastmile_qr_scan", "android": "https://dc.lft.to/lastmile_qr_scan"}, "name": "4691963a79a4184d9044afd46abb035b", "bike_id": "4691963a79a4184d9044afd46abb035b", "type": "electric_scooter", "lat": 38.924515, "fusion_lon": 0.0, "is_disabled": 0, "fusion_lat": 0.0, "lon": -77.05762383333334}, {"is_reserved": 0, "rental_uris": {"ios": "https://dc.lft.to/lastmile_qr_scan", "android": "https://dc.lft.to/lastmile_qr_scan"}, "name": "2ec428c7b3f2fd2f5b2073d116382053", "bike_id": "2ec428c7b3f2fd2f5b2073d116382053", "type": "electric_scooter", "lat": 38.93612616666667, "fusion_lon": 0.0, "is_disabled": 0, "fusion_lat": 0.0, "lon": -77.08180716666666}, {"is_reserved": 0, "rental_uris": {"ios": "https://dc.lft.to/lastmile_qr_scan", "android": "https://dc.lft.to/lastmile_qr_scan"}, "name": "0224a09a247376604d9aa737f6240304", "bike_id": "0224a09a247376604d9aa737f6240304", "type": "electric_scooter", "lat": 38.90085883333333, "fusion_lon": 0.0, "is_disabled": 0, "fusion_lat": 0.0, "lon": -77.0475345}, {"is_reserved": 0, "rental_uris": {"ios": "https://dc.lft.to/lastmile_qr_scan", "android": "https://dc.lft.to/lastmile_qr_scan"}, "name": "ea960085448c91d0b93739d3963f56e3", "bike_id": "ea960085448c91d0b93739d3963f56e3", "type": "electric_scooter", "lat": 38.93500366666667, "fusion_lon": 0.0, "is_disabled": 0, "fusion_lat": 0.0, "lon": -77.05802916666667}, {"is_reserved": 0, "rental_uris": {"ios": "https://dc.lft.to/lastmile_qr_scan", "android": "https://dc.lft.to/lastmile_qr_scan"}, "name": "0c851954b29f04f97ff19b5d812395ff", "bike_id": "0c851954b29f04f97ff19b5d812395ff", "type": "electric_scooter", "lat": 38.9127415, "fusion_lon": 0.0, "is_disabled": 0, "fusion_lat": 0.0, "lon": -77.04505966666666}, {"is_reserved": 0, "rental_uris": {"ios": "https://dc.lft.to/lastmile_qr_scan", "android": "https://dc.lft.to/lastmile_qr_scan"}, "name": "25039bfbc0a2367e01929df0a1ccdd30", "bike_id": "25039bfbc0a2367e01929df0a1ccdd30", "type": "electric_scooter", "lat": 38.90558333333333, "fusion_lon": 0.0, "is_disabled": 0, "fusion_lat": 0.0, "lon": -77.03442716666666}, {"is_reserved": 0, "rental_uris": {"ios": "https://dc.lft.to/lastmile_qr_scan", "android": "https://dc.lft.to/lastmile_qr_scan"}, "name": "ee7db092810a1a55dd46d95ea0a5d5b1", "bike_id": "ee7db092810a1a55dd46d95ea0a5d5b1", "type": "electric_scooter", "lat": 38.91761433333333, "fusion_lon": 0.0, "is_disabled": 0, "fusion_lat": 0.0, "lon": -77.03181066666667}, {"is_reserved": 0, "rental_uris": {"ios": "https://dc.lft.to/lastmile_qr_scan", "android": "https://dc.lft.to/lastmile_qr_scan"}, "name": "c0b25bd272969ae0225f8cdd7fbf096b", "bike_id": "c0b25bd272969ae0225f8cdd7fbf096b", "type": "electric_scooter", "lat": 38.88036733333333, "fusion_lon": 0.0, "is_disabled": 0, "fusion_lat": 0.0, "lon": -77.019291}, {"is_reserved": 0, "rental_uris": {"ios": "https://dc.lft.to/lastmile_qr_scan", "android": "https://dc.lft.to/lastmile_qr_scan"}, "name": "3edd72da6cf4c54bed21c715fce6f3ec", "bike_id": "3edd72da6cf4c54bed21c715fce6f3ec", "type": "electric_bike", "lat": 38.870128666666666, "fusion_lon": 0.0, "is_disabled": 0, "fusion_lat": 0.0, "lon": -76.96022116666667}, {"is_reserved": 0, "rental_uris": {"ios": "https://dc.lft.to/lastmile_qr_scan", "android": "https://dc.lft.to/lastmile_qr_scan"}, "name": "1c358678f241ee307e6fdd2d158eba7d", "bike_id": "1c358678f241ee307e6fdd2d158eba7d", "type": "electric_scooter", "lat": 38.836838166666666, "fusion_lon": 0.0, "is_disabled": 0, "fusion_lat": 0.0, "lon": -77.00584283333333}, {"is_reserved": 0, "rental_uris": {"ios": "https://dc.lft.to/lastmile_qr_scan", "android": "https://dc.lft.to/lastmile_qr_scan"}, "name": "08f6098fc464326254e23f3e099e9f59", "bike_id": "08f6098fc464326254e23f3e099e9f59", "type": "electric_scooter", "lat": 38.914184666666664, "fusion_lon": 0.0, "is_disabled": 0, "fusion_lat": 0.0, "lon": -77.03999516666667}, {"is_reserved": 0, "rental_uris": {"ios": "https://dc.lft.to/lastmile_qr_scan", "android": "https://dc.lft.to/lastmile_qr_scan"}, "name": "8ed59e83510402508e9fb8895f7fb15b", "bike_id": "8ed59e83510402508e9fb8895f7fb15b", "type": "electric_scooter", "lat": 38.9167665, "fusion_lon": 0.0, "is_disabled": 0, "fusion_lat": 0.0, "lon": -77.0322385}, {"is_reserved": 0, "rental_uris": {"ios": "https://dc.lft.to/lastmile_qr_scan", "android": "https://dc.lft.to/lastmile_qr_scan"}, "name": "13b928ececa0cc8eb7abb0d9262da0c2", "bike_id": "13b928ececa0cc8eb7abb0d9262da0c2", "type": "electric_scooter", "lat": 38.9169855, "fusion_lon": 0.0, "is_disabled": 0, "fusion_lat": 0.0, "lon": -77.03328366666666}, {"is_reserved": 0, "rental_uris": {"ios": "https://dc.lft.to/lastmile_qr_scan", "android": "https://dc.lft.to/lastmile_qr_scan"}, "name": "1d0c74dcfce8103dc09ce630154ee198", "bike_id": "1d0c74dcfce8103dc09ce630154ee198", "type": "electric_scooter", "lat": 38.900393666666666, "fusion_lon": 0.0, "is_disabled": 0, "fusion_lat": 0.0, "lon": -76.99013466666666}, {"is_reserved": 0, "rental_uris": {"ios": "https://dc.lft.to/lastmile_qr_scan", "android": "https://dc.lft.to/lastmile_qr_scan"}, "name": "8f19385e5ff6219c4a91f4c6bf895770", "bike_id": "8f19385e5ff6219c4a91f4c6bf895770", "type": "electric_scooter", "lat": 38.905234666666665, "fusion_lon": 0.0, "is_disabled": 0, "fusion_lat": 0.0, "lon": -77.063879}, {"is_reserved": 0, "rental_uris": {"ios": "https://dc.lft.to/lastmile_qr_scan", "android": "https://dc.lft.to/lastmile_qr_scan"}, "name": "73ecce09ac783b6524b5cc1ded4a89c5", "bike_id": "73ecce09ac783b6524b5cc1ded4a89c5", "type": "electric_scooter", "lat": 38.90010866666667, "fusion_lon": 0.0, "is_disabled": 0, "fusion_lat": 0.0, "lon": -76.99849}, {"is_reserved": 0, "rental_uris": {"ios": "https://dc.lft.to/lastmile_qr_scan", "android": "https://dc.lft.to/lastmile_qr_scan"}, "name": "a31f5900042658edb974c8dd14a6aaea", "bike_id": "a31f5900042658edb974c8dd14a6aaea", "type": "electric_scooter", "lat": 38.91080866666667, "fusion_lon": 0.0, "is_disabled": 0, "fusion_lat": 0.0, "lon": -77.07642216666666}, {"is_reserved": 0, "rental_uris": {"ios": "https://dc.lft.to/lastmile_qr_scan", "android": "https://dc.lft.to/lastmile_qr_scan"}, "name": "6895442718f44f2214385441c6e4642d", "bike_id": "6895442718f44f2214385441c6e4642d", "type": "electric_bike", "lat": 39.0159025, "fusion_lon": 0.0, "is_disabled": 0, "fusion_lat": 0.0, "lon": -77.04429233333333}, {"is_reserved": 0, "rental_uris": {"ios": "https://dc.lft.to/lastmile_qr_scan", "android": "https://dc.lft.to/lastmile_qr_scan"}, "name": "f8f28bd93f0fd22ff38642526be1d9da", "bike_id": "f8f28bd93f0fd22ff38642526be1d9da", "type": "electric_scooter", "lat": 38.903060833333335, "fusion_lon": 0.0, "is_disabled": 0, "fusion_lat": 0.0, "lon": -77.05201716666667}, {"is_reserved": 0, "rental_uris": {"ios": "https://dc.lft.to/lastmile_qr_scan", "android": "https://dc.lft.to/lastmile_qr_scan"}, "name": "9151c298ddc774dc2586b9762ac1a444", "bike_id": "9151c298ddc774dc2586b9762ac1a444", "type": "electric_scooter", "lat": 38.92470866666667, "fusion_lon": 0.0, "is_disabled": 0, "fusion_lat": 0.0, "lon": -77.02720783333334}, {"is_reserved": 0, "rental_uris": {"ios": "https://dc.lft.to/lastmile_qr_scan", "android": "https://dc.lft.to/lastmile_qr_scan"}, "name": "b71ace96627ab77fa046a1db493a0269", "bike_id": "b71ace96627ab77fa046a1db493a0269", "type": "electric_bike", "lat": 38.8750235, "fusion_lon": 0.0, "is_disabled": 0, "fusion_lat": 0.0, "lon": -77.02591416666667}, {"is_reserved": 0, "rental_uris": {"ios": "https://dc.lft.to/lastmile_qr_scan", "android": "https://dc.lft.to/lastmile_qr_scan"}, "name": "02a6ca8430d5d2dda2de23d3195cb131", "bike_id": "02a6ca8430d5d2dda2de23d3195cb131", "type": "electric_scooter", "lat": 38.8842515, "fusion_lon": 0.0, "is_disabled": 0, "fusion_lat": 0.0, "lon": -77.03048966666667}, {"is_reserved": 0, "rental_uris": {"ios": "https://dc.lft.to/lastmile_qr_scan", "android": "https://dc.lft.to/lastmile_qr_scan"}, "name": "af68910b8fc5900ce6edc0ebffbed59b", "bike_id": "af68910b8fc5900ce6edc0ebffbed59b", "type": "electric_scooter", "lat": 38.891263333333335, "fusion_lon": 0.0, "is_disabled": 0, "fusion_lat": 0.0, "lon": -76.94095516666667}, {"is_reserved": 0, "rental_uris": {"ios": "https://dc.lft.to/lastmile_qr_scan", "android": "https://dc.lft.to/lastmile_qr_scan"}, "name": "87ed5a5706f80d92f658bc201961900e", "bike_id": "87ed5a5706f80d92f658bc201961900e", "type": "electric_scooter", "lat": 38.9842735, "fusion_lon": 0.0, "is_disabled": 0, "fusion_lat": 0.0, "lon": -77.0267095}, {"is_reserved": 0, "rental_uris": {"ios": "https://dc.lft.to/lastmile_qr_scan", "android": "https://dc.lft.to/lastmile_qr_scan"}, "name": "6eb8903f3b62b0fec82a05737e66ef20", "bike_id": "6eb8903f3b62b0fec82a05737e66ef20", "type": "electric_scooter", "lat": 38.86696333333333, "fusion_lon": 0.0, "is_disabled": 0, "fusion_lat": 0.0, "lon": -76.9807935}, {"is_reserved": 0, "rental_uris": {"ios": "https://dc.lft.to/lastmile_qr_scan", "android": "https://dc.lft.to/lastmile_qr_scan"}, "name": "f45ae502ddcde41609aed6ffe3ed4322", "bike_id": "f45ae502ddcde41609aed6ffe3ed4322", "type": "electric_scooter", "lat": 38.9388665, "fusion_lon": 0.0, "is_disabled": 0, "fusion_lat": 0.0, "lon": -77.0332625}, {"is_reserved": 0, "rental_uris": {"ios": "https://dc.lft.to/lastmile_qr_scan", "android": "https://dc.lft.to/lastmile_qr_scan"}, "name": "78c9d2a48bbc9bf0ce1b98005976bf69", "bike_id": "78c9d2a48bbc9bf0ce1b98005976bf69", "type": "electric_scooter", "lat": 38.9284285, "fusion_lon": 0.0, "is_disabled": 0, "fusion_lat": 0.0, "lon": -77.03251816666666}, {"is_reserved": 0, "rental_uris": {"ios": "https://dc.lft.to/lastmile_qr_scan", "android": "https://dc.lft.to/lastmile_qr_scan"}, "name": "b536fb044668cfc889ed07e3235c7a48", "bike_id": "b536fb044668cfc889ed07e3235c7a48", "type": "electric_scooter", "lat": 38.887991, "fusion_lon": 0.0, "is_disabled": 0, "fusion_lat": 0.0, "lon": -76.93363933333333}, {"is_reserved": 0, "rental_uris": {"ios": "https://dc.lft.to/lastmile_qr_scan", "android": "https://dc.lft.to/lastmile_qr_scan"}, "name": "a412be07a45936291026bbcb69afd900", "bike_id": "a412be07a45936291026bbcb69afd900", "type": "electric_bike", "lat": 38.80445866666667, "fusion_lon": 0.0, "is_disabled": 0, "fusion_lat": 0.0, "lon": -77.04237533333334}, {"is_reserved": 0, "rental_uris": {"ios": "https://dc.lft.to/lastmile_qr_scan", "android": "https://dc.lft.to/lastmile_qr_scan"}, "name": "8a0309d4d9a96fb78740d4cab724daa5", "bike_id": "8a0309d4d9a96fb78740d4cab724daa5", "type": "electric_bike", "lat": 38.906741333333336, "fusion_lon": 0.0, "is_disabled": 0, "fusion_lat": 0.0, "lon": -77.0246235}, {"is_reserved": 0, "rental_uris": {"ios": "https://dc.lft.to/lastmile_qr_scan", "android": "https://dc.lft.to/lastmile_qr_scan"}, "name": "220b23199c5111440f05af0f3e3a5716", "bike_id": "220b23199c5111440f05af0f3e3a5716", "type": "electric_scooter", "lat": 38.96611216666667, "fusion_lon": 0.0, "is_disabled": 0, "fusion_lat": 0.0, "lon": -77.023145}, {"is_reserved": 0, "rental_uris": {"ios": "https://dc.lft.to/lastmile_qr_scan", "android": "https://dc.lft.to/lastmile_qr_scan"}, "name": "2ea4114583d927359dc5b48fcfaf19e1", "bike_id": "2ea4114583d927359dc5b48fcfaf19e1", "type": "electric_bike", "lat": 38.82781716666667, "fusion_lon": 0.0, "is_disabled": 0, "fusion_lat": 0.0, "lon": -77.0091845}, {"is_reserved": 0, "rental_uris": {"ios": "https://dc.lft.to/lastmile_qr_scan", "android": "https://dc.lft.to/lastmile_qr_scan"}, "name": "92554fdb90c3fc3bd3fc6752be4ccbba", "bike_id": "92554fdb90c3fc3bd3fc6752be4ccbba", "type": "electric_scooter", "lat": 38.907456, "fusion_lon": 0.0, "is_disabled": 0, "fusion_lat": 0.0, "lon": -77.02388016666667}, {"is_reserved": 0, "rental_uris": {"ios": "https://dc.lft.to/lastmile_qr_scan", "android": "https://dc.lft.to/lastmile_qr_scan"}, "name": "dd8f1456e2a37ce532616dd890c4920f", "bike_id": "dd8f1456e2a37ce532616dd890c4920f", "type": "electric_scooter", "lat": 38.900506, "fusion_lon": 0.0, "is_disabled": 0, "fusion_lat": 0.0, "lon": -77.00771283333333}, {"is_reserved": 0, "rental_uris": {"ios": "https://dc.lft.to/lastmile_qr_scan", "android": "https://dc.lft.to/lastmile_qr_scan"}, "name": "e9e3701c3b957b87cb79982b6a283e48", "bike_id": "e9e3701c3b957b87cb79982b6a283e48", "type": "electric_scooter", "lat": 38.88016983333333, "fusion_lon": 0.0, "is_disabled": 0, "fusion_lat": 0.0, "lon": -77.0248845}, {"is_reserved": 0, "rental_uris": {"ios": "https://dc.lft.to/lastmile_qr_scan", "android": "https://dc.lft.to/lastmile_qr_scan"}, "name": "8a21fe6bfba6b34e4c4efceb8efa87da", "bike_id": "8a21fe6bfba6b34e4c4efceb8efa87da", "type": "electric_scooter", "lat": 38.96669383333333, "fusion_lon": 0.0, "is_disabled": 0, "fusion_lat": 0.0, "lon": -77.02411566666666}, {"is_reserved": 0, "rental_uris": {"ios": "https://dc.lft.to/lastmile_qr_scan", "android": "https://dc.lft.to/lastmile_qr_scan"}, "name": "06fe194120c31cf469f95ff694bc45ca", "bike_id": "06fe194120c31cf469f95ff694bc45ca", "type": "electric_scooter", "lat": 38.905216833333334, "fusion_lon": 0.0, "is_disabled": 0, "fusion_lat": 0.0, "lon": -77.05325133333334}, {"is_reserved": 0, "rental_uris": {"ios": "https://dc.lft.to/lastmile_qr_scan", "android": "https://dc.lft.to/lastmile_qr_scan"}, "name": "5c1d9369507790b56a3544c510fe70f6", "bike_id": "5c1d9369507790b56a3544c510fe70f6", "type": "electric_scooter", "lat": 38.91007666666667, "fusion_lon": 0.0, "is_disabled": 0, "fusion_lat": 0.0, "lon": -76.993926}, {"is_reserved": 0, "rental_uris": {"ios": "https://dc.lft.to/lastmile_qr_scan", "android": "https://dc.lft.to/lastmile_qr_scan"}, "name": "5da9d149ec2a3c818a80af3c2c449257", "bike_id": "5da9d149ec2a3c818a80af3c2c449257", "type": "electric_scooter", "lat": 38.923475, "fusion_lon": 0.0, "is_disabled": 0, "fusion_lat": 0.0, "lon": -77.0190015}, {"is_reserved": 0, "rental_uris": {"ios": "https://dc.lft.to/lastmile_qr_scan", "android": "https://dc.lft.to/lastmile_qr_scan"}, "name": "4967354e431dbd70b05b6aa881585aef", "bike_id": "4967354e431dbd70b05b6aa881585aef", "type": "electric_scooter", "lat": 38.913408833333335, "fusion_lon": 0.0, "is_disabled": 0, "fusion_lat": 0.0, "lon": -77.00223116666666}, {"is_reserved": 0, "rental_uris": {"ios": "https://dc.lft.to/lastmile_qr_scan", "android": "https://dc.lft.to/lastmile_qr_scan"}, "name": "c2c210572c1209ea7c71a9223f047e9c", "bike_id": "c2c210572c1209ea7c71a9223f047e9c", "type": "electric_scooter", "lat": 38.89352566666667, "fusion_lon": 0.0, "is_disabled": 0, "fusion_lat": 0.0, "lon": -77.00337816666666}, {"is_reserved": 0, "rental_uris": {"ios": "https://dc.lft.to/lastmile_qr_scan", "android": "https://dc.lft.to/lastmile_qr_scan"}, "name": "4ea40e8b727f00f0d2094a03a1f3e24b", "bike_id": "4ea40e8b727f00f0d2094a03a1f3e24b", "type": "electric_scooter", "lat": 38.86103, "fusion_lon": 0.0, "is_disabled": 0, "fusion_lat": 0.0, "lon": -76.98366633333333}, {"is_reserved": 0, "rental_uris": {"ios": "https://dc.lft.to/lastmile_qr_scan", "android": "https://dc.lft.to/lastmile_qr_scan"}, "name": "7b2a773def5327f364e9a7c17b1fb703", "bike_id": "7b2a773def5327f364e9a7c17b1fb703", "type": "electric_scooter", "lat": 38.883398, "fusion_lon": 0.0, "is_disabled": 0, "fusion_lat": 0.0, "lon": -77.03146833333334}, {"is_reserved": 0, "rental_uris": {"ios": "https://dc.lft.to/lastmile_qr_scan", "android": "https://dc.lft.to/lastmile_qr_scan"}, "name": "857496abef95f7c0b2939193e141ab01", "bike_id": "857496abef95f7c0b2939193e141ab01", "type": "electric_scooter", "lat": 38.90518133333333, "fusion_lon": 0.0, "is_disabled": 0, "fusion_lat": 0.0, "lon": -77.05025866666666}, {"is_reserved": 0, "rental_uris": {"ios": "https://dc.lft.to/lastmile_qr_scan", "android": "https://dc.lft.to/lastmile_qr_scan"}, "name": "9f5fe9a55e8dd760178e8ea63eef623e", "bike_id": "9f5fe9a55e8dd760178e8ea63eef623e", "type": "electric_scooter", "lat": 38.91903666666666, "fusion_lon": 0.0, "is_disabled": 0, "fusion_lat": 0.0, "lon": -77.02173716666667}, {"is_reserved": 0, "rental_uris": {"ios": "https://dc.lft.to/lastmile_qr_scan", "android": "https://dc.lft.to/lastmile_qr_scan"}, "name": "665bbcdcc39d89cb6e2e5fbf140f8fa8", "bike_id": "665bbcdcc39d89cb6e2e5fbf140f8fa8", "type": "electric_scooter", "lat": 38.912555833333336, "fusion_lon": 0.0, "is_disabled": 0, "fusion_lat": 0.0, "lon": -77.03864233333333}, {"is_reserved": 0, "rental_uris": {"ios": "https://dc.lft.to/lastmile_qr_scan", "android": "https://dc.lft.to/lastmile_qr_scan"}, "name": "02022593e4a51b4156e8e297b40eeb74", "bike_id": "02022593e4a51b4156e8e297b40eeb74", "type": "electric_scooter", "lat": 38.890465666666664, "fusion_lon": 0.0, "is_disabled": 0, "fusion_lat": 0.0, "lon": -76.93744916666667}, {"is_reserved": 0, "rental_uris": {"ios": "https://dc.lft.to/lastmile_qr_scan", "android": "https://dc.lft.to/lastmile_qr_scan"}, "name": "0769a47a564b2dde701100bea5d96f74", "bike_id": "0769a47a564b2dde701100bea5d96f74", "type": "electric_scooter", "lat": 38.924709, "fusion_lon": 0.0, "is_disabled": 0, "fusion_lat": 0.0, "lon": -77.02719966666666}, {"is_reserved": 0, "rental_uris": {"ios": "https://dc.lft.to/lastmile_qr_scan", "android": "https://dc.lft.to/lastmile_qr_scan"}, "name": "3cdb481ecc7174729db01821e2f7c928", "bike_id": "3cdb481ecc7174729db01821e2f7c928", "type": "electric_scooter", "lat": 38.905173166666664, "fusion_lon": 0.0, "is_disabled": 0, "fusion_lat": 0.0, "lon": -77.05176433333334}, {"is_reserved": 0, "rental_uris": {"ios": "https://dc.lft.to/lastmile_qr_scan", "android": "https://dc.lft.to/lastmile_qr_scan"}, "name": "24f778fc9e48d65054cf4e3126ebffa5", "bike_id": "24f778fc9e48d65054cf4e3126ebffa5", "type": "electric_scooter", "lat": 38.9063095, "fusion_lon": 0.0, "is_disabled": 0, "fusion_lat": 0.0, "lon": -77.043174}, {"is_reserved": 0, "rental_uris": {"ios": "https://dc.lft.to/lastmile_qr_scan", "android": "https://dc.lft.to/lastmile_qr_scan"}, "name": "a4140e776c3d7601536fdc4a77b4ba0a", "bike_id": "a4140e776c3d7601536fdc4a77b4ba0a", "type": "electric_scooter", "lat": 38.908242, "fusion_lon": 0.0, "is_disabled": 0, "fusion_lat": 0.0, "lon": -77.03441316666667}, {"is_reserved": 0, "rental_uris": {"ios": "https://dc.lft.to/lastmile_qr_scan", "android": "https://dc.lft.to/lastmile_qr_scan"}, "name": "e405b344e53896e964963cab499ea574", "bike_id": "e405b344e53896e964963cab499ea574", "type": "electric_scooter", "lat": 38.8945845, "fusion_lon": 0.0, "is_disabled": 0, "fusion_lat": 0.0, "lon": -77.04676083333334}, {"is_reserved": 0, "rental_uris": {"ios": "https://dc.lft.to/lastmile_qr_scan", "android": "https://dc.lft.to/lastmile_qr_scan"}, "name": "66e9d44416695e83bef8038ac594fc69", "bike_id": "66e9d44416695e83bef8038ac594fc69", "type": "electric_scooter", "lat": 38.884325, "fusion_lon": 0.0, "is_disabled": 0, "fusion_lat": 0.0, "lon": -76.9575975}, {"is_reserved": 0, "rental_uris": {"ios": "https://dc.lft.to/lastmile_qr_scan", "android": "https://dc.lft.to/lastmile_qr_scan"}, "name": "1ebad1268927e84071b16f5f3a6a7566", "bike_id": "1ebad1268927e84071b16f5f3a6a7566", "type": "electric_scooter", "lat": 38.8924525, "fusion_lon": 0.0, "is_disabled": 0, "fusion_lat": 0.0, "lon": -77.02792266666667}, {"is_reserved": 0, "rental_uris": {"ios": "https://dc.lft.to/lastmile_qr_scan", "android": "https://dc.lft.to/lastmile_qr_scan"}, "name": "a31f5f7b08f03e10942b76a9663d3675", "bike_id": "a31f5f7b08f03e10942b76a9663d3675", "type": "electric_bike", "lat": 38.85513983333333, "fusion_lon": 0.0, "is_disabled": 0, "fusion_lat": 0.0, "lon": -76.98422733333334}, {"is_reserved": 0, "rental_uris": {"ios": "https://dc.lft.to/lastmile_qr_scan", "android": "https://dc.lft.to/lastmile_qr_scan"}, "name": "aca1261cc7270497b5853a7eb5f1d553", "bike_id": "aca1261cc7270497b5853a7eb5f1d553", "type": "electric_scooter", "lat": 38.8975765, "fusion_lon": 0.0, "is_disabled": 0, "fusion_lat": 0.0, "lon": -76.941853}, {"is_reserved": 0, "rental_uris": {"ios": "https://dc.lft.to/lastmile_qr_scan", "android": "https://dc.lft.to/lastmile_qr_scan"}, "name": "8a909f33f68611b1a1a85a072e34a3bc", "bike_id": "8a909f33f68611b1a1a85a072e34a3bc", "type": "electric_scooter", "lat": 38.89791016666667, "fusion_lon": 0.0, "is_disabled": 0, "fusion_lat": 0.0, "lon": -77.03198766666667}, {"is_reserved": 0, "rental_uris": {"ios": "https://dc.lft.to/lastmile_qr_scan", "android": "https://dc.lft.to/lastmile_qr_scan"}, "name": "7ec43ce6279c6c8f084f0ccf0fd26c8a", "bike_id": "7ec43ce6279c6c8f084f0ccf0fd26c8a", "type": "electric_scooter", "lat": 38.88482066666667, "fusion_lon": 0.0, "is_disabled": 0, "fusion_lat": 0.0, "lon": -77.033555}, {"is_reserved": 0, "rental_uris": {"ios": "https://dc.lft.to/lastmile_qr_scan", "android": "https://dc.lft.to/lastmile_qr_scan"}, "name": "ebda8aeac63c46fa54e500e06ce7ffb5", "bike_id": "ebda8aeac63c46fa54e500e06ce7ffb5", "type": "electric_scooter", "lat": 38.92665133333333, "fusion_lon": 0.0, "is_disabled": 0, "fusion_lat": 0.0, "lon": -77.05589083333334}, {"is_reserved": 0, "rental_uris": {"ios": "https://dc.lft.to/lastmile_qr_scan", "android": "https://dc.lft.to/lastmile_qr_scan"}, "name": "071b43ddcc2eac99abb3c46a61a7a01c", "bike_id": "071b43ddcc2eac99abb3c46a61a7a01c", "type": "electric_scooter", "lat": 38.902082, "fusion_lon": 0.0, "is_disabled": 0, "fusion_lat": 0.0, "lon": -76.98846633333334}, {"is_reserved": 0, "rental_uris": {"ios": "https://dc.lft.to/lastmile_qr_scan", "android": "https://dc.lft.to/lastmile_qr_scan"}, "name": "4dfdd9f6a16ac17586c8ddc6ca03601e", "bike_id": "4dfdd9f6a16ac17586c8ddc6ca03601e", "type": "electric_scooter", "lat": 38.92470433333333, "fusion_lon": 0.0, "is_disabled": 0, "fusion_lat": 0.0, "lon": -77.05258266666667}, {"is_reserved": 0, "rental_uris": {"ios": "https://dc.lft.to/lastmile_qr_scan", "android": "https://dc.lft.to/lastmile_qr_scan"}, "name": "112d6f0a01c37e892e7d1b52778a2ff4", "bike_id": "112d6f0a01c37e892e7d1b52778a2ff4", "type": "electric_scooter", "lat": 38.90026183333333, "fusion_lon": 0.0, "is_disabled": 0, "fusion_lat": 0.0, "lon": -76.98905016666667}, {"is_reserved": 0, "rental_uris": {"ios": "https://dc.lft.to/lastmile_qr_scan", "android": "https://dc.lft.to/lastmile_qr_scan"}, "name": "fe9ac553a683cf378e68099f160b6ac2", "bike_id": "fe9ac553a683cf378e68099f160b6ac2", "type": "electric_scooter", "lat": 38.8954845, "fusion_lon": 0.0, "is_disabled": 0, "fusion_lat": 0.0, "lon": -76.93378133333333}, {"is_reserved": 0, "rental_uris": {"ios": "https://dc.lft.to/lastmile_qr_scan", "android": "https://dc.lft.to/lastmile_qr_scan"}, "name": "a195159f5f05c7d57a05386de6f45912", "bike_id": "a195159f5f05c7d57a05386de6f45912", "type": "electric_scooter", "lat": 38.8847745, "fusion_lon": 0.0, "is_disabled": 0, "fusion_lat": 0.0, "lon": -77.03357183333334}, {"is_reserved": 0, "rental_uris": {"ios": "https://dc.lft.to/lastmile_qr_scan", "android": "https://dc.lft.to/lastmile_qr_scan"}, "name": "10aa7f89b184aa673df00a78392b2069", "bike_id": "10aa7f89b184aa673df00a78392b2069", "type": "electric_scooter", "lat": 38.89634483333333, "fusion_lon": 0.0, "is_disabled": 0, "fusion_lat": 0.0, "lon": -77.02310383333334}, {"is_reserved": 0, "rental_uris": {"ios": "https://dc.lft.to/lastmile_qr_scan", "android": "https://dc.lft.to/lastmile_qr_scan"}, "name": "4f9f93be700622b9c8ebf4e8b62dd316", "bike_id": "4f9f93be700622b9c8ebf4e8b62dd316", "type": "electric_scooter", "lat": 38.90330766666666, "fusion_lon": 0.0, "is_disabled": 0, "fusion_lat": 0.0, "lon": -77.016349}, {"is_reserved": 0, "rental_uris": {"ios": "https://dc.lft.to/lastmile_qr_scan", "android": "https://dc.lft.to/lastmile_qr_scan"}, "name": "80f0b89faf47848b2c71391076fe5f7b", "bike_id": "80f0b89faf47848b2c71391076fe5f7b", "type": "electric_scooter", "lat": 38.92660766666667, "fusion_lon": 0.0, "is_disabled": 0, "fusion_lat": 0.0, "lon": -77.0372765}, {"is_reserved": 0, "rental_uris": {"ios": "https://dc.lft.to/lastmile_qr_scan", "android": "https://dc.lft.to/lastmile_qr_scan"}, "name": "47ea67e034970ed1759408350a97e2a0", "bike_id": "47ea67e034970ed1759408350a97e2a0", "type": "electric_scooter", "lat": 38.88020566666667, "fusion_lon": 0.0, "is_disabled": 0, "fusion_lat": 0.0, "lon": -76.93125416666666}, {"is_reserved": 0, "rental_uris": {"ios": "https://dc.lft.to/lastmile_qr_scan", "android": "https://dc.lft.to/lastmile_qr_scan"}, "name": "a9256151e3a99f4318927675a76bc7f7", "bike_id": "a9256151e3a99f4318927675a76bc7f7", "type": "electric_bike", "lat": 38.88067866666667, "fusion_lon": 0.0, "is_disabled": 0, "fusion_lat": 0.0, "lon": -77.08636116666666}, {"is_reserved": 0, "rental_uris": {"ios": "https://dc.lft.to/lastmile_qr_scan", "android": "https://dc.lft.to/lastmile_qr_scan"}, "name": "8ea6b5a6ad28d5fcab701fc818b8dd95", "bike_id": "8ea6b5a6ad28d5fcab701fc818b8dd95", "type": "electric_scooter", "lat": 38.922290333333336, "fusion_lon": 0.0, "is_disabled": 0, "fusion_lat": 0.0, "lon": -77.0438335}, {"is_reserved": 0, "rental_uris": {"ios": "https://dc.lft.to/lastmile_qr_scan", "android": "https://dc.lft.to/lastmile_qr_scan"}, "name": "b0f9de2822915b3a2cf07ccc0eb47b93", "bike_id": "b0f9de2822915b3a2cf07ccc0eb47b93", "type": "electric_scooter", "lat": 38.89214166666667, "fusion_lon": 0.0, "is_disabled": 0, "fusion_lat": 0.0, "lon": -77.02137683333333}, {"is_reserved": 0, "rental_uris": {"ios": "https://dc.lft.to/lastmile_qr_scan", "android": "https://dc.lft.to/lastmile_qr_scan"}, "name": "4bdf62bedcdcb06bc62b85f8c22994e3", "bike_id": "4bdf62bedcdcb06bc62b85f8c22994e3", "type": "electric_scooter", "lat": 38.90449866666667, "fusion_lon": 0.0, "is_disabled": 0, "fusion_lat": 0.0, "lon": -77.04358966666666}, {"is_reserved": 0, "rental_uris": {"ios": "https://dc.lft.to/lastmile_qr_scan", "android": "https://dc.lft.to/lastmile_qr_scan"}, "name": "4398471ba6691d42f0f45180e4cd45bc", "bike_id": "4398471ba6691d42f0f45180e4cd45bc", "type": "electric_scooter", "lat": 38.91279733333333, "fusion_lon": 0.0, "is_disabled": 0, "fusion_lat": 0.0, "lon": -77.04509733333333}, {"is_reserved": 0, "rental_uris": {"ios": "https://dc.lft.to/lastmile_qr_scan", "android": "https://dc.lft.to/lastmile_qr_scan"}, "name": "32f155f6bb8b58e259cd3552ba6ba759", "bike_id": "32f155f6bb8b58e259cd3552ba6ba759", "type": "electric_scooter", "lat": 38.91377716666667, "fusion_lon": 0.0, "is_disabled": 0, "fusion_lat": 0.0, "lon": -77.0199725}, {"is_reserved": 0, "rental_uris": {"ios": "https://dc.lft.to/lastmile_qr_scan", "android": "https://dc.lft.to/lastmile_qr_scan"}, "name": "9826f723c48edeef2ab514f6b75ca7bb", "bike_id": "9826f723c48edeef2ab514f6b75ca7bb", "type": "electric_scooter", "lat": 38.9112025, "fusion_lon": 0.0, "is_disabled": 0, "fusion_lat": 0.0, "lon": -77.0320615}, {"is_reserved": 0, "rental_uris": {"ios": "https://dc.lft.to/lastmile_qr_scan", "android": "https://dc.lft.to/lastmile_qr_scan"}, "name": "f46b19b66fd885dd82009ddbda5acaf1", "bike_id": "f46b19b66fd885dd82009ddbda5acaf1", "type": "electric_scooter", "lat": 38.92067433333333, "fusion_lon": 0.0, "is_disabled": 0, "fusion_lat": 0.0, "lon": -77.045545}, {"is_reserved": 0, "rental_uris": {"ios": "https://dc.lft.to/lastmile_qr_scan", "android": "https://dc.lft.to/lastmile_qr_scan"}, "name": "8172d88a36227df019e81db02c719e78", "bike_id": "8172d88a36227df019e81db02c719e78", "type": "electric_scooter", "lat": 38.8974, "fusion_lon": 0.0, "is_disabled": 0, "fusion_lat": 0.0, "lon": -77.04682933333333}, {"is_reserved": 0, "rental_uris": {"ios": "https://dc.lft.to/lastmile_qr_scan", "android": "https://dc.lft.to/lastmile_qr_scan"}, "name": "9ab46d08ef5a0f90a2f6ac4e50717ff6", "bike_id": "9ab46d08ef5a0f90a2f6ac4e50717ff6", "type": "electric_bike", "lat": 38.893289333333335, "fusion_lon": 0.0, "is_disabled": 0, "fusion_lat": 0.0, "lon": -76.92113633333334}, {"is_reserved": 0, "rental_uris": {"ios": "https://dc.lft.to/lastmile_qr_scan", "android": "https://dc.lft.to/lastmile_qr_scan"}, "name": "2c03c27b248f76efd39a815e712f306c", "bike_id": "2c03c27b248f76efd39a815e712f306c", "type": "electric_scooter", "lat": 38.91693333333333, "fusion_lon": 0.0, "is_disabled": 0, "fusion_lat": 0.0, "lon": -77.03277116666666}, {"is_reserved": 0, "rental_uris": {"ios": "https://dc.lft.to/lastmile_qr_scan", "android": "https://dc.lft.to/lastmile_qr_scan"}, "name": "ac50ca5b57a39f31acae127480b400f3", "bike_id": "ac50ca5b57a39f31acae127480b400f3", "type": "electric_scooter", "lat": 38.91920066666667, "fusion_lon": 0.0, "is_disabled": 0, "fusion_lat": 0.0, "lon": -77.03423833333333}, {"is_reserved": 0, "rental_uris": {"ios": "https://dc.lft.to/lastmile_qr_scan", "android": "https://dc.lft.to/lastmile_qr_scan"}, "name": "f858b8747109fb8e5955161a36abae46", "bike_id": "f858b8747109fb8e5955161a36abae46", "type": "electric_scooter", "lat": 38.903780833333336, "fusion_lon": 0.0, "is_disabled": 0, "fusion_lat": 0.0, "lon": -77.0580205}, {"is_reserved": 0, "rental_uris": {"ios": "https://dc.lft.to/lastmile_qr_scan", "android": "https://dc.lft.to/lastmile_qr_scan"}, "name": "49e780f87425f0da322f7b6b37f11830", "bike_id": "49e780f87425f0da322f7b6b37f11830", "type": "electric_scooter", "lat": 38.886018, "fusion_lon": 0.0, "is_disabled": 0, "fusion_lat": 0.0, "lon": -77.0198145}, {"is_reserved": 0, "rental_uris": {"ios": "https://dc.lft.to/lastmile_qr_scan", "android": "https://dc.lft.to/lastmile_qr_scan"}, "name": "e0abb10c5b1cf9ea05d3a3ad88edb9b8", "bike_id": "e0abb10c5b1cf9ea05d3a3ad88edb9b8", "type": "electric_scooter", "lat": 38.91681883333333, "fusion_lon": 0.0, "is_disabled": 0, "fusion_lat": 0.0, "lon": -77.02970516666667}, {"is_reserved": 0, "rental_uris": {"ios": "https://dc.lft.to/lastmile_qr_scan", "android": "https://dc.lft.to/lastmile_qr_scan"}, "name": "4c131722d3981865b77a88fc061263f9", "bike_id": "4c131722d3981865b77a88fc061263f9", "type": "electric_scooter", "lat": 38.89938933333333, "fusion_lon": 0.0, "is_disabled": 0, "fusion_lat": 0.0, "lon": -77.04177683333333}, {"is_reserved": 0, "rental_uris": {"ios": "https://dc.lft.to/lastmile_qr_scan", "android": "https://dc.lft.to/lastmile_qr_scan"}, "name": "5e49eee2693730041026265bf9bb8e55", "bike_id": "5e49eee2693730041026265bf9bb8e55", "type": "electric_scooter", "lat": 38.89734466666667, "fusion_lon": 0.0, "is_disabled": 0, "fusion_lat": 0.0, "lon": -76.94719433333333}, {"is_reserved": 0, "rental_uris": {"ios": "https://dc.lft.to/lastmile_qr_scan", "android": "https://dc.lft.to/lastmile_qr_scan"}, "name": "94805750909aacdbe9d4221af2726082", "bike_id": "94805750909aacdbe9d4221af2726082", "type": "electric_scooter", "lat": 38.905898666666666, "fusion_lon": 0.0, "is_disabled": 0, "fusion_lat": 0.0, "lon": -76.98624133333334}, {"is_reserved": 0, "rental_uris": {"ios": "https://dc.lft.to/lastmile_qr_scan", "android": "https://dc.lft.to/lastmile_qr_scan"}, "name": "2507477f1689f1d5c068860890caaf2f", "bike_id": "2507477f1689f1d5c068860890caaf2f", "type": "electric_scooter", "lat": 38.91446916666666, "fusion_lon": 0.0, "is_disabled": 0, "fusion_lat": 0.0, "lon": -77.0365765}, {"is_reserved": 0, "rental_uris": {"ios": "https://dc.lft.to/lastmile_qr_scan", "android": "https://dc.lft.to/lastmile_qr_scan"}, "name": "5395484739af4bc105e923ff26b54533", "bike_id": "5395484739af4bc105e923ff26b54533", "type": "electric_scooter", "lat": 38.908152666666666, "fusion_lon": 0.0, "is_disabled": 0, "fusion_lat": 0.0, "lon": -76.99854883333333}, {"is_reserved": 0, "rental_uris": {"ios": "https://dc.lft.to/lastmile_qr_scan", "android": "https://dc.lft.to/lastmile_qr_scan"}, "name": "ebc41f7599c5d0788c379718ca49abc2", "bike_id": "ebc41f7599c5d0788c379718ca49abc2", "type": "electric_scooter", "lat": 38.900011, "fusion_lon": 0.0, "is_disabled": 0, "fusion_lat": 0.0, "lon": -77.01188183333333}, {"is_reserved": 0, "rental_uris": {"ios": "https://dc.lft.to/lastmile_qr_scan", "android": "https://dc.lft.to/lastmile_qr_scan"}, "name": "3e76f7635a5490eca878968261aa13eb", "bike_id": "3e76f7635a5490eca878968261aa13eb", "type": "electric_scooter", "lat": 38.9245695, "fusion_lon": 0.0, "is_disabled": 0, "fusion_lat": 0.0, "lon": -77.03947316666667}, {"is_reserved": 0, "rental_uris": {"ios": "https://dc.lft.to/lastmile_qr_scan", "android": "https://dc.lft.to/lastmile_qr_scan"}, "name": "0f45e3772bc63c6a9c856e3bd76f8372", "bike_id": "0f45e3772bc63c6a9c856e3bd76f8372", "type": "electric_scooter", "lat": 38.909769, "fusion_lon": 0.0, "is_disabled": 0, "fusion_lat": 0.0, "lon": -77.02173166666667}, {"is_reserved": 0, "rental_uris": {"ios": "https://dc.lft.to/lastmile_qr_scan", "android": "https://dc.lft.to/lastmile_qr_scan"}, "name": "a2423c81ff86d37fdaccff1d1895ab22", "bike_id": "a2423c81ff86d37fdaccff1d1895ab22", "type": "electric_scooter", "lat": 38.9111325, "fusion_lon": 0.0, "is_disabled": 0, "fusion_lat": 0.0, "lon": -77.03803783333333}, {"is_reserved": 0, "rental_uris": {"ios": "https://dc.lft.to/lastmile_qr_scan", "android": "https://dc.lft.to/lastmile_qr_scan"}, "name": "3a2007d7a38d01f6d39d61a4b5df12e2", "bike_id": "3a2007d7a38d01f6d39d61a4b5df12e2", "type": "electric_scooter", "lat": 38.92260383333333, "fusion_lon": 0.0, "is_disabled": 0, "fusion_lat": 0.0, "lon": -77.04205516666667}, {"is_reserved": 0, "rental_uris": {"ios": "https://dc.lft.to/lastmile_qr_scan", "android": "https://dc.lft.to/lastmile_qr_scan"}, "name": "7731b4b7402a22509f300cbe47acc309", "bike_id": "7731b4b7402a22509f300cbe47acc309", "type": "electric_scooter", "lat": 38.90578266666667, "fusion_lon": 0.0, "is_disabled": 0, "fusion_lat": 0.0, "lon": -77.005771}, {"is_reserved": 0, "rental_uris": {"ios": "https://dc.lft.to/lastmile_qr_scan", "android": "https://dc.lft.to/lastmile_qr_scan"}, "name": "1d0168b63320dfc31bca13448f16056a", "bike_id": "1d0168b63320dfc31bca13448f16056a", "type": "electric_scooter", "lat": 38.862137833333335, "fusion_lon": 0.0, "is_disabled": 0, "fusion_lat": 0.0, "lon": -76.99475216666667}, {"is_reserved": 0, "rental_uris": {"ios": "https://dc.lft.to/lastmile_qr_scan", "android": "https://dc.lft.to/lastmile_qr_scan"}, "name": "725befbc7cd88f32afd7a0e65a8f6c38", "bike_id": "725befbc7cd88f32afd7a0e65a8f6c38", "type": "electric_scooter", "lat": 38.874729333333335, "fusion_lon": 0.0, "is_disabled": 0, "fusion_lat": 0.0, "lon": -77.00938266666667}, {"is_reserved": 0, "rental_uris": {"ios": "https://dc.lft.to/lastmile_qr_scan", "android": "https://dc.lft.to/lastmile_qr_scan"}, "name": "ea6146ade48cad1a613d18c4556e0e3a", "bike_id": "ea6146ade48cad1a613d18c4556e0e3a", "type": "electric_scooter", "lat": 38.89827066666667, "fusion_lon": 0.0, "is_disabled": 0, "fusion_lat": 0.0, "lon": -77.00901233333333}, {"is_reserved": 0, "rental_uris": {"ios": "https://dc.lft.to/lastmile_qr_scan", "android": "https://dc.lft.to/lastmile_qr_scan"}, "name": "4e4cfda3914ca3db108f609928e54176", "bike_id": "4e4cfda3914ca3db108f609928e54176", "type": "electric_scooter", "lat": 38.90516316666667, "fusion_lon": 0.0, "is_disabled": 0, "fusion_lat": 0.0, "lon": -77.0406315}, {"is_reserved": 0, "rental_uris": {"ios": "https://dc.lft.to/lastmile_qr_scan", "android": "https://dc.lft.to/lastmile_qr_scan"}, "name": "92fbde66d7bbd74da01521e2b68f3e11", "bike_id": "92fbde66d7bbd74da01521e2b68f3e11", "type": "electric_scooter", "lat": 38.8922155, "fusion_lon": 0.0, "is_disabled": 0, "fusion_lat": 0.0, "lon": -77.04857833333334}, {"is_reserved": 0, "rental_uris": {"ios": "https://dc.lft.to/lastmile_qr_scan", "android": "https://dc.lft.to/lastmile_qr_scan"}, "name": "ff21cea7e2d57b93e6285af92e97ff44", "bike_id": "ff21cea7e2d57b93e6285af92e97ff44", "type": "electric_scooter", "lat": 38.88764783333333, "fusion_lon": 0.0, "is_disabled": 0, "fusion_lat": 0.0, "lon": -76.95593916666667}, {"is_reserved": 0, "rental_uris": {"ios": "https://dc.lft.to/lastmile_qr_scan", "android": "https://dc.lft.to/lastmile_qr_scan"}, "name": "8c048a73de24db08c797115e85a339f0", "bike_id": "8c048a73de24db08c797115e85a339f0", "type": "electric_scooter", "lat": 38.90921133333333, "fusion_lon": 0.0, "is_disabled": 0, "fusion_lat": 0.0, "lon": -77.03194566666667}, {"is_reserved": 0, "rental_uris": {"ios": "https://dc.lft.to/lastmile_qr_scan", "android": "https://dc.lft.to/lastmile_qr_scan"}, "name": "219c7f4aa7205756daf4ca788836420b", "bike_id": "219c7f4aa7205756daf4ca788836420b", "type": "electric_scooter", "lat": 38.92475366666667, "fusion_lon": 0.0, "is_disabled": 0, "fusion_lat": 0.0, "lon": -77.03654966666667}, {"is_reserved": 0, "rental_uris": {"ios": "https://dc.lft.to/lastmile_qr_scan", "android": "https://dc.lft.to/lastmile_qr_scan"}, "name": "405680906e23310995acbab45efe2917", "bike_id": "405680906e23310995acbab45efe2917", "type": "electric_scooter", "lat": 38.887167166666664, "fusion_lon": 0.0, "is_disabled": 0, "fusion_lat": 0.0, "lon": -77.03176166666667}, {"is_reserved": 0, "rental_uris": {"ios": "https://dc.lft.to/lastmile_qr_scan", "android": "https://dc.lft.to/lastmile_qr_scan"}, "name": "426798171d94a426e7c96b3a617e7450", "bike_id": "426798171d94a426e7c96b3a617e7450", "type": "electric_scooter", "lat": 38.9170165, "fusion_lon": 0.0, "is_disabled": 0, "fusion_lat": 0.0, "lon": -77.031268}, {"is_reserved": 0, "rental_uris": {"ios": "https://dc.lft.to/lastmile_qr_scan", "android": "https://dc.lft.to/lastmile_qr_scan"}, "name": "5e3109e3daf19fa151d4143ea4b95c23", "bike_id": "5e3109e3daf19fa151d4143ea4b95c23", "type": "electric_scooter", "lat": 38.92143983333333, "fusion_lon": 0.0, "is_disabled": 0, "fusion_lat": 0.0, "lon": -76.96924616666666}, {"is_reserved": 0, "rental_uris": {"ios": "https://dc.lft.to/lastmile_qr_scan", "android": "https://dc.lft.to/lastmile_qr_scan"}, "name": "71522bd25de613216daef77307c6c63e", "bike_id": "71522bd25de613216daef77307c6c63e", "type": "electric_bike", "lat": 38.861642833333335, "fusion_lon": 0.0, "is_disabled": 0, "fusion_lat": 0.0, "lon": -76.95064716666667}, {"is_reserved": 0, "rental_uris": {"ios": "https://dc.lft.to/lastmile_qr_scan", "android": "https://dc.lft.to/lastmile_qr_scan"}, "name": "79df862ca4fd3fdb88cb74bc203f3441", "bike_id": "79df862ca4fd3fdb88cb74bc203f3441", "type": "electric_scooter", "lat": 38.9283935, "fusion_lon": 0.0, "is_disabled": 0, "fusion_lat": 0.0, "lon": -77.0544675}, {"is_reserved": 0, "rental_uris": {"ios": "https://dc.lft.to/lastmile_qr_scan", "android": "https://dc.lft.to/lastmile_qr_scan"}, "name": "f9b62d2e794873c466ecf13b9d66ebf5", "bike_id": "f9b62d2e794873c466ecf13b9d66ebf5", "type": "electric_scooter", "lat": 38.923285166666666, "fusion_lon": 0.0, "is_disabled": 0, "fusion_lat": 0.0, "lon": -77.05686433333334}, {"is_reserved": 0, "rental_uris": {"ios": "https://dc.lft.to/lastmile_qr_scan", "android": "https://dc.lft.to/lastmile_qr_scan"}, "name": "155564b78595dcffc35f848ffc2847e3", "bike_id": "155564b78595dcffc35f848ffc2847e3", "type": "electric_scooter", "lat": 38.891950333333334, "fusion_lon": 0.0, "is_disabled": 0, "fusion_lat": 0.0, "lon": -77.0245395}, {"is_reserved": 0, "rental_uris": {"ios": "https://dc.lft.to/lastmile_qr_scan", "android": "https://dc.lft.to/lastmile_qr_scan"}, "name": "2529cf39f42ff4d4a117591d305e0b50", "bike_id": "2529cf39f42ff4d4a117591d305e0b50", "type": "electric_scooter", "lat": 38.92444616666667, "fusion_lon": 0.0, "is_disabled": 0, "fusion_lat": 0.0, "lon": -77.04112683333334}, {"is_reserved": 0, "rental_uris": {"ios": "https://dc.lft.to/lastmile_qr_scan", "android": "https://dc.lft.to/lastmile_qr_scan"}, "name": "d1e6bb177c2955b6e5f547e58b53702a", "bike_id": "d1e6bb177c2955b6e5f547e58b53702a", "type": "electric_scooter", "lat": 38.928931, "fusion_lon": 0.0, "is_disabled": 0, "fusion_lat": 0.0, "lon": -77.0329185}, {"is_reserved": 0, "rental_uris": {"ios": "https://dc.lft.to/lastmile_qr_scan", "android": "https://dc.lft.to/lastmile_qr_scan"}, "name": "07cf62fa0aadecebe1f274a418a2bfbd", "bike_id": "07cf62fa0aadecebe1f274a418a2bfbd", "type": "electric_scooter", "lat": 38.911923, "fusion_lon": 0.0, "is_disabled": 0, "fusion_lat": 0.0, "lon": -77.06088516666667}, {"is_reserved": 0, "rental_uris": {"ios": "https://dc.lft.to/lastmile_qr_scan", "android": "https://dc.lft.to/lastmile_qr_scan"}, "name": "a4baedfde06fcfa7b4a532b06984d6a7", "bike_id": "a4baedfde06fcfa7b4a532b06984d6a7", "type": "electric_scooter", "lat": 38.92663366666667, "fusion_lon": 0.0, "is_disabled": 0, "fusion_lat": 0.0, "lon": -77.05361583333334}, {"is_reserved": 0, "rental_uris": {"ios": "https://dc.lft.to/lastmile_qr_scan", "android": "https://dc.lft.to/lastmile_qr_scan"}, "name": "07223f18d04096e8651bbba4b9729e26", "bike_id": "07223f18d04096e8651bbba4b9729e26", "type": "electric_scooter", "lat": 38.92112016666667, "fusion_lon": 0.0, "is_disabled": 0, "fusion_lat": 0.0, "lon": -77.0420825}, {"is_reserved": 0, "rental_uris": {"ios": "https://dc.lft.to/lastmile_qr_scan", "android": "https://dc.lft.to/lastmile_qr_scan"}, "name": "7d56ccc4bfff825544fdd31031f46473", "bike_id": "7d56ccc4bfff825544fdd31031f46473", "type": "electric_bike", "lat": 38.998088, "fusion_lon": 0.0, "is_disabled": 0, "fusion_lat": 0.0, "lon": -77.029355}, {"is_reserved": 0, "rental_uris": {"ios": "https://dc.lft.to/lastmile_qr_scan", "android": "https://dc.lft.to/lastmile_qr_scan"}, "name": "a33238930ebf0baa4c46f348b9d92f03", "bike_id": "a33238930ebf0baa4c46f348b9d92f03", "type": "electric_scooter", "lat": 38.871983166666666, "fusion_lon": 0.0, "is_disabled": 0, "fusion_lat": 0.0, "lon": -77.00606466666666}, {"is_reserved": 0, "rental_uris": {"ios": "https://dc.lft.to/lastmile_qr_scan", "android": "https://dc.lft.to/lastmile_qr_scan"}, "name": "55d2ae6448a756857680a4aa53af9127", "bike_id": "55d2ae6448a756857680a4aa53af9127", "type": "electric_scooter", "lat": 38.928391166666664, "fusion_lon": 0.0, "is_disabled": 0, "fusion_lat": 0.0, "lon": -77.01602966666667}, {"is_reserved": 0, "rental_uris": {"ios": "https://dc.lft.to/lastmile_qr_scan", "android": "https://dc.lft.to/lastmile_qr_scan"}, "name": "1f02a33284144e4bf719686f0ef09bb9", "bike_id": "1f02a33284144e4bf719686f0ef09bb9", "type": "electric_scooter", "lat": 38.9375955, "fusion_lon": 0.0, "is_disabled": 0, "fusion_lat": 0.0, "lon": -77.03283633333334}, {"is_reserved": 0, "rental_uris": {"ios": "https://dc.lft.to/lastmile_qr_scan", "android": "https://dc.lft.to/lastmile_qr_scan"}, "name": "29013e29eb70cfe1efd8423154e35211", "bike_id": "29013e29eb70cfe1efd8423154e35211", "type": "electric_scooter", "lat": 38.93430433333333, "fusion_lon": 0.0, "is_disabled": 0, "fusion_lat": 0.0, "lon": -76.96510133333334}, {"is_reserved": 0, "rental_uris": {"ios": "https://dc.lft.to/lastmile_qr_scan", "android": "https://dc.lft.to/lastmile_qr_scan"}, "name": "8642f4471c110f44c3ca6d331a25a99f", "bike_id": "8642f4471c110f44c3ca6d331a25a99f", "type": "electric_scooter", "lat": 38.915581833333334, "fusion_lon": 0.0, "is_disabled": 0, "fusion_lat": 0.0, "lon": -77.03868133333333}, {"is_reserved": 0, "rental_uris": {"ios": "https://dc.lft.to/lastmile_qr_scan", "android": "https://dc.lft.to/lastmile_qr_scan"}, "name": "09430e8c89556c3ca969e75127af8ad5", "bike_id": "09430e8c89556c3ca969e75127af8ad5", "type": "electric_bike", "lat": 38.887131, "fusion_lon": 0.0, "is_disabled": 0, "fusion_lat": 0.0, "lon": -77.1330365}, {"is_reserved": 0, "rental_uris": {"ios": "https://dc.lft.to/lastmile_qr_scan", "android": "https://dc.lft.to/lastmile_qr_scan"}, "name": "fdefb2e379c3d5c37479d3d5440e9984", "bike_id": "fdefb2e379c3d5c37479d3d5440e9984", "type": "electric_scooter", "lat": 38.918157, "fusion_lon": 0.0, "is_disabled": 0, "fusion_lat": 0.0, "lon": -77.02707733333334}, {"is_reserved": 0, "rental_uris": {"ios": "https://dc.lft.to/lastmile_qr_scan", "android": "https://dc.lft.to/lastmile_qr_scan"}, "name": "ad986b88e47080540a527e285bafa183", "bike_id": "ad986b88e47080540a527e285bafa183", "type": "electric_scooter", "lat": 38.89815466666667, "fusion_lon": 0.0, "is_disabled": 0, "fusion_lat": 0.0, "lon": -77.03316383333333}, {"is_reserved": 0, "rental_uris": {"ios": "https://dc.lft.to/lastmile_qr_scan", "android": "https://dc.lft.to/lastmile_qr_scan"}, "name": "9c295c3bbe023e4d8ed1e001bce2c7de", "bike_id": "9c295c3bbe023e4d8ed1e001bce2c7de", "type": "electric_bike", "lat": 38.885471333333335, "fusion_lon": 0.0, "is_disabled": 0, "fusion_lat": 0.0, "lon": -77.1178685}, {"is_reserved": 0, "rental_uris": {"ios": "https://dc.lft.to/lastmile_qr_scan", "android": "https://dc.lft.to/lastmile_qr_scan"}, "name": "1394c220c2818948fbe4a4811d70f36a", "bike_id": "1394c220c2818948fbe4a4811d70f36a", "type": "electric_scooter", "lat": 38.912644, "fusion_lon": 0.0, "is_disabled": 0, "fusion_lat": 0.0, "lon": -77.03904416666667}, {"is_reserved": 0, "rental_uris": {"ios": "https://dc.lft.to/lastmile_qr_scan", "android": "https://dc.lft.to/lastmile_qr_scan"}, "name": "2272aca472ba9565d7caff96442540be", "bike_id": "2272aca472ba9565d7caff96442540be", "type": "electric_scooter", "lat": 38.884401, "fusion_lon": 0.0, "is_disabled": 0, "fusion_lat": 0.0, "lon": -76.92960733333334}, {"is_reserved": 0, "rental_uris": {"ios": "https://dc.lft.to/lastmile_qr_scan", "android": "https://dc.lft.to/lastmile_qr_scan"}, "name": "8735237b39744538269c5c2ea1dc149f", "bike_id": "8735237b39744538269c5c2ea1dc149f", "type": "electric_scooter", "lat": 38.9053015, "fusion_lon": 0.0, "is_disabled": 0, "fusion_lat": 0.0, "lon": -77.00572966666667}, {"is_reserved": 0, "rental_uris": {"ios": "https://dc.lft.to/lastmile_qr_scan", "android": "https://dc.lft.to/lastmile_qr_scan"}, "name": "3edcc0bff0c860d74f528ada6de61e5f", "bike_id": "3edcc0bff0c860d74f528ada6de61e5f", "type": "electric_scooter", "lat": 38.92658866666667, "fusion_lon": 0.0, "is_disabled": 0, "fusion_lat": 0.0, "lon": -77.037315}, {"is_reserved": 0, "rental_uris": {"ios": "https://dc.lft.to/lastmile_qr_scan", "android": "https://dc.lft.to/lastmile_qr_scan"}, "name": "e88e17720e654cc87cf0923a1bc776f5", "bike_id": "e88e17720e654cc87cf0923a1bc776f5", "type": "electric_scooter", "lat": 38.92174683333333, "fusion_lon": 0.0, "is_disabled": 0, "fusion_lat": 0.0, "lon": -77.03229916666666}, {"is_reserved": 0, "rental_uris": {"ios": "https://dc.lft.to/lastmile_qr_scan", "android": "https://dc.lft.to/lastmile_qr_scan"}, "name": "10b3f8a5c0028006b03b5d34482f788b", "bike_id": "10b3f8a5c0028006b03b5d34482f788b", "type": "electric_scooter", "lat": 38.92352833333333, "fusion_lon": 0.0, "is_disabled": 0, "fusion_lat": 0.0, "lon": -77.01919733333334}, {"is_reserved": 0, "rental_uris": {"ios": "https://dc.lft.to/lastmile_qr_scan", "android": "https://dc.lft.to/lastmile_qr_scan"}, "name": "f8762971988bc432ceb5c02b91edc45b", "bike_id": "f8762971988bc432ceb5c02b91edc45b", "type": "electric_scooter", "lat": 38.8556165, "fusion_lon": 0.0, "is_disabled": 0, "fusion_lat": 0.0, "lon": -76.99494166666666}, {"is_reserved": 0, "rental_uris": {"ios": "https://dc.lft.to/lastmile_qr_scan", "android": "https://dc.lft.to/lastmile_qr_scan"}, "name": "060fce7848bee13e16353ec7abde92b8", "bike_id": "060fce7848bee13e16353ec7abde92b8", "type": "electric_scooter", "lat": 38.90268366666667, "fusion_lon": 0.0, "is_disabled": 0, "fusion_lat": 0.0, "lon": -77.04029416666667}, {"is_reserved": 0, "rental_uris": {"ios": "https://dc.lft.to/lastmile_qr_scan", "android": "https://dc.lft.to/lastmile_qr_scan"}, "name": "7315303bc7fb59333e9c82e4725880fc", "bike_id": "7315303bc7fb59333e9c82e4725880fc", "type": "electric_scooter", "lat": 38.94445866666667, "fusion_lon": 0.0, "is_disabled": 0, "fusion_lat": 0.0, "lon": -77.02341266666667}, {"is_reserved": 0, "rental_uris": {"ios": "https://dc.lft.to/lastmile_qr_scan", "android": "https://dc.lft.to/lastmile_qr_scan"}, "name": "073e053b0312617de16a6bcf873d0b06", "bike_id": "073e053b0312617de16a6bcf873d0b06", "type": "electric_scooter", "lat": 38.90554016666667, "fusion_lon": 0.0, "is_disabled": 0, "fusion_lat": 0.0, "lon": -77.04244783333333}, {"is_reserved": 0, "rental_uris": {"ios": "https://dc.lft.to/lastmile_qr_scan", "android": "https://dc.lft.to/lastmile_qr_scan"}, "name": "dc47e92e3ee7af2817584d899c3522be", "bike_id": "dc47e92e3ee7af2817584d899c3522be", "type": "electric_scooter", "lat": 38.9054255, "fusion_lon": 0.0, "is_disabled": 0, "fusion_lat": 0.0, "lon": -77.00578166666666}, {"is_reserved": 0, "rental_uris": {"ios": "https://dc.lft.to/lastmile_qr_scan", "android": "https://dc.lft.to/lastmile_qr_scan"}, "name": "b4622d7afe8f7700dbd629d3421602b9", "bike_id": "b4622d7afe8f7700dbd629d3421602b9", "type": "electric_scooter", "lat": 38.924225, "fusion_lon": 0.0, "is_disabled": 0, "fusion_lat": 0.0, "lon": -77.05634316666666}, {"is_reserved": 0, "rental_uris": {"ios": "https://dc.lft.to/lastmile_qr_scan", "android": "https://dc.lft.to/lastmile_qr_scan"}, "name": "45954e3ba127d7f215500f57302953a6", "bike_id": "45954e3ba127d7f215500f57302953a6", "type": "electric_scooter", "lat": 38.93232016666666, "fusion_lon": 0.0, "is_disabled": 0, "fusion_lat": 0.0, "lon": -77.03265466666667}, {"is_reserved": 0, "rental_uris": {"ios": "https://dc.lft.to/lastmile_qr_scan", "android": "https://dc.lft.to/lastmile_qr_scan"}, "name": "e7aae075c8c8d1aa252aae7f9dfda8a5", "bike_id": "e7aae075c8c8d1aa252aae7f9dfda8a5", "type": "electric_scooter", "lat": 38.902911333333336, "fusion_lon": 0.0, "is_disabled": 0, "fusion_lat": 0.0, "lon": -77.03856916666666}, {"is_reserved": 0, "rental_uris": {"ios": "https://dc.lft.to/lastmile_qr_scan", "android": "https://dc.lft.to/lastmile_qr_scan"}, "name": "d9634c05148f699f8a510f4c92160f8c", "bike_id": "d9634c05148f699f8a510f4c92160f8c", "type": "electric_scooter", "lat": 38.9360265, "fusion_lon": 0.0, "is_disabled": 0, "fusion_lat": 0.0, "lon": -77.03825283333333}, {"is_reserved": 0, "rental_uris": {"ios": "https://dc.lft.to/lastmile_qr_scan", "android": "https://dc.lft.to/lastmile_qr_scan"}, "name": "847f00bc32209180470ef6a3c366eee7", "bike_id": "847f00bc32209180470ef6a3c366eee7", "type": "electric_scooter", "lat": 38.918141166666665, "fusion_lon": 0.0, "is_disabled": 0, "fusion_lat": 0.0, "lon": -77.03175583333334}, {"is_reserved": 0, "rental_uris": {"ios": "https://dc.lft.to/lastmile_qr_scan", "android": "https://dc.lft.to/lastmile_qr_scan"}, "name": "89db3077281fe2c30d4e99488156d751", "bike_id": "89db3077281fe2c30d4e99488156d751", "type": "electric_scooter", "lat": 38.90399083333333, "fusion_lon": 0.0, "is_disabled": 0, "fusion_lat": 0.0, "lon": -77.0385215}, {"is_reserved": 0, "rental_uris": {"ios": "https://dc.lft.to/lastmile_qr_scan", "android": "https://dc.lft.to/lastmile_qr_scan"}, "name": "5dd2793371c38a4d343ecf598a258d52", "bike_id": "5dd2793371c38a4d343ecf598a258d52", "type": "electric_scooter", "lat": 38.84587833333333, "fusion_lon": 0.0, "is_disabled": 0, "fusion_lat": 0.0, "lon": -76.98162016666667}, {"is_reserved": 0, "rental_uris": {"ios": "https://dc.lft.to/lastmile_qr_scan", "android": "https://dc.lft.to/lastmile_qr_scan"}, "name": "8150489b147a974f0164dc63219ef17d", "bike_id": "8150489b147a974f0164dc63219ef17d", "type": "electric_scooter", "lat": 38.921823333333336, "fusion_lon": 0.0, "is_disabled": 0, "fusion_lat": 0.0, "lon": -77.047143}, {"is_reserved": 0, "rental_uris": {"ios": "https://dc.lft.to/lastmile_qr_scan", "android": "https://dc.lft.to/lastmile_qr_scan"}, "name": "e65aa6241f92b20ec8d7a84e580f2098", "bike_id": "e65aa6241f92b20ec8d7a84e580f2098", "type": "electric_scooter", "lat": 38.905371333333335, "fusion_lon": 0.0, "is_disabled": 0, "fusion_lat": 0.0, "lon": -77.057035}, {"is_reserved": 0, "rental_uris": {"ios": "https://dc.lft.to/lastmile_qr_scan", "android": "https://dc.lft.to/lastmile_qr_scan"}, "name": "07f9a42825ebf9b5d12aefa6652a2c7b", "bike_id": "07f9a42825ebf9b5d12aefa6652a2c7b", "type": "electric_scooter", "lat": 38.896796, "fusion_lon": 0.0, "is_disabled": 0, "fusion_lat": 0.0, "lon": -77.02581683333334}, {"is_reserved": 0, "rental_uris": {"ios": "https://dc.lft.to/lastmile_qr_scan", "android": "https://dc.lft.to/lastmile_qr_scan"}, "name": "0f98efd4abeb6a933f75e4b7e3b83dd1", "bike_id": "0f98efd4abeb6a933f75e4b7e3b83dd1", "type": "electric_scooter", "lat": 38.90078833333333, "fusion_lon": 0.0, "is_disabled": 0, "fusion_lat": 0.0, "lon": -77.012923}, {"is_reserved": 0, "rental_uris": {"ios": "https://dc.lft.to/lastmile_qr_scan", "android": "https://dc.lft.to/lastmile_qr_scan"}, "name": "d2df1162902274927ac0734f2ff6ec66", "bike_id": "d2df1162902274927ac0734f2ff6ec66", "type": "electric_scooter", "lat": 38.9563135, "fusion_lon": 0.0, "is_disabled": 0, "fusion_lat": 0.0, "lon": -77.03308616666666}, {"is_reserved": 0, "rental_uris": {"ios": "https://dc.lft.to/lastmile_qr_scan", "android": "https://dc.lft.to/lastmile_qr_scan"}, "name": "f997845e7b8a62bf4961fb1879b46618", "bike_id": "f997845e7b8a62bf4961fb1879b46618", "type": "electric_scooter", "lat": 38.92502183333333, "fusion_lon": 0.0, "is_disabled": 0, "fusion_lat": 0.0, "lon": -77.00893583333334}, {"is_reserved": 0, "rental_uris": {"ios": "https://dc.lft.to/lastmile_qr_scan", "android": "https://dc.lft.to/lastmile_qr_scan"}, "name": "4338dbcec9605e34855bbeeb112e0326", "bike_id": "4338dbcec9605e34855bbeeb112e0326", "type": "electric_scooter", "lat": 38.8808425, "fusion_lon": 0.0, "is_disabled": 0, "fusion_lat": 0.0, "lon": -76.927309}, {"is_reserved": 0, "rental_uris": {"ios": "https://dc.lft.to/lastmile_qr_scan", "android": "https://dc.lft.to/lastmile_qr_scan"}, "name": "ec0712e206077fb9f1c20b363fddcd71", "bike_id": "ec0712e206077fb9f1c20b363fddcd71", "type": "electric_scooter", "lat": 38.9199515, "fusion_lon": 0.0, "is_disabled": 0, "fusion_lat": 0.0, "lon": -77.03220483333334}, {"is_reserved": 0, "rental_uris": {"ios": "https://dc.lft.to/lastmile_qr_scan", "android": "https://dc.lft.to/lastmile_qr_scan"}, "name": "1b94ca5952b2969ef3675dd219b1ce81", "bike_id": "1b94ca5952b2969ef3675dd219b1ce81", "type": "electric_scooter", "lat": 38.917122666666664, "fusion_lon": 0.0, "is_disabled": 0, "fusion_lat": 0.0, "lon": -77.02503983333334}, {"is_reserved": 0, "rental_uris": {"ios": "https://dc.lft.to/lastmile_qr_scan", "android": "https://dc.lft.to/lastmile_qr_scan"}, "name": "d33beb43d8734bec5539fac9f624b8c8", "bike_id": "d33beb43d8734bec5539fac9f624b8c8", "type": "electric_scooter", "lat": 38.893805666666665, "fusion_lon": 0.0, "is_disabled": 0, "fusion_lat": 0.0, "lon": -76.94992083333334}, {"is_reserved": 0, "rental_uris": {"ios": "https://dc.lft.to/lastmile_qr_scan", "android": "https://dc.lft.to/lastmile_qr_scan"}, "name": "9088f09fd214de27153e6e0c7b2ddbc2", "bike_id": "9088f09fd214de27153e6e0c7b2ddbc2", "type": "electric_bike", "lat": 38.88892833333333, "fusion_lon": 0.0, "is_disabled": 0, "fusion_lat": 0.0, "lon": -77.07937383333334}, {"is_reserved": 0, "rental_uris": {"ios": "https://dc.lft.to/lastmile_qr_scan", "android": "https://dc.lft.to/lastmile_qr_scan"}, "name": "51a031aa1ce3160045aada0958b95428", "bike_id": "51a031aa1ce3160045aada0958b95428", "type": "electric_scooter", "lat": 38.920486833333335, "fusion_lon": 0.0, "is_disabled": 0, "fusion_lat": 0.0, "lon": -77.02369666666667}, {"is_reserved": 0, "rental_uris": {"ios": "https://dc.lft.to/lastmile_qr_scan", "android": "https://dc.lft.to/lastmile_qr_scan"}, "name": "2a66c75a22d0bf35600377d7e7faff0b", "bike_id": "2a66c75a22d0bf35600377d7e7faff0b", "type": "electric_scooter", "lat": 38.90062283333334, "fusion_lon": 0.0, "is_disabled": 0, "fusion_lat": 0.0, "lon": -77.02796783333334}, {"is_reserved": 0, "rental_uris": {"ios": "https://dc.lft.to/lastmile_qr_scan", "android": "https://dc.lft.to/lastmile_qr_scan"}, "name": "d8397f9eecdeea8ad7afe8e31cc52cfb", "bike_id": "d8397f9eecdeea8ad7afe8e31cc52cfb", "type": "electric_scooter", "lat": 38.8998845, "fusion_lon": 0.0, "is_disabled": 0, "fusion_lat": 0.0, "lon": -77.05238816666666}, {"is_reserved": 0, "rental_uris": {"ios": "https://dc.lft.to/lastmile_qr_scan", "android": "https://dc.lft.to/lastmile_qr_scan"}, "name": "fecc89bea8f6c66a2a4de0768c51b7c9", "bike_id": "fecc89bea8f6c66a2a4de0768c51b7c9", "type": "electric_scooter", "lat": 38.866558166666664, "fusion_lon": 0.0, "is_disabled": 0, "fusion_lat": 0.0, "lon": -76.9901585}, {"is_reserved": 0, "rental_uris": {"ios": "https://dc.lft.to/lastmile_qr_scan", "android": "https://dc.lft.to/lastmile_qr_scan"}, "name": "f445cb1883d3f246a2280e5896c80239", "bike_id": "f445cb1883d3f246a2280e5896c80239", "type": "electric_scooter", "lat": 38.90967883333333, "fusion_lon": 0.0, "is_disabled": 0, "fusion_lat": 0.0, "lon": -77.03202516666667}, {"is_reserved": 0, "rental_uris": {"ios": "https://dc.lft.to/lastmile_qr_scan", "android": "https://dc.lft.to/lastmile_qr_scan"}, "name": "ec867291b0efff2f332ef7ec30d2aea9", "bike_id": "ec867291b0efff2f332ef7ec30d2aea9", "type": "electric_scooter", "lat": 38.92364766666667, "fusion_lon": 0.0, "is_disabled": 0, "fusion_lat": 0.0, "lon": -77.01915316666667}, {"is_reserved": 0, "rental_uris": {"ios": "https://dc.lft.to/lastmile_qr_scan", "android": "https://dc.lft.to/lastmile_qr_scan"}, "name": "3d8f799fcda078f1d2883d39a651a859", "bike_id": "3d8f799fcda078f1d2883d39a651a859", "type": "electric_scooter", "lat": 38.903145, "fusion_lon": 0.0, "is_disabled": 0, "fusion_lat": 0.0, "lon": -77.02890783333334}, {"is_reserved": 0, "rental_uris": {"ios": "https://dc.lft.to/lastmile_qr_scan", "android": "https://dc.lft.to/lastmile_qr_scan"}, "name": "f7e486705665b904a2fdd4b803ea2aa4", "bike_id": "f7e486705665b904a2fdd4b803ea2aa4", "type": "electric_bike", "lat": 38.8398735, "fusion_lon": 0.0, "is_disabled": 0, "fusion_lat": 0.0, "lon": -77.005695}, {"is_reserved": 0, "rental_uris": {"ios": "https://dc.lft.to/lastmile_qr_scan", "android": "https://dc.lft.to/lastmile_qr_scan"}, "name": "d80b74238fd9dce24a2797f9a1406f7b", "bike_id": "d80b74238fd9dce24a2797f9a1406f7b", "type": "electric_scooter", "lat": 38.9300815, "fusion_lon": 0.0, "is_disabled": 0, "fusion_lat": 0.0, "lon": -77.055446}, {"is_reserved": 0, "rental_uris": {"ios": "https://dc.lft.to/lastmile_qr_scan", "android": "https://dc.lft.to/lastmile_qr_scan"}, "name": "e6b1823dca7e238e5f38215d9bcbdbb1", "bike_id": "e6b1823dca7e238e5f38215d9bcbdbb1", "type": "electric_scooter", "lat": 38.92843666666667, "fusion_lon": 0.0, "is_disabled": 0, "fusion_lat": 0.0, "lon": -77.032586}, {"is_reserved": 0, "rental_uris": {"ios": "https://dc.lft.to/lastmile_qr_scan", "android": "https://dc.lft.to/lastmile_qr_scan"}, "name": "bf3986dc22b319f04b02a81af9559540", "bike_id": "bf3986dc22b319f04b02a81af9559540", "type": "electric_scooter", "lat": 38.894271833333335, "fusion_lon": 0.0, "is_disabled": 0, "fusion_lat": 0.0, "lon": -77.02052933333333}, {"is_reserved": 0, "rental_uris": {"ios": "https://dc.lft.to/lastmile_qr_scan", "android": "https://dc.lft.to/lastmile_qr_scan"}, "name": "06cae856dd98c9159183cbd1e3553497", "bike_id": "06cae856dd98c9159183cbd1e3553497", "type": "electric_bike", "lat": 38.881330166666665, "fusion_lon": 0.0, "is_disabled": 0, "fusion_lat": 0.0, "lon": -76.980931}, {"is_reserved": 0, "rental_uris": {"ios": "https://dc.lft.to/lastmile_qr_scan", "android": "https://dc.lft.to/lastmile_qr_scan"}, "name": "5a550124b081e1caea3aec893e5e74e2", "bike_id": "5a550124b081e1caea3aec893e5e74e2", "type": "electric_scooter", "lat": 38.892310333333334, "fusion_lon": 0.0, "is_disabled": 0, "fusion_lat": 0.0, "lon": -77.028298}, {"is_reserved": 0, "rental_uris": {"ios": "https://dc.lft.to/lastmile_qr_scan", "android": "https://dc.lft.to/lastmile_qr_scan"}, "name": "3e8a0631593b4f5188391a421fbf62e9", "bike_id": "3e8a0631593b4f5188391a421fbf62e9", "type": "electric_scooter", "lat": 38.9248285, "fusion_lon": 0.0, "is_disabled": 0, "fusion_lat": 0.0, "lon": -77.027241}, {"is_reserved": 0, "rental_uris": {"ios": "https://dc.lft.to/lastmile_qr_scan", "android": "https://dc.lft.to/lastmile_qr_scan"}, "name": "bc5585357ccfbff9eec36a0856a57d3e", "bike_id": "bc5585357ccfbff9eec36a0856a57d3e", "type": "electric_scooter", "lat": 38.92073, "fusion_lon": 0.0, "is_disabled": 0, "fusion_lat": 0.0, "lon": -77.02313516666666}, {"is_reserved": 0, "rental_uris": {"ios": "https://dc.lft.to/lastmile_qr_scan", "android": "https://dc.lft.to/lastmile_qr_scan"}, "name": "fc9e528ecbc13d33375eb5db5d3b01aa", "bike_id": "fc9e528ecbc13d33375eb5db5d3b01aa", "type": "electric_scooter", "lat": 38.905164166666665, "fusion_lon": 0.0, "is_disabled": 0, "fusion_lat": 0.0, "lon": -77.06545533333333}, {"is_reserved": 0, "rental_uris": {"ios": "https://dc.lft.to/lastmile_qr_scan", "android": "https://dc.lft.to/lastmile_qr_scan"}, "name": "837c7045aebbca211787eabeb64c5b04", "bike_id": "837c7045aebbca211787eabeb64c5b04", "type": "electric_scooter", "lat": 38.896651, "fusion_lon": 0.0, "is_disabled": 0, "fusion_lat": 0.0, "lon": -76.98092916666667}, {"is_reserved": 0, "rental_uris": {"ios": "https://dc.lft.to/lastmile_qr_scan", "android": "https://dc.lft.to/lastmile_qr_scan"}, "name": "ca1a8ee70e8efbef3b5a8db617bd30a0", "bike_id": "ca1a8ee70e8efbef3b5a8db617bd30a0", "type": "electric_scooter", "lat": 38.8711465, "fusion_lon": 0.0, "is_disabled": 0, "fusion_lat": 0.0, "lon": -77.01070833333333}, {"is_reserved": 0, "rental_uris": {"ios": "https://dc.lft.to/lastmile_qr_scan", "android": "https://dc.lft.to/lastmile_qr_scan"}, "name": "5a744c260317191ec8f2c2ee4fba75e0", "bike_id": "5a744c260317191ec8f2c2ee4fba75e0", "type": "electric_bike", "lat": 38.951794666666665, "fusion_lon": 0.0, "is_disabled": 0, "fusion_lat": 0.0, "lon": -76.9354695}, {"is_reserved": 0, "rental_uris": {"ios": "https://dc.lft.to/lastmile_qr_scan", "android": "https://dc.lft.to/lastmile_qr_scan"}, "name": "873546db63214b5d49d8ed77f71b1679", "bike_id": "873546db63214b5d49d8ed77f71b1679", "type": "electric_scooter", "lat": 38.912569833333336, "fusion_lon": 0.0, "is_disabled": 0, "fusion_lat": 0.0, "lon": -77.03625233333334}, {"is_reserved": 0, "rental_uris": {"ios": "https://dc.lft.to/lastmile_qr_scan", "android": "https://dc.lft.to/lastmile_qr_scan"}, "name": "15569aae4eda6dde3fd0e929cfb274af", "bike_id": "15569aae4eda6dde3fd0e929cfb274af", "type": "electric_bike", "lat": 38.877298, "fusion_lon": 0.0, "is_disabled": 0, "fusion_lat": 0.0, "lon": -77.11854383333333}, {"is_reserved": 0, "rental_uris": {"ios": "https://dc.lft.to/lastmile_qr_scan", "android": "https://dc.lft.to/lastmile_qr_scan"}, "name": "dc7201db89382478ec830f3308f5962a", "bike_id": "dc7201db89382478ec830f3308f5962a", "type": "electric_scooter", "lat": 38.9005595, "fusion_lon": 0.0, "is_disabled": 0, "fusion_lat": 0.0, "lon": -77.0067085}, {"is_reserved": 0, "rental_uris": {"ios": "https://dc.lft.to/lastmile_qr_scan", "android": "https://dc.lft.to/lastmile_qr_scan"}, "name": "8409a0e83b504cfcb37b37ac40833268", "bike_id": "8409a0e83b504cfcb37b37ac40833268", "type": "electric_scooter", "lat": 38.91107983333333, "fusion_lon": 0.0, "is_disabled": 0, "fusion_lat": 0.0, "lon": -77.0308025}, {"is_reserved": 0, "rental_uris": {"ios": "https://dc.lft.to/lastmile_qr_scan", "android": "https://dc.lft.to/lastmile_qr_scan"}, "name": "9c4b9f1d28ac5fe11e78237c9b5d6997", "bike_id": "9c4b9f1d28ac5fe11e78237c9b5d6997", "type": "electric_scooter", "lat": 38.8636365, "fusion_lon": 0.0, "is_disabled": 0, "fusion_lat": 0.0, "lon": -76.990421}, {"is_reserved": 0, "rental_uris": {"ios": "https://dc.lft.to/lastmile_qr_scan", "android": "https://dc.lft.to/lastmile_qr_scan"}, "name": "bd0dc87229dd1b37e09af9a914043921", "bike_id": "bd0dc87229dd1b37e09af9a914043921", "type": "electric_scooter", "lat": 38.903541833333335, "fusion_lon": 0.0, "is_disabled": 0, "fusion_lat": 0.0, "lon": -77.04911433333334}, {"is_reserved": 0, "rental_uris": {"ios": "https://dc.lft.to/lastmile_qr_scan", "android": "https://dc.lft.to/lastmile_qr_scan"}, "name": "3386868486aac7264491ae1a255b1695", "bike_id": "3386868486aac7264491ae1a255b1695", "type": "electric_scooter", "lat": 38.909587333333334, "fusion_lon": 0.0, "is_disabled": 0, "fusion_lat": 0.0, "lon": -77.04634916666667}, {"is_reserved": 0, "rental_uris": {"ios": "https://dc.lft.to/lastmile_qr_scan", "android": "https://dc.lft.to/lastmile_qr_scan"}, "name": "e7d0362a1bae206ad350d9c08f4b559a", "bike_id": "e7d0362a1bae206ad350d9c08f4b559a", "type": "electric_scooter", "lat": 38.892239000000004, "fusion_lon": 0.0, "is_disabled": 0, "fusion_lat": 0.0, "lon": -77.04804316666667}, {"is_reserved": 0, "rental_uris": {"ios": "https://dc.lft.to/lastmile_qr_scan", "android": "https://dc.lft.to/lastmile_qr_scan"}, "name": "25ba2b7d8a0d328db80f5495b17e7c95", "bike_id": "25ba2b7d8a0d328db80f5495b17e7c95", "type": "electric_scooter", "lat": 38.919834333333334, "fusion_lon": 0.0, "is_disabled": 0, "fusion_lat": 0.0, "lon": -77.02377566666667}, {"is_reserved": 0, "rental_uris": {"ios": "https://dc.lft.to/lastmile_qr_scan", "android": "https://dc.lft.to/lastmile_qr_scan"}, "name": "a5c25151ccd99694f6062b4f201ab7e1", "bike_id": "a5c25151ccd99694f6062b4f201ab7e1", "type": "electric_scooter", "lat": 38.903367833333334, "fusion_lon": 0.0, "is_disabled": 0, "fusion_lat": 0.0, "lon": -76.97058833333334}, {"is_reserved": 0, "rental_uris": {"ios": "https://dc.lft.to/lastmile_qr_scan", "android": "https://dc.lft.to/lastmile_qr_scan"}, "name": "ea1d44e2abe78da8aa87219a3ead068c", "bike_id": "ea1d44e2abe78da8aa87219a3ead068c", "type": "electric_scooter", "lat": 38.885872166666665, "fusion_lon": 0.0, "is_disabled": 0, "fusion_lat": 0.0, "lon": -77.00070483333333}, {"is_reserved": 0, "rental_uris": {"ios": "https://dc.lft.to/lastmile_qr_scan", "android": "https://dc.lft.to/lastmile_qr_scan"}, "name": "10aab7ad18498498474abcc102c085ec", "bike_id": "10aab7ad18498498474abcc102c085ec", "type": "electric_scooter", "lat": 38.927859166666664, "fusion_lon": 0.0, "is_disabled": 0, "fusion_lat": 0.0, "lon": -77.03692966666667}, {"is_reserved": 0, "rental_uris": {"ios": "https://dc.lft.to/lastmile_qr_scan", "android": "https://dc.lft.to/lastmile_qr_scan"}, "name": "ec4a019c5bbabacc61e995a38c478b8d", "bike_id": "ec4a019c5bbabacc61e995a38c478b8d", "type": "electric_bike", "lat": 38.961434, "fusion_lon": 0.0, "is_disabled": 0, "fusion_lat": 0.0, "lon": -77.03235216666667}, {"is_reserved": 0, "rental_uris": {"ios": "https://dc.lft.to/lastmile_qr_scan", "android": "https://dc.lft.to/lastmile_qr_scan"}, "name": "70d60c2cb91fb2e7b32722d339fa2c35", "bike_id": "70d60c2cb91fb2e7b32722d339fa2c35", "type": "electric_scooter", "lat": 38.894843333333334, "fusion_lon": 0.0, "is_disabled": 0, "fusion_lat": 0.0, "lon": -76.94956883333333}, {"is_reserved": 0, "rental_uris": {"ios": "https://dc.lft.to/lastmile_qr_scan", "android": "https://dc.lft.to/lastmile_qr_scan"}, "name": "d2029dc7114e6ff04ab55460c93cc991", "bike_id": "d2029dc7114e6ff04ab55460c93cc991", "type": "electric_scooter", "lat": 38.92242566666667, "fusion_lon": 0.0, "is_disabled": 0, "fusion_lat": 0.0, "lon": -77.0291295}, {"is_reserved": 0, "rental_uris": {"ios": "https://dc.lft.to/lastmile_qr_scan", "android": "https://dc.lft.to/lastmile_qr_scan"}, "name": "1b083fcf3f5ca796159a8f45ba3893aa", "bike_id": "1b083fcf3f5ca796159a8f45ba3893aa", "type": "electric_scooter", "lat": 38.910079833333334, "fusion_lon": 0.0, "is_disabled": 0, "fusion_lat": 0.0, "lon": -76.99389033333334}, {"is_reserved": 0, "rental_uris": {"ios": "https://dc.lft.to/lastmile_qr_scan", "android": "https://dc.lft.to/lastmile_qr_scan"}, "name": "a03bd53ab183b01b60c7f84b7270ed84", "bike_id": "a03bd53ab183b01b60c7f84b7270ed84", "type": "electric_scooter", "lat": 38.90449783333333, "fusion_lon": 0.0, "is_disabled": 0, "fusion_lat": 0.0, "lon": -77.0591025}, {"is_reserved": 0, "rental_uris": {"ios": "https://dc.lft.to/lastmile_qr_scan", "android": "https://dc.lft.to/lastmile_qr_scan"}, "name": "69f82ca71eca0090a11ae24f04cb3a4a", "bike_id": "69f82ca71eca0090a11ae24f04cb3a4a", "type": "electric_scooter", "lat": 38.912583, "fusion_lon": 0.0, "is_disabled": 0, "fusion_lat": 0.0, "lon": -77.03497316666666}, {"is_reserved": 0, "rental_uris": {"ios": "https://dc.lft.to/lastmile_qr_scan", "android": "https://dc.lft.to/lastmile_qr_scan"}, "name": "d60389179904c29ba3a32930d82e7aea", "bike_id": "d60389179904c29ba3a32930d82e7aea", "type": "electric_scooter", "lat": 38.9168795, "fusion_lon": 0.0, "is_disabled": 0, "fusion_lat": 0.0, "lon": -77.02970866666666}, {"is_reserved": 0, "rental_uris": {"ios": "https://dc.lft.to/lastmile_qr_scan", "android": "https://dc.lft.to/lastmile_qr_scan"}, "name": "3ac90817b2c4a1aac11929db303bc08e", "bike_id": "3ac90817b2c4a1aac11929db303bc08e", "type": "electric_scooter", "lat": 38.895351166666664, "fusion_lon": 0.0, "is_disabled": 0, "fusion_lat": 0.0, "lon": -77.02983966666666}, {"is_reserved": 0, "rental_uris": {"ios": "https://dc.lft.to/lastmile_qr_scan", "android": "https://dc.lft.to/lastmile_qr_scan"}, "name": "68fb86c8188546395086b8580e1495e5", "bike_id": "68fb86c8188546395086b8580e1495e5", "type": "electric_scooter", "lat": 38.892207166666665, "fusion_lon": 0.0, "is_disabled": 0, "fusion_lat": 0.0, "lon": -77.04373316666667}, {"is_reserved": 0, "rental_uris": {"ios": "https://dc.lft.to/lastmile_qr_scan", "android": "https://dc.lft.to/lastmile_qr_scan"}, "name": "4b0108baa6dae7f1336868e22091bc7b", "bike_id": "4b0108baa6dae7f1336868e22091bc7b", "type": "electric_scooter", "lat": 38.90141166666667, "fusion_lon": 0.0, "is_disabled": 0, "fusion_lat": 0.0, "lon": -76.94153183333333}, {"is_reserved": 0, "rental_uris": {"ios": "https://dc.lft.to/lastmile_qr_scan", "android": "https://dc.lft.to/lastmile_qr_scan"}, "name": "d6dcbd979dac84d50b626e6a44f2f17b", "bike_id": "d6dcbd979dac84d50b626e6a44f2f17b", "type": "electric_scooter", "lat": 38.932352333333334, "fusion_lon": 0.0, "is_disabled": 0, "fusion_lat": 0.0, "lon": -77.03855483333334}, {"is_reserved": 0, "rental_uris": {"ios": "https://dc.lft.to/lastmile_qr_scan", "android": "https://dc.lft.to/lastmile_qr_scan"}, "name": "9d1fe4629537b69ad19a0938e981c7b2", "bike_id": "9d1fe4629537b69ad19a0938e981c7b2", "type": "electric_scooter", "lat": 38.866178166666664, "fusion_lon": 0.0, "is_disabled": 0, "fusion_lat": 0.0, "lon": -76.98665116666666}, {"is_reserved": 0, "rental_uris": {"ios": "https://dc.lft.to/lastmile_qr_scan", "android": "https://dc.lft.to/lastmile_qr_scan"}, "name": "a3ce95562bd1312ddb8c87fefd434b05", "bike_id": "a3ce95562bd1312ddb8c87fefd434b05", "type": "electric_scooter", "lat": 38.92765983333334, "fusion_lon": 0.0, "is_disabled": 0, "fusion_lat": 0.0, "lon": -77.0274185}, {"is_reserved": 0, "rental_uris": {"ios": "https://dc.lft.to/lastmile_qr_scan", "android": "https://dc.lft.to/lastmile_qr_scan"}, "name": "c0e79b7463f87bbd930c43c4a43d4f7a", "bike_id": "c0e79b7463f87bbd930c43c4a43d4f7a", "type": "electric_scooter", "lat": 38.9013885, "fusion_lon": 0.0, "is_disabled": 0, "fusion_lat": 0.0, "lon": -77.04886633333334}, {"is_reserved": 0, "rental_uris": {"ios": "https://dc.lft.to/lastmile_qr_scan", "android": "https://dc.lft.to/lastmile_qr_scan"}, "name": "60262d60d18a82eb28adb67013e78b50", "bike_id": "60262d60d18a82eb28adb67013e78b50", "type": "electric_scooter", "lat": 38.8955545, "fusion_lon": 0.0, "is_disabled": 0, "fusion_lat": 0.0, "lon": -76.93079283333333}, {"is_reserved": 0, "rental_uris": {"ios": "https://dc.lft.to/lastmile_qr_scan", "android": "https://dc.lft.to/lastmile_qr_scan"}, "name": "46e67f723304aee386ca9125aa1edca9", "bike_id": "46e67f723304aee386ca9125aa1edca9", "type": "electric_scooter", "lat": 38.919674, "fusion_lon": 0.0, "is_disabled": 0, "fusion_lat": 0.0, "lon": -77.03959283333333}, {"is_reserved": 0, "rental_uris": {"ios": "https://dc.lft.to/lastmile_qr_scan", "android": "https://dc.lft.to/lastmile_qr_scan"}, "name": "ef84a12a6bfaa2293b943de7aa0c0a57", "bike_id": "ef84a12a6bfaa2293b943de7aa0c0a57", "type": "electric_scooter", "lat": 38.917796333333335, "fusion_lon": 0.0, "is_disabled": 0, "fusion_lat": 0.0, "lon": -77.0402375}, {"is_reserved": 0, "rental_uris": {"ios": "https://dc.lft.to/lastmile_qr_scan", "android": "https://dc.lft.to/lastmile_qr_scan"}, "name": "f4a73d1ef29b5e0b681e3e44b5b064a8", "bike_id": "f4a73d1ef29b5e0b681e3e44b5b064a8", "type": "electric_bike", "lat": 38.939593, "fusion_lon": 0.0, "is_disabled": 0, "fusion_lat": 0.0, "lon": -77.36089333333334}, {"is_reserved": 0, "rental_uris": {"ios": "https://dc.lft.to/lastmile_qr_scan", "android": "https://dc.lft.to/lastmile_qr_scan"}, "name": "7d95bdb66c17e2b989c1d1597418ad14", "bike_id": "7d95bdb66c17e2b989c1d1597418ad14", "type": "electric_scooter", "lat": 38.91662266666667, "fusion_lon": 0.0, "is_disabled": 0, "fusion_lat": 0.0, "lon": -77.04386133333334}, {"is_reserved": 0, "rental_uris": {"ios": "https://dc.lft.to/lastmile_qr_scan", "android": "https://dc.lft.to/lastmile_qr_scan"}, "name": "9ba1d379ccaf9610f71fcec2da636120", "bike_id": "9ba1d379ccaf9610f71fcec2da636120", "type": "electric_scooter", "lat": 38.897336833333334, "fusion_lon": 0.0, "is_disabled": 0, "fusion_lat": 0.0, "lon": -77.04698483333334}, {"is_reserved": 0, "rental_uris": {"ios": "https://dc.lft.to/lastmile_qr_scan", "android": "https://dc.lft.to/lastmile_qr_scan"}, "name": "493512142a6f643cb23cda9dc04f9262", "bike_id": "493512142a6f643cb23cda9dc04f9262", "type": "electric_scooter", "lat": 38.9275785, "fusion_lon": 0.0, "is_disabled": 0, "fusion_lat": 0.0, "lon": -77.03217516666666}, {"is_reserved": 0, "rental_uris": {"ios": "https://dc.lft.to/lastmile_qr_scan", "android": "https://dc.lft.to/lastmile_qr_scan"}, "name": "1e27843f32a346aaecc518272a1a31d5", "bike_id": "1e27843f32a346aaecc518272a1a31d5", "type": "electric_scooter", "lat": 38.9186125, "fusion_lon": 0.0, "is_disabled": 0, "fusion_lat": 0.0, "lon": -77.0418225}, {"is_reserved": 0, "rental_uris": {"ios": "https://dc.lft.to/lastmile_qr_scan", "android": "https://dc.lft.to/lastmile_qr_scan"}, "name": "88f14301e736025c53de88a2eec058a4", "bike_id": "88f14301e736025c53de88a2eec058a4", "type": "electric_scooter", "lat": 38.912631833333336, "fusion_lon": 0.0, "is_disabled": 0, "fusion_lat": 0.0, "lon": -77.045484}, {"is_reserved": 0, "rental_uris": {"ios": "https://dc.lft.to/lastmile_qr_scan", "android": "https://dc.lft.to/lastmile_qr_scan"}, "name": "bcbfd596682d3930688282c24bd3bcc8", "bike_id": "bcbfd596682d3930688282c24bd3bcc8", "type": "electric_scooter", "lat": 38.89558133333333, "fusion_lon": 0.0, "is_disabled": 0, "fusion_lat": 0.0, "lon": -77.04674133333333}, {"is_reserved": 0, "rental_uris": {"ios": "https://dc.lft.to/lastmile_qr_scan", "android": "https://dc.lft.to/lastmile_qr_scan"}, "name": "27f38270dc3b2a517e70f2adfa08c797", "bike_id": "27f38270dc3b2a517e70f2adfa08c797", "type": "electric_scooter", "lat": 38.92327816666667, "fusion_lon": 0.0, "is_disabled": 0, "fusion_lat": 0.0, "lon": -77.054763}, {"is_reserved": 0, "rental_uris": {"ios": "https://dc.lft.to/lastmile_qr_scan", "android": "https://dc.lft.to/lastmile_qr_scan"}, "name": "00f1e2e8e29703088c7cc91fbaf3c277", "bike_id": "00f1e2e8e29703088c7cc91fbaf3c277", "type": "electric_scooter", "lat": 38.889959, "fusion_lon": 0.0, "is_disabled": 0, "fusion_lat": 0.0, "lon": -77.003469}, {"is_reserved": 0, "rental_uris": {"ios": "https://dc.lft.to/lastmile_qr_scan", "android": "https://dc.lft.to/lastmile_qr_scan"}, "name": "85ff24e2a6aaf2782c116776cd3e2a75", "bike_id": "85ff24e2a6aaf2782c116776cd3e2a75", "type": "electric_scooter", "lat": 38.93673166666667, "fusion_lon": 0.0, "is_disabled": 0, "fusion_lat": 0.0, "lon": -77.023797}, {"is_reserved": 0, "rental_uris": {"ios": "https://dc.lft.to/lastmile_qr_scan", "android": "https://dc.lft.to/lastmile_qr_scan"}, "name": "3ed0c6ea762acafa433116ca60d75352", "bike_id": "3ed0c6ea762acafa433116ca60d75352", "type": "electric_scooter", "lat": 38.90649783333333, "fusion_lon": 0.0, "is_disabled": 0, "fusion_lat": 0.0, "lon": -77.04628483333333}, {"is_reserved": 0, "rental_uris": {"ios": "https://dc.lft.to/lastmile_qr_scan", "android": "https://dc.lft.to/lastmile_qr_scan"}, "name": "9e518b21ced7c1c58d936a8297d5fa0b", "bike_id": "9e518b21ced7c1c58d936a8297d5fa0b", "type": "electric_bike", "lat": 38.855102333333335, "fusion_lon": 0.0, "is_disabled": 0, "fusion_lat": 0.0, "lon": -77.12024883333333}, {"is_reserved": 0, "rental_uris": {"ios": "https://dc.lft.to/lastmile_qr_scan", "android": "https://dc.lft.to/lastmile_qr_scan"}, "name": "1ff39eb3754c3ff03d5df84e6d740588", "bike_id": "1ff39eb3754c3ff03d5df84e6d740588", "type": "electric_scooter", "lat": 38.90278266666667, "fusion_lon": 0.0, "is_disabled": 0, "fusion_lat": 0.0, "lon": -77.039814}, {"is_reserved": 0, "rental_uris": {"ios": "https://dc.lft.to/lastmile_qr_scan", "android": "https://dc.lft.to/lastmile_qr_scan"}, "name": "fe9320788074a72efceeb4646e66cdd0", "bike_id": "fe9320788074a72efceeb4646e66cdd0", "type": "electric_scooter", "lat": 38.916033, "fusion_lon": 0.0, "is_disabled": 0, "fusion_lat": 0.0, "lon": -77.04874716666667}, {"is_reserved": 0, "rental_uris": {"ios": "https://dc.lft.to/lastmile_qr_scan", "android": "https://dc.lft.to/lastmile_qr_scan"}, "name": "0ee6c53ba68a301ec0059202bd71ae7f", "bike_id": "0ee6c53ba68a301ec0059202bd71ae7f", "type": "electric_scooter", "lat": 38.88372566666666, "fusion_lon": 0.0, "is_disabled": 0, "fusion_lat": 0.0, "lon": -76.99487033333334}, {"is_reserved": 0, "rental_uris": {"ios": "https://dc.lft.to/lastmile_qr_scan", "android": "https://dc.lft.to/lastmile_qr_scan"}, "name": "cc31489a236f638e3a00f36575f1168a", "bike_id": "cc31489a236f638e3a00f36575f1168a", "type": "electric_scooter", "lat": 38.879762666666664, "fusion_lon": 0.0, "is_disabled": 0, "fusion_lat": 0.0, "lon": -76.9854945}, {"is_reserved": 0, "rental_uris": {"ios": "https://dc.lft.to/lastmile_qr_scan", "android": "https://dc.lft.to/lastmile_qr_scan"}, "name": "55c27a396439a378d048e9d8c229416d", "bike_id": "55c27a396439a378d048e9d8c229416d", "type": "electric_scooter", "lat": 38.9198815, "fusion_lon": 0.0, "is_disabled": 0, "fusion_lat": 0.0, "lon": -76.973116}, {"is_reserved": 0, "rental_uris": {"ios": "https://dc.lft.to/lastmile_qr_scan", "android": "https://dc.lft.to/lastmile_qr_scan"}, "name": "4b2df5e8e02c3a2b15d58903b3664d97", "bike_id": "4b2df5e8e02c3a2b15d58903b3664d97", "type": "electric_scooter", "lat": 38.952261, "fusion_lon": 0.0, "is_disabled": 0, "fusion_lat": 0.0, "lon": -77.00271966666666}, {"is_reserved": 0, "rental_uris": {"ios": "https://dc.lft.to/lastmile_qr_scan", "android": "https://dc.lft.to/lastmile_qr_scan"}, "name": "1b885fd16ec3c27ea8b9b1249a66db30", "bike_id": "1b885fd16ec3c27ea8b9b1249a66db30", "type": "electric_bike", "lat": 38.9601875, "fusion_lon": 0.0, "is_disabled": 0, "fusion_lat": 0.0, "lon": -77.01729733333333}, {"is_reserved": 0, "rental_uris": {"ios": "https://dc.lft.to/lastmile_qr_scan", "android": "https://dc.lft.to/lastmile_qr_scan"}, "name": "b042afd9b13971e1033f44f2c29a7aa1", "bike_id": "b042afd9b13971e1033f44f2c29a7aa1", "type": "electric_scooter", "lat": 38.9540575, "fusion_lon": 0.0, "is_disabled": 0, "fusion_lat": 0.0, "lon": -77.02750566666667}, {"is_reserved": 0, "rental_uris": {"ios": "https://dc.lft.to/lastmile_qr_scan", "android": "https://dc.lft.to/lastmile_qr_scan"}, "name": "8b8bc1bfb6a8a665c8e848b2d70108d5", "bike_id": "8b8bc1bfb6a8a665c8e848b2d70108d5", "type": "electric_bike", "lat": 38.874250333333336, "fusion_lon": 0.0, "is_disabled": 0, "fusion_lat": 0.0, "lon": -77.08572583333333}, {"is_reserved": 0, "rental_uris": {"ios": "https://dc.lft.to/lastmile_qr_scan", "android": "https://dc.lft.to/lastmile_qr_scan"}, "name": "9e961d48dbff4cf49240b405f343beef", "bike_id": "9e961d48dbff4cf49240b405f343beef", "type": "electric_bike", "lat": 38.90855966666667, "fusion_lon": 0.0, "is_disabled": 0, "fusion_lat": 0.0, "lon": -77.08079533333333}, {"is_reserved": 0, "rental_uris": {"ios": "https://dc.lft.to/lastmile_qr_scan", "android": "https://dc.lft.to/lastmile_qr_scan"}, "name": "2305c0aca138f6f32efff55dc538077a", "bike_id": "2305c0aca138f6f32efff55dc538077a", "type": "electric_scooter", "lat": 38.918969, "fusion_lon": 0.0, "is_disabled": 0, "fusion_lat": 0.0, "lon": -77.04156116666667}, {"is_reserved": 0, "rental_uris": {"ios": "https://dc.lft.to/lastmile_qr_scan", "android": "https://dc.lft.to/lastmile_qr_scan"}, "name": "4ef42b3478a1940b38914dddd2fa421c", "bike_id": "4ef42b3478a1940b38914dddd2fa421c", "type": "electric_scooter", "lat": 38.9507195, "fusion_lon": 0.0, "is_disabled": 0, "fusion_lat": 0.0, "lon": -77.00876483333333}, {"is_reserved": 0, "rental_uris": {"ios": "https://dc.lft.to/lastmile_qr_scan", "android": "https://dc.lft.to/lastmile_qr_scan"}, "name": "7ceca91185c0ae7913de41c04f98b022", "bike_id": "7ceca91185c0ae7913de41c04f98b022", "type": "electric_scooter", "lat": 38.875848500000004, "fusion_lon": 0.0, "is_disabled": 0, "fusion_lat": 0.0, "lon": -77.01378216666667}, {"is_reserved": 0, "rental_uris": {"ios": "https://dc.lft.to/lastmile_qr_scan", "android": "https://dc.lft.to/lastmile_qr_scan"}, "name": "3fdf6985851a37dced24a579b596ab6c", "bike_id": "3fdf6985851a37dced24a579b596ab6c", "type": "electric_scooter", "lat": 38.91713716666667, "fusion_lon": 0.0, "is_disabled": 0, "fusion_lat": 0.0, "lon": -77.03197133333333}, {"is_reserved": 0, "rental_uris": {"ios": "https://dc.lft.to/lastmile_qr_scan", "android": "https://dc.lft.to/lastmile_qr_scan"}, "name": "784cc2aa9214b54297f46adb00cc3335", "bike_id": "784cc2aa9214b54297f46adb00cc3335", "type": "electric_bike", "lat": 39.02930716666667, "fusion_lon": 0.0, "is_disabled": 0, "fusion_lat": 0.0, "lon": -77.04931466666666}, {"is_reserved": 0, "rental_uris": {"ios": "https://dc.lft.to/lastmile_qr_scan", "android": "https://dc.lft.to/lastmile_qr_scan"}, "name": "7f7bb9af64fa4bd5a6ba347a25166d3f", "bike_id": "7f7bb9af64fa4bd5a6ba347a25166d3f", "type": "electric_scooter", "lat": 38.88500633333334, "fusion_lon": 0.0, "is_disabled": 0, "fusion_lat": 0.0, "lon": -77.00567516666666}, {"is_reserved": 0, "rental_uris": {"ios": "https://dc.lft.to/lastmile_qr_scan", "android": "https://dc.lft.to/lastmile_qr_scan"}, "name": "c7722aa806bc310a23615084e0e66bcc", "bike_id": "c7722aa806bc310a23615084e0e66bcc", "type": "electric_scooter", "lat": 38.844234166666666, "fusion_lon": 0.0, "is_disabled": 0, "fusion_lat": 0.0, "lon": -76.997779}, {"is_reserved": 0, "rental_uris": {"ios": "https://dc.lft.to/lastmile_qr_scan", "android": "https://dc.lft.to/lastmile_qr_scan"}, "name": "33e5ca998d3fd99d29eaf80165a53d6b", "bike_id": "33e5ca998d3fd99d29eaf80165a53d6b", "type": "electric_scooter", "lat": 38.90890316666667, "fusion_lon": 0.0, "is_disabled": 0, "fusion_lat": 0.0, "lon": -77.04330366666667}, {"is_reserved": 0, "rental_uris": {"ios": "https://dc.lft.to/lastmile_qr_scan", "android": "https://dc.lft.to/lastmile_qr_scan"}, "name": "42c31afaa4e28378bc50dc26610e3e79", "bike_id": "42c31afaa4e28378bc50dc26610e3e79", "type": "electric_scooter", "lat": 38.92177316666667, "fusion_lon": 0.0, "is_disabled": 0, "fusion_lat": 0.0, "lon": -77.032043}, {"is_reserved": 0, "rental_uris": {"ios": "https://dc.lft.to/lastmile_qr_scan", "android": "https://dc.lft.to/lastmile_qr_scan"}, "name": "e36def7457c162537a476e8923c0b231", "bike_id": "e36def7457c162537a476e8923c0b231", "type": "electric_scooter", "lat": 38.879507, "fusion_lon": 0.0, "is_disabled": 0, "fusion_lat": 0.0, "lon": -77.004981}, {"is_reserved": 0, "rental_uris": {"ios": "https://dc.lft.to/lastmile_qr_scan", "android": "https://dc.lft.to/lastmile_qr_scan"}, "name": "e0d7a06c4b68af21495f9efde12f8da6", "bike_id": "e0d7a06c4b68af21495f9efde12f8da6", "type": "electric_scooter", "lat": 38.86920966666667, "fusion_lon": 0.0, "is_disabled": 0, "fusion_lat": 0.0, "lon": -76.982973}, {"is_reserved": 0, "rental_uris": {"ios": "https://dc.lft.to/lastmile_qr_scan", "android": "https://dc.lft.to/lastmile_qr_scan"}, "name": "eac5c692f553b836f520f091f6aad7c0", "bike_id": "eac5c692f553b836f520f091f6aad7c0", "type": "electric_scooter", "lat": 38.905078833333334, "fusion_lon": 0.0, "is_disabled": 0, "fusion_lat": 0.0, "lon": -77.0625425}, {"is_reserved": 0, "rental_uris": {"ios": "https://dc.lft.to/lastmile_qr_scan", "android": "https://dc.lft.to/lastmile_qr_scan"}, "name": "d8294f09dfec2a75c189522b5f636704", "bike_id": "d8294f09dfec2a75c189522b5f636704", "type": "electric_scooter", "lat": 38.916922666666665, "fusion_lon": 0.0, "is_disabled": 0, "fusion_lat": 0.0, "lon": -77.0296835}, {"is_reserved": 0, "rental_uris": {"ios": "https://dc.lft.to/lastmile_qr_scan", "android": "https://dc.lft.to/lastmile_qr_scan"}, "name": "2f73e7ecbb5832a6cc323afa87790c6e", "bike_id": "2f73e7ecbb5832a6cc323afa87790c6e", "type": "electric_scooter", "lat": 38.913727, "fusion_lon": 0.0, "is_disabled": 0, "fusion_lat": 0.0, "lon": -77.0662245}, {"is_reserved": 0, "rental_uris": {"ios": "https://dc.lft.to/lastmile_qr_scan", "android": "https://dc.lft.to/lastmile_qr_scan"}, "name": "d67f906746436421436b77d8ff619971", "bike_id": "d67f906746436421436b77d8ff619971", "type": "electric_bike", "lat": 38.98652216666667, "fusion_lon": 0.0, "is_disabled": 0, "fusion_lat": 0.0, "lon": -77.05638316666666}, {"is_reserved": 0, "rental_uris": {"ios": "https://dc.lft.to/lastmile_qr_scan", "android": "https://dc.lft.to/lastmile_qr_scan"}, "name": "e39972036e085a5865000e6d2f2e945c", "bike_id": "e39972036e085a5865000e6d2f2e945c", "type": "electric_scooter", "lat": 38.932466166666664, "fusion_lon": 0.0, "is_disabled": 0, "fusion_lat": 0.0, "lon": -77.03278066666667}, {"is_reserved": 0, "rental_uris": {"ios": "https://dc.lft.to/lastmile_qr_scan", "android": "https://dc.lft.to/lastmile_qr_scan"}, "name": "f50566bd41205089b91cd98da7193b23", "bike_id": "f50566bd41205089b91cd98da7193b23", "type": "electric_scooter", "lat": 38.91552466666667, "fusion_lon": 0.0, "is_disabled": 0, "fusion_lat": 0.0, "lon": -77.03175083333333}, {"is_reserved": 0, "rental_uris": {"ios": "https://dc.lft.to/lastmile_qr_scan", "android": "https://dc.lft.to/lastmile_qr_scan"}, "name": "330b2855927dcc28939a6f78b8052f17", "bike_id": "330b2855927dcc28939a6f78b8052f17", "type": "electric_scooter", "lat": 38.9096075, "fusion_lon": 0.0, "is_disabled": 0, "fusion_lat": 0.0, "lon": -77.03929783333334}, {"is_reserved": 0, "rental_uris": {"ios": "https://dc.lft.to/lastmile_qr_scan", "android": "https://dc.lft.to/lastmile_qr_scan"}, "name": "9ce8a3d01d76174ddec0b56cf4c8788d", "bike_id": "9ce8a3d01d76174ddec0b56cf4c8788d", "type": "electric_scooter", "lat": 38.931436166666664, "fusion_lon": 0.0, "is_disabled": 0, "fusion_lat": 0.0, "lon": -77.05622633333333}, {"is_reserved": 0, "rental_uris": {"ios": "https://dc.lft.to/lastmile_qr_scan", "android": "https://dc.lft.to/lastmile_qr_scan"}, "name": "b782f950b50ba65671ede81fde46e8ae", "bike_id": "b782f950b50ba65671ede81fde46e8ae", "type": "electric_scooter", "lat": 38.92208183333334, "fusion_lon": 0.0, "is_disabled": 0, "fusion_lat": 0.0, "lon": -77.040108}, {"is_reserved": 0, "rental_uris": {"ios": "https://dc.lft.to/lastmile_qr_scan", "android": "https://dc.lft.to/lastmile_qr_scan"}, "name": "de551a2777357a4c4586f9451b2ffc72", "bike_id": "de551a2777357a4c4586f9451b2ffc72", "type": "electric_scooter", "lat": 38.887430333333334, "fusion_lon": 0.0, "is_disabled": 0, "fusion_lat": 0.0, "lon": -77.02164283333333}, {"is_reserved": 0, "rental_uris": {"ios": "https://dc.lft.to/lastmile_qr_scan", "android": "https://dc.lft.to/lastmile_qr_scan"}, "name": "c09e0b22de29f49cfd156bac54226f51", "bike_id": "c09e0b22de29f49cfd156bac54226f51", "type": "electric_scooter", "lat": 38.892217, "fusion_lon": 0.0, "is_disabled": 0, "fusion_lat": 0.0, "lon": -77.03221016666667}, {"is_reserved": 0, "rental_uris": {"ios": "https://dc.lft.to/lastmile_qr_scan", "android": "https://dc.lft.to/lastmile_qr_scan"}, "name": "ee670e188df07425717da5637b02d309", "bike_id": "ee670e188df07425717da5637b02d309", "type": "electric_bike", "lat": 38.92852533333333, "fusion_lon": 0.0, "is_disabled": 0, "fusion_lat": 0.0, "lon": -77.10677683333333}, {"is_reserved": 0, "rental_uris": {"ios": "https://dc.lft.to/lastmile_qr_scan", "android": "https://dc.lft.to/lastmile_qr_scan"}, "name": "468055e99463366436593d1c787170a7", "bike_id": "468055e99463366436593d1c787170a7", "type": "electric_scooter", "lat": 38.890437166666665, "fusion_lon": 0.0, "is_disabled": 0, "fusion_lat": 0.0, "lon": -76.9375525}, {"is_reserved": 0, "rental_uris": {"ios": "https://dc.lft.to/lastmile_qr_scan", "android": "https://dc.lft.to/lastmile_qr_scan"}, "name": "66912253b74220d59113bfa162c04350", "bike_id": "66912253b74220d59113bfa162c04350", "type": "electric_scooter", "lat": 38.90303216666667, "fusion_lon": 0.0, "is_disabled": 0, "fusion_lat": 0.0, "lon": -77.031805}, {"is_reserved": 0, "rental_uris": {"ios": "https://dc.lft.to/lastmile_qr_scan", "android": "https://dc.lft.to/lastmile_qr_scan"}, "name": "3ed91b18e17b18d7b592faaa32fc703a", "bike_id": "3ed91b18e17b18d7b592faaa32fc703a", "type": "electric_scooter", "lat": 38.93757816666667, "fusion_lon": 0.0, "is_disabled": 0, "fusion_lat": 0.0, "lon": -77.03142133333333}, {"is_reserved": 0, "rental_uris": {"ios": "https://dc.lft.to/lastmile_qr_scan", "android": "https://dc.lft.to/lastmile_qr_scan"}, "name": "b9a685e9f76d2f584bc8d79dd2468b3e", "bike_id": "b9a685e9f76d2f584bc8d79dd2468b3e", "type": "electric_scooter", "lat": 38.92544516666667, "fusion_lon": 0.0, "is_disabled": 0, "fusion_lat": 0.0, "lon": -77.04085383333333}, {"is_reserved": 0, "rental_uris": {"ios": "https://dc.lft.to/lastmile_qr_scan", "android": "https://dc.lft.to/lastmile_qr_scan"}, "name": "9ffbca770f67a73ef66a28ad67211a1c", "bike_id": "9ffbca770f67a73ef66a28ad67211a1c", "type": "electric_scooter", "lat": 38.902941, "fusion_lon": 0.0, "is_disabled": 0, "fusion_lat": 0.0, "lon": -77.03450833333333}, {"is_reserved": 0, "rental_uris": {"ios": "https://dc.lft.to/lastmile_qr_scan", "android": "https://dc.lft.to/lastmile_qr_scan"}, "name": "c1cff894b43179704ef0bd85b3762233", "bike_id": "c1cff894b43179704ef0bd85b3762233", "type": "electric_bike", "lat": 38.8074115, "fusion_lon": 0.0, "is_disabled": 0, "fusion_lat": 0.0, "lon": -77.094236}, {"is_reserved": 0, "rental_uris": {"ios": "https://dc.lft.to/lastmile_qr_scan", "android": "https://dc.lft.to/lastmile_qr_scan"}, "name": "968e9382ca4a117189e6248e2493edad", "bike_id": "968e9382ca4a117189e6248e2493edad", "type": "electric_scooter", "lat": 38.901639333333335, "fusion_lon": 0.0, "is_disabled": 0, "fusion_lat": 0.0, "lon": -77.05003216666667}, {"is_reserved": 0, "rental_uris": {"ios": "https://dc.lft.to/lastmile_qr_scan", "android": "https://dc.lft.to/lastmile_qr_scan"}, "name": "1ddb4ceda61492adbfd4790e97550721", "bike_id": "1ddb4ceda61492adbfd4790e97550721", "type": "electric_scooter", "lat": 38.9483385, "fusion_lon": 0.0, "is_disabled": 0, "fusion_lat": 0.0, "lon": -77.024265}, {"is_reserved": 0, "rental_uris": {"ios": "https://dc.lft.to/lastmile_qr_scan", "android": "https://dc.lft.to/lastmile_qr_scan"}, "name": "4cd90b177dfd3f733bf931d6b6184104", "bike_id": "4cd90b177dfd3f733bf931d6b6184104", "type": "electric_scooter", "lat": 38.930075333333335, "fusion_lon": 0.0, "is_disabled": 0, "fusion_lat": 0.0, "lon": -77.04440516666666}, {"is_reserved": 0, "rental_uris": {"ios": "https://dc.lft.to/lastmile_qr_scan", "android": "https://dc.lft.to/lastmile_qr_scan"}, "name": "ff0e3c2e616ce0cedc24ee765d1a6f03", "bike_id": "ff0e3c2e616ce0cedc24ee765d1a6f03", "type": "electric_scooter", "lat": 38.90883483333333, "fusion_lon": 0.0, "is_disabled": 0, "fusion_lat": 0.0, "lon": -77.06436366666667}, {"is_reserved": 0, "rental_uris": {"ios": "https://dc.lft.to/lastmile_qr_scan", "android": "https://dc.lft.to/lastmile_qr_scan"}, "name": "7975d1eb9bcdfd9c2d50eb1d0752c55d", "bike_id": "7975d1eb9bcdfd9c2d50eb1d0752c55d", "type": "electric_scooter", "lat": 38.9259105, "fusion_lon": 0.0, "is_disabled": 0, "fusion_lat": 0.0, "lon": -77.03228133333333}, {"is_reserved": 0, "rental_uris": {"ios": "https://dc.lft.to/lastmile_qr_scan", "android": "https://dc.lft.to/lastmile_qr_scan"}, "name": "6485504538e690809adcf08b9074daff", "bike_id": "6485504538e690809adcf08b9074daff", "type": "electric_scooter", "lat": 38.90612983333333, "fusion_lon": 0.0, "is_disabled": 0, "fusion_lat": 0.0, "lon": -77.06511566666667}, {"is_reserved": 0, "rental_uris": {"ios": "https://dc.lft.to/lastmile_qr_scan", "android": "https://dc.lft.to/lastmile_qr_scan"}, "name": "790843d01f9af2d90f47b3722a5a851b", "bike_id": "790843d01f9af2d90f47b3722a5a851b", "type": "electric_scooter", "lat": 38.925698, "fusion_lon": 0.0, "is_disabled": 0, "fusion_lat": 0.0, "lon": -77.03823416666667}, {"is_reserved": 0, "rental_uris": {"ios": "https://dc.lft.to/lastmile_qr_scan", "android": "https://dc.lft.to/lastmile_qr_scan"}, "name": "4afabac1f56a2f85706a32541bf735c6", "bike_id": "4afabac1f56a2f85706a32541bf735c6", "type": "electric_scooter", "lat": 38.919620333333334, "fusion_lon": 0.0, "is_disabled": 0, "fusion_lat": 0.0, "lon": -77.04150416666667}, {"is_reserved": 0, "rental_uris": {"ios": "https://dc.lft.to/lastmile_qr_scan", "android": "https://dc.lft.to/lastmile_qr_scan"}, "name": "71f10da0a6608feef887b6fdc687c54e", "bike_id": "71f10da0a6608feef887b6fdc687c54e", "type": "electric_scooter", "lat": 38.931774, "fusion_lon": 0.0, "is_disabled": 0, "fusion_lat": 0.0, "lon": -77.03151083333333}, {"is_reserved": 0, "rental_uris": {"ios": "https://dc.lft.to/lastmile_qr_scan", "android": "https://dc.lft.to/lastmile_qr_scan"}, "name": "6d56477c7b6718d2ec4b0fc2e0ad467f", "bike_id": "6d56477c7b6718d2ec4b0fc2e0ad467f", "type": "electric_scooter", "lat": 38.909781333333335, "fusion_lon": 0.0, "is_disabled": 0, "fusion_lat": 0.0, "lon": -77.02177866666666}, {"is_reserved": 0, "rental_uris": {"ios": "https://dc.lft.to/lastmile_qr_scan", "android": "https://dc.lft.to/lastmile_qr_scan"}, "name": "a7deabfa6635d178e2642458dfb5b2dc", "bike_id": "a7deabfa6635d178e2642458dfb5b2dc", "type": "electric_scooter", "lat": 38.93045133333333, "fusion_lon": 0.0, "is_disabled": 0, "fusion_lat": 0.0, "lon": -77.032236}, {"is_reserved": 0, "rental_uris": {"ios": "https://dc.lft.to/lastmile_qr_scan", "android": "https://dc.lft.to/lastmile_qr_scan"}, "name": "8319c4b12424e7a4edd28d5bb544498d", "bike_id": "8319c4b12424e7a4edd28d5bb544498d", "type": "electric_scooter", "lat": 38.85899933333334, "fusion_lon": 0.0, "is_disabled": 0, "fusion_lat": 0.0, "lon": -76.99140933333334}, {"is_reserved": 0, "rental_uris": {"ios": "https://dc.lft.to/lastmile_qr_scan", "android": "https://dc.lft.to/lastmile_qr_scan"}, "name": "c836196d59f14c013b9315826be4669f", "bike_id": "c836196d59f14c013b9315826be4669f", "type": "electric_scooter", "lat": 38.89041366666667, "fusion_lon": 0.0, "is_disabled": 0, "fusion_lat": 0.0, "lon": -76.937532}, {"is_reserved": 0, "rental_uris": {"ios": "https://dc.lft.to/lastmile_qr_scan", "android": "https://dc.lft.to/lastmile_qr_scan"}, "name": "703ecd44f2cb65114db3dd3ff6270f2e", "bike_id": "703ecd44f2cb65114db3dd3ff6270f2e", "type": "electric_scooter", "lat": 38.90957, "fusion_lon": 0.0, "is_disabled": 0, "fusion_lat": 0.0, "lon": -77.0326985}, {"is_reserved": 0, "rental_uris": {"ios": "https://dc.lft.to/lastmile_qr_scan", "android": "https://dc.lft.to/lastmile_qr_scan"}, "name": "15eb05ad62e2f73c58c9e08068e48e9b", "bike_id": "15eb05ad62e2f73c58c9e08068e48e9b", "type": "electric_scooter", "lat": 38.89833466666666, "fusion_lon": 0.0, "is_disabled": 0, "fusion_lat": 0.0, "lon": -76.946357}, {"is_reserved": 0, "rental_uris": {"ios": "https://dc.lft.to/lastmile_qr_scan", "android": "https://dc.lft.to/lastmile_qr_scan"}, "name": "d5dcf1cc6666aa8db3461946c07e7d89", "bike_id": "d5dcf1cc6666aa8db3461946c07e7d89", "type": "electric_scooter", "lat": 38.90862683333334, "fusion_lon": 0.0, "is_disabled": 0, "fusion_lat": 0.0, "lon": -77.0859775}, {"is_reserved": 0, "rental_uris": {"ios": "https://dc.lft.to/lastmile_qr_scan", "android": "https://dc.lft.to/lastmile_qr_scan"}, "name": "e44b996f9cda73f2473a89d784eed3a8", "bike_id": "e44b996f9cda73f2473a89d784eed3a8", "type": "electric_scooter", "lat": 38.899587833333335, "fusion_lon": 0.0, "is_disabled": 0, "fusion_lat": 0.0, "lon": -77.04782466666667}, {"is_reserved": 0, "rental_uris": {"ios": "https://dc.lft.to/lastmile_qr_scan", "android": "https://dc.lft.to/lastmile_qr_scan"}, "name": "4abbbbaecc56cb9a278424b18191c26e", "bike_id": "4abbbbaecc56cb9a278424b18191c26e", "type": "electric_scooter", "lat": 38.930581333333336, "fusion_lon": 0.0, "is_disabled": 0, "fusion_lat": 0.0, "lon": -77.0418195}, {"is_reserved": 0, "rental_uris": {"ios": "https://dc.lft.to/lastmile_qr_scan", "android": "https://dc.lft.to/lastmile_qr_scan"}, "name": "f3ddaca39f7f2912bc184890d5e176fc", "bike_id": "f3ddaca39f7f2912bc184890d5e176fc", "type": "electric_scooter", "lat": 38.92056516666667, "fusion_lon": 0.0, "is_disabled": 0, "fusion_lat": 0.0, "lon": -77.04181133333333}, {"is_reserved": 0, "rental_uris": {"ios": "https://dc.lft.to/lastmile_qr_scan", "android": "https://dc.lft.to/lastmile_qr_scan"}, "name": "048414eed0812064fff65d17da4e8112", "bike_id": "048414eed0812064fff65d17da4e8112", "type": "electric_scooter", "lat": 38.874605, "fusion_lon": 0.0, "is_disabled": 0, "fusion_lat": 0.0, "lon": -77.009316}, {"is_reserved": 0, "rental_uris": {"ios": "https://dc.lft.to/lastmile_qr_scan", "android": "https://dc.lft.to/lastmile_qr_scan"}, "name": "7a97861de53d8e4ee25d236f46baff70", "bike_id": "7a97861de53d8e4ee25d236f46baff70", "type": "electric_scooter", "lat": 38.9052555, "fusion_lon": 0.0, "is_disabled": 0, "fusion_lat": 0.0, "lon": -77.0314135}, {"is_reserved": 0, "rental_uris": {"ios": "https://dc.lft.to/lastmile_qr_scan", "android": "https://dc.lft.to/lastmile_qr_scan"}, "name": "f97411c92ff0a4b62b05655b80816fc0", "bike_id": "f97411c92ff0a4b62b05655b80816fc0", "type": "electric_scooter", "lat": 38.899121666666666, "fusion_lon": 0.0, "is_disabled": 0, "fusion_lat": 0.0, "lon": -76.93351483333333}, {"is_reserved": 0, "rental_uris": {"ios": "https://dc.lft.to/lastmile_qr_scan", "android": "https://dc.lft.to/lastmile_qr_scan"}, "name": "901f47199c28928561fd2586e3feed1a", "bike_id": "901f47199c28928561fd2586e3feed1a", "type": "electric_scooter", "lat": 38.9074645, "fusion_lon": 0.0, "is_disabled": 0, "fusion_lat": 0.0, "lon": -77.0229755}, {"is_reserved": 0, "rental_uris": {"ios": "https://dc.lft.to/lastmile_qr_scan", "android": "https://dc.lft.to/lastmile_qr_scan"}, "name": "2db82869ca33e3ed276e5f26f9959f05", "bike_id": "2db82869ca33e3ed276e5f26f9959f05", "type": "electric_scooter", "lat": 38.9363305, "fusion_lon": 0.0, "is_disabled": 0, "fusion_lat": 0.0, "lon": -77.05882466666667}, {"is_reserved": 0, "rental_uris": {"ios": "https://dc.lft.to/lastmile_qr_scan", "android": "https://dc.lft.to/lastmile_qr_scan"}, "name": "742d78fcf6950db3d461b92660049cbb", "bike_id": "742d78fcf6950db3d461b92660049cbb", "type": "electric_scooter", "lat": 38.904972, "fusion_lon": 0.0, "is_disabled": 0, "fusion_lat": 0.0, "lon": -77.04369766666667}, {"is_reserved": 0, "rental_uris": {"ios": "https://dc.lft.to/lastmile_qr_scan", "android": "https://dc.lft.to/lastmile_qr_scan"}, "name": "3d987e82576600b9e4ccb8b501cf9a3d", "bike_id": "3d987e82576600b9e4ccb8b501cf9a3d", "type": "electric_scooter", "lat": 38.8605465, "fusion_lon": 0.0, "is_disabled": 0, "fusion_lat": 0.0, "lon": -77.05742983333333}, {"is_reserved": 0, "rental_uris": {"ios": "https://dc.lft.to/lastmile_qr_scan", "android": "https://dc.lft.to/lastmile_qr_scan"}, "name": "dc9ccf1c6fede56706a7f7ed00736805", "bike_id": "dc9ccf1c6fede56706a7f7ed00736805", "type": "electric_scooter", "lat": 38.916930666666666, "fusion_lon": 0.0, "is_disabled": 0, "fusion_lat": 0.0, "lon": -77.02742933333333}, {"is_reserved": 0, "rental_uris": {"ios": "https://dc.lft.to/lastmile_qr_scan", "android": "https://dc.lft.to/lastmile_qr_scan"}, "name": "405d84543b71c40f0c88b934a9b91a28", "bike_id": "405d84543b71c40f0c88b934a9b91a28", "type": "electric_scooter", "lat": 38.90528716666667, "fusion_lon": 0.0, "is_disabled": 0, "fusion_lat": 0.0, "lon": -77.04763683333333}, {"is_reserved": 0, "rental_uris": {"ios": "https://dc.lft.to/lastmile_qr_scan", "android": "https://dc.lft.to/lastmile_qr_scan"}, "name": "fa2b0646319e616d51d62e9d64d2b58f", "bike_id": "fa2b0646319e616d51d62e9d64d2b58f", "type": "electric_scooter", "lat": 38.92284566666667, "fusion_lon": 0.0, "is_disabled": 0, "fusion_lat": 0.0, "lon": -77.036609}, {"is_reserved": 0, "rental_uris": {"ios": "https://dc.lft.to/lastmile_qr_scan", "android": "https://dc.lft.to/lastmile_qr_scan"}, "name": "cc6fbbd54c549d2d0e8492252375b254", "bike_id": "cc6fbbd54c549d2d0e8492252375b254", "type": "electric_scooter", "lat": 38.92716333333333, "fusion_lon": 0.0, "is_disabled": 0, "fusion_lat": 0.0, "lon": -77.036402}, {"is_reserved": 0, "rental_uris": {"ios": "https://dc.lft.to/lastmile_qr_scan", "android": "https://dc.lft.to/lastmile_qr_scan"},