{"data": {"bikes": [{"type": "electric_scooter", "rental_uris": {"ios": "https://dc.lft.to/lastmile_qr_scan", "android": "https://dc.lft.to/lastmile_qr_scan"}, "lon": -77.0321925, "fusion_lon": 0.0, "is_disabled": 0, "lat": 38.918266, "bike_id": "18cdcf421a1b77876bc6cec979d6a376", "name": "18cdcf421a1b77876bc6cec979d6a376", "is_reserved": 0, "fusion_lat": 0.0}, {"type": "electric_scooter", "rental_uris": {"ios": "https://dc.lft.to/lastmile_qr_scan", "android": "https://dc.lft.to/lastmile_qr_scan"}, "lon": -77.00463516666667, "fusion_lon": 0.0, "is_disabled": 0, "lat": 38.876633166666664, "bike_id": "e4949684d95f2e73c5e7d23059a22e44", "name": "e4949684d95f2e73c5e7d23059a22e44", "is_reserved": 0, "fusion_lat": 0.0}, {"type": "electric_bike", "rental_uris": {"ios": "https://dc.lft.to/lastmile_qr_scan", "android": "https://dc.lft.to/lastmile_qr_scan"}, "lon": -76.91601133333333, "fusion_lon": 0.0, "is_disabled": 0, "lat": 38.879753666666666, "bike_id": "38ef5139bb5c569f7613096a052ebed2", "name": "38ef5139bb5c569f7613096a052ebed2", "is_reserved": 0, "fusion_lat": 0.0}, {"type": "electric_scooter", "rental_uris": {"ios": "https://dc.lft.to/lastmile_qr_scan", "android": "https://dc.lft.to/lastmile_qr_scan"}, "lon": -77.03870066666667, "fusion_lon": 0.0, "is_disabled": 0, "lat": 38.912666333333334, "bike_id": "d9c2ef4dc16017d2ba142c8d12e994a4", "name": "d9c2ef4dc16017d2ba142c8d12e994a4", "is_reserved": 0, "fusion_lat": 0.0}, {"type": "electric_scooter", "rental_uris": {"ios": "https://dc.lft.to/lastmile_qr_scan", "android": "https://dc.lft.to/lastmile_qr_scan"}, "lon": -77.03649266666666, "fusion_lon": 0.0, "is_disabled": 0, "lat": 38.91303933333333, "bike_id": "fa0689be174c33869746bc42de3663d9", "name": "fa0689be174c33869746bc42de3663d9", "is_reserved": 0, "fusion_lat": 0.0}, {"type": "electric_scooter", "rental_uris": {"ios": "https://dc.lft.to/lastmile_qr_scan", "android": "https://dc.lft.to/lastmile_qr_scan"}, "lon": -77.0318395, "fusion_lon": 0.0, "is_disabled": 0, "lat": 38.909807, "bike_id": "09f42fdb7d194f51b98cedcc67e41887", "name": "09f42fdb7d194f51b98cedcc67e41887", "is_reserved": 0, "fusion_lat": 0.0}, {"type": "electric_scooter", "rental_uris": {"ios": "https://dc.lft.to/lastmile_qr_scan", "android": "https://dc.lft.to/lastmile_qr_scan"}, "lon": -77.026948, "fusion_lon": 0.0, "is_disabled": 0, "lat": 38.92571516666667, "bike_id": "876f975ba24bc05d5558b7fae22c43af", "name": "876f975ba24bc05d5558b7fae22c43af", "is_reserved": 0, "fusion_lat": 0.0}, {"type": "electric_scooter", "rental_uris": {"ios": "https://dc.lft.to/lastmile_qr_scan", "android": "https://dc.lft.to/lastmile_qr_scan"}, "lon": -77.0234565, "fusion_lon": 0.0, "is_disabled": 0, "lat": 38.91775233333333, "bike_id": "ba0683de51151c26a218e618680481b8", "name": "ba0683de51151c26a218e618680481b8", "is_reserved": 0, "fusion_lat": 0.0}, {"type": "electric_bike", "rental_uris": {"ios": "https://dc.lft.to/lastmile_qr_scan", "android": "https://dc.lft.to/lastmile_qr_scan"}, "lon": -77.01205666666667, "fusion_lon": 0.0, "is_disabled": 0, "lat": 38.87090333333333, "bike_id": "b7036bcb5551a887c2a85563e0d7a548", "name": "b7036bcb5551a887c2a85563e0d7a548", "is_reserved": 0, "fusion_lat": 0.0}, {"type": "electric_scooter", "rental_uris": {"ios": "https://dc.lft.to/lastmile_qr_scan", "android": "https://dc.lft.to/lastmile_qr_scan"}, "lon": -77.04898866666667, "fusion_lon": 0.0, "is_disabled": 0, "lat": 38.892271, "bike_id": "e13175dfff265e5ea5b8059e5d4379cc", "name": "e13175dfff265e5ea5b8059e5d4379cc", "is_reserved": 0, "fusion_lat": 0.0}, {"type": "electric_scooter", "rental_uris": {"ios": "https://dc.lft.to/lastmile_qr_scan", "android": "https://dc.lft.to/lastmile_qr_scan"}, "lon": -76.98004966666667, "fusion_lon": 0.0, "is_disabled": 0, "lat": 38.90149783333333, "bike_id": "a288fa841c205172da3946a7bb900484", "name": "a288fa841c205172da3946a7bb900484", "is_reserved": 0, "fusion_lat": 0.0}, {"type": "electric_scooter", "rental_uris": {"ios": "https://dc.lft.to/lastmile_qr_scan", "android": "https://dc.lft.to/lastmile_qr_scan"}, "lon": -77.04011916666667, "fusion_lon": 0.0, "is_disabled": 0, "lat": 38.924435333333335, "bike_id": "4b82408a32d4c1209b04f4e5ef883107", "name": "4b82408a32d4c1209b04f4e5ef883107", "is_reserved": 0, "fusion_lat": 0.0}, {"type": "electric_scooter", "rental_uris": {"ios": "https://dc.lft.to/lastmile_qr_scan", "android": "https://dc.lft.to/lastmile_qr_scan"}, "lon": -77.05597, "fusion_lon": 0.0, "is_disabled": 0, "lat": 38.899789166666665, "bike_id": "8e6f1b317dcc3555b77654e34e0ae8fe", "name": "8e6f1b317dcc3555b77654e34e0ae8fe", "is_reserved": 0, "fusion_lat": 0.0}, {"type": "electric_bike", "rental_uris": {"ios": "https://dc.lft.to/lastmile_qr_scan", "android": "https://dc.lft.to/lastmile_qr_scan"}, "lon": -77.08115733333334, "fusion_lon": 0.0, "is_disabled": 0, "lat": 38.80686083333333, "bike_id": "c631a1de36784d6e89b510b05b37f44b", "name": "c631a1de36784d6e89b510b05b37f44b", "is_reserved": 0, "fusion_lat": 0.0}, {"type": "electric_scooter", "rental_uris": {"ios": "https://dc.lft.to/lastmile_qr_scan", "android": "https://dc.lft.to/lastmile_qr_scan"}, "lon": -77.00929983333333, "fusion_lon": 0.0, "is_disabled": 0, "lat": 38.883332333333335, "bike_id": "883d71b3d931a4ef87a6205b6dea81c5", "name": "883d71b3d931a4ef87a6205b6dea81c5", "is_reserved": 0, "fusion_lat": 0.0}, {"type": "electric_scooter", "rental_uris": {"ios": "https://dc.lft.to/lastmile_qr_scan", "android": "https://dc.lft.to/lastmile_qr_scan"}, "lon": -77.026976, "fusion_lon": 0.0, "is_disabled": 0, "lat": 38.906856833333336, "bike_id": "39ef90d28366ad30377fca8ebae37e7a", "name": "39ef90d28366ad30377fca8ebae37e7a", "is_reserved": 0, "fusion_lat": 0.0}, {"type": "electric_scooter", "rental_uris": {"ios": "https://dc.lft.to/lastmile_qr_scan", "android": "https://dc.lft.to/lastmile_qr_scan"}, "lon": -77.0319025, "fusion_lon": 0.0, "is_disabled": 0, "lat": 38.91408933333334, "bike_id": "443c37adfacf0139dec34611a8ffaec4", "name": "443c37adfacf0139dec34611a8ffaec4", "is_reserved": 0, "fusion_lat": 0.0}, {"type": "electric_bike", "rental_uris": {"ios": "https://dc.lft.to/lastmile_qr_scan", "android": "https://dc.lft.to/lastmile_qr_scan"}, "lon": -76.972388, "fusion_lon": 0.0, "is_disabled": 0, "lat": 38.94905133333334, "bike_id": "3e426fb3ef2d73e1fddeb8019d3110b1", "name": "3e426fb3ef2d73e1fddeb8019d3110b1", "is_reserved": 0, "fusion_lat": 0.0}, {"type": "electric_scooter", "rental_uris": {"ios": "https://dc.lft.to/lastmile_qr_scan", "android": "https://dc.lft.to/lastmile_qr_scan"}, "lon": -77.026258, "fusion_lon": 0.0, "is_disabled": 0, "lat": 38.89223783333333, "bike_id": "8e457766860ec356ab46d26e4c70c0a2", "name": "8e457766860ec356ab46d26e4c70c0a2", "is_reserved": 0, "fusion_lat": 0.0}, {"type": "electric_bike", "rental_uris": {"ios": "https://dc.lft.to/lastmile_qr_scan", "android": "https://dc.lft.to/lastmile_qr_scan"}, "lon": -77.118048, "fusion_lon": 0.0, "is_disabled": 0, "lat": 38.8737325, "bike_id": "8ea1e95f5f956a0238e38b80ee7abda9", "name": "8ea1e95f5f956a0238e38b80ee7abda9", "is_reserved": 0, "fusion_lat": 0.0}, {"type": "electric_bike", "rental_uris": {"ios": "https://dc.lft.to/lastmile_qr_scan", "android": "https://dc.lft.to/lastmile_qr_scan"}, "lon": -77.0402275, "fusion_lon": 0.0, "is_disabled": 0, "lat": 38.793178833333336, "bike_id": "f0a9d82d7e139fb2f1a8459fb945c146", "name": "f0a9d82d7e139fb2f1a8459fb945c146", "is_reserved": 0, "fusion_lat": 0.0}, {"type": "electric_scooter", "rental_uris": {"ios": "https://dc.lft.to/lastmile_qr_scan", "android": "https://dc.lft.to/lastmile_qr_scan"}, "lon": -77.02111083333334, "fusion_lon": 0.0, "is_disabled": 0, "lat": 38.940969833333334, "bike_id": "c7e57dad3c75b39f06ae5085167c9817", "name": "c7e57dad3c75b39f06ae5085167c9817", "is_reserved": 0, "fusion_lat": 0.0}, {"type": "electric_scooter", "rental_uris": {"ios": "https://dc.lft.to/lastmile_qr_scan", "android": "https://dc.lft.to/lastmile_qr_scan"}, "lon": -76.99517333333333, "fusion_lon": 0.0, "is_disabled": 0, "lat": 38.897303, "bike_id": "36a01abbf1f99a0b6466da4fd8d7915c", "name": "36a01abbf1f99a0b6466da4fd8d7915c", "is_reserved": 0, "fusion_lat": 0.0}, {"type": "electric_scooter", "rental_uris": {"ios": "https://dc.lft.to/lastmile_qr_scan", "android": "https://dc.lft.to/lastmile_qr_scan"}, "lon": -77.03241683333333, "fusion_lon": 0.0, "is_disabled": 0, "lat": 38.898914833333336, "bike_id": "515e131ca9abc31243e4a29935d10341", "name": "515e131ca9abc31243e4a29935d10341", "is_reserved": 0, "fusion_lat": 0.0}, {"type": "electric_scooter", "rental_uris": {"ios": "https://dc.lft.to/lastmile_qr_scan", "android": "https://dc.lft.to/lastmile_qr_scan"}, "lon": -77.03189083333334, "fusion_lon": 0.0, "is_disabled": 0, "lat": 38.913267833333336, "bike_id": "a76cca7a8605dff3c56d858309dc5659", "name": "a76cca7a8605dff3c56d858309dc5659", "is_reserved": 0, "fusion_lat": 0.0}, {"type": "electric_scooter", "rental_uris": {"ios": "https://dc.lft.to/lastmile_qr_scan", "android": "https://dc.lft.to/lastmile_qr_scan"}, "lon": -77.02832166666667, "fusion_lon": 0.0, "is_disabled": 0, "lat": 38.931920833333336, "bike_id": "5fc33e3d79026235e36b22d048978b59", "name": "5fc33e3d79026235e36b22d048978b59", "is_reserved": 0, "fusion_lat": 0.0}, {"type": "electric_bike", "rental_uris": {"ios": "https://dc.lft.to/lastmile_qr_scan", "android": "https://dc.lft.to/lastmile_qr_scan"}, "lon": -77.03673933333333, "fusion_lon": 0.0, "is_disabled": 0, "lat": 38.936572166666664, "bike_id": "2d040dafb9a74264f2b744d8813482ce", "name": "2d040dafb9a74264f2b744d8813482ce", "is_reserved": 0, "fusion_lat": 0.0}, {"type": "electric_scooter", "rental_uris": {"ios": "https://dc.lft.to/lastmile_qr_scan", "android": "https://dc.lft.to/lastmile_qr_scan"}, "lon": -77.03482016666666, "fusion_lon": 0.0, "is_disabled": 0, "lat": 38.92910966666667, "bike_id": "7d083d4b105cca5e3d4988608dd913d7", "name": "7d083d4b105cca5e3d4988608dd913d7", "is_reserved": 0, "fusion_lat": 0.0}, {"type": "electric_bike", "rental_uris": {"ios": "https://dc.lft.to/lastmile_qr_scan", "android": "https://dc.lft.to/lastmile_qr_scan"}, "lon": -77.08810033333333, "fusion_lon": 0.0, "is_disabled": 0, "lat": 38.8624015, "bike_id": "30f45bd300a40390aa0a7c5a1b67936e", "name": "30f45bd300a40390aa0a7c5a1b67936e", "is_reserved": 0, "fusion_lat": 0.0}, {"type": "electric_scooter", "rental_uris": {"ios": "https://dc.lft.to/lastmile_qr_scan", "android": "https://dc.lft.to/lastmile_qr_scan"}, "lon": -77.01375016666667, "fusion_lon": 0.0, "is_disabled": 0, "lat": 38.89221833333333, "bike_id": "61b4129779b5ae1d518ad91c91fd0480", "name": "61b4129779b5ae1d518ad91c91fd0480", "is_reserved": 0, "fusion_lat": 0.0}, {"type": "electric_scooter", "rental_uris": {"ios": "https://dc.lft.to/lastmile_qr_scan", "android": "https://dc.lft.to/lastmile_qr_scan"}, "lon": -76.99407866666667, "fusion_lon": 0.0, "is_disabled": 0, "lat": 38.87796433333333, "bike_id": "415dbf4d542ba3f9c7aff4996c786490", "name": "415dbf4d542ba3f9c7aff4996c786490", "is_reserved": 0, "fusion_lat": 0.0}, {"type": "electric_scooter", "rental_uris": {"ios": "https://dc.lft.to/lastmile_qr_scan", "android": "https://dc.lft.to/lastmile_qr_scan"}, "lon": -77.03593733333334, "fusion_lon": 0.0, "is_disabled": 0, "lat": 38.9330955, "bike_id": "6c0c004ebdda57788078bddf248e191a", "name": "6c0c004ebdda57788078bddf248e191a", "is_reserved": 0, "fusion_lat": 0.0}, {"type": "electric_bike", "rental_uris": {"ios": "https://dc.lft.to/lastmile_qr_scan", "android": "https://dc.lft.to/lastmile_qr_scan"}, "lon": -76.98795366666667, "fusion_lon": 0.0, "is_disabled": 0, "lat": 38.922155333333336, "bike_id": "cedea1ece13f9948f837984eed7607c7", "name": "cedea1ece13f9948f837984eed7607c7", "is_reserved": 0, "fusion_lat": 0.0}, {"type": "electric_scooter", "rental_uris": {"ios": "https://dc.lft.to/lastmile_qr_scan", "android": "https://dc.lft.to/lastmile_qr_scan"}, "lon": -77.0183625, "fusion_lon": 0.0, "is_disabled": 0, "lat": 38.90821866666667, "bike_id": "9b084d0fcbbdda33ee42c18d9b94b974", "name": "9b084d0fcbbdda33ee42c18d9b94b974", "is_reserved": 0, "fusion_lat": 0.0}, {"type": "electric_scooter", "rental_uris": {"ios": "https://dc.lft.to/lastmile_qr_scan", "android": "https://dc.lft.to/lastmile_qr_scan"}, "lon": -77.03141516666666, "fusion_lon": 0.0, "is_disabled": 0, "lat": 38.91563633333333, "bike_id": "89f1d9d1c294ceedb5f28ab29eb22be0", "name": "89f1d9d1c294ceedb5f28ab29eb22be0", "is_reserved": 0, "fusion_lat": 0.0}, {"type": "electric_scooter", "rental_uris": {"ios": "https://dc.lft.to/lastmile_qr_scan", "android": "https://dc.lft.to/lastmile_qr_scan"}, "lon": -77.0297945, "fusion_lon": 0.0, "is_disabled": 0, "lat": 38.916906833333336, "bike_id": "48e76e4cbc84ecb9304a5edfa71f1bf8", "name": "48e76e4cbc84ecb9304a5edfa71f1bf8", "is_reserved": 0, "fusion_lat": 0.0}, {"type": "electric_scooter", "rental_uris": {"ios": "https://dc.lft.to/lastmile_qr_scan", "android": "https://dc.lft.to/lastmile_qr_scan"}, "lon": -77.02276083333334, "fusion_lon": 0.0, "is_disabled": 0, "lat": 38.878374666666666, "bike_id": "a8b3efe8307ea90bfb7e61bf95d1a9c0", "name": "a8b3efe8307ea90bfb7e61bf95d1a9c0", "is_reserved": 0, "fusion_lat": 0.0}, {"type": "electric_bike", "rental_uris": {"ios": "https://dc.lft.to/lastmile_qr_scan", "android": "https://dc.lft.to/lastmile_qr_scan"}, "lon": -77.05041633333333, "fusion_lon": 0.0, "is_disabled": 0, "lat": 39.039092, "bike_id": "d04814267ef0a2f5fb66d3853b2335e1", "name": "d04814267ef0a2f5fb66d3853b2335e1", "is_reserved": 0, "fusion_lat": 0.0}, {"type": "electric_scooter", "rental_uris": {"ios": "https://dc.lft.to/lastmile_qr_scan", "android": "https://dc.lft.to/lastmile_qr_scan"}, "lon": -77.02590716666667, "fusion_lon": 0.0, "is_disabled": 0, "lat": 38.9419855, "bike_id": "57cc035f69659d1a781e2daa77afa439", "name": "57cc035f69659d1a781e2daa77afa439", "is_reserved": 0, "fusion_lat": 0.0}, {"type": "electric_scooter", "rental_uris": {"ios": "https://dc.lft.to/lastmile_qr_scan", "android": "https://dc.lft.to/lastmile_qr_scan"}, "lon": -77.02713383333334, "fusion_lon": 0.0, "is_disabled": 0, "lat": 38.906879, "bike_id": "663b24e5e858b8af29047960bd940424", "name": "663b24e5e858b8af29047960bd940424", "is_reserved": 0, "fusion_lat": 0.0}, {"type": "electric_scooter", "rental_uris": {"ios": "https://dc.lft.to/lastmile_qr_scan", "android": "https://dc.lft.to/lastmile_qr_scan"}, "lon": -76.98171683333334, "fusion_lon": 0.0, "is_disabled": 0, "lat": 38.8568175, "bike_id": "82cda794150570f8cc903f2828fac9c2", "name": "82cda794150570f8cc903f2828fac9c2", "is_reserved": 0, "fusion_lat": 0.0}, {"type": "electric_scooter", "rental_uris": {"ios": "https://dc.lft.to/lastmile_qr_scan", "android": "https://dc.lft.to/lastmile_qr_scan"}, "lon": -77.019694, "fusion_lon": 0.0, "is_disabled": 0, "lat": 38.92999833333333, "bike_id": "314ddc8ab874a3ca373334d0fbd507d8", "name": "314ddc8ab874a3ca373334d0fbd507d8", "is_reserved": 0, "fusion_lat": 0.0}, {"type": "electric_bike", "rental_uris": {"ios": "https://dc.lft.to/lastmile_qr_scan", "android": "https://dc.lft.to/lastmile_qr_scan"}, "lon": -76.997751, "fusion_lon": 0.0, "is_disabled": 0, "lat": 38.83744, "bike_id": "0625ad591964c2ea2c055c4661751d97", "name": "0625ad591964c2ea2c055c4661751d97", "is_reserved": 0, "fusion_lat": 0.0}, {"type": "electric_bike", "rental_uris": {"ios": "https://dc.lft.to/lastmile_qr_scan", "android": "https://dc.lft.to/lastmile_qr_scan"}, "lon": -76.99138616666667, "fusion_lon": 0.0, "is_disabled": 0, "lat": 38.8463525, "bike_id": "70ef55c88179dea182d16ad0ed26d1bc", "name": "70ef55c88179dea182d16ad0ed26d1bc", "is_reserved": 0, "fusion_lat": 0.0}, {"type": "electric_scooter", "rental_uris": {"ios": "https://dc.lft.to/lastmile_qr_scan", "android": "https://dc.lft.to/lastmile_qr_scan"}, "lon": -77.04291216666667, "fusion_lon": 0.0, "is_disabled": 0, "lat": 38.90125, "bike_id": "fa7ecc9bb2683cae4a1c688a12e6da55", "name": "fa7ecc9bb2683cae4a1c688a12e6da55", "is_reserved": 0, "fusion_lat": 0.0}, {"type": "electric_scooter", "rental_uris": {"ios": "https://dc.lft.to/lastmile_qr_scan", "android": "https://dc.lft.to/lastmile_qr_scan"}, "lon": -77.072726, "fusion_lon": 0.0, "is_disabled": 0, "lat": 38.93487733333333, "bike_id": "a5fdabe44562e82a286e493db86d7f57", "name": "a5fdabe44562e82a286e493db86d7f57", "is_reserved": 0, "fusion_lat": 0.0}, {"type": "electric_bike", "rental_uris": {"ios": "https://dc.lft.to/lastmile_qr_scan", "android": "https://dc.lft.to/lastmile_qr_scan"}, "lon": -77.056464, "fusion_lon": 0.0, "is_disabled": 0, "lat": 38.936873, "bike_id": "f3f1992b330f39f542826ef1e58c6a91", "name": "f3f1992b330f39f542826ef1e58c6a91", "is_reserved": 0, "fusion_lat": 0.0}, {"type": "electric_scooter", "rental_uris": {"ios": "https://dc.lft.to/lastmile_qr_scan", "android": "https://dc.lft.to/lastmile_qr_scan"}, "lon": -77.03740916666666, "fusion_lon": 0.0, "is_disabled": 0, "lat": 38.929417666666666, "bike_id": "9fc3e04eb89dfaaa54d9325fb8a3b441", "name": "9fc3e04eb89dfaaa54d9325fb8a3b441", "is_reserved": 0, "fusion_lat": 0.0}, {"type": "electric_scooter", "rental_uris": {"ios": "https://dc.lft.to/lastmile_qr_scan", "android": "https://dc.lft.to/lastmile_qr_scan"}, "lon": -77.02473516666667, "fusion_lon": 0.0, "is_disabled": 0, "lat": 38.9309715, "bike_id": "7e41d9b21a263e7a34ef7c10bfb838a4", "name": "7e41d9b21a263e7a34ef7c10bfb838a4", "is_reserved": 0, "fusion_lat": 0.0}, {"type": "electric_scooter", "rental_uris": {"ios": "https://dc.lft.to/lastmile_qr_scan", "android": "https://dc.lft.to/lastmile_qr_scan"}, "lon": -77.02221766666666, "fusion_lon": 0.0, "is_disabled": 0, "lat": 38.892204166666666, "bike_id": "4d5c7ff67505627b5e21f8a71678508d", "name": "4d5c7ff67505627b5e21f8a71678508d", "is_reserved": 0, "fusion_lat": 0.0}, {"type": "electric_scooter", "rental_uris": {"ios": "https://dc.lft.to/lastmile_qr_scan", "android": "https://dc.lft.to/lastmile_qr_scan"}, "lon": -77.04175983333333, "fusion_lon": 0.0, "is_disabled": 0, "lat": 38.9181095, "bike_id": "cfc7e64bd5804594dd864f9ec1377747", "name": "cfc7e64bd5804594dd864f9ec1377747", "is_reserved": 0, "fusion_lat": 0.0}, {"type": "electric_bike", "rental_uris": {"ios": "https://dc.lft.to/lastmile_qr_scan", "android": "https://dc.lft.to/lastmile_qr_scan"}, "lon": -77.208402, "fusion_lon": 0.0, "is_disabled": 0, "lat": 38.924668833333335, "bike_id": "94959f807b7ecfc440f4e7237b9e0ccf", "name": "94959f807b7ecfc440f4e7237b9e0ccf", "is_reserved": 0, "fusion_lat": 0.0}, {"type": "electric_scooter", "rental_uris": {"ios": "https://dc.lft.to/lastmile_qr_scan", "android": "https://dc.lft.to/lastmile_qr_scan"}, "lon": -76.99700216666666, "fusion_lon": 0.0, "is_disabled": 0, "lat": 38.908290666666666, "bike_id": "c0ba710c93702b013be8b6e236998373", "name": "c0ba710c93702b013be8b6e236998373", "is_reserved": 0, "fusion_lat": 0.0}, {"type": "electric_scooter", "rental_uris": {"ios": "https://dc.lft.to/lastmile_qr_scan", "android": "https://dc.lft.to/lastmile_qr_scan"}, "lon": -77.039032, "fusion_lon": 0.0, "is_disabled": 0, "lat": 38.902543, "bike_id": "fc05fb92d9615295641642d6d654c947", "name": "fc05fb92d9615295641642d6d654c947", "is_reserved": 0, "fusion_lat": 0.0}, {"type": "electric_scooter", "rental_uris": {"ios": "https://dc.lft.to/lastmile_qr_scan", "android": "https://dc.lft.to/lastmile_qr_scan"}, "lon": -77.03464516666666, "fusion_lon": 0.0, "is_disabled": 0, "lat": 38.90811933333333, "bike_id": "34c3ffbf7d9940db8f61bbb74a4f9ec0", "name": "34c3ffbf7d9940db8f61bbb74a4f9ec0", "is_reserved": 0, "fusion_lat": 0.0}, {"type": "electric_scooter", "rental_uris": {"ios": "https://dc.lft.to/lastmile_qr_scan", "android": "https://dc.lft.to/lastmile_qr_scan"}, "lon": -77.03231583333333, "fusion_lon": 0.0, "is_disabled": 0, "lat": 38.921788166666666, "bike_id": "ecdae0af15cc8dca6882a8767432053c", "name": "ecdae0af15cc8dca6882a8767432053c", "is_reserved": 0, "fusion_lat": 0.0}, {"type": "electric_bike", "rental_uris": {"ios": "https://dc.lft.to/lastmile_qr_scan", "android": "https://dc.lft.to/lastmile_qr_scan"}, "lon": -77.12662683333333, "fusion_lon": 0.0, "is_disabled": 0, "lat": 38.81514966666667, "bike_id": "fdb993c4f9b16e82b705a60680510055", "name": "fdb993c4f9b16e82b705a60680510055", "is_reserved": 0, "fusion_lat": 0.0}, {"type": "electric_scooter", "rental_uris": {"ios": "https://dc.lft.to/lastmile_qr_scan", "android": "https://dc.lft.to/lastmile_qr_scan"}, "lon": -77.03664733333333, "fusion_lon": 0.0, "is_disabled": 0, "lat": 38.922512833333336, "bike_id": "cb058410cf9941fb2f91e6eb42ed38c6", "name": "cb058410cf9941fb2f91e6eb42ed38c6", "is_reserved": 0, "fusion_lat": 0.0}, {"type": "electric_scooter", "rental_uris": {"ios": "https://dc.lft.to/lastmile_qr_scan", "android": "https://dc.lft.to/lastmile_qr_scan"}, "lon": -77.038973, "fusion_lon": 0.0, "is_disabled": 0, "lat": 38.917116, "bike_id": "4b0ace671ce2eb5d7872a44077faeaad", "name": "4b0ace671ce2eb5d7872a44077faeaad", "is_reserved": 0, "fusion_lat": 0.0}, {"type": "electric_scooter", "rental_uris": {"ios": "https://dc.lft.to/lastmile_qr_scan", "android": "https://dc.lft.to/lastmile_qr_scan"}, "lon": -77.00605816666666, "fusion_lon": 0.0, "is_disabled": 0, "lat": 38.87186966666667, "bike_id": "76f5d25b8c67d7c1d34b22eabec84d32", "name": "76f5d25b8c67d7c1d34b22eabec84d32", "is_reserved": 0, "fusion_lat": 0.0}, {"type": "electric_scooter", "rental_uris": {"ios": "https://dc.lft.to/lastmile_qr_scan", "android": "https://dc.lft.to/lastmile_qr_scan"}, "lon": -77.0219495, "fusion_lon": 0.0, "is_disabled": 0, "lat": 38.910833, "bike_id": "a7abc77e7b965bfbc4f43d489c749596", "name": "a7abc77e7b965bfbc4f43d489c749596", "is_reserved": 0, "fusion_lat": 0.0}, {"type": "electric_scooter", "rental_uris": {"ios": "https://dc.lft.to/lastmile_qr_scan", "android": "https://dc.lft.to/lastmile_qr_scan"}, "lon": -77.0400685, "fusion_lon": 0.0, "is_disabled": 0, "lat": 38.91562316666667, "bike_id": "6be87db684cce800f085272603605f30", "name": "6be87db684cce800f085272603605f30", "is_reserved": 0, "fusion_lat": 0.0}, {"type": "electric_scooter", "rental_uris": {"ios": "https://dc.lft.to/lastmile_qr_scan", "android": "https://dc.lft.to/lastmile_qr_scan"}, "lon": -77.03243733333333, "fusion_lon": 0.0, "is_disabled": 0, "lat": 38.91716483333333, "bike_id": "3820262f10417b37189d0d6e32408443", "name": "3820262f10417b37189d0d6e32408443", "is_reserved": 0, "fusion_lat": 0.0}, {"type": "electric_bike", "rental_uris": {"ios": "https://dc.lft.to/lastmile_qr_scan", "android": "https://dc.lft.to/lastmile_qr_scan"}, "lon": -77.1128665, "fusion_lon": 0.0, "is_disabled": 0, "lat": 38.83177366666666, "bike_id": "29b7c426e946f6df56222f4cea6f9403", "name": "29b7c426e946f6df56222f4cea6f9403", "is_reserved": 0, "fusion_lat": 0.0}, {"type": "electric_scooter", "rental_uris": {"ios": "https://dc.lft.to/lastmile_qr_scan", "android": "https://dc.lft.to/lastmile_qr_scan"}, "lon": -77.02438733333334, "fusion_lon": 0.0, "is_disabled": 0, "lat": 38.9225755, "bike_id": "359a38aa48d950d87130691e7d96e43e", "name": "359a38aa48d950d87130691e7d96e43e", "is_reserved": 0, "fusion_lat": 0.0}, {"type": "electric_scooter", "rental_uris": {"ios": "https://dc.lft.to/lastmile_qr_scan", "android": "https://dc.lft.to/lastmile_qr_scan"}, "lon": -77.04063616666667, "fusion_lon": 0.0, "is_disabled": 0, "lat": 38.91281383333333, "bike_id": "4d7ad501f4b52d2f7b70cf32e982bc54", "name": "4d7ad501f4b52d2f7b70cf32e982bc54", "is_reserved": 0, "fusion_lat": 0.0}, {"type": "electric_scooter", "rental_uris": {"ios": "https://dc.lft.to/lastmile_qr_scan", "android": "https://dc.lft.to/lastmile_qr_scan"}, "lon": -77.02130316666667, "fusion_lon": 0.0, "is_disabled": 0, "lat": 38.8874215, "bike_id": "a4afdbaaa47c3bf89e303f4a8efe9bcb", "name": "a4afdbaaa47c3bf89e303f4a8efe9bcb", "is_reserved": 0, "fusion_lat": 0.0}, {"type": "electric_scooter", "rental_uris": {"ios": "https://dc.lft.to/lastmile_qr_scan", "android": "https://dc.lft.to/lastmile_qr_scan"}, "lon": -77.023202, "fusion_lon": 0.0, "is_disabled": 0, "lat": 38.89222816666667, "bike_id": "c13c4569c6f0b80731d2c3a7bc2984ff", "name": "c13c4569c6f0b80731d2c3a7bc2984ff", "is_reserved": 0, "fusion_lat": 0.0}, {"type": "electric_scooter", "rental_uris": {"ios": "https://dc.lft.to/lastmile_qr_scan", "android": "https://dc.lft.to/lastmile_qr_scan"}, "lon": -76.96862266666666, "fusion_lon": 0.0, "is_disabled": 0, "lat": 38.870755833333334, "bike_id": "a1ebb8f1d9f13040d63b46c119179606", "name": "a1ebb8f1d9f13040d63b46c119179606", "is_reserved": 0, "fusion_lat": 0.0}, {"type": "electric_scooter", "rental_uris": {"ios": "https://dc.lft.to/lastmile_qr_scan", "android": "https://dc.lft.to/lastmile_qr_scan"}, "lon": -76.9986005, "fusion_lon": 0.0, "is_disabled": 0, "lat": 38.8811305, "bike_id": "1318bfc66b885eae6c4d14304b6741a5", "name": "1318bfc66b885eae6c4d14304b6741a5", "is_reserved": 0, "fusion_lat": 0.0}, {"type": "electric_scooter", "rental_uris": {"ios": "https://dc.lft.to/lastmile_qr_scan", "android": "https://dc.lft.to/lastmile_qr_scan"}, "lon": -76.9772395, "fusion_lon": 0.0, "is_disabled": 0, "lat": 38.87245516666667, "bike_id": "199ad857eb35b60757723b02b4cc9efc", "name": "199ad857eb35b60757723b02b4cc9efc", "is_reserved": 0, "fusion_lat": 0.0}, {"type": "electric_scooter", "rental_uris": {"ios": "https://dc.lft.to/lastmile_qr_scan", "android": "https://dc.lft.to/lastmile_qr_scan"}, "lon": -77.01225266666667, "fusion_lon": 0.0, "is_disabled": 0, "lat": 38.914970833333335, "bike_id": "12b090630b185c6e62c209457c2fd242", "name": "12b090630b185c6e62c209457c2fd242", "is_reserved": 0, "fusion_lat": 0.0}, {"type": "electric_scooter", "rental_uris": {"ios": "https://dc.lft.to/lastmile_qr_scan", "android": "https://dc.lft.to/lastmile_qr_scan"}, "lon": -77.0251055, "fusion_lon": 0.0, "is_disabled": 0, "lat": 38.92094516666667, "bike_id": "9d17a7a41bffa2e9f4168ef8d58c723f", "name": "9d17a7a41bffa2e9f4168ef8d58c723f", "is_reserved": 0, "fusion_lat": 0.0}, {"type": "electric_scooter", "rental_uris": {"ios": "https://dc.lft.to/lastmile_qr_scan", "android": "https://dc.lft.to/lastmile_qr_scan"}, "lon": -77.02720416666666, "fusion_lon": 0.0, "is_disabled": 0, "lat": 38.92481566666667, "bike_id": "936b16ef15d55d796fb11adfa4c19630", "name": "936b16ef15d55d796fb11adfa4c19630", "is_reserved": 0, "fusion_lat": 0.0}, {"type": "electric_scooter", "rental_uris": {"ios": "https://dc.lft.to/lastmile_qr_scan", "android": "https://dc.lft.to/lastmile_qr_scan"}, "lon": -77.00958216666666, "fusion_lon": 0.0, "is_disabled": 0, "lat": 38.907941666666666, "bike_id": "54a23bb2342a8f0dc3eb5555c522b060", "name": "54a23bb2342a8f0dc3eb5555c522b060", "is_reserved": 0, "fusion_lat": 0.0}, {"type": "electric_scooter", "rental_uris": {"ios": "https://dc.lft.to/lastmile_qr_scan", "android": "https://dc.lft.to/lastmile_qr_scan"}, "lon": -77.03279733333333, "fusion_lon": 0.0, "is_disabled": 0, "lat": 38.9274195, "bike_id": "2951c2ad46eff87ad5d3489c19f39b3b", "name": "2951c2ad46eff87ad5d3489c19f39b3b", "is_reserved": 0, "fusion_lat": 0.0}, {"type": "electric_scooter", "rental_uris": {"ios": "https://dc.lft.to/lastmile_qr_scan", "android": "https://dc.lft.to/lastmile_qr_scan"}, "lon": -76.99776583333333, "fusion_lon": 0.0, "is_disabled": 0, "lat": 38.84435766666667, "bike_id": "1aa0e3130b76aab8c0bc6960c0986247", "name": "1aa0e3130b76aab8c0bc6960c0986247", "is_reserved": 0, "fusion_lat": 0.0}, {"type": "electric_scooter", "rental_uris": {"ios": "https://dc.lft.to/lastmile_qr_scan", "android": "https://dc.lft.to/lastmile_qr_scan"}, "lon": -77.03430333333333, "fusion_lon": 0.0, "is_disabled": 0, "lat": 38.907889, "bike_id": "5c5dc9b1f97a148d1cc3327acd3564aa", "name": "5c5dc9b1f97a148d1cc3327acd3564aa", "is_reserved": 0, "fusion_lat": 0.0}, {"type": "electric_scooter", "rental_uris": {"ios": "https://dc.lft.to/lastmile_qr_scan", "android": "https://dc.lft.to/lastmile_qr_scan"}, "lon": -77.04771766666667, "fusion_lon": 0.0, "is_disabled": 0, "lat": 38.908617666666665, "bike_id": "ca7b0ae6a1342f93047d3200ad05e37d", "name": "ca7b0ae6a1342f93047d3200ad05e37d", "is_reserved": 0, "fusion_lat": 0.0}, {"type": "electric_scooter", "rental_uris": {"ios": "https://dc.lft.to/lastmile_qr_scan", "android": "https://dc.lft.to/lastmile_qr_scan"}, "lon": -76.98960933333333, "fusion_lon": 0.0, "is_disabled": 0, "lat": 38.909445, "bike_id": "d093b4c89d006a53e2d54918a9bcd33c", "name": "d093b4c89d006a53e2d54918a9bcd33c", "is_reserved": 0, "fusion_lat": 0.0}, {"type": "electric_scooter", "rental_uris": {"ios": "https://dc.lft.to/lastmile_qr_scan", "android": "https://dc.lft.to/lastmile_qr_scan"}, "lon": -76.93759333333334, "fusion_lon": 0.0, "is_disabled": 0, "lat": 38.89046783333333, "bike_id": "ee0f4e7f3d9d939e150fb11b6de58155", "name": "ee0f4e7f3d9d939e150fb11b6de58155", "is_reserved": 0, "fusion_lat": 0.0}, {"type": "electric_scooter", "rental_uris": {"ios": "https://dc.lft.to/lastmile_qr_scan", "android": "https://dc.lft.to/lastmile_qr_scan"}, "lon": -77.034445, "fusion_lon": 0.0, "is_disabled": 0, "lat": 38.90738, "bike_id": "3e9ef94446233713960783dc06587256", "name": "3e9ef94446233713960783dc06587256", "is_reserved": 0, "fusion_lat": 0.0}, {"type": "electric_scooter", "rental_uris": {"ios": "https://dc.lft.to/lastmile_qr_scan", "android": "https://dc.lft.to/lastmile_qr_scan"}, "lon": -77.01111533333334, "fusion_lon": 0.0, "is_disabled": 0, "lat": 38.903545333333334, "bike_id": "a397272e547ddc669737d8b34c599462", "name": "a397272e547ddc669737d8b34c599462", "is_reserved": 0, "fusion_lat": 0.0}, {"type": "electric_scooter", "rental_uris": {"ios": "https://dc.lft.to/lastmile_qr_scan", "android": "https://dc.lft.to/lastmile_qr_scan"}, "lon": -77.02561283333333, "fusion_lon": 0.0, "is_disabled": 0, "lat": 38.92378716666666, "bike_id": "3860dffcc6aac3df9f69c504cc8ac0c4", "name": "3860dffcc6aac3df9f69c504cc8ac0c4", "is_reserved": 0, "fusion_lat": 0.0}, {"type": "electric_scooter", "rental_uris": {"ios": "https://dc.lft.to/lastmile_qr_scan", "android": "https://dc.lft.to/lastmile_qr_scan"}, "lon": -76.98359483333333, "fusion_lon": 0.0, "is_disabled": 0, "lat": 38.88747083333333, "bike_id": "bc19317b01e7c3c093139deb88b7c82f", "name": "bc19317b01e7c3c093139deb88b7c82f", "is_reserved": 0, "fusion_lat": 0.0}, {"type": "electric_bike", "rental_uris": {"ios": "https://dc.lft.to/lastmile_qr_scan", "android": "https://dc.lft.to/lastmile_qr_scan"}, "lon": -76.9758045, "fusion_lon": 0.0, "is_disabled": 0, "lat": 38.840338333333335, "bike_id": "1f94d2efe8193c3b3eb38c4840bc8121", "name": "1f94d2efe8193c3b3eb38c4840bc8121", "is_reserved": 0, "fusion_lat": 0.0}, {"type": "electric_scooter", "rental_uris": {"ios": "https://dc.lft.to/lastmile_qr_scan", "android": "https://dc.lft.to/lastmile_qr_scan"}, "lon": -77.05809133333334, "fusion_lon": 0.0, "is_disabled": 0, "lat": 38.90287333333333, "bike_id": "4bf7e6d91fef4c8413f903e6b145319f", "name": "4bf7e6d91fef4c8413f903e6b145319f", "is_reserved": 0, "fusion_lat": 0.0}, {"type": "electric_scooter", "rental_uris": {"ios": "https://dc.lft.to/lastmile_qr_scan", "android": "https://dc.lft.to/lastmile_qr_scan"}, "lon": -77.0403185, "fusion_lon": 0.0, "is_disabled": 0, "lat": 38.92445216666667, "bike_id": "3b07fc4253e67e439131c9dcf38e929f", "name": "3b07fc4253e67e439131c9dcf38e929f", "is_reserved": 0, "fusion_lat": 0.0}, {"type": "electric_scooter", "rental_uris": {"ios": "https://dc.lft.to/lastmile_qr_scan", "android": "https://dc.lft.to/lastmile_qr_scan"}, "lon": -76.98713083333334, "fusion_lon": 0.0, "is_disabled": 0, "lat": 38.867003, "bike_id": "1beb41c50d43822c25b543eba34eb5c0", "name": "1beb41c50d43822c25b543eba34eb5c0", "is_reserved": 0, "fusion_lat": 0.0}, {"type": "electric_scooter", "rental_uris": {"ios": "https://dc.lft.to/lastmile_qr_scan", "android": "https://dc.lft.to/lastmile_qr_scan"}, "lon": -77.03253916666667, "fusion_lon": 0.0, "is_disabled": 0, "lat": 38.90453, "bike_id": "ea98ff09019875e619cae24cd7de4071", "name": "ea98ff09019875e619cae24cd7de4071", "is_reserved": 0, "fusion_lat": 0.0}, {"type": "electric_bike", "rental_uris": {"ios": "https://dc.lft.to/lastmile_qr_scan", "android": "https://dc.lft.to/lastmile_qr_scan"}, "lon": -76.995642, "fusion_lon": 0.0, "is_disabled": 0, "lat": 38.88475, "bike_id": "7ad47be8ee4c00438aefcee51cbee761", "name": "7ad47be8ee4c00438aefcee51cbee761", "is_reserved": 0, "fusion_lat": 0.0}, {"type": "electric_scooter", "rental_uris": {"ios": "https://dc.lft.to/lastmile_qr_scan", "android": "https://dc.lft.to/lastmile_qr_scan"}, "lon": -77.07300533333333, "fusion_lon": 0.0, "is_disabled": 0, "lat": 38.93527683333333, "bike_id": "b5dd7523ccf1b2a3a2e70aaa5bb22d69", "name": "b5dd7523ccf1b2a3a2e70aaa5bb22d69", "is_reserved": 0, "fusion_lat": 0.0}, {"type": "electric_scooter", "rental_uris": {"ios": "https://dc.lft.to/lastmile_qr_scan", "android": "https://dc.lft.to/lastmile_qr_scan"}, "lon": -77.0271355, "fusion_lon": 0.0, "is_disabled": 0, "lat": 38.9008085, "bike_id": "3172d00ae32b60c80be56a6613daa56f", "name": "3172d00ae32b60c80be56a6613daa56f", "is_reserved": 0, "fusion_lat": 0.0}, {"type": "electric_scooter", "rental_uris": {"ios": "https://dc.lft.to/lastmile_qr_scan", "android": "https://dc.lft.to/lastmile_qr_scan"}, "lon": -77.01140133333334, "fusion_lon": 0.0, "is_disabled": 0, "lat": 38.9064615, "bike_id": "683d34468580a119c41b989c9f66dca6", "name": "683d34468580a119c41b989c9f66dca6", "is_reserved": 0, "fusion_lat": 0.0}, {"type": "electric_scooter", "rental_uris": {"ios": "https://dc.lft.to/lastmile_qr_scan", "android": "https://dc.lft.to/lastmile_qr_scan"}, "lon": -76.99946933333334, "fusion_lon": 0.0, "is_disabled": 0, "lat": 38.842956, "bike_id": "b1e61b629c7bc52ba3bfeaeb61c6fbdf", "name": "b1e61b629c7bc52ba3bfeaeb61c6fbdf", "is_reserved": 0, "fusion_lat": 0.0}, {"type": "electric_scooter", "rental_uris": {"ios": "https://dc.lft.to/lastmile_qr_scan", "android": "https://dc.lft.to/lastmile_qr_scan"}, "lon": -77.0217645, "fusion_lon": 0.0, "is_disabled": 0, "lat": 38.906238333333334, "bike_id": "59b4a1efa2c108298473bb2fe36053a8", "name": "59b4a1efa2c108298473bb2fe36053a8", "is_reserved": 0, "fusion_lat": 0.0}, {"type": "electric_scooter", "rental_uris": {"ios": "https://dc.lft.to/lastmile_qr_scan", "android": "https://dc.lft.to/lastmile_qr_scan"}, "lon": -77.04251916666666, "fusion_lon": 0.0, "is_disabled": 0, "lat": 38.92202483333333, "bike_id": "d0006b6d6d383933df5018f0399f87f0", "name": "d0006b6d6d383933df5018f0399f87f0", "is_reserved": 0, "fusion_lat": 0.0}, {"type": "electric_scooter", "rental_uris": {"ios": "https://dc.lft.to/lastmile_qr_scan", "android": "https://dc.lft.to/lastmile_qr_scan"}, "lon": -77.0513295, "fusion_lon": 0.0, "is_disabled": 0, "lat": 38.923631, "bike_id": "41bc8c1471e7c61d335df3f33569b153", "name": "41bc8c1471e7c61d335df3f33569b153", "is_reserved": 0, "fusion_lat": 0.0}, {"type": "electric_scooter", "rental_uris": {"ios": "https://dc.lft.to/lastmile_qr_scan", "android": "https://dc.lft.to/lastmile_qr_scan"}, "lon": -77.00699133333333, "fusion_lon": 0.0, "is_disabled": 0, "lat": 38.905681333333334, "bike_id": "320fff3f4e6765ae1a75d63e888a473b", "name": "320fff3f4e6765ae1a75d63e888a473b", "is_reserved": 0, "fusion_lat": 0.0}, {"type": "electric_scooter", "rental_uris": {"ios": "https://dc.lft.to/lastmile_qr_scan", "android": "https://dc.lft.to/lastmile_qr_scan"}, "lon": -76.94987616666667, "fusion_lon": 0.0, "is_disabled": 0, "lat": 38.89407466666667, "bike_id": "e5f89d52afdc6e928887080bd040ec69", "name": "e5f89d52afdc6e928887080bd040ec69", "is_reserved": 0, "fusion_lat": 0.0}, {"type": "electric_scooter", "rental_uris": {"ios": "https://dc.lft.to/lastmile_qr_scan", "android": "https://dc.lft.to/lastmile_qr_scan"}, "lon": -77.03149766666667, "fusion_lon": 0.0, "is_disabled": 0, "lat": 38.911136, "bike_id": "243663a6f6907b80fb7270526afe0416", "name": "243663a6f6907b80fb7270526afe0416", "is_reserved": 0, "fusion_lat": 0.0}, {"type": "electric_scooter", "rental_uris": {"ios": "https://dc.lft.to/lastmile_qr_scan", "android": "https://dc.lft.to/lastmile_qr_scan"}, "lon": -77.0402845, "fusion_lon": 0.0, "is_disabled": 0, "lat": 38.9180545, "bike_id": "c41d005f2fd9f5ad649336d45ecf9fc9", "name": "c41d005f2fd9f5ad649336d45ecf9fc9", "is_reserved": 0, "fusion_lat": 0.0}, {"type": "electric_scooter", "rental_uris": {"ios": "https://dc.lft.to/lastmile_qr_scan", "android": "https://dc.lft.to/lastmile_qr_scan"}, "lon": -77.038412, "fusion_lon": 0.0, "is_disabled": 0, "lat": 38.91759366666667, "bike_id": "b728f3a77ef231164c820ed5c39f884f", "name": "b728f3a77ef231164c820ed5c39f884f", "is_reserved": 0, "fusion_lat": 0.0}, {"type": "electric_scooter", "rental_uris": {"ios": "https://dc.lft.to/lastmile_qr_scan", "android": "https://dc.lft.to/lastmile_qr_scan"}, "lon": -77.0551995, "fusion_lon": 0.0, "is_disabled": 0, "lat": 38.9440915, "bike_id": "2a2810c3a53540e9eabc7c442040c056", "name": "2a2810c3a53540e9eabc7c442040c056", "is_reserved": 0, "fusion_lat": 0.0}, {"type": "electric_scooter", "rental_uris": {"ios": "https://dc.lft.to/lastmile_qr_scan", "android": "https://dc.lft.to/lastmile_qr_scan"}, "lon": -77.02799866666666, "fusion_lon": 0.0, "is_disabled": 0, "lat": 38.8923285, "bike_id": "873ac50f6998e78f629bdd9b2a5acdaa", "name": "873ac50f6998e78f629bdd9b2a5acdaa", "is_reserved": 0, "fusion_lat": 0.0}, {"type": "electric_scooter", "rental_uris": {"ios": "https://dc.lft.to/lastmile_qr_scan", "android": "https://dc.lft.to/lastmile_qr_scan"}, "lon": -77.04478916666666, "fusion_lon": 0.0, "is_disabled": 0, "lat": 38.91110483333333, "bike_id": "b9eede92f419ae9fb715e09f80112f1b", "name": "b9eede92f419ae9fb715e09f80112f1b", "is_reserved": 0, "fusion_lat": 0.0}, {"type": "electric_scooter", "rental_uris": {"ios": "https://dc.lft.to/lastmile_qr_scan", "android": "https://dc.lft.to/lastmile_qr_scan"}, "lon": -77.033788, "fusion_lon": 0.0, "is_disabled": 0, "lat": 38.9097615, "bike_id": "d3467e5a408902235c22e9cae21c0e30", "name": "d3467e5a408902235c22e9cae21c0e30", "is_reserved": 0, "fusion_lat": 0.0}, {"type": "electric_scooter", "rental_uris": {"ios": "https://dc.lft.to/lastmile_qr_scan", "android": "https://dc.lft.to/lastmile_qr_scan"}, "lon": -77.02006216666666, "fusion_lon": 0.0, "is_disabled": 0, "lat": 38.915668833333335, "bike_id": "cf32642393378a55826509f4766f4c78", "name": "cf32642393378a55826509f4766f4c78", "is_reserved": 0, "fusion_lat": 0.0}, {"type": "electric_scooter", "rental_uris": {"ios": "https://dc.lft.to/lastmile_qr_scan", "android": "https://dc.lft.to/lastmile_qr_scan"}, "lon": -77.02623516666667, "fusion_lon": 0.0, "is_disabled": 0, "lat": 38.89223783333333, "bike_id": "128501e73a08f25f733df0b616aef83d", "name": "128501e73a08f25f733df0b616aef83d", "is_reserved": 0, "fusion_lat": 0.0}, {"type": "electric_scooter", "rental_uris": {"ios": "https://dc.lft.to/lastmile_qr_scan", "android": "https://dc.lft.to/lastmile_qr_scan"}, "lon": -77.046957, "fusion_lon": 0.0, "is_disabled": 0, "lat": 38.909656166666664, "bike_id": "14d9f3701299331069de687ff41bf80a", "name": "14d9f3701299331069de687ff41bf80a", "is_reserved": 0, "fusion_lat": 0.0}, {"type": "electric_scooter", "rental_uris": {"ios": "https://dc.lft.to/lastmile_qr_scan", "android": "https://dc.lft.to/lastmile_qr_scan"}, "lon": -77.04019516666666, "fusion_lon": 0.0, "is_disabled": 0, "lat": 38.918395, "bike_id": "1d1c361c3fa6b52ce76b83d5b239b432", "name": "1d1c361c3fa6b52ce76b83d5b239b432", "is_reserved": 0, "fusion_lat": 0.0}, {"type": "electric_scooter", "rental_uris": {"ios": "https://dc.lft.to/lastmile_qr_scan", "android": "https://dc.lft.to/lastmile_qr_scan"}, "lon": -77.02675216666667, "fusion_lon": 0.0, "is_disabled": 0, "lat": 38.917040166666666, "bike_id": "00bf7e0cbab11e0fe04bc495b137459f", "name": "00bf7e0cbab11e0fe04bc495b137459f", "is_reserved": 0, "fusion_lat": 0.0}, {"type": "electric_scooter", "rental_uris": {"ios": "https://dc.lft.to/lastmile_qr_scan", "android": "https://dc.lft.to/lastmile_qr_scan"}, "lon": -77.033423, "fusion_lon": 0.0, "is_disabled": 0, "lat": 38.89223666666667, "bike_id": "74d3f52214b8caec94cfc5a4464c2635", "name": "74d3f52214b8caec94cfc5a4464c2635", "is_reserved": 0, "fusion_lat": 0.0}, {"type": "electric_scooter", "rental_uris": {"ios": "https://dc.lft.to/lastmile_qr_scan", "android": "https://dc.lft.to/lastmile_qr_scan"}, "lon": -77.04112583333334, "fusion_lon": 0.0, "is_disabled": 0, "lat": 38.916981166666666, "bike_id": "3336bbd513009b97f41dc56fd462a76d", "name": "3336bbd513009b97f41dc56fd462a76d", "is_reserved": 0, "fusion_lat": 0.0}, {"type": "electric_scooter", "rental_uris": {"ios": "https://dc.lft.to/lastmile_qr_scan", "android": "https://dc.lft.to/lastmile_qr_scan"}, "lon": -77.0384395, "fusion_lon": 0.0, "is_disabled": 0, "lat": 38.917599333333335, "bike_id": "f6cf3028a48faa9de40a334497b07e4f", "name": "f6cf3028a48faa9de40a334497b07e4f", "is_reserved": 0, "fusion_lat": 0.0}, {"type": "electric_scooter", "rental_uris": {"ios": "https://dc.lft.to/lastmile_qr_scan", "android": "https://dc.lft.to/lastmile_qr_scan"}, "lon": -76.91910216666666, "fusion_lon": 0.0, "is_disabled": 0, "lat": 38.88577633333333, "bike_id": "89625b8c6ab08cb4e668fbe98153a73f", "name": "89625b8c6ab08cb4e668fbe98153a73f", "is_reserved": 0, "fusion_lat": 0.0}, {"type": "electric_scooter", "rental_uris": {"ios": "https://dc.lft.to/lastmile_qr_scan", "android": "https://dc.lft.to/lastmile_qr_scan"}, "lon": -77.03840566666666, "fusion_lon": 0.0, "is_disabled": 0, "lat": 38.917590833333335, "bike_id": "8f5b03ffc37d3111f619f53de81bc808", "name": "8f5b03ffc37d3111f619f53de81bc808", "is_reserved": 0, "fusion_lat": 0.0}, {"type": "electric_scooter", "rental_uris": {"ios": "https://dc.lft.to/lastmile_qr_scan", "android": "https://dc.lft.to/lastmile_qr_scan"}, "lon": -77.034112, "fusion_lon": 0.0, "is_disabled": 0, "lat": 38.927414, "bike_id": "c31d29df40baf51cb8ce40d28c476a6c", "name": "c31d29df40baf51cb8ce40d28c476a6c", "is_reserved": 0, "fusion_lat": 0.0}, {"type": "electric_scooter", "rental_uris": {"ios": "https://dc.lft.to/lastmile_qr_scan", "android": "https://dc.lft.to/lastmile_qr_scan"}, "lon": -77.03473383333333, "fusion_lon": 0.0, "is_disabled": 0, "lat": 38.929882666666664, "bike_id": "0686bb6ca4686a58c7a4375d7bdfc90a", "name": "0686bb6ca4686a58c7a4375d7bdfc90a", "is_reserved": 0, "fusion_lat": 0.0}, {"type": "electric_scooter", "rental_uris": {"ios": "https://dc.lft.to/lastmile_qr_scan", "android": "https://dc.lft.to/lastmile_qr_scan"}, "lon": -77.03165466666667, "fusion_lon": 0.0, "is_disabled": 0, "lat": 38.892222333333336, "bike_id": "0a613643cc236197b1f11bc0d83328af", "name": "0a613643cc236197b1f11bc0d83328af", "is_reserved": 0, "fusion_lat": 0.0}, {"type": "electric_scooter", "rental_uris": {"ios": "https://dc.lft.to/lastmile_qr_scan", "android": "https://dc.lft.to/lastmile_qr_scan"}, "lon": -76.99360883333334, "fusion_lon": 0.0, "is_disabled": 0, "lat": 38.928394833333336, "bike_id": "7cd9049479bfc1c69fc3d4698ccf18d7", "name": "7cd9049479bfc1c69fc3d4698ccf18d7", "is_reserved": 0, "fusion_lat": 0.0}, {"type": "electric_scooter", "rental_uris": {"ios": "https://dc.lft.to/lastmile_qr_scan", "android": "https://dc.lft.to/lastmile_qr_scan"}, "lon": -77.03173366666667, "fusion_lon": 0.0, "is_disabled": 0, "lat": 38.9212475, "bike_id": "52e490fcced25e9bfa76e06e2f81eaf8", "name": "52e490fcced25e9bfa76e06e2f81eaf8", "is_reserved": 0, "fusion_lat": 0.0}, {"type": "electric_scooter", "rental_uris": {"ios": "https://dc.lft.to/lastmile_qr_scan", "android": "https://dc.lft.to/lastmile_qr_scan"}, "lon": -77.042624, "fusion_lon": 0.0, "is_disabled": 0, "lat": 38.91333733333333, "bike_id": "f7935a5769b7d18ce63672e299bd3a22", "name": "f7935a5769b7d18ce63672e299bd3a22", "is_reserved": 0, "fusion_lat": 0.0}, {"type": "electric_scooter", "rental_uris": {"ios": "https://dc.lft.to/lastmile_qr_scan", "android": "https://dc.lft.to/lastmile_qr_scan"}, "lon": -77.04670783333333, "fusion_lon": 0.0, "is_disabled": 0, "lat": 38.909516333333336, "bike_id": "36928c735f1d3aaebeec79941e15b5d8", "name": "36928c735f1d3aaebeec79941e15b5d8", "is_reserved": 0, "fusion_lat": 0.0}, {"type": "electric_scooter", "rental_uris": {"ios": "https://dc.lft.to/lastmile_qr_scan", "android": "https://dc.lft.to/lastmile_qr_scan"}, "lon": -77.03744, "fusion_lon": 0.0, "is_disabled": 0, "lat": 38.93084666666667, "bike_id": "7540b3cb937fd6fd0d8e8bb71b3ce98d", "name": "7540b3cb937fd6fd0d8e8bb71b3ce98d", "is_reserved": 0, "fusion_lat": 0.0}, {"type": "electric_scooter", "rental_uris": {"ios": "https://dc.lft.to/lastmile_qr_scan", "android": "https://dc.lft.to/lastmile_qr_scan"}, "lon": -76.97926666666666, "fusion_lon": 0.0, "is_disabled": 0, "lat": 38.9049995, "bike_id": "97c6432b9688ab5082c742c9b3721c48", "name": "97c6432b9688ab5082c742c9b3721c48", "is_reserved": 0, "fusion_lat": 0.0}, {"type": "electric_scooter", "rental_uris": {"ios": "https://dc.lft.to/lastmile_qr_scan", "android": "https://dc.lft.to/lastmile_qr_scan"}, "lon": -77.03181733333334, "fusion_lon": 0.0, "is_disabled": 0, "lat": 38.91870333333333, "bike_id": "e0252fe6bb5cf12b36eb765d9bed91a2", "name": "e0252fe6bb5cf12b36eb765d9bed91a2", "is_reserved": 0, "fusion_lat": 0.0}, {"type": "electric_scooter", "rental_uris": {"ios": "https://dc.lft.to/lastmile_qr_scan", "android": "https://dc.lft.to/lastmile_qr_scan"}, "lon": -77.0322305, "fusion_lon": 0.0, "is_disabled": 0, "lat": 38.892219, "bike_id": "00466c478905ece3f9a7e31a3de2f8e1", "name": "00466c478905ece3f9a7e31a3de2f8e1", "is_reserved": 0, "fusion_lat": 0.0}, {"type": "electric_scooter", "rental_uris": {"ios": "https://dc.lft.to/lastmile_qr_scan", "android": "https://dc.lft.to/lastmile_qr_scan"}, "lon": -77.0383335, "fusion_lon": 0.0, "is_disabled": 0, "lat": 38.911203, "bike_id": "3fa71290f9d5bf4ca8b45a2f13177e03", "name": "3fa71290f9d5bf4ca8b45a2f13177e03", "is_reserved": 0, "fusion_lat": 0.0}, {"type": "electric_scooter", "rental_uris": {"ios": "https://dc.lft.to/lastmile_qr_scan", "android": "https://dc.lft.to/lastmile_qr_scan"}, "lon": -77.03219816666666, "fusion_lon": 0.0, "is_disabled": 0, "lat": 38.89218916666667, "bike_id": "3abc940d9c7fd7a6959c71142574c7d3", "name": "3abc940d9c7fd7a6959c71142574c7d3", "is_reserved": 0, "fusion_lat": 0.0}, {"type": "electric_scooter", "rental_uris": {"ios": "https://dc.lft.to/lastmile_qr_scan", "android": "https://dc.lft.to/lastmile_qr_scan"}, "lon": -77.04493, "fusion_lon": 0.0, "is_disabled": 0, "lat": 38.907824166666664, "bike_id": "aa3790a36397ddd0273184380a8518b2", "name": "aa3790a36397ddd0273184380a8518b2", "is_reserved": 0, "fusion_lat": 0.0}, {"type": "electric_scooter", "rental_uris": {"ios": "https://dc.lft.to/lastmile_qr_scan", "android": "https://dc.lft.to/lastmile_qr_scan"}, "lon": -77.0424005, "fusion_lon": 0.0, "is_disabled": 0, "lat": 38.9221605, "bike_id": "0da0e6f3bacf7e6873fc89b2403e2567", "name": "0da0e6f3bacf7e6873fc89b2403e2567", "is_reserved": 0, "fusion_lat": 0.0}, {"type": "electric_bike", "rental_uris": {"ios": "https://dc.lft.to/lastmile_qr_scan", "android": "https://dc.lft.to/lastmile_qr_scan"}, "lon": -76.95992483333333, "fusion_lon": 0.0, "is_disabled": 0, "lat": 38.86995816666666, "bike_id": "0b290a5b510b1e15abfc5c2add73cc6c", "name": "0b290a5b510b1e15abfc5c2add73cc6c", "is_reserved": 0, "fusion_lat": 0.0}, {"type": "electric_scooter", "rental_uris": {"ios": "https://dc.lft.to/lastmile_qr_scan", "android": "https://dc.lft.to/lastmile_qr_scan"}, "lon": -77.03210483333334, "fusion_lon": 0.0, "is_disabled": 0, "lat": 38.91759316666667, "bike_id": "ec6faad89ae496d16130197c6d6c2ba5", "name": "ec6faad89ae496d16130197c6d6c2ba5", "is_reserved": 0, "fusion_lat": 0.0}, {"type": "electric_bike", "rental_uris": {"ios": "https://dc.lft.to/lastmile_qr_scan", "android": "https://dc.lft.to/lastmile_qr_scan"}, "lon": -77.04130116666667, "fusion_lon": 0.0, "is_disabled": 0, "lat": 38.8049895, "bike_id": "d6268435cc0affbc91f53de315045620", "name": "d6268435cc0affbc91f53de315045620", "is_reserved": 0, "fusion_lat": 0.0}, {"type": "electric_scooter", "rental_uris": {"ios": "https://dc.lft.to/lastmile_qr_scan", "android": "https://dc.lft.to/lastmile_qr_scan"}, "lon": -77.04164133333333, "fusion_lon": 0.0, "is_disabled": 0, "lat": 38.919837333333334, "bike_id": "a8367d64c74ee511156504a5d60f0c5c", "name": "a8367d64c74ee511156504a5d60f0c5c", "is_reserved": 0, "fusion_lat": 0.0}, {"type": "electric_scooter", "rental_uris": {"ios": "https://dc.lft.to/lastmile_qr_scan", "android": "https://dc.lft.to/lastmile_qr_scan"}, "lon": -76.99956916666666, "fusion_lon": 0.0, "is_disabled": 0, "lat": 38.908659666666665, "bike_id": "6f6dfb7fbc0e1bce4b7261055c1fb4a0", "name": "6f6dfb7fbc0e1bce4b7261055c1fb4a0", "is_reserved": 0, "fusion_lat": 0.0}, {"type": "electric_scooter", "rental_uris": {"ios": "https://dc.lft.to/lastmile_qr_scan", "android": "https://dc.lft.to/lastmile_qr_scan"}, "lon": -77.02393283333333, "fusion_lon": 0.0, "is_disabled": 0, "lat": 38.9174505, "bike_id": "d43692c42cfddbd67474a94081600053", "name": "d43692c42cfddbd67474a94081600053", "is_reserved": 0, "fusion_lat": 0.0}, {"type": "electric_scooter", "rental_uris": {"ios": "https://dc.lft.to/lastmile_qr_scan", "android": "https://dc.lft.to/lastmile_qr_scan"}, "lon": -76.99828116666667, "fusion_lon": 0.0, "is_disabled": 0, "lat": 38.90036683333334, "bike_id": "13a57d66fd1cb39ff830f6f963cecbef", "name": "13a57d66fd1cb39ff830f6f963cecbef", "is_reserved": 0, "fusion_lat": 0.0}, {"type": "electric_scooter", "rental_uris": {"ios": "https://dc.lft.to/lastmile_qr_scan", "android": "https://dc.lft.to/lastmile_qr_scan"}, "lon": -77.02395816666667, "fusion_lon": 0.0, "is_disabled": 0, "lat": 38.931079833333335, "bike_id": "006b7e54318b67424c7247f84e039767", "name": "006b7e54318b67424c7247f84e039767", "is_reserved": 0, "fusion_lat": 0.0}, {"type": "electric_scooter", "rental_uris": {"ios": "https://dc.lft.to/lastmile_qr_scan", "android": "https://dc.lft.to/lastmile_qr_scan"}, "lon": -77.04343816666666, "fusion_lon": 0.0, "is_disabled": 0, "lat": 38.90529816666667, "bike_id": "055cd07eb0565f11c04413211061a822", "name": "055cd07eb0565f11c04413211061a822", "is_reserved": 0, "fusion_lat": 0.0}, {"type": "electric_scooter", "rental_uris": {"ios": "https://dc.lft.to/lastmile_qr_scan", "android": "https://dc.lft.to/lastmile_qr_scan"}, "lon": -76.98506566666667, "fusion_lon": 0.0, "is_disabled": 0, "lat": 38.89477483333334, "bike_id": "7a6c9e898c43dad7a80f6dc701036fe2", "name": "7a6c9e898c43dad7a80f6dc701036fe2", "is_reserved": 0, "fusion_lat": 0.0}, {"type": "electric_scooter", "rental_uris": {"ios": "https://dc.lft.to/lastmile_qr_scan", "android": "https://dc.lft.to/lastmile_qr_scan"}, "lon": -77.04293033333333, "fusion_lon": 0.0, "is_disabled": 0, "lat": 38.92263483333333, "bike_id": "033913921113056c2cacddd9bcec22ed", "name": "033913921113056c2cacddd9bcec22ed", "is_reserved": 0, "fusion_lat": 0.0}, {"type": "electric_scooter", "rental_uris": {"ios": "https://dc.lft.to/lastmile_qr_scan", "android": "https://dc.lft.to/lastmile_qr_scan"}, "lon": -77.032183, "fusion_lon": 0.0, "is_disabled": 0, "lat": 38.920783666666665, "bike_id": "4cd5f869fcc0421fb0a473592a1c7fec", "name": "4cd5f869fcc0421fb0a473592a1c7fec", "is_reserved": 0, "fusion_lat": 0.0}, {"type": "electric_scooter", "rental_uris": {"ios": "https://dc.lft.to/lastmile_qr_scan", "android": "https://dc.lft.to/lastmile_qr_scan"}, "lon": -77.026877, "fusion_lon": 0.0, "is_disabled": 0, "lat": 38.90612483333334, "bike_id": "037d88a243ca56628725fb2174184be5", "name": "037d88a243ca56628725fb2174184be5", "is_reserved": 0, "fusion_lat": 0.0}, {"type": "electric_scooter", "rental_uris": {"ios": "https://dc.lft.to/lastmile_qr_scan", "android": "https://dc.lft.to/lastmile_qr_scan"}, "lon": -77.04012333333333, "fusion_lon": 0.0, "is_disabled": 0, "lat": 38.92443816666667, "bike_id": "44a71e41e16d2255d74ee8df68662206", "name": "44a71e41e16d2255d74ee8df68662206", "is_reserved": 0, "fusion_lat": 0.0}, {"type": "electric_scooter", "rental_uris": {"ios": "https://dc.lft.to/lastmile_qr_scan", "android": "https://dc.lft.to/lastmile_qr_scan"}, "lon": -77.04841016666667, "fusion_lon": 0.0, "is_disabled": 0, "lat": 38.91186733333333, "bike_id": "9c3cd374e9cd988cd6db2e9c14b158ef", "name": "9c3cd374e9cd988cd6db2e9c14b158ef", "is_reserved": 0, "fusion_lat": 0.0}, {"type": "electric_scooter", "rental_uris": {"ios": "https://dc.lft.to/lastmile_qr_scan", "android": "https://dc.lft.to/lastmile_qr_scan"}, "lon": -77.044162, "fusion_lon": 0.0, "is_disabled": 0, "lat": 38.913576166666665, "bike_id": "7830f5ce763f1d9c7c2cbdb142328646", "name": "7830f5ce763f1d9c7c2cbdb142328646", "is_reserved": 0, "fusion_lat": 0.0}, {"type": "electric_scooter", "rental_uris": {"ios": "https://dc.lft.to/lastmile_qr_scan", "android": "https://dc.lft.to/lastmile_qr_scan"}, "lon": -77.026071, "fusion_lon": 0.0, "is_disabled": 0, "lat": 38.90618833333333, "bike_id": "11caa0bd805f277a012eea7433b327ce", "name": "11caa0bd805f277a012eea7433b327ce", "is_reserved": 0, "fusion_lat": 0.0}, {"type": "electric_bike", "rental_uris": {"ios": "https://dc.lft.to/lastmile_qr_scan", "android": "https://dc.lft.to/lastmile_qr_scan"}, "lon": -77.00203316666666, "fusion_lon": 0.0, "is_disabled": 0, "lat": 38.81934616666667, "bike_id": "fe0c2148498bf7c239d316cdeb1f3b2d", "name": "fe0c2148498bf7c239d316cdeb1f3b2d", "is_reserved": 0, "fusion_lat": 0.0}, {"type": "electric_scooter", "rental_uris": {"ios": "https://dc.lft.to/lastmile_qr_scan", "android": "https://dc.lft.to/lastmile_qr_scan"}, "lon": -77.0105585, "fusion_lon": 0.0, "is_disabled": 0, "lat": 38.89599583333333, "bike_id": "e2022a5cd1ac1dd461889d81073764c4", "name": "e2022a5cd1ac1dd461889d81073764c4", "is_reserved": 0, "fusion_lat": 0.0}, {"type": "electric_scooter", "rental_uris": {"ios": "https://dc.lft.to/lastmile_qr_scan", "android": "https://dc.lft.to/lastmile_qr_scan"}, "lon": -77.03211416666667, "fusion_lon": 0.0, "is_disabled": 0, "lat": 38.89576816666667, "bike_id": "9e66915edf7d89a88e2e653d4818ec3a", "name": "9e66915edf7d89a88e2e653d4818ec3a", "is_reserved": 0, "fusion_lat": 0.0}, {"type": "electric_scooter", "rental_uris": {"ios": "https://dc.lft.to/lastmile_qr_scan", "android": "https://dc.lft.to/lastmile_qr_scan"}, "lon": -76.93525783333334, "fusion_lon": 0.0, "is_disabled": 0, "lat": 38.87899083333333, "bike_id": "24938fede48fdc00d3f56b58ee4c2070", "name": "24938fede48fdc00d3f56b58ee4c2070", "is_reserved": 0, "fusion_lat": 0.0}, {"type": "electric_scooter", "rental_uris": {"ios": "https://dc.lft.to/lastmile_qr_scan", "android": "https://dc.lft.to/lastmile_qr_scan"}, "lon": -77.03622616666667, "fusion_lon": 0.0, "is_disabled": 0, "lat": 38.9328545, "bike_id": "b5e08a85a1450fd383e0e4eb7bdc7baa", "name": "b5e08a85a1450fd383e0e4eb7bdc7baa", "is_reserved": 0, "fusion_lat": 0.0}, {"type": "electric_scooter", "rental_uris": {"ios": "https://dc.lft.to/lastmile_qr_scan", "android": "https://dc.lft.to/lastmile_qr_scan"}, "lon": -77.041997, "fusion_lon": 0.0, "is_disabled": 0, "lat": 38.8922355, "bike_id": "c0a4d64d18fb22fdc658b0ca4e9ef258", "name": "c0a4d64d18fb22fdc658b0ca4e9ef258", "is_reserved": 0, "fusion_lat": 0.0}, {"type": "electric_scooter", "rental_uris": {"ios": "https://dc.lft.to/lastmile_qr_scan", "android": "https://dc.lft.to/lastmile_qr_scan"}, "lon": -77.0532875, "fusion_lon": 0.0, "is_disabled": 0, "lat": 38.92337633333333, "bike_id": "c705dbd992ecea61fd4404f4d17671a0", "name": "c705dbd992ecea61fd4404f4d17671a0", "is_reserved": 0, "fusion_lat": 0.0}, {"type": "electric_scooter", "rental_uris": {"ios": "https://dc.lft.to/lastmile_qr_scan", "android": "https://dc.lft.to/lastmile_qr_scan"}, "lon": -77.06889066666666, "fusion_lon": 0.0, "is_disabled": 0, "lat": 38.90419816666667, "bike_id": "c9c3ad9053741f20cdebb67625cc9ad8", "name": "c9c3ad9053741f20cdebb67625cc9ad8", "is_reserved": 0, "fusion_lat": 0.0}, {"type": "electric_scooter", "rental_uris": {"ios": "https://dc.lft.to/lastmile_qr_scan", "android": "https://dc.lft.to/lastmile_qr_scan"}, "lon": -77.03631666666666, "fusion_lon": 0.0, "is_disabled": 0, "lat": 38.920882166666665, "bike_id": "835abbaebcd7e8a660fb47868349c1b1", "name": "835abbaebcd7e8a660fb47868349c1b1", "is_reserved": 0, "fusion_lat": 0.0}, {"type": "electric_scooter", "rental_uris": {"ios": "https://dc.lft.to/lastmile_qr_scan", "android": "https://dc.lft.to/lastmile_qr_scan"}, "lon": -77.03681516666667, "fusion_lon": 0.0, "is_disabled": 0, "lat": 38.919135833333335, "bike_id": "49cb55c4d934eb5706caf0c693946252", "name": "49cb55c4d934eb5706caf0c693946252", "is_reserved": 0, "fusion_lat": 0.0}, {"type": "electric_scooter", "rental_uris": {"ios": "https://dc.lft.to/lastmile_qr_scan", "android": "https://dc.lft.to/lastmile_qr_scan"}, "lon": -76.9939235, "fusion_lon": 0.0, "is_disabled": 0, "lat": 38.910152833333335, "bike_id": "cf2c3047904114b6e0b678a221007dfb", "name": "cf2c3047904114b6e0b678a221007dfb", "is_reserved": 0, "fusion_lat": 0.0}, {"type": "electric_scooter", "rental_uris": {"ios": "https://dc.lft.to/lastmile_qr_scan", "android": "https://dc.lft.to/lastmile_qr_scan"}, "lon": -77.048633, "fusion_lon": 0.0, "is_disabled": 0, "lat": 38.90959566666667, "bike_id": "8441fa382a86a7bd0fb3c006b6d71ff4", "name": "8441fa382a86a7bd0fb3c006b6d71ff4", "is_reserved": 0, "fusion_lat": 0.0}, {"type": "electric_scooter", "rental_uris": {"ios": "https://dc.lft.to/lastmile_qr_scan", "android": "https://dc.lft.to/lastmile_qr_scan"}, "lon": -77.03185666666667, "fusion_lon": 0.0, "is_disabled": 0, "lat": 38.91333616666667, "bike_id": "275a23d3dfd9664fdef2a1d0f6cc11f2", "name": "275a23d3dfd9664fdef2a1d0f6cc11f2", "is_reserved": 0, "fusion_lat": 0.0}, {"type": "electric_scooter", "rental_uris": {"ios": "https://dc.lft.to/lastmile_qr_scan", "android": "https://dc.lft.to/lastmile_qr_scan"}, "lon": -77.0324895, "fusion_lon": 0.0, "is_disabled": 0, "lat": 38.898944, "bike_id": "8dbdd4d9e95c1792712efc817d41076d", "name": "8dbdd4d9e95c1792712efc817d41076d", "is_reserved": 0, "fusion_lat": 0.0}, {"type": "electric_scooter", "rental_uris": {"ios": "https://dc.lft.to/lastmile_qr_scan", "android": "https://dc.lft.to/lastmile_qr_scan"}, "lon": -77.01739683333334, "fusion_lon": 0.0, "is_disabled": 0, "lat": 38.920449833333336, "bike_id": "22d1e9b7f899b716981e09d0e845474e", "name": "22d1e9b7f899b716981e09d0e845474e", "is_reserved": 0, "fusion_lat": 0.0}, {"type": "electric_scooter", "rental_uris": {"ios": "https://dc.lft.to/lastmile_qr_scan", "android": "https://dc.lft.to/lastmile_qr_scan"}, "lon": -77.03259733333333, "fusion_lon": 0.0, "is_disabled": 0, "lat": 38.91938733333333, "bike_id": "2684b269e29c6a29a2f50566e0eb1061", "name": "2684b269e29c6a29a2f50566e0eb1061", "is_reserved": 0, "fusion_lat": 0.0}, {"type": "electric_scooter", "rental_uris": {"ios": "https://dc.lft.to/lastmile_qr_scan", "android": "https://dc.lft.to/lastmile_qr_scan"}, "lon": -77.02180383333334, "fusion_lon": 0.0, "is_disabled": 0, "lat": 38.8929775, "bike_id": "7d9118725989a008789b78c51b92ef38", "name": "7d9118725989a008789b78c51b92ef38", "is_reserved": 0, "fusion_lat": 0.0}, {"type": "electric_bike", "rental_uris": {"ios": "https://dc.lft.to/lastmile_qr_scan", "android": "https://dc.lft.to/lastmile_qr_scan"}, "lon": -77.07906966666667, "fusion_lon": 0.0, "is_disabled": 0, "lat": 38.839372166666664, "bike_id": "2b8ba5c80793555c33725b6dd15c1a00", "name": "2b8ba5c80793555c33725b6dd15c1a00", "is_reserved": 0, "fusion_lat": 0.0}, {"type": "electric_scooter", "rental_uris": {"ios": "https://dc.lft.to/lastmile_qr_scan", "android": "https://dc.lft.to/lastmile_qr_scan"}, "lon": -77.032069, "fusion_lon": 0.0, "is_disabled": 0, "lat": 38.91716866666667, "bike_id": "f7df9714dcb2f1fd9a041d5088b86ccf", "name": "f7df9714dcb2f1fd9a041d5088b86ccf", "is_reserved": 0, "fusion_lat": 0.0}, {"type": "electric_scooter", "rental_uris": {"ios": "https://dc.lft.to/lastmile_qr_scan", "android": "https://dc.lft.to/lastmile_qr_scan"}, "lon": -77.02497466666667, "fusion_lon": 0.0, "is_disabled": 0, "lat": 38.919801166666666, "bike_id": "5e8524eff1fce7d5c139a621e32a5f25", "name": "5e8524eff1fce7d5c139a621e32a5f25", "is_reserved": 0, "fusion_lat": 0.0}, {"type": "electric_bike", "rental_uris": {"ios": "https://dc.lft.to/lastmile_qr_scan", "android": "https://dc.lft.to/lastmile_qr_scan"}, "lon": -76.98213366666667, "fusion_lon": 0.0, "is_disabled": 0, "lat": 38.9850625, "bike_id": "59f819362427cc9837dffb2b7abbb7f4", "name": "59f819362427cc9837dffb2b7abbb7f4", "is_reserved": 0, "fusion_lat": 0.0}, {"type": "electric_scooter", "rental_uris": {"ios": "https://dc.lft.to/lastmile_qr_scan", "android": "https://dc.lft.to/lastmile_qr_scan"}, "lon": -76.9781145, "fusion_lon": 0.0, "is_disabled": 0, "lat": 38.894551166666666, "bike_id": "cb86d914b0019a59f21abd79f519885b", "name": "cb86d914b0019a59f21abd79f519885b", "is_reserved": 0, "fusion_lat": 0.0}, {"type": "electric_bike", "rental_uris": {"ios": "https://dc.lft.to/lastmile_qr_scan", "android": "https://dc.lft.to/lastmile_qr_scan"}, "lon": -77.06859383333334, "fusion_lon": 0.0, "is_disabled": 0, "lat": 38.805746, "bike_id": "d414438521c194ba9acdeec09bde87e0", "name": "d414438521c194ba9acdeec09bde87e0", "is_reserved": 0, "fusion_lat": 0.0}, {"type": "electric_scooter", "rental_uris": {"ios": "https://dc.lft.to/lastmile_qr_scan", "android": "https://dc.lft.to/lastmile_qr_scan"}, "lon": -77.027399, "fusion_lon": 0.0, "is_disabled": 0, "lat": 38.92784616666667, "bike_id": "bd0e512f9ec27f5aeb20098a17885a5d", "name": "bd0e512f9ec27f5aeb20098a17885a5d", "is_reserved": 0, "fusion_lat": 0.0}, {"type": "electric_scooter", "rental_uris": {"ios": "https://dc.lft.to/lastmile_qr_scan", "android": "https://dc.lft.to/lastmile_qr_scan"}, "lon": -77.0210775, "fusion_lon": 0.0, "is_disabled": 0, "lat": 38.94575833333333, "bike_id": "7e223d68e012dc0da214d28b88937ad6", "name": "7e223d68e012dc0da214d28b88937ad6", "is_reserved": 0, "fusion_lat": 0.0}, {"type": "electric_scooter", "rental_uris": {"ios": "https://dc.lft.to/lastmile_qr_scan", "android": "https://dc.lft.to/lastmile_qr_scan"}, "lon": -77.02288616666667, "fusion_lon": 0.0, "is_disabled": 0, "lat": 38.916721, "bike_id": "ebc3055e9623dca39e1d446f094a5c53", "name": "ebc3055e9623dca39e1d446f094a5c53", "is_reserved": 0, "fusion_lat": 0.0}, {"type": "electric_bike", "rental_uris": {"ios": "https://dc.lft.to/lastmile_qr_scan", "android": "https://dc.lft.to/lastmile_qr_scan"}, "lon": -77.01034833333334, "fusion_lon": 0.0, "is_disabled": 0, "lat": 38.95881166666667, "bike_id": "2dbbd31012955e00efa3eb352467992b", "name": "2dbbd31012955e00efa3eb352467992b", "is_reserved": 0, "fusion_lat": 0.0}, {"type": "electric_scooter", "rental_uris": {"ios": "https://dc.lft.to/lastmile_qr_scan", "android": "https://dc.lft.to/lastmile_qr_scan"}, "lon": -77.03124883333334, "fusion_lon": 0.0, "is_disabled": 0, "lat": 38.959358333333334, "bike_id": "5893bfff2f7e9c16caeefeeff8698e1d", "name": "5893bfff2f7e9c16caeefeeff8698e1d", "is_reserved": 0, "fusion_lat": 0.0}, {"type": "electric_bike", "rental_uris": {"ios": "https://dc.lft.to/lastmile_qr_scan", "android": "https://dc.lft.to/lastmile_qr_scan"}, "lon": -77.017771, "fusion_lon": 0.0, "is_disabled": 0, "lat": 38.982709166666666, "bike_id": "d4e5449afa2e6050f1c006acdb607af3", "name": "d4e5449afa2e6050f1c006acdb607af3", "is_reserved": 0, "fusion_lat": 0.0}, {"type": "electric_scooter", "rental_uris": {"ios": "https://dc.lft.to/lastmile_qr_scan", "android": "https://dc.lft.to/lastmile_qr_scan"}, "lon": -77.05000166666666, "fusion_lon": 0.0, "is_disabled": 0, "lat": 38.89233816666667, "bike_id": "7d5d11b2e6f38711fa43481453ba8bfd", "name": "7d5d11b2e6f38711fa43481453ba8bfd", "is_reserved": 0, "fusion_lat": 0.0}, {"type": "electric_scooter", "rental_uris": {"ios": "https://dc.lft.to/lastmile_qr_scan", "android": "https://dc.lft.to/lastmile_qr_scan"}, "lon": -77.032193, "fusion_lon": 0.0, "is_disabled": 0, "lat": 38.90977433333333, "bike_id": "025fc7d855a508325741f15148c12dd7", "name": "025fc7d855a508325741f15148c12dd7", "is_reserved": 0, "fusion_lat": 0.0}, {"type": "electric_scooter", "rental_uris": {"ios": "https://dc.lft.to/lastmile_qr_scan", "android": "https://dc.lft.to/lastmile_qr_scan"}, "lon": -77.02443916666667, "fusion_lon": 0.0, "is_disabled": 0, "lat": 38.9387775, "bike_id": "175b41ed9d5432a5f2a873bc64be92ab", "name": "175b41ed9d5432a5f2a873bc64be92ab", "is_reserved": 0, "fusion_lat": 0.0}, {"type": "electric_scooter", "rental_uris": {"ios": "https://dc.lft.to/lastmile_qr_scan", "android": "https://dc.lft.to/lastmile_qr_scan"}, "lon": -77.02972866666667, "fusion_lon": 0.0, "is_disabled": 0, "lat": 38.92458966666667, "bike_id": "271988f4e7a6b07e18e440b15f24c74f", "name": "271988f4e7a6b07e18e440b15f24c74f", "is_reserved": 0, "fusion_lat": 0.0}, {"type": "electric_scooter", "rental_uris": {"ios": "https://dc.lft.to/lastmile_qr_scan", "android": "https://dc.lft.to/lastmile_qr_scan"}, "lon": -77.02234333333334, "fusion_lon": 0.0, "is_disabled": 0, "lat": 38.961395333333336, "bike_id": "2c996e5eb80edd787d25cee879893919", "name": "2c996e5eb80edd787d25cee879893919", "is_reserved": 0, "fusion_lat": 0.0}, {"type": "electric_scooter", "rental_uris": {"ios": "https://dc.lft.to/lastmile_qr_scan", "android": "https://dc.lft.to/lastmile_qr_scan"}, "lon": -76.9977725, "fusion_lon": 0.0, "is_disabled": 0, "lat": 38.8443375, "bike_id": "94f8148564da527b4051c42a923c3f17", "name": "94f8148564da527b4051c42a923c3f17", "is_reserved": 0, "fusion_lat": 0.0}, {"type": "electric_scooter", "rental_uris": {"ios": "https://dc.lft.to/lastmile_qr_scan", "android": "https://dc.lft.to/lastmile_qr_scan"}, "lon": -77.04767583333333, "fusion_lon": 0.0, "is_disabled": 0, "lat": 38.917750833333336, "bike_id": "cc1569b9ce296b58e8234cc0a4b85f2d", "name": "cc1569b9ce296b58e8234cc0a4b85f2d", "is_reserved": 0, "fusion_lat": 0.0}, {"type": "electric_scooter", "rental_uris": {"ios": "https://dc.lft.to/lastmile_qr_scan", "android": "https://dc.lft.to/lastmile_qr_scan"}, "lon": -76.9399045, "fusion_lon": 0.0, "is_disabled": 0, "lat": 38.899799, "bike_id": "fda7f21a979d5985dd921234144c707a", "name": "fda7f21a979d5985dd921234144c707a", "is_reserved": 0, "fusion_lat": 0.0}, {"type": "electric_scooter", "rental_uris": {"ios": "https://dc.lft.to/lastmile_qr_scan", "android": "https://dc.lft.to/lastmile_qr_scan"}, "lon": -77.03008266666667, "fusion_lon": 0.0, "is_disabled": 0, "lat": 38.922523, "bike_id": "f8084a4a9776e39d14078a5872945952", "name": "f8084a4a9776e39d14078a5872945952", "is_reserved": 0, "fusion_lat": 0.0}, {"type": "electric_scooter", "rental_uris": {"ios": "https://dc.lft.to/lastmile_qr_scan", "android": "https://dc.lft.to/lastmile_qr_scan"}, "lon": -77.03377266666666, "fusion_lon": 0.0, "is_disabled": 0, "lat": 38.8922955, "bike_id": "ea4d83672c48c900b9cdf0e08f2626a9", "name": "ea4d83672c48c900b9cdf0e08f2626a9", "is_reserved": 0, "fusion_lat": 0.0}, {"type": "electric_scooter", "rental_uris": {"ios": "https://dc.lft.to/lastmile_qr_scan", "android": "https://dc.lft.to/lastmile_qr_scan"}, "lon": -77.01900683333334, "fusion_lon": 0.0, "is_disabled": 0, "lat": 38.923823166666665, "bike_id": "1109bd39f5c0f2063631f0b5e36eaead", "name": "1109bd39f5c0f2063631f0b5e36eaead", "is_reserved": 0, "fusion_lat": 0.0}, {"type": "electric_scooter", "rental_uris": {"ios": "https://dc.lft.to/lastmile_qr_scan", "android": "https://dc.lft.to/lastmile_qr_scan"}, "lon": -76.99781233333333, "fusion_lon": 0.0, "is_disabled": 0, "lat": 38.84430616666667, "bike_id": "fddedb701de42d509761b129ab2161ed", "name": "fddedb701de42d509761b129ab2161ed", "is_reserved": 0, "fusion_lat": 0.0}, {"type": "electric_scooter", "rental_uris": {"ios": "https://dc.lft.to/lastmile_qr_scan", "android": "https://dc.lft.to/lastmile_qr_scan"}, "lon": -77.05115216666667, "fusion_lon": 0.0, "is_disabled": 0, "lat": 38.902066833333336, "bike_id": "9b8cf1c99e7aad89e2a0dde6f486c913", "name": "9b8cf1c99e7aad89e2a0dde6f486c913", "is_reserved": 0, "fusion_lat": 0.0}, {"type": "electric_bike", "rental_uris": {"ios": "https://dc.lft.to/lastmile_qr_scan", "android": "https://dc.lft.to/lastmile_qr_scan"}, "lon": -76.93701933333334, "fusion_lon": 0.0, "is_disabled": 0, "lat": 38.871485166666666, "bike_id": "33f6cd80e1fdc76423c529ecb9ad6737", "name": "33f6cd80e1fdc76423c529ecb9ad6737", "is_reserved": 0, "fusion_lat": 0.0}, {"type": "electric_scooter", "rental_uris": {"ios": "https://dc.lft.to/lastmile_qr_scan", "android": "https://dc.lft.to/lastmile_qr_scan"}, "lon": -77.02337866666667, "fusion_lon": 0.0, "is_disabled": 0, "lat": 38.916669, "bike_id": "53027c309d4c719056c780bba77d8335", "name": "53027c309d4c719056c780bba77d8335", "is_reserved": 0, "fusion_lat": 0.0}, {"type": "electric_scooter", "rental_uris": {"ios": "https://dc.lft.to/lastmile_qr_scan", "android": "https://dc.lft.to/lastmile_qr_scan"}, "lon": -77.02406766666667, "fusion_lon": 0.0, "is_disabled": 0, "lat": 38.919196666666664, "bike_id": "cd931d91557177279f012d7ab6256fe8", "name": "cd931d91557177279f012d7ab6256fe8", "is_reserved": 0, "fusion_lat": 0.0}, {"type": "electric_scooter", "rental_uris": {"ios": "https://dc.lft.to/lastmile_qr_scan", "android": "https://dc.lft.to/lastmile_qr_scan"}, "lon": -76.95757383333333, "fusion_lon": 0.0, "is_disabled": 0, "lat": 38.884319833333336, "bike_id": "dc86ffc96b395c65fe3aa6ecd00edb96", "name": "dc86ffc96b395c65fe3aa6ecd00edb96", "is_reserved": 0, "fusion_lat": 0.0}, {"type": "electric_bike", "rental_uris": {"ios": "https://dc.lft.to/lastmile_qr_scan", "android": "https://dc.lft.to/lastmile_qr_scan"}, "lon": -76.97136916666666, "fusion_lon": 0.0, "is_disabled": 0, "lat": 38.85723766666667, "bike_id": "33ba13f998cdd776c889d0d40afc82dc", "name": "33ba13f998cdd776c889d0d40afc82dc", "is_reserved": 0, "fusion_lat": 0.0}, {"type": "electric_scooter", "rental_uris": {"ios": "https://dc.lft.to/lastmile_qr_scan", "android": "https://dc.lft.to/lastmile_qr_scan"}, "lon": -77.04334633333333, "fusion_lon": 0.0, "is_disabled": 0, "lat": 38.8922545, "bike_id": "ccc4fb250aa11cf89311def10e393958", "name": "ccc4fb250aa11cf89311def10e393958", "is_reserved": 0, "fusion_lat": 0.0}, {"type": "electric_scooter", "rental_uris": {"ios": "https://dc.lft.to/lastmile_qr_scan", "android": "https://dc.lft.to/lastmile_qr_scan"}, "lon": -76.99016066666667, "fusion_lon": 0.0, "is_disabled": 0, "lat": 38.833793666666665, "bike_id": "4b2133b8134d2927887e850ebfc8d788", "name": "4b2133b8134d2927887e850ebfc8d788", "is_reserved": 0, "fusion_lat": 0.0}, {"type": "electric_scooter", "rental_uris": {"ios": "https://dc.lft.to/lastmile_qr_scan", "android": "https://dc.lft.to/lastmile_qr_scan"}, "lon": -77.03150266666667, "fusion_lon": 0.0, "is_disabled": 0, "lat": 38.9278695, "bike_id": "a62e4052655510f2de72a9428293b357", "name": "a62e4052655510f2de72a9428293b357", "is_reserved": 0, "fusion_lat": 0.0}, {"type": "electric_scooter", "rental_uris": {"ios": "https://dc.lft.to/lastmile_qr_scan", "android": "https://dc.lft.to/lastmile_qr_scan"}, "lon": -76.99852483333333, "fusion_lon": 0.0, "is_disabled": 0, "lat": 38.90157816666667, "bike_id": "1b94ef25c7db2feb5081d93bd4d00883", "name": "1b94ef25c7db2feb5081d93bd4d00883", "is_reserved": 0, "fusion_lat": 0.0}, {"type": "electric_scooter", "rental_uris": {"ios": "https://dc.lft.to/lastmile_qr_scan", "android": "https://dc.lft.to/lastmile_qr_scan"}, "lon": -76.99824933333333, "fusion_lon": 0.0, "is_disabled": 0, "lat": 38.900202166666666, "bike_id": "e58900bf513e9b515d72b0c9ada01dae", "name": "e58900bf513e9b515d72b0c9ada01dae", "is_reserved": 0, "fusion_lat": 0.0}, {"type": "electric_scooter", "rental_uris": {"ios": "https://dc.lft.to/lastmile_qr_scan", "android": "https://dc.lft.to/lastmile_qr_scan"}, "lon": -76.99163083333333, "fusion_lon": 0.0, "is_disabled": 0, "lat": 38.859469, "bike_id": "8cda52046245df9527ce8affddf300b1", "name": "8cda52046245df9527ce8affddf300b1", "is_reserved": 0, "fusion_lat": 0.0}, {"type": "electric_scooter", "rental_uris": {"ios": "https://dc.lft.to/lastmile_qr_scan", "android": "https://dc.lft.to/lastmile_qr_scan"}, "lon": -77.04710616666667, "fusion_lon": 0.0, "is_disabled": 0, "lat": 38.922268333333335, "bike_id": "10b8c3a264d4538a2350eca2ea42cd50", "name": "10b8c3a264d4538a2350eca2ea42cd50", "is_reserved": 0, "fusion_lat": 0.0}, {"type": "electric_scooter", "rental_uris": {"ios": "https://dc.lft.to/lastmile_qr_scan", "android": "https://dc.lft.to/lastmile_qr_scan"}, "lon": -77.03661433333333, "fusion_lon": 0.0, "is_disabled": 0, "lat": 38.91721066666667, "bike_id": "cf27c04db43238c048c8995062d8d843", "name": "cf27c04db43238c048c8995062d8d843", "is_reserved": 0, "fusion_lat": 0.0}, {"type": "electric_bike", "rental_uris": {"ios": "https://dc.lft.to/lastmile_qr_scan", "android": "https://dc.lft.to/lastmile_qr_scan"}, "lon": -77.07135816666667, "fusion_lon": 0.0, "is_disabled": 0, "lat": 38.92999833333333, "bike_id": "4119365eaabbcd854ee5a0478ed9c6a0", "name": "4119365eaabbcd854ee5a0478ed9c6a0", "is_reserved": 0, "fusion_lat": 0.0}, {"type": "electric_scooter", "rental_uris": {"ios": "https://dc.lft.to/lastmile_qr_scan", "android": "https://dc.lft.to/lastmile_qr_scan"}, "lon": -77.03141083333334, "fusion_lon": 0.0, "is_disabled": 0, "lat": 38.88741916666667, "bike_id": "a7f33a67199462384d3bd2184abe789e", "name": "a7f33a67199462384d3bd2184abe789e", "is_reserved": 0, "fusion_lat": 0.0}, {"type": "electric_bike", "rental_uris": {"ios": "https://dc.lft.to/lastmile_qr_scan", "android": "https://dc.lft.to/lastmile_qr_scan"}, "lon": -76.93545133333333, "fusion_lon": 0.0, "is_disabled": 0, "lat": 38.95559333333333, "bike_id": "cb238d1430d1668618ac135960091dba", "name": "cb238d1430d1668618ac135960091dba", "is_reserved": 0, "fusion_lat": 0.0}, {"type": "electric_scooter", "rental_uris": {"ios": "https://dc.lft.to/lastmile_qr_scan", "android": "https://dc.lft.to/lastmile_qr_scan"}, "lon": -77.03328816666667, "fusion_lon": 0.0, "is_disabled": 0, "lat": 38.912692166666666, "bike_id": "9f28d3d726f8befcef673f7325545dfa", "name": "9f28d3d726f8befcef673f7325545dfa", "is_reserved": 0, "fusion_lat": 0.0}, {"type": "electric_scooter", "rental_uris": {"ios": "https://dc.lft.to/lastmile_qr_scan", "android": "https://dc.lft.to/lastmile_qr_scan"}, "lon": -77.01777416666667, "fusion_lon": 0.0, "is_disabled": 0, "lat": 38.887174333333334, "bike_id": "ea16adcdd64b7087c7327fdab7251417", "name": "ea16adcdd64b7087c7327fdab7251417", "is_reserved": 0, "fusion_lat": 0.0}, {"type": "electric_scooter", "rental_uris": {"ios": "https://dc.lft.to/lastmile_qr_scan", "android": "https://dc.lft.to/lastmile_qr_scan"}, "lon": -77.0344385, "fusion_lon": 0.0, "is_disabled": 0, "lat": 38.91849116666667, "bike_id": "684965893f85b0a28c9563d470d21d80", "name": "684965893f85b0a28c9563d470d21d80", "is_reserved": 0, "fusion_lat": 0.0}, {"type": "electric_scooter", "rental_uris": {"ios": "https://dc.lft.to/lastmile_qr_scan", "android": "https://dc.lft.to/lastmile_qr_scan"}, "lon": -76.99003083333334, "fusion_lon": 0.0, "is_disabled": 0, "lat": 38.863468166666664, "bike_id": "e6a9b0601bb5005719956f1067ebe509", "name": "e6a9b0601bb5005719956f1067ebe509", "is_reserved": 0, "fusion_lat": 0.0}, {"type": "electric_bike", "rental_uris": {"ios": "https://dc.lft.to/lastmile_qr_scan", "android": "https://dc.lft.to/lastmile_qr_scan"}, "lon": -77.03656033333333, "fusion_lon": 0.0, "is_disabled": 0, "lat": 38.955752, "bike_id": "b1f7204b7188ca1f1c47350890de0b3d", "name": "b1f7204b7188ca1f1c47350890de0b3d", "is_reserved": 0, "fusion_lat": 0.0}, {"type": "electric_scooter", "rental_uris": {"ios": "https://dc.lft.to/lastmile_qr_scan", "android": "https://dc.lft.to/lastmile_qr_scan"}, "lon": -77.02712383333333, "fusion_lon": 0.0, "is_disabled": 0, "lat": 38.90675816666667, "bike_id": "cfe485007915783343ff04c00f822cbe", "name": "cfe485007915783343ff04c00f822cbe", "is_reserved": 0, "fusion_lat": 0.0}, {"type": "electric_bike", "rental_uris": {"ios": "https://dc.lft.to/lastmile_qr_scan", "android": "https://dc.lft.to/lastmile_qr_scan"}, "lon": -77.08162283333333, "fusion_lon": 0.0, "is_disabled": 0, "lat": 38.888750333333334, "bike_id": "9613714dc62b3d0322ed10b013dca821", "name": "9613714dc62b3d0322ed10b013dca821", "is_reserved": 0, "fusion_lat": 0.0}, {"type": "electric_scooter", "rental_uris": {"ios": "https://dc.lft.to/lastmile_qr_scan", "android": "https://dc.lft.to/lastmile_qr_scan"}, "lon": -77.02972883333334, "fusion_lon": 0.0, "is_disabled": 0, "lat": 38.92281416666667, "bike_id": "779cb0861a4e90a76ce77827ce160d88", "name": "779cb0861a4e90a76ce77827ce160d88", "is_reserved": 0, "fusion_lat": 0.0}, {"type": "electric_bike", "rental_uris": {"ios": "https://dc.lft.to/lastmile_qr_scan", "android": "https://dc.lft.to/lastmile_qr_scan"}, "lon": -77.030519, "fusion_lon": 0.0, "is_disabled": 0, "lat": 38.9595415, "bike_id": "d3ef849fe5a2a9ce2b712b8b9a524f3f", "name": "d3ef849fe5a2a9ce2b712b8b9a524f3f", "is_reserved": 0, "fusion_lat": 0.0}, {"type": "electric_scooter", "rental_uris": {"ios": "https://dc.lft.to/lastmile_qr_scan", "android": "https://dc.lft.to/lastmile_qr_scan"}, "lon": -77.02977083333333, "fusion_lon": 0.0, "is_disabled": 0, "lat": 38.916838, "bike_id": "98749dadfd12c5caaf9ed2faf09a310c", "name": "98749dadfd12c5caaf9ed2faf09a310c", "is_reserved": 0, "fusion_lat": 0.0}, {"type": "electric_scooter", "rental_uris": {"ios": "https://dc.lft.to/lastmile_qr_scan", "android": "https://dc.lft.to/lastmile_qr_scan"}, "lon": -77.04753516666666, "fusion_lon": 0.0, "is_disabled": 0, "lat": 38.9022715, "bike_id": "e1f229cfc4ab2ddc3f80820440980186", "name": "e1f229cfc4ab2ddc3f80820440980186", "is_reserved": 0, "fusion_lat": 0.0}, {"type": "electric_scooter", "rental_uris": {"ios": "https://dc.lft.to/lastmile_qr_scan", "android": "https://dc.lft.to/lastmile_qr_scan"}, "lon": -77.0406875, "fusion_lon": 0.0, "is_disabled": 0, "lat": 38.90417166666667, "bike_id": "03255f248a201ea708419795c014d509", "name": "03255f248a201ea708419795c014d509", "is_reserved": 0, "fusion_lat": 0.0}, {"type": "electric_scooter", "rental_uris": {"ios": "https://dc.lft.to/lastmile_qr_scan", "android": "https://dc.lft.to/lastmile_qr_scan"}, "lon": -77.07311333333334, "fusion_lon": 0.0, "is_disabled": 0, "lat": 38.92143733333333, "bike_id": "c2eb011b097160f5b4fa0021ad7c455f", "name": "c2eb011b097160f5b4fa0021ad7c455f", "is_reserved": 0, "fusion_lat": 0.0}, {"type": "electric_scooter", "rental_uris": {"ios": "https://dc.lft.to/lastmile_qr_scan", "android": "https://dc.lft.to/lastmile_qr_scan"}, "lon": -77.00114516666666, "fusion_lon": 0.0, "is_disabled": 0, "lat": 38.87796066666667, "bike_id": "578815f89e4dd167f389f5690722cf1c", "name": "578815f89e4dd167f389f5690722cf1c", "is_reserved": 0, "fusion_lat": 0.0}, {"type": "electric_scooter", "rental_uris": {"ios": "https://dc.lft.to/lastmile_qr_scan", "android": "https://dc.lft.to/lastmile_qr_scan"}, "lon": -76.97239466666667, "fusion_lon": 0.0, "is_disabled": 0, "lat": 38.854543166666666, "bike_id": "d1180c25824961a0a34ff0e6af972a56", "name": "d1180c25824961a0a34ff0e6af972a56", "is_reserved": 0, "fusion_lat": 0.0}, {"type": "electric_scooter", "rental_uris": {"ios": "https://dc.lft.to/lastmile_qr_scan", "android": "https://dc.lft.to/lastmile_qr_scan"}, "lon": -77.050234, "fusion_lon": 0.0, "is_disabled": 0, "lat": 38.90321216666667, "bike_id": "1b60ee3a9af883d924503c10a9bca213", "name": "1b60ee3a9af883d924503c10a9bca213", "is_reserved": 0, "fusion_lat": 0.0}, {"type": "electric_scooter", "rental_uris": {"ios": "https://dc.lft.to/lastmile_qr_scan", "android": "https://dc.lft.to/lastmile_qr_scan"}, "lon": -77.06311533333333, "fusion_lon": 0.0, "is_disabled": 0, "lat": 38.9027775, "bike_id": "2cebedb24f0b33b136afebb6055059ff", "name": "2cebedb24f0b33b136afebb6055059ff", "is_reserved": 0, "fusion_lat": 0.0}, {"type": "electric_bike", "rental_uris": {"ios": "https://dc.lft.to/lastmile_qr_scan", "android": "https://dc.lft.to/lastmile_qr_scan"}, "lon": -77.03628516666667, "fusion_lon": 0.0, "is_disabled": 0, "lat": 38.932900333333336, "bike_id": "85230d36dabef58a7273882f7ed65159", "name": "85230d36dabef58a7273882f7ed65159", "is_reserved": 0, "fusion_lat": 0.0}, {"type": "electric_scooter", "rental_uris": {"ios": "https://dc.lft.to/lastmile_qr_scan", "android": "https://dc.lft.to/lastmile_qr_scan"}, "lon": -76.9732845, "fusion_lon": 0.0, "is_disabled": 0, "lat": 38.90410683333333, "bike_id": "722b86a763c8703b7603a8a81a0ac1ec", "name": "722b86a763c8703b7603a8a81a0ac1ec", "is_reserved": 0, "fusion_lat": 0.0}, {"type": "electric_scooter", "rental_uris": {"ios": "https://dc.lft.to/lastmile_qr_scan", "android": "https://dc.lft.to/lastmile_qr_scan"}, "lon": -77.00067866666667, "fusion_lon": 0.0, "is_disabled": 0, "lat": 38.90572983333333, "bike_id": "a7283d78b29101906e1394c9674ccad6", "name": "a7283d78b29101906e1394c9674ccad6", "is_reserved": 0, "fusion_lat": 0.0}, {"type": "electric_bike", "rental_uris": {"ios": "https://dc.lft.to/lastmile_qr_scan", "android": "https://dc.lft.to/lastmile_qr_scan"}, "lon": -77.09479, "fusion_lon": 0.0, "is_disabled": 0, "lat": 39.030429166666664, "bike_id": "35073f77fde6b5d0657e5f09787e44fd", "name": "35073f77fde6b5d0657e5f09787e44fd", "is_reserved": 0, "fusion_lat": 0.0}, {"type": "electric_scooter", "rental_uris": {"ios": "https://dc.lft.to/lastmile_qr_scan", "android": "https://dc.lft.to/lastmile_qr_scan"}, "lon": -77.01081316666667, "fusion_lon": 0.0, "is_disabled": 0, "lat": 38.91633916666667, "bike_id": "020c313900b544fc254013051e0e83fd", "name": "020c313900b544fc254013051e0e83fd", "is_reserved": 0, "fusion_lat": 0.0}, {"type": "electric_scooter", "rental_uris": {"ios": "https://dc.lft.to/lastmile_qr_scan", "android": "https://dc.lft.to/lastmile_qr_scan"}, "lon": -77.03050316666666, "fusion_lon": 0.0, "is_disabled": 0, "lat": 38.884404333333336, "bike_id": "b1f0922a770d4114e953f03c409010b8", "name": "b1f0922a770d4114e953f03c409010b8", "is_reserved": 0, "fusion_lat": 0.0}, {"type": "electric_scooter", "rental_uris": {"ios": "https://dc.lft.to/lastmile_qr_scan", "android": "https://dc.lft.to/lastmile_qr_scan"}, "lon": -77.02073866666667, "fusion_lon": 0.0, "is_disabled": 0, "lat": 38.8757045, "bike_id": "e9da8c6a7020ea49144ca4abd661a035", "name": "e9da8c6a7020ea49144ca4abd661a035", "is_reserved": 0, "fusion_lat": 0.0}, {"type": "electric_scooter", "rental_uris": {"ios": "https://dc.lft.to/lastmile_qr_scan", "android": "https://dc.lft.to/lastmile_qr_scan"}, "lon": -77.048777, "fusion_lon": 0.0, "is_disabled": 0, "lat": 38.91338283333333, "bike_id": "ea3fe02801dffc4d03449397a9a48cc8", "name": "ea3fe02801dffc4d03449397a9a48cc8", "is_reserved": 0, "fusion_lat": 0.0}, {"type": "electric_bike", "rental_uris": {"ios": "https://dc.lft.to/lastmile_qr_scan", "android": "https://dc.lft.to/lastmile_qr_scan"}, "lon": -77.01200266666666, "fusion_lon": 0.0, "is_disabled": 0, "lat": 38.87251233333333, "bike_id": "65a402caba1a3c9624239fab76901236", "name": "65a402caba1a3c9624239fab76901236", "is_reserved": 0, "fusion_lat": 0.0}, {"type": "electric_bike", "rental_uris": {"ios": "https://dc.lft.to/lastmile_qr_scan", "android": "https://dc.lft.to/lastmile_qr_scan"}, "lon": -76.96532216666667, "fusion_lon": 0.0, "is_disabled": 0, "lat": 38.874827333333336, "bike_id": "b2715c39b32bfb419839762707364745", "name": "b2715c39b32bfb419839762707364745", "is_reserved": 0, "fusion_lat": 0.0}, {"type": "electric_scooter", "rental_uris": {"ios": "https://dc.lft.to/lastmile_qr_scan", "android": "https://dc.lft.to/lastmile_qr_scan"}, "lon": -76.93992033333333, "fusion_lon": 0.0, "is_disabled": 0, "lat": 38.899811666666665, "bike_id": "f54115d7857ef7e2a5ef9e30b850d605", "name": "f54115d7857ef7e2a5ef9e30b850d605", "is_reserved": 0, "fusion_lat": 0.0}, {"type": "electric_bike", "rental_uris": {"ios": "https://dc.lft.to/lastmile_qr_scan", "android": "https://dc.lft.to/lastmile_qr_scan"}, "lon": -76.99081016666666, "fusion_lon": 0.0, "is_disabled": 0, "lat": 38.89811266666667, "bike_id": "1d9f452fa64c3cfaae6f9c9c5a71cc02", "name": "1d9f452fa64c3cfaae6f9c9c5a71cc02", "is_reserved": 0, "fusion_lat": 0.0}, {"type": "electric_scooter", "rental_uris": {"ios": "https://dc.lft.to/lastmile_qr_scan", "android": "https://dc.lft.to/lastmile_qr_scan"}, "lon": -77.0396555, "fusion_lon": 0.0, "is_disabled": 0, "lat": 38.89908, "bike_id": "f3cd3d329a37b7160d55191fc1f2454d", "name": "f3cd3d329a37b7160d55191fc1f2454d", "is_reserved": 0, "fusion_lat": 0.0}, {"type": "electric_scooter", "rental_uris": {"ios": "https://dc.lft.to/lastmile_qr_scan", "android": "https://dc.lft.to/lastmile_qr_scan"}, "lon": -77.0328705, "fusion_lon": 0.0, "is_disabled": 0, "lat": 38.927473, "bike_id": "a866477cd5f12705f3a27a8d1eff295d", "name": "a866477cd5f12705f3a27a8d1eff295d", "is_reserved": 0, "fusion_lat": 0.0}, {"type": "electric_scooter", "rental_uris": {"ios": "https://dc.lft.to/lastmile_qr_scan", "android": "https://dc.lft.to/lastmile_qr_scan"}, "lon": -77.05036566666666, "fusion_lon": 0.0, "is_disabled": 0, "lat": 38.8927435, "bike_id": "de965569233aeeb7cc683cf8ca3955b5", "name": "de965569233aeeb7cc683cf8ca3955b5", "is_reserved": 0, "fusion_lat": 0.0}, {"type": "electric_bike", "rental_uris": {"ios": "https://dc.lft.to/lastmile_qr_scan", "android": "https://dc.lft.to/lastmile_qr_scan"}, "lon": -77.03987816666667, "fusion_lon": 0.0, "is_disabled": 0, "lat": 38.933347166666664, "bike_id": "4b59e71d0399009eceb6708842e081b4", "name": "4b59e71d0399009eceb6708842e081b4", "is_reserved": 0, "fusion_lat": 0.0}, {"type": "electric_bike", "rental_uris": {"ios": "https://dc.lft.to/lastmile_qr_scan", "android": "https://dc.lft.to/lastmile_qr_scan"}, "lon": -77.1784185, "fusion_lon": 0.0, "is_disabled": 0, "lat": 39.088579833333334, "bike_id": "118fcdfed67f338d12cb675d71ff3026", "name": "118fcdfed67f338d12cb675d71ff3026", "is_reserved": 0, "fusion_lat": 0.0}, {"type": "electric_scooter", "rental_uris": {"ios": "https://dc.lft.to/lastmile_qr_scan", "android": "https://dc.lft.to/lastmile_qr_scan"}, "lon": -77.0269905, "fusion_lon": 0.0, "is_disabled": 0, "lat": 38.906783833333336, "bike_id": "06b973fbc3f42ca60f0a167d9a3067c4", "name": "06b973fbc3f42ca60f0a167d9a3067c4", "is_reserved": 0, "fusion_lat": 0.0}, {"type": "electric_bike", "rental_uris": {"ios": "https://dc.lft.to/lastmile_qr_scan", "android": "https://dc.lft.to/lastmile_qr_scan"}, "lon": -77.22214183333334, "fusion_lon": 0.0, "is_disabled": 0, "lat": 38.92858016666667, "bike_id": "42b6026159a51404c90757496d2c03f8", "name": "42b6026159a51404c90757496d2c03f8", "is_reserved": 0, "fusion_lat": 0.0}, {"type": "electric_scooter", "rental_uris": {"ios": "https://dc.lft.to/lastmile_qr_scan", "android": "https://dc.lft.to/lastmile_qr_scan"}, "lon": -76.92737283333334, "fusion_lon": 0.0, "is_disabled": 0, "lat": 38.89970983333333, "bike_id": "a37a14cf6f0f6d603a47ffdf5cc1835f", "name": "a37a14cf6f0f6d603a47ffdf5cc1835f", "is_reserved": 0, "fusion_lat": 0.0}, {"type": "electric_scooter", "rental_uris": {"ios": "https://dc.lft.to/lastmile_qr_scan", "android": "https://dc.lft.to/lastmile_qr_scan"}, "lon": -77.01134333333333, "fusion_lon": 0.0, "is_disabled": 0, "lat": 38.917015166666665, "bike_id": "ca7d8c24cd885c20b9ad3e1a8fc942f2", "name": "ca7d8c24cd885c20b9ad3e1a8fc942f2", "is_reserved": 0, "fusion_lat": 0.0}, {"type": "electric_scooter", "rental_uris": {"ios": "https://dc.lft.to/lastmile_qr_scan", "android": "https://dc.lft.to/lastmile_qr_scan"}, "lon": -77.03216533333334, "fusion_lon": 0.0, "is_disabled": 0, "lat": 38.902779, "bike_id": "7c8620f26729384b9893cea6bd91cc7d", "name": "7c8620f26729384b9893cea6bd91cc7d", "is_reserved": 0, "fusion_lat": 0.0}, {"type": "electric_scooter", "rental_uris": {"ios": "https://dc.lft.to/lastmile_qr_scan", "android": "https://dc.lft.to/lastmile_qr_scan"}, "lon": -77.04034333333334, "fusion_lon": 0.0, "is_disabled": 0, "lat": 38.9244655, "bike_id": "62a2a014f399bac1d907645a1dc72b14", "name": "62a2a014f399bac1d907645a1dc72b14", "is_reserved": 0, "fusion_lat": 0.0}, {"type": "electric_scooter", "rental_uris": {"ios": "https://dc.lft.to/lastmile_qr_scan", "android": "https://dc.lft.to/lastmile_qr_scan"}, "lon": -77.0131575, "fusion_lon": 0.0, "is_disabled": 0, "lat": 38.906051833333336, "bike_id": "8c4cf10ac149a7289963d3f8f782f703", "name": "8c4cf10ac149a7289963d3f8f782f703", "is_reserved": 0, "fusion_lat": 0.0}, {"type": "electric_scooter", "rental_uris": {"ios": "https://dc.lft.to/lastmile_qr_scan", "android": "https://dc.lft.to/lastmile_qr_scan"}, "lon": -76.988367, "fusion_lon": 0.0, "is_disabled": 0, "lat": 38.892486, "bike_id": "586f9535ebada42cdc800d114f126f67", "name": "586f9535ebada42cdc800d114f126f67", "is_reserved": 0, "fusion_lat": 0.0}, {"type": "electric_scooter", "rental_uris": {"ios": "https://dc.lft.to/lastmile_qr_scan", "android": "https://dc.lft.to/lastmile_qr_scan"}, "lon": -77.03168483333333, "fusion_lon": 0.0, "is_disabled": 0, "lat": 38.89980166666667, "bike_id": "7e1f99b1d06288eafa45701f90cc3ab1", "name": "7e1f99b1d06288eafa45701f90cc3ab1", "is_reserved": 0, "fusion_lat": 0.0}, {"type": "electric_scooter", "rental_uris": {"ios": "https://dc.lft.to/lastmile_qr_scan", "android": "https://dc.lft.to/lastmile_qr_scan"}, "lon": -77.04482616666667, "fusion_lon": 0.0, "is_disabled": 0, "lat": 38.911645, "bike_id": "2ccd6ee46e9fb807920d32809ed8d900", "name": "2ccd6ee46e9fb807920d32809ed8d900", "is_reserved": 0, "fusion_lat": 0.0}, {"type": "electric_scooter", "rental_uris": {"ios": "https://dc.lft.to/lastmile_qr_scan", "android": "https://dc.lft.to/lastmile_qr_scan"}, "lon": -77.0328835, "fusion_lon": 0.0, "is_disabled": 0, "lat": 38.92552766666667, "bike_id": "3cec1562a24d68a9363f145c4e55cedf", "name": "3cec1562a24d68a9363f145c4e55cedf", "is_reserved": 0, "fusion_lat": 0.0}, {"type": "electric_scooter", "rental_uris": {"ios": "https://dc.lft.to/lastmile_qr_scan", "android": "https://dc.lft.to/lastmile_qr_scan"}, "lon": -77.01190833333334, "fusion_lon": 0.0, "is_disabled": 0, "lat": 38.903231, "bike_id": "60e9866d2c139bf3d37265037d3b34d1", "name": "60e9866d2c139bf3d37265037d3b34d1", "is_reserved": 0, "fusion_lat": 0.0}, {"type": "electric_scooter", "rental_uris": {"ios": "https://dc.lft.to/lastmile_qr_scan", "android": "https://dc.lft.to/lastmile_qr_scan"}, "lon": -76.99776766666666, "fusion_lon": 0.0, "is_disabled": 0, "lat": 38.844256666666666, "bike_id": "357ea0f53484eb57b6b3ea5ead8c9da2", "name": "357ea0f53484eb57b6b3ea5ead8c9da2", "is_reserved": 0, "fusion_lat": 0.0}, {"type": "electric_scooter", "rental_uris": {"ios": "https://dc.lft.to/lastmile_qr_scan", "android": "https://dc.lft.to/lastmile_qr_scan"}, "lon": -77.04035583333334, "fusion_lon": 0.0, "is_disabled": 0, "lat": 38.9236215, "bike_id": "1d5504565bdc28eb8acbd4e3c7a7ba1d", "name": "1d5504565bdc28eb8acbd4e3c7a7ba1d", "is_reserved": 0, "fusion_lat": 0.0}, {"type": "electric_scooter", "rental_uris": {"ios": "https://dc.lft.to/lastmile_qr_scan", "android": "https://dc.lft.to/lastmile_qr_scan"}, "lon": -77.0404555, "fusion_lon": 0.0, "is_disabled": 0, "lat": 38.9141395, "bike_id": "6ebcee88a1e7e2f9696586c4e1e44ca5", "name": "6ebcee88a1e7e2f9696586c4e1e44ca5", "is_reserved": 0, "fusion_lat": 0.0}, {"type": "electric_scooter", "rental_uris": {"ios": "https://dc.lft.to/lastmile_qr_scan", "android": "https://dc.lft.to/lastmile_qr_scan"}, "lon": -76.95759666666666, "fusion_lon": 0.0, "is_disabled": 0, "lat": 38.884320333333335, "bike_id": "e809c7a7fbfd6d10f4a30fc5530bfa65", "name": "e809c7a7fbfd6d10f4a30fc5530bfa65", "is_reserved": 0, "fusion_lat": 0.0}, {"type": "electric_scooter", "rental_uris": {"ios": "https://dc.lft.to/lastmile_qr_scan", "android": "https://dc.lft.to/lastmile_qr_scan"}, "lon": -77.0345555, "fusion_lon": 0.0, "is_disabled": 0, "lat": 38.93090266666667, "bike_id": "558be8e2ec45d58146f0ccc351ec2680", "name": "558be8e2ec45d58146f0ccc351ec2680", "is_reserved": 0, "fusion_lat": 0.0}, {"type": "electric_scooter", "rental_uris": {"ios": "https://dc.lft.to/lastmile_qr_scan", "android": "https://dc.lft.to/lastmile_qr_scan"}, "lon": -77.027132, "fusion_lon": 0.0, "is_disabled": 0, "lat": 38.90671733333333, "bike_id": "a605006c07b018af0aca5c324824e6b3", "name": "a605006c07b018af0aca5c324824e6b3", "is_reserved": 0, "fusion_lat": 0.0}, {"type": "electric_bike", "rental_uris": {"ios": "https://dc.lft.to/lastmile_qr_scan", "android": "https://dc.lft.to/lastmile_qr_scan"}, "lon": -77.10602033333333, "fusion_lon": 0.0, "is_disabled": 0, "lat": 38.928975, "bike_id": "e384e32fc217c9b2097e9d73e091ddff", "name": "e384e32fc217c9b2097e9d73e091ddff", "is_reserved": 0, "fusion_lat": 0.0}, {"type": "electric_scooter", "rental_uris": {"ios": "https://dc.lft.to/lastmile_qr_scan", "android": "https://dc.lft.to/lastmile_qr_scan"}, "lon": -77.0212875, "fusion_lon": 0.0, "is_disabled": 0, "lat": 38.8874025, "bike_id": "846e160c12b5a325d761fda47708c904", "name": "846e160c12b5a325d761fda47708c904", "is_reserved": 0, "fusion_lat": 0.0}, {"type": "electric_scooter", "rental_uris": {"ios": "https://dc.lft.to/lastmile_qr_scan", "android": "https://dc.lft.to/lastmile_qr_scan"}, "lon": -77.01576983333334, "fusion_lon": 0.0, "is_disabled": 0, "lat": 38.916807666666664, "bike_id": "6c45e59f0922990ddf5ed340f334ac80", "name": "6c45e59f0922990ddf5ed340f334ac80", "is_reserved": 0, "fusion_lat": 0.0}, {"type": "electric_scooter", "rental_uris": {"ios": "https://dc.lft.to/lastmile_qr_scan", "android": "https://dc.lft.to/lastmile_qr_scan"}, "lon": -77.02390933333334, "fusion_lon": 0.0, "is_disabled": 0, "lat": 38.957206, "bike_id": "e0e4cfefe5014ee949eda45fc1c730f3", "name": "e0e4cfefe5014ee949eda45fc1c730f3", "is_reserved": 0, "fusion_lat": 0.0}, {"type": "electric_bike", "rental_uris": {"ios": "https://dc.lft.to/lastmile_qr_scan", "android": "https://dc.lft.to/lastmile_qr_scan"}, "lon": -77.035962, "fusion_lon": 0.0, "is_disabled": 0, "lat": 38.90694533333333, "bike_id": "7b6cba8e73b2477302e56618edf5c9c2", "name": "7b6cba8e73b2477302e56618edf5c9c2", "is_reserved": 0, "fusion_lat": 0.0}, {"type": "electric_scooter", "rental_uris": {"ios": "https://dc.lft.to/lastmile_qr_scan", "android": "https://dc.lft.to/lastmile_qr_scan"}, "lon": -77.03867483333333, "fusion_lon": 0.0, "is_disabled": 0, "lat": 38.912379333333334, "bike_id": "98e23bed72def31dd31a57a24e6914b2", "name": "98e23bed72def31dd31a57a24e6914b2", "is_reserved": 0, "fusion_lat": 0.0}, {"type": "electric_scooter", "rental_uris": {"ios": "https://dc.lft.to/lastmile_qr_scan", "android": "https://dc.lft.to/lastmile_qr_scan"}, "lon": -76.99512733333333, "fusion_lon": 0.0, "is_disabled": 0, "lat": 38.9266845, "bike_id": "94140c9df51ddc1b00b30c451792f4a7", "name": "94140c9df51ddc1b00b30c451792f4a7", "is_reserved": 0, "fusion_lat": 0.0}, {"type": "electric_scooter", "rental_uris": {"ios": "https://dc.lft.to/lastmile_qr_scan", "android": "https://dc.lft.to/lastmile_qr_scan"}, "lon": -77.02797266666667, "fusion_lon": 0.0, "is_disabled": 0, "lat": 38.899313, "bike_id": "4e08f2eb6bdb4a0d0aecc6614ef510d2", "name": "4e08f2eb6bdb4a0d0aecc6614ef510d2", "is_reserved": 0, "fusion_lat": 0.0}, {"type": "electric_scooter", "rental_uris": {"ios": "https://dc.lft.to/lastmile_qr_scan", "android": "https://dc.lft.to/lastmile_qr_scan"}, "lon": -77.042058, "fusion_lon": 0.0, "is_disabled": 0, "lat": 38.905175666666665, "bike_id": "f18cbaa326dd4d5c54b7bd80eeaeb35c", "name": "f18cbaa326dd4d5c54b7bd80eeaeb35c", "is_reserved": 0, "fusion_lat": 0.0}, {"type": "electric_scooter", "rental_uris": {"ios": "https://dc.lft.to/lastmile_qr_scan", "android": "https://dc.lft.to/lastmile_qr_scan"}, "lon": -77.04336216666667, "fusion_lon": 0.0, "is_disabled": 0, "lat": 38.905311166666664, "bike_id": "36d40bb7dceef329974a9cfc9cc183f7", "name": "36d40bb7dceef329974a9cfc9cc183f7", "is_reserved": 0, "fusion_lat": 0.0}, {"type": "electric_scooter", "rental_uris": {"ios": "https://dc.lft.to/lastmile_qr_scan", "android": "https://dc.lft.to/lastmile_qr_scan"}, "lon": -77.00367766666666, "fusion_lon": 0.0, "is_disabled": 0, "lat": 38.882631333333336, "bike_id": "4069cef74f3ff252f6b4383877d8b47c", "name": "4069cef74f3ff252f6b4383877d8b47c", "is_reserved": 0, "fusion_lat": 0.0}, {"type": "electric_scooter", "rental_uris": {"ios": "https://dc.lft.to/lastmile_qr_scan", "android": "https://dc.lft.to/lastmile_qr_scan"}, "lon": -77.03663783333333, "fusion_lon": 0.0, "is_disabled": 0, "lat": 38.91862016666666, "bike_id": "f97ac208499589669a861a648c7bfb89", "name": "f97ac208499589669a861a648c7bfb89", "is_reserved": 0, "fusion_lat": 0.0}, {"type": "electric_scooter", "rental_uris": {"ios": "https://dc.lft.to/lastmile_qr_scan", "android": "https://dc.lft.to/lastmile_qr_scan"}, "lon": -77.0298005, "fusion_lon": 0.0, "is_disabled": 0, "lat": 38.930656666666664, "bike_id": "0012f180e631f5c411d9dccd5652eee9", "name": "0012f180e631f5c411d9dccd5652eee9", "is_reserved": 0, "fusion_lat": 0.0}, {"type": "electric_scooter", "rental_uris": {"ios": "https://dc.lft.to/lastmile_qr_scan", "android": "https://dc.lft.to/lastmile_qr_scan"}, "lon": -77.01067533333334, "fusion_lon": 0.0, "is_disabled": 0, "lat": 38.9072855, "bike_id": "dadad13c07b6bbf784d870790b8468a2", "name": "dadad13c07b6bbf784d870790b8468a2", "is_reserved": 0, "fusion_lat": 0.0}, {"type": "electric_scooter", "rental_uris": {"ios": "https://dc.lft.to/lastmile_qr_scan", "android": "https://dc.lft.to/lastmile_qr_scan"}, "lon": -76.95410383333333, "fusion_lon": 0.0, "is_disabled": 0, "lat": 38.89000083333333, "bike_id": "7eabd0d10540d92f6d4115b6d90cd4eb", "name": "7eabd0d10540d92f6d4115b6d90cd4eb", "is_reserved": 0, "fusion_lat": 0.0}, {"type": "electric_scooter", "rental_uris": {"ios": "https://dc.lft.to/lastmile_qr_scan", "android": "https://dc.lft.to/lastmile_qr_scan"}, "lon": -77.0417495, "fusion_lon": 0.0, "is_disabled": 0, "lat": 38.91550083333333, "bike_id": "8f7295a63fc26343263435947b69cec9", "name": "8f7295a63fc26343263435947b69cec9", "is_reserved": 0, "fusion_lat": 0.0}, {"type": "electric_scooter", "rental_uris": {"ios": "https://dc.lft.to/lastmile_qr_scan", "android": "https://dc.lft.to/lastmile_qr_scan"}, "lon": -77.04187533333334, "fusion_lon": 0.0, "is_disabled": 0, "lat": 38.9052525, "bike_id": "41bc310df269e8a965f8264637dd78e9", "name": "41bc310df269e8a965f8264637dd78e9", "is_reserved": 0, "fusion_lat": 0.0}, {"type": "electric_scooter", "rental_uris": {"ios": "https://dc.lft.to/lastmile_qr_scan", "android": "https://dc.lft.to/lastmile_qr_scan"}, "lon": -77.03670116666666, "fusion_lon": 0.0, "is_disabled": 0, "lat": 38.917079666666666, "bike_id": "07efe5c6e4a1f064f6119426f85b5647", "name": "07efe5c6e4a1f064f6119426f85b5647", "is_reserved": 0, "fusion_lat": 0.0}, {"type": "electric_scooter", "rental_uris": {"ios": "https://dc.lft.to/lastmile_qr_scan", "android": "https://dc.lft.to/lastmile_qr_scan"}, "lon": -76.9869355, "fusion_lon": 0.0, "is_disabled": 0, "lat": 38.86628, "bike_id": "f54cd940ea857aa071c0705ce14f5d59", "name": "f54cd940ea857aa071c0705ce14f5d59", "is_reserved": 0, "fusion_lat": 0.0}, {"type": "electric_scooter", "rental_uris": {"ios": "https://dc.lft.to/lastmile_qr_scan", "android": "https://dc.lft.to/lastmile_qr_scan"}, "lon": -77.05926166666667, "fusion_lon": 0.0, "is_disabled": 0, "lat": 38.909457, "bike_id": "892af372383463a47ec2d004fa9d62c6", "name": "892af372383463a47ec2d004fa9d62c6", "is_reserved": 0, "fusion_lat": 0.0}, {"type": "electric_scooter", "rental_uris": {"ios": "https://dc.lft.to/lastmile_qr_scan", "android": "https://dc.lft.to/lastmile_qr_scan"}, "lon": -77.02029066666667, "fusion_lon": 0.0, "is_disabled": 0, "lat": 38.931923833333336, "bike_id": "7d71efd795904263dc02419cbb3d4297", "name": "7d71efd795904263dc02419cbb3d4297", "is_reserved": 0, "fusion_lat": 0.0}, {"type": "electric_bike", "rental_uris": {"ios": "https://dc.lft.to/lastmile_qr_scan", "android": "https://dc.lft.to/lastmile_qr_scan"}, "lon": -76.92499133333334, "fusion_lon": 0.0, "is_disabled": 0, "lat": 38.999984833333336, "bike_id": "81948dcda9cbf734c8543b3e9a999b63", "name": "81948dcda9cbf734c8543b3e9a999b63", "is_reserved": 0, "fusion_lat": 0.0}, {"type": "electric_scooter", "rental_uris": {"ios": "https://dc.lft.to/lastmile_qr_scan", "android": "https://dc.lft.to/lastmile_qr_scan"}, "lon": -77.032125, "fusion_lon": 0.0, "is_disabled": 0, "lat": 38.90979866666667, "bike_id": "22dfb40369cdae69d21bb234e29cca25", "name": "22dfb40369cdae69d21bb234e29cca25", "is_reserved": 0, "fusion_lat": 0.0},