{"data": {"bikes": [{"rental_uris": {"ios": "https://dc.lft.to/lastmile_qr_scan", "android": "https://dc.lft.to/lastmile_qr_scan"}, "fusion_lon": 0.0, "lon": -77.02152566666666, "lat": 38.926033, "is_reserved": 0, "name": "51846b30dc48059bd7269ba792fe0465", "is_disabled": 0, "type": "electric_scooter", "fusion_lat": 0.0, "bike_id": "51846b30dc48059bd7269ba792fe0465"}, {"rental_uris": {"ios": "https://dc.lft.to/lastmile_qr_scan", "android": "https://dc.lft.to/lastmile_qr_scan"}, "fusion_lon": 0.0, "lon": -77.0729435, "lat": 38.93545833333334, "is_reserved": 0, "name": "2d425d0a0941b05fc35194f7f11afa04", "is_disabled": 0, "type": "electric_scooter", "fusion_lat": 0.0, "bike_id": "2d425d0a0941b05fc35194f7f11afa04"}, {"rental_uris": {"ios": "https://dc.lft.to/lastmile_qr_scan", "android": "https://dc.lft.to/lastmile_qr_scan"}, "fusion_lon": 0.0, "lon": -77.044884, "lat": 38.905867666666666, "is_reserved": 0, "name": "25fa148f1358b1728ad67c634c68945c", "is_disabled": 0, "type": "electric_bike", "fusion_lat": 0.0, "bike_id": "25fa148f1358b1728ad67c634c68945c"}, {"rental_uris": {"ios": "https://dc.lft.to/lastmile_qr_scan", "android": "https://dc.lft.to/lastmile_qr_scan"}, "fusion_lon": 0.0, "lon": -77.03119616666666, "lat": 38.923860166666664, "is_reserved": 0, "name": "36a9803a4e22df671e0fac640c227663", "is_disabled": 0, "type": "electric_scooter", "fusion_lat": 0.0, "bike_id": "36a9803a4e22df671e0fac640c227663"}, {"rental_uris": {"ios": "https://dc.lft.to/lastmile_qr_scan", "android": "https://dc.lft.to/lastmile_qr_scan"}, "fusion_lon": 0.0, "lon": -77.0187455, "lat": 38.917741, "is_reserved": 0, "name": "36e5e8c2a1dc6ba0e22ecbcab6cab24c", "is_disabled": 0, "type": "electric_scooter", "fusion_lat": 0.0, "bike_id": "36e5e8c2a1dc6ba0e22ecbcab6cab24c"}, {"rental_uris": {"ios": "https://dc.lft.to/lastmile_qr_scan", "android": "https://dc.lft.to/lastmile_qr_scan"}, "fusion_lon": 0.0, "lon": -77.07357233333333, "lat": 38.91011566666667, "is_reserved": 0, "name": "b78e9ef3117a68e2528450490845dc4a", "is_disabled": 0, "type": "electric_scooter", "fusion_lat": 0.0, "bike_id": "b78e9ef3117a68e2528450490845dc4a"}, {"rental_uris": {"ios": "https://dc.lft.to/lastmile_qr_scan", "android": "https://dc.lft.to/lastmile_qr_scan"}, "fusion_lon": 0.0, "lon": -77.02650083333333, "lat": 38.9755385, "is_reserved": 0, "name": "0cefb9b14cd9b09905d542e2cd514cd3", "is_disabled": 0, "type": "electric_scooter", "fusion_lat": 0.0, "bike_id": "0cefb9b14cd9b09905d542e2cd514cd3"}, {"rental_uris": {"ios": "https://dc.lft.to/lastmile_qr_scan", "android": "https://dc.lft.to/lastmile_qr_scan"}, "fusion_lon": 0.0, "lon": -76.9451705, "lat": 38.8628485, "is_reserved": 0, "name": "488fd238b6d58243ee59bfb5a3621ba2", "is_disabled": 0, "type": "electric_bike", "fusion_lat": 0.0, "bike_id": "488fd238b6d58243ee59bfb5a3621ba2"}, {"rental_uris": {"ios": "https://dc.lft.to/lastmile_qr_scan", "android": "https://dc.lft.to/lastmile_qr_scan"}, "fusion_lon": 0.0, "lon": -77.01981883333333, "lat": 38.8937025, "is_reserved": 0, "name": "ece587fcf04bc31a9a78337991ef5c64", "is_disabled": 0, "type": "electric_scooter", "fusion_lat": 0.0, "bike_id": "ece587fcf04bc31a9a78337991ef5c64"}, {"rental_uris": {"ios": "https://dc.lft.to/lastmile_qr_scan", "android": "https://dc.lft.to/lastmile_qr_scan"}, "fusion_lon": 0.0, "lon": -77.041774, "lat": 38.90008433333333, "is_reserved": 0, "name": "25733dcc30eeb34adc04065a3e2d99c7", "is_disabled": 0, "type": "electric_scooter", "fusion_lat": 0.0, "bike_id": "25733dcc30eeb34adc04065a3e2d99c7"}, {"rental_uris": {"ios": "https://dc.lft.to/lastmile_qr_scan", "android": "https://dc.lft.to/lastmile_qr_scan"}, "fusion_lon": 0.0, "lon": -77.032696, "lat": 38.92840416666667, "is_reserved": 0, "name": "bda5230090ec354e8ff781feb5094d5d", "is_disabled": 0, "type": "electric_scooter", "fusion_lat": 0.0, "bike_id": "bda5230090ec354e8ff781feb5094d5d"}, {"rental_uris": {"ios": "https://dc.lft.to/lastmile_qr_scan", "android": "https://dc.lft.to/lastmile_qr_scan"}, "fusion_lon": 0.0, "lon": -77.04674333333334, "lat": 38.90972216666667, "is_reserved": 0, "name": "1e2a35cff77d30e1def7e83713600c01", "is_disabled": 0, "type": "electric_scooter", "fusion_lat": 0.0, "bike_id": "1e2a35cff77d30e1def7e83713600c01"}, {"rental_uris": {"ios": "https://dc.lft.to/lastmile_qr_scan", "android": "https://dc.lft.to/lastmile_qr_scan"}, "fusion_lon": 0.0, "lon": -76.97942016666667, "lat": 38.906539, "is_reserved": 0, "name": "5ed5b384b08bc12a5f1e00445303cd8d", "is_disabled": 0, "type": "electric_scooter", "fusion_lat": 0.0, "bike_id": "5ed5b384b08bc12a5f1e00445303cd8d"}, {"rental_uris": {"ios": "https://dc.lft.to/lastmile_qr_scan", "android": "https://dc.lft.to/lastmile_qr_scan"}, "fusion_lon": 0.0, "lon": -77.0418825, "lat": 38.923271, "is_reserved": 0, "name": "d4913ae3744dc1d3b2e61dfa2a082559", "is_disabled": 0, "type": "electric_scooter", "fusion_lat": 0.0, "bike_id": "d4913ae3744dc1d3b2e61dfa2a082559"}, {"rental_uris": {"ios": "https://dc.lft.to/lastmile_qr_scan", "android": "https://dc.lft.to/lastmile_qr_scan"}, "fusion_lon": 0.0, "lon": -77.02481916666666, "lat": 38.93098366666667, "is_reserved": 0, "name": "4c6a8645c49547e97edb68bf3a19d98f", "is_disabled": 0, "type": "electric_scooter", "fusion_lat": 0.0, "bike_id": "4c6a8645c49547e97edb68bf3a19d98f"}, {"rental_uris": {"ios": "https://dc.lft.to/lastmile_qr_scan", "android": "https://dc.lft.to/lastmile_qr_scan"}, "fusion_lon": 0.0, "lon": -76.92303466666667, "lat": 38.893858333333334, "is_reserved": 0, "name": "cf4531af0fdece8765d49c407de67ad2", "is_disabled": 0, "type": "electric_scooter", "fusion_lat": 0.0, "bike_id": "cf4531af0fdece8765d49c407de67ad2"}, {"rental_uris": {"ios": "https://dc.lft.to/lastmile_qr_scan", "android": "https://dc.lft.to/lastmile_qr_scan"}, "fusion_lon": 0.0, "lon": -77.03197566666667, "lat": 38.894648, "is_reserved": 0, "name": "fdbaa48d92a6cc37d74b89fde806eb3b", "is_disabled": 0, "type": "electric_scooter", "fusion_lat": 0.0, "bike_id": "fdbaa48d92a6cc37d74b89fde806eb3b"}, {"rental_uris": {"ios": "https://dc.lft.to/lastmile_qr_scan", "android": "https://dc.lft.to/lastmile_qr_scan"}, "fusion_lon": 0.0, "lon": -76.93545083333333, "lat": 38.876417333333336, "is_reserved": 0, "name": "7c50bc695468b8c9f867c56a1fa9fa2d", "is_disabled": 0, "type": "electric_bike", "fusion_lat": 0.0, "bike_id": "7c50bc695468b8c9f867c56a1fa9fa2d"}, {"rental_uris": {"ios": "https://dc.lft.to/lastmile_qr_scan", "android": "https://dc.lft.to/lastmile_qr_scan"}, "fusion_lon": 0.0, "lon": -77.0334535, "lat": 38.884793333333334, "is_reserved": 0, "name": "6dde7872394f89ce466d3e1e0b9a2c4c", "is_disabled": 0, "type": "electric_scooter", "fusion_lat": 0.0, "bike_id": "6dde7872394f89ce466d3e1e0b9a2c4c"}, {"rental_uris": {"ios": "https://dc.lft.to/lastmile_qr_scan", "android": "https://dc.lft.to/lastmile_qr_scan"}, "fusion_lon": 0.0, "lon": -77.04347016666667, "lat": 38.911171, "is_reserved": 0, "name": "62329e1ac50274b30c17ad35b7d67d72", "is_disabled": 0, "type": "electric_scooter", "fusion_lat": 0.0, "bike_id": "62329e1ac50274b30c17ad35b7d67d72"}, {"rental_uris": {"ios": "https://dc.lft.to/lastmile_qr_scan", "android": "https://dc.lft.to/lastmile_qr_scan"}, "fusion_lon": 0.0, "lon": -77.0502425, "lat": 38.892609666666665, "is_reserved": 0, "name": "588c5b284f8a78cc5216c379889c43df", "is_disabled": 0, "type": "electric_scooter", "fusion_lat": 0.0, "bike_id": "588c5b284f8a78cc5216c379889c43df"}, {"rental_uris": {"ios": "https://dc.lft.to/lastmile_qr_scan", "android": "https://dc.lft.to/lastmile_qr_scan"}, "fusion_lon": 0.0, "lon": -77.02099283333334, "lat": 38.9120785, "is_reserved": 0, "name": "e8033d9f756a699a5c55424e28138873", "is_disabled": 0, "type": "electric_scooter", "fusion_lat": 0.0, "bike_id": "e8033d9f756a699a5c55424e28138873"}, {"rental_uris": {"ios": "https://dc.lft.to/lastmile_qr_scan", "android": "https://dc.lft.to/lastmile_qr_scan"}, "fusion_lon": 0.0, "lon": -77.0531045, "lat": 38.907172333333335, "is_reserved": 0, "name": "6e9d0cf04a21158f81fc60182c9ac5f3", "is_disabled": 0, "type": "electric_scooter", "fusion_lat": 0.0, "bike_id": "6e9d0cf04a21158f81fc60182c9ac5f3"}, {"rental_uris": {"ios": "https://dc.lft.to/lastmile_qr_scan", "android": "https://dc.lft.to/lastmile_qr_scan"}, "fusion_lon": 0.0, "lon": -77.03661066666666, "lat": 38.9228415, "is_reserved": 0, "name": "7af99280fd338f2a079902bd36154c00", "is_disabled": 0, "type": "electric_scooter", "fusion_lat": 0.0, "bike_id": "7af99280fd338f2a079902bd36154c00"}, {"rental_uris": {"ios": "https://dc.lft.to/lastmile_qr_scan", "android": "https://dc.lft.to/lastmile_qr_scan"}, "fusion_lon": 0.0, "lon": -76.9921625, "lat": 38.893557666666666, "is_reserved": 0, "name": "2a7d1ec93ceaf78e2b8887f054f87070", "is_disabled": 0, "type": "electric_scooter", "fusion_lat": 0.0, "bike_id": "2a7d1ec93ceaf78e2b8887f054f87070"}, {"rental_uris": {"ios": "https://dc.lft.to/lastmile_qr_scan", "android": "https://dc.lft.to/lastmile_qr_scan"}, "fusion_lon": 0.0, "lon": -77.01413333333333, "lat": 38.928584666666666, "is_reserved": 0, "name": "84f6de8fa557a1af417e536862be3808", "is_disabled": 0, "type": "electric_scooter", "fusion_lat": 0.0, "bike_id": "84f6de8fa557a1af417e536862be3808"}, {"rental_uris": {"ios": "https://dc.lft.to/lastmile_qr_scan", "android": "https://dc.lft.to/lastmile_qr_scan"}, "fusion_lon": 0.0, "lon": -77.0256715, "lat": 38.900830666666664, "is_reserved": 0, "name": "c4f3e0990f3b01738c8a9134e6d13ba5", "is_disabled": 0, "type": "electric_scooter", "fusion_lat": 0.0, "bike_id": "c4f3e0990f3b01738c8a9134e6d13ba5"}, {"rental_uris": {"ios": "https://dc.lft.to/lastmile_qr_scan", "android": "https://dc.lft.to/lastmile_qr_scan"}, "fusion_lon": 0.0, "lon": -77.03183766666666, "lat": 38.93314516666667, "is_reserved": 0, "name": "26ec9e049c07284bc87a9d7aab631347", "is_disabled": 0, "type": "electric_scooter", "fusion_lat": 0.0, "bike_id": "26ec9e049c07284bc87a9d7aab631347"}, {"rental_uris": {"ios": "https://dc.lft.to/lastmile_qr_scan", "android": "https://dc.lft.to/lastmile_qr_scan"}, "fusion_lon": 0.0, "lon": -77.0402565, "lat": 38.90377133333333, "is_reserved": 0, "name": "b5a49a17b56d606f636986485db5098a", "is_disabled": 0, "type": "electric_scooter", "fusion_lat": 0.0, "bike_id": "b5a49a17b56d606f636986485db5098a"}, {"rental_uris": {"ios": "https://dc.lft.to/lastmile_qr_scan", "android": "https://dc.lft.to/lastmile_qr_scan"}, "fusion_lon": 0.0, "lon": -77.0176335, "lat": 38.876704, "is_reserved": 0, "name": "e86b07cc123a8e2fe5fe783464a9c13f", "is_disabled": 0, "type": "electric_scooter", "fusion_lat": 0.0, "bike_id": "e86b07cc123a8e2fe5fe783464a9c13f"}, {"rental_uris": {"ios": "https://dc.lft.to/lastmile_qr_scan", "android": "https://dc.lft.to/lastmile_qr_scan"}, "fusion_lon": 0.0, "lon": -77.00545966666667, "lat": 38.92752483333334, "is_reserved": 0, "name": "87b48c4a37212d810cf3ddcc62af8f40", "is_disabled": 0, "type": "electric_scooter", "fusion_lat": 0.0, "bike_id": "87b48c4a37212d810cf3ddcc62af8f40"}, {"rental_uris": {"ios": "https://dc.lft.to/lastmile_qr_scan", "android": "https://dc.lft.to/lastmile_qr_scan"}, "fusion_lon": 0.0, "lon": -77.00749316666666, "lat": 38.87638033333333, "is_reserved": 0, "name": "96846a6f1a93d23c85be7765b0e80968", "is_disabled": 0, "type": "electric_scooter", "fusion_lat": 0.0, "bike_id": "96846a6f1a93d23c85be7765b0e80968"}, {"rental_uris": {"ios": "https://dc.lft.to/lastmile_qr_scan", "android": "https://dc.lft.to/lastmile_qr_scan"}, "fusion_lon": 0.0, "lon": -77.02860583333333, "lat": 38.882011166666665, "is_reserved": 0, "name": "d341603f0723bd2f6418d2a340296a1b", "is_disabled": 0, "type": "electric_scooter", "fusion_lat": 0.0, "bike_id": "d341603f0723bd2f6418d2a340296a1b"}, {"rental_uris": {"ios": "https://dc.lft.to/lastmile_qr_scan", "android": "https://dc.lft.to/lastmile_qr_scan"}, "fusion_lon": 0.0, "lon": -77.09688783333333, "lat": 38.807372666666666, "is_reserved": 0, "name": "6604716f6f1c8e3d0c3736b42d7fd732", "is_disabled": 0, "type": "electric_bike", "fusion_lat": 0.0, "bike_id": "6604716f6f1c8e3d0c3736b42d7fd732"}, {"rental_uris": {"ios": "https://dc.lft.to/lastmile_qr_scan", "android": "https://dc.lft.to/lastmile_qr_scan"}, "fusion_lon": 0.0, "lon": -77.00769966666667, "lat": 38.90054666666666, "is_reserved": 0, "name": "f242a0f552adfbef52221a1fb0207c3d", "is_disabled": 0, "type": "electric_scooter", "fusion_lat": 0.0, "bike_id": "f242a0f552adfbef52221a1fb0207c3d"}, {"rental_uris": {"ios": "https://dc.lft.to/lastmile_qr_scan", "android": "https://dc.lft.to/lastmile_qr_scan"}, "fusion_lon": 0.0, "lon": -77.028066, "lat": 38.89566, "is_reserved": 0, "name": "0981d812e4786f8b85cc85b2374ece3f", "is_disabled": 0, "type": "electric_scooter", "fusion_lat": 0.0, "bike_id": "0981d812e4786f8b85cc85b2374ece3f"}, {"rental_uris": {"ios": "https://dc.lft.to/lastmile_qr_scan", "android": "https://dc.lft.to/lastmile_qr_scan"}, "fusion_lon": 0.0, "lon": -77.03295883333334, "lat": 38.90579916666667, "is_reserved": 0, "name": "b95782f7a955ab13aaaaa36697cffa21", "is_disabled": 0, "type": "electric_scooter", "fusion_lat": 0.0, "bike_id": "b95782f7a955ab13aaaaa36697cffa21"}, {"rental_uris": {"ios": "https://dc.lft.to/lastmile_qr_scan", "android": "https://dc.lft.to/lastmile_qr_scan"}, "fusion_lon": 0.0, "lon": -76.96258766666666, "lat": 38.882468833333334, "is_reserved": 0, "name": "e05eaa92af878cb997c3dbc0252760b1", "is_disabled": 0, "type": "electric_bike", "fusion_lat": 0.0, "bike_id": "e05eaa92af878cb997c3dbc0252760b1"}, {"rental_uris": {"ios": "https://dc.lft.to/lastmile_qr_scan", "android": "https://dc.lft.to/lastmile_qr_scan"}, "fusion_lon": 0.0, "lon": -77.04463266666667, "lat": 38.918698666666664, "is_reserved": 0, "name": "a3928a5531902b16366b7289f5e835f5", "is_disabled": 0, "type": "electric_scooter", "fusion_lat": 0.0, "bike_id": "a3928a5531902b16366b7289f5e835f5"}, {"rental_uris": {"ios": "https://dc.lft.to/lastmile_qr_scan", "android": "https://dc.lft.to/lastmile_qr_scan"}, "fusion_lon": 0.0, "lon": -77.03258616666666, "lat": 38.88076016666667, "is_reserved": 0, "name": "571444e2663abff19a8798ac4f7bb2e7", "is_disabled": 0, "type": "electric_bike", "fusion_lat": 0.0, "bike_id": "571444e2663abff19a8798ac4f7bb2e7"}, {"rental_uris": {"ios": "https://dc.lft.to/lastmile_qr_scan", "android": "https://dc.lft.to/lastmile_qr_scan"}, "fusion_lon": 0.0, "lon": -77.044079, "lat": 38.89616983333333, "is_reserved": 0, "name": "819f3f7e04ac3ae4f76bd303543e1674", "is_disabled": 0, "type": "electric_scooter", "fusion_lat": 0.0, "bike_id": "819f3f7e04ac3ae4f76bd303543e1674"}, {"rental_uris": {"ios": "https://dc.lft.to/lastmile_qr_scan", "android": "https://dc.lft.to/lastmile_qr_scan"}, "fusion_lon": 0.0, "lon": -77.00405466666666, "lat": 38.908626, "is_reserved": 0, "name": "fd75c454cd87780ba4a3a840b3b1c251", "is_disabled": 0, "type": "electric_scooter", "fusion_lat": 0.0, "bike_id": "fd75c454cd87780ba4a3a840b3b1c251"}, {"rental_uris": {"ios": "https://dc.lft.to/lastmile_qr_scan", "android": "https://dc.lft.to/lastmile_qr_scan"}, "fusion_lon": 0.0, "lon": -77.02852683333333, "lat": 38.941964166666665, "is_reserved": 0, "name": "a382cdde78f38abfb96abd74057efd76", "is_disabled": 0, "type": "electric_scooter", "fusion_lat": 0.0, "bike_id": "a382cdde78f38abfb96abd74057efd76"}, {"rental_uris": {"ios": "https://dc.lft.to/lastmile_qr_scan", "android": "https://dc.lft.to/lastmile_qr_scan"}, "fusion_lon": 0.0, "lon": -77.043504, "lat": 38.9013355, "is_reserved": 0, "name": "a511b8d8803027f4e2780476c3d98960", "is_disabled": 0, "type": "electric_scooter", "fusion_lat": 0.0, "bike_id": "a511b8d8803027f4e2780476c3d98960"}, {"rental_uris": {"ios": "https://dc.lft.to/lastmile_qr_scan", "android": "https://dc.lft.to/lastmile_qr_scan"}, "fusion_lon": 0.0, "lon": -76.9916215, "lat": 38.87341333333333, "is_reserved": 0, "name": "7f2b0bd61d70a0fb649ff7491903b35f", "is_disabled": 0, "type": "electric_scooter", "fusion_lat": 0.0, "bike_id": "7f2b0bd61d70a0fb649ff7491903b35f"}, {"rental_uris": {"ios": "https://dc.lft.to/lastmile_qr_scan", "android": "https://dc.lft.to/lastmile_qr_scan"}, "fusion_lon": 0.0, "lon": -77.02966783333333, "lat": 38.8992635, "is_reserved": 0, "name": "980d0f267b2892ec9e718d4cc9d72f43", "is_disabled": 0, "type": "electric_scooter", "fusion_lat": 0.0, "bike_id": "980d0f267b2892ec9e718d4cc9d72f43"}, {"rental_uris": {"ios": "https://dc.lft.to/lastmile_qr_scan", "android": "https://dc.lft.to/lastmile_qr_scan"}, "fusion_lon": 0.0, "lon": -77.02231033333334, "lat": 38.8919615, "is_reserved": 0, "name": "ca85bb4c75683fd9fc55544615352b18", "is_disabled": 0, "type": "electric_scooter", "fusion_lat": 0.0, "bike_id": "ca85bb4c75683fd9fc55544615352b18"}, {"rental_uris": {"ios": "https://dc.lft.to/lastmile_qr_scan", "android": "https://dc.lft.to/lastmile_qr_scan"}, "fusion_lon": 0.0, "lon": -77.00712, "lat": 38.884928333333335, "is_reserved": 0, "name": "dc6f653f23ba564e92c0d83c3cabc3c3", "is_disabled": 0, "type": "electric_scooter", "fusion_lat": 0.0, "bike_id": "dc6f653f23ba564e92c0d83c3cabc3c3"}, {"rental_uris": {"ios": "https://dc.lft.to/lastmile_qr_scan", "android": "https://dc.lft.to/lastmile_qr_scan"}, "fusion_lon": 0.0, "lon": -76.98752916666666, "lat": 38.857984, "is_reserved": 0, "name": "29ebd10c5c42b4c2796c026faecb38be", "is_disabled": 0, "type": "electric_bike", "fusion_lat": 0.0, "bike_id": "29ebd10c5c42b4c2796c026faecb38be"}, {"rental_uris": {"ios": "https://dc.lft.to/lastmile_qr_scan", "android": "https://dc.lft.to/lastmile_qr_scan"}, "fusion_lon": 0.0, "lon": -77.0177485, "lat": 38.877516666666665, "is_reserved": 0, "name": "85ee4e5475363e157d6a10d39cf5663a", "is_disabled": 0, "type": "electric_scooter", "fusion_lat": 0.0, "bike_id": "85ee4e5475363e157d6a10d39cf5663a"}, {"rental_uris": {"ios": "https://dc.lft.to/lastmile_qr_scan", "android": "https://dc.lft.to/lastmile_qr_scan"}, "fusion_lon": 0.0, "lon": -77.03791566666666, "lat": 38.92196366666667, "is_reserved": 0, "name": "c9f338ef08ca2d4d3b11ed97e47ddcd1", "is_disabled": 0, "type": "electric_scooter", "fusion_lat": 0.0, "bike_id": "c9f338ef08ca2d4d3b11ed97e47ddcd1"}, {"rental_uris": {"ios": "https://dc.lft.to/lastmile_qr_scan", "android": "https://dc.lft.to/lastmile_qr_scan"}, "fusion_lon": 0.0, "lon": -77.03111483333333, "lat": 38.91909883333334, "is_reserved": 0, "name": "7dfb765a128273c3c098ed1026c3ec67", "is_disabled": 0, "type": "electric_scooter", "fusion_lat": 0.0, "bike_id": "7dfb765a128273c3c098ed1026c3ec67"}, {"rental_uris": {"ios": "https://dc.lft.to/lastmile_qr_scan", "android": "https://dc.lft.to/lastmile_qr_scan"}, "fusion_lon": 0.0, "lon": -77.022077, "lat": 38.887365, "is_reserved": 0, "name": "9a44de34a6733c15eb8dabde7a69a37c", "is_disabled": 0, "type": "electric_scooter", "fusion_lat": 0.0, "bike_id": "9a44de34a6733c15eb8dabde7a69a37c"}, {"rental_uris": {"ios": "https://dc.lft.to/lastmile_qr_scan", "android": "https://dc.lft.to/lastmile_qr_scan"}, "fusion_lon": 0.0, "lon": -77.039752, "lat": 38.901542666666664, "is_reserved": 0, "name": "b364f06e7c970fe156904295d70ebad2", "is_disabled": 0, "type": "electric_scooter", "fusion_lat": 0.0, "bike_id": "b364f06e7c970fe156904295d70ebad2"}, {"rental_uris": {"ios": "https://dc.lft.to/lastmile_qr_scan", "android": "https://dc.lft.to/lastmile_qr_scan"}, "fusion_lon": 0.0, "lon": -77.04643866666666, "lat": 38.8934195, "is_reserved": 0, "name": "a8eda2eceb79c70996a25388ee30ae19", "is_disabled": 0, "type": "electric_scooter", "fusion_lat": 0.0, "bike_id": "a8eda2eceb79c70996a25388ee30ae19"}, {"rental_uris": {"ios": "https://dc.lft.to/lastmile_qr_scan", "android": "https://dc.lft.to/lastmile_qr_scan"}, "fusion_lon": 0.0, "lon": -77.01949833333333, "lat": 38.92456, "is_reserved": 0, "name": "2db20fdff79154c4c2b455ba115f693b", "is_disabled": 0, "type": "electric_scooter", "fusion_lat": 0.0, "bike_id": "2db20fdff79154c4c2b455ba115f693b"}, {"rental_uris": {"ios": "https://dc.lft.to/lastmile_qr_scan", "android": "https://dc.lft.to/lastmile_qr_scan"}, "fusion_lon": 0.0, "lon": -77.0347785, "lat": 38.92340183333334, "is_reserved": 0, "name": "900219577c433f07790fd1543925eac2", "is_disabled": 0, "type": "electric_scooter", "fusion_lat": 0.0, "bike_id": "900219577c433f07790fd1543925eac2"}, {"rental_uris": {"ios": "https://dc.lft.to/lastmile_qr_scan", "android": "https://dc.lft.to/lastmile_qr_scan"}, "fusion_lon": 0.0, "lon": -77.05015016666667, "lat": 38.90172966666667, "is_reserved": 0, "name": "a460b126390b0f9f64208db44564f73d", "is_disabled": 0, "type": "electric_scooter", "fusion_lat": 0.0, "bike_id": "a460b126390b0f9f64208db44564f73d"}, {"rental_uris": {"ios": "https://dc.lft.to/lastmile_qr_scan", "android": "https://dc.lft.to/lastmile_qr_scan"}, "fusion_lon": 0.0, "lon": -77.027111, "lat": 38.924696833333336, "is_reserved": 0, "name": "60cc35c27a0f319c472bb16203dad060", "is_disabled": 0, "type": "electric_scooter", "fusion_lat": 0.0, "bike_id": "60cc35c27a0f319c472bb16203dad060"}, {"rental_uris": {"ios": "https://dc.lft.to/lastmile_qr_scan", "android": "https://dc.lft.to/lastmile_qr_scan"}, "fusion_lon": 0.0, "lon": -76.97473533333333, "lat": 38.865631, "is_reserved": 0, "name": "d0ec6a31ecf703a9b247703856cc3866", "is_disabled": 0, "type": "electric_bike", "fusion_lat": 0.0, "bike_id": "d0ec6a31ecf703a9b247703856cc3866"}, {"rental_uris": {"ios": "https://dc.lft.to/lastmile_qr_scan", "android": "https://dc.lft.to/lastmile_qr_scan"}, "fusion_lon": 0.0, "lon": -76.99738433333333, "lat": 38.88220583333333, "is_reserved": 0, "name": "7690acbada356f290bcbc2bfc5be3a8b", "is_disabled": 0, "type": "electric_scooter", "fusion_lat": 0.0, "bike_id": "7690acbada356f290bcbc2bfc5be3a8b"}, {"rental_uris": {"ios": "https://dc.lft.to/lastmile_qr_scan", "android": "https://dc.lft.to/lastmile_qr_scan"}, "fusion_lon": 0.0, "lon": -77.03836916666667, "lat": 38.900881166666665, "is_reserved": 0, "name": "d65d18964eac82ec54df3e6982d28c57", "is_disabled": 0, "type": "electric_scooter", "fusion_lat": 0.0, "bike_id": "d65d18964eac82ec54df3e6982d28c57"}, {"rental_uris": {"ios": "https://dc.lft.to/lastmile_qr_scan", "android": "https://dc.lft.to/lastmile_qr_scan"}, "fusion_lon": 0.0, "lon": -77.12040716666667, "lat": 38.82431833333333, "is_reserved": 0, "name": "ef686286c788f5f3363916ffed6cfb09", "is_disabled": 0, "type": "electric_bike", "fusion_lat": 0.0, "bike_id": "ef686286c788f5f3363916ffed6cfb09"}, {"rental_uris": {"ios": "https://dc.lft.to/lastmile_qr_scan", "android": "https://dc.lft.to/lastmile_qr_scan"}, "fusion_lon": 0.0, "lon": -77.02053416666666, "lat": 38.9236245, "is_reserved": 0, "name": "75fbb64a5b658ea1aff0acfab7c53abb", "is_disabled": 0, "type": "electric_scooter", "fusion_lat": 0.0, "bike_id": "75fbb64a5b658ea1aff0acfab7c53abb"}, {"rental_uris": {"ios": "https://dc.lft.to/lastmile_qr_scan", "android": "https://dc.lft.to/lastmile_qr_scan"}, "fusion_lon": 0.0, "lon": -77.02379216666667, "lat": 38.89218983333333, "is_reserved": 0, "name": "c9b528779ef486cb9b7fa8d5dfc8d220", "is_disabled": 0, "type": "electric_scooter", "fusion_lat": 0.0, "bike_id": "c9b528779ef486cb9b7fa8d5dfc8d220"}, {"rental_uris": {"ios": "https://dc.lft.to/lastmile_qr_scan", "android": "https://dc.lft.to/lastmile_qr_scan"}, "fusion_lon": 0.0, "lon": -77.04306016666666, "lat": 38.923329, "is_reserved": 0, "name": "542fd0359b0fa1072cab4c682e5f6c0d", "is_disabled": 0, "type": "electric_scooter", "fusion_lat": 0.0, "bike_id": "542fd0359b0fa1072cab4c682e5f6c0d"}, {"rental_uris": {"ios": "https://dc.lft.to/lastmile_qr_scan", "android": "https://dc.lft.to/lastmile_qr_scan"}, "fusion_lon": 0.0, "lon": -77.02631066666666, "lat": 38.8982545, "is_reserved": 0, "name": "677c99fd603b94b2c048dcefdd6eb2fc", "is_disabled": 0, "type": "electric_scooter", "fusion_lat": 0.0, "bike_id": "677c99fd603b94b2c048dcefdd6eb2fc"}, {"rental_uris": {"ios": "https://dc.lft.to/lastmile_qr_scan", "android": "https://dc.lft.to/lastmile_qr_scan"}, "fusion_lon": 0.0, "lon": -77.039512, "lat": 38.899136666666664, "is_reserved": 0, "name": "d169512e303ebba8ee91027bf884b82f", "is_disabled": 0, "type": "electric_scooter", "fusion_lat": 0.0, "bike_id": "d169512e303ebba8ee91027bf884b82f"}, {"rental_uris": {"ios": "https://dc.lft.to/lastmile_qr_scan", "android": "https://dc.lft.to/lastmile_qr_scan"}, "fusion_lon": 0.0, "lon": -77.06482066666666, "lat": 38.905052, "is_reserved": 0, "name": "2c7ecb825f74a6ea4edaa87038e9d9de", "is_disabled": 0, "type": "electric_scooter", "fusion_lat": 0.0, "bike_id": "2c7ecb825f74a6ea4edaa87038e9d9de"}, {"rental_uris": {"ios": "https://dc.lft.to/lastmile_qr_scan", "android": "https://dc.lft.to/lastmile_qr_scan"}, "fusion_lon": 0.0, "lon": -77.04229783333334, "lat": 38.9218135, "is_reserved": 0, "name": "ef1ac13cc4a2a60b23dd9b80fbc7b183", "is_disabled": 0, "type": "electric_scooter", "fusion_lat": 0.0, "bike_id": "ef1ac13cc4a2a60b23dd9b80fbc7b183"}, {"rental_uris": {"ios": "https://dc.lft.to/lastmile_qr_scan", "android": "https://dc.lft.to/lastmile_qr_scan"}, "fusion_lon": 0.0, "lon": -77.0682995, "lat": 38.8563955, "is_reserved": 0, "name": "7c612ad021e87b318a1a648b0edb586c", "is_disabled": 0, "type": "electric_bike", "fusion_lat": 0.0, "bike_id": "7c612ad021e87b318a1a648b0edb586c"}, {"rental_uris": {"ios": "https://dc.lft.to/lastmile_qr_scan", "android": "https://dc.lft.to/lastmile_qr_scan"}, "fusion_lon": 0.0, "lon": -77.0154705, "lat": 38.928047166666666, "is_reserved": 0, "name": "2088ed7c4635059d82b3f7c9d502aa57", "is_disabled": 0, "type": "electric_scooter", "fusion_lat": 0.0, "bike_id": "2088ed7c4635059d82b3f7c9d502aa57"}, {"rental_uris": {"ios": "https://dc.lft.to/lastmile_qr_scan", "android": "https://dc.lft.to/lastmile_qr_scan"}, "fusion_lon": 0.0, "lon": -77.0318005, "lat": 38.913504833333334, "is_reserved": 0, "name": "bce1d22dae345a01be4b03b6b49ff219", "is_disabled": 0, "type": "electric_scooter", "fusion_lat": 0.0, "bike_id": "bce1d22dae345a01be4b03b6b49ff219"}, {"rental_uris": {"ios": "https://dc.lft.to/lastmile_qr_scan", "android": "https://dc.lft.to/lastmile_qr_scan"}, "fusion_lon": 0.0, "lon": -77.00068433333334, "lat": 38.876882, "is_reserved": 0, "name": "c6834bf1d7b1ccc9bb8211310ff41802", "is_disabled": 0, "type": "electric_scooter", "fusion_lat": 0.0, "bike_id": "c6834bf1d7b1ccc9bb8211310ff41802"}, {"rental_uris": {"ios": "https://dc.lft.to/lastmile_qr_scan", "android": "https://dc.lft.to/lastmile_qr_scan"}, "fusion_lon": 0.0, "lon": -77.04540083333333, "lat": 38.900640833333334, "is_reserved": 0, "name": "15443a06725efbe1a807fae5daa963c6", "is_disabled": 0, "type": "electric_scooter", "fusion_lat": 0.0, "bike_id": "15443a06725efbe1a807fae5daa963c6"}, {"rental_uris": {"ios": "https://dc.lft.to/lastmile_qr_scan", "android": "https://dc.lft.to/lastmile_qr_scan"}, "fusion_lon": 0.0, "lon": -76.991049, "lat": 38.80484283333333, "is_reserved": 0, "name": "2e104c8ff2644d7d24ed6052d0fbef73", "is_disabled": 0, "type": "electric_bike", "fusion_lat": 0.0, "bike_id": "2e104c8ff2644d7d24ed6052d0fbef73"}, {"rental_uris": {"ios": "https://dc.lft.to/lastmile_qr_scan", "android": "https://dc.lft.to/lastmile_qr_scan"}, "fusion_lon": 0.0, "lon": -77.05438216666667, "lat": 38.78461933333333, "is_reserved": 0, "name": "529f151521d9059141cb72df591aae2c", "is_disabled": 0, "type": "electric_bike", "fusion_lat": 0.0, "bike_id": "529f151521d9059141cb72df591aae2c"}, {"rental_uris": {"ios": "https://dc.lft.to/lastmile_qr_scan", "android": "https://dc.lft.to/lastmile_qr_scan"}, "fusion_lon": 0.0, "lon": -76.98096666666666, "lat": 38.95887166666667, "is_reserved": 0, "name": "82f2440805a9ef1e7aaa672779713e71", "is_disabled": 0, "type": "electric_bike", "fusion_lat": 0.0, "bike_id": "82f2440805a9ef1e7aaa672779713e71"}, {"rental_uris": {"ios": "https://dc.lft.to/lastmile_qr_scan", "android": "https://dc.lft.to/lastmile_qr_scan"}, "fusion_lon": 0.0, "lon": -77.0387005, "lat": 38.911147666666665, "is_reserved": 0, "name": "9c1ff28cf9476080f553a642349ec667", "is_disabled": 0, "type": "electric_scooter", "fusion_lat": 0.0, "bike_id": "9c1ff28cf9476080f553a642349ec667"}, {"rental_uris": {"ios": "https://dc.lft.to/lastmile_qr_scan", "android": "https://dc.lft.to/lastmile_qr_scan"}, "fusion_lon": 0.0, "lon": -77.04243066666666, "lat": 38.9196755, "is_reserved": 0, "name": "18745ea542071d6d15089e18a839def4", "is_disabled": 0, "type": "electric_scooter", "fusion_lat": 0.0, "bike_id": "18745ea542071d6d15089e18a839def4"}, {"rental_uris": {"ios": "https://dc.lft.to/lastmile_qr_scan", "android": "https://dc.lft.to/lastmile_qr_scan"}, "fusion_lon": 0.0, "lon": -77.03994633333333, "lat": 38.92032233333333, "is_reserved": 0, "name": "6f7d97915ad78361526bd2141107a7bd", "is_disabled": 0, "type": "electric_bike", "fusion_lat": 0.0, "bike_id": "6f7d97915ad78361526bd2141107a7bd"}, {"rental_uris": {"ios": "https://dc.lft.to/lastmile_qr_scan", "android": "https://dc.lft.to/lastmile_qr_scan"}, "fusion_lon": 0.0, "lon": -77.03218683333333, "lat": 38.930090666666665, "is_reserved": 0, "name": "03360cb0276798b646aa342df04cc265", "is_disabled": 0, "type": "electric_scooter", "fusion_lat": 0.0, "bike_id": "03360cb0276798b646aa342df04cc265"}, {"rental_uris": {"ios": "https://dc.lft.to/lastmile_qr_scan", "android": "https://dc.lft.to/lastmile_qr_scan"}, "fusion_lon": 0.0, "lon": -77.023901, "lat": 38.91717166666667, "is_reserved": 0, "name": "799a7907d8951e590a291eb8e0efcd3a", "is_disabled": 0, "type": "electric_scooter", "fusion_lat": 0.0, "bike_id": "799a7907d8951e590a291eb8e0efcd3a"}, {"rental_uris": {"ios": "https://dc.lft.to/lastmile_qr_scan", "android": "https://dc.lft.to/lastmile_qr_scan"}, "fusion_lon": 0.0, "lon": -77.04685133333334, "lat": 38.8922255, "is_reserved": 0, "name": "df3e85953887a723554499225a31c6bc", "is_disabled": 0, "type": "electric_scooter", "fusion_lat": 0.0, "bike_id": "df3e85953887a723554499225a31c6bc"}, {"rental_uris": {"ios": "https://dc.lft.to/lastmile_qr_scan", "android": "https://dc.lft.to/lastmile_qr_scan"}, "fusion_lon": 0.0, "lon": -77.04411366666666, "lat": 38.9098335, "is_reserved": 0, "name": "23ac3d347d2bd32bb85a2c9f340ed2e3", "is_disabled": 0, "type": "electric_scooter", "fusion_lat": 0.0, "bike_id": "23ac3d347d2bd32bb85a2c9f340ed2e3"}, {"rental_uris": {"ios": "https://dc.lft.to/lastmile_qr_scan", "android": "https://dc.lft.to/lastmile_qr_scan"}, "fusion_lon": 0.0, "lon": -77.036312, "lat": 38.93669966666667, "is_reserved": 0, "name": "bc294f2a4aaf013b9d28cae440d0c9aa", "is_disabled": 0, "type": "electric_scooter", "fusion_lat": 0.0, "bike_id": "bc294f2a4aaf013b9d28cae440d0c9aa"}, {"rental_uris": {"ios": "https://dc.lft.to/lastmile_qr_scan", "android": "https://dc.lft.to/lastmile_qr_scan"}, "fusion_lon": 0.0, "lon": -76.99653016666667, "lat": 38.967761333333335, "is_reserved": 0, "name": "b054873c50c2883051931b38cb8177ad", "is_disabled": 0, "type": "electric_bike", "fusion_lat": 0.0, "bike_id": "b054873c50c2883051931b38cb8177ad"}, {"rental_uris": {"ios": "https://dc.lft.to/lastmile_qr_scan", "android": "https://dc.lft.to/lastmile_qr_scan"}, "fusion_lon": 0.0, "lon": -77.04362133333333, "lat": 38.91117633333333, "is_reserved": 0, "name": "84fdd2d89707f15c4c145725bff40b2a", "is_disabled": 0, "type": "electric_scooter", "fusion_lat": 0.0, "bike_id": "84fdd2d89707f15c4c145725bff40b2a"}, {"rental_uris": {"ios": "https://dc.lft.to/lastmile_qr_scan", "android": "https://dc.lft.to/lastmile_qr_scan"}, "fusion_lon": 0.0, "lon": -77.03240016666666, "lat": 38.9298245, "is_reserved": 0, "name": "2e1afbc6ac13fc7dd736b23519797c1d", "is_disabled": 0, "type": "electric_scooter", "fusion_lat": 0.0, "bike_id": "2e1afbc6ac13fc7dd736b23519797c1d"}, {"rental_uris": {"ios": "https://dc.lft.to/lastmile_qr_scan", "android": "https://dc.lft.to/lastmile_qr_scan"}, "fusion_lon": 0.0, "lon": -76.9810735, "lat": 38.8983695, "is_reserved": 0, "name": "b90cf73d99d2db27b008ca02496056f6", "is_disabled": 0, "type": "electric_scooter", "fusion_lat": 0.0, "bike_id": "b90cf73d99d2db27b008ca02496056f6"}, {"rental_uris": {"ios": "https://dc.lft.to/lastmile_qr_scan", "android": "https://dc.lft.to/lastmile_qr_scan"}, "fusion_lon": 0.0, "lon": -77.0222735, "lat": 38.887453666666666, "is_reserved": 0, "name": "4898afbf2341f6ff6852fabf75e4e3ed", "is_disabled": 0, "type": "electric_scooter", "fusion_lat": 0.0, "bike_id": "4898afbf2341f6ff6852fabf75e4e3ed"}, {"rental_uris": {"ios": "https://dc.lft.to/lastmile_qr_scan", "android": "https://dc.lft.to/lastmile_qr_scan"}, "fusion_lon": 0.0, "lon": -77.0236825, "lat": 38.9192345, "is_reserved": 0, "name": "f5f0e58190fa442141800fbefcf2af8a", "is_disabled": 0, "type": "electric_scooter", "fusion_lat": 0.0, "bike_id": "f5f0e58190fa442141800fbefcf2af8a"}, {"rental_uris": {"ios": "https://dc.lft.to/lastmile_qr_scan", "android": "https://dc.lft.to/lastmile_qr_scan"}, "fusion_lon": 0.0, "lon": -76.93752633333334, "lat": 38.899345, "is_reserved": 0, "name": "25e304ee1471c58b4eb3f84c14384b36", "is_disabled": 0, "type": "electric_scooter", "fusion_lat": 0.0, "bike_id": "25e304ee1471c58b4eb3f84c14384b36"}, {"rental_uris": {"ios": "https://dc.lft.to/lastmile_qr_scan", "android": "https://dc.lft.to/lastmile_qr_scan"}, "fusion_lon": 0.0, "lon": -77.02940966666667, "lat": 38.89743983333334, "is_reserved": 0, "name": "aee0f395c3cded2c8806163950522b04", "is_disabled": 0, "type": "electric_scooter", "fusion_lat": 0.0, "bike_id": "aee0f395c3cded2c8806163950522b04"}, {"rental_uris": {"ios": "https://dc.lft.to/lastmile_qr_scan", "android": "https://dc.lft.to/lastmile_qr_scan"}, "fusion_lon": 0.0, "lon": -77.03340416666667, "lat": 38.89746233333334, "is_reserved": 0, "name": "d54e68510a6f2a5aacbfc192ccb5e6ad", "is_disabled": 0, "type": "electric_scooter", "fusion_lat": 0.0, "bike_id": "d54e68510a6f2a5aacbfc192ccb5e6ad"}, {"rental_uris": {"ios": "https://dc.lft.to/lastmile_qr_scan", "android": "https://dc.lft.to/lastmile_qr_scan"}, "fusion_lon": 0.0, "lon": -76.93739733333334, "lat": 38.9129625, "is_reserved": 0, "name": "919a636ef195bfec5d6b0fb002649654", "is_disabled": 0, "type": "electric_scooter", "fusion_lat": 0.0, "bike_id": "919a636ef195bfec5d6b0fb002649654"}, {"rental_uris": {"ios": "https://dc.lft.to/lastmile_qr_scan", "android": "https://dc.lft.to/lastmile_qr_scan"}, "fusion_lon": 0.0, "lon": -77.016685, "lat": 38.881248, "is_reserved": 0, "name": "6c8504e85c7a548c88ffd6b303858d2b", "is_disabled": 0, "type": "electric_bike", "fusion_lat": 0.0, "bike_id": "6c8504e85c7a548c88ffd6b303858d2b"}, {"rental_uris": {"ios": "https://dc.lft.to/lastmile_qr_scan", "android": "https://dc.lft.to/lastmile_qr_scan"}, "fusion_lon": 0.0, "lon": -77.02806716666667, "lat": 38.90394533333333, "is_reserved": 0, "name": "f5a18af20156fe229536cba9ae9c88a1", "is_disabled": 0, "type": "electric_scooter", "fusion_lat": 0.0, "bike_id": "f5a18af20156fe229536cba9ae9c88a1"}, {"rental_uris": {"ios": "https://dc.lft.to/lastmile_qr_scan", "android": "https://dc.lft.to/lastmile_qr_scan"}, "fusion_lon": 0.0, "lon": -77.01331, "lat": 38.89618816666667, "is_reserved": 0, "name": "6ba53f1c64638453866cdeb3e20ed8fe", "is_disabled": 0, "type": "electric_scooter", "fusion_lat": 0.0, "bike_id": "6ba53f1c64638453866cdeb3e20ed8fe"}, {"rental_uris": {"ios": "https://dc.lft.to/lastmile_qr_scan", "android": "https://dc.lft.to/lastmile_qr_scan"}, "fusion_lon": 0.0, "lon": -77.04342666666666, "lat": 38.896209, "is_reserved": 0, "name": "4da3572203eb6e137be74114f8998901", "is_disabled": 0, "type": "electric_scooter", "fusion_lat": 0.0, "bike_id": "4da3572203eb6e137be74114f8998901"}, {"rental_uris": {"ios": "https://dc.lft.to/lastmile_qr_scan", "android": "https://dc.lft.to/lastmile_qr_scan"}, "fusion_lon": 0.0, "lon": -77.04891316666667, "lat": 38.90073566666667, "is_reserved": 0, "name": "d152533ef6b974849e22884543d4529d", "is_disabled": 0, "type": "electric_scooter", "fusion_lat": 0.0, "bike_id": "d152533ef6b974849e22884543d4529d"}, {"rental_uris": {"ios": "https://dc.lft.to/lastmile_qr_scan", "android": "https://dc.lft.to/lastmile_qr_scan"}, "fusion_lon": 0.0, "lon": -77.04648366666666, "lat": 38.919694166666666, "is_reserved": 0, "name": "bbba2bf260d7466e1a9adcb532adac93", "is_disabled": 0, "type": "electric_scooter", "fusion_lat": 0.0, "bike_id": "bbba2bf260d7466e1a9adcb532adac93"}, {"rental_uris": {"ios": "https://dc.lft.to/lastmile_qr_scan", "android": "https://dc.lft.to/lastmile_qr_scan"}, "fusion_lon": 0.0, "lon": -77.04989166666667, "lat": 38.8973, "is_reserved": 0, "name": "14835cec88931d8226a7529f2d712f5c", "is_disabled": 0, "type": "electric_scooter", "fusion_lat": 0.0, "bike_id": "14835cec88931d8226a7529f2d712f5c"}, {"rental_uris": {"ios": "https://dc.lft.to/lastmile_qr_scan", "android": "https://dc.lft.to/lastmile_qr_scan"}, "fusion_lon": 0.0, "lon": -77.00630733333334, "lat": 38.871734333333336, "is_reserved": 0, "name": "9c5fa04f72e0b81a5a30292e0476c018", "is_disabled": 0, "type": "electric_scooter", "fusion_lat": 0.0, "bike_id": "9c5fa04f72e0b81a5a30292e0476c018"}, {"rental_uris": {"ios": "https://dc.lft.to/lastmile_qr_scan", "android": "https://dc.lft.to/lastmile_qr_scan"}, "fusion_lon": 0.0, "lon": -77.01521183333334, "lat": 38.88492333333333, "is_reserved": 0, "name": "6304636ea14bf0fc3ea17e6e033450ec", "is_disabled": 0, "type": "electric_scooter", "fusion_lat": 0.0, "bike_id": "6304636ea14bf0fc3ea17e6e033450ec"}, {"rental_uris": {"ios": "https://dc.lft.to/lastmile_qr_scan", "android": "https://dc.lft.to/lastmile_qr_scan"}, "fusion_lon": 0.0, "lon": -77.01572966666667, "lat": 38.89180266666666, "is_reserved": 0, "name": "58b206e73f5b2bb05c42930d23fb172a", "is_disabled": 0, "type": "electric_scooter", "fusion_lat": 0.0, "bike_id": "58b206e73f5b2bb05c42930d23fb172a"}, {"rental_uris": {"ios": "https://dc.lft.to/lastmile_qr_scan", "android": "https://dc.lft.to/lastmile_qr_scan"}, "fusion_lon": 0.0, "lon": -77.0403325, "lat": 38.9012485, "is_reserved": 0, "name": "0b5f14b2eb42aeecfa763a4495602f17", "is_disabled": 0, "type": "electric_scooter", "fusion_lat": 0.0, "bike_id": "0b5f14b2eb42aeecfa763a4495602f17"}, {"rental_uris": {"ios": "https://dc.lft.to/lastmile_qr_scan", "android": "https://dc.lft.to/lastmile_qr_scan"}, "fusion_lon": 0.0, "lon": -76.98696016666666, "lat": 38.90703583333333, "is_reserved": 0, "name": "c192d1170657cdd68b2ef8588f1b66c6", "is_disabled": 0, "type": "electric_scooter", "fusion_lat": 0.0, "bike_id": "c192d1170657cdd68b2ef8588f1b66c6"}, {"rental_uris": {"ios": "https://dc.lft.to/lastmile_qr_scan", "android": "https://dc.lft.to/lastmile_qr_scan"}, "fusion_lon": 0.0, "lon": -77.02795616666667, "lat": 38.89922766666667, "is_reserved": 0, "name": "7a11030843b74effc3027eca8492c810", "is_disabled": 0, "type": "electric_scooter", "fusion_lat": 0.0, "bike_id": "7a11030843b74effc3027eca8492c810"}, {"rental_uris": {"ios": "https://dc.lft.to/lastmile_qr_scan", "android": "https://dc.lft.to/lastmile_qr_scan"}, "fusion_lon": 0.0, "lon": -77.04306833333334, "lat": 38.923808, "is_reserved": 0, "name": "8a2e27c8b85e152b1a07f7ad84d5c76a", "is_disabled": 0, "type": "electric_scooter", "fusion_lat": 0.0, "bike_id": "8a2e27c8b85e152b1a07f7ad84d5c76a"}, {"rental_uris": {"ios": "https://dc.lft.to/lastmile_qr_scan", "android": "https://dc.lft.to/lastmile_qr_scan"}, "fusion_lon": 0.0, "lon": -77.05237283333334, "lat": 38.92464666666667, "is_reserved": 0, "name": "9e5614e26acc1c2976b39852a933a955", "is_disabled": 0, "type": "electric_scooter", "fusion_lat": 0.0, "bike_id": "9e5614e26acc1c2976b39852a933a955"}, {"rental_uris": {"ios": "https://dc.lft.to/lastmile_qr_scan", "android": "https://dc.lft.to/lastmile_qr_scan"}, "fusion_lon": 0.0, "lon": -77.02934333333333, "lat": 38.90152116666667, "is_reserved": 0, "name": "ba5aceea3dc42bfa10b62bc2a5856f1b", "is_disabled": 0, "type": "electric_scooter", "fusion_lat": 0.0, "bike_id": "ba5aceea3dc42bfa10b62bc2a5856f1b"}, {"rental_uris": {"ios": "https://dc.lft.to/lastmile_qr_scan", "android": "https://dc.lft.to/lastmile_qr_scan"}, "fusion_lon": 0.0, "lon": -77.03284183333334, "lat": 38.96412383333333, "is_reserved": 0, "name": "e0387273d7ec6b5230b3413b2bfc2d6f", "is_disabled": 0, "type": "electric_scooter", "fusion_lat": 0.0, "bike_id": "e0387273d7ec6b5230b3413b2bfc2d6f"}, {"rental_uris": {"ios": "https://dc.lft.to/lastmile_qr_scan", "android": "https://dc.lft.to/lastmile_qr_scan"}, "fusion_lon": 0.0, "lon": -77.11044333333334, "lat": 38.87061466666667, "is_reserved": 0, "name": "05287addf81b974537ffc0822a1fd078", "is_disabled": 0, "type": "electric_bike", "fusion_lat": 0.0, "bike_id": "05287addf81b974537ffc0822a1fd078"}, {"rental_uris": {"ios": "https://dc.lft.to/lastmile_qr_scan", "android": "https://dc.lft.to/lastmile_qr_scan"}, "fusion_lon": 0.0, "lon": -77.021692, "lat": 38.930722333333335, "is_reserved": 0, "name": "f032f6932effb2d31f8aecdc9b13ec03", "is_disabled": 0, "type": "electric_scooter", "fusion_lat": 0.0, "bike_id": "f032f6932effb2d31f8aecdc9b13ec03"}, {"rental_uris": {"ios": "https://dc.lft.to/lastmile_qr_scan", "android": "https://dc.lft.to/lastmile_qr_scan"}, "fusion_lon": 0.0, "lon": -77.02155616666667, "lat": 38.926081833333335, "is_reserved": 0, "name": "8b9496408547dc4749d42eeb9d56f594", "is_disabled": 0, "type": "electric_scooter", "fusion_lat": 0.0, "bike_id": "8b9496408547dc4749d42eeb9d56f594"}, {"rental_uris": {"ios": "https://dc.lft.to/lastmile_qr_scan", "android": "https://dc.lft.to/lastmile_qr_scan"}, "fusion_lon": 0.0, "lon": -77.00056233333333, "lat": 38.874283, "is_reserved": 0, "name": "b672ef225873c158a1c2e7972753e5ab", "is_disabled": 0, "type": "electric_scooter", "fusion_lat": 0.0, "bike_id": "b672ef225873c158a1c2e7972753e5ab"}, {"rental_uris": {"ios": "https://dc.lft.to/lastmile_qr_scan", "android": "https://dc.lft.to/lastmile_qr_scan"}, "fusion_lon": 0.0, "lon": -76.97222783333333, "lat": 38.90027366666666, "is_reserved": 0, "name": "14fbfc5798cb412330187032a772e5e0", "is_disabled": 0, "type": "electric_bike", "fusion_lat": 0.0, "bike_id": "14fbfc5798cb412330187032a772e5e0"}, {"rental_uris": {"ios": "https://dc.lft.to/lastmile_qr_scan", "android": "https://dc.lft.to/lastmile_qr_scan"}, "fusion_lon": 0.0, "lon": -77.00197466666667, "lat": 38.902358, "is_reserved": 0, "name": "56e1055e378e712c2b2be6354a99de2d", "is_disabled": 0, "type": "electric_scooter", "fusion_lat": 0.0, "bike_id": "56e1055e378e712c2b2be6354a99de2d"}, {"rental_uris": {"ios": "https://dc.lft.to/lastmile_qr_scan", "android": "https://dc.lft.to/lastmile_qr_scan"}, "fusion_lon": 0.0, "lon": -76.97177433333333, "lat": 38.89801966666667, "is_reserved": 0, "name": "0a30eac431060a397e437bed8090e353", "is_disabled": 0, "type": "electric_scooter", "fusion_lat": 0.0, "bike_id": "0a30eac431060a397e437bed8090e353"}, {"rental_uris": {"ios": "https://dc.lft.to/lastmile_qr_scan", "android": "https://dc.lft.to/lastmile_qr_scan"}, "fusion_lon": 0.0, "lon": -76.998724, "lat": 38.92339483333333, "is_reserved": 0, "name": "1ef1e0a0f37d2d8c0f4efae09dd755bf", "is_disabled": 0, "type": "electric_scooter", "fusion_lat": 0.0, "bike_id": "1ef1e0a0f37d2d8c0f4efae09dd755bf"}, {"rental_uris": {"ios": "https://dc.lft.to/lastmile_qr_scan", "android": "https://dc.lft.to/lastmile_qr_scan"}, "fusion_lon": 0.0, "lon": -77.0320865, "lat": 38.89239583333333, "is_reserved": 0, "name": "8c17228bd79f7e1a89999607341a6614", "is_disabled": 0, "type": "electric_scooter", "fusion_lat": 0.0, "bike_id": "8c17228bd79f7e1a89999607341a6614"}, {"rental_uris": {"ios": "https://dc.lft.to/lastmile_qr_scan", "android": "https://dc.lft.to/lastmile_qr_scan"}, "fusion_lon": 0.0, "lon": -77.0366505, "lat": 38.9227585, "is_reserved": 0, "name": "fc063cbb5c71e8db6c5045009d3a16ec", "is_disabled": 0, "type": "electric_scooter", "fusion_lat": 0.0, "bike_id": "fc063cbb5c71e8db6c5045009d3a16ec"}, {"rental_uris": {"ios": "https://dc.lft.to/lastmile_qr_scan", "android": "https://dc.lft.to/lastmile_qr_scan"}, "fusion_lon": 0.0, "lon": -76.9894565, "lat": 38.9039785, "is_reserved": 0, "name": "33f97dce23767ea0442d146328f1d3bb", "is_disabled": 0, "type": "electric_scooter", "fusion_lat": 0.0, "bike_id": "33f97dce23767ea0442d146328f1d3bb"}, {"rental_uris": {"ios": "https://dc.lft.to/lastmile_qr_scan", "android": "https://dc.lft.to/lastmile_qr_scan"}, "fusion_lon": 0.0, "lon": -77.022841, "lat": 38.918384, "is_reserved": 0, "name": "19cc17ae3c27191bdc0d2d2aad857910", "is_disabled": 0, "type": "electric_scooter", "fusion_lat": 0.0, "bike_id": "19cc17ae3c27191bdc0d2d2aad857910"}, {"rental_uris": {"ios": "https://dc.lft.to/lastmile_qr_scan", "android": "https://dc.lft.to/lastmile_qr_scan"}, "fusion_lon": 0.0, "lon": -77.022089, "lat": 38.897344333333336, "is_reserved": 0, "name": "f3a77af6b542eddf40ad527d8aa3e281", "is_disabled": 0, "type": "electric_scooter", "fusion_lat": 0.0, "bike_id": "f3a77af6b542eddf40ad527d8aa3e281"}, {"rental_uris": {"ios": "https://dc.lft.to/lastmile_qr_scan", "android": "https://dc.lft.to/lastmile_qr_scan"}, "fusion_lon": 0.0, "lon": -77.03770666666667, "lat": 38.90358416666667, "is_reserved": 0, "name": "2f3cc28e8609b37e8081904ba0769590", "is_disabled": 0, "type": "electric_scooter", "fusion_lat": 0.0, "bike_id": "2f3cc28e8609b37e8081904ba0769590"}, {"rental_uris": {"ios": "https://dc.lft.to/lastmile_qr_scan", "android": "https://dc.lft.to/lastmile_qr_scan"}, "fusion_lon": 0.0, "lon": -77.359728, "lat": 38.95704683333334, "is_reserved": 0, "name": "ee0d8162031eec61cef792c4f02f543a", "is_disabled": 0, "type": "electric_bike", "fusion_lat": 0.0, "bike_id": "ee0d8162031eec61cef792c4f02f543a"}, {"rental_uris": {"ios": "https://dc.lft.to/lastmile_qr_scan", "android": "https://dc.lft.to/lastmile_qr_scan"}, "fusion_lon": 0.0, "lon": -76.95142566666667, "lat": 39.0843985, "is_reserved": 0, "name": "fbb6204f8f4ac448a5f01d59a22bfdc5", "is_disabled": 0, "type": "electric_bike", "fusion_lat": 0.0, "bike_id": "fbb6204f8f4ac448a5f01d59a22bfdc5"}, {"rental_uris": {"ios": "https://dc.lft.to/lastmile_qr_scan", "android": "https://dc.lft.to/lastmile_qr_scan"}, "fusion_lon": 0.0, "lon": -77.01693583333333, "lat": 38.90040883333333, "is_reserved": 0, "name": "3fc6c2c7d71c69561a55a24c162ede03", "is_disabled": 0, "type": "electric_scooter", "fusion_lat": 0.0, "bike_id": "3fc6c2c7d71c69561a55a24c162ede03"}, {"rental_uris": {"ios": "https://dc.lft.to/lastmile_qr_scan", "android": "https://dc.lft.to/lastmile_qr_scan"}, "fusion_lon": 0.0, "lon": -77.0191045, "lat": 38.90968066666667, "is_reserved": 0, "name": "62c98d1e02e9530b760f5d86151123cb", "is_disabled": 0, "type": "electric_scooter", "fusion_lat": 0.0, "bike_id": "62c98d1e02e9530b760f5d86151123cb"}, {"rental_uris": {"ios": "https://dc.lft.to/lastmile_qr_scan", "android": "https://dc.lft.to/lastmile_qr_scan"}, "fusion_lon": 0.0, "lon": -76.93263916666666, "lat": 38.8877245, "is_reserved": 0, "name": "c8233ae02d6aefd2569fcde8213e86c8", "is_disabled": 0, "type": "electric_scooter", "fusion_lat": 0.0, "bike_id": "c8233ae02d6aefd2569fcde8213e86c8"}, {"rental_uris": {"ios": "https://dc.lft.to/lastmile_qr_scan", "android": "https://dc.lft.to/lastmile_qr_scan"}, "fusion_lon": 0.0, "lon": -77.09663983333333, "lat": 38.8868965, "is_reserved": 0, "name": "fbc21deda92181ac94adb03d2e3569cb", "is_disabled": 0, "type": "electric_bike", "fusion_lat": 0.0, "bike_id": "fbc21deda92181ac94adb03d2e3569cb"}, {"rental_uris": {"ios": "https://dc.lft.to/lastmile_qr_scan", "android": "https://dc.lft.to/lastmile_qr_scan"}, "fusion_lon": 0.0, "lon": -76.930436, "lat": 38.88394366666667, "is_reserved": 0, "name": "08ab511796c607701c02298a98ba8f49", "is_disabled": 0, "type": "electric_scooter", "fusion_lat": 0.0, "bike_id": "08ab511796c607701c02298a98ba8f49"}, {"rental_uris": {"ios": "https://dc.lft.to/lastmile_qr_scan", "android": "https://dc.lft.to/lastmile_qr_scan"}, "fusion_lon": 0.0, "lon": -77.044929, "lat": 38.90735016666667, "is_reserved": 0, "name": "b45c672a98fa1cdc3c2a83d5ee722761", "is_disabled": 0, "type": "electric_scooter", "fusion_lat": 0.0, "bike_id": "b45c672a98fa1cdc3c2a83d5ee722761"}, {"rental_uris": {"ios": "https://dc.lft.to/lastmile_qr_scan", "android": "https://dc.lft.to/lastmile_qr_scan"}, "fusion_lon": 0.0, "lon": -76.97810883333334, "lat": 38.9061405, "is_reserved": 0, "name": "b455302f7e0138112f75dd84444bd770", "is_disabled": 0, "type": "electric_scooter", "fusion_lat": 0.0, "bike_id": "b455302f7e0138112f75dd84444bd770"}, {"rental_uris": {"ios": "https://dc.lft.to/lastmile_qr_scan", "android": "https://dc.lft.to/lastmile_qr_scan"}, "fusion_lon": 0.0, "lon": -77.02219233333334, "lat": 38.9247045, "is_reserved": 0, "name": "b681449294e4fabb4d1cc27f080e5f60", "is_disabled": 0, "type": "electric_scooter", "fusion_lat": 0.0, "bike_id": "b681449294e4fabb4d1cc27f080e5f60"}, {"rental_uris": {"ios": "https://dc.lft.to/lastmile_qr_scan", "android": "https://dc.lft.to/lastmile_qr_scan"}, "fusion_lon": 0.0, "lon": -76.99296033333333, "lat": 38.87641266666667, "is_reserved": 0, "name": "370d5721f8145a916ba5dc6ef6d7811d", "is_disabled": 0, "type": "electric_scooter", "fusion_lat": 0.0, "bike_id": "370d5721f8145a916ba5dc6ef6d7811d"}, {"rental_uris": {"ios": "https://dc.lft.to/lastmile_qr_scan", "android": "https://dc.lft.to/lastmile_qr_scan"}, "fusion_lon": 0.0, "lon": -77.02824116666666, "lat": 38.8988425, "is_reserved": 0, "name": "d8613545fc1c533097c5c20ad26a13c4", "is_disabled": 0, "type": "electric_scooter", "fusion_lat": 0.0, "bike_id": "d8613545fc1c533097c5c20ad26a13c4"}, {"rental_uris": {"ios": "https://dc.lft.to/lastmile_qr_scan", "android": "https://dc.lft.to/lastmile_qr_scan"}, "fusion_lon": 0.0, "lon": -77.01426, "lat": 38.9065175, "is_reserved": 0, "name": "30b0ac1f6207e2d6c2efa909ec4ac9c1", "is_disabled": 0, "type": "electric_scooter", "fusion_lat": 0.0, "bike_id": "30b0ac1f6207e2d6c2efa909ec4ac9c1"}, {"rental_uris": {"ios": "https://dc.lft.to/lastmile_qr_scan", "android": "https://dc.lft.to/lastmile_qr_scan"}, "fusion_lon": 0.0, "lon": -77.04664183333334, "lat": 38.912688, "is_reserved": 0, "name": "53bdecae53419f22c450d8b523a07596", "is_disabled": 0, "type": "electric_scooter", "fusion_lat": 0.0, "bike_id": "53bdecae53419f22c450d8b523a07596"}, {"rental_uris": {"ios": "https://dc.lft.to/lastmile_qr_scan", "android": "https://dc.lft.to/lastmile_qr_scan"}, "fusion_lon": 0.0, "lon": -77.01567233333333, "lat": 38.9021795, "is_reserved": 0, "name": "e4ed6ee33e016c1a22460dc2be89f0dc", "is_disabled": 0, "type": "electric_scooter", "fusion_lat": 0.0, "bike_id": "e4ed6ee33e016c1a22460dc2be89f0dc"}, {"rental_uris": {"ios": "https://dc.lft.to/lastmile_qr_scan", "android": "https://dc.lft.to/lastmile_qr_scan"}, "fusion_lon": 0.0, "lon": -77.00802216666666, "lat": 38.949221666666666, "is_reserved": 0, "name": "463d68c062a9787e298e415a1a5b012f", "is_disabled": 0, "type": "electric_bike", "fusion_lat": 0.0, "bike_id": "463d68c062a9787e298e415a1a5b012f"}, {"rental_uris": {"ios": "https://dc.lft.to/lastmile_qr_scan", "android": "https://dc.lft.to/lastmile_qr_scan"}, "fusion_lon": 0.0, "lon": -77.06535583333333, "lat": 38.90591366666666, "is_reserved": 0, "name": "47c1e63fe0e7d138a06dfdd223c96002", "is_disabled": 0, "type": "electric_scooter", "fusion_lat": 0.0, "bike_id": "47c1e63fe0e7d138a06dfdd223c96002"}, {"rental_uris": {"ios": "https://dc.lft.to/lastmile_qr_scan", "android": "https://dc.lft.to/lastmile_qr_scan"}, "fusion_lon": 0.0, "lon": -77.0317595, "lat": 38.91416316666667, "is_reserved": 0, "name": "d4f65e298f8bad6f797f607e9cd213d1", "is_disabled": 0, "type": "electric_scooter", "fusion_lat": 0.0, "bike_id": "d4f65e298f8bad6f797f607e9cd213d1"}, {"rental_uris": {"ios": "https://dc.lft.to/lastmile_qr_scan", "android": "https://dc.lft.to/lastmile_qr_scan"}, "fusion_lon": 0.0, "lon": -77.03219516666667, "lat": 38.90043566666667, "is_reserved": 0, "name": "d0251e2b0f676a22247a29625eb85834", "is_disabled": 0, "type": "electric_bike", "fusion_lat": 0.0, "bike_id": "d0251e2b0f676a22247a29625eb85834"}, {"rental_uris": {"ios": "https://dc.lft.to/lastmile_qr_scan", "android": "https://dc.lft.to/lastmile_qr_scan"}, "fusion_lon": 0.0, "lon": -77.03832266666667, "lat": 38.9116895, "is_reserved": 0, "name": "39f9f6b3e674cc307a178f4a03833332", "is_disabled": 0, "type": "electric_scooter", "fusion_lat": 0.0, "bike_id": "39f9f6b3e674cc307a178f4a03833332"}, {"rental_uris": {"ios": "https://dc.lft.to/lastmile_qr_scan", "android": "https://dc.lft.to/lastmile_qr_scan"}, "fusion_lon": 0.0, "lon": -77.04676183333333, "lat": 38.91666883333333, "is_reserved": 0, "name": "fb7117c5f53666f4812f68e79e2eb701", "is_disabled": 0, "type": "electric_scooter", "fusion_lat": 0.0, "bike_id": "fb7117c5f53666f4812f68e79e2eb701"}, {"rental_uris": {"ios": "https://dc.lft.to/lastmile_qr_scan", "android": "https://dc.lft.to/lastmile_qr_scan"}, "fusion_lon": 0.0, "lon": -77.02594316666666, "lat": 38.9209495, "is_reserved": 0, "name": "50e48c913a181a6020c714aa9a625cb5", "is_disabled": 0, "type": "electric_scooter", "fusion_lat": 0.0, "bike_id": "50e48c913a181a6020c714aa9a625cb5"}, {"rental_uris": {"ios": "https://dc.lft.to/lastmile_qr_scan", "android": "https://dc.lft.to/lastmile_qr_scan"}, "fusion_lon": 0.0, "lon": -77.0344045, "lat": 38.91911483333333, "is_reserved": 0, "name": "4223bd8c46c65516508bacf2f035937b", "is_disabled": 0, "type": "electric_scooter", "fusion_lat": 0.0, "bike_id": "4223bd8c46c65516508bacf2f035937b"}, {"rental_uris": {"ios": "https://dc.lft.to/lastmile_qr_scan", "android": "https://dc.lft.to/lastmile_qr_scan"}, "fusion_lon": 0.0, "lon": -76.99937116666666, "lat": 38.89137916666667, "is_reserved": 0, "name": "207fc5730953572b0dbc3b57585f554d", "is_disabled": 0, "type": "electric_scooter", "fusion_lat": 0.0, "bike_id": "207fc5730953572b0dbc3b57585f554d"}, {"rental_uris": {"ios": "https://dc.lft.to/lastmile_qr_scan", "android": "https://dc.lft.to/lastmile_qr_scan"}, "fusion_lon": 0.0, "lon": -77.04890233333333, "lat": 38.900746833333336, "is_reserved": 0, "name": "a052a572f2b541847205f8d246821f92", "is_disabled": 0, "type": "electric_scooter", "fusion_lat": 0.0, "bike_id": "a052a572f2b541847205f8d246821f92"}, {"rental_uris": {"ios": "https://dc.lft.to/lastmile_qr_scan", "android": "https://dc.lft.to/lastmile_qr_scan"}, "fusion_lon": 0.0, "lon": -76.971814, "lat": 38.898016166666665, "is_reserved": 0, "name": "a57c5d82ab035d5d062733970e9a8efa", "is_disabled": 0, "type": "electric_scooter", "fusion_lat": 0.0, "bike_id": "a57c5d82ab035d5d062733970e9a8efa"}, {"rental_uris": {"ios": "https://dc.lft.to/lastmile_qr_scan", "android": "https://dc.lft.to/lastmile_qr_scan"}, "fusion_lon": 0.0, "lon": -77.02476983333334, "lat": 38.891963, "is_reserved": 0, "name": "608e28ee366896b89e04a23b0d4b796e", "is_disabled": 0, "type": "electric_scooter", "fusion_lat": 0.0, "bike_id": "608e28ee366896b89e04a23b0d4b796e"}, {"rental_uris": {"ios": "https://dc.lft.to/lastmile_qr_scan", "android": "https://dc.lft.to/lastmile_qr_scan"}, "fusion_lon": 0.0, "lon": -77.08148266666667, "lat": 38.95346133333334, "is_reserved": 0, "name": "dbb60cd2736ad08e6b3d4ab31f2fe71f", "is_disabled": 0, "type": "electric_scooter", "fusion_lat": 0.0, "bike_id": "dbb60cd2736ad08e6b3d4ab31f2fe71f"}, {"rental_uris": {"ios": "https://dc.lft.to/lastmile_qr_scan", "android": "https://dc.lft.to/lastmile_qr_scan"}, "fusion_lon": 0.0, "lon": -77.02401283333333, "lat": 38.89631033333333, "is_reserved": 0, "name": "37ec5dbf09c87ac998d6fde1b28bb4aa", "is_disabled": 0, "type": "electric_scooter", "fusion_lat": 0.0, "bike_id": "37ec5dbf09c87ac998d6fde1b28bb4aa"}, {"rental_uris": {"ios": "https://dc.lft.to/lastmile_qr_scan", "android": "https://dc.lft.to/lastmile_qr_scan"}, "fusion_lon": 0.0, "lon": -77.016557, "lat": 39.03474083333333, "is_reserved": 0, "name": "190330ccd209187fa5aa95baf4a19ec4", "is_disabled": 0, "type": "electric_bike", "fusion_lat": 0.0, "bike_id": "190330ccd209187fa5aa95baf4a19ec4"}, {"rental_uris": {"ios": "https://dc.lft.to/lastmile_qr_scan", "android": "https://dc.lft.to/lastmile_qr_scan"}, "fusion_lon": 0.0, "lon": -77.0225135, "lat": 38.901919666666664, "is_reserved": 0, "name": "561c621d2f6433f38deb98bdf9c4be8a", "is_disabled": 0, "type": "electric_scooter", "fusion_lat": 0.0, "bike_id": "561c621d2f6433f38deb98bdf9c4be8a"}, {"rental_uris": {"ios": "https://dc.lft.to/lastmile_qr_scan", "android": "https://dc.lft.to/lastmile_qr_scan"}, "fusion_lon": 0.0, "lon": -77.0320165, "lat": 38.91765633333333, "is_reserved": 0, "name": "8e8876f4ceea6f3159dbb137fe78ce7a", "is_disabled": 0, "type": "electric_scooter", "fusion_lat": 0.0, "bike_id": "8e8876f4ceea6f3159dbb137fe78ce7a"}, {"rental_uris": {"ios": "https://dc.lft.to/lastmile_qr_scan", "android": "https://dc.lft.to/lastmile_qr_scan"}, "fusion_lon": 0.0, "lon": -76.950671, "lat": 39.0849755, "is_reserved": 0, "name": "3930ed4a70af496f84f9b2a5ac316c34", "is_disabled": 0, "type": "electric_bike", "fusion_lat": 0.0, "bike_id": "3930ed4a70af496f84f9b2a5ac316c34"}, {"rental_uris": {"ios": "https://dc.lft.to/lastmile_qr_scan", "android": "https://dc.lft.to/lastmile_qr_scan"}, "fusion_lon": 0.0, "lon": -77.04988783333333, "lat": 38.9010915, "is_reserved": 0, "name": "3aa20f5e0cd995a834adbc8d9312bdec", "is_disabled": 0, "type": "electric_bike", "fusion_lat": 0.0, "bike_id": "3aa20f5e0cd995a834adbc8d9312bdec"}, {"rental_uris": {"ios": "https://dc.lft.to/lastmile_qr_scan", "android": "https://dc.lft.to/lastmile_qr_scan"}, "fusion_lon": 0.0, "lon": -77.03211983333334, "lat": 38.925794333333336, "is_reserved": 0, "name": "c23998cd181e298aef58d31a92410934", "is_disabled": 0, "type": "electric_scooter", "fusion_lat": 0.0, "bike_id": "c23998cd181e298aef58d31a92410934"}, {"rental_uris": {"ios": "https://dc.lft.to/lastmile_qr_scan", "android": "https://dc.lft.to/lastmile_qr_scan"}, "fusion_lon": 0.0, "lon": -77.06355816666667, "lat": 38.94438183333333, "is_reserved": 0, "name": "aa41b0e41c4b0c6326b387f19809b05b", "is_disabled": 0, "type": "electric_scooter", "fusion_lat": 0.0, "bike_id": "aa41b0e41c4b0c6326b387f19809b05b"}, {"rental_uris": {"ios": "https://dc.lft.to/lastmile_qr_scan", "android": "https://dc.lft.to/lastmile_qr_scan"}, "fusion_lon": 0.0, "lon": -77.02818883333333, "lat": 38.917891833333336, "is_reserved": 0, "name": "2c61d327e72872dab8846efd93ac800d", "is_disabled": 0, "type": "electric_scooter", "fusion_lat": 0.0, "bike_id": "2c61d327e72872dab8846efd93ac800d"}, {"rental_uris": {"ios": "https://dc.lft.to/lastmile_qr_scan", "android": "https://dc.lft.to/lastmile_qr_scan"}, "fusion_lon": 0.0, "lon": -77.10712316666667, "lat": 38.8524635, "is_reserved": 0, "name": "1fa825fa0c786074851d01db8c1c7582", "is_disabled": 0, "type": "electric_bike", "fusion_lat": 0.0, "bike_id": "1fa825fa0c786074851d01db8c1c7582"}, {"rental_uris": {"ios": "https://dc.lft.to/lastmile_qr_scan", "android": "https://dc.lft.to/lastmile_qr_scan"}, "fusion_lon": 0.0, "lon": -77.02695316666667, "lat": 38.89994466666667, "is_reserved": 0, "name": "ea1badaae35680fd94f3ac506f569ae3", "is_disabled": 0, "type": "electric_scooter", "fusion_lat": 0.0, "bike_id": "ea1badaae35680fd94f3ac506f569ae3"}, {"rental_uris": {"ios": "https://dc.lft.to/lastmile_qr_scan", "android": "https://dc.lft.to/lastmile_qr_scan"}, "fusion_lon": 0.0, "lon": -76.97070166666667, "lat": 38.920603, "is_reserved": 0, "name": "7742176ffa3b3596fb334fc08176cb7e", "is_disabled": 0, "type": "electric_bike", "fusion_lat": 0.0, "bike_id": "7742176ffa3b3596fb334fc08176cb7e"}, {"rental_uris": {"ios": "https://dc.lft.to/lastmile_qr_scan", "android": "https://dc.lft.to/lastmile_qr_scan"}, "fusion_lon": 0.0, "lon": -77.04486166666666, "lat": 38.90486416666667, "is_reserved": 0, "name": "f5aa0a367120f7864e3138ca0d216ffa", "is_disabled": 0, "type": "electric_scooter", "fusion_lat": 0.0, "bike_id": "f5aa0a367120f7864e3138ca0d216ffa"}, {"rental_uris": {"ios": "https://dc.lft.to/lastmile_qr_scan", "android": "https://dc.lft.to/lastmile_qr_scan"}, "fusion_lon": 0.0, "lon": -77.05139166666666, "lat": 38.927266333333336, "is_reserved": 0, "name": "59556faa15b9079392cf66d896019336", "is_disabled": 0, "type": "electric_scooter", "fusion_lat": 0.0, "bike_id": "59556faa15b9079392cf66d896019336"}, {"rental_uris": {"ios": "https://dc.lft.to/lastmile_qr_scan", "android": "https://dc.lft.to/lastmile_qr_scan"}, "fusion_lon": 0.0, "lon": -77.01371433333334, "lat": 38.863615, "is_reserved": 0, "name": "9a547dfa40903df358be18f68c4eb64f", "is_disabled": 0, "type": "electric_scooter", "fusion_lat": 0.0, "bike_id": "9a547dfa40903df358be18f68c4eb64f"}, {"rental_uris": {"ios": "https://dc.lft.to/lastmile_qr_scan", "android": "https://dc.lft.to/lastmile_qr_scan"}, "fusion_lon": 0.0, "lon": -77.01604516666667, "lat": 38.90124133333333, "is_reserved": 0, "name": "a863d2278be1af76216696d145cd72d8", "is_disabled": 0, "type": "electric_scooter", "fusion_lat": 0.0, "bike_id": "a863d2278be1af76216696d145cd72d8"}, {"rental_uris": {"ios": "https://dc.lft.to/lastmile_qr_scan", "android": "https://dc.lft.to/lastmile_qr_scan"}, "fusion_lon": 0.0, "lon": -76.97619366666666, "lat": 38.898368166666664, "is_reserved": 0, "name": "ad69f344df310668dcaa83f6952da4a3", "is_disabled": 0, "type": "electric_scooter", "fusion_lat": 0.0, "bike_id": "ad69f344df310668dcaa83f6952da4a3"}, {"rental_uris": {"ios": "https://dc.lft.to/lastmile_qr_scan", "android": "https://dc.lft.to/lastmile_qr_scan"}, "fusion_lon": 0.0, "lon": -77.04663483333333, "lat": 38.892693, "is_reserved": 0, "name": "69e8d355be16cf827cc6c63502d8272b", "is_disabled": 0, "type": "electric_scooter", "fusion_lat": 0.0, "bike_id": "69e8d355be16cf827cc6c63502d8272b"}, {"rental_uris": {"ios": "https://dc.lft.to/lastmile_qr_scan", "android": "https://dc.lft.to/lastmile_qr_scan"}, "fusion_lon": 0.0, "lon": -76.92502416666666, "lat": 38.95915216666667, "is_reserved": 0, "name": "1ff3c427a3301c5a739cdebc9e777579", "is_disabled": 0, "type": "electric_bike", "fusion_lat": 0.0, "bike_id": "1ff3c427a3301c5a739cdebc9e777579"}, {"rental_uris": {"ios": "https://dc.lft.to/lastmile_qr_scan", "android": "https://dc.lft.to/lastmile_qr_scan"}, "fusion_lon": 0.0, "lon": -77.000612, "lat": 38.87691516666667, "is_reserved": 0, "name": "a6b6c2198fcc3235fdf213eb0f06d7fa", "is_disabled": 0, "type": "electric_scooter", "fusion_lat": 0.0, "bike_id": "a6b6c2198fcc3235fdf213eb0f06d7fa"}, {"rental_uris": {"ios": "https://dc.lft.to/lastmile_qr_scan", "android": "https://dc.lft.to/lastmile_qr_scan"}, "fusion_lon": 0.0, "lon": -76.93603033333333, "lat": 38.889594, "is_reserved": 0, "name": "f7767c6c4d12177b8a9c6126cf9e28f8", "is_disabled": 0, "type": "electric_scooter", "fusion_lat": 0.0, "bike_id": "f7767c6c4d12177b8a9c6126cf9e28f8"}, {"rental_uris": {"ios": "https://dc.lft.to/lastmile_qr_scan", "android": "https://dc.lft.to/lastmile_qr_scan"}, "fusion_lon": 0.0, "lon": -77.03147433333334, "lat": 38.94179166666667, "is_reserved": 0, "name": "350517f0b3b511505550a6623e5f8a53", "is_disabled": 0, "type": "electric_scooter", "fusion_lat": 0.0, "bike_id": "350517f0b3b511505550a6623e5f8a53"}, {"rental_uris": {"ios": "https://dc.lft.to/lastmile_qr_scan", "android": "https://dc.lft.to/lastmile_qr_scan"}, "fusion_lon": 0.0, "lon": -77.04865016666666, "lat": 38.892263166666666, "is_reserved": 0, "name": "a48704b7eaafb2cfeae579541d3e290d", "is_disabled": 0, "type": "electric_scooter", "fusion_lat": 0.0, "bike_id": "a48704b7eaafb2cfeae579541d3e290d"}, {"rental_uris": {"ios": "https://dc.lft.to/lastmile_qr_scan", "android": "https://dc.lft.to/lastmile_qr_scan"}, "fusion_lon": 0.0, "lon": -77.037523, "lat": 38.91688716666667, "is_reserved": 0, "name": "218aca1eb77df827733d08086e3942cb", "is_disabled": 0, "type": "electric_scooter", "fusion_lat": 0.0, "bike_id": "218aca1eb77df827733d08086e3942cb"}, {"rental_uris": {"ios": "https://dc.lft.to/lastmile_qr_scan", "android": "https://dc.lft.to/lastmile_qr_scan"}, "fusion_lon": 0.0, "lon": -76.93757166666667, "lat": 38.890388, "is_reserved": 0, "name": "e5f848452a8aee560c6dba03759d1d49", "is_disabled": 0, "type": "electric_scooter", "fusion_lat": 0.0, "bike_id": "e5f848452a8aee560c6dba03759d1d49"}, {"rental_uris": {"ios": "https://dc.lft.to/lastmile_qr_scan", "android": "https://dc.lft.to/lastmile_qr_scan"}, "fusion_lon": 0.0, "lon": -77.019163, "lat": 38.919136333333334, "is_reserved": 0, "name": "6c183649326d344b071a5682bca2f32d", "is_disabled": 0, "type": "electric_scooter", "fusion_lat": 0.0, "bike_id": "6c183649326d344b071a5682bca2f32d"}, {"rental_uris": {"ios": "https://dc.lft.to/lastmile_qr_scan", "android": "https://dc.lft.to/lastmile_qr_scan"}, "fusion_lon": 0.0, "lon": -77.038172, "lat": 38.93521583333333, "is_reserved": 0, "name": "3a6ba964a53d24918368a99c8670afd4", "is_disabled": 0, "type": "electric_scooter", "fusion_lat": 0.0, "bike_id": "3a6ba964a53d24918368a99c8670afd4"}, {"rental_uris": {"ios": "https://dc.lft.to/lastmile_qr_scan", "android": "https://dc.lft.to/lastmile_qr_scan"}, "fusion_lon": 0.0, "lon": -77.041724, "lat": 38.9173225, "is_reserved": 0, "name": "20cd2ba6486890aa5807fbc96ccb5a30", "is_disabled": 0, "type": "electric_scooter", "fusion_lat": 0.0, "bike_id": "20cd2ba6486890aa5807fbc96ccb5a30"}, {"rental_uris": {"ios": "https://dc.lft.to/lastmile_qr_scan", "android": "https://dc.lft.to/lastmile_qr_scan"}, "fusion_lon": 0.0, "lon": -77.02121833333334, "lat": 38.87730583333333, "is_reserved": 0, "name": "8c0828b264bfa861d64287c59b5e9763", "is_disabled": 0, "type": "electric_scooter", "fusion_lat": 0.0, "bike_id": "8c0828b264bfa861d64287c59b5e9763"}, {"rental_uris": {"ios": "https://dc.lft.to/lastmile_qr_scan", "android": "https://dc.lft.to/lastmile_qr_scan"}, "fusion_lon": 0.0, "lon": -77.033464, "lat": 38.89244983333333, "is_reserved": 0, "name": "8825464e6e309e9c713c09304c013459", "is_disabled": 0, "type": "electric_scooter", "fusion_lat": 0.0, "bike_id": "8825464e6e309e9c713c09304c013459"}, {"rental_uris": {"ios": "https://dc.lft.to/lastmile_qr_scan", "android": "https://dc.lft.to/lastmile_qr_scan"}, "fusion_lon": 0.0, "lon": -77.00584516666666, "lat": 38.876559666666665, "is_reserved": 0, "name": "6e888fa1a5d725fec7a4276c7739aca1", "is_disabled": 0, "type": "electric_scooter", "fusion_lat": 0.0, "bike_id": "6e888fa1a5d725fec7a4276c7739aca1"}, {"rental_uris": {"ios": "https://dc.lft.to/lastmile_qr_scan", "android": "https://dc.lft.to/lastmile_qr_scan"}, "fusion_lon": 0.0, "lon": -77.03366016666666, "lat": 38.96508633333333, "is_reserved": 0, "name": "137bc288cfbb4e179c2d7dd307044b42", "is_disabled": 0, "type": "electric_bike", "fusion_lat": 0.0, "bike_id": "137bc288cfbb4e179c2d7dd307044b42"}, {"rental_uris": {"ios": "https://dc.lft.to/lastmile_qr_scan", "android": "https://dc.lft.to/lastmile_qr_scan"}, "fusion_lon": 0.0, "lon": -77.03226333333333, "lat": 38.961727333333336, "is_reserved": 0, "name": "1f9c07744ee2a9319890ef2bf3e609e0", "is_disabled": 0, "type": "electric_scooter", "fusion_lat": 0.0, "bike_id": "1f9c07744ee2a9319890ef2bf3e609e0"}, {"rental_uris": {"ios": "https://dc.lft.to/lastmile_qr_scan", "android": "https://dc.lft.to/lastmile_qr_scan"}, "fusion_lon": 0.0, "lon": -77.04180783333334, "lat": 38.894965166666665, "is_reserved": 0, "name": "05b3556770ed0e8cd90859008f3870c9", "is_disabled": 0, "type": "electric_scooter", "fusion_lat": 0.0, "bike_id": "05b3556770ed0e8cd90859008f3870c9"}, {"rental_uris": {"ios": "https://dc.lft.to/lastmile_qr_scan", "android": "https://dc.lft.to/lastmile_qr_scan"}, "fusion_lon": 0.0, "lon": -77.0230925, "lat": 38.91787816666667, "is_reserved": 0, "name": "8f21ee3cf166a89b97781995a50a5293", "is_disabled": 0, "type": "electric_scooter", "fusion_lat": 0.0, "bike_id": "8f21ee3cf166a89b97781995a50a5293"}, {"rental_uris": {"ios": "https://dc.lft.to/lastmile_qr_scan", "android": "https://dc.lft.to/lastmile_qr_scan"}, "fusion_lon": 0.0, "lon": -77.11526316666667, "lat": 39.074708, "is_reserved": 0, "name": "b40bf71d67bf9d116b7671b2ca57d08d", "is_disabled": 0, "type": "electric_bike", "fusion_lat": 0.0, "bike_id": "b40bf71d67bf9d116b7671b2ca57d08d"}, {"rental_uris": {"ios": "https://dc.lft.to/lastmile_qr_scan", "android": "https://dc.lft.to/lastmile_qr_scan"}, "fusion_lon": 0.0, "lon": -77.03157, "lat": 38.91704, "is_reserved": 0, "name": "9035949f2254488279b47fe511814ef1", "is_disabled": 0, "type": "electric_scooter", "fusion_lat": 0.0, "bike_id": "9035949f2254488279b47fe511814ef1"}, {"rental_uris": {"ios": "https://dc.lft.to/lastmile_qr_scan", "android": "https://dc.lft.to/lastmile_qr_scan"}, "fusion_lon": 0.0, "lon": -77.02358, "lat": 38.9474725, "is_reserved": 0, "name": "63817466fff97ad1ccbbcd571da26440", "is_disabled": 0, "type": "electric_scooter", "fusion_lat": 0.0, "bike_id": "63817466fff97ad1ccbbcd571da26440"}, {"rental_uris": {"ios": "https://dc.lft.to/lastmile_qr_scan", "android": "https://dc.lft.to/lastmile_qr_scan"}, "fusion_lon": 0.0, "lon": -77.02187416666666, "lat": 38.90196316666667, "is_reserved": 0, "name": "b5acd9e2713f9d0a7f6a0dfa8f39398b", "is_disabled": 0, "type": "electric_scooter", "fusion_lat": 0.0, "bike_id": "b5acd9e2713f9d0a7f6a0dfa8f39398b"}, {"rental_uris": {"ios": "https://dc.lft.to/lastmile_qr_scan", "android": "https://dc.lft.to/lastmile_qr_scan"}, "fusion_lon": 0.0, "lon": -77.0465845, "lat": 38.8925285, "is_reserved": 0, "name": "40e0cf26026474f878ee9695ba2b38aa", "is_disabled": 0, "type": "electric_scooter", "fusion_lat": 0.0, "bike_id": "40e0cf26026474f878ee9695ba2b38aa"}, {"rental_uris": {"ios": "https://dc.lft.to/lastmile_qr_scan", "android": "https://dc.lft.to/lastmile_qr_scan"}, "fusion_lon": 0.0, "lon": -77.02867966666666, "lat": 38.90144733333333, "is_reserved": 0, "name": "5ac85e985e999ce811bbd9d8cd3a29f0", "is_disabled": 0, "type": "electric_scooter", "fusion_lat": 0.0, "bike_id": "5ac85e985e999ce811bbd9d8cd3a29f0"}, {"rental_uris": {"ios": "https://dc.lft.to/lastmile_qr_scan", "android": "https://dc.lft.to/lastmile_qr_scan"}, "fusion_lon": 0.0, "lon": -77.0270215, "lat": 38.896677833333335, "is_reserved": 0, "name": "be6ca2cb9a9d332dca11864117df223f", "is_disabled": 0, "type": "electric_scooter", "fusion_lat": 0.0, "bike_id": "be6ca2cb9a9d332dca11864117df223f"}, {"rental_uris": {"ios": "https://dc.lft.to/lastmile_qr_scan", "android": "https://dc.lft.to/lastmile_qr_scan"}, "fusion_lon": 0.0, "lon": -77.03833133333333, "lat": 38.911216, "is_reserved": 0, "name": "410ed291e4ce4baf846c2b14de07baf6", "is_disabled": 0, "type": "electric_scooter", "fusion_lat": 0.0, "bike_id": "410ed291e4ce4baf846c2b14de07baf6"}, {"rental_uris": {"ios": "https://dc.lft.to/lastmile_qr_scan", "android": "https://dc.lft.to/lastmile_qr_scan"}, "fusion_lon": 0.0, "lon": -77.01780433333333, "lat": 38.877531833333336, "is_reserved": 0, "name": "d7131a016c77d3478faea056ee7f5bce", "is_disabled": 0, "type": "electric_scooter", "fusion_lat": 0.0, "bike_id": "d7131a016c77d3478faea056ee7f5bce"}, {"rental_uris": {"ios": "https://dc.lft.to/lastmile_qr_scan", "android": "https://dc.lft.to/lastmile_qr_scan"}, "fusion_lon": 0.0, "lon": -77.01621766666666, "lat": 38.89964966666667, "is_reserved": 0, "name": "687f6f2a67a51573599ce6ffca753279", "is_disabled": 0, "type": "electric_scooter", "fusion_lat": 0.0, "bike_id": "687f6f2a67a51573599ce6ffca753279"}, {"rental_uris": {"ios": "https://dc.lft.to/lastmile_qr_scan", "android": "https://dc.lft.to/lastmile_qr_scan"}, "fusion_lon": 0.0, "lon": -77.062607, "lat": 38.80633666666667, "is_reserved": 0, "name": "a6b8c8880de792aa9464bd0fda243b1f", "is_disabled": 0, "type": "electric_bike", "fusion_lat": 0.0, "bike_id": "a6b8c8880de792aa9464bd0fda243b1f"}, {"rental_uris": {"ios": "https://dc.lft.to/lastmile_qr_scan", "android": "https://dc.lft.to/lastmile_qr_scan"}, "fusion_lon": 0.0, "lon": -76.97278533333333, "lat": 38.855908, "is_reserved": 0, "name": "a3236c9456db0e392ab8d91cd574e766", "is_disabled": 0, "type": "electric_bike", "fusion_lat": 0.0, "bike_id": "a3236c9456db0e392ab8d91cd574e766"}, {"rental_uris": {"ios": "https://dc.lft.to/lastmile_qr_scan", "android": "https://dc.lft.to/lastmile_qr_scan"}, "fusion_lon": 0.0, "lon": -77.02202866666667, "lat": 38.8861855, "is_reserved": 0, "name": "69d944034ad086993efe954d79abfd88", "is_disabled": 0, "type": "electric_scooter", "fusion_lat": 0.0, "bike_id": "69d944034ad086993efe954d79abfd88"}, {"rental_uris": {"ios": "https://dc.lft.to/lastmile_qr_scan", "android": "https://dc.lft.to/lastmile_qr_scan"}, "fusion_lon": 0.0, "lon": -77.0344375, "lat": 38.930984333333335, "is_reserved": 0, "name": "d5959c39266a33c1555352bcead2ef34", "is_disabled": 0, "type": "electric_scooter", "fusion_lat": 0.0, "bike_id": "d5959c39266a33c1555352bcead2ef34"}, {"rental_uris": {"ios": "https://dc.lft.to/lastmile_qr_scan", "android": "https://dc.lft.to/lastmile_qr_scan"}, "fusion_lon": 0.0, "lon": -77.0507775, "lat": 38.901847, "is_reserved": 0, "name": "4cdcd622f29f0736c810e1b7bfd2f82f", "is_disabled": 0, "type": "electric_scooter", "fusion_lat": 0.0, "bike_id": "4cdcd622f29f0736c810e1b7bfd2f82f"}, {"rental_uris": {"ios": "https://dc.lft.to/lastmile_qr_scan", "android": "https://dc.lft.to/lastmile_qr_scan"}, "fusion_lon": 0.0, "lon": -77.0385365, "lat": 38.92653466666667, "is_reserved": 0, "name": "88e8fc833d5f520b901ce910ad96ae00", "is_disabled": 0, "type": "electric_scooter", "fusion_lat": 0.0, "bike_id": "88e8fc833d5f520b901ce910ad96ae00"}, {"rental_uris": {"ios": "https://dc.lft.to/lastmile_qr_scan", "android": "https://dc.lft.to/lastmile_qr_scan"}, "fusion_lon": 0.0, "lon": -77.0297335, "lat": 38.90597066666667, "is_reserved": 0, "name": "405ca2709f9dce5346c0218ec16bdca4", "is_disabled": 0, "type": "electric_scooter", "fusion_lat": 0.0, "bike_id": "405ca2709f9dce5346c0218ec16bdca4"}, {"rental_uris": {"ios": "https://dc.lft.to/lastmile_qr_scan", "android": "https://dc.lft.to/lastmile_qr_scan"}, "fusion_lon": 0.0, "lon": -77.2339575, "lat": 38.87177466666667, "is_reserved": 0, "name": "369f878d13d5d36ec4ec577dec741ef8", "is_disabled": 0, "type": "electric_bike", "fusion_lat": 0.0, "bike_id": "369f878d13d5d36ec4ec577dec741ef8"}, {"rental_uris": {"ios": "https://dc.lft.to/lastmile_qr_scan", "android": "https://dc.lft.to/lastmile_qr_scan"}, "fusion_lon": 0.0, "lon": -77.02942483333334, "lat": 38.91690216666667, "is_reserved": 0, "name": "52c422ca4fee31d80e8ea9c99e497b27", "is_disabled": 0, "type": "electric_scooter", "fusion_lat": 0.0, "bike_id": "52c422ca4fee31d80e8ea9c99e497b27"}, {"rental_uris": {"ios": "https://dc.lft.to/lastmile_qr_scan", "android": "https://dc.lft.to/lastmile_qr_scan"}, "fusion_lon": 0.0, "lon": -76.97707016666666, "lat": 38.8862025, "is_reserved": 0, "name": "67c654c5310a1b406092fb5417e46055", "is_disabled": 0, "type": "electric_scooter", "fusion_lat": 0.0, "bike_id": "67c654c5310a1b406092fb5417e46055"}, {"rental_uris": {"ios": "https://dc.lft.to/lastmile_qr_scan", "android": "https://dc.lft.to/lastmile_qr_scan"}, "fusion_lon": 0.0, "lon": -77.056017, "lat": 38.937032333333335, "is_reserved": 0, "name": "3131d6fb8aa14815663a93599fdae693", "is_disabled": 0, "type": "electric_scooter", "fusion_lat": 0.0, "bike_id": "3131d6fb8aa14815663a93599fdae693"}, {"rental_uris": {"ios": "https://dc.lft.to/lastmile_qr_scan", "android": "https://dc.lft.to/lastmile_qr_scan"}, "fusion_lon": 0.0, "lon": -76.94236566666666, "lat": 38.98021266666667, "is_reserved": 0, "name": "a0bfa317a643050c122ee3900cb50c87", "is_disabled": 0, "type": "electric_bike", "fusion_lat": 0.0, "bike_id": "a0bfa317a643050c122ee3900cb50c87"}, {"rental_uris": {"ios": "https://dc.lft.to/lastmile_qr_scan", "android": "https://dc.lft.to/lastmile_qr_scan"}, "fusion_lon": 0.0, "lon": -77.03294333333334, "lat": 38.899111833333336, "is_reserved": 0, "name": "8ef0e7cc14fa14b23193da24d9c01470", "is_disabled": 0, "type": "electric_scooter", "fusion_lat": 0.0, "bike_id": "8ef0e7cc14fa14b23193da24d9c01470"}, {"rental_uris": {"ios": "https://dc.lft.to/lastmile_qr_scan", "android": "https://dc.lft.to/lastmile_qr_scan"}, "fusion_lon": 0.0, "lon": -77.00223166666666, "lat": 38.90038366666667, "is_reserved": 0, "name": "0f58f6adb35f4c62f9969af7a0b70006", "is_disabled": 0, "type": "electric_scooter", "fusion_lat": 0.0, "bike_id": "0f58f6adb35f4c62f9969af7a0b70006"}, {"rental_uris": {"ios": "https://dc.lft.to/lastmile_qr_scan", "android": "https://dc.lft.to/lastmile_qr_scan"}, "fusion_lon": 0.0, "lon": -77.036552, "lat": 38.9143875, "is_reserved": 0, "name": "9176886768a2edf461723e1114014610", "is_disabled": 0, "type": "electric_scooter", "fusion_lat": 0.0, "bike_id": "9176886768a2edf461723e1114014610"}, {"rental_uris": {"ios": "https://dc.lft.to/lastmile_qr_scan", "android": "https://dc.lft.to/lastmile_qr_scan"}, "fusion_lon": 0.0, "lon": -76.93740333333334, "lat": 38.890494333333336, "is_reserved": 0, "name": "6c1378b8d3653c6dbf574fc7063f0fd9", "is_disabled": 0, "type": "electric_scooter", "fusion_lat": 0.0, "bike_id": "6c1378b8d3653c6dbf574fc7063f0fd9"}, {"rental_uris": {"ios": "https://dc.lft.to/lastmile_qr_scan", "android": "https://dc.lft.to/lastmile_qr_scan"}, "fusion_lon": 0.0, "lon": -76.99460583333334, "lat": 38.95316483333333, "is_reserved": 0, "name": "1f1b1e7454b73b473c9299a5eccbcdc3", "is_disabled": 0, "type": "electric_scooter", "fusion_lat": 0.0, "bike_id": "1f1b1e7454b73b473c9299a5eccbcdc3"}, {"rental_uris": {"ios": "https://dc.lft.to/lastmile_qr_scan", "android": "https://dc.lft.to/lastmile_qr_scan"}, "fusion_lon": 0.0, "lon": -77.01382833333334, "lat": 38.944310333333334, "is_reserved": 0, "name": "6a34dd2c61680e4a9b1e7f1afb2a82c9", "is_disabled": 0, "type": "electric_bike", "fusion_lat": 0.0, "bike_id": "6a34dd2c61680e4a9b1e7f1afb2a82c9"}, {"rental_uris": {"ios": "https://dc.lft.to/lastmile_qr_scan", "android": "https://dc.lft.to/lastmile_qr_scan"}, "fusion_lon": 0.0, "lon": -77.07705433333334, "lat": 38.935578166666666, "is_reserved": 0, "name": "9ed4da6591fbb5fe747dfee875fca45d", "is_disabled": 0, "type": "electric_scooter", "fusion_lat": 0.0, "bike_id": "9ed4da6591fbb5fe747dfee875fca45d"}, {"rental_uris": {"ios": "https://dc.lft.to/lastmile_qr_scan", "android": "https://dc.lft.to/lastmile_qr_scan"}, "fusion_lon": 0.0, "lon": -77.04408866666667, "lat": 38.925893333333335, "is_reserved": 0, "name": "7074748757f71a528fa3293c12febc89", "is_disabled": 0, "type": "electric_scooter", "fusion_lat": 0.0, "bike_id": "7074748757f71a528fa3293c12febc89"}, {"rental_uris": {"ios": "https://dc.lft.to/lastmile_qr_scan", "android": "https://dc.lft.to/lastmile_qr_scan"}, "fusion_lon": 0.0, "lon": -77.022038, "lat": 38.92477483333333, "is_reserved": 0, "name": "78273f429e2e29f30789fc9a4e0ae4b1", "is_disabled": 0, "type": "electric_scooter", "fusion_lat": 0.0, "bike_id": "78273f429e2e29f30789fc9a4e0ae4b1"}, {"rental_uris": {"ios": "https://dc.lft.to/lastmile_qr_scan", "android": "https://dc.lft.to/lastmile_qr_scan"}, "fusion_lon": 0.0, "lon": -77.0406, "lat": 38.899238, "is_reserved": 0, "name": "4d0edbd25fef5af71372bc66aa0410c0", "is_disabled": 0, "type": "electric_scooter", "fusion_lat": 0.0, "bike_id": "4d0edbd25fef5af71372bc66aa0410c0"}, {"rental_uris": {"ios": "https://dc.lft.to/lastmile_qr_scan", "android": "https://dc.lft.to/lastmile_qr_scan"}, "fusion_lon": 0.0, "lon": -77.03176616666667, "lat": 38.914191, "is_reserved": 0, "name": "9b26f436cfc507ce95dfb88b35290be8", "is_disabled": 0, "type": "electric_scooter", "fusion_lat": 0.0, "bike_id": "9b26f436cfc507ce95dfb88b35290be8"}, {"rental_uris": {"ios": "https://dc.lft.to/lastmile_qr_scan", "android": "https://dc.lft.to/lastmile_qr_scan"}, "fusion_lon": 0.0, "lon": -77.03532583333333, "lat": 38.9247015, "is_reserved": 0, "name": "fb483bbb047e6ecf5062db2a798e099f", "is_disabled": 0, "type": "electric_scooter", "fusion_lat": 0.0, "bike_id": "fb483bbb047e6ecf5062db2a798e099f"}, {"rental_uris": {"ios": "https://dc.lft.to/lastmile_qr_scan", "android": "https://dc.lft.to/lastmile_qr_scan"}, "fusion_lon": 0.0, "lon": -77.03800833333334, "lat": 38.916955, "is_reserved": 0, "name": "1d87e1d70afa39557daf7fb7a69a0dfc", "is_disabled": 0, "type": "electric_scooter", "fusion_lat": 0.0, "bike_id": "1d87e1d70afa39557daf7fb7a69a0dfc"}, {"rental_uris": {"ios": "https://dc.lft.to/lastmile_qr_scan", "android": "https://dc.lft.to/lastmile_qr_scan"}, "fusion_lon": 0.0, "lon": -76.99431583333333, "lat": 38.9386015, "is_reserved": 0, "name": "dc157912b3ecdb6e6a3ccd5063778f8e", "is_disabled": 0, "type": "electric_scooter", "fusion_lat": 0.0, "bike_id": "dc157912b3ecdb6e6a3ccd5063778f8e"}, {"rental_uris": {"ios": "https://dc.lft.to/lastmile_qr_scan", "android": "https://dc.lft.to/lastmile_qr_scan"}, "fusion_lon": 0.0, "lon": -77.03431266666666, "lat": 38.90246666666667, "is_reserved": 0, "name": "84e340e164006a2931f56d34ab17da86", "is_disabled": 0, "type": "electric_scooter", "fusion_lat": 0.0, "bike_id": "84e340e164006a2931f56d34ab17da86"}, {"rental_uris": {"ios": "https://dc.lft.to/lastmile_qr_scan", "android": "https://dc.lft.to/lastmile_qr_scan"}, "fusion_lon": 0.0, "lon": -77.02362066666667, "lat": 38.908556833333336, "is_reserved": 0, "name": "a770b161c74a3072d9b9c34d0b6132b5", "is_disabled": 0, "type": "electric_scooter", "fusion_lat": 0.0, "bike_id": "a770b161c74a3072d9b9c34d0b6132b5"}, {"rental_uris": {"ios": "https://dc.lft.to/lastmile_qr_scan", "android": "https://dc.lft.to/lastmile_qr_scan"}, "fusion_lon": 0.0, "lon": -77.00987816666667, "lat": 38.872192, "is_reserved": 0, "name": "aff9bccc591d73ac14942ce2a833e86a", "is_disabled": 0, "type": "electric_scooter", "fusion_lat": 0.0, "bike_id": "aff9bccc591d73ac14942ce2a833e86a"}, {"rental_uris": {"ios": "https://dc.lft.to/lastmile_qr_scan", "android": "https://dc.lft.to/lastmile_qr_scan"}, "fusion_lon": 0.0, "lon": -77.05686566666667, "lat": 38.9233055, "is_reserved": 0, "name": "9d61e342c655578e6649d94cf82119a8", "is_disabled": 0, "type": "electric_scooter", "fusion_lat": 0.0, "bike_id": "9d61e342c655578e6649d94cf82119a8"}, {"rental_uris": {"ios": "https://dc.lft.to/lastmile_qr_scan", "android": "https://dc.lft.to/lastmile_qr_scan"}, "fusion_lon": 0.0, "lon": -77.0296175, "lat": 38.9050305, "is_reserved": 0, "name": "593da64766acfc2764984029b1bcb8b0", "is_disabled": 0, "type": "electric_scooter", "fusion_lat": 0.0, "bike_id": "593da64766acfc2764984029b1bcb8b0"}, {"rental_uris": {"ios": "https://dc.lft.to/lastmile_qr_scan", "android": "https://dc.lft.to/lastmile_qr_scan"}, "fusion_lon": 0.0, "lon": -77.05420566666666, "lat": 38.92840833333333, "is_reserved": 0, "name": "ad142c98681f2d6768e0a86f4ec6fb6a", "is_disabled": 0, "type": "electric_scooter", "fusion_lat": 0.0, "bike_id": "ad142c98681f2d6768e0a86f4ec6fb6a"}, {"rental_uris": {"ios": "https://dc.lft.to/lastmile_qr_scan", "android": "https://dc.lft.to/lastmile_qr_scan"}, "fusion_lon": 0.0, "lon": -77.035813, "lat": 38.90761783333333, "is_reserved": 0, "name": "2cfc5fe2d880fda164e3a75988921c4e", "is_disabled": 0, "type": "electric_scooter", "fusion_lat": 0.0, "bike_id": "2cfc5fe2d880fda164e3a75988921c4e"}, {"rental_uris": {"ios": "https://dc.lft.to/lastmile_qr_scan", "android": "https://dc.lft.to/lastmile_qr_scan"}, "fusion_lon": 0.0, "lon": -76.95705233333334, "lat": 38.88877016666667, "is_reserved": 0, "name": "8bd2f0cc1d4b1d61ab869fd5217d3ae4", "is_disabled": 0, "type": "electric_bike", "fusion_lat": 0.0, "bike_id": "8bd2f0cc1d4b1d61ab869fd5217d3ae4"}, {"rental_uris": {"ios": "https://dc.lft.to/lastmile_qr_scan", "android": "https://dc.lft.to/lastmile_qr_scan"}, "fusion_lon": 0.0, "lon": -77.017692, "lat": 38.94042016666667, "is_reserved": 0, "name": "3ba08de1989ef2a2b32249fd2394368e", "is_disabled": 0, "type": "electric_scooter", "fusion_lat": 0.0, "bike_id": "3ba08de1989ef2a2b32249fd2394368e"}, {"rental_uris": {"ios": "https://dc.lft.to/lastmile_qr_scan", "android": "https://dc.lft.to/lastmile_qr_scan"}, "fusion_lon": 0.0, "lon": -77.0326435, "lat": 38.937539, "is_reserved": 0, "name": "10d95c881c66608ff2e0d3d004ac8b4c", "is_disabled": 0, "type": "electric_scooter", "fusion_lat": 0.0, "bike_id": "10d95c881c66608ff2e0d3d004ac8b4c"}, {"rental_uris": {"ios": "https://dc.lft.to/lastmile_qr_scan", "android": "https://dc.lft.to/lastmile_qr_scan"}, "fusion_lon": 0.0, "lon": -77.047772, "lat": 38.89731333333334, "is_reserved": 0, "name": "039c518eb5b51dcda0384ee4269a98f8", "is_disabled": 0, "type": "electric_bike", "fusion_lat": 0.0, "bike_id": "039c518eb5b51dcda0384ee4269a98f8"}, {"rental_uris": {"ios": "https://dc.lft.to/lastmile_qr_scan", "android": "https://dc.lft.to/lastmile_qr_scan"}, "fusion_lon": 0.0, "lon": -77.01147433333334, "lat": 38.9295875, "is_reserved": 0, "name": "76255117e633ce972341caf82331d1c6", "is_disabled": 0, "type": "electric_scooter", "fusion_lat": 0.0, "bike_id": "76255117e633ce972341caf82331d1c6"}, {"rental_uris": {"ios": "https://dc.lft.to/lastmile_qr_scan", "android": "https://dc.lft.to/lastmile_qr_scan"}, "fusion_lon": 0.0, "lon": -77.03254733333333, "lat": 38.92866766666667, "is_reserved": 0, "name": "a616dffe7be8d6c94ad220f2dfbf72e4", "is_disabled": 0, "type": "electric_scooter", "fusion_lat": 0.0, "bike_id": "a616dffe7be8d6c94ad220f2dfbf72e4"}, {"rental_uris": {"ios": "https://dc.lft.to/lastmile_qr_scan", "android": "https://dc.lft.to/lastmile_qr_scan"}, "fusion_lon": 0.0, "lon": -77.045327, "lat": 38.8994655, "is_reserved": 0, "name": "5d3241e8530977e2dd7ac5ebd5d9da8f", "is_disabled": 0, "type": "electric_scooter", "fusion_lat": 0.0, "bike_id": "5d3241e8530977e2dd7ac5ebd5d9da8f"}, {"rental_uris": {"ios": "https://dc.lft.to/lastmile_qr_scan", "android": "https://dc.lft.to/lastmile_qr_scan"}, "fusion_lon": 0.0, "lon": -77.0456725, "lat": 38.912600166666664, "is_reserved": 0, "name": "3f28d9494b8270d53a1e724e82b7deea", "is_disabled": 0, "type": "electric_scooter", "fusion_lat": 0.0, "bike_id": "3f28d9494b8270d53a1e724e82b7deea"}, {"rental_uris": {"ios": "https://dc.lft.to/lastmile_qr_scan", "android": "https://dc.lft.to/lastmile_qr_scan"}, "fusion_lon": 0.0, "lon": -77.0196245, "lat": 38.923268666666665, "is_reserved": 0, "name": "bc075eaf789b4b5a737c0fb3c4e823a3", "is_disabled": 0, "type": "electric_scooter", "fusion_lat": 0.0, "bike_id": "bc075eaf789b4b5a737c0fb3c4e823a3"}, {"rental_uris": {"ios": "https://dc.lft.to/lastmile_qr_scan", "android": "https://dc.lft.to/lastmile_qr_scan"}, "fusion_lon": 0.0, "lon": -77.0059445, "lat": 38.8818425, "is_reserved": 0, "name": "681a78fb6300950d981a2adfc4eb2f4a", "is_disabled": 0, "type": "electric_scooter", "fusion_lat": 0.0, "bike_id": "681a78fb6300950d981a2adfc4eb2f4a"}, {"rental_uris": {"ios": "https://dc.lft.to/lastmile_qr_scan", "android": "https://dc.lft.to/lastmile_qr_scan"}, "fusion_lon": 0.0, "lon": -77.02829966666667, "lat": 38.90855233333333, "is_reserved": 0, "name": "db63b7b668135ab81bb26dd1152dc347", "is_disabled": 0, "type": "electric_scooter", "fusion_lat": 0.0, "bike_id": "db63b7b668135ab81bb26dd1152dc347"}, {"rental_uris": {"ios": "https://dc.lft.to/lastmile_qr_scan", "android": "https://dc.lft.to/lastmile_qr_scan"}, "fusion_lon": 0.0, "lon": -77.02402733333334, "lat": 38.957317333333336, "is_reserved": 0, "name": "13334cbdc6f62321d7b64c3e741484c3", "is_disabled": 0, "type": "electric_scooter", "fusion_lat": 0.0, "bike_id": "13334cbdc6f62321d7b64c3e741484c3"}, {"rental_uris": {"ios": "https://dc.lft.to/lastmile_qr_scan", "android": "https://dc.lft.to/lastmile_qr_scan"}, "fusion_lon": 0.0, "lon": -77.022295, "lat": 38.95698566666667, "is_reserved": 0, "name": "8ff999ea1840145c5704331f883156cd", "is_disabled": 0, "type": "electric_bike", "fusion_lat": 0.0, "bike_id": "8ff999ea1840145c5704331f883156cd"}, {"rental_uris": {"ios": "https://dc.lft.to/lastmile_qr_scan", "android": "https://dc.lft.to/lastmile_qr_scan"}, "fusion_lon": 0.0, "lon": -76.99477366666666, "lat": 38.8621565, "is_reserved": 0, "name": "a6ede2ba089bd1bc7e91855faa01ad7c", "is_disabled": 0, "type": "electric_scooter", "fusion_lat": 0.0, "bike_id": "a6ede2ba089bd1bc7e91855faa01ad7c"}, {"rental_uris": {"ios": "https://dc.lft.to/lastmile_qr_scan", "android": "https://dc.lft.to/lastmile_qr_scan"}, "fusion_lon": 0.0, "lon": -77.02842283333334, "lat": 38.9207, "is_reserved": 0, "name": "756c33f7a9965340c031df4f98bebb91", "is_disabled": 0, "type": "electric_scooter", "fusion_lat": 0.0, "bike_id": "756c33f7a9965340c031df4f98bebb91"}, {"rental_uris": {"ios": "https://dc.lft.to/lastmile_qr_scan", "android": "https://dc.lft.to/lastmile_qr_scan"}, "fusion_lon": 0.0, "lon": -77.00067666666666, "lat": 38.87684383333333, "is_reserved": 0, "name": "42ce9a2de2c56071d7c4b5f093d73d4c", "is_disabled": 0, "type": "electric_scooter", "fusion_lat": 0.0, "bike_id": "42ce9a2de2c56071d7c4b5f093d73d4c"}, {"rental_uris": {"ios": "https://dc.lft.to/lastmile_qr_scan", "android": "https://dc.lft.to/lastmile_qr_scan"}, "fusion_lon": 0.0, "lon": -77.06015733333334, "lat": 38.82773866666667, "is_reserved": 0, "name": "367ce84d6e8cb8ae574bdca2f96677ee", "is_disabled": 0, "type": "electric_bike", "fusion_lat": 0.0, "bike_id": "367ce84d6e8cb8ae574bdca2f96677ee"}, {"rental_uris": {"ios": "https://dc.lft.to/lastmile_qr_scan", "android": "https://dc.lft.to/lastmile_qr_scan"}, "fusion_lon": 0.0, "lon": -77.02197833333334, "lat": 38.91046266666667, "is_reserved": 0, "name": "c213c23babc9eaaf8038e51b875b1da0", "is_disabled": 0, "type": "electric_scooter", "fusion_lat": 0.0, "bike_id": "c213c23babc9eaaf8038e51b875b1da0"}, {"rental_uris": {"ios": "https://dc.lft.to/lastmile_qr_scan", "android": "https://dc.lft.to/lastmile_qr_scan"}, "fusion_lon": 0.0, "lon": -77.015605, "lat": 38.8922275, "is_reserved": 0, "name": "a9cf82bdc34e52c35a577f75b1f0cc90", "is_disabled": 0, "type": "electric_scooter", "fusion_lat": 0.0, "bike_id": "a9cf82bdc34e52c35a577f75b1f0cc90"}, {"rental_uris": {"ios": "https://dc.lft.to/lastmile_qr_scan", "android": "https://dc.lft.to/lastmile_qr_scan"}, "fusion_lon": 0.0, "lon": -77.02231816666666, "lat": 38.95685366666667, "is_reserved": 0, "name": "73717c585af34a4225fa9b0551a126df", "is_disabled": 0, "type": "electric_scooter", "fusion_lat": 0.0, "bike_id": "73717c585af34a4225fa9b0551a126df"}, {"rental_uris": {"ios": "https://dc.lft.to/lastmile_qr_scan", "android": "https://dc.lft.to/lastmile_qr_scan"}, "fusion_lon": 0.0, "lon": -77.0416995, "lat": 38.905265, "is_reserved": 0, "name": "5b32eb1d69225ed60575691b0fdb931a", "is_disabled": 0, "type": "electric_scooter", "fusion_lat": 0.0, "bike_id": "5b32eb1d69225ed60575691b0fdb931a"}, {"rental_uris": {"ios": "https://dc.lft.to/lastmile_qr_scan", "android": "https://dc.lft.to/lastmile_qr_scan"}, "fusion_lon": 0.0, "lon": -77.06760233333334, "lat": 38.94971133333333, "is_reserved": 0, "name": "da4bfff80a65e732e672cb9afe5f00d9", "is_disabled": 0, "type": "electric_scooter", "fusion_lat": 0.0, "bike_id": "da4bfff80a65e732e672cb9afe5f00d9"}, {"rental_uris": {"ios": "https://dc.lft.to/lastmile_qr_scan", "android": "https://dc.lft.to/lastmile_qr_scan"}, "fusion_lon": 0.0, "lon": -77.022782, "lat": 38.92567566666666, "is_reserved": 0, "name": "02673f2504cfa71c4a71d60463bacf8c", "is_disabled": 0, "type": "electric_scooter", "fusion_lat": 0.0, "bike_id": "02673f2504cfa71c4a71d60463bacf8c"}, {"rental_uris": {"ios": "https://dc.lft.to/lastmile_qr_scan", "android": "https://dc.lft.to/lastmile_qr_scan"}, "fusion_lon": 0.0, "lon": -77.03664583333334, "lat": 38.93170383333333, "is_reserved": 0, "name": "b815afee0933d06f530238cd6b750a09", "is_disabled": 0, "type": "electric_scooter", "fusion_lat": 0.0, "bike_id": "b815afee0933d06f530238cd6b750a09"}, {"rental_uris": {"ios": "https://dc.lft.to/lastmile_qr_scan", "android": "https://dc.lft.to/lastmile_qr_scan"}, "fusion_lon": 0.0, "lon": -77.02684933333333, "lat": 38.92472133333333, "is_reserved": 0, "name": "f5d8f8e5b9f7b0eea1e5b0706403cb98", "is_disabled": 0, "type": "electric_scooter", "fusion_lat": 0.0, "bike_id": "f5d8f8e5b9f7b0eea1e5b0706403cb98"}, {"rental_uris": {"ios": "https://dc.lft.to/lastmile_qr_scan", "android": "https://dc.lft.to/lastmile_qr_scan"}, "fusion_lon": 0.0, "lon": -77.02797733333334, "lat": 38.89231483333333, "is_reserved": 0, "name": "0aefb9b00c59b75f25211e52e6230cd3", "is_disabled": 0, "type": "electric_scooter", "fusion_lat": 0.0, "bike_id": "0aefb9b00c59b75f25211e52e6230cd3"}, {"rental_uris": {"ios": "https://dc.lft.to/lastmile_qr_scan", "android": "https://dc.lft.to/lastmile_qr_scan"}, "fusion_lon": 0.0, "lon": -77.03180033333334, "lat": 38.9141615, "is_reserved": 0, "name": "2868cb247a16d8bf66822376c0376920", "is_disabled": 0, "type": "electric_scooter", "fusion_lat": 0.0, "bike_id": "2868cb247a16d8bf66822376c0376920"}, {"rental_uris": {"ios": "https://dc.lft.to/lastmile_qr_scan", "android": "https://dc.lft.to/lastmile_qr_scan"}, "fusion_lon": 0.0, "lon": -77.005968, "lat": 38.90705533333333, "is_reserved": 0, "name": "31fb90953fc2d339771466755d0438ff", "is_disabled": 0, "type": "electric_scooter", "fusion_lat": 0.0, "bike_id": "31fb90953fc2d339771466755d0438ff"}, {"rental_uris": {"ios": "https://dc.lft.to/lastmile_qr_scan", "android": "https://dc.lft.to/lastmile_qr_scan"}, "fusion_lon": 0.0, "lon": -77.03891933333334, "lat": 38.922222833333336, "is_reserved": 0, "name": "3df69c4a943a017c88574635b0536553", "is_disabled": 0, "type": "electric_scooter", "fusion_lat": 0.0, "bike_id": "3df69c4a943a017c88574635b0536553"}, {"rental_uris": {"ios": "https://dc.lft.to/lastmile_qr_scan", "android": "https://dc.lft.to/lastmile_qr_scan"}, "fusion_lon": 0.0, "lon": -77.03483383333334, "lat": 38.9234955, "is_reserved": 0, "name": "34fb78b6b885f3e53623d467bd4ffe9f", "is_disabled": 0, "type": "electric_scooter", "fusion_lat": 0.0, "bike_id": "34fb78b6b885f3e53623d467bd4ffe9f"}, {"rental_uris": {"ios": "https://dc.lft.to/lastmile_qr_scan", "android": "https://dc.lft.to/lastmile_qr_scan"}, "fusion_lon": 0.0, "lon": -77.023186, "lat": 38.917867333333334, "is_reserved": 0, "name": "1f8543af5721acee92b502e9e13b65ab", "is_disabled": 0, "type": "electric_scooter", "fusion_lat": 0.0, "bike_id": "1f8543af5721acee92b502e9e13b65ab"}, {"rental_uris": {"ios": "https://dc.lft.to/lastmile_qr_scan", "android": "https://dc.lft.to/lastmile_qr_scan"}, "fusion_lon": 0.0, "lon": -76.93529, "lat": 38.878924833333336, "is_reserved": 0, "name": "9923ddc374ea8952ec589e07efad7443", "is_disabled": 0, "type": "electric_scooter", "fusion_lat": 0.0, "bike_id": "9923ddc374ea8952ec589e07efad7443"}, {"rental_uris": {"ios": "https://dc.lft.to/lastmile_qr_scan", "android": "https://dc.lft.to/lastmile_qr_scan"}, "fusion_lon": 0.0, "lon": -77.04222283333333, "lat": 38.92153866666666, "is_reserved": 0, "name": "051f2fc794cb97ea8da80f7ea0f553e5", "is_disabled": 0, "type": "electric_scooter", "fusion_lat": 0.0, "bike_id": "051f2fc794cb97ea8da80f7ea0f553e5"}, {"rental_uris": {"ios": "https://dc.lft.to/lastmile_qr_scan", "android": "https://dc.lft.to/lastmile_qr_scan"}, "fusion_lon": 0.0, "lon": -76.9891335, "lat": 38.85817133333333, "is_reserved": 0, "name": "9b1176c0ea93f4e186ee8c3b4f963e46", "is_disabled": 0, "type": "electric_scooter", "fusion_lat": 0.0, "bike_id": "9b1176c0ea93f4e186ee8c3b4f963e46"}, {"rental_uris": {"ios": "https://dc.lft.to/lastmile_qr_scan", "android": "https://dc.lft.to/lastmile_qr_scan"}, "fusion_lon": 0.0, "lon": -76.96988516666667, "lat": 38.8649125, "is_reserved": 0, "name": "570d12dce49fcd949e6c7118fb012ed1", "is_disabled": 0, "type": "electric_bike", "fusion_lat": 0.0, "bike_id": "570d12dce49fcd949e6c7118fb012ed1"}, {"rental_uris": {"ios": "https://dc.lft.to/lastmile_qr_scan", "android": "https://dc.lft.to/lastmile_qr_scan"}, "fusion_lon": 0.0, "lon": -77.0092055, "lat": 38.8973275, "is_reserved": 0, "name": "d65daad348fcefa0d61edcfb54e91a0f", "is_disabled": 0, "type": "electric_scooter", "fusion_lat": 0.0, "bike_id": "d65daad348fcefa0d61edcfb54e91a0f"}, {"rental_uris": {"ios": "https://dc.lft.to/lastmile_qr_scan", "android": "https://dc.lft.to/lastmile_qr_scan"}, "fusion_lon": 0.0, "lon": -77.02152916666667, "lat": 38.92495133333333, "is_reserved": 0, "name": "1107aba4662a63d8aa7b01478cd3be08", "is_disabled": 0, "type": "electric_scooter", "fusion_lat": 0.0, "bike_id": "1107aba4662a63d8aa7b01478cd3be08"}, {"rental_uris": {"ios": "https://dc.lft.to/lastmile_qr_scan", "android": "https://dc.lft.to/lastmile_qr_scan"}, "fusion_lon": 0.0, "lon": -77.06463333333333, "lat": 38.927477, "is_reserved": 0, "name": "0023755f7857f4f889468cb4c4fad5ea", "is_disabled": 0, "type": "electric_scooter", "fusion_lat": 0.0, "bike_id": "0023755f7857f4f889468cb4c4fad5ea"}, {"rental_uris": {"ios": "https://dc.lft.to/lastmile_qr_scan", "android": "https://dc.lft.to/lastmile_qr_scan"}, "fusion_lon": 0.0, "lon": -77.03391166666667, "lat": 38.909002, "is_reserved": 0, "name": "49b98ba40e939b6c78215143de63c803", "is_disabled": 0, "type": "electric_scooter", "fusion_lat": 0.0, "bike_id": "49b98ba40e939b6c78215143de63c803"}, {"rental_uris": {"ios": "https://dc.lft.to/lastmile_qr_scan", "android": "https://dc.lft.to/lastmile_qr_scan"}, "fusion_lon": 0.0, "lon": -77.05034533333334, "lat": 38.892813833333335, "is_reserved": 0, "name": "5e9720602af39b00e8a9420d8eb0d031", "is_disabled": 0, "type": "electric_scooter", "fusion_lat": 0.0, "bike_id": "5e9720602af39b00e8a9420d8eb0d031"}, {"rental_uris": {"ios": "https://dc.lft.to/lastmile_qr_scan", "android": "https://dc.lft.to/lastmile_qr_scan"}, "fusion_lon": 0.0, "lon": -77.0113865, "lat": 38.909597166666664, "is_reserved": 0, "name": "6a67885f41300db770101211c3169f08", "is_disabled": 0, "type": "electric_scooter", "fusion_lat": 0.0, "bike_id": "6a67885f41300db770101211c3169f08"}, {"rental_uris": {"ios": "https://dc.lft.to/lastmile_qr_scan", "android": "https://dc.lft.to/lastmile_qr_scan"}, "fusion_lon": 0.0, "lon": -77.0729215, "lat": 38.93522733333333, "is_reserved": 0, "name": "2c27f67793b311c6f13abbb398e0528f", "is_disabled": 0, "type": "electric_scooter", "fusion_lat": 0.0, "bike_id": "2c27f67793b311c6f13abbb398e0528f"}, {"rental_uris": {"ios": "https://dc.lft.to/lastmile_qr_scan", "android": "https://dc.lft.to/lastmile_qr_scan"}, "fusion_lon": 0.0, "lon": -77.04665216666666, "lat": 38.917778, "is_reserved": 0, "name": "6a0d0e4be38c163314cad28907dead8a", "is_disabled": 0, "type": "electric_scooter", "fusion_lat": 0.0, "bike_id": "6a0d0e4be38c163314cad28907dead8a"}, {"rental_uris": {"ios": "https://dc.lft.to/lastmile_qr_scan", "android": "https://dc.lft.to/lastmile_qr_scan"}, "fusion_lon": 0.0, "lon": -77.02818216666667, "lat": 38.917865166666665, "is_reserved": 0, "name": "1bbf1452d16526b36307ee394a89d13a", "is_disabled": 0, "type": "electric_scooter", "fusion_lat": 0.0, "bike_id": "1bbf1452d16526b36307ee394a89d13a"}, {"rental_uris": {"ios": "https://dc.lft.to/lastmile_qr_scan", "android": "https://dc.lft.to/lastmile_qr_scan"}, "fusion_lon": 0.0, "lon": -77.02298866666666, "lat": 38.91613, "is_reserved": 0, "name": "3317a26330e5e42dbe6c7c8f3769acbd", "is_disabled": 0, "type": "electric_scooter", "fusion_lat": 0.0, "bike_id": "3317a26330e5e42dbe6c7c8f3769acbd"}, {"rental_uris": {"ios": "https://dc.lft.to/lastmile_qr_scan", "android": "https://dc.lft.to/lastmile_qr_scan"}, "fusion_lon": 0.0, "lon": -77.04795716666666, "lat": 38.88679066666667, "is_reserved": 0, "name": "67625b1778e32142712e674af2ce2842", "is_disabled": 0, "type": "electric_scooter", "fusion_lat": 0.0, "bike_id": "67625b1778e32142712e674af2ce2842"}, {"rental_uris": {"ios": "https://dc.lft.to/lastmile_qr_scan", "android": "https://dc.lft.to/lastmile_qr_scan"}, "fusion_lon": 0.0, "lon": -77.0152515, "lat": 38.926639333333334, "is_reserved": 0, "name": "cdd9818d34b345f449a0997a58d28891", "is_disabled": 0, "type": "electric_scooter", "fusion_lat": 0.0, "bike_id": "cdd9818d34b345f449a0997a58d28891"}, {"rental_uris": {"ios": "https://dc.lft.to/lastmile_qr_scan", "android": "https://dc.lft.to/lastmile_qr_scan"}, "fusion_lon": 0.0, "lon": -77.01623333333333, "lat": 38.899595833333336, "is_reserved": 0, "name": "8f529d3085307965bed1edbee4a733b3", "is_disabled": 0, "type": "electric_scooter", "fusion_lat": 0.0, "bike_id": "8f529d3085307965bed1edbee4a733b3"}, {"rental_uris": {"ios": "https://dc.lft.to/lastmile_qr_scan", "android": "https://dc.lft.to/lastmile_qr_scan"}, "fusion_lon": 0.0, "lon": -77.02320666666667, "lat": 38.93023433333333, "is_reserved": 0, "name": "7963ab0733c35b5fc4668a1dd5687f61", "is_disabled": 0, "type": "electric_scooter", "fusion_lat": 0.0, "bike_id": "7963ab0733c35b5fc4668a1dd5687f61"}, {"rental_uris": {"ios": "https://dc.lft.to/lastmile_qr_scan", "android": "https://dc.lft.to/lastmile_qr_scan"},