{"data": {"bikes": [{"rental_uris": {"ios": "https://dc.lft.to/lastmile_qr_scan", "android": "https://dc.lft.to/lastmile_qr_scan"}, "lat": 38.914949, "lon": -76.9837235, "fusion_lat": 0.0, "name": "80317c3174b743803f1519e771d43c54", "is_disabled": 0, "is_reserved": 0, "bike_id": "80317c3174b743803f1519e771d43c54", "fusion_lon": 0.0, "type": "electric_scooter"}, {"rental_uris": {"ios": "https://dc.lft.to/lastmile_qr_scan", "android": "https://dc.lft.to/lastmile_qr_scan"}, "lat": 38.918224333333335, "lon": -77.032522, "fusion_lat": 0.0, "name": "a70a002af99c640928403d0bccf8c37a", "is_disabled": 0, "is_reserved": 0, "bike_id": "a70a002af99c640928403d0bccf8c37a", "fusion_lon": 0.0, "type": "electric_scooter"}, {"rental_uris": {"ios": "https://dc.lft.to/lastmile_qr_scan", "android": "https://dc.lft.to/lastmile_qr_scan"}, "lat": 38.908215166666665, "lon": -77.03194683333334, "fusion_lat": 0.0, "name": "76937bffe0cfdde1311864360119f3ca", "is_disabled": 0, "is_reserved": 0, "bike_id": "76937bffe0cfdde1311864360119f3ca", "fusion_lon": 0.0, "type": "electric_scooter"}, {"rental_uris": {"ios": "https://dc.lft.to/lastmile_qr_scan", "android": "https://dc.lft.to/lastmile_qr_scan"}, "lat": 38.894827666666664, "lon": -77.02292183333333, "fusion_lat": 0.0, "name": "8851d848d7fb02d82902b3ef50eb38b0", "is_disabled": 0, "is_reserved": 0, "bike_id": "8851d848d7fb02d82902b3ef50eb38b0", "fusion_lon": 0.0, "type": "electric_scooter"}, {"rental_uris": {"ios": "https://dc.lft.to/lastmile_qr_scan", "android": "https://dc.lft.to/lastmile_qr_scan"}, "lat": 38.91856533333333, "lon": -76.961107, "fusion_lat": 0.0, "name": "0b409c4972c18f2eafcbb97b9cc33d76", "is_disabled": 0, "is_reserved": 0, "bike_id": "0b409c4972c18f2eafcbb97b9cc33d76", "fusion_lon": 0.0, "type": "electric_scooter"}, {"rental_uris": {"ios": "https://dc.lft.to/lastmile_qr_scan", "android": "https://dc.lft.to/lastmile_qr_scan"}, "lat": 38.91262916666667, "lon": -77.03865666666667, "fusion_lat": 0.0, "name": "5f348931d0b1caf8145f5b0ed5ba2d39", "is_disabled": 0, "is_reserved": 0, "bike_id": "5f348931d0b1caf8145f5b0ed5ba2d39", "fusion_lon": 0.0, "type": "electric_scooter"}, {"rental_uris": {"ios": "https://dc.lft.to/lastmile_qr_scan", "android": "https://dc.lft.to/lastmile_qr_scan"}, "lat": 38.93326583333333, "lon": -77.08561, "fusion_lat": 0.0, "name": "69a92dff408692f26ca3e57ced91d1b9", "is_disabled": 0, "is_reserved": 0, "bike_id": "69a92dff408692f26ca3e57ced91d1b9", "fusion_lon": 0.0, "type": "electric_scooter"}, {"rental_uris": {"ios": "https://dc.lft.to/lastmile_qr_scan", "android": "https://dc.lft.to/lastmile_qr_scan"}, "lat": 38.90209866666667, "lon": -77.02124183333333, "fusion_lat": 0.0, "name": "7cd949618289ee07bcf954feec1f724f", "is_disabled": 0, "is_reserved": 0, "bike_id": "7cd949618289ee07bcf954feec1f724f", "fusion_lon": 0.0, "type": "electric_scooter"}, {"rental_uris": {"ios": "https://dc.lft.to/lastmile_qr_scan", "android": "https://dc.lft.to/lastmile_qr_scan"}, "lat": 38.895438666666664, "lon": -77.00388283333334, "fusion_lat": 0.0, "name": "82b69abafb7d6f888d09c6245666dfca", "is_disabled": 0, "is_reserved": 0, "bike_id": "82b69abafb7d6f888d09c6245666dfca", "fusion_lon": 0.0, "type": "electric_scooter"}, {"rental_uris": {"ios": "https://dc.lft.to/lastmile_qr_scan", "android": "https://dc.lft.to/lastmile_qr_scan"}, "lat": 38.921968666666665, "lon": -77.01839383333333, "fusion_lat": 0.0, "name": "d2fd88ce1a74ba383f83a86d571caad8", "is_disabled": 0, "is_reserved": 0, "bike_id": "d2fd88ce1a74ba383f83a86d571caad8", "fusion_lon": 0.0, "type": "electric_scooter"}, {"rental_uris": {"ios": "https://dc.lft.to/lastmile_qr_scan", "android": "https://dc.lft.to/lastmile_qr_scan"}, "lat": 38.92975533333333, "lon": -77.03268, "fusion_lat": 0.0, "name": "c2293739ce1ccb28cdc9ab8a18fcb0df", "is_disabled": 0, "is_reserved": 0, "bike_id": "c2293739ce1ccb28cdc9ab8a18fcb0df", "fusion_lon": 0.0, "type": "electric_scooter"}, {"rental_uris": {"ios": "https://dc.lft.to/lastmile_qr_scan", "android": "https://dc.lft.to/lastmile_qr_scan"}, "lat": 38.92334183333333, "lon": -77.04133783333333, "fusion_lat": 0.0, "name": "a2e9f8c4691440fef1370226f6a04db7", "is_disabled": 0, "is_reserved": 0, "bike_id": "a2e9f8c4691440fef1370226f6a04db7", "fusion_lon": 0.0, "type": "electric_scooter"}, {"rental_uris": {"ios": "https://dc.lft.to/lastmile_qr_scan", "android": "https://dc.lft.to/lastmile_qr_scan"}, "lat": 38.907320166666665, "lon": -77.0237115, "fusion_lat": 0.0, "name": "564624005d7dcca198f453e11e80c045", "is_disabled": 0, "is_reserved": 0, "bike_id": "564624005d7dcca198f453e11e80c045", "fusion_lon": 0.0, "type": "electric_scooter"}, {"rental_uris": {"ios": "https://dc.lft.to/lastmile_qr_scan", "android": "https://dc.lft.to/lastmile_qr_scan"}, "lat": 38.844323333333335, "lon": -76.998772, "fusion_lat": 0.0, "name": "5a1cd399bc7e3472411d7c415454d342", "is_disabled": 0, "is_reserved": 0, "bike_id": "5a1cd399bc7e3472411d7c415454d342", "fusion_lon": 0.0, "type": "electric_scooter"}, {"rental_uris": {"ios": "https://dc.lft.to/lastmile_qr_scan", "android": "https://dc.lft.to/lastmile_qr_scan"}, "lat": 38.902582333333335, "lon": -77.0184835, "fusion_lat": 0.0, "name": "bd7aed0dda802dfaf0ca14f01db017f0", "is_disabled": 0, "is_reserved": 0, "bike_id": "bd7aed0dda802dfaf0ca14f01db017f0", "fusion_lon": 0.0, "type": "electric_scooter"}, {"rental_uris": {"ios": "https://dc.lft.to/lastmile_qr_scan", "android": "https://dc.lft.to/lastmile_qr_scan"}, "lat": 38.902392166666665, "lon": -77.002054, "fusion_lat": 0.0, "name": "702607598c5f32e9f8d12834f40b84af", "is_disabled": 0, "is_reserved": 0, "bike_id": "702607598c5f32e9f8d12834f40b84af", "fusion_lon": 0.0, "type": "electric_scooter"}, {"rental_uris": {"ios": "https://dc.lft.to/lastmile_qr_scan", "android": "https://dc.lft.to/lastmile_qr_scan"}, "lat": 38.914647333333335, "lon": -77.04589616666667, "fusion_lat": 0.0, "name": "5154ad523fc44ae40be6fa8336a97853", "is_disabled": 0, "is_reserved": 0, "bike_id": "5154ad523fc44ae40be6fa8336a97853", "fusion_lon": 0.0, "type": "electric_scooter"}, {"rental_uris": {"ios": "https://dc.lft.to/lastmile_qr_scan", "android": "https://dc.lft.to/lastmile_qr_scan"}, "lat": 38.96502133333333, "lon": -77.00202266666666, "fusion_lat": 0.0, "name": "7ab1d12413e7afe62b49b07e1b6db588", "is_disabled": 0, "is_reserved": 0, "bike_id": "7ab1d12413e7afe62b49b07e1b6db588", "fusion_lon": 0.0, "type": "electric_scooter"}, {"rental_uris": {"ios": "https://dc.lft.to/lastmile_qr_scan", "android": "https://dc.lft.to/lastmile_qr_scan"}, "lat": 38.91810183333333, "lon": -77.02700166666666, "fusion_lat": 0.0, "name": "1efa89fe8cfd8ba753fc62543dace3dd", "is_disabled": 0, "is_reserved": 0, "bike_id": "1efa89fe8cfd8ba753fc62543dace3dd", "fusion_lon": 0.0, "type": "electric_scooter"}, {"rental_uris": {"ios": "https://dc.lft.to/lastmile_qr_scan", "android": "https://dc.lft.to/lastmile_qr_scan"}, "lat": 38.921658, "lon": -77.03255383333334, "fusion_lat": 0.0, "name": "61b21083c065604dca7d1f3e5ff2708c", "is_disabled": 0, "is_reserved": 0, "bike_id": "61b21083c065604dca7d1f3e5ff2708c", "fusion_lon": 0.0, "type": "electric_scooter"}, {"rental_uris": {"ios": "https://dc.lft.to/lastmile_qr_scan", "android": "https://dc.lft.to/lastmile_qr_scan"}, "lat": 38.9017135, "lon": -77.05910566666667, "fusion_lat": 0.0, "name": "e830e6cc6bd0b564a84f51c3b0741c98", "is_disabled": 0, "is_reserved": 0, "bike_id": "e830e6cc6bd0b564a84f51c3b0741c98", "fusion_lon": 0.0, "type": "electric_scooter"}, {"rental_uris": {"ios": "https://dc.lft.to/lastmile_qr_scan", "android": "https://dc.lft.to/lastmile_qr_scan"}, "lat": 38.917578, "lon": -77.0476695, "fusion_lat": 0.0, "name": "1acd61fa4cdc4897b308795884dfcb70", "is_disabled": 0, "is_reserved": 0, "bike_id": "1acd61fa4cdc4897b308795884dfcb70", "fusion_lon": 0.0, "type": "electric_scooter"}, {"rental_uris": {"ios": "https://dc.lft.to/lastmile_qr_scan", "android": "https://dc.lft.to/lastmile_qr_scan"}, "lat": 38.9105275, "lon": -77.02194683333333, "fusion_lat": 0.0, "name": "792967629785c2ab02f74c9670c847d4", "is_disabled": 0, "is_reserved": 0, "bike_id": "792967629785c2ab02f74c9670c847d4", "fusion_lon": 0.0, "type": "electric_scooter"}, {"rental_uris": {"ios": "https://dc.lft.to/lastmile_qr_scan", "android": "https://dc.lft.to/lastmile_qr_scan"}, "lat": 38.8838625, "lon": -77.01564166666667, "fusion_lat": 0.0, "name": "92e6195571590e3ba72439b16ee8669f", "is_disabled": 0, "is_reserved": 0, "bike_id": "92e6195571590e3ba72439b16ee8669f", "fusion_lon": 0.0, "type": "electric_scooter"}, {"rental_uris": {"ios": "https://dc.lft.to/lastmile_qr_scan", "android": "https://dc.lft.to/lastmile_qr_scan"}, "lat": 38.851299833333336, "lon": -76.97114483333333, "fusion_lat": 0.0, "name": "cbf500c83356c5ac807338e9289ff10d", "is_disabled": 0, "is_reserved": 0, "bike_id": "cbf500c83356c5ac807338e9289ff10d", "fusion_lon": 0.0, "type": "electric_scooter"}, {"rental_uris": {"ios": "https://dc.lft.to/lastmile_qr_scan", "android": "https://dc.lft.to/lastmile_qr_scan"}, "lat": 38.98889483333333, "lon": -77.0956005, "fusion_lat": 0.0, "name": "cb47ee0e09bba8acf0b1aa2adf131273", "is_disabled": 0, "is_reserved": 0, "bike_id": "cb47ee0e09bba8acf0b1aa2adf131273", "fusion_lon": 0.0, "type": "electric_bike"}, {"rental_uris": {"ios": "https://dc.lft.to/lastmile_qr_scan", "android": "https://dc.lft.to/lastmile_qr_scan"}, "lat": 38.902739333333336, "lon": -77.01367316666666, "fusion_lat": 0.0, "name": "1718abec155f9728e1d924a7a03c1a28", "is_disabled": 0, "is_reserved": 0, "bike_id": "1718abec155f9728e1d924a7a03c1a28", "fusion_lon": 0.0, "type": "electric_scooter"}, {"rental_uris": {"ios": "https://dc.lft.to/lastmile_qr_scan", "android": "https://dc.lft.to/lastmile_qr_scan"}, "lat": 38.94195083333334, "lon": -77.0365675, "fusion_lat": 0.0, "name": "e48bfbea2d7344fcd4f0022cbef84858", "is_disabled": 0, "is_reserved": 0, "bike_id": "e48bfbea2d7344fcd4f0022cbef84858", "fusion_lon": 0.0, "type": "electric_scooter"}, {"rental_uris": {"ios": "https://dc.lft.to/lastmile_qr_scan", "android": "https://dc.lft.to/lastmile_qr_scan"}, "lat": 38.8982125, "lon": -77.00749183333333, "fusion_lat": 0.0, "name": "2fcd6021b9180c8f5595dd4e7ecef50e", "is_disabled": 0, "is_reserved": 0, "bike_id": "2fcd6021b9180c8f5595dd4e7ecef50e", "fusion_lon": 0.0, "type": "electric_scooter"}, {"rental_uris": {"ios": "https://dc.lft.to/lastmile_qr_scan", "android": "https://dc.lft.to/lastmile_qr_scan"}, "lat": 38.92064766666667, "lon": -77.03392566666666, "fusion_lat": 0.0, "name": "06ae8cda5ea10d1b88282a2af62942c4", "is_disabled": 0, "is_reserved": 0, "bike_id": "06ae8cda5ea10d1b88282a2af62942c4", "fusion_lon": 0.0, "type": "electric_scooter"}, {"rental_uris": {"ios": "https://dc.lft.to/lastmile_qr_scan", "android": "https://dc.lft.to/lastmile_qr_scan"}, "lat": 38.94798733333333, "lon": -76.95543966666666, "fusion_lat": 0.0, "name": "ee398272bc4b82ba059196c9048dc920", "is_disabled": 0, "is_reserved": 0, "bike_id": "ee398272bc4b82ba059196c9048dc920", "fusion_lon": 0.0, "type": "electric_bike"}, {"rental_uris": {"ios": "https://dc.lft.to/lastmile_qr_scan", "android": "https://dc.lft.to/lastmile_qr_scan"}, "lat": 38.91559083333333, "lon": -77.02207233333333, "fusion_lat": 0.0, "name": "a50d95d4df3931d340e31ee2128ce419", "is_disabled": 0, "is_reserved": 0, "bike_id": "a50d95d4df3931d340e31ee2128ce419", "fusion_lon": 0.0, "type": "electric_scooter"}, {"rental_uris": {"ios": "https://dc.lft.to/lastmile_qr_scan", "android": "https://dc.lft.to/lastmile_qr_scan"}, "lat": 38.90047666666667, "lon": -77.03798166666667, "fusion_lat": 0.0, "name": "60b795df0357464eed8247ef17b8b8e1", "is_disabled": 0, "is_reserved": 0, "bike_id": "60b795df0357464eed8247ef17b8b8e1", "fusion_lon": 0.0, "type": "electric_scooter"}, {"rental_uris": {"ios": "https://dc.lft.to/lastmile_qr_scan", "android": "https://dc.lft.to/lastmile_qr_scan"}, "lat": 38.915702833333334, "lon": -77.01249183333333, "fusion_lat": 0.0, "name": "93633ca2c0461530142ae63cd21ed6c3", "is_disabled": 0, "is_reserved": 0, "bike_id": "93633ca2c0461530142ae63cd21ed6c3", "fusion_lon": 0.0, "type": "electric_scooter"}, {"rental_uris": {"ios": "https://dc.lft.to/lastmile_qr_scan", "android": "https://dc.lft.to/lastmile_qr_scan"}, "lat": 38.89959183333333, "lon": -77.045328, "fusion_lat": 0.0, "name": "1968d8d379e5a9f065ab91cfb01459dd", "is_disabled": 0, "is_reserved": 0, "bike_id": "1968d8d379e5a9f065ab91cfb01459dd", "fusion_lon": 0.0, "type": "electric_scooter"}, {"rental_uris": {"ios": "https://dc.lft.to/lastmile_qr_scan", "android": "https://dc.lft.to/lastmile_qr_scan"}, "lat": 38.92283066666667, "lon": -77.0224385, "fusion_lat": 0.0, "name": "679f78de170be2e77d98d164a1905f32", "is_disabled": 0, "is_reserved": 0, "bike_id": "679f78de170be2e77d98d164a1905f32", "fusion_lon": 0.0, "type": "electric_bike"}, {"rental_uris": {"ios": "https://dc.lft.to/lastmile_qr_scan", "android": "https://dc.lft.to/lastmile_qr_scan"}, "lat": 38.89882583333333, "lon": -77.046532, "fusion_lat": 0.0, "name": "c9e9f999a91c5ba4219f5afd98efcc0f", "is_disabled": 0, "is_reserved": 0, "bike_id": "c9e9f999a91c5ba4219f5afd98efcc0f", "fusion_lon": 0.0, "type": "electric_scooter"}, {"rental_uris": {"ios": "https://dc.lft.to/lastmile_qr_scan", "android": "https://dc.lft.to/lastmile_qr_scan"}, "lat": 38.928699, "lon": -77.0304585, "fusion_lat": 0.0, "name": "ced32c7ddee6e2305fd22bb119b3ab3a", "is_disabled": 0, "is_reserved": 0, "bike_id": "ced32c7ddee6e2305fd22bb119b3ab3a", "fusion_lon": 0.0, "type": "electric_scooter"}, {"rental_uris": {"ios": "https://dc.lft.to/lastmile_qr_scan", "android": "https://dc.lft.to/lastmile_qr_scan"}, "lat": 38.92348483333333, "lon": -77.0414625, "fusion_lat": 0.0, "name": "2f56d8b65354b0339c9c627336cfd8ca", "is_disabled": 0, "is_reserved": 0, "bike_id": "2f56d8b65354b0339c9c627336cfd8ca", "fusion_lon": 0.0, "type": "electric_scooter"}, {"rental_uris": {"ios": "https://dc.lft.to/lastmile_qr_scan", "android": "https://dc.lft.to/lastmile_qr_scan"}, "lat": 38.83888233333333, "lon": -77.0006435, "fusion_lat": 0.0, "name": "71e00d6231c8718ce941bbdd115cdec6", "is_disabled": 0, "is_reserved": 0, "bike_id": "71e00d6231c8718ce941bbdd115cdec6", "fusion_lon": 0.0, "type": "electric_scooter"}, {"rental_uris": {"ios": "https://dc.lft.to/lastmile_qr_scan", "android": "https://dc.lft.to/lastmile_qr_scan"}, "lat": 38.93881066666667, "lon": -77.02464566666667, "fusion_lat": 0.0, "name": "9c793b558f8335c23591a7a795c1267a", "is_disabled": 0, "is_reserved": 0, "bike_id": "9c793b558f8335c23591a7a795c1267a", "fusion_lon": 0.0, "type": "electric_scooter"}, {"rental_uris": {"ios": "https://dc.lft.to/lastmile_qr_scan", "android": "https://dc.lft.to/lastmile_qr_scan"}, "lat": 38.866249, "lon": -76.98716166666667, "fusion_lat": 0.0, "name": "68131b4791c87b04a3efef32c0a63339", "is_disabled": 0, "is_reserved": 0, "bike_id": "68131b4791c87b04a3efef32c0a63339", "fusion_lon": 0.0, "type": "electric_scooter"}, {"rental_uris": {"ios": "https://dc.lft.to/lastmile_qr_scan", "android": "https://dc.lft.to/lastmile_qr_scan"}, "lat": 38.908507666666665, "lon": -77.00114533333333, "fusion_lat": 0.0, "name": "5670ee993599853bb5bd3c7f3e441489", "is_disabled": 0, "is_reserved": 0, "bike_id": "5670ee993599853bb5bd3c7f3e441489", "fusion_lon": 0.0, "type": "electric_scooter"}, {"rental_uris": {"ios": "https://dc.lft.to/lastmile_qr_scan", "android": "https://dc.lft.to/lastmile_qr_scan"}, "lat": 38.94840333333333, "lon": -77.02544316666666, "fusion_lat": 0.0, "name": "0e4c7d233f6ef681d032494b458ae9d6", "is_disabled": 0, "is_reserved": 0, "bike_id": "0e4c7d233f6ef681d032494b458ae9d6", "fusion_lon": 0.0, "type": "electric_scooter"}, {"rental_uris": {"ios": "https://dc.lft.to/lastmile_qr_scan", "android": "https://dc.lft.to/lastmile_qr_scan"}, "lat": 38.899647333333334, "lon": -76.98677683333334, "fusion_lat": 0.0, "name": "c17c2082dbc98a006077052fc6192eb2", "is_disabled": 0, "is_reserved": 0, "bike_id": "c17c2082dbc98a006077052fc6192eb2", "fusion_lon": 0.0, "type": "electric_bike"}, {"rental_uris": {"ios": "https://dc.lft.to/lastmile_qr_scan", "android": "https://dc.lft.to/lastmile_qr_scan"}, "lat": 38.85809783333333, "lon": -76.98923066666667, "fusion_lat": 0.0, "name": "e4e6e1053b3ddff1445b60784d45595b", "is_disabled": 0, "is_reserved": 0, "bike_id": "e4e6e1053b3ddff1445b60784d45595b", "fusion_lon": 0.0, "type": "electric_scooter"}, {"rental_uris": {"ios": "https://dc.lft.to/lastmile_qr_scan", "android": "https://dc.lft.to/lastmile_qr_scan"}, "lat": 38.902333666666664, "lon": -77.03462633333334, "fusion_lat": 0.0, "name": "cf3eeceaa50cd784548b88960bc8e5a2", "is_disabled": 0, "is_reserved": 0, "bike_id": "cf3eeceaa50cd784548b88960bc8e5a2", "fusion_lon": 0.0, "type": "electric_scooter"}, {"rental_uris": {"ios": "https://dc.lft.to/lastmile_qr_scan", "android": "https://dc.lft.to/lastmile_qr_scan"}, "lat": 38.88638983333333, "lon": -77.01373016666666, "fusion_lat": 0.0, "name": "c7b3acee7f0569887aaf2ad21a84842c", "is_disabled": 0, "is_reserved": 0, "bike_id": "c7b3acee7f0569887aaf2ad21a84842c", "fusion_lon": 0.0, "type": "electric_scooter"}, {"rental_uris": {"ios": "https://dc.lft.to/lastmile_qr_scan", "android": "https://dc.lft.to/lastmile_qr_scan"}, "lat": 38.89776333333333, "lon": -77.03208616666667, "fusion_lat": 0.0, "name": "77c0743a36f3d7711cadc87c5435c2cb", "is_disabled": 0, "is_reserved": 0, "bike_id": "77c0743a36f3d7711cadc87c5435c2cb", "fusion_lon": 0.0, "type": "electric_scooter"}, {"rental_uris": {"ios": "https://dc.lft.to/lastmile_qr_scan", "android": "https://dc.lft.to/lastmile_qr_scan"}, "lat": 38.907879, "lon": -76.98030733333333, "fusion_lat": 0.0, "name": "fc7eeb4c5914099a7fee5b08ee61f652", "is_disabled": 0, "is_reserved": 0, "bike_id": "fc7eeb4c5914099a7fee5b08ee61f652", "fusion_lon": 0.0, "type": "electric_scooter"}, {"rental_uris": {"ios": "https://dc.lft.to/lastmile_qr_scan", "android": "https://dc.lft.to/lastmile_qr_scan"}, "lat": 38.90150633333333, "lon": -77.02887766666667, "fusion_lat": 0.0, "name": "1ad9760afffb3d6d7892be78ffb7da61", "is_disabled": 0, "is_reserved": 0, "bike_id": "1ad9760afffb3d6d7892be78ffb7da61", "fusion_lon": 0.0, "type": "electric_scooter"}, {"rental_uris": {"ios": "https://dc.lft.to/lastmile_qr_scan", "android": "https://dc.lft.to/lastmile_qr_scan"}, "lat": 38.906265, "lon": -76.98700183333334, "fusion_lat": 0.0, "name": "ea2593dfdefc7fff34476541131e2af0", "is_disabled": 0, "is_reserved": 0, "bike_id": "ea2593dfdefc7fff34476541131e2af0", "fusion_lon": 0.0, "type": "electric_scooter"}, {"rental_uris": {"ios": "https://dc.lft.to/lastmile_qr_scan", "android": "https://dc.lft.to/lastmile_qr_scan"}, "lat": 38.917618166666664, "lon": -77.04765066666667, "fusion_lat": 0.0, "name": "3214dc9632e289d57f9621d8a2d5b438", "is_disabled": 0, "is_reserved": 0, "bike_id": "3214dc9632e289d57f9621d8a2d5b438", "fusion_lon": 0.0, "type": "electric_scooter"}, {"rental_uris": {"ios": "https://dc.lft.to/lastmile_qr_scan", "android": "https://dc.lft.to/lastmile_qr_scan"}, "lat": 38.90150216666667, "lon": -77.05922766666667, "fusion_lat": 0.0, "name": "cd932eb0fc9655db70c8d3b77a7a77c4", "is_disabled": 0, "is_reserved": 0, "bike_id": "cd932eb0fc9655db70c8d3b77a7a77c4", "fusion_lon": 0.0, "type": "electric_scooter"}, {"rental_uris": {"ios": "https://dc.lft.to/lastmile_qr_scan", "android": "https://dc.lft.to/lastmile_qr_scan"}, "lat": 38.86683416666666, "lon": -76.98572, "fusion_lat": 0.0, "name": "2075975498cd2e12c23f79ca4a7da782", "is_disabled": 0, "is_reserved": 0, "bike_id": "2075975498cd2e12c23f79ca4a7da782", "fusion_lon": 0.0, "type": "electric_scooter"}, {"rental_uris": {"ios": "https://dc.lft.to/lastmile_qr_scan", "android": "https://dc.lft.to/lastmile_qr_scan"}, "lat": 38.870692, "lon": -76.981297, "fusion_lat": 0.0, "name": "656cdbe878fdc9ae35ce471568a4358e", "is_disabled": 0, "is_reserved": 0, "bike_id": "656cdbe878fdc9ae35ce471568a4358e", "fusion_lon": 0.0, "type": "electric_scooter"}, {"rental_uris": {"ios": "https://dc.lft.to/lastmile_qr_scan", "android": "https://dc.lft.to/lastmile_qr_scan"}, "lat": 38.9006605, "lon": -77.0090645, "fusion_lat": 0.0, "name": "331d46c00ff81c0e9e501c05d27d01c7", "is_disabled": 0, "is_reserved": 0, "bike_id": "331d46c00ff81c0e9e501c05d27d01c7", "fusion_lon": 0.0, "type": "electric_scooter"}, {"rental_uris": {"ios": "https://dc.lft.to/lastmile_qr_scan", "android": "https://dc.lft.to/lastmile_qr_scan"}, "lat": 38.90585983333333, "lon": -77.04606683333333, "fusion_lat": 0.0, "name": "cabb475c07ad1f460fb664f3d65818b3", "is_disabled": 0, "is_reserved": 0, "bike_id": "cabb475c07ad1f460fb664f3d65818b3", "fusion_lon": 0.0, "type": "electric_scooter"}, {"rental_uris": {"ios": "https://dc.lft.to/lastmile_qr_scan", "android": "https://dc.lft.to/lastmile_qr_scan"}, "lat": 38.90815516666667, "lon": -77.03449166666667, "fusion_lat": 0.0, "name": "2be66414eabcd5f4ebd5712fa925d66f", "is_disabled": 0, "is_reserved": 0, "bike_id": "2be66414eabcd5f4ebd5712fa925d66f", "fusion_lon": 0.0, "type": "electric_scooter"}, {"rental_uris": {"ios": "https://dc.lft.to/lastmile_qr_scan", "android": "https://dc.lft.to/lastmile_qr_scan"}, "lat": 38.894847666666664, "lon": -76.98777233333334, "fusion_lat": 0.0, "name": "43c3d7c3ff4865995c8858425e6314be", "is_disabled": 0, "is_reserved": 0, "bike_id": "43c3d7c3ff4865995c8858425e6314be", "fusion_lon": 0.0, "type": "electric_scooter"}, {"rental_uris": {"ios": "https://dc.lft.to/lastmile_qr_scan", "android": "https://dc.lft.to/lastmile_qr_scan"}, "lat": 38.907369, "lon": -76.99965716666667, "fusion_lat": 0.0, "name": "5951696616db3a2fa5b058474dc5dd6e", "is_disabled": 0, "is_reserved": 0, "bike_id": "5951696616db3a2fa5b058474dc5dd6e", "fusion_lon": 0.0, "type": "electric_scooter"}, {"rental_uris": {"ios": "https://dc.lft.to/lastmile_qr_scan", "android": "https://dc.lft.to/lastmile_qr_scan"}, "lat": 38.896893, "lon": -77.023045, "fusion_lat": 0.0, "name": "373b1d21fd604a9e0cb4bc810f5a7dc9", "is_disabled": 0, "is_reserved": 0, "bike_id": "373b1d21fd604a9e0cb4bc810f5a7dc9", "fusion_lon": 0.0, "type": "electric_scooter"}, {"rental_uris": {"ios": "https://dc.lft.to/lastmile_qr_scan", "android": "https://dc.lft.to/lastmile_qr_scan"}, "lat": 38.871739166666664, "lon": -77.00622866666667, "fusion_lat": 0.0, "name": "c6e6b4aca343cc5a08ca677fd83c1dab", "is_disabled": 0, "is_reserved": 0, "bike_id": "c6e6b4aca343cc5a08ca677fd83c1dab", "fusion_lon": 0.0, "type": "electric_scooter"}, {"rental_uris": {"ios": "https://dc.lft.to/lastmile_qr_scan", "android": "https://dc.lft.to/lastmile_qr_scan"}, "lat": 38.91781316666667, "lon": -77.023158, "fusion_lat": 0.0, "name": "81cc08df280091ed7fcfbfcdc60e0a22", "is_disabled": 0, "is_reserved": 0, "bike_id": "81cc08df280091ed7fcfbfcdc60e0a22", "fusion_lon": 0.0, "type": "electric_scooter"}, {"rental_uris": {"ios": "https://dc.lft.to/lastmile_qr_scan", "android": "https://dc.lft.to/lastmile_qr_scan"}, "lat": 38.90027833333333, "lon": -76.99834883333334, "fusion_lat": 0.0, "name": "85f2c3cee09c852c09d48fd43d4c9890", "is_disabled": 0, "is_reserved": 0, "bike_id": "85f2c3cee09c852c09d48fd43d4c9890", "fusion_lon": 0.0, "type": "electric_scooter"}, {"rental_uris": {"ios": "https://dc.lft.to/lastmile_qr_scan", "android": "https://dc.lft.to/lastmile_qr_scan"}, "lat": 38.89736633333333, "lon": -77.04450483333333, "fusion_lat": 0.0, "name": "1506b1a49fc0aac0a0e4efb28a4e288b", "is_disabled": 0, "is_reserved": 0, "bike_id": "1506b1a49fc0aac0a0e4efb28a4e288b", "fusion_lon": 0.0, "type": "electric_scooter"}, {"rental_uris": {"ios": "https://dc.lft.to/lastmile_qr_scan", "android": "https://dc.lft.to/lastmile_qr_scan"}, "lat": 38.92165766666667, "lon": -77.03385983333334, "fusion_lat": 0.0, "name": "356f81592b285c6a70580959c1585dd7", "is_disabled": 0, "is_reserved": 0, "bike_id": "356f81592b285c6a70580959c1585dd7", "fusion_lon": 0.0, "type": "electric_scooter"}, {"rental_uris": {"ios": "https://dc.lft.to/lastmile_qr_scan", "android": "https://dc.lft.to/lastmile_qr_scan"}, "lat": 38.93621233333333, "lon": -76.97972333333334, "fusion_lat": 0.0, "name": "5d3b42c33fceec7a449bb37f3cff4e19", "is_disabled": 0, "is_reserved": 0, "bike_id": "5d3b42c33fceec7a449bb37f3cff4e19", "fusion_lon": 0.0, "type": "electric_scooter"}, {"rental_uris": {"ios": "https://dc.lft.to/lastmile_qr_scan", "android": "https://dc.lft.to/lastmile_qr_scan"}, "lat": 38.903780166666664, "lon": -77.04584383333334, "fusion_lat": 0.0, "name": "75c7b71f0fc8086b863df47263f08865", "is_disabled": 0, "is_reserved": 0, "bike_id": "75c7b71f0fc8086b863df47263f08865", "fusion_lon": 0.0, "type": "electric_scooter"}, {"rental_uris": {"ios": "https://dc.lft.to/lastmile_qr_scan", "android": "https://dc.lft.to/lastmile_qr_scan"}, "lat": 38.906468, "lon": -77.0428625, "fusion_lat": 0.0, "name": "53131a514360ed608201c7e184e300f9", "is_disabled": 0, "is_reserved": 0, "bike_id": "53131a514360ed608201c7e184e300f9", "fusion_lon": 0.0, "type": "electric_scooter"}, {"rental_uris": {"ios": "https://dc.lft.to/lastmile_qr_scan", "android": "https://dc.lft.to/lastmile_qr_scan"}, "lat": 38.896268666666664, "lon": -77.010423, "fusion_lat": 0.0, "name": "7c2caa97d5940fb3ac0b41890acfe1c4", "is_disabled": 0, "is_reserved": 0, "bike_id": "7c2caa97d5940fb3ac0b41890acfe1c4", "fusion_lon": 0.0, "type": "electric_scooter"}, {"rental_uris": {"ios": "https://dc.lft.to/lastmile_qr_scan", "android": "https://dc.lft.to/lastmile_qr_scan"}, "lat": 38.917264, "lon": -77.02843366666667, "fusion_lat": 0.0, "name": "5f68fbcd49b743621ac5163742c4a9e7", "is_disabled": 0, "is_reserved": 0, "bike_id": "5f68fbcd49b743621ac5163742c4a9e7", "fusion_lon": 0.0, "type": "electric_scooter"}, {"rental_uris": {"ios": "https://dc.lft.to/lastmile_qr_scan", "android": "https://dc.lft.to/lastmile_qr_scan"}, "lat": 38.914279666666665, "lon": -77.0317825, "fusion_lat": 0.0, "name": "6613f0315cf4829a56c16585f1720dec", "is_disabled": 0, "is_reserved": 0, "bike_id": "6613f0315cf4829a56c16585f1720dec", "fusion_lon": 0.0, "type": "electric_scooter"}, {"rental_uris": {"ios": "https://dc.lft.to/lastmile_qr_scan", "android": "https://dc.lft.to/lastmile_qr_scan"}, "lat": 38.91254766666667, "lon": -77.03828316666667, "fusion_lat": 0.0, "name": "a21478f34af4c663aec406777339dd48", "is_disabled": 0, "is_reserved": 0, "bike_id": "a21478f34af4c663aec406777339dd48", "fusion_lon": 0.0, "type": "electric_scooter"}, {"rental_uris": {"ios": "https://dc.lft.to/lastmile_qr_scan", "android": "https://dc.lft.to/lastmile_qr_scan"}, "lat": 38.9232865, "lon": -77.04615916666667, "fusion_lat": 0.0, "name": "02f0383e1d32374a73d8b42be86e4094", "is_disabled": 0, "is_reserved": 0, "bike_id": "02f0383e1d32374a73d8b42be86e4094", "fusion_lon": 0.0, "type": "electric_scooter"}, {"rental_uris": {"ios": "https://dc.lft.to/lastmile_qr_scan", "android": "https://dc.lft.to/lastmile_qr_scan"}, "lat": 38.911453, "lon": -77.02389733333334, "fusion_lat": 0.0, "name": "978ce08d373c075d4d16303d2751fdc2", "is_disabled": 0, "is_reserved": 0, "bike_id": "978ce08d373c075d4d16303d2751fdc2", "fusion_lon": 0.0, "type": "electric_scooter"}, {"rental_uris": {"ios": "https://dc.lft.to/lastmile_qr_scan", "android": "https://dc.lft.to/lastmile_qr_scan"}, "lat": 38.90892933333333, "lon": -76.98240666666666, "fusion_lat": 0.0, "name": "6b3ba1ea393a355b0f35e16101b6ae45", "is_disabled": 0, "is_reserved": 0, "bike_id": "6b3ba1ea393a355b0f35e16101b6ae45", "fusion_lon": 0.0, "type": "electric_scooter"}, {"rental_uris": {"ios": "https://dc.lft.to/lastmile_qr_scan", "android": "https://dc.lft.to/lastmile_qr_scan"}, "lat": 38.918178, "lon": -77.039985, "fusion_lat": 0.0, "name": "65d9ef88ee1605b98ec13dc2df0f9356", "is_disabled": 0, "is_reserved": 0, "bike_id": "65d9ef88ee1605b98ec13dc2df0f9356", "fusion_lon": 0.0, "type": "electric_scooter"}, {"rental_uris": {"ios": "https://dc.lft.to/lastmile_qr_scan", "android": "https://dc.lft.to/lastmile_qr_scan"}, "lat": 38.922409, "lon": -77.0402865, "fusion_lat": 0.0, "name": "494ac8d682de808259e3a03857e6a157", "is_disabled": 0, "is_reserved": 0, "bike_id": "494ac8d682de808259e3a03857e6a157", "fusion_lon": 0.0, "type": "electric_scooter"}, {"rental_uris": {"ios": "https://dc.lft.to/lastmile_qr_scan", "android": "https://dc.lft.to/lastmile_qr_scan"}, "lat": 38.9122875, "lon": -77.01243316666667, "fusion_lat": 0.0, "name": "354aadfb5574340981023c5f0efa4050", "is_disabled": 0, "is_reserved": 0, "bike_id": "354aadfb5574340981023c5f0efa4050", "fusion_lon": 0.0, "type": "electric_scooter"}, {"rental_uris": {"ios": "https://dc.lft.to/lastmile_qr_scan", "android": "https://dc.lft.to/lastmile_qr_scan"}, "lat": 38.905726666666666, "lon": -77.02212383333334, "fusion_lat": 0.0, "name": "fa7ab47238c686cdcff8abbcbc3f4720", "is_disabled": 0, "is_reserved": 0, "bike_id": "fa7ab47238c686cdcff8abbcbc3f4720", "fusion_lon": 0.0, "type": "electric_scooter"}, {"rental_uris": {"ios": "https://dc.lft.to/lastmile_qr_scan", "android": "https://dc.lft.to/lastmile_qr_scan"}, "lat": 38.891318166666665, "lon": -76.9518515, "fusion_lat": 0.0, "name": "09c81348cbb193c184839c752d2e2316", "is_disabled": 0, "is_reserved": 0, "bike_id": "09c81348cbb193c184839c752d2e2316", "fusion_lon": 0.0, "type": "electric_scooter"}, {"rental_uris": {"ios": "https://dc.lft.to/lastmile_qr_scan", "android": "https://dc.lft.to/lastmile_qr_scan"}, "lat": 38.913963333333335, "lon": -77.02407333333333, "fusion_lat": 0.0, "name": "0b7fcb1222d92a05cb91605821456e50", "is_disabled": 0, "is_reserved": 0, "bike_id": "0b7fcb1222d92a05cb91605821456e50", "fusion_lon": 0.0, "type": "electric_scooter"}, {"rental_uris": {"ios": "https://dc.lft.to/lastmile_qr_scan", "android": "https://dc.lft.to/lastmile_qr_scan"}, "lat": 38.927618, "lon": -77.05636833333334, "fusion_lat": 0.0, "name": "2eca868dfeb27b647f7adc4b2828ed5a", "is_disabled": 0, "is_reserved": 0, "bike_id": "2eca868dfeb27b647f7adc4b2828ed5a", "fusion_lon": 0.0, "type": "electric_scooter"}, {"rental_uris": {"ios": "https://dc.lft.to/lastmile_qr_scan", "android": "https://dc.lft.to/lastmile_qr_scan"}, "lat": 38.9015895, "lon": -77.0416775, "fusion_lat": 0.0, "name": "d9dac3bc1a1a293c74f08b61e94d0400", "is_disabled": 0, "is_reserved": 0, "bike_id": "d9dac3bc1a1a293c74f08b61e94d0400", "fusion_lon": 0.0, "type": "electric_scooter"}, {"rental_uris": {"ios": "https://dc.lft.to/lastmile_qr_scan", "android": "https://dc.lft.to/lastmile_qr_scan"}, "lat": 38.91120333333333, "lon": -77.04328833333334, "fusion_lat": 0.0, "name": "64288095cdd984a7510b4e584606d832", "is_disabled": 0, "is_reserved": 0, "bike_id": "64288095cdd984a7510b4e584606d832", "fusion_lon": 0.0, "type": "electric_scooter"}, {"rental_uris": {"ios": "https://dc.lft.to/lastmile_qr_scan", "android": "https://dc.lft.to/lastmile_qr_scan"}, "lat": 38.903933, "lon": -77.0629655, "fusion_lat": 0.0, "name": "e4c1bb6154b238bd9a26ede45c8cb3c0", "is_disabled": 0, "is_reserved": 0, "bike_id": "e4c1bb6154b238bd9a26ede45c8cb3c0", "fusion_lon": 0.0, "type": "electric_scooter"}, {"rental_uris": {"ios": "https://dc.lft.to/lastmile_qr_scan", "android": "https://dc.lft.to/lastmile_qr_scan"}, "lat": 38.8788445, "lon": -77.02338816666666, "fusion_lat": 0.0, "name": "7cce4eaf66f832d6034c19a584b1acd7", "is_disabled": 0, "is_reserved": 0, "bike_id": "7cce4eaf66f832d6034c19a584b1acd7", "fusion_lon": 0.0, "type": "electric_scooter"}, {"rental_uris": {"ios": "https://dc.lft.to/lastmile_qr_scan", "android": "https://dc.lft.to/lastmile_qr_scan"}, "lat": 38.94914816666667, "lon": -77.007964, "fusion_lat": 0.0, "name": "4a25cb75513253c901164d97c27e5c3b", "is_disabled": 0, "is_reserved": 0, "bike_id": "4a25cb75513253c901164d97c27e5c3b", "fusion_lon": 0.0, "type": "electric_bike"}, {"rental_uris": {"ios": "https://dc.lft.to/lastmile_qr_scan", "android": "https://dc.lft.to/lastmile_qr_scan"}, "lat": 38.9167095, "lon": -77.02973166666666, "fusion_lat": 0.0, "name": "ad2523338b0af2534f50b87a31af5b1b", "is_disabled": 0, "is_reserved": 0, "bike_id": "ad2523338b0af2534f50b87a31af5b1b", "fusion_lon": 0.0, "type": "electric_scooter"}, {"rental_uris": {"ios": "https://dc.lft.to/lastmile_qr_scan", "android": "https://dc.lft.to/lastmile_qr_scan"}, "lat": 38.871782, "lon": -77.006828, "fusion_lat": 0.0, "name": "e7f78d75656b8d5e32722c29caebf964", "is_disabled": 0, "is_reserved": 0, "bike_id": "e7f78d75656b8d5e32722c29caebf964", "fusion_lon": 0.0, "type": "electric_scooter"}, {"rental_uris": {"ios": "https://dc.lft.to/lastmile_qr_scan", "android": "https://dc.lft.to/lastmile_qr_scan"}, "lat": 38.93182183333333, "lon": -77.08426733333333, "fusion_lat": 0.0, "name": "cd5a37e704bd06233dc7a0fe024ce9b1", "is_disabled": 0, "is_reserved": 0, "bike_id": "cd5a37e704bd06233dc7a0fe024ce9b1", "fusion_lon": 0.0, "type": "electric_scooter"}, {"rental_uris": {"ios": "https://dc.lft.to/lastmile_qr_scan", "android": "https://dc.lft.to/lastmile_qr_scan"}, "lat": 38.89748383333333, "lon": -77.027657, "fusion_lat": 0.0, "name": "60d625ddece1c89f0cbf669429e503d2", "is_disabled": 0, "is_reserved": 0, "bike_id": "60d625ddece1c89f0cbf669429e503d2", "fusion_lon": 0.0, "type": "electric_scooter"}, {"rental_uris": {"ios": "https://dc.lft.to/lastmile_qr_scan", "android": "https://dc.lft.to/lastmile_qr_scan"}, "lat": 38.874671166666666, "lon": -77.01888116666667, "fusion_lat": 0.0, "name": "96b2e72c5300a72058db3675c14cf823", "is_disabled": 0, "is_reserved": 0, "bike_id": "96b2e72c5300a72058db3675c14cf823", "fusion_lon": 0.0, "type": "electric_scooter"}, {"rental_uris": {"ios": "https://dc.lft.to/lastmile_qr_scan", "android": "https://dc.lft.to/lastmile_qr_scan"}, "lat": 38.89899233333333, "lon": -76.97686016666667, "fusion_lat": 0.0, "name": "f2781db3d83758562df101e1594919ea", "is_disabled": 0, "is_reserved": 0, "bike_id": "f2781db3d83758562df101e1594919ea", "fusion_lon": 0.0, "type": "electric_scooter"}, {"rental_uris": {"ios": "https://dc.lft.to/lastmile_qr_scan", "android": "https://dc.lft.to/lastmile_qr_scan"}, "lat": 38.907347, "lon": -77.04177766666666, "fusion_lat": 0.0, "name": "67c8205f54afc81fc66a17512b0be16c", "is_disabled": 0, "is_reserved": 0, "bike_id": "67c8205f54afc81fc66a17512b0be16c", "fusion_lon": 0.0, "type": "electric_scooter"}, {"rental_uris": {"ios": "https://dc.lft.to/lastmile_qr_scan", "android": "https://dc.lft.to/lastmile_qr_scan"}, "lat": 38.9306765, "lon": -77.038765, "fusion_lat": 0.0, "name": "5bdc445321b8a643da27a1ce19d2042c", "is_disabled": 0, "is_reserved": 0, "bike_id": "5bdc445321b8a643da27a1ce19d2042c", "fusion_lon": 0.0, "type": "electric_scooter"}, {"rental_uris": {"ios": "https://dc.lft.to/lastmile_qr_scan", "android": "https://dc.lft.to/lastmile_qr_scan"}, "lat": 38.89225416666667, "lon": -77.0317155, "fusion_lat": 0.0, "name": "8ebe83889670295bea4b1034c0b511ff", "is_disabled": 0, "is_reserved": 0, "bike_id": "8ebe83889670295bea4b1034c0b511ff", "fusion_lon": 0.0, "type": "electric_scooter"}, {"rental_uris": {"ios": "https://dc.lft.to/lastmile_qr_scan", "android": "https://dc.lft.to/lastmile_qr_scan"}, "lat": 38.91544366666667, "lon": -77.0240295, "fusion_lat": 0.0, "name": "051b7478771583b7ce2e7182c944a081", "is_disabled": 0, "is_reserved": 0, "bike_id": "051b7478771583b7ce2e7182c944a081", "fusion_lon": 0.0, "type": "electric_scooter"}, {"rental_uris": {"ios": "https://dc.lft.to/lastmile_qr_scan", "android": "https://dc.lft.to/lastmile_qr_scan"}, "lat": 38.90129183333333, "lon": -77.0299995, "fusion_lat": 0.0, "name": "131be0a973e99e1fb1caccd1256f9e06", "is_disabled": 0, "is_reserved": 0, "bike_id": "131be0a973e99e1fb1caccd1256f9e06", "fusion_lon": 0.0, "type": "electric_scooter"}, {"rental_uris": {"ios": "https://dc.lft.to/lastmile_qr_scan", "android": "https://dc.lft.to/lastmile_qr_scan"}, "lat": 38.892426, "lon": -77.0335485, "fusion_lat": 0.0, "name": "94a9c4946f88ad0108db6953f89fb732", "is_disabled": 0, "is_reserved": 0, "bike_id": "94a9c4946f88ad0108db6953f89fb732", "fusion_lon": 0.0, "type": "electric_scooter"}, {"rental_uris": {"ios": "https://dc.lft.to/lastmile_qr_scan", "android": "https://dc.lft.to/lastmile_qr_scan"}, "lat": 38.90967916666666, "lon": -77.0218635, "fusion_lat": 0.0, "name": "a45f59d19de1ddcd3f65ba08ded3c75c", "is_disabled": 0, "is_reserved": 0, "bike_id": "a45f59d19de1ddcd3f65ba08ded3c75c", "fusion_lon": 0.0, "type": "electric_scooter"}, {"rental_uris": {"ios": "https://dc.lft.to/lastmile_qr_scan", "android": "https://dc.lft.to/lastmile_qr_scan"}, "lat": 38.902674, "lon": -77.03833866666666, "fusion_lat": 0.0, "name": "2506df379296b84db6575a6af2ab22ee", "is_disabled": 0, "is_reserved": 0, "bike_id": "2506df379296b84db6575a6af2ab22ee", "fusion_lon": 0.0, "type": "electric_scooter"}, {"rental_uris": {"ios": "https://dc.lft.to/lastmile_qr_scan", "android": "https://dc.lft.to/lastmile_qr_scan"}, "lat": 38.928849, "lon": -77.03302416666666, "fusion_lat": 0.0, "name": "fbf71d048dae584c3678b0683442cef3", "is_disabled": 0, "is_reserved": 0, "bike_id": "fbf71d048dae584c3678b0683442cef3", "fusion_lon": 0.0, "type": "electric_scooter"}, {"rental_uris": {"ios": "https://dc.lft.to/lastmile_qr_scan", "android": "https://dc.lft.to/lastmile_qr_scan"}, "lat": 38.9176245, "lon": -77.01495683333333, "fusion_lat": 0.0, "name": "2aa72c0e81308c43cd2f0c8bb0b598d6", "is_disabled": 0, "is_reserved": 0, "bike_id": "2aa72c0e81308c43cd2f0c8bb0b598d6", "fusion_lon": 0.0, "type": "electric_scooter"}, {"rental_uris": {"ios": "https://dc.lft.to/lastmile_qr_scan", "android": "https://dc.lft.to/lastmile_qr_scan"}, "lat": 38.89899616666667, "lon": -77.04472783333334, "fusion_lat": 0.0, "name": "aa84fe7a8ffd58b130cfbaf67bb7eea3", "is_disabled": 0, "is_reserved": 0, "bike_id": "aa84fe7a8ffd58b130cfbaf67bb7eea3", "fusion_lon": 0.0, "type": "electric_scooter"}, {"rental_uris": {"ios": "https://dc.lft.to/lastmile_qr_scan", "android": "https://dc.lft.to/lastmile_qr_scan"}, "lat": 38.88030766666667, "lon": -77.00546316666667, "fusion_lat": 0.0, "name": "8c14ea7c24e3de9abf1b2c73c0f3f3f5", "is_disabled": 0, "is_reserved": 0, "bike_id": "8c14ea7c24e3de9abf1b2c73c0f3f3f5", "fusion_lon": 0.0, "type": "electric_scooter"}, {"rental_uris": {"ios": "https://dc.lft.to/lastmile_qr_scan", "android": "https://dc.lft.to/lastmile_qr_scan"}, "lat": 38.917194, "lon": -77.0319745, "fusion_lat": 0.0, "name": "af8d8785870ed84732c40c8688a61c1e", "is_disabled": 0, "is_reserved": 0, "bike_id": "af8d8785870ed84732c40c8688a61c1e", "fusion_lon": 0.0, "type": "electric_scooter"}, {"rental_uris": {"ios": "https://dc.lft.to/lastmile_qr_scan", "android": "https://dc.lft.to/lastmile_qr_scan"}, "lat": 38.907569, "lon": -77.03174866666667, "fusion_lat": 0.0, "name": "0d192fed0e8b86475424afe9839b2ef3", "is_disabled": 0, "is_reserved": 0, "bike_id": "0d192fed0e8b86475424afe9839b2ef3", "fusion_lon": 0.0, "type": "electric_scooter"}, {"rental_uris": {"ios": "https://dc.lft.to/lastmile_qr_scan", "android": "https://dc.lft.to/lastmile_qr_scan"}, "lat": 38.87885166666667, "lon": -77.096148, "fusion_lat": 0.0, "name": "60e6ff3d840c4e88f53673f8879772c4", "is_disabled": 0, "is_reserved": 0, "bike_id": "60e6ff3d840c4e88f53673f8879772c4", "fusion_lon": 0.0, "type": "electric_bike"}, {"rental_uris": {"ios": "https://dc.lft.to/lastmile_qr_scan", "android": "https://dc.lft.to/lastmile_qr_scan"}, "lat": 38.8747545, "lon": -77.01071583333334, "fusion_lat": 0.0, "name": "e432906c1aaeb8a67611a179e30aafac", "is_disabled": 0, "is_reserved": 0, "bike_id": "e432906c1aaeb8a67611a179e30aafac", "fusion_lon": 0.0, "type": "electric_scooter"}, {"rental_uris": {"ios": "https://dc.lft.to/lastmile_qr_scan", "android": "https://dc.lft.to/lastmile_qr_scan"}, "lat": 38.901895, "lon": -76.928914, "fusion_lat": 0.0, "name": "7efecd93fbaae6e0c32e01920851fe0a", "is_disabled": 0, "is_reserved": 0, "bike_id": "7efecd93fbaae6e0c32e01920851fe0a", "fusion_lon": 0.0, "type": "electric_scooter"}, {"rental_uris": {"ios": "https://dc.lft.to/lastmile_qr_scan", "android": "https://dc.lft.to/lastmile_qr_scan"}, "lat": 38.92047633333333, "lon": -77.01668833333333, "fusion_lat": 0.0, "name": "e29d28a198f74b0252737acff70375e4", "is_disabled": 0, "is_reserved": 0, "bike_id": "e29d28a198f74b0252737acff70375e4", "fusion_lon": 0.0, "type": "electric_scooter"}, {"rental_uris": {"ios": "https://dc.lft.to/lastmile_qr_scan", "android": "https://dc.lft.to/lastmile_qr_scan"}, "lat": 38.93321666666667, "lon": -77.02929133333333, "fusion_lat": 0.0, "name": "cab5df189ef5a4d8b128c8104ca18020", "is_disabled": 0, "is_reserved": 0, "bike_id": "cab5df189ef5a4d8b128c8104ca18020", "fusion_lon": 0.0, "type": "electric_scooter"}, {"rental_uris": {"ios": "https://dc.lft.to/lastmile_qr_scan", "android": "https://dc.lft.to/lastmile_qr_scan"}, "lat": 38.903313, "lon": -77.02891916666667, "fusion_lat": 0.0, "name": "5f680818d0154a351c5573eae97d95ea", "is_disabled": 0, "is_reserved": 0, "bike_id": "5f680818d0154a351c5573eae97d95ea", "fusion_lon": 0.0, "type": "electric_scooter"}, {"rental_uris": {"ios": "https://dc.lft.to/lastmile_qr_scan", "android": "https://dc.lft.to/lastmile_qr_scan"}, "lat": 38.922873, "lon": -77.02244416666667, "fusion_lat": 0.0, "name": "3193fc3f8444f37dc8b698dee91c2b8c", "is_disabled": 0, "is_reserved": 0, "bike_id": "3193fc3f8444f37dc8b698dee91c2b8c", "fusion_lon": 0.0, "type": "electric_bike"}, {"rental_uris": {"ios": "https://dc.lft.to/lastmile_qr_scan", "android": "https://dc.lft.to/lastmile_qr_scan"}, "lat": 38.90266833333333, "lon": -77.01766016666667, "fusion_lat": 0.0, "name": "2430204becaefd9653448c1fd2604e49", "is_disabled": 0, "is_reserved": 0, "bike_id": "2430204becaefd9653448c1fd2604e49", "fusion_lon": 0.0, "type": "electric_scooter"}, {"rental_uris": {"ios": "https://dc.lft.to/lastmile_qr_scan", "android": "https://dc.lft.to/lastmile_qr_scan"}, "lat": 38.936354666666666, "lon": -77.0686985, "fusion_lat": 0.0, "name": "b40930a8be42a1ebc9df7a08009e0457", "is_disabled": 0, "is_reserved": 0, "bike_id": "b40930a8be42a1ebc9df7a08009e0457", "fusion_lon": 0.0, "type": "electric_scooter"}, {"rental_uris": {"ios": "https://dc.lft.to/lastmile_qr_scan", "android": "https://dc.lft.to/lastmile_qr_scan"}, "lat": 38.93865566666667, "lon": -77.02591816666667, "fusion_lat": 0.0, "name": "14b75a9b80bafc8829db25b7e3b55740", "is_disabled": 0, "is_reserved": 0, "bike_id": "14b75a9b80bafc8829db25b7e3b55740", "fusion_lon": 0.0, "type": "electric_scooter"}, {"rental_uris": {"ios": "https://dc.lft.to/lastmile_qr_scan", "android": "https://dc.lft.to/lastmile_qr_scan"}, "lat": 38.9169055, "lon": -77.03214416666667, "fusion_lat": 0.0, "name": "c1bebb150b8706a09ebcda810c0cb7c8", "is_disabled": 0, "is_reserved": 0, "bike_id": "c1bebb150b8706a09ebcda810c0cb7c8", "fusion_lon": 0.0, "type": "electric_scooter"}, {"rental_uris": {"ios": "https://dc.lft.to/lastmile_qr_scan", "android": "https://dc.lft.to/lastmile_qr_scan"}, "lat": 38.915684, "lon": -77.03393816666667, "fusion_lat": 0.0, "name": "17c4d6586d63e34e1713fbf5dc963546", "is_disabled": 0, "is_reserved": 0, "bike_id": "17c4d6586d63e34e1713fbf5dc963546", "fusion_lon": 0.0, "type": "electric_scooter"}, {"rental_uris": {"ios": "https://dc.lft.to/lastmile_qr_scan", "android": "https://dc.lft.to/lastmile_qr_scan"}, "lat": 38.916732, "lon": -77.022853, "fusion_lat": 0.0, "name": "699ff65a68159ebf6248f6b47ecc4968", "is_disabled": 0, "is_reserved": 0, "bike_id": "699ff65a68159ebf6248f6b47ecc4968", "fusion_lon": 0.0, "type": "electric_scooter"}, {"rental_uris": {"ios": "https://dc.lft.to/lastmile_qr_scan", "android": "https://dc.lft.to/lastmile_qr_scan"}, "lat": 38.90143283333333, "lon": -77.00092566666666, "fusion_lat": 0.0, "name": "d2bf3df7e275c24c83188f0c3263bba4", "is_disabled": 0, "is_reserved": 0, "bike_id": "d2bf3df7e275c24c83188f0c3263bba4", "fusion_lon": 0.0, "type": "electric_scooter"}, {"rental_uris": {"ios": "https://dc.lft.to/lastmile_qr_scan", "android": "https://dc.lft.to/lastmile_qr_scan"}, "lat": 38.902401166666664, "lon": -77.06106516666667, "fusion_lat": 0.0, "name": "0726a1bdac8eea5e0013e9c9601413de", "is_disabled": 0, "is_reserved": 0, "bike_id": "0726a1bdac8eea5e0013e9c9601413de", "fusion_lon": 0.0, "type": "electric_scooter"}, {"rental_uris": {"ios": "https://dc.lft.to/lastmile_qr_scan", "android": "https://dc.lft.to/lastmile_qr_scan"}, "lat": 38.899473666666665, "lon": -77.03211133333333, "fusion_lat": 0.0, "name": "de058ffd012f17a9d6759bceee14ca44", "is_disabled": 0, "is_reserved": 0, "bike_id": "de058ffd012f17a9d6759bceee14ca44", "fusion_lon": 0.0, "type": "electric_scooter"}, {"rental_uris": {"ios": "https://dc.lft.to/lastmile_qr_scan", "android": "https://dc.lft.to/lastmile_qr_scan"}, "lat": 38.90614, "lon": -77.01281066666667, "fusion_lat": 0.0, "name": "eb00ce637bcf1c0655a17e1642d130c0", "is_disabled": 0, "is_reserved": 0, "bike_id": "eb00ce637bcf1c0655a17e1642d130c0", "fusion_lon": 0.0, "type": "electric_scooter"}, {"rental_uris": {"ios": "https://dc.lft.to/lastmile_qr_scan", "android": "https://dc.lft.to/lastmile_qr_scan"}, "lat": 38.89740533333333, "lon": -76.92047483333333, "fusion_lat": 0.0, "name": "2d5341f2de52dfd3ec6bfecc3bcd506a", "is_disabled": 0, "is_reserved": 0, "bike_id": "2d5341f2de52dfd3ec6bfecc3bcd506a", "fusion_lon": 0.0, "type": "electric_bike"}, {"rental_uris": {"ios": "https://dc.lft.to/lastmile_qr_scan", "android": "https://dc.lft.to/lastmile_qr_scan"}, "lat": 38.88710316666667, "lon": -77.01777883333334, "fusion_lat": 0.0, "name": "201608734e5ba74a79277ac04b5b0657", "is_disabled": 0, "is_reserved": 0, "bike_id": "201608734e5ba74a79277ac04b5b0657", "fusion_lon": 0.0, "type": "electric_scooter"}, {"rental_uris": {"ios": "https://dc.lft.to/lastmile_qr_scan", "android": "https://dc.lft.to/lastmile_qr_scan"}, "lat": 38.91704516666667, "lon": -77.02899966666666, "fusion_lat": 0.0, "name": "398b3ddf3208ee51e248ecd08eda3e1a", "is_disabled": 0, "is_reserved": 0, "bike_id": "398b3ddf3208ee51e248ecd08eda3e1a", "fusion_lon": 0.0, "type": "electric_scooter"}, {"rental_uris": {"ios": "https://dc.lft.to/lastmile_qr_scan", "android": "https://dc.lft.to/lastmile_qr_scan"}, "lat": 38.87466833333333, "lon": -77.00559916666667, "fusion_lat": 0.0, "name": "bda635425ae1f3b606c02265c0ab1771", "is_disabled": 0, "is_reserved": 0, "bike_id": "bda635425ae1f3b606c02265c0ab1771", "fusion_lon": 0.0, "type": "electric_scooter"}, {"rental_uris": {"ios": "https://dc.lft.to/lastmile_qr_scan", "android": "https://dc.lft.to/lastmile_qr_scan"}, "lat": 38.90273966666667, "lon": -77.03336833333333, "fusion_lat": 0.0, "name": "0ebda2853248a0e38e48f7db3c75caf7", "is_disabled": 0, "is_reserved": 0, "bike_id": "0ebda2853248a0e38e48f7db3c75caf7", "fusion_lon": 0.0, "type": "electric_scooter"}, {"rental_uris": {"ios": "https://dc.lft.to/lastmile_qr_scan", "android": "https://dc.lft.to/lastmile_qr_scan"}, "lat": 38.8996075, "lon": -77.00347483333333, "fusion_lat": 0.0, "name": "9fdfbd0f184ae719c75e02ad210fbe76", "is_disabled": 0, "is_reserved": 0, "bike_id": "9fdfbd0f184ae719c75e02ad210fbe76", "fusion_lon": 0.0, "type": "electric_scooter"}, {"rental_uris": {"ios": "https://dc.lft.to/lastmile_qr_scan", "android": "https://dc.lft.to/lastmile_qr_scan"}, "lat": 38.91824316666667, "lon": -77.0494395, "fusion_lat": 0.0, "name": "e3eb22f2fee3b7c7496b36132934bc10", "is_disabled": 0, "is_reserved": 0, "bike_id": "e3eb22f2fee3b7c7496b36132934bc10", "fusion_lon": 0.0, "type": "electric_scooter"}, {"rental_uris": {"ios": "https://dc.lft.to/lastmile_qr_scan", "android": "https://dc.lft.to/lastmile_qr_scan"}, "lat": 38.91706583333333, "lon": -77.040199, "fusion_lat": 0.0, "name": "5edaa37af1e911b84d2ad3322ffbbcb1", "is_disabled": 0, "is_reserved": 0, "bike_id": "5edaa37af1e911b84d2ad3322ffbbcb1", "fusion_lon": 0.0, "type": "electric_scooter"}, {"rental_uris": {"ios": "https://dc.lft.to/lastmile_qr_scan", "android": "https://dc.lft.to/lastmile_qr_scan"}, "lat": 38.89249433333333, "lon": -77.03344083333333, "fusion_lat": 0.0, "name": "308fcf2a406a060ca6c2147062b4f6ac", "is_disabled": 0, "is_reserved": 0, "bike_id": "308fcf2a406a060ca6c2147062b4f6ac", "fusion_lon": 0.0, "type": "electric_scooter"}, {"rental_uris": {"ios": "https://dc.lft.to/lastmile_qr_scan", "android": "https://dc.lft.to/lastmile_qr_scan"}, "lat": 38.89227233333333, "lon": -77.03164983333333, "fusion_lat": 0.0, "name": "70df42177a5a6cd8f5aa3cd0cfede450", "is_disabled": 0, "is_reserved": 0, "bike_id": "70df42177a5a6cd8f5aa3cd0cfede450", "fusion_lon": 0.0, "type": "electric_scooter"}, {"rental_uris": {"ios": "https://dc.lft.to/lastmile_qr_scan", "android": "https://dc.lft.to/lastmile_qr_scan"}, "lat": 38.91672466666667, "lon": -77.02385116666666, "fusion_lat": 0.0, "name": "992bb4e842003b79b33a3fb96bac1709", "is_disabled": 0, "is_reserved": 0, "bike_id": "992bb4e842003b79b33a3fb96bac1709", "fusion_lon": 0.0, "type": "electric_scooter"}, {"rental_uris": {"ios": "https://dc.lft.to/lastmile_qr_scan", "android": "https://dc.lft.to/lastmile_qr_scan"}, "lat": 38.93946433333333, "lon": -77.07239333333334, "fusion_lat": 0.0, "name": "d10cfba5a7c457f3f4af57dff67c6c95", "is_disabled": 0, "is_reserved": 0, "bike_id": "d10cfba5a7c457f3f4af57dff67c6c95", "fusion_lon": 0.0, "type": "electric_scooter"}, {"rental_uris": {"ios": "https://dc.lft.to/lastmile_qr_scan", "android": "https://dc.lft.to/lastmile_qr_scan"}, "lat": 38.887468, "lon": -77.01730433333333, "fusion_lat": 0.0, "name": "334cce44fae4f936ff8e4608b4ecb049", "is_disabled": 0, "is_reserved": 0, "bike_id": "334cce44fae4f936ff8e4608b4ecb049", "fusion_lon": 0.0, "type": "electric_scooter"}, {"rental_uris": {"ios": "https://dc.lft.to/lastmile_qr_scan", "android": "https://dc.lft.to/lastmile_qr_scan"}, "lat": 38.92487033333333, "lon": -77.03737, "fusion_lat": 0.0, "name": "a1361a0d01427386a88bf527a960af42", "is_disabled": 0, "is_reserved": 0, "bike_id": "a1361a0d01427386a88bf527a960af42", "fusion_lon": 0.0, "type": "electric_scooter"}, {"rental_uris": {"ios": "https://dc.lft.to/lastmile_qr_scan", "android": "https://dc.lft.to/lastmile_qr_scan"}, "lat": 38.9042295, "lon": -77.02809633333334, "fusion_lat": 0.0, "name": "83c6b48f60c231ec72d79bef196fc5bc", "is_disabled": 0, "is_reserved": 0, "bike_id": "83c6b48f60c231ec72d79bef196fc5bc", "fusion_lon": 0.0, "type": "electric_scooter"}, {"rental_uris": {"ios": "https://dc.lft.to/lastmile_qr_scan", "android": "https://dc.lft.to/lastmile_qr_scan"}, "lat": 39.03745816666667, "lon": -77.05481333333333, "fusion_lat": 0.0, "name": "39a06e0c8f7bd9110ac98e34e5b451d7", "is_disabled": 0, "is_reserved": 0, "bike_id": "39a06e0c8f7bd9110ac98e34e5b451d7", "fusion_lon": 0.0, "type": "electric_bike"}, {"rental_uris": {"ios": "https://dc.lft.to/lastmile_qr_scan", "android": "https://dc.lft.to/lastmile_qr_scan"}, "lat": 38.89802133333333, "lon": -77.00333766666667, "fusion_lat": 0.0, "name": "4ae5a65c2f12234bd713787a2f189dd6", "is_disabled": 0, "is_reserved": 0, "bike_id": "4ae5a65c2f12234bd713787a2f189dd6", "fusion_lon": 0.0, "type": "electric_scooter"}, {"rental_uris": {"ios": "https://dc.lft.to/lastmile_qr_scan", "android": "https://dc.lft.to/lastmile_qr_scan"}, "lat": 38.8768785, "lon": -77.00821733333333, "fusion_lat": 0.0, "name": "8524f5023e97da9f4bf2360faa18f480", "is_disabled": 0, "is_reserved": 0, "bike_id": "8524f5023e97da9f4bf2360faa18f480", "fusion_lon": 0.0, "type": "electric_scooter"}, {"rental_uris": {"ios": "https://dc.lft.to/lastmile_qr_scan", "android": "https://dc.lft.to/lastmile_qr_scan"}, "lat": 38.86825366666667, "lon": -77.01147083333333, "fusion_lat": 0.0, "name": "641aa65f2b69c338d87180570c0989f7", "is_disabled": 0, "is_reserved": 0, "bike_id": "641aa65f2b69c338d87180570c0989f7", "fusion_lon": 0.0, "type": "electric_scooter"}, {"rental_uris": {"ios": "https://dc.lft.to/lastmile_qr_scan", "android": "https://dc.lft.to/lastmile_qr_scan"}, "lat": 38.87677633333333, "lon": -77.00398033333333, "fusion_lat": 0.0, "name": "934ced5af96962840f4e5cec1ec2a507", "is_disabled": 0, "is_reserved": 0, "bike_id": "934ced5af96962840f4e5cec1ec2a507", "fusion_lon": 0.0, "type": "electric_bike"}, {"rental_uris": {"ios": "https://dc.lft.to/lastmile_qr_scan", "android": "https://dc.lft.to/lastmile_qr_scan"}, "lat": 38.8936245, "lon": -77.02844116666667, "fusion_lat": 0.0, "name": "ab55cde770b94baf6df85dc4474e05f4", "is_disabled": 0, "is_reserved": 0, "bike_id": "ab55cde770b94baf6df85dc4474e05f4", "fusion_lon": 0.0, "type": "electric_scooter"}, {"rental_uris": {"ios": "https://dc.lft.to/lastmile_qr_scan", "android": "https://dc.lft.to/lastmile_qr_scan"}, "lat": 38.909323666666666, "lon": -77.04408633333334, "fusion_lat": 0.0, "name": "1af3dded030916873811ccf447653c30", "is_disabled": 0, "is_reserved": 0, "bike_id": "1af3dded030916873811ccf447653c30", "fusion_lon": 0.0, "type": "electric_scooter"}, {"rental_uris": {"ios": "https://dc.lft.to/lastmile_qr_scan", "android": "https://dc.lft.to/lastmile_qr_scan"}, "lat": 39.05497016666666, "lon": -77.1178875, "fusion_lat": 0.0, "name": "e7dc2c5fdc2ea36f480e944aad279910", "is_disabled": 0, "is_reserved": 0, "bike_id": "e7dc2c5fdc2ea36f480e944aad279910", "fusion_lon": 0.0, "type": "electric_bike"}, {"rental_uris": {"ios": "https://dc.lft.to/lastmile_qr_scan", "android": "https://dc.lft.to/lastmile_qr_scan"}, "lat": 38.911263166666664, "lon": -77.02175016666666, "fusion_lat": 0.0, "name": "72671938693f4eb65fb3848391954cc2", "is_disabled": 0, "is_reserved": 0, "bike_id": "72671938693f4eb65fb3848391954cc2", "fusion_lon": 0.0, "type": "electric_scooter"}, {"rental_uris": {"ios": "https://dc.lft.to/lastmile_qr_scan", "android": "https://dc.lft.to/lastmile_qr_scan"}, "lat": 38.895109833333336, "lon": -77.02273283333334, "fusion_lat": 0.0, "name": "762a620738df5f76a2bf07efa846b156", "is_disabled": 0, "is_reserved": 0, "bike_id": "762a620738df5f76a2bf07efa846b156", "fusion_lon": 0.0, "type": "electric_scooter"}, {"rental_uris": {"ios": "https://dc.lft.to/lastmile_qr_scan", "android": "https://dc.lft.to/lastmile_qr_scan"}, "lat": 38.915023166666664, "lon": -77.01774283333333, "fusion_lat": 0.0, "name": "5fe552925bfc6139a341c2979ca0b998", "is_disabled": 0, "is_reserved": 0, "bike_id": "5fe552925bfc6139a341c2979ca0b998", "fusion_lon": 0.0, "type": "electric_scooter"}, {"rental_uris": {"ios": "https://dc.lft.to/lastmile_qr_scan", "android": "https://dc.lft.to/lastmile_qr_scan"}, "lat": 38.956357, "lon": -77.01152883333333, "fusion_lat": 0.0, "name": "1acf01c7c00eed25982ff0cc413e93b1", "is_disabled": 0, "is_reserved": 0, "bike_id": "1acf01c7c00eed25982ff0cc413e93b1", "fusion_lon": 0.0, "type": "electric_scooter"}, {"rental_uris": {"ios": "https://dc.lft.to/lastmile_qr_scan", "android": "https://dc.lft.to/lastmile_qr_scan"}, "lat": 38.876544833333334, "lon": -77.00407833333334, "fusion_lat": 0.0, "name": "781cd1b2f95d5f972861fb8d20f3a86b", "is_disabled": 0, "is_reserved": 0, "bike_id": "781cd1b2f95d5f972861fb8d20f3a86b", "fusion_lon": 0.0, "type": "electric_scooter"}, {"rental_uris": {"ios": "https://dc.lft.to/lastmile_qr_scan", "android": "https://dc.lft.to/lastmile_qr_scan"}, "lat": 38.88649433333333, "lon": -77.0011585, "fusion_lat": 0.0, "name": "906f4bcabc353a5362c31ee31d644efd", "is_disabled": 0, "is_reserved": 0, "bike_id": "906f4bcabc353a5362c31ee31d644efd", "fusion_lon": 0.0, "type": "electric_scooter"}, {"rental_uris": {"ios": "https://dc.lft.to/lastmile_qr_scan", "android": "https://dc.lft.to/lastmile_qr_scan"}, "lat": 38.89911883333333, "lon": -77.013817, "fusion_lat": 0.0, "name": "59e370b598ff73df26c8cbc4811a5aba", "is_disabled": 0, "is_reserved": 0, "bike_id": "59e370b598ff73df26c8cbc4811a5aba", "fusion_lon": 0.0, "type": "electric_scooter"}, {"rental_uris": {"ios": "https://dc.lft.to/lastmile_qr_scan", "android": "https://dc.lft.to/lastmile_qr_scan"}, "lat": 38.92699833333333, "lon": -77.02096216666666, "fusion_lat": 0.0, "name": "e915afc40df247b3d1cb38370095da9d", "is_disabled": 0, "is_reserved": 0, "bike_id": "e915afc40df247b3d1cb38370095da9d", "fusion_lon": 0.0, "type": "electric_scooter"}, {"rental_uris": {"ios": "https://dc.lft.to/lastmile_qr_scan", "android": "https://dc.lft.to/lastmile_qr_scan"}, "lat": 38.798554, "lon": -77.06303483333333, "fusion_lat": 0.0, "name": "f2fa05967c2e7922f24f61275dbdf465", "is_disabled": 0, "is_reserved": 0, "bike_id": "f2fa05967c2e7922f24f61275dbdf465", "fusion_lon": 0.0, "type": "electric_bike"}, {"rental_uris": {"ios": "https://dc.lft.to/lastmile_qr_scan", "android": "https://dc.lft.to/lastmile_qr_scan"}, "lat": 38.87476766666666, "lon": -76.96527966666666, "fusion_lat": 0.0, "name": "0bba03a42bad9bbf2e08f9c938593689", "is_disabled": 0, "is_reserved": 0, "bike_id": "0bba03a42bad9bbf2e08f9c938593689", "fusion_lon": 0.0, "type": "electric_bike"}, {"rental_uris": {"ios": "https://dc.lft.to/lastmile_qr_scan", "android": "https://dc.lft.to/lastmile_qr_scan"}, "lat": 38.917721666666665, "lon": -77.01127866666667, "fusion_lat": 0.0, "name": "3f6c02adb4efa89154ffdb38eebd8ffe", "is_disabled": 0, "is_reserved": 0, "bike_id": "3f6c02adb4efa89154ffdb38eebd8ffe", "fusion_lon": 0.0, "type": "electric_scooter"}, {"rental_uris": {"ios": "https://dc.lft.to/lastmile_qr_scan", "android": "https://dc.lft.to/lastmile_qr_scan"}, "lat": 38.95650233333333, "lon": -77.01001866666667, "fusion_lat": 0.0, "name": "c2513555ea0e725a56b80eb4292714d7", "is_disabled": 0, "is_reserved": 0, "bike_id": "c2513555ea0e725a56b80eb4292714d7", "fusion_lon": 0.0, "type": "electric_scooter"}, {"rental_uris": {"ios": "https://dc.lft.to/lastmile_qr_scan", "android": "https://dc.lft.to/lastmile_qr_scan"}, "lat": 38.901704333333335, "lon": -76.93018883333333, "fusion_lat": 0.0, "name": "77922eb6a60da2734d3fe2898d676e4e", "is_disabled": 0, "is_reserved": 0, "bike_id": "77922eb6a60da2734d3fe2898d676e4e", "fusion_lon": 0.0, "type": "electric_scooter"}, {"rental_uris": {"ios": "https://dc.lft.to/lastmile_qr_scan", "android": "https://dc.lft.to/lastmile_qr_scan"}, "lat": 38.920469833333335, "lon": -77.01764566666667, "fusion_lat": 0.0, "name": "b20167a7b6d1a7b7a96c3bd723fd88df", "is_disabled": 0, "is_reserved": 0, "bike_id": "b20167a7b6d1a7b7a96c3bd723fd88df", "fusion_lon": 0.0, "type": "electric_scooter"}, {"rental_uris": {"ios": "https://dc.lft.to/lastmile_qr_scan", "android": "https://dc.lft.to/lastmile_qr_scan"}, "lat": 38.9156605, "lon": -77.02003583333334, "fusion_lat": 0.0, "name": "dc2936915bb8ae8276c7823328a78161", "is_disabled": 0, "is_reserved": 0, "bike_id": "dc2936915bb8ae8276c7823328a78161", "fusion_lon": 0.0, "type": "electric_scooter"}, {"rental_uris": {"ios": "https://dc.lft.to/lastmile_qr_scan", "android": "https://dc.lft.to/lastmile_qr_scan"}, "lat": 38.906312, "lon": -77.02598, "fusion_lat": 0.0, "name": "454763e722529fe63ad8a557cb37ffa5", "is_disabled": 0, "is_reserved": 0, "bike_id": "454763e722529fe63ad8a557cb37ffa5", "fusion_lon": 0.0, "type": "electric_scooter"}, {"rental_uris": {"ios": "https://dc.lft.to/lastmile_qr_scan", "android": "https://dc.lft.to/lastmile_qr_scan"}, "lat": 38.92871916666667, "lon": -77.03221533333334, "fusion_lat": 0.0, "name": "c3c011c3f2df1afdb02c016fb4364090", "is_disabled": 0, "is_reserved": 0, "bike_id": "c3c011c3f2df1afdb02c016fb4364090", "fusion_lon": 0.0, "type": "electric_scooter"}, {"rental_uris": {"ios": "https://dc.lft.to/lastmile_qr_scan", "android": "https://dc.lft.to/lastmile_qr_scan"}, "lat": 38.899789, "lon": -76.996111, "fusion_lat": 0.0, "name": "8a5f82923a8b700c679e0bb8ca06a59f", "is_disabled": 0, "is_reserved": 0, "bike_id": "8a5f82923a8b700c679e0bb8ca06a59f", "fusion_lon": 0.0, "type": "electric_scooter"}, {"rental_uris": {"ios": "https://dc.lft.to/lastmile_qr_scan", "android": "https://dc.lft.to/lastmile_qr_scan"}, "lat": 38.9315525, "lon": -77.00121783333333, "fusion_lat": 0.0, "name": "cf0126ff0d05593befa880789f369060", "is_disabled": 0, "is_reserved": 0, "bike_id": "cf0126ff0d05593befa880789f369060", "fusion_lon": 0.0, "type": "electric_bike"}, {"rental_uris": {"ios": "https://dc.lft.to/lastmile_qr_scan", "android": "https://dc.lft.to/lastmile_qr_scan"}, "lat": 38.9191855, "lon": -77.02450683333333, "fusion_lat": 0.0, "name": "665f2124a932d41858231653b983ecdd", "is_disabled": 0, "is_reserved": 0, "bike_id": "665f2124a932d41858231653b983ecdd", "fusion_lon": 0.0, "type": "electric_scooter"}, {"rental_uris": {"ios": "https://dc.lft.to/lastmile_qr_scan", "android": "https://dc.lft.to/lastmile_qr_scan"}, "lat": 38.911374, "lon": -76.99010583333333, "fusion_lat": 0.0, "name": "418dc02ef19cf2bf39d8a0f7608cdbdd", "is_disabled": 0, "is_reserved": 0, "bike_id": "418dc02ef19cf2bf39d8a0f7608cdbdd", "fusion_lon": 0.0, "type": "electric_scooter"}, {"rental_uris": {"ios": "https://dc.lft.to/lastmile_qr_scan", "android": "https://dc.lft.to/lastmile_qr_scan"}, "lat": 38.928354666666664, "lon": -77.03278516666667, "fusion_lat": 0.0, "name": "0a46376e30af4b16d95ccc6e9c4e28bf", "is_disabled": 0, "is_reserved": 0, "bike_id": "0a46376e30af4b16d95ccc6e9c4e28bf", "fusion_lon": 0.0, "type": "electric_scooter"}, {"rental_uris": {"ios": "https://dc.lft.to/lastmile_qr_scan", "android": "https://dc.lft.to/lastmile_qr_scan"}, "lat": 38.89975966666667, "lon": -77.05557733333333, "fusion_lat": 0.0, "name": "33327cf2c7b03931d2500c429d4d1433", "is_disabled": 0, "is_reserved": 0, "bike_id": "33327cf2c7b03931d2500c429d4d1433", "fusion_lon": 0.0, "type": "electric_scooter"}, {"rental_uris": {"ios": "https://dc.lft.to/lastmile_qr_scan", "android": "https://dc.lft.to/lastmile_qr_scan"}, "lat": 38.898413, "lon": -77.048353, "fusion_lat": 0.0, "name": "284a67ae9fc4d42545fbf29c1d3d6744", "is_disabled": 0, "is_reserved": 0, "bike_id": "284a67ae9fc4d42545fbf29c1d3d6744", "fusion_lon": 0.0, "type": "electric_scooter"}, {"rental_uris": {"ios": "https://dc.lft.to/lastmile_qr_scan", "android": "https://dc.lft.to/lastmile_qr_scan"}, "lat": 38.8717415, "lon": -77.00621833333334, "fusion_lat": 0.0, "name": "b63ff56f9744a79fb97cc93dc8b5b848", "is_disabled": 0, "is_reserved": 0, "bike_id": "b63ff56f9744a79fb97cc93dc8b5b848", "fusion_lon": 0.0, "type": "electric_scooter"}, {"rental_uris": {"ios": "https://dc.lft.to/lastmile_qr_scan", "android": "https://dc.lft.to/lastmile_qr_scan"}, "lat": 38.892210166666665, "lon": -77.02541, "fusion_lat": 0.0, "name": "b3f9a696a9896cafdb156ed81fead250", "is_disabled": 0, "is_reserved": 0, "bike_id": "b3f9a696a9896cafdb156ed81fead250", "fusion_lon": 0.0, "type": "electric_scooter"}, {"rental_uris": {"ios": "https://dc.lft.to/lastmile_qr_scan", "android": "https://dc.lft.to/lastmile_qr_scan"}, "lat": 38.872986166666664, "lon": -77.13930666666667, "fusion_lat": 0.0, "name": "6a2fd35beb1c116f445ff08040dd6e33", "is_disabled": 0, "is_reserved": 0, "bike_id": "6a2fd35beb1c116f445ff08040dd6e33", "fusion_lon": 0.0, "type": "electric_bike"}, {"rental_uris": {"ios": "https://dc.lft.to/lastmile_qr_scan", "android": "https://dc.lft.to/lastmile_qr_scan"}, "lat": 38.9144625, "lon": -77.041572, "fusion_lat": 0.0, "name": "4ece62d0a100804ec3ad29e9b285f711", "is_disabled": 0, "is_reserved": 0, "bike_id": "4ece62d0a100804ec3ad29e9b285f711", "fusion_lon": 0.0, "type": "electric_scooter"}, {"rental_uris": {"ios": "https://dc.lft.to/lastmile_qr_scan", "android": "https://dc.lft.to/lastmile_qr_scan"}, "lat": 38.916774, "lon": -77.03690733333333, "fusion_lat": 0.0, "name": "758b02b55f9565ee553f859a2bbba38b", "is_disabled": 0, "is_reserved": 0, "bike_id": "758b02b55f9565ee553f859a2bbba38b", "fusion_lon": 0.0, "type": "electric_scooter"}, {"rental_uris": {"ios": "https://dc.lft.to/lastmile_qr_scan", "android": "https://dc.lft.to/lastmile_qr_scan"}, "lat": 38.90051183333333, "lon": -77.000665, "fusion_lat": 0.0, "name": "7a20a75ca9be8a1376594bc6bef736e1", "is_disabled": 0, "is_reserved": 0, "bike_id": "7a20a75ca9be8a1376594bc6bef736e1", "fusion_lon": 0.0, "type": "electric_scooter"}, {"rental_uris": {"ios": "https://dc.lft.to/lastmile_qr_scan", "android": "https://dc.lft.to/lastmile_qr_scan"}, "lat": 38.896103833333335, "lon": -77.02210583333333, "fusion_lat": 0.0, "name": "361f6aea300310ded77b0b5059790b03", "is_disabled": 0, "is_reserved": 0, "bike_id": "361f6aea300310ded77b0b5059790b03", "fusion_lon": 0.0, "type": "electric_scooter"}, {"rental_uris": {"ios": "https://dc.lft.to/lastmile_qr_scan", "android": "https://dc.lft.to/lastmile_qr_scan"}, "lat": 38.9176845, "lon": -77.02316783333333, "fusion_lat": 0.0, "name": "86e33426799b2a285bbb8e303772bd20", "is_disabled": 0, "is_reserved": 0, "bike_id": "86e33426799b2a285bbb8e303772bd20", "fusion_lon": 0.0, "type": "electric_scooter"}, {"rental_uris": {"ios": "https://dc.lft.to/lastmile_qr_scan", "android": "https://dc.lft.to/lastmile_qr_scan"}, "lat": 38.892023, "lon": -77.00296466666667, "fusion_lat": 0.0, "name": "54da9ebc54c7437467e598c7f6bc90e9", "is_disabled": 0, "is_reserved": 0, "bike_id": "54da9ebc54c7437467e598c7f6bc90e9", "fusion_lon": 0.0, "type": "electric_scooter"}, {"rental_uris": {"ios": "https://dc.lft.to/lastmile_qr_scan", "android": "https://dc.lft.to/lastmile_qr_scan"}, "lat": 38.928786333333335, "lon": -77.02709533333334, "fusion_lat": 0.0, "name": "fbc6d71be1dbe9a24f0d301db4a311fe", "is_disabled": 0, "is_reserved": 0, "bike_id": "fbc6d71be1dbe9a24f0d301db4a311fe", "fusion_lon": 0.0, "type": "electric_scooter"}, {"rental_uris": {"ios": "https://dc.lft.to/lastmile_qr_scan", "android": "https://dc.lft.to/lastmile_qr_scan"}, "lat": 38.910321333333336, "lon": -76.9855345, "fusion_lat": 0.0, "name": "8dbabec5273819025295114c978607d5", "is_disabled": 0, "is_reserved": 0, "bike_id": "8dbabec5273819025295114c978607d5", "fusion_lon": 0.0, "type": "electric_scooter"}, {"rental_uris": {"ios": "https://dc.lft.to/lastmile_qr_scan", "android": "https://dc.lft.to/lastmile_qr_scan"}, "lat": 38.9258815, "lon": -77.03786533333333, "fusion_lat": 0.0, "name": "7cd98119b1b7ab91fa6c955d5a468b35", "is_disabled": 0, "is_reserved": 0, "bike_id": "7cd98119b1b7ab91fa6c955d5a468b35", "fusion_lon": 0.0, "type": "electric_scooter"}, {"rental_uris": {"ios": "https://dc.lft.to/lastmile_qr_scan", "android": "https://dc.lft.to/lastmile_qr_scan"}, "lat": 38.85970733333333, "lon": -76.99160533333334, "fusion_lat": 0.0, "name": "799e2b2895228ab15cbb7b7615fb9577", "is_disabled": 0, "is_reserved": 0, "bike_id": "799e2b2895228ab15cbb7b7615fb9577", "fusion_lon": 0.0, "type": "electric_scooter"}, {"rental_uris": {"ios": "https://dc.lft.to/lastmile_qr_scan", "android": "https://dc.lft.to/lastmile_qr_scan"}, "lat": 38.89224216666667, "lon": -77.031641, "fusion_lat": 0.0, "name": "e11f27eb8b7b5d5e28f3c92953a6e0dd", "is_disabled": 0, "is_reserved": 0, "bike_id": "e11f27eb8b7b5d5e28f3c92953a6e0dd", "fusion_lon": 0.0, "type": "electric_scooter"}, {"rental_uris": {"ios": "https://dc.lft.to/lastmile_qr_scan", "android": "https://dc.lft.to/lastmile_qr_scan"}, "lat": 38.91563333333333, "lon": -77.02205083333334, "fusion_lat": 0.0, "name": "d4cec33da5a9a88362d0e9ba1163197e", "is_disabled": 0, "is_reserved": 0, "bike_id": "d4cec33da5a9a88362d0e9ba1163197e", "fusion_lon": 0.0, "type": "electric_scooter"}, {"rental_uris": {"ios": "https://dc.lft.to/lastmile_qr_scan", "android": "https://dc.lft.to/lastmile_qr_scan"}, "lat": 38.941846, "lon": -77.02484966666667, "fusion_lat": 0.0, "name": "98d586e71892a2cab46bc664afef7d65", "is_disabled": 0, "is_reserved": 0, "bike_id": "98d586e71892a2cab46bc664afef7d65", "fusion_lon": 0.0, "type": "electric_scooter"}, {"rental_uris": {"ios": "https://dc.lft.to/lastmile_qr_scan", "android": "https://dc.lft.to/lastmile_qr_scan"}, "lat": 38.88551983333333, "lon": -76.99627433333333, "fusion_lat": 0.0, "name": "7eb91591a7aef59e5bfc00aa06bc5be8", "is_disabled": 0, "is_reserved": 0, "bike_id": "7eb91591a7aef59e5bfc00aa06bc5be8", "fusion_lon": 0.0, "type": "electric_scooter"}, {"rental_uris": {"ios": "https://dc.lft.to/lastmile_qr_scan", "android": "https://dc.lft.to/lastmile_qr_scan"}, "lat": 38.956476333333335, "lon": -77.01965, "fusion_lat": 0.0, "name": "517c273c780d35d42d6ef9ff901adb84", "is_disabled": 0, "is_reserved": 0, "bike_id": "517c273c780d35d42d6ef9ff901adb84", "fusion_lon": 0.0, "type": "electric_scooter"}, {"rental_uris": {"ios": "https://dc.lft.to/lastmile_qr_scan", "android": "https://dc.lft.to/lastmile_qr_scan"}, "lat": 38.92883966666667, "lon": -77.03332016666667, "fusion_lat": 0.0, "name": "a59236084d25f4e9c86ffea6e1fcfccb", "is_disabled": 0, "is_reserved": 0, "bike_id": "a59236084d25f4e9c86ffea6e1fcfccb", "fusion_lon": 0.0, "type": "electric_scooter"}, {"rental_uris": {"ios": "https://dc.lft.to/lastmile_qr_scan", "android": "https://dc.lft.to/lastmile_qr_scan"}, "lat": 38.950975, "lon": -77.09715766666666, "fusion_lat": 0.0, "name": "6cff2d6d90aaebdcca6d83e0f1e67ccf", "is_disabled": 0, "is_reserved": 0, "bike_id": "6cff2d6d90aaebdcca6d83e0f1e67ccf", "fusion_lon": 0.0, "type": "electric_scooter"}, {"rental_uris": {"ios": "https://dc.lft.to/lastmile_qr_scan", "android": "https://dc.lft.to/lastmile_qr_scan"}, "lat": 38.90015433333333, "lon": -76.986985, "fusion_lat": 0.0, "name": "019a538a8aa7862fce7aa93243714521", "is_disabled": 0, "is_reserved": 0, "bike_id": "019a538a8aa7862fce7aa93243714521", "fusion_lon": 0.0, "type": "electric_scooter"}, {"rental_uris": {"ios": "https://dc.lft.to/lastmile_qr_scan", "android": "https://dc.lft.to/lastmile_qr_scan"}, "lat": 38.932689333333336, "lon": -77.03499483333333, "fusion_lat": 0.0, "name": "4c25963c0907b7037595ed930d550139", "is_disabled": 0, "is_reserved": 0, "bike_id": "4c25963c0907b7037595ed930d550139", "fusion_lon": 0.0, "type": "electric_scooter"}, {"rental_uris": {"ios": "https://dc.lft.to/lastmile_qr_scan", "android": "https://dc.lft.to/lastmile_qr_scan"}, "lat": 38.9160845, "lon": -77.02291266666667, "fusion_lat": 0.0, "name": "9965a2f57a1128be77b3d4ad796bbc52", "is_disabled": 0, "is_reserved": 0, "bike_id": "9965a2f57a1128be77b3d4ad796bbc52", "fusion_lon": 0.0, "type": "electric_scooter"}, {"rental_uris": {"ios": "https://dc.lft.to/lastmile_qr_scan", "android": "https://dc.lft.to/lastmile_qr_scan"}, "lat": 38.892371, "lon": -76.94098183333334, "fusion_lat": 0.0, "name": "5049e54957cb6ec185db13436f0bd5e8", "is_disabled": 0, "is_reserved": 0, "bike_id": "5049e54957cb6ec185db13436f0bd5e8", "fusion_lon": 0.0, "type": "electric_scooter"}, {"rental_uris": {"ios": "https://dc.lft.to/lastmile_qr_scan", "android": "https://dc.lft.to/lastmile_qr_scan"}, "lat": 38.9227035, "lon": -77.02242533333333, "fusion_lat": 0.0, "name": "8ad4c761ebfd1551b9f9784c1ad5ae54", "is_disabled": 0, "is_reserved": 0, "bike_id": "8ad4c761ebfd1551b9f9784c1ad5ae54", "fusion_lon": 0.0, "type": "electric_scooter"}, {"rental_uris": {"ios": "https://dc.lft.to/lastmile_qr_scan", "android": "https://dc.lft.to/lastmile_qr_scan"}, "lat": 38.9039245, "lon": -77.02939583333334, "fusion_lat": 0.0, "name": "c4b4e9404c6f84f0e9361d32e1d47841", "is_disabled": 0, "is_reserved": 0, "bike_id": "c4b4e9404c6f84f0e9361d32e1d47841", "fusion_lon": 0.0, "type": "electric_scooter"}, {"rental_uris": {"ios": "https://dc.lft.to/lastmile_qr_scan", "android": "https://dc.lft.to/lastmile_qr_scan"}, "lat": 38.898008, "lon": -77.02479516666666, "fusion_lat": 0.0, "name": "ca9fcda61a4aa76b8bf5420828dc95d7", "is_disabled": 0, "is_reserved": 0, "bike_id": "ca9fcda61a4aa76b8bf5420828dc95d7", "fusion_lon": 0.0, "type": "electric_scooter"}, {"rental_uris": {"ios": "https://dc.lft.to/lastmile_qr_scan", "android": "https://dc.lft.to/lastmile_qr_scan"}, "lat": 38.9500095, "lon": -77.01839216666667, "fusion_lat": 0.0, "name": "09c35b61b72f765c4296b26130cb50da", "is_disabled": 0, "is_reserved": 0, "bike_id": "09c35b61b72f765c4296b26130cb50da", "fusion_lon": 0.0, "type": "electric_scooter"}, {"rental_uris": {"ios": "https://dc.lft.to/lastmile_qr_scan", "android": "https://dc.lft.to/lastmile_qr_scan"}, "lat": 38.894965, "lon": -77.02175966666667, "fusion_lat": 0.0, "name": "58e37cbd2e36d8644c922543b447511d", "is_disabled": 0, "is_reserved": 0, "bike_id": "58e37cbd2e36d8644c922543b447511d", "fusion_lon": 0.0, "type": "electric_scooter"}, {"rental_uris": {"ios": "https://dc.lft.to/lastmile_qr_scan", "android": "https://dc.lft.to/lastmile_qr_scan"}, "lat": 38.9053985, "lon": -77.0447785, "fusion_lat": 0.0, "name": "8ea003c047ce3c9f66f709c1104ee275", "is_disabled": 0, "is_reserved": 0, "bike_id": "8ea003c047ce3c9f66f709c1104ee275", "fusion_lon": 0.0, "type": "electric_scooter"}, {"rental_uris": {"ios": "https://dc.lft.to/lastmile_qr_scan", "android": "https://dc.lft.to/lastmile_qr_scan"}, "lat": 38.85635766666667, "lon": -77.11265816666666, "fusion_lat": 0.0, "name": "6f7763baaac3d3cc63c1a7ba7e717a09", "is_disabled": 0, "is_reserved": 0, "bike_id": "6f7763baaac3d3cc63c1a7ba7e717a09", "fusion_lon": 0.0, "type": "electric_bike"}, {"rental_uris": {"ios": "https://dc.lft.to/lastmile_qr_scan", "android": "https://dc.lft.to/lastmile_qr_scan"}, "lat": 38.9174245, "lon": -77.02115566666667, "fusion_lat": 0.0, "name": "f38783cad151accb528d82ce0b3880f0", "is_disabled": 0, "is_reserved": 0, "bike_id": "f38783cad151accb528d82ce0b3880f0", "fusion_lon": 0.0, "type": "electric_scooter"}, {"rental_uris": {"ios": "https://dc.lft.to/lastmile_qr_scan", "android": "https://dc.lft.to/lastmile_qr_scan"}, "lat": 38.9270495, "lon": -77.03566433333333, "fusion_lat": 0.0, "name": "60abf2feb725deb564f3b4963c41cc52", "is_disabled": 0, "is_reserved": 0, "bike_id": "60abf2feb725deb564f3b4963c41cc52", "fusion_lon": 0.0, "type": "electric_scooter"}, {"rental_uris": {"ios": "https://dc.lft.to/lastmile_qr_scan", "android": "https://dc.lft.to/lastmile_qr_scan"}, "lat": 38.844381166666665, "lon": -76.998679, "fusion_lat": 0.0, "name": "7dd7043be74204a3d91d99b4197ccf12", "is_disabled": 0, "is_reserved": 0, "bike_id": "7dd7043be74204a3d91d99b4197ccf12", "fusion_lon": 0.0, "type": "electric_scooter"}, {"rental_uris": {"ios": "https://dc.lft.to/lastmile_qr_scan", "android": "https://dc.lft.to/lastmile_qr_scan"}, "lat": 38.9068785, "lon": -77.06070633333333, "fusion_lat": 0.0, "name": "0d4fc2576bd3a0efdfdff02030a3b3d8", "is_disabled": 0, "is_reserved": 0, "bike_id": "0d4fc2576bd3a0efdfdff02030a3b3d8", "fusion_lon": 0.0, "type": "electric_scooter"}, {"rental_uris": {"ios": "https://dc.lft.to/lastmile_qr_scan", "android": "https://dc.lft.to/lastmile_qr_scan"}, "lat": 38.89352816666667, "lon": -77.02225366666667, "fusion_lat": 0.0, "name": "3b2d64e0c426c1726ab4c8a6d2aa45ba", "is_disabled": 0, "is_reserved": 0, "bike_id": "3b2d64e0c426c1726ab4c8a6d2aa45ba", "fusion_lon": 0.0, "type": "electric_scooter"}, {"rental_uris": {"ios": "https://dc.lft.to/lastmile_qr_scan", "android": "https://dc.lft.to/lastmile_qr_scan"}, "lat": 38.954216, "lon": -76.98132233333334, "fusion_lat": 0.0, "name": "997ef76192557b3e0a9d2427730f1586", "is_disabled": 0, "is_reserved": 0, "bike_id": "997ef76192557b3e0a9d2427730f1586", "fusion_lon": 0.0, "type": "electric_bike"}, {"rental_uris": {"ios": "https://dc.lft.to/lastmile_qr_scan", "android": "https://dc.lft.to/lastmile_qr_scan"}, "lat": 38.916053, "lon": -77.03198583333334, "fusion_lat": 0.0, "name": "c2674b585449beee364a901bd57c674b", "is_disabled": 0, "is_reserved": 0, "bike_id": "c2674b585449beee364a901bd57c674b", "fusion_lon": 0.0, "type": "electric_scooter"}, {"rental_uris": {"ios": "https://dc.lft.to/lastmile_qr_scan", "android": "https://dc.lft.to/lastmile_qr_scan"}, "lat": 38.92539333333333, "lon": -77.02136066666667, "fusion_lat": 0.0, "name": "ceaa54a7dad87e3ea4f2345d63f0cc28", "is_disabled": 0, "is_reserved": 0, "bike_id": "ceaa54a7dad87e3ea4f2345d63f0cc28", "fusion_lon": 0.0, "type": "electric_scooter"}, {"rental_uris": {"ios": "https://dc.lft.to/lastmile_qr_scan", "android": "https://dc.lft.to/lastmile_qr_scan"}, "lat": 38.922349, "lon": -77.0389115, "fusion_lat": 0.0, "name": "3900d050db2e6399824ebf1687810df9", "is_disabled": 0, "is_reserved": 0, "bike_id": "3900d050db2e6399824ebf1687810df9", "fusion_lon": 0.0, "type": "electric_scooter"}, {"rental_uris": {"ios": "https://dc.lft.to/lastmile_qr_scan", "android": "https://dc.lft.to/lastmile_qr_scan"}, "lat": 38.90021566666667, "lon": -77.0118495, "fusion_lat": 0.0, "name": "5e8ef8ec899841644c55f6e7be1fc753", "is_disabled": 0, "is_reserved": 0, "bike_id": "5e8ef8ec899841644c55f6e7be1fc753", "fusion_lon": 0.0, "type": "electric_scooter"}, {"rental_uris": {"ios": "https://dc.lft.to/lastmile_qr_scan", "android": "https://dc.lft.to/lastmile_qr_scan"}, "lat": 38.906870833333336, "lon": -77.024003, "fusion_lat": 0.0, "name": "db7e953fa87d8b9cfb2d779f31fab123", "is_disabled": 0, "is_reserved": 0, "bike_id": "db7e953fa87d8b9cfb2d779f31fab123", "fusion_lon": 0.0, "type": "electric_scooter"}, {"rental_uris": {"ios": "https://dc.lft.to/lastmile_qr_scan", "android": "https://dc.lft.to/lastmile_qr_scan"}, "lat": 38.9322515, "lon": -77.03861016666667, "fusion_lat": 0.0, "name": "ba7a43136d68c343a15709735ada2b7a", "is_disabled": 0, "is_reserved": 0, "bike_id": "ba7a43136d68c343a15709735ada2b7a", "fusion_lon": 0.0, "type": "electric_scooter"}, {"rental_uris": {"ios": "https://dc.lft.to/lastmile_qr_scan", "android": "https://dc.lft.to/lastmile_qr_scan"}, "lat": 38.866820833333335, "lon": -76.985684, "fusion_lat": 0.0, "name": "130fd3fc3a5f9d8aef1b9b00c3cf7253", "is_disabled": 0, "is_reserved": 0, "bike_id": "130fd3fc3a5f9d8aef1b9b00c3cf7253", "fusion_lon": 0.0, "type": "electric_scooter"}, {"rental_uris": {"ios": "https://dc.lft.to/lastmile_qr_scan", "android": "https://dc.lft.to/lastmile_qr_scan"}, "lat": 38.922674666666666, "lon": -77.03677166666667, "fusion_lat": 0.0, "name": "093f1e9dde992614d09e0bbd7424d870", "is_disabled": 0, "is_reserved": 0, "bike_id": "093f1e9dde992614d09e0bbd7424d870", "fusion_lon": 0.0, "type": "electric_scooter"}, {"rental_uris": {"ios": "https://dc.lft.to/lastmile_qr_scan", "android": "https://dc.lft.to/lastmile_qr_scan"}, "lat": 38.900316333333336, "lon": -77.02718833333333, "fusion_lat": 0.0, "name": "46960193a8617b5ecadb4af2e2b027f1", "is_disabled": 0, "is_reserved": 0, "bike_id": "46960193a8617b5ecadb4af2e2b027f1", "fusion_lon": 0.0, "type": "electric_scooter"}, {"rental_uris": {"ios": "https://dc.lft.to/lastmile_qr_scan", "android": "https://dc.lft.to/lastmile_qr_scan"}, "lat": 38.866825666666664, "lon": -76.9857745, "fusion_lat": 0.0, "name": "9106cbbf16bacdeec25c049867108704", "is_disabled": 0, "is_reserved": 0, "bike_id": "9106cbbf16bacdeec25c049867108704", "fusion_lon": 0.0, "type": "electric_scooter"}, {"rental_uris": {"ios": "https://dc.lft.to/lastmile_qr_scan", "android": "https://dc.lft.to/lastmile_qr_scan"}, "lat": 38.93346616666667, "lon": -77.06204283333334, "fusion_lat": 0.0, "name": "5d62e14a313689384f283adda7dbe898", "is_disabled": 0, "is_reserved": 0, "bike_id": "5d62e14a313689384f283adda7dbe898", "fusion_lon": 0.0, "type": "electric_scooter"}, {"rental_uris": {"ios": "https://dc.lft.to/lastmile_qr_scan", "android": "https://dc.lft.to/lastmile_qr_scan"}, "lat": 38.916978666666665, "lon": -77.04089816666666, "fusion_lat": 0.0, "name": "d8c03b5ed4c027db4211232ed24888e6", "is_disabled": 0, "is_reserved": 0, "bike_id": "d8c03b5ed4c027db4211232ed24888e6", "fusion_lon": 0.0, "type": "electric_scooter"}, {"rental_uris": {"ios": "https://dc.lft.to/lastmile_qr_scan", "android": "https://dc.lft.to/lastmile_qr_scan"}, "lat": 38.957891833333335, "lon": -77.032134, "fusion_lat": 0.0, "name": "dc59842c1c11cb2850af45221f082da8", "is_disabled": 0, "is_reserved": 0, "bike_id": "dc59842c1c11cb2850af45221f082da8", "fusion_lon": 0.0, "type": "electric_scooter"}, {"rental_uris": {"ios": "https://dc.lft.to/lastmile_qr_scan", "android": "https://dc.lft.to/lastmile_qr_scan"}, "lat": 38.884234666666664, "lon": -77.024954, "fusion_lat": 0.0, "name": "87b1ea8d388893f3270eabd359ac87ab", "is_disabled": 0, "is_reserved": 0, "bike_id": "87b1ea8d388893f3270eabd359ac87ab", "fusion_lon": 0.0, "type": "electric_scooter"}, {"rental_uris": {"ios": "https://dc.lft.to/lastmile_qr_scan", "android": "https://dc.lft.to/lastmile_qr_scan"}, "lat": 38.91729316666667, "lon": -77.03194483333333, "fusion_lat": 0.0, "name": "859fa94d3dc9c31eff4758270ee5f725", "is_disabled": 0, "is_reserved": 0, "bike_id": "859fa94d3dc9c31eff4758270ee5f725", "fusion_lon": 0.0, "type": "electric_scooter"}, {"rental_uris": {"ios": "https://dc.lft.to/lastmile_qr_scan", "android": "https://dc.lft.to/lastmile_qr_scan"}, "lat": 38.97401266666667, "lon": -77.0645425, "fusion_lat": 0.0, "name": "b0e8045d1e7e2809e71a07ead2ca961b", "is_disabled": 0, "is_reserved": 0, "bike_id": "b0e8045d1e7e2809e71a07ead2ca961b", "fusion_lon": 0.0, "type": "electric_bike"}, {"rental_uris": {"ios": "https://dc.lft.to/lastmile_qr_scan", "android": "https://dc.lft.to/lastmile_qr_scan"}, "lat": 38.926773833333336, "lon": -77.02273966666667, "fusion_lat": 0.0, "name": "84d909abecc5f9bff90e12aa45fe95a4", "is_disabled": 0, "is_reserved": 0, "bike_id": "84d909abecc5f9bff90e12aa45fe95a4", "fusion_lon": 0.0, "type": "electric_scooter"}, {"rental_uris": {"ios": "https://dc.lft.to/lastmile_qr_scan", "android": "https://dc.lft.to/lastmile_qr_scan"}, "lat": 38.916852166666665, "lon": -77.02962816666667, "fusion_lat": 0.0, "name": "7fd52de53ed611635cbe93eb327dd7eb", "is_disabled": 0, "is_reserved": 0, "bike_id": "7fd52de53ed611635cbe93eb327dd7eb", "fusion_lon": 0.0, "type": "electric_scooter"}, {"rental_uris": {"ios": "https://dc.lft.to/lastmile_qr_scan", "android": "https://dc.lft.to/lastmile_qr_scan"}, "lat": 38.8724465, "lon": -76.9772555, "fusion_lat": 0.0, "name": "1aa3b68052ee3cd268c31ff5104ab1da", "is_disabled": 0, "is_reserved": 0, "bike_id": "1aa3b68052ee3cd268c31ff5104ab1da", "fusion_lon": 0.0, "type": "electric_scooter"}, {"rental_uris": {"ios": "https://dc.lft.to/lastmile_qr_scan", "android": "https://dc.lft.to/lastmile_qr_scan"}, "lat": 38.89755266666667, "lon": -77.02458783333333, "fusion_lat": 0.0, "name": "9719cfc60d60fd619be1dd57fe0a2867", "is_disabled": 0, "is_reserved": 0, "bike_id": "9719cfc60d60fd619be1dd57fe0a2867", "fusion_lon": 0.0, "type": "electric_scooter"}, {"rental_uris": {"ios": "https://dc.lft.to/lastmile_qr_scan", "android": "https://dc.lft.to/lastmile_qr_scan"}, "lat": 38.8789865, "lon": -77.01582966666666, "fusion_lat": 0.0, "name": "23140a72a9798acc695aa9361840b1b9", "is_disabled": 0, "is_reserved": 0, "bike_id": "23140a72a9798acc695aa9361840b1b9", "fusion_lon": 0.0, "type": "electric_bike"}, {"rental_uris": {"ios": "https://dc.lft.to/lastmile_qr_scan", "android": "https://dc.lft.to/lastmile_qr_scan"}, "lat": 38.93296333333333, "lon": -77.08542266666667, "fusion_lat": 0.0, "name": "58a0d47840425d6bfffeb2cdf7d748f8", "is_disabled": 0, "is_reserved": 0, "bike_id": "58a0d47840425d6bfffeb2cdf7d748f8", "fusion_lon": 0.0, "type": "electric_scooter"}, {"rental_uris": {"ios": "https://dc.lft.to/lastmile_qr_scan", "android": "https://dc.lft.to/lastmile_qr_scan"}, "lat": 38.895316, "lon": -77.03350166666667, "fusion_lat": 0.0, "name": "1737a497410184895c5da5dc822e5175", "is_disabled": 0, "is_reserved": 0, "bike_id": "1737a497410184895c5da5dc822e5175", "fusion_lon": 0.0, "type": "electric_scooter"}, {"rental_uris": {"ios": "https://dc.lft.to/lastmile_qr_scan", "android": "https://dc.lft.to/lastmile_qr_scan"}, "lat": 38.915547833333335, "lon": -77.006469, "fusion_lat": 0.0, "name": "596464f2b1e7843dc6df2b0807eb658b", "is_disabled": 0, "is_reserved": 0, "bike_id": "596464f2b1e7843dc6df2b0807eb658b", "fusion_lon": 0.0, "type": "electric_scooter"}, {"rental_uris": {"ios": "https://dc.lft.to/lastmile_qr_scan", "android": "https://dc.lft.to/lastmile_qr_scan"}, "lat": 38.9011035, "lon": -77.02802766666667, "fusion_lat": 0.0, "name": "0be15cfb554111237a2af18685afdf61", "is_disabled": 0, "is_reserved": 0, "bike_id": "0be15cfb554111237a2af18685afdf61", "fusion_lon": 0.0, "type": "electric_scooter"}, {"rental_uris": {"ios": "https://dc.lft.to/lastmile_qr_scan", "android": "https://dc.lft.to/lastmile_qr_scan"}, "lat": 38.88532883333333, "lon": -76.99825466666667, "fusion_lat": 0.0, "name": "b671859bf5ea8fadf4a880ddceba7715", "is_disabled": 0, "is_reserved": 0, "bike_id": "b671859bf5ea8fadf4a880ddceba7715", "fusion_lon": 0.0, "type": "electric_scooter"}, {"rental_uris": {"ios": "https://dc.lft.to/lastmile_qr_scan", "android": "https://dc.lft.to/lastmile_qr_scan"}, "lat": 38.911799333333335, "lon": -77.01206216666667, "fusion_lat": 0.0, "name": "86df3f3f262ec19f30ab1adf06d85e80", "is_disabled": 0, "is_reserved": 0, "bike_id": "86df3f3f262ec19f30ab1adf06d85e80", "fusion_lon": 0.0, "type": "electric_scooter"}, {"rental_uris": {"ios": "https://dc.lft.to/lastmile_qr_scan", "android": "https://dc.lft.to/lastmile_qr_scan"}, "lat": 38.9170395, "lon": -77.02913933333333, "fusion_lat": 0.0, "name": "faa1cccf1214abe24885cee55d97927a", "is_disabled": 0, "is_reserved": 0, "bike_id": "faa1cccf1214abe24885cee55d97927a", "fusion_lon": 0.0, "type": "electric_scooter"}, {"rental_uris": {"ios": "https://dc.lft.to/lastmile_qr_scan", "android": "https://dc.lft.to/lastmile_qr_scan"}, "lat": 38.873878833333336, "lon": -77.00072433333334, "fusion_lat": 0.0, "name": "c7ce6bb51ae1f072d419f6994b34e954", "is_disabled": 0, "is_reserved": 0, "bike_id": "c7ce6bb51ae1f072d419f6994b34e954", "fusion_lon": 0.0, "type": "electric_scooter"}, {"rental_uris": {"ios": "https://dc.lft.to/lastmile_qr_scan", "android": "https://dc.lft.to/lastmile_qr_scan"}, "lat": 38.87362566666667, "lon": -76.97024516666667, "fusion_lat": 0.0, "name": "f91395ba04adc2fe57ca7f46062bacad", "is_disabled": 0, "is_reserved": 0, "bike_id": "f91395ba04adc2fe57ca7f46062bacad", "fusion_lon": 0.0, "type": "electric_scooter"}, {"rental_uris": {"ios": "https://dc.lft.to/lastmile_qr_scan", "android": "https://dc.lft.to/lastmile_qr_scan"}, "lat": 38.874584166666665, "lon": -77.00493966666667, "fusion_lat": 0.0, "name": "b35b86641a0a567a8b08fcf6614c2c14", "is_disabled": 0, "is_reserved": 0, "bike_id": "b35b86641a0a567a8b08fcf6614c2c14", "fusion_lon": 0.0, "type": "electric_scooter"}, {"rental_uris": {"ios": "https://dc.lft.to/lastmile_qr_scan", "android": "https://dc.lft.to/lastmile_qr_scan"}, "lat": 38.90024833333333, "lon": -77.0445705, "fusion_lat": 0.0, "name": "bdee430a7eb1ebc555f4503ef1e7e661", "is_disabled": 0, "is_reserved": 0, "bike_id": "bdee430a7eb1ebc555f4503ef1e7e661", "fusion_lon": 0.0, "type": "electric_scooter"}, {"rental_uris": {"ios": "https://dc.lft.to/lastmile_qr_scan", "android": "https://dc.lft.to/lastmile_qr_scan"}, "lat": 38.915138166666665, "lon": -77.04478616666667, "fusion_lat": 0.0, "name": "53c19fd0efd17221d29ee89192e51a79", "is_disabled": 0, "is_reserved": 0, "bike_id": "53c19fd0efd17221d29ee89192e51a79", "fusion_lon": 0.0, "type": "electric_scooter"}, {"rental_uris": {"ios": "https://dc.lft.to/lastmile_qr_scan", "android": "https://dc.lft.to/lastmile_qr_scan"}, "lat": 38.918235, "lon": -77.04940966666666, "fusion_lat": 0.0, "name": "89360a336dd6348bfb99d4ed5e457621", "is_disabled": 0, "is_reserved": 0, "bike_id": "89360a336dd6348bfb99d4ed5e457621", "fusion_lon": 0.0, "type": "electric_scooter"}, {"rental_uris": {"ios": "https://dc.lft.to/lastmile_qr_scan", "android": "https://dc.lft.to/lastmile_qr_scan"}, "lat": 38.921463833333334, "lon": -77.0350815, "fusion_lat": 0.0, "name": "d639c718bd8c2c8744095b7ab810af4f", "is_disabled": 0, "is_reserved": 0, "bike_id": "d639c718bd8c2c8744095b7ab810af4f", "fusion_lon": 0.0, "type": "electric_scooter"}, {"rental_uris": {"ios": "https://dc.lft.to/lastmile_qr_scan", "android": "https://dc.lft.to/lastmile_qr_scan"}, "lat": 38.933389166666664, "lon": -77.0205255, "fusion_lat": 0.0, "name": "f7da8cb59ca6b906e30b60025e215067", "is_disabled": 0, "is_reserved": 0, "bike_id": "f7da8cb59ca6b906e30b60025e215067", "fusion_lon": 0.0, "type": "electric_scooter"}, {"rental_uris": {"ios": "https://dc.lft.to/lastmile_qr_scan", "android": "https://dc.lft.to/lastmile_qr_scan"}, "lat": 38.86708183333333, "lon": -76.98714116666666, "fusion_lat": 0.0, "name": "7497a2f3a23b95eadd4a89a61a0a83a9", "is_disabled": 0, "is_reserved": 0, "bike_id": "7497a2f3a23b95eadd4a89a61a0a83a9", "fusion_lon": 0.0, "type": "electric_scooter"}, {"rental_uris": {"ios": "https://dc.lft.to/lastmile_qr_scan", "android": "https://dc.lft.to/lastmile_qr_scan"}, "lat": 38.89950866666667, "lon": -77.04773066666667, "fusion_lat": 0.0, "name": "25942fe5c36b3627618bb96ca8e7935d", "is_disabled": 0, "is_reserved": 0, "bike_id": "25942fe5c36b3627618bb96ca8e7935d", "fusion_lon": 0.0, "type": "electric_scooter"}, {"rental_uris": {"ios": "https://dc.lft.to/lastmile_qr_scan", "android": "https://dc.lft.to/lastmile_qr_scan"}, "lat": 38.935820166666666, "lon": -77.01976033333334, "fusion_lat": 0.0, "name": "e54bc845903a99fd11afccaa0c995da3", "is_disabled": 0, "is_reserved": 0, "bike_id": "e54bc845903a99fd11afccaa0c995da3", "fusion_lon": 0.0, "type": "electric_scooter"}, {"rental_uris": {"ios": "https://dc.lft.to/lastmile_qr_scan", "android": "https://dc.lft.to/lastmile_qr_scan"}, "lat": 38.8949535, "lon": -77.02286166666667, "fusion_lat": 0.0, "name": "b0a45687512e8cf1044d081012681e54", "is_disabled": 0, "is_reserved": 0, "bike_id": "b0a45687512e8cf1044d081012681e54", "fusion_lon": 0.0, "type": "electric_scooter"}, {"rental_uris": {"ios": "https://dc.lft.to/lastmile_qr_scan", "android": "https://dc.lft.to/lastmile_qr_scan"}, "lat": 38.91398783333333, "lon": -77.02407433333333, "fusion_lat": 0.0, "name": "7732873b501b1c101d3c1f0071087563", "is_disabled": 0, "is_reserved": 0, "bike_id": "7732873b501b1c101d3c1f0071087563", "fusion_lon": 0.0, "type": "electric_scooter"}, {"rental_uris": {"ios": "https://dc.lft.to/lastmile_qr_scan", "android": "https://dc.lft.to/lastmile_qr_scan"}, "lat": 38.88739016666667, "lon": -77.01534466666666, "fusion_lat": 0.0, "name": "5a3cb1a1398806a74bbb6b80c33015ec", "is_disabled": 0, "is_reserved": 0, "bike_id": "5a3cb1a1398806a74bbb6b80c33015ec", "fusion_lon": 0.0, "type": "electric_scooter"}, {"rental_uris": {"ios": "https://dc.lft.to/lastmile_qr_scan", "android": "https://dc.lft.to/lastmile_qr_scan"}, "lat": 39.052771666666665, "lon": -77.080714, "fusion_lat": 0.0, "name": "c91364f08f3e018728489a109248b1d0", "is_disabled": 0, "is_reserved": 0, "bike_id": "c91364f08f3e018728489a109248b1d0", "fusion_lon": 0.0, "type": "electric_bike"}, {"rental_uris": {"ios": "https://dc.lft.to/lastmile_qr_scan", "android": "https://dc.lft.to/lastmile_qr_scan"}, "lat": 38.90276333333333, "lon": -77.01767866666667, "fusion_lat": 0.0, "name": "9d708cd11375d8a4ca8befff9958c29a", "is_disabled": 0, "is_reserved": 0, "bike_id": "9d708cd11375d8a4ca8befff9958c29a", "fusion_lon": 0.0, "type": "electric_scooter"}, {"rental_uris": {"ios": "https://dc.lft.to/lastmile_qr_scan", "android": "https://dc.lft.to/lastmile_qr_scan"}, "lat": 38.914721666666665, "lon": -77.045528, "fusion_lat": 0.0, "name": "71aca50499dfbb2330e657404eaf0ee2", "is_disabled": 0, "is_reserved": 0, "bike_id": "71aca50499dfbb2330e657404eaf0ee2", "fusion_lon": 0.0, "type": "electric_scooter"}, {"rental_uris": {"ios": "https://dc.lft.to/lastmile_qr_scan", "android": "https://dc.lft.to/lastmile_qr_scan"}, "lat": 39.01480433333333, "lon": -77.05492633333333, "fusion_lat": 0.0, "name": "5f49baf2a41ca13d6e4755a64f799738", "is_disabled": 0, "is_reserved": 0, "bike_id": "5f49baf2a41ca13d6e4755a64f799738", "fusion_lon": 0.0, "type": "electric_bike"}, {"rental_uris": {"ios": "https://dc.lft.to/lastmile_qr_scan", "android": "https://dc.lft.to/lastmile_qr_scan"}, "lat": 38.86256266666667, "lon": -76.98351666666667, "fusion_lat": 0.0, "name": "08d7fa9bc031b001f83d8ee4674098e8", "is_disabled": 0, "is_reserved": 0, "bike_id": "08d7fa9bc031b001f83d8ee4674098e8", "fusion_lon": 0.0, "type": "electric_bike"}, {"rental_uris": {"ios": "https://dc.lft.to/lastmile_qr_scan", "android": "https://dc.lft.to/lastmile_qr_scan"}, "lat": 38.916776166666665, "lon": -77.02316016666667, "fusion_lat": 0.0, "name": "23836ed2f053aee7c0aac4c639bd707c", "is_disabled": 0, "is_reserved": 0, "bike_id": "23836ed2f053aee7c0aac4c639bd707c", "fusion_lon": 0.0, "type": "electric_scooter"}, {"rental_uris": {"ios": "https://dc.lft.to/lastmile_qr_scan", "android": "https://dc.lft.to/lastmile_qr_scan"}, "lat": 38.89545316666667, "lon": -77.00381883333333, "fusion_lat": 0.0, "name": "bedc7f00653b6a5a1194468694ef3ff8", "is_disabled": 0, "is_reserved": 0, "bike_id": "bedc7f00653b6a5a1194468694ef3ff8", "fusion_lon": 0.0, "type": "electric_scooter"}, {"rental_uris": {"ios": "https://dc.lft.to/lastmile_qr_scan", "android": "https://dc.lft.to/lastmile_qr_scan"}, "lat": 38.88742883333333, "lon": -77.02570683333333, "fusion_lat": 0.0, "name": "2a1dc4baa3234fbe940f05244af8a113", "is_disabled": 0, "is_reserved": 0, "bike_id": "2a1dc4baa3234fbe940f05244af8a113", "fusion_lon": 0.0, "type": "electric_scooter"}, {"rental_uris": {"ios": "https://dc.lft.to/lastmile_qr_scan", "android": "https://dc.lft.to/lastmile_qr_scan"}, "lat": 38.89866633333333, "lon": -76.94627566666666, "fusion_lat": 0.0, "name": "32c659e6db115bc86c075f8a168160bd", "is_disabled": 0, "is_reserved": 0, "bike_id": "32c659e6db115bc86c075f8a168160bd", "fusion_lon": 0.0, "type": "electric_scooter"}, {"rental_uris": {"ios": "https://dc.lft.to/lastmile_qr_scan", "android": "https://dc.lft.to/lastmile_qr_scan"}, "lat": 38.897384, "lon": -77.0216015, "fusion_lat": 0.0, "name": "6515f11ac9bd4a85a774552089f87f8f", "is_disabled": 0, "is_reserved": 0, "bike_id": "6515f11ac9bd4a85a774552089f87f8f", "fusion_lon": 0.0, "type": "electric_scooter"}, {"rental_uris": {"ios": "https://dc.lft.to/lastmile_qr_scan", "android": "https://dc.lft.to/lastmile_qr_scan"}, "lat": 38.89609133333333, "lon": -77.02213, "fusion_lat": 0.0, "name": "7cf8f43d06e506633f38c2b699682cf2", "is_disabled": 0, "is_reserved": 0, "bike_id": "7cf8f43d06e506633f38c2b699682cf2", "fusion_lon": 0.0, "type": "electric_scooter"}, {"rental_uris": {"ios": "https://dc.lft.to/lastmile_qr_scan", "android": "https://dc.lft.to/lastmile_qr_scan"}, "lat": 38.928986333333334, "lon": -77.01618516666667, "fusion_lat": 0.0, "name": "93f807e41097da2717e6fa3e6d669189", "is_disabled": 0, "is_reserved": 0, "bike_id": "93f807e41097da2717e6fa3e6d669189", "fusion_lon": 0.0, "type": "electric_scooter"}, {"rental_uris": {"ios": "https://dc.lft.to/lastmile_qr_scan", "android": "https://dc.lft.to/lastmile_qr_scan"}, "lat": 38.91120816666667, "lon": -77.0446075, "fusion_lat": 0.0, "name": "50c0fd45b8b64206d79f23a61ab3c331", "is_disabled": 0, "is_reserved": 0, "bike_id": "50c0fd45b8b64206d79f23a61ab3c331", "fusion_lon": 0.0, "type": "electric_scooter"}, {"rental_uris": {"ios": "https://dc.lft.to/lastmile_qr_scan", "android": "https://dc.lft.to/lastmile_qr_scan"}, "lat": 38.89357666666667, "lon": -77.00337516666667, "fusion_lat": 0.0, "name": "54ef376cb5d33c5d3048d58908fb393e", "is_disabled": 0, "is_reserved": 0, "bike_id": "54ef376cb5d33c5d3048d58908fb393e", "fusion_lon": 0.0, "type": "electric_scooter"}, {"rental_uris": {"ios": "https://dc.lft.to/lastmile_qr_scan", "android": "https://dc.lft.to/lastmile_qr_scan"}, "lat": 38.905757333333334, "lon": -77.00612983333333, "fusion_lat": 0.0, "name": "a5975a700303d9ae5d48ca62a300c377", "is_disabled": 0, "is_reserved": 0, "bike_id": "a5975a700303d9ae5d48ca62a300c377", "fusion_lon": 0.0, "type": "electric_scooter"}, {"rental_uris": {"ios": "https://dc.lft.to/lastmile_qr_scan", "android": "https://dc.lft.to/lastmile_qr_scan"}, "lat": 38.878787833333334, "lon": -77.0174845, "fusion_lat": 0.0, "name": "2f99405c2050b110963b19d03131e924", "is_disabled": 0, "is_reserved": 0, "bike_id": "2f99405c2050b110963b19d03131e924", "fusion_lon": 0.0, "type": "electric_scooter"}, {"rental_uris": {"ios": "https://dc.lft.to/lastmile_qr_scan", "android": "https://dc.lft.to/lastmile_qr_scan"}, "lat": 38.9214005, "lon": -77.04357616666667, "fusion_lat": 0.0, "name": "729616a69de3e5fe3179a47bd01718ca", "is_disabled": 0, "is_reserved": 0, "bike_id": "729616a69de3e5fe3179a47bd01718ca", "fusion_lon": 0.0, "type": "electric_scooter"}, {"rental_uris": {"ios": "https://dc.lft.to/lastmile_qr_scan", "android": "https://dc.lft.to/lastmile_qr_scan"}, "lat": 38.953321833333334, "lon": -76.98246633333333, "fusion_lat": 0.0, "name": "dc7cedc3265195e045b7c41136553832", "is_disabled": 0, "is_reserved": 0, "bike_id": "dc7cedc3265195e045b7c41136553832", "fusion_lon": 0.0, "type": "electric_bike"}, {"rental_uris": {"ios": "https://dc.lft.to/lastmile_qr_scan", "android": "https://dc.lft.to/lastmile_qr_scan"}, "lat": 38.917783, "lon": -77.02310383333334, "fusion_lat": 0.0, "name": "079503b67a351c2bd92ee9c3606f57be", "is_disabled": 0, "is_reserved": 0, "bike_id": "079503b67a351c2bd92ee9c3606f57be", "fusion_lon": 0.0, "type": "electric_scooter"}, {"rental_uris": {"ios": "https://dc.lft.to/lastmile_qr_scan", "android": "https://dc.lft.to/lastmile_qr_scan"}, "lat": 38.90380616666667, "lon": -77.04202483333333, "fusion_lat": 0.0, "name": "e7691785449048b5841d77c39d2179ae", "is_disabled": 0, "is_reserved": 0, "bike_id": "e7691785449048b5841d77c39d2179ae", "fusion_lon": 0.0, "type": "electric_scooter"}, {"rental_uris": {"ios": "https://dc.lft.to/lastmile_qr_scan", "android": "https://dc.lft.to/lastmile_qr_scan"}, "lat": 38.92140066666666, "lon": -76.99548766666666, "fusion_lat": 0.0, "name": "f744387600f58d1545bdac0c2320c1da", "is_disabled": 0, "is_reserved": 0, "bike_id": "f744387600f58d1545bdac0c2320c1da", "fusion_lon": 0.0, "type": "electric_scooter"}, {"rental_uris": {"ios": "https://dc.lft.to/lastmile_qr_scan", "android": "https://dc.lft.to/lastmile_qr_scan"}, "lat": 38.93527433333333, "lon": -77.0335095, "fusion_lat": 0.0, "name": "d7578b6d206d215a29586ebbd11e66cf", "is_disabled": 0, "is_reserved": 0, "bike_id": "d7578b6d206d215a29586ebbd11e66cf", "fusion_lon": 0.0, "type": "electric_scooter"}, {"rental_uris": {"ios": "https://dc.lft.to/lastmile_qr_scan", "android": "https://dc.lft.to/lastmile_qr_scan"}, "lat": 38.922518, "lon": -77.04206133333334, "fusion_lat": 0.0, "name": "a63f21d893fa14b3ba3e613c1c6f4df1", "is_disabled": 0, "is_reserved": 0, "bike_id": "a63f21d893fa14b3ba3e613c1c6f4df1", "fusion_lon": 0.0, "type": "electric_scooter"}, {"rental_uris": {"ios": "https://dc.lft.to/lastmile_qr_scan", "android": "https://dc.lft.to/lastmile_qr_scan"}, "lat": 38.90086433333333, "lon": -77.04868083333334, "fusion_lat": 0.0, "name": "5a0996e19b294c072389610320fc2263", "is_disabled": 0, "is_reserved": 0, "bike_id": "5a0996e19b294c072389610320fc2263", "fusion_lon": 0.0, "type": "electric_bike"}, {"rental_uris": {"ios": "https://dc.lft.to/lastmile_qr_scan", "android": "https://dc.lft.to/lastmile_qr_scan"}, "lat": 38.934628833333335, "lon": -77.045319, "fusion_lat": 0.0, "name": "3a4c3c640086d7366dfd7b57129e1514", "is_disabled": 0, "is_reserved": 0, "bike_id": "3a4c3c640086d7366dfd7b57129e1514", "fusion_lon": 0.0, "type": "electric_scooter"}, {"rental_uris": {"ios": "https://dc.lft.to/lastmile_qr_scan", "android": "https://dc.lft.to/lastmile_qr_scan"}, "lat": 38.89921233333333, "lon": -76.93361616666667, "fusion_lat": 0.0, "name": "1ee84175960b4cc38970ef5d6481ec51", "is_disabled": 0, "is_reserved": 0, "bike_id": "1ee84175960b4cc38970ef5d6481ec51", "fusion_lon": 0.0, "type": "electric_scooter"}, {"rental_uris": {"ios": "https://dc.lft.to/lastmile_qr_scan", "android": "https://dc.lft.to/lastmile_qr_scan"}, "lat": 38.8985945, "lon": -77.041842, "fusion_lat": 0.0, "name": "8d8e5d57f50074a723f58fc0565b0274", "is_disabled": 0, "is_reserved": 0, "bike_id": "8d8e5d57f50074a723f58fc0565b0274", "fusion_lon": 0.0, "type": "electric_scooter"}, {"rental_uris": {"ios": "https://dc.lft.to/lastmile_qr_scan", "android": "https://dc.lft.to/lastmile_qr_scan"}, "lat": 38.928711666666665, "lon": -77.03746833333334, "fusion_lat": 0.0, "name": "fc84eef952055405426d23ee8744bcbc", "is_disabled": 0, "is_reserved": 0, "bike_id": "fc84eef952055405426d23ee8744bcbc", "fusion_lon": 0.0, "type": "electric_bike"}, {"rental_uris": {"ios": "https://dc.lft.to/lastmile_qr_scan", "android": "https://dc.lft.to/lastmile_qr_scan"}, "lat": 38.91561933333333, "lon": -77.02593483333334, "fusion_lat": 0.0, "name": "24b5740233906b9753f24684f9ff5b55", "is_disabled": 0, "is_reserved": 0, "bike_id": "24b5740233906b9753f24684f9ff5b55", "fusion_lon": 0.0, "type": "electric_scooter"}, {"rental_uris": {"ios": "https://dc.lft.to/lastmile_qr_scan", "android": "https://dc.lft.to/lastmile_qr_scan"}, "lat": 38.89860783333334, "lon": -77.03965966666667, "fusion_lat": 0.0, "name": "af93f3bcc596700706bdb86c7717f5bd", "is_disabled": 0, "is_reserved": 0, "bike_id": "af93f3bcc596700706bdb86c7717f5bd", "fusion_lon": 0.0, "type": "electric_scooter"},