{"data": {"bikes": [{"lat": 38.91881733333334, "is_disabled": 0, "type": "electric_scooter", "lon": -77.0445395, "bike_id": "fc347a19b197a288f1a534119753c317", "fusion_lat": 0.0, "name": "fc347a19b197a288f1a534119753c317", "is_reserved": 0, "rental_uris": {"android": "https://dc.lft.to/lastmile_qr_scan", "ios": "https://dc.lft.to/lastmile_qr_scan"}, "fusion_lon": 0.0}, {"lat": 38.91782533333333, "is_disabled": 0, "type": "electric_scooter", "lon": -77.0235565, "bike_id": "1906df8738e424889548e7e36218b627", "fusion_lat": 0.0, "name": "1906df8738e424889548e7e36218b627", "is_reserved": 0, "rental_uris": {"android": "https://dc.lft.to/lastmile_qr_scan", "ios": "https://dc.lft.to/lastmile_qr_scan"}, "fusion_lon": 0.0}, {"lat": 38.91682483333334, "is_disabled": 0, "type": "electric_scooter", "lon": -77.00204283333333, "bike_id": "191c13a15d49d0524ac8cbbb2ebfc67b", "fusion_lat": 0.0, "name": "191c13a15d49d0524ac8cbbb2ebfc67b", "is_reserved": 0, "rental_uris": {"android": "https://dc.lft.to/lastmile_qr_scan", "ios": "https://dc.lft.to/lastmile_qr_scan"}, "fusion_lon": 0.0}, {"lat": 38.88363483333333, "is_disabled": 0, "type": "electric_scooter", "lon": -76.94154666666667, "bike_id": "c5cc39946b5685ad5ab8bb1e12172aa5", "fusion_lat": 0.0, "name": "c5cc39946b5685ad5ab8bb1e12172aa5", "is_reserved": 0, "rental_uris": {"android": "https://dc.lft.to/lastmile_qr_scan", "ios": "https://dc.lft.to/lastmile_qr_scan"}, "fusion_lon": 0.0}, {"lat": 38.9883275, "is_disabled": 0, "type": "electric_bike", "lon": -76.99650066666666, "bike_id": "78f923f01fba78ddd0ce0f5b9bb401de", "fusion_lat": 0.0, "name": "78f923f01fba78ddd0ce0f5b9bb401de", "is_reserved": 0, "rental_uris": {"android": "https://dc.lft.to/lastmile_qr_scan", "ios": "https://dc.lft.to/lastmile_qr_scan"}, "fusion_lon": 0.0}, {"lat": 38.91762683333333, "is_disabled": 0, "type": "electric_scooter", "lon": -76.9763295, "bike_id": "7a43eae9cc5b01f9caaed54b8a41b98d", "fusion_lat": 0.0, "name": "7a43eae9cc5b01f9caaed54b8a41b98d", "is_reserved": 0, "rental_uris": {"android": "https://dc.lft.to/lastmile_qr_scan", "ios": "https://dc.lft.to/lastmile_qr_scan"}, "fusion_lon": 0.0}, {"lat": 38.94123583333333, "is_disabled": 0, "type": "electric_scooter", "lon": -77.000726, "bike_id": "f88dfbba0136e9c523882457d3b0d51c", "fusion_lat": 0.0, "name": "f88dfbba0136e9c523882457d3b0d51c", "is_reserved": 0, "rental_uris": {"android": "https://dc.lft.to/lastmile_qr_scan", "ios": "https://dc.lft.to/lastmile_qr_scan"}, "fusion_lon": 0.0}, {"lat": 38.907556666666665, "is_disabled": 0, "type": "electric_scooter", "lon": -77.00101766666667, "bike_id": "408f949470b8641185cb5646a9033f12", "fusion_lat": 0.0, "name": "408f949470b8641185cb5646a9033f12", "is_reserved": 0, "rental_uris": {"android": "https://dc.lft.to/lastmile_qr_scan", "ios": "https://dc.lft.to/lastmile_qr_scan"}, "fusion_lon": 0.0}, {"lat": 38.95886766666667, "is_disabled": 0, "type": "electric_bike", "lon": -76.9247145, "bike_id": "4bf89614fd49555ab8d8ed768705a776", "fusion_lat": 0.0, "name": "4bf89614fd49555ab8d8ed768705a776", "is_reserved": 0, "rental_uris": {"android": "https://dc.lft.to/lastmile_qr_scan", "ios": "https://dc.lft.to/lastmile_qr_scan"}, "fusion_lon": 0.0}, {"lat": 38.90615916666667, "is_disabled": 0, "type": "electric_scooter", "lon": -77.06278616666667, "bike_id": "18dda4a4f3fcdba46125e03236b6fc0d", "fusion_lat": 0.0, "name": "18dda4a4f3fcdba46125e03236b6fc0d", "is_reserved": 0, "rental_uris": {"android": "https://dc.lft.to/lastmile_qr_scan", "ios": "https://dc.lft.to/lastmile_qr_scan"}, "fusion_lon": 0.0}, {"lat": 38.932544166666666, "is_disabled": 0, "type": "electric_scooter", "lon": -77.03287, "bike_id": "48bfcd55bb081b4cd35223616d8cb786", "fusion_lat": 0.0, "name": "48bfcd55bb081b4cd35223616d8cb786", "is_reserved": 0, "rental_uris": {"android": "https://dc.lft.to/lastmile_qr_scan", "ios": "https://dc.lft.to/lastmile_qr_scan"}, "fusion_lon": 0.0}, {"lat": 38.9018635, "is_disabled": 0, "type": "electric_scooter", "lon": -77.02505383333333, "bike_id": "42a3e415628019ffa4ada2fa2fc7d6bc", "fusion_lat": 0.0, "name": "42a3e415628019ffa4ada2fa2fc7d6bc", "is_reserved": 0, "rental_uris": {"android": "https://dc.lft.to/lastmile_qr_scan", "ios": "https://dc.lft.to/lastmile_qr_scan"}, "fusion_lon": 0.0}, {"lat": 38.90810116666667, "is_disabled": 0, "type": "electric_scooter", "lon": -76.98275083333333, "bike_id": "1444709024b5260c6a0844389bf08af2", "fusion_lat": 0.0, "name": "1444709024b5260c6a0844389bf08af2", "is_reserved": 0, "rental_uris": {"android": "https://dc.lft.to/lastmile_qr_scan", "ios": "https://dc.lft.to/lastmile_qr_scan"}, "fusion_lon": 0.0}, {"lat": 38.95562016666667, "is_disabled": 0, "type": "electric_scooter", "lon": -77.0223705, "bike_id": "ffc8c35e66b186fb1d302f38457e4ab2", "fusion_lat": 0.0, "name": "ffc8c35e66b186fb1d302f38457e4ab2", "is_reserved": 0, "rental_uris": {"android": "https://dc.lft.to/lastmile_qr_scan", "ios": "https://dc.lft.to/lastmile_qr_scan"}, "fusion_lon": 0.0}, {"lat": 38.8656115, "is_disabled": 0, "type": "electric_scooter", "lon": -76.989534, "bike_id": "a3e524a594137afc3a21823e3e36aa71", "fusion_lat": 0.0, "name": "a3e524a594137afc3a21823e3e36aa71", "is_reserved": 0, "rental_uris": {"android": "https://dc.lft.to/lastmile_qr_scan", "ios": "https://dc.lft.to/lastmile_qr_scan"}, "fusion_lon": 0.0}, {"lat": 38.909157666666665, "is_disabled": 0, "type": "electric_scooter", "lon": -77.0364575, "bike_id": "186ae8e03dbb47f4d0d6537c89706e46", "fusion_lat": 0.0, "name": "186ae8e03dbb47f4d0d6537c89706e46", "is_reserved": 0, "rental_uris": {"android": "https://dc.lft.to/lastmile_qr_scan", "ios": "https://dc.lft.to/lastmile_qr_scan"}, "fusion_lon": 0.0}, {"lat": 38.9193965, "is_disabled": 0, "type": "electric_scooter", "lon": -77.0705585, "bike_id": "c5ebaf2e0d781e31d523b552b1ca592e", "fusion_lat": 0.0, "name": "c5ebaf2e0d781e31d523b552b1ca592e", "is_reserved": 0, "rental_uris": {"android": "https://dc.lft.to/lastmile_qr_scan", "ios": "https://dc.lft.to/lastmile_qr_scan"}, "fusion_lon": 0.0}, {"lat": 38.93360633333333, "is_disabled": 0, "type": "electric_scooter", "lon": -77.02494, "bike_id": "f013a7d5cf4217dacf0d0cfbd31216ea", "fusion_lat": 0.0, "name": "f013a7d5cf4217dacf0d0cfbd31216ea", "is_reserved": 0, "rental_uris": {"android": "https://dc.lft.to/lastmile_qr_scan", "ios": "https://dc.lft.to/lastmile_qr_scan"}, "fusion_lon": 0.0}, {"lat": 38.95402816666667, "is_disabled": 0, "type": "electric_scooter", "lon": -77.0274725, "bike_id": "8a5038bd73897c6f775088f4df7652b1", "fusion_lat": 0.0, "name": "8a5038bd73897c6f775088f4df7652b1", "is_reserved": 0, "rental_uris": {"android": "https://dc.lft.to/lastmile_qr_scan", "ios": "https://dc.lft.to/lastmile_qr_scan"}, "fusion_lon": 0.0}, {"lat": 38.892404666666664, "is_disabled": 0, "type": "electric_scooter", "lon": -77.05032933333334, "bike_id": "e20ba53324fc2b713d767a86d0095dd2", "fusion_lat": 0.0, "name": "e20ba53324fc2b713d767a86d0095dd2", "is_reserved": 0, "rental_uris": {"android": "https://dc.lft.to/lastmile_qr_scan", "ios": "https://dc.lft.to/lastmile_qr_scan"}, "fusion_lon": 0.0}, {"lat": 38.802698, "is_disabled": 0, "type": "electric_bike", "lon": -77.08113, "bike_id": "54a13e2f0a32975083517c92d36138b1", "fusion_lat": 0.0, "name": "54a13e2f0a32975083517c92d36138b1", "is_reserved": 0, "rental_uris": {"android": "https://dc.lft.to/lastmile_qr_scan", "ios": "https://dc.lft.to/lastmile_qr_scan"}, "fusion_lon": 0.0}, {"lat": 38.920498333333335, "is_disabled": 0, "type": "electric_scooter", "lon": -77.0236895, "bike_id": "bdac15e06a16f1542b2d7c1f2db04fef", "fusion_lat": 0.0, "name": "bdac15e06a16f1542b2d7c1f2db04fef", "is_reserved": 0, "rental_uris": {"android": "https://dc.lft.to/lastmile_qr_scan", "ios": "https://dc.lft.to/lastmile_qr_scan"}, "fusion_lon": 0.0}, {"lat": 38.862576, "is_disabled": 0, "type": "electric_scooter", "lon": -76.9951705, "bike_id": "18383c767d7772cf1acff5adfb7997ea", "fusion_lat": 0.0, "name": "18383c767d7772cf1acff5adfb7997ea", "is_reserved": 0, "rental_uris": {"android": "https://dc.lft.to/lastmile_qr_scan", "ios": "https://dc.lft.to/lastmile_qr_scan"}, "fusion_lon": 0.0}, {"lat": 38.9386365, "is_disabled": 0, "type": "electric_scooter", "lon": -77.02327216666667, "bike_id": "b2b86185e5f1b281cc01fbfbdb1c17e2", "fusion_lat": 0.0, "name": "b2b86185e5f1b281cc01fbfbdb1c17e2", "is_reserved": 0, "rental_uris": {"android": "https://dc.lft.to/lastmile_qr_scan", "ios": "https://dc.lft.to/lastmile_qr_scan"}, "fusion_lon": 0.0}, {"lat": 38.934601, "is_disabled": 0, "type": "electric_scooter", "lon": -77.02837983333333, "bike_id": "a40c24f0e2613a70ffda12b2eb4f03b8", "fusion_lat": 0.0, "name": "a40c24f0e2613a70ffda12b2eb4f03b8", "is_reserved": 0, "rental_uris": {"android": "https://dc.lft.to/lastmile_qr_scan", "ios": "https://dc.lft.to/lastmile_qr_scan"}, "fusion_lon": 0.0}, {"lat": 38.898845, "is_disabled": 0, "type": "electric_scooter", "lon": -76.9317725, "bike_id": "e1b48e4877c84bdc5f782d16f73d40f6", "fusion_lat": 0.0, "name": "e1b48e4877c84bdc5f782d16f73d40f6", "is_reserved": 0, "rental_uris": {"android": "https://dc.lft.to/lastmile_qr_scan", "ios": "https://dc.lft.to/lastmile_qr_scan"}, "fusion_lon": 0.0}, {"lat": 38.908335, "is_disabled": 0, "type": "electric_scooter", "lon": -77.06378466666666, "bike_id": "5bc2ad1ae29baffea98ea36519f4b622", "fusion_lat": 0.0, "name": "5bc2ad1ae29baffea98ea36519f4b622", "is_reserved": 0, "rental_uris": {"android": "https://dc.lft.to/lastmile_qr_scan", "ios": "https://dc.lft.to/lastmile_qr_scan"}, "fusion_lon": 0.0}, {"lat": 38.91932416666667, "is_disabled": 0, "type": "electric_scooter", "lon": -77.0230115, "bike_id": "f93b8c3e780ffb6068359d66ac25ab60", "fusion_lat": 0.0, "name": "f93b8c3e780ffb6068359d66ac25ab60", "is_reserved": 0, "rental_uris": {"android": "https://dc.lft.to/lastmile_qr_scan", "ios": "https://dc.lft.to/lastmile_qr_scan"}, "fusion_lon": 0.0}, {"lat": 38.9068395, "is_disabled": 0, "type": "electric_scooter", "lon": -77.037555, "bike_id": "30c173537d3d5edfb8ef6f40ed9d7211", "fusion_lat": 0.0, "name": "30c173537d3d5edfb8ef6f40ed9d7211", "is_reserved": 0, "rental_uris": {"android": "https://dc.lft.to/lastmile_qr_scan", "ios": "https://dc.lft.to/lastmile_qr_scan"}, "fusion_lon": 0.0}, {"lat": 38.8974085, "is_disabled": 0, "type": "electric_scooter", "lon": -77.04771216666667, "bike_id": "897a379b2e8e36eeeb82a56d5e24cdc1", "fusion_lat": 0.0, "name": "897a379b2e8e36eeeb82a56d5e24cdc1", "is_reserved": 0, "rental_uris": {"android": "https://dc.lft.to/lastmile_qr_scan", "ios": "https://dc.lft.to/lastmile_qr_scan"}, "fusion_lon": 0.0}, {"lat": 38.92239166666667, "is_disabled": 0, "type": "electric_scooter", "lon": -77.04575516666667, "bike_id": "9dcb04a1053abb7a2b8ef876c35e7b61", "fusion_lat": 0.0, "name": "9dcb04a1053abb7a2b8ef876c35e7b61", "is_reserved": 0, "rental_uris": {"android": "https://dc.lft.to/lastmile_qr_scan", "ios": "https://dc.lft.to/lastmile_qr_scan"}, "fusion_lon": 0.0}, {"lat": 38.900279, "is_disabled": 0, "type": "electric_scooter", "lon": -77.02593916666666, "bike_id": "5a55ebc28badc363299cebf8af9c8644", "fusion_lat": 0.0, "name": "5a55ebc28badc363299cebf8af9c8644", "is_reserved": 0, "rental_uris": {"android": "https://dc.lft.to/lastmile_qr_scan", "ios": "https://dc.lft.to/lastmile_qr_scan"}, "fusion_lon": 0.0}, {"lat": 38.913806666666666, "is_disabled": 0, "type": "electric_scooter", "lon": -77.0416515, "bike_id": "1035edbca44a51c3301e42e03728ef62", "fusion_lat": 0.0, "name": "1035edbca44a51c3301e42e03728ef62", "is_reserved": 0, "rental_uris": {"android": "https://dc.lft.to/lastmile_qr_scan", "ios": "https://dc.lft.to/lastmile_qr_scan"}, "fusion_lon": 0.0}, {"lat": 38.9323375, "is_disabled": 0, "type": "electric_scooter", "lon": -76.996071, "bike_id": "e122658bc0694ff83e197216ac872167", "fusion_lat": 0.0, "name": "e122658bc0694ff83e197216ac872167", "is_reserved": 0, "rental_uris": {"android": "https://dc.lft.to/lastmile_qr_scan", "ios": "https://dc.lft.to/lastmile_qr_scan"}, "fusion_lon": 0.0}, {"lat": 38.9017535, "is_disabled": 0, "type": "electric_scooter", "lon": -77.025165, "bike_id": "4c3cc0cfab80957ad3a4795093fb1704", "fusion_lat": 0.0, "name": "4c3cc0cfab80957ad3a4795093fb1704", "is_reserved": 0, "rental_uris": {"android": "https://dc.lft.to/lastmile_qr_scan", "ios": "https://dc.lft.to/lastmile_qr_scan"}, "fusion_lon": 0.0}, {"lat": 38.85051683333333, "is_disabled": 0, "type": "electric_bike", "lon": -76.97316266666667, "bike_id": "ea6cd7684fe0b1e49af43d396c86b248", "fusion_lat": 0.0, "name": "ea6cd7684fe0b1e49af43d396c86b248", "is_reserved": 0, "rental_uris": {"android": "https://dc.lft.to/lastmile_qr_scan", "ios": "https://dc.lft.to/lastmile_qr_scan"}, "fusion_lon": 0.0}, {"lat": 38.93336433333333, "is_disabled": 0, "type": "electric_bike", "lon": -77.04204033333333, "bike_id": "fbe55f714a62e3c20a780891a01024b3", "fusion_lat": 0.0, "name": "fbe55f714a62e3c20a780891a01024b3", "is_reserved": 0, "rental_uris": {"android": "https://dc.lft.to/lastmile_qr_scan", "ios": "https://dc.lft.to/lastmile_qr_scan"}, "fusion_lon": 0.0}, {"lat": 38.89716766666667, "is_disabled": 0, "type": "electric_scooter", "lon": -77.007975, "bike_id": "327ec1dd8b65dc1cb906a27dded71690", "fusion_lat": 0.0, "name": "327ec1dd8b65dc1cb906a27dded71690", "is_reserved": 0, "rental_uris": {"android": "https://dc.lft.to/lastmile_qr_scan", "ios": "https://dc.lft.to/lastmile_qr_scan"}, "fusion_lon": 0.0}, {"lat": 38.906739333333334, "is_disabled": 0, "type": "electric_scooter", "lon": -77.02719266666666, "bike_id": "d9a41255ca352475180facf065823f0c", "fusion_lat": 0.0, "name": "d9a41255ca352475180facf065823f0c", "is_reserved": 0, "rental_uris": {"android": "https://dc.lft.to/lastmile_qr_scan", "ios": "https://dc.lft.to/lastmile_qr_scan"}, "fusion_lon": 0.0}, {"lat": 38.8912025, "is_disabled": 0, "type": "electric_scooter", "lon": -76.94092366666666, "bike_id": "ae3a47916c43f4bfba9d8277558aef54", "fusion_lat": 0.0, "name": "ae3a47916c43f4bfba9d8277558aef54", "is_reserved": 0, "rental_uris": {"android": "https://dc.lft.to/lastmile_qr_scan", "ios": "https://dc.lft.to/lastmile_qr_scan"}, "fusion_lon": 0.0}, {"lat": 38.936769, "is_disabled": 0, "type": "electric_bike", "lon": -77.05574383333334, "bike_id": "cda557825e5a5674d2eef7d0b88227a0", "fusion_lat": 0.0, "name": "cda557825e5a5674d2eef7d0b88227a0", "is_reserved": 0, "rental_uris": {"android": "https://dc.lft.to/lastmile_qr_scan", "ios": "https://dc.lft.to/lastmile_qr_scan"}, "fusion_lon": 0.0}, {"lat": 38.919657666666666, "is_disabled": 0, "type": "electric_scooter", "lon": -77.04314666666667, "bike_id": "8d3378d8b846cee22bef33954ffef9f7", "fusion_lat": 0.0, "name": "8d3378d8b846cee22bef33954ffef9f7", "is_reserved": 0, "rental_uris": {"android": "https://dc.lft.to/lastmile_qr_scan", "ios": "https://dc.lft.to/lastmile_qr_scan"}, "fusion_lon": 0.0}, {"lat": 38.90276316666667, "is_disabled": 0, "type": "electric_scooter", "lon": -77.01940116666667, "bike_id": "83870a48523992a995c9f63f52dd6b6e", "fusion_lat": 0.0, "name": "83870a48523992a995c9f63f52dd6b6e", "is_reserved": 0, "rental_uris": {"android": "https://dc.lft.to/lastmile_qr_scan", "ios": "https://dc.lft.to/lastmile_qr_scan"}, "fusion_lon": 0.0}, {"lat": 38.924508833333334, "is_disabled": 0, "type": "electric_scooter", "lon": -77.04198116666667, "bike_id": "9a5d405954839d368e826f381552bc2d", "fusion_lat": 0.0, "name": "9a5d405954839d368e826f381552bc2d", "is_reserved": 0, "rental_uris": {"android": "https://dc.lft.to/lastmile_qr_scan", "ios": "https://dc.lft.to/lastmile_qr_scan"}, "fusion_lon": 0.0}, {"lat": 38.90143483333333, "is_disabled": 0, "type": "electric_scooter", "lon": -77.0007365, "bike_id": "8346cc2dfc741e463cdc04193e6c1840", "fusion_lat": 0.0, "name": "8346cc2dfc741e463cdc04193e6c1840", "is_reserved": 0, "rental_uris": {"android": "https://dc.lft.to/lastmile_qr_scan", "ios": "https://dc.lft.to/lastmile_qr_scan"}, "fusion_lon": 0.0}, {"lat": 38.90511933333333, "is_disabled": 0, "type": "electric_scooter", "lon": -77.02699016666666, "bike_id": "50557635803606ec1fe9960403837be2", "fusion_lat": 0.0, "name": "50557635803606ec1fe9960403837be2", "is_reserved": 0, "rental_uris": {"android": "https://dc.lft.to/lastmile_qr_scan", "ios": "https://dc.lft.to/lastmile_qr_scan"}, "fusion_lon": 0.0}, {"lat": 38.92223966666667, "is_disabled": 0, "type": "electric_scooter", "lon": -77.032984, "bike_id": "07f21be0a5a723a574143a52c1928a04", "fusion_lat": 0.0, "name": "07f21be0a5a723a574143a52c1928a04", "is_reserved": 0, "rental_uris": {"android": "https://dc.lft.to/lastmile_qr_scan", "ios": "https://dc.lft.to/lastmile_qr_scan"}, "fusion_lon": 0.0}, {"lat": 38.89998533333333, "is_disabled": 0, "type": "electric_scooter", "lon": -76.99854516666667, "bike_id": "84ee6e0de02b7d1df019d3bf2109b839", "fusion_lat": 0.0, "name": "84ee6e0de02b7d1df019d3bf2109b839", "is_reserved": 0, "rental_uris": {"android": "https://dc.lft.to/lastmile_qr_scan", "ios": "https://dc.lft.to/lastmile_qr_scan"}, "fusion_lon": 0.0}, {"lat": 39.01592983333333, "is_disabled": 0, "type": "electric_bike", "lon": -77.0443265, "bike_id": "7bf66fe684274a5b4e957788e50a0ea1", "fusion_lat": 0.0, "name": "7bf66fe684274a5b4e957788e50a0ea1", "is_reserved": 0, "rental_uris": {"android": "https://dc.lft.to/lastmile_qr_scan", "ios": "https://dc.lft.to/lastmile_qr_scan"}, "fusion_lon": 0.0}, {"lat": 38.961012333333336, "is_disabled": 0, "type": "electric_scooter", "lon": -77.08283983333334, "bike_id": "f4df2cb8630550f65e4385415db3c200", "fusion_lat": 0.0, "name": "f4df2cb8630550f65e4385415db3c200", "is_reserved": 0, "rental_uris": {"android": "https://dc.lft.to/lastmile_qr_scan", "ios": "https://dc.lft.to/lastmile_qr_scan"}, "fusion_lon": 0.0}, {"lat": 38.898108666666666, "is_disabled": 0, "type": "electric_scooter", "lon": -77.0006725, "bike_id": "e2f1cd27a17f60959b36ca07be385eda", "fusion_lat": 0.0, "name": "e2f1cd27a17f60959b36ca07be385eda", "is_reserved": 0, "rental_uris": {"android": "https://dc.lft.to/lastmile_qr_scan", "ios": "https://dc.lft.to/lastmile_qr_scan"}, "fusion_lon": 0.0}, {"lat": 38.88103533333334, "is_disabled": 0, "type": "electric_scooter", "lon": -76.9985825, "bike_id": "0887cd1f82c9e8e30bac382885d34c3d", "fusion_lat": 0.0, "name": "0887cd1f82c9e8e30bac382885d34c3d", "is_reserved": 0, "rental_uris": {"android": "https://dc.lft.to/lastmile_qr_scan", "ios": "https://dc.lft.to/lastmile_qr_scan"}, "fusion_lon": 0.0}, {"lat": 38.956269666666664, "is_disabled": 0, "type": "electric_bike", "lon": -76.93882233333333, "bike_id": "c150072dba3568330313757c95c6eb7e", "fusion_lat": 0.0, "name": "c150072dba3568330313757c95c6eb7e", "is_reserved": 0, "rental_uris": {"android": "https://dc.lft.to/lastmile_qr_scan", "ios": "https://dc.lft.to/lastmile_qr_scan"}, "fusion_lon": 0.0}, {"lat": 38.842814, "is_disabled": 0, "type": "electric_bike", "lon": -76.9885045, "bike_id": "de729b52ca35f25e7b29c25f217eed32", "fusion_lat": 0.0, "name": "de729b52ca35f25e7b29c25f217eed32", "is_reserved": 0, "rental_uris": {"android": "https://dc.lft.to/lastmile_qr_scan", "ios": "https://dc.lft.to/lastmile_qr_scan"}, "fusion_lon": 0.0}, {"lat": 38.90084083333333, "is_disabled": 0, "type": "electric_scooter", "lon": -77.049372, "bike_id": "5c4dc4996930d3e6d011069dbe237e66", "fusion_lat": 0.0, "name": "5c4dc4996930d3e6d011069dbe237e66", "is_reserved": 0, "rental_uris": {"android": "https://dc.lft.to/lastmile_qr_scan", "ios": "https://dc.lft.to/lastmile_qr_scan"}, "fusion_lon": 0.0}, {"lat": 38.90611833333333, "is_disabled": 0, "type": "electric_scooter", "lon": -77.01531666666666, "bike_id": "55af14cb4bbb9f1407a21a87fce24e15", "fusion_lat": 0.0, "name": "55af14cb4bbb9f1407a21a87fce24e15", "is_reserved": 0, "rental_uris": {"android": "https://dc.lft.to/lastmile_qr_scan", "ios": "https://dc.lft.to/lastmile_qr_scan"}, "fusion_lon": 0.0}, {"lat": 38.919634333333335, "is_disabled": 0, "type": "electric_scooter", "lon": -77.012139, "bike_id": "1630b124471209ae59db3b5dbc7aa698", "fusion_lat": 0.0, "name": "1630b124471209ae59db3b5dbc7aa698", "is_reserved": 0, "rental_uris": {"android": "https://dc.lft.to/lastmile_qr_scan", "ios": "https://dc.lft.to/lastmile_qr_scan"}, "fusion_lon": 0.0}, {"lat": 38.90371533333333, "is_disabled": 0, "type": "electric_scooter", "lon": -77.03120666666666, "bike_id": "e8a3985a69414a494c20eefe352da9e3", "fusion_lat": 0.0, "name": "e8a3985a69414a494c20eefe352da9e3", "is_reserved": 0, "rental_uris": {"android": "https://dc.lft.to/lastmile_qr_scan", "ios": "https://dc.lft.to/lastmile_qr_scan"}, "fusion_lon": 0.0}, {"lat": 38.92749583333333, "is_disabled": 0, "type": "electric_scooter", "lon": -76.99716283333333, "bike_id": "a953e4d7a544c6fcceb90050248e114d", "fusion_lat": 0.0, "name": "a953e4d7a544c6fcceb90050248e114d", "is_reserved": 0, "rental_uris": {"android": "https://dc.lft.to/lastmile_qr_scan", "ios": "https://dc.lft.to/lastmile_qr_scan"}, "fusion_lon": 0.0}, {"lat": 38.90155466666667, "is_disabled": 0, "type": "electric_scooter", "lon": -76.98634166666666, "bike_id": "6c6c947130fb0b51ae6981f3bb9fe8fd", "fusion_lat": 0.0, "name": "6c6c947130fb0b51ae6981f3bb9fe8fd", "is_reserved": 0, "rental_uris": {"android": "https://dc.lft.to/lastmile_qr_scan", "ios": "https://dc.lft.to/lastmile_qr_scan"}, "fusion_lon": 0.0}, {"lat": 38.9257295, "is_disabled": 0, "type": "electric_scooter", "lon": -77.05748583333333, "bike_id": "3cd2b3f62aa50ea39bcc7073cddc5092", "fusion_lat": 0.0, "name": "3cd2b3f62aa50ea39bcc7073cddc5092", "is_reserved": 0, "rental_uris": {"android": "https://dc.lft.to/lastmile_qr_scan", "ios": "https://dc.lft.to/lastmile_qr_scan"}, "fusion_lon": 0.0}, {"lat": 38.9036415, "is_disabled": 0, "type": "electric_scooter", "lon": -77.0034355, "bike_id": "e9cc780a449591229b99a48d680c7192", "fusion_lat": 0.0, "name": "e9cc780a449591229b99a48d680c7192", "is_reserved": 0, "rental_uris": {"android": "https://dc.lft.to/lastmile_qr_scan", "ios": "https://dc.lft.to/lastmile_qr_scan"}, "fusion_lon": 0.0}, {"lat": 38.897713833333334, "is_disabled": 0, "type": "electric_bike", "lon": -76.90436766666667, "bike_id": "672c4b40d768ca6520ba8b600513d944", "fusion_lat": 0.0, "name": "672c4b40d768ca6520ba8b600513d944", "is_reserved": 0, "rental_uris": {"android": "https://dc.lft.to/lastmile_qr_scan", "ios": "https://dc.lft.to/lastmile_qr_scan"}, "fusion_lon": 0.0}, {"lat": 38.89285983333333, "is_disabled": 0, "type": "electric_scooter", "lon": -76.95850866666666, "bike_id": "1d82b85b5a97c3bc8468aaa50b9ffce5", "fusion_lat": 0.0, "name": "1d82b85b5a97c3bc8468aaa50b9ffce5", "is_reserved": 0, "rental_uris": {"android": "https://dc.lft.to/lastmile_qr_scan", "ios": "https://dc.lft.to/lastmile_qr_scan"}, "fusion_lon": 0.0}, {"lat": 38.89996683333333, "is_disabled": 0, "type": "electric_scooter", "lon": -76.99961533333334, "bike_id": "13fa518f08bfb016d8565d261258338a", "fusion_lat": 0.0, "name": "13fa518f08bfb016d8565d261258338a", "is_reserved": 0, "rental_uris": {"android": "https://dc.lft.to/lastmile_qr_scan", "ios": "https://dc.lft.to/lastmile_qr_scan"}, "fusion_lon": 0.0}, {"lat": 38.8791875, "is_disabled": 0, "type": "electric_scooter", "lon": -77.00403133333333, "bike_id": "60608dcd784c2696a0273e2abded0a6f", "fusion_lat": 0.0, "name": "60608dcd784c2696a0273e2abded0a6f", "is_reserved": 0, "rental_uris": {"android": "https://dc.lft.to/lastmile_qr_scan", "ios": "https://dc.lft.to/lastmile_qr_scan"}, "fusion_lon": 0.0}, {"lat": 38.8926895, "is_disabled": 0, "type": "electric_scooter", "lon": -77.02027116666666, "bike_id": "dda9534e6ab1450aa0879feaa99f71fd", "fusion_lat": 0.0, "name": "dda9534e6ab1450aa0879feaa99f71fd", "is_reserved": 0, "rental_uris": {"android": "https://dc.lft.to/lastmile_qr_scan", "ios": "https://dc.lft.to/lastmile_qr_scan"}, "fusion_lon": 0.0}, {"lat": 38.92487033333333, "is_disabled": 0, "type": "electric_scooter", "lon": -77.0804655, "bike_id": "0907f5a9fc5e47a48dbdb3c2908f721b", "fusion_lat": 0.0, "name": "0907f5a9fc5e47a48dbdb3c2908f721b", "is_reserved": 0, "rental_uris": {"android": "https://dc.lft.to/lastmile_qr_scan", "ios": "https://dc.lft.to/lastmile_qr_scan"}, "fusion_lon": 0.0}, {"lat": 38.92956916666667, "is_disabled": 0, "type": "electric_scooter", "lon": -76.99088683333333, "bike_id": "2457f7ea6d14f4cefebbd3aa9c4e4f0e", "fusion_lat": 0.0, "name": "2457f7ea6d14f4cefebbd3aa9c4e4f0e", "is_reserved": 0, "rental_uris": {"android": "https://dc.lft.to/lastmile_qr_scan", "ios": "https://dc.lft.to/lastmile_qr_scan"}, "fusion_lon": 0.0}, {"lat": 38.91520033333333, "is_disabled": 0, "type": "electric_scooter", "lon": -77.03843866666666, "bike_id": "371ff1dbc2f8d603138856e3719f6d24", "fusion_lat": 0.0, "name": "371ff1dbc2f8d603138856e3719f6d24", "is_reserved": 0, "rental_uris": {"android": "https://dc.lft.to/lastmile_qr_scan", "ios": "https://dc.lft.to/lastmile_qr_scan"}, "fusion_lon": 0.0}, {"lat": 38.87471133333333, "is_disabled": 0, "type": "electric_scooter", "lon": -77.00518866666667, "bike_id": "0839dc99c958575dbb1836f8c531fa15", "fusion_lat": 0.0, "name": "0839dc99c958575dbb1836f8c531fa15", "is_reserved": 0, "rental_uris": {"android": "https://dc.lft.to/lastmile_qr_scan", "ios": "https://dc.lft.to/lastmile_qr_scan"}, "fusion_lon": 0.0}, {"lat": 38.896279666666665, "is_disabled": 0, "type": "electric_scooter", "lon": -77.04495683333333, "bike_id": "1dc1b2f1f1f2a2dd21400610ef08e3b9", "fusion_lat": 0.0, "name": "1dc1b2f1f1f2a2dd21400610ef08e3b9", "is_reserved": 0, "rental_uris": {"android": "https://dc.lft.to/lastmile_qr_scan", "ios": "https://dc.lft.to/lastmile_qr_scan"}, "fusion_lon": 0.0}, {"lat": 38.960671, "is_disabled": 0, "type": "electric_scooter", "lon": -77.0730165, "bike_id": "fd2fb0684b71cf44daa3b3925c9fbc2c", "fusion_lat": 0.0, "name": "fd2fb0684b71cf44daa3b3925c9fbc2c", "is_reserved": 0, "rental_uris": {"android": "https://dc.lft.to/lastmile_qr_scan", "ios": "https://dc.lft.to/lastmile_qr_scan"}, "fusion_lon": 0.0}, {"lat": 38.91346516666667, "is_disabled": 0, "type": "electric_scooter", "lon": -77.04283066666666, "bike_id": "a167413ce6a92018a8fc2bfd309d6046", "fusion_lat": 0.0, "name": "a167413ce6a92018a8fc2bfd309d6046", "is_reserved": 0, "rental_uris": {"android": "https://dc.lft.to/lastmile_qr_scan", "ios": "https://dc.lft.to/lastmile_qr_scan"}, "fusion_lon": 0.0}, {"lat": 38.914875333333335, "is_disabled": 0, "type": "electric_scooter", "lon": -77.032428, "bike_id": "e4455c56d78e3bcf11ab4818bc6e05d2", "fusion_lat": 0.0, "name": "e4455c56d78e3bcf11ab4818bc6e05d2", "is_reserved": 0, "rental_uris": {"android": "https://dc.lft.to/lastmile_qr_scan", "ios": "https://dc.lft.to/lastmile_qr_scan"}, "fusion_lon": 0.0}, {"lat": 38.892298833333335, "is_disabled": 0, "type": "electric_scooter", "lon": -77.050054, "bike_id": "77356de2e1f33173e4b94b03dcaad3f2", "fusion_lat": 0.0, "name": "77356de2e1f33173e4b94b03dcaad3f2", "is_reserved": 0, "rental_uris": {"android": "https://dc.lft.to/lastmile_qr_scan", "ios": "https://dc.lft.to/lastmile_qr_scan"}, "fusion_lon": 0.0}, {"lat": 38.91878033333333, "is_disabled": 0, "type": "electric_scooter", "lon": -77.0350105, "bike_id": "9669df00920e5285f01f195ae9971750", "fusion_lat": 0.0, "name": "9669df00920e5285f01f195ae9971750", "is_reserved": 0, "rental_uris": {"android": "https://dc.lft.to/lastmile_qr_scan", "ios": "https://dc.lft.to/lastmile_qr_scan"}, "fusion_lon": 0.0}, {"lat": 38.92662033333333, "is_disabled": 0, "type": "electric_scooter", "lon": -77.05599716666667, "bike_id": "385ee802cbb39dbb8a27f6300e1f3a31", "fusion_lat": 0.0, "name": "385ee802cbb39dbb8a27f6300e1f3a31", "is_reserved": 0, "rental_uris": {"android": "https://dc.lft.to/lastmile_qr_scan", "ios": "https://dc.lft.to/lastmile_qr_scan"}, "fusion_lon": 0.0}, {"lat": 38.8955875, "is_disabled": 0, "type": "electric_scooter", "lon": -76.93380966666666, "bike_id": "e474693483ba79d70e7464ca19a4b547", "fusion_lat": 0.0, "name": "e474693483ba79d70e7464ca19a4b547", "is_reserved": 0, "rental_uris": {"android": "https://dc.lft.to/lastmile_qr_scan", "ios": "https://dc.lft.to/lastmile_qr_scan"}, "fusion_lon": 0.0}, {"lat": 38.9353305, "is_disabled": 0, "type": "electric_scooter", "lon": -77.0235185, "bike_id": "730ce3221fc8fdcee14614f8e8499973", "fusion_lat": 0.0, "name": "730ce3221fc8fdcee14614f8e8499973", "is_reserved": 0, "rental_uris": {"android": "https://dc.lft.to/lastmile_qr_scan", "ios": "https://dc.lft.to/lastmile_qr_scan"}, "fusion_lon": 0.0}, {"lat": 38.876805, "is_disabled": 0, "type": "electric_bike", "lon": -77.0161615, "bike_id": "c03b201963931d1114e55f4df6cdb51f", "fusion_lat": 0.0, "name": "c03b201963931d1114e55f4df6cdb51f", "is_reserved": 0, "rental_uris": {"android": "https://dc.lft.to/lastmile_qr_scan", "ios": "https://dc.lft.to/lastmile_qr_scan"}, "fusion_lon": 0.0}, {"lat": 38.92856466666667, "is_disabled": 0, "type": "electric_scooter", "lon": -77.03000633333333, "bike_id": "c0f3f6990e3207289439521ec86a6483", "fusion_lat": 0.0, "name": "c0f3f6990e3207289439521ec86a6483", "is_reserved": 0, "rental_uris": {"android": "https://dc.lft.to/lastmile_qr_scan", "ios": "https://dc.lft.to/lastmile_qr_scan"}, "fusion_lon": 0.0}, {"lat": 38.90215533333333, "is_disabled": 0, "type": "electric_scooter", "lon": -76.98848, "bike_id": "f4a7bfc416146e2b81de906891053766", "fusion_lat": 0.0, "name": "f4a7bfc416146e2b81de906891053766", "is_reserved": 0, "rental_uris": {"android": "https://dc.lft.to/lastmile_qr_scan", "ios": "https://dc.lft.to/lastmile_qr_scan"}, "fusion_lon": 0.0}, {"lat": 38.90365366666666, "is_disabled": 0, "type": "electric_scooter", "lon": -76.97653516666666, "bike_id": "c44afb26be6cf8169c4f40e6f191e464", "fusion_lat": 0.0, "name": "c44afb26be6cf8169c4f40e6f191e464", "is_reserved": 0, "rental_uris": {"android": "https://dc.lft.to/lastmile_qr_scan", "ios": "https://dc.lft.to/lastmile_qr_scan"}, "fusion_lon": 0.0}, {"lat": 38.9259255, "is_disabled": 0, "type": "electric_scooter", "lon": -77.02492966666667, "bike_id": "4c289d707c3be9e28b229cc1ddafa112", "fusion_lat": 0.0, "name": "4c289d707c3be9e28b229cc1ddafa112", "is_reserved": 0, "rental_uris": {"android": "https://dc.lft.to/lastmile_qr_scan", "ios": "https://dc.lft.to/lastmile_qr_scan"}, "fusion_lon": 0.0}, {"lat": 38.900954, "is_disabled": 0, "type": "electric_scooter", "lon": -77.04934683333333, "bike_id": "1cac0aec54ea8278fbc5fb0c04f3575b", "fusion_lat": 0.0, "name": "1cac0aec54ea8278fbc5fb0c04f3575b", "is_reserved": 0, "rental_uris": {"android": "https://dc.lft.to/lastmile_qr_scan", "ios": "https://dc.lft.to/lastmile_qr_scan"}, "fusion_lon": 0.0}, {"lat": 38.939724, "is_disabled": 0, "type": "electric_scooter", "lon": -77.03587866666666, "bike_id": "a9b1e7b7b4c7f8834326c7d4d2c6fadf", "fusion_lat": 0.0, "name": "a9b1e7b7b4c7f8834326c7d4d2c6fadf", "is_reserved": 0, "rental_uris": {"android": "https://dc.lft.to/lastmile_qr_scan", "ios": "https://dc.lft.to/lastmile_qr_scan"}, "fusion_lon": 0.0}, {"lat": 38.92024933333333, "is_disabled": 0, "type": "electric_scooter", "lon": -77.0373235, "bike_id": "cc3acc31ad48f9cdd76553a8fd2a10d1", "fusion_lat": 0.0, "name": "cc3acc31ad48f9cdd76553a8fd2a10d1", "is_reserved": 0, "rental_uris": {"android": "https://dc.lft.to/lastmile_qr_scan", "ios": "https://dc.lft.to/lastmile_qr_scan"}, "fusion_lon": 0.0}, {"lat": 38.9565265, "is_disabled": 0, "type": "electric_scooter", "lon": -77.0240025, "bike_id": "82ac8073b1b5196f64741fd6990e0c90", "fusion_lat": 0.0, "name": "82ac8073b1b5196f64741fd6990e0c90", "is_reserved": 0, "rental_uris": {"android": "https://dc.lft.to/lastmile_qr_scan", "ios": "https://dc.lft.to/lastmile_qr_scan"}, "fusion_lon": 0.0}, {"lat": 38.957766666666664, "is_disabled": 0, "type": "electric_scooter", "lon": -77.02753033333333, "bike_id": "dce8b1eda3764de67496c979e514c5c5", "fusion_lat": 0.0, "name": "dce8b1eda3764de67496c979e514c5c5", "is_reserved": 0, "rental_uris": {"android": "https://dc.lft.to/lastmile_qr_scan", "ios": "https://dc.lft.to/lastmile_qr_scan"}, "fusion_lon": 0.0}, {"lat": 38.932865, "is_disabled": 0, "type": "electric_scooter", "lon": -77.03549416666667, "bike_id": "7b487cd636600cb76110b1c71141410e", "fusion_lat": 0.0, "name": "7b487cd636600cb76110b1c71141410e", "is_reserved": 0, "rental_uris": {"android": "https://dc.lft.to/lastmile_qr_scan", "ios": "https://dc.lft.to/lastmile_qr_scan"}, "fusion_lon": 0.0}, {"lat": 38.90878283333333, "is_disabled": 0, "type": "electric_scooter", "lon": -77.036629, "bike_id": "57aa10de41c16ffbe2fc11ef71e98819", "fusion_lat": 0.0, "name": "57aa10de41c16ffbe2fc11ef71e98819", "is_reserved": 0, "rental_uris": {"android": "https://dc.lft.to/lastmile_qr_scan", "ios": "https://dc.lft.to/lastmile_qr_scan"}, "fusion_lon": 0.0}, {"lat": 38.92589916666667, "is_disabled": 0, "type": "electric_scooter", "lon": -77.022636, "bike_id": "a09dedcafe9d8dd25377d07de5f0a959", "fusion_lat": 0.0, "name": "a09dedcafe9d8dd25377d07de5f0a959", "is_reserved": 0, "rental_uris": {"android": "https://dc.lft.to/lastmile_qr_scan", "ios": "https://dc.lft.to/lastmile_qr_scan"}, "fusion_lon": 0.0}, {"lat": 38.90112933333333, "is_disabled": 0, "type": "electric_scooter", "lon": -76.98637333333333, "bike_id": "29e8829f487b23036ba796e1d1a580f9", "fusion_lat": 0.0, "name": "29e8829f487b23036ba796e1d1a580f9", "is_reserved": 0, "rental_uris": {"android": "https://dc.lft.to/lastmile_qr_scan", "ios": "https://dc.lft.to/lastmile_qr_scan"}, "fusion_lon": 0.0}, {"lat": 38.900104, "is_disabled": 0, "type": "electric_scooter", "lon": -76.92233333333333, "bike_id": "a2fa7575418538fdab09e0c3589f94f5", "fusion_lat": 0.0, "name": "a2fa7575418538fdab09e0c3589f94f5", "is_reserved": 0, "rental_uris": {"android": "https://dc.lft.to/lastmile_qr_scan", "ios": "https://dc.lft.to/lastmile_qr_scan"}, "fusion_lon": 0.0}, {"lat": 38.900623833333334, "is_disabled": 0, "type": "electric_scooter", "lon": -77.02585283333333, "bike_id": "04f4bdc91bf67cdaa9e1e1ba78e17805", "fusion_lat": 0.0, "name": "04f4bdc91bf67cdaa9e1e1ba78e17805", "is_reserved": 0, "rental_uris": {"android": "https://dc.lft.to/lastmile_qr_scan", "ios": "https://dc.lft.to/lastmile_qr_scan"}, "fusion_lon": 0.0}, {"lat": 38.927520666666666, "is_disabled": 0, "type": "electric_scooter", "lon": -77.0296085, "bike_id": "d59b564da09bd32a70713343322e9466", "fusion_lat": 0.0, "name": "d59b564da09bd32a70713343322e9466", "is_reserved": 0, "rental_uris": {"android": "https://dc.lft.to/lastmile_qr_scan", "ios": "https://dc.lft.to/lastmile_qr_scan"}, "fusion_lon": 0.0}, {"lat": 38.93154116666667, "is_disabled": 0, "type": "electric_scooter", "lon": -77.021435, "bike_id": "07d0f1c84379db6f74adcd00242b3885", "fusion_lat": 0.0, "name": "07d0f1c84379db6f74adcd00242b3885", "is_reserved": 0, "rental_uris": {"android": "https://dc.lft.to/lastmile_qr_scan", "ios": "https://dc.lft.to/lastmile_qr_scan"}, "fusion_lon": 0.0}, {"lat": 38.915539333333335, "is_disabled": 0, "type": "electric_scooter", "lon": -77.02429916666667, "bike_id": "77992de6b1b99699fbf7cda0de44164a", "fusion_lat": 0.0, "name": "77992de6b1b99699fbf7cda0de44164a", "is_reserved": 0, "rental_uris": {"android": "https://dc.lft.to/lastmile_qr_scan", "ios": "https://dc.lft.to/lastmile_qr_scan"}, "fusion_lon": 0.0}, {"lat": 38.91447866666667, "is_disabled": 0, "type": "electric_scooter", "lon": -77.02971883333333, "bike_id": "fea5d9ab88473666bfc0c160089b79e6", "fusion_lat": 0.0, "name": "fea5d9ab88473666bfc0c160089b79e6", "is_reserved": 0, "rental_uris": {"android": "https://dc.lft.to/lastmile_qr_scan", "ios": "https://dc.lft.to/lastmile_qr_scan"}, "fusion_lon": 0.0}, {"lat": 38.8849665, "is_disabled": 0, "type": "electric_scooter", "lon": -77.0072755, "bike_id": "25818203b39adf64f0b68bc23c20fffb", "fusion_lat": 0.0, "name": "25818203b39adf64f0b68bc23c20fffb", "is_reserved": 0, "rental_uris": {"android": "https://dc.lft.to/lastmile_qr_scan", "ios": "https://dc.lft.to/lastmile_qr_scan"}, "fusion_lon": 0.0}, {"lat": 38.939596, "is_disabled": 0, "type": "electric_scooter", "lon": -77.02751166666667, "bike_id": "d6aaf41f59457b61c8530da9372cafd0", "fusion_lat": 0.0, "name": "d6aaf41f59457b61c8530da9372cafd0", "is_reserved": 0, "rental_uris": {"android": "https://dc.lft.to/lastmile_qr_scan", "ios": "https://dc.lft.to/lastmile_qr_scan"}, "fusion_lon": 0.0}, {"lat": 38.933403, "is_disabled": 0, "type": "electric_scooter", "lon": -76.99309333333333, "bike_id": "bc8e4aa9917fa701fdabea2e3c022c92", "fusion_lat": 0.0, "name": "bc8e4aa9917fa701fdabea2e3c022c92", "is_reserved": 0, "rental_uris": {"android": "https://dc.lft.to/lastmile_qr_scan", "ios": "https://dc.lft.to/lastmile_qr_scan"}, "fusion_lon": 0.0}, {"lat": 38.87084433333333, "is_disabled": 0, "type": "electric_scooter", "lon": -77.01115783333333, "bike_id": "baedfeab68dbfc63a399c21504aed3fb", "fusion_lat": 0.0, "name": "baedfeab68dbfc63a399c21504aed3fb", "is_reserved": 0, "rental_uris": {"android": "https://dc.lft.to/lastmile_qr_scan", "ios": "https://dc.lft.to/lastmile_qr_scan"}, "fusion_lon": 0.0}, {"lat": 38.948223166666665, "is_disabled": 0, "type": "electric_scooter", "lon": -76.999053, "bike_id": "d46354a04da7a3ee8261a8644b77b7bd", "fusion_lat": 0.0, "name": "d46354a04da7a3ee8261a8644b77b7bd", "is_reserved": 0, "rental_uris": {"android": "https://dc.lft.to/lastmile_qr_scan", "ios": "https://dc.lft.to/lastmile_qr_scan"}, "fusion_lon": 0.0}, {"lat": 38.91198333333333, "is_disabled": 0, "type": "electric_scooter", "lon": -77.00440083333334, "bike_id": "4806bd49c0e07fb7b0ceb03be922fcf9", "fusion_lat": 0.0, "name": "4806bd49c0e07fb7b0ceb03be922fcf9", "is_reserved": 0, "rental_uris": {"android": "https://dc.lft.to/lastmile_qr_scan", "ios": "https://dc.lft.to/lastmile_qr_scan"}, "fusion_lon": 0.0}, {"lat": 38.865074, "is_disabled": 0, "type": "electric_scooter", "lon": -76.99007566666667, "bike_id": "53c868369785963f97e2363076bd3925", "fusion_lat": 0.0, "name": "53c868369785963f97e2363076bd3925", "is_reserved": 0, "rental_uris": {"android": "https://dc.lft.to/lastmile_qr_scan", "ios": "https://dc.lft.to/lastmile_qr_scan"}, "fusion_lon": 0.0}, {"lat": 38.87858216666667, "is_disabled": 0, "type": "electric_bike", "lon": -77.017652, "bike_id": "2e8c1b4a9291eb5867ec0dfcae2478a8", "fusion_lat": 0.0, "name": "2e8c1b4a9291eb5867ec0dfcae2478a8", "is_reserved": 0, "rental_uris": {"android": "https://dc.lft.to/lastmile_qr_scan", "ios": "https://dc.lft.to/lastmile_qr_scan"}, "fusion_lon": 0.0}, {"lat": 38.916855, "is_disabled": 0, "type": "electric_scooter", "lon": -77.03205783333334, "bike_id": "dfd725e1e8fe1ffb7fb8033f6cd2527a", "fusion_lat": 0.0, "name": "dfd725e1e8fe1ffb7fb8033f6cd2527a", "is_reserved": 0, "rental_uris": {"android": "https://dc.lft.to/lastmile_qr_scan", "ios": "https://dc.lft.to/lastmile_qr_scan"}, "fusion_lon": 0.0}, {"lat": 38.876382166666666, "is_disabled": 0, "type": "electric_scooter", "lon": -77.00563983333333, "bike_id": "9450a1fdf542e3bb2e95ea1c973b8fcb", "fusion_lat": 0.0, "name": "9450a1fdf542e3bb2e95ea1c973b8fcb", "is_reserved": 0, "rental_uris": {"android": "https://dc.lft.to/lastmile_qr_scan", "ios": "https://dc.lft.to/lastmile_qr_scan"}, "fusion_lon": 0.0}, {"lat": 38.8967385, "is_disabled": 0, "type": "electric_scooter", "lon": -77.00515883333334, "bike_id": "bc4d0cf8aa878aa7a43ae05c59a07f3f", "fusion_lat": 0.0, "name": "bc4d0cf8aa878aa7a43ae05c59a07f3f", "is_reserved": 0, "rental_uris": {"android": "https://dc.lft.to/lastmile_qr_scan", "ios": "https://dc.lft.to/lastmile_qr_scan"}, "fusion_lon": 0.0}, {"lat": 38.9323675, "is_disabled": 0, "type": "electric_bike", "lon": -76.9742415, "bike_id": "b4d5b3c214801c1d92ded831ebefe4c5", "fusion_lat": 0.0, "name": "b4d5b3c214801c1d92ded831ebefe4c5", "is_reserved": 0, "rental_uris": {"android": "https://dc.lft.to/lastmile_qr_scan", "ios": "https://dc.lft.to/lastmile_qr_scan"}, "fusion_lon": 0.0}, {"lat": 38.91622133333333, "is_disabled": 0, "type": "electric_scooter", "lon": -77.03749216666667, "bike_id": "828036e10021c6d02206afda91fa92b9", "fusion_lat": 0.0, "name": "828036e10021c6d02206afda91fa92b9", "is_reserved": 0, "rental_uris": {"android": "https://dc.lft.to/lastmile_qr_scan", "ios": "https://dc.lft.to/lastmile_qr_scan"}, "fusion_lon": 0.0}, {"lat": 38.96228716666667, "is_disabled": 0, "type": "electric_bike", "lon": -77.02627, "bike_id": "45a15eead37e78ff0e8f4dcd7ecc25d3", "fusion_lat": 0.0, "name": "45a15eead37e78ff0e8f4dcd7ecc25d3", "is_reserved": 0, "rental_uris": {"android": "https://dc.lft.to/lastmile_qr_scan", "ios": "https://dc.lft.to/lastmile_qr_scan"}, "fusion_lon": 0.0}, {"lat": 38.92086233333333, "is_disabled": 0, "type": "electric_scooter", "lon": -77.02539, "bike_id": "c95a15a68c812113d57db3034a67e377", "fusion_lat": 0.0, "name": "c95a15a68c812113d57db3034a67e377", "is_reserved": 0, "rental_uris": {"android": "https://dc.lft.to/lastmile_qr_scan", "ios": "https://dc.lft.to/lastmile_qr_scan"}, "fusion_lon": 0.0}, {"lat": 38.921538, "is_disabled": 0, "type": "electric_scooter", "lon": -77.0338095, "bike_id": "62d81a4a36e11c03cadcf902ad2dac96", "fusion_lat": 0.0, "name": "62d81a4a36e11c03cadcf902ad2dac96", "is_reserved": 0, "rental_uris": {"android": "https://dc.lft.to/lastmile_qr_scan", "ios": "https://dc.lft.to/lastmile_qr_scan"}, "fusion_lon": 0.0}, {"lat": 38.90720533333333, "is_disabled": 0, "type": "electric_scooter", "lon": -76.99819066666667, "bike_id": "53bc89cb5b4cab79d3e974b6a1d5f8d8", "fusion_lat": 0.0, "name": "53bc89cb5b4cab79d3e974b6a1d5f8d8", "is_reserved": 0, "rental_uris": {"android": "https://dc.lft.to/lastmile_qr_scan", "ios": "https://dc.lft.to/lastmile_qr_scan"}, "fusion_lon": 0.0}, {"lat": 38.867009833333334, "is_disabled": 0, "type": "electric_scooter", "lon": -76.98714733333334, "bike_id": "a49216c3d37f1ffd61f380347159830e", "fusion_lat": 0.0, "name": "a49216c3d37f1ffd61f380347159830e", "is_reserved": 0, "rental_uris": {"android": "https://dc.lft.to/lastmile_qr_scan", "ios": "https://dc.lft.to/lastmile_qr_scan"}, "fusion_lon": 0.0}, {"lat": 38.917891166666664, "is_disabled": 0, "type": "electric_bike", "lon": -76.97190583333334, "bike_id": "888cfcc62d48de27c834af7585607abb", "fusion_lat": 0.0, "name": "888cfcc62d48de27c834af7585607abb", "is_reserved": 0, "rental_uris": {"android": "https://dc.lft.to/lastmile_qr_scan", "ios": "https://dc.lft.to/lastmile_qr_scan"}, "fusion_lon": 0.0}, {"lat": 38.917150666666664, "is_disabled": 0, "type": "electric_scooter", "lon": -77.03226183333334, "bike_id": "2691edfc713229880aeb00e73f8cd5c2", "fusion_lat": 0.0, "name": "2691edfc713229880aeb00e73f8cd5c2", "is_reserved": 0, "rental_uris": {"android": "https://dc.lft.to/lastmile_qr_scan", "ios": "https://dc.lft.to/lastmile_qr_scan"}, "fusion_lon": 0.0}, {"lat": 38.90577716666667, "is_disabled": 0, "type": "electric_scooter", "lon": -77.04865533333333, "bike_id": "5042da72055a7707ef4a6fbf1a2a526d", "fusion_lat": 0.0, "name": "5042da72055a7707ef4a6fbf1a2a526d", "is_reserved": 0, "rental_uris": {"android": "https://dc.lft.to/lastmile_qr_scan", "ios": "https://dc.lft.to/lastmile_qr_scan"}, "fusion_lon": 0.0}, {"lat": 38.86167416666667, "is_disabled": 0, "type": "electric_bike", "lon": -77.131486, "bike_id": "35f7f71faff9014fe955ced6b1e3239f", "fusion_lat": 0.0, "name": "35f7f71faff9014fe955ced6b1e3239f", "is_reserved": 0, "rental_uris": {"android": "https://dc.lft.to/lastmile_qr_scan", "ios": "https://dc.lft.to/lastmile_qr_scan"}, "fusion_lon": 0.0}, {"lat": 38.91111183333334, "is_disabled": 0, "type": "electric_scooter", "lon": -77.03833516666667, "bike_id": "dc7d301b238bfe3e04d6d075cee9ee1f", "fusion_lat": 0.0, "name": "dc7d301b238bfe3e04d6d075cee9ee1f", "is_reserved": 0, "rental_uris": {"android": "https://dc.lft.to/lastmile_qr_scan", "ios": "https://dc.lft.to/lastmile_qr_scan"}, "fusion_lon": 0.0}, {"lat": 38.92859383333333, "is_disabled": 0, "type": "electric_bike", "lon": -76.98939, "bike_id": "45351d9c287f712a7c790e2a17bc6e4a", "fusion_lat": 0.0, "name": "45351d9c287f712a7c790e2a17bc6e4a", "is_reserved": 0, "rental_uris": {"android": "https://dc.lft.to/lastmile_qr_scan", "ios": "https://dc.lft.to/lastmile_qr_scan"}, "fusion_lon": 0.0}, {"lat": 38.91788916666667, "is_disabled": 0, "type": "electric_scooter", "lon": -77.02309116666666, "bike_id": "f7e6434d2a403a48a86822b18db78e61", "fusion_lat": 0.0, "name": "f7e6434d2a403a48a86822b18db78e61", "is_reserved": 0, "rental_uris": {"android": "https://dc.lft.to/lastmile_qr_scan", "ios": "https://dc.lft.to/lastmile_qr_scan"}, "fusion_lon": 0.0}, {"lat": 38.90090566666667, "is_disabled": 0, "type": "electric_scooter", "lon": -77.00341366666666, "bike_id": "de222d7da96c1bab285c1a1521587abd", "fusion_lat": 0.0, "name": "de222d7da96c1bab285c1a1521587abd", "is_reserved": 0, "rental_uris": {"android": "https://dc.lft.to/lastmile_qr_scan", "ios": "https://dc.lft.to/lastmile_qr_scan"}, "fusion_lon": 0.0}, {"lat": 38.892515833333334, "is_disabled": 0, "type": "electric_scooter", "lon": -77.03348, "bike_id": "a6458e45f71c74e8406bb0ee7a1127c2", "fusion_lat": 0.0, "name": "a6458e45f71c74e8406bb0ee7a1127c2", "is_reserved": 0, "rental_uris": {"android": "https://dc.lft.to/lastmile_qr_scan", "ios": "https://dc.lft.to/lastmile_qr_scan"}, "fusion_lon": 0.0}, {"lat": 38.86256816666667, "is_disabled": 0, "type": "electric_scooter", "lon": -76.99517566666667, "bike_id": "8a215c5701c2eaa35ac918170de687ed", "fusion_lat": 0.0, "name": "8a215c5701c2eaa35ac918170de687ed", "is_reserved": 0, "rental_uris": {"android": "https://dc.lft.to/lastmile_qr_scan", "ios": "https://dc.lft.to/lastmile_qr_scan"}, "fusion_lon": 0.0}, {"lat": 38.925892833333336, "is_disabled": 0, "type": "electric_scooter", "lon": -77.04415383333334, "bike_id": "b9563d71fc2592f7e00b2352b371a6eb", "fusion_lat": 0.0, "name": "b9563d71fc2592f7e00b2352b371a6eb", "is_reserved": 0, "rental_uris": {"android": "https://dc.lft.to/lastmile_qr_scan", "ios": "https://dc.lft.to/lastmile_qr_scan"}, "fusion_lon": 0.0}, {"lat": 38.89851483333333, "is_disabled": 0, "type": "electric_scooter", "lon": -76.9903275, "bike_id": "0cf1e5412144023eaebd7eae5946f795", "fusion_lat": 0.0, "name": "0cf1e5412144023eaebd7eae5946f795", "is_reserved": 0, "rental_uris": {"android": "https://dc.lft.to/lastmile_qr_scan", "ios": "https://dc.lft.to/lastmile_qr_scan"}, "fusion_lon": 0.0}, {"lat": 38.90403516666667, "is_disabled": 0, "type": "electric_scooter", "lon": -77.03883133333333, "bike_id": "54618f8a59515324d9d78b2fb900206e", "fusion_lat": 0.0, "name": "54618f8a59515324d9d78b2fb900206e", "is_reserved": 0, "rental_uris": {"android": "https://dc.lft.to/lastmile_qr_scan", "ios": "https://dc.lft.to/lastmile_qr_scan"}, "fusion_lon": 0.0}, {"lat": 38.8973095, "is_disabled": 0, "type": "electric_scooter", "lon": -77.0498985, "bike_id": "ae9333470ce412a5c3b870f1c09f0709", "fusion_lat": 0.0, "name": "ae9333470ce412a5c3b870f1c09f0709", "is_reserved": 0, "rental_uris": {"android": "https://dc.lft.to/lastmile_qr_scan", "ios": "https://dc.lft.to/lastmile_qr_scan"}, "fusion_lon": 0.0}, {"lat": 38.936575, "is_disabled": 0, "type": "electric_bike", "lon": -76.95222666666666, "bike_id": "8fd369a4e54d0955a24b5d807bb75223", "fusion_lat": 0.0, "name": "8fd369a4e54d0955a24b5d807bb75223", "is_reserved": 0, "rental_uris": {"android": "https://dc.lft.to/lastmile_qr_scan", "ios": "https://dc.lft.to/lastmile_qr_scan"}, "fusion_lon": 0.0}, {"lat": 38.96431466666667, "is_disabled": 0, "type": "electric_bike", "lon": -77.02148916666667, "bike_id": "93f31c677553b5a0d20251929dd76734", "fusion_lat": 0.0, "name": "93f31c677553b5a0d20251929dd76734", "is_reserved": 0, "rental_uris": {"android": "https://dc.lft.to/lastmile_qr_scan", "ios": "https://dc.lft.to/lastmile_qr_scan"}, "fusion_lon": 0.0}, {"lat": 39.0342035, "is_disabled": 0, "type": "electric_bike", "lon": -77.04311366666667, "bike_id": "0fd86733aa54327758a25c6b6ae9fbe8", "fusion_lat": 0.0, "name": "0fd86733aa54327758a25c6b6ae9fbe8", "is_reserved": 0, "rental_uris": {"android": "https://dc.lft.to/lastmile_qr_scan", "ios": "https://dc.lft.to/lastmile_qr_scan"}, "fusion_lon": 0.0}, {"lat": 38.902447, "is_disabled": 0, "type": "electric_scooter", "lon": -77.01762866666667, "bike_id": "36429c7626a3c57604cea0623ffd7e0f", "fusion_lat": 0.0, "name": "36429c7626a3c57604cea0623ffd7e0f", "is_reserved": 0, "rental_uris": {"android": "https://dc.lft.to/lastmile_qr_scan", "ios": "https://dc.lft.to/lastmile_qr_scan"}, "fusion_lon": 0.0}, {"lat": 38.945530166666664, "is_disabled": 0, "type": "electric_bike", "lon": -76.8953895, "bike_id": "4717ff43ca3a48cbea20def45b99d559", "fusion_lat": 0.0, "name": "4717ff43ca3a48cbea20def45b99d559", "is_reserved": 0, "rental_uris": {"android": "https://dc.lft.to/lastmile_qr_scan", "ios": "https://dc.lft.to/lastmile_qr_scan"}, "fusion_lon": 0.0}, {"lat": 38.909759, "is_disabled": 0, "type": "electric_scooter", "lon": -77.048026, "bike_id": "582bfb7a912bf60016a4047e26707038", "fusion_lat": 0.0, "name": "582bfb7a912bf60016a4047e26707038", "is_reserved": 0, "rental_uris": {"android": "https://dc.lft.to/lastmile_qr_scan", "ios": "https://dc.lft.to/lastmile_qr_scan"}, "fusion_lon": 0.0}, {"lat": 38.908405333333334, "is_disabled": 0, "type": "electric_scooter", "lon": -77.04013616666667, "bike_id": "fadc71094b46c9d072748f7d69b4702b", "fusion_lat": 0.0, "name": "fadc71094b46c9d072748f7d69b4702b", "is_reserved": 0, "rental_uris": {"android": "https://dc.lft.to/lastmile_qr_scan", "ios": "https://dc.lft.to/lastmile_qr_scan"}, "fusion_lon": 0.0}, {"lat": 38.99258916666667, "is_disabled": 0, "type": "electric_scooter", "lon": -77.0365725, "bike_id": "ce3024f92add4c3fcdf9ad50f9a28013", "fusion_lat": 0.0, "name": "ce3024f92add4c3fcdf9ad50f9a28013", "is_reserved": 0, "rental_uris": {"android": "https://dc.lft.to/lastmile_qr_scan", "ios": "https://dc.lft.to/lastmile_qr_scan"}, "fusion_lon": 0.0}, {"lat": 38.90554516666667, "is_disabled": 0, "type": "electric_scooter", "lon": -77.00591366666667, "bike_id": "5bc77316640c39523e3e5bd79b2971c1", "fusion_lat": 0.0, "name": "5bc77316640c39523e3e5bd79b2971c1", "is_reserved": 0, "rental_uris": {"android": "https://dc.lft.to/lastmile_qr_scan", "ios": "https://dc.lft.to/lastmile_qr_scan"}, "fusion_lon": 0.0}, {"lat": 38.9193385, "is_disabled": 0, "type": "electric_scooter", "lon": -77.07070583333334, "bike_id": "e42ff771de5dd052b81a75eb9e5825a1", "fusion_lat": 0.0, "name": "e42ff771de5dd052b81a75eb9e5825a1", "is_reserved": 0, "rental_uris": {"android": "https://dc.lft.to/lastmile_qr_scan", "ios": "https://dc.lft.to/lastmile_qr_scan"}, "fusion_lon": 0.0}, {"lat": 38.84432366666667, "is_disabled": 0, "type": "electric_scooter", "lon": -76.9966485, "bike_id": "7b17dbe65ee0fcd0a8c8cee09913304f", "fusion_lat": 0.0, "name": "7b17dbe65ee0fcd0a8c8cee09913304f", "is_reserved": 0, "rental_uris": {"android": "https://dc.lft.to/lastmile_qr_scan", "ios": "https://dc.lft.to/lastmile_qr_scan"}, "fusion_lon": 0.0}, {"lat": 38.93734416666667, "is_disabled": 0, "type": "electric_scooter", "lon": -77.03613066666666, "bike_id": "0a1f30573c30be752ee55a4dd14f66ff", "fusion_lat": 0.0, "name": "0a1f30573c30be752ee55a4dd14f66ff", "is_reserved": 0, "rental_uris": {"android": "https://dc.lft.to/lastmile_qr_scan", "ios": "https://dc.lft.to/lastmile_qr_scan"}, "fusion_lon": 0.0}, {"lat": 38.9072745, "is_disabled": 0, "type": "electric_scooter", "lon": -77.03989183333333, "bike_id": "02b8e32dac1f73a391602774695d64b3", "fusion_lat": 0.0, "name": "02b8e32dac1f73a391602774695d64b3", "is_reserved": 0, "rental_uris": {"android": "https://dc.lft.to/lastmile_qr_scan", "ios": "https://dc.lft.to/lastmile_qr_scan"}, "fusion_lon": 0.0}, {"lat": 38.851857333333335, "is_disabled": 0, "type": "electric_scooter", "lon": -76.976189, "bike_id": "fc4bc5a0320161aa5c0d676392ff2219", "fusion_lat": 0.0, "name": "fc4bc5a0320161aa5c0d676392ff2219", "is_reserved": 0, "rental_uris": {"android": "https://dc.lft.to/lastmile_qr_scan", "ios": "https://dc.lft.to/lastmile_qr_scan"}, "fusion_lon": 0.0}, {"lat": 38.91911616666667, "is_disabled": 0, "type": "electric_scooter", "lon": -77.04181683333333, "bike_id": "9f438778d550ad9a56dbe2a7302e9150", "fusion_lat": 0.0, "name": "9f438778d550ad9a56dbe2a7302e9150", "is_reserved": 0, "rental_uris": {"android": "https://dc.lft.to/lastmile_qr_scan", "ios": "https://dc.lft.to/lastmile_qr_scan"}, "fusion_lon": 0.0}, {"lat": 38.80061883333333, "is_disabled": 0, "type": "electric_bike", "lon": -77.071209, "bike_id": "abc52debe1338190d50b110271740976", "fusion_lat": 0.0, "name": "abc52debe1338190d50b110271740976", "is_reserved": 0, "rental_uris": {"android": "https://dc.lft.to/lastmile_qr_scan", "ios": "https://dc.lft.to/lastmile_qr_scan"}, "fusion_lon": 0.0}, {"lat": 38.86654083333333, "is_disabled": 0, "type": "electric_scooter", "lon": -76.98885566666667, "bike_id": "6c80efcc62c099e6fce683a468490219", "fusion_lat": 0.0, "name": "6c80efcc62c099e6fce683a468490219", "is_reserved": 0, "rental_uris": {"android": "https://dc.lft.to/lastmile_qr_scan", "ios": "https://dc.lft.to/lastmile_qr_scan"}, "fusion_lon": 0.0}, {"lat": 38.9348995, "is_disabled": 0, "type": "electric_bike", "lon": -76.9865275, "bike_id": "857ce655df20eb9538878cf06192863c", "fusion_lat": 0.0, "name": "857ce655df20eb9538878cf06192863c", "is_reserved": 0, "rental_uris": {"android": "https://dc.lft.to/lastmile_qr_scan", "ios": "https://dc.lft.to/lastmile_qr_scan"}, "fusion_lon": 0.0}, {"lat": 38.88490933333333, "is_disabled": 0, "type": "electric_scooter", "lon": -77.00709366666666, "bike_id": "be2914ef1eddcb97c952d01d2b5f70ca", "fusion_lat": 0.0, "name": "be2914ef1eddcb97c952d01d2b5f70ca", "is_reserved": 0, "rental_uris": {"android": "https://dc.lft.to/lastmile_qr_scan", "ios": "https://dc.lft.to/lastmile_qr_scan"}, "fusion_lon": 0.0}, {"lat": 38.886887, "is_disabled": 0, "type": "electric_scooter", "lon": -77.01298916666667, "bike_id": "4ccb4f51d4903d45f8dd789de30626d9", "fusion_lat": 0.0, "name": "4ccb4f51d4903d45f8dd789de30626d9", "is_reserved": 0, "rental_uris": {"android": "https://dc.lft.to/lastmile_qr_scan", "ios": "https://dc.lft.to/lastmile_qr_scan"}, "fusion_lon": 0.0}, {"lat": 38.91420683333333, "is_disabled": 0, "type": "electric_scooter", "lon": -77.02202733333333, "bike_id": "374f49340bcdc19a629f51ca85706c9c", "fusion_lat": 0.0, "name": "374f49340bcdc19a629f51ca85706c9c", "is_reserved": 0, "rental_uris": {"android": "https://dc.lft.to/lastmile_qr_scan", "ios": "https://dc.lft.to/lastmile_qr_scan"}, "fusion_lon": 0.0}, {"lat": 38.90861, "is_disabled": 0, "type": "electric_scooter", "lon": -77.0036385, "bike_id": "79ae8dd2f2b118e4e3cfaee3decedcc0", "fusion_lat": 0.0, "name": "79ae8dd2f2b118e4e3cfaee3decedcc0", "is_reserved": 0, "rental_uris": {"android": "https://dc.lft.to/lastmile_qr_scan", "ios": "https://dc.lft.to/lastmile_qr_scan"}, "fusion_lon": 0.0}, {"lat": 38.903969333333336, "is_disabled": 0, "type": "electric_scooter", "lon": -76.98466766666667, "bike_id": "5f9d9d32bc18a1470c2909e5e73f3c5f", "fusion_lat": 0.0, "name": "5f9d9d32bc18a1470c2909e5e73f3c5f", "is_reserved": 0, "rental_uris": {"android": "https://dc.lft.to/lastmile_qr_scan", "ios": "https://dc.lft.to/lastmile_qr_scan"}, "fusion_lon": 0.0}, {"lat": 38.926803166666666, "is_disabled": 0, "type": "electric_scooter", "lon": -77.00746183333334, "bike_id": "12e4ec6288b49080461ca66232fc85e7", "fusion_lat": 0.0, "name": "12e4ec6288b49080461ca66232fc85e7", "is_reserved": 0, "rental_uris": {"android": "https://dc.lft.to/lastmile_qr_scan", "ios": "https://dc.lft.to/lastmile_qr_scan"}, "fusion_lon": 0.0}, {"lat": 38.916700666666664, "is_disabled": 0, "type": "electric_scooter", "lon": -77.02402133333334, "bike_id": "27de5995c9ed463d2884495fe9228ccf", "fusion_lat": 0.0, "name": "27de5995c9ed463d2884495fe9228ccf", "is_reserved": 0, "rental_uris": {"android": "https://dc.lft.to/lastmile_qr_scan", "ios": "https://dc.lft.to/lastmile_qr_scan"}, "fusion_lon": 0.0}, {"lat": 38.902675333333335, "is_disabled": 0, "type": "electric_scooter", "lon": -77.02837783333334, "bike_id": "9df80798fb230555ed72687ab2d9b480", "fusion_lat": 0.0, "name": "9df80798fb230555ed72687ab2d9b480", "is_reserved": 0, "rental_uris": {"android": "https://dc.lft.to/lastmile_qr_scan", "ios": "https://dc.lft.to/lastmile_qr_scan"}, "fusion_lon": 0.0}, {"lat": 38.8935595, "is_disabled": 0, "type": "electric_scooter", "lon": -77.03988733333334, "bike_id": "467434938d9390f9fb83e672b92690b7", "fusion_lat": 0.0, "name": "467434938d9390f9fb83e672b92690b7", "is_reserved": 0, "rental_uris": {"android": "https://dc.lft.to/lastmile_qr_scan", "ios": "https://dc.lft.to/lastmile_qr_scan"}, "fusion_lon": 0.0}, {"lat": 38.96228, "is_disabled": 0, "type": "electric_bike", "lon": -77.026306, "bike_id": "3fc3b95beb28718560ea7eb6e9efe48f", "fusion_lat": 0.0, "name": "3fc3b95beb28718560ea7eb6e9efe48f", "is_reserved": 0, "rental_uris": {"android": "https://dc.lft.to/lastmile_qr_scan", "ios": "https://dc.lft.to/lastmile_qr_scan"}, "fusion_lon": 0.0}, {"lat": 38.892197833333334, "is_disabled": 0, "type": "electric_bike", "lon": -77.10779983333333, "bike_id": "2e35047ece713417b55c4fde4424943e", "fusion_lat": 0.0, "name": "2e35047ece713417b55c4fde4424943e", "is_reserved": 0, "rental_uris": {"android": "https://dc.lft.to/lastmile_qr_scan", "ios": "https://dc.lft.to/lastmile_qr_scan"}, "fusion_lon": 0.0}, {"lat": 38.913417, "is_disabled": 0, "type": "electric_scooter", "lon": -77.01265966666666, "bike_id": "de6c789821b828a04c5adb0c1bb06eda", "fusion_lat": 0.0, "name": "de6c789821b828a04c5adb0c1bb06eda", "is_reserved": 0, "rental_uris": {"android": "https://dc.lft.to/lastmile_qr_scan", "ios": "https://dc.lft.to/lastmile_qr_scan"}, "fusion_lon": 0.0}, {"lat": 38.931976666666664, "is_disabled": 0, "type": "electric_scooter", "lon": -77.023546, "bike_id": "c9ae765ce75f7745043a18478867433f", "fusion_lat": 0.0, "name": "c9ae765ce75f7745043a18478867433f", "is_reserved": 0, "rental_uris": {"android": "https://dc.lft.to/lastmile_qr_scan", "ios": "https://dc.lft.to/lastmile_qr_scan"}, "fusion_lon": 0.0}, {"lat": 38.886904666666666, "is_disabled": 0, "type": "electric_scooter", "lon": -77.01764566666667, "bike_id": "1f36ef6bee3994d4a79e0e1f17e70368", "fusion_lat": 0.0, "name": "1f36ef6bee3994d4a79e0e1f17e70368", "is_reserved": 0, "rental_uris": {"android": "https://dc.lft.to/lastmile_qr_scan", "ios": "https://dc.lft.to/lastmile_qr_scan"}, "fusion_lon": 0.0}, {"lat": 38.894987, "is_disabled": 0, "type": "electric_scooter", "lon": -77.00213766666667, "bike_id": "2f0c04a0adeb677a9943249ab85b4afe", "fusion_lat": 0.0, "name": "2f0c04a0adeb677a9943249ab85b4afe", "is_reserved": 0, "rental_uris": {"android": "https://dc.lft.to/lastmile_qr_scan", "ios": "https://dc.lft.to/lastmile_qr_scan"}, "fusion_lon": 0.0}, {"lat": 38.89843166666667, "is_disabled": 0, "type": "electric_scooter", "lon": -76.9950435, "bike_id": "72daf73ada649f98d63214a12a6e48b8", "fusion_lat": 0.0, "name": "72daf73ada649f98d63214a12a6e48b8", "is_reserved": 0, "rental_uris": {"android": "https://dc.lft.to/lastmile_qr_scan", "ios": "https://dc.lft.to/lastmile_qr_scan"}, "fusion_lon": 0.0}, {"lat": 38.922426333333334, "is_disabled": 0, "type": "electric_scooter", "lon": -77.04346283333334, "bike_id": "78208b7e03aa02b381fbe7e78c103f87", "fusion_lat": 0.0, "name": "78208b7e03aa02b381fbe7e78c103f87", "is_reserved": 0, "rental_uris": {"android": "https://dc.lft.to/lastmile_qr_scan", "ios": "https://dc.lft.to/lastmile_qr_scan"}, "fusion_lon": 0.0}, {"lat": 38.9168435, "is_disabled": 0, "type": "electric_scooter", "lon": -77.02942733333333, "bike_id": "f9c921091239ef75b1d6392a962796b2", "fusion_lat": 0.0, "name": "f9c921091239ef75b1d6392a962796b2", "is_reserved": 0, "rental_uris": {"android": "https://dc.lft.to/lastmile_qr_scan", "ios": "https://dc.lft.to/lastmile_qr_scan"}, "fusion_lon": 0.0}, {"lat": 38.90670316666667, "is_disabled": 0, "type": "electric_scooter", "lon": -77.03647616666667, "bike_id": "2a830b05005895773a1bc891aec7b9fe", "fusion_lat": 0.0, "name": "2a830b05005895773a1bc891aec7b9fe", "is_reserved": 0, "rental_uris": {"android": "https://dc.lft.to/lastmile_qr_scan", "ios": "https://dc.lft.to/lastmile_qr_scan"}, "fusion_lon": 0.0}, {"lat": 38.916138333333336, "is_disabled": 0, "type": "electric_scooter", "lon": -77.03640216666666, "bike_id": "d336481640eb34fbe0f93e778b7b3e44", "fusion_lat": 0.0, "name": "d336481640eb34fbe0f93e778b7b3e44", "is_reserved": 0, "rental_uris": {"android": "https://dc.lft.to/lastmile_qr_scan", "ios": "https://dc.lft.to/lastmile_qr_scan"}, "fusion_lon": 0.0}, {"lat": 38.92381833333334, "is_disabled": 0, "type": "electric_scooter", "lon": -77.05752783333334, "bike_id": "55ad22f202f8c575be50aa30c4def4b1", "fusion_lat": 0.0, "name": "55ad22f202f8c575be50aa30c4def4b1", "is_reserved": 0, "rental_uris": {"android": "https://dc.lft.to/lastmile_qr_scan", "ios": "https://dc.lft.to/lastmile_qr_scan"}, "fusion_lon": 0.0}, {"lat": 38.9156255, "is_disabled": 0, "type": "electric_scooter", "lon": -77.03850766666666, "bike_id": "447d78e8aabc0e07387969525b38e00b", "fusion_lat": 0.0, "name": "447d78e8aabc0e07387969525b38e00b", "is_reserved": 0, "rental_uris": {"android": "https://dc.lft.to/lastmile_qr_scan", "ios": "https://dc.lft.to/lastmile_qr_scan"}, "fusion_lon": 0.0}, {"lat": 38.954976, "is_disabled": 0, "type": "electric_scooter", "lon": -77.06562516666666, "bike_id": "d6eb42b5bf7f50e254bd55db983b0e18", "fusion_lat": 0.0, "name": "d6eb42b5bf7f50e254bd55db983b0e18", "is_reserved": 0, "rental_uris": {"android": "https://dc.lft.to/lastmile_qr_scan", "ios": "https://dc.lft.to/lastmile_qr_scan"}, "fusion_lon": 0.0}, {"lat": 38.91202833333333, "is_disabled": 0, "type": "electric_scooter", "lon": -77.01463433333333, "bike_id": "edf32b8be5511608acb9cb630e1fc44c", "fusion_lat": 0.0, "name": "edf32b8be5511608acb9cb630e1fc44c", "is_reserved": 0, "rental_uris": {"android": "https://dc.lft.to/lastmile_qr_scan", "ios": "https://dc.lft.to/lastmile_qr_scan"}, "fusion_lon": 0.0}, {"lat": 38.95262433333333, "is_disabled": 0, "type": "electric_scooter", "lon": -77.0698905, "bike_id": "f88037d9516db268a38faae956da300b", "fusion_lat": 0.0, "name": "f88037d9516db268a38faae956da300b", "is_reserved": 0, "rental_uris": {"android": "https://dc.lft.to/lastmile_qr_scan", "ios": "https://dc.lft.to/lastmile_qr_scan"}, "fusion_lon": 0.0}, {"lat": 38.908535, "is_disabled": 0, "type": "electric_scooter", "lon": -77.00626683333333, "bike_id": "6c8b3834466d1e84202a77abf2f932af", "fusion_lat": 0.0, "name": "6c8b3834466d1e84202a77abf2f932af", "is_reserved": 0, "rental_uris": {"android": "https://dc.lft.to/lastmile_qr_scan", "ios": "https://dc.lft.to/lastmile_qr_scan"}, "fusion_lon": 0.0}, {"lat": 38.91799866666667, "is_disabled": 0, "type": "electric_bike", "lon": -77.22344533333333, "bike_id": "324d035cf57d77da0513e6877306b7bf", "fusion_lat": 0.0, "name": "324d035cf57d77da0513e6877306b7bf", "is_reserved": 0, "rental_uris": {"android": "https://dc.lft.to/lastmile_qr_scan", "ios": "https://dc.lft.to/lastmile_qr_scan"}, "fusion_lon": 0.0}, {"lat": 38.8968215, "is_disabled": 0, "type": "electric_scooter", "lon": -77.0512755, "bike_id": "79d58258953529434a10609f6fef5a73", "fusion_lat": 0.0, "name": "79d58258953529434a10609f6fef5a73", "is_reserved": 0, "rental_uris": {"android": "https://dc.lft.to/lastmile_qr_scan", "ios": "https://dc.lft.to/lastmile_qr_scan"}, "fusion_lon": 0.0}, {"lat": 38.926435833333336, "is_disabled": 0, "type": "electric_scooter", "lon": -77.04314016666666, "bike_id": "9cecb8d78db6b61c7301008f00946067", "fusion_lat": 0.0, "name": "9cecb8d78db6b61c7301008f00946067", "is_reserved": 0, "rental_uris": {"android": "https://dc.lft.to/lastmile_qr_scan", "ios": "https://dc.lft.to/lastmile_qr_scan"}, "fusion_lon": 0.0}, {"lat": 38.92893766666667, "is_disabled": 0, "type": "electric_bike", "lon": -77.05779916666667, "bike_id": "3b42fef4036bcc4608b2b62f07300d1d", "fusion_lat": 0.0, "name": "3b42fef4036bcc4608b2b62f07300d1d", "is_reserved": 0, "rental_uris": {"android": "https://dc.lft.to/lastmile_qr_scan", "ios": "https://dc.lft.to/lastmile_qr_scan"}, "fusion_lon": 0.0}, {"lat": 38.930346, "is_disabled": 0, "type": "electric_scooter", "lon": -77.02959533333333, "bike_id": "e139acf92dffa622975cac52d0c326cf", "fusion_lat": 0.0, "name": "e139acf92dffa622975cac52d0c326cf", "is_reserved": 0, "rental_uris": {"android": "https://dc.lft.to/lastmile_qr_scan", "ios": "https://dc.lft.to/lastmile_qr_scan"}, "fusion_lon": 0.0}, {"lat": 38.937858, "is_disabled": 0, "type": "electric_scooter", "lon": -77.0245865, "bike_id": "6cbe4251ca397f0c07a4e942305bb759", "fusion_lat": 0.0, "name": "6cbe4251ca397f0c07a4e942305bb759", "is_reserved": 0, "rental_uris": {"android": "https://dc.lft.to/lastmile_qr_scan", "ios": "https://dc.lft.to/lastmile_qr_scan"}, "fusion_lon": 0.0}, {"lat": 38.90389166666667, "is_disabled": 0, "type": "electric_scooter", "lon": -77.01769433333334, "bike_id": "35d8038e7506c40430b2698ea8758281", "fusion_lat": 0.0, "name": "35d8038e7506c40430b2698ea8758281", "is_reserved": 0, "rental_uris": {"android": "https://dc.lft.to/lastmile_qr_scan", "ios": "https://dc.lft.to/lastmile_qr_scan"}, "fusion_lon": 0.0}, {"lat": 38.93650516666666, "is_disabled": 0, "type": "electric_scooter", "lon": -77.03659316666666, "bike_id": "74dfa5a5120cf7a1b0e445e3ac2827fc", "fusion_lat": 0.0, "name": "74dfa5a5120cf7a1b0e445e3ac2827fc", "is_reserved": 0, "rental_uris": {"android": "https://dc.lft.to/lastmile_qr_scan", "ios": "https://dc.lft.to/lastmile_qr_scan"}, "fusion_lon": 0.0}, {"lat": 38.99816833333333, "is_disabled": 0, "type": "electric_bike", "lon": -76.88378316666666, "bike_id": "97a7e473a277ea26174c60aa23291e6f", "fusion_lat": 0.0, "name": "97a7e473a277ea26174c60aa23291e6f", "is_reserved": 0, "rental_uris": {"android": "https://dc.lft.to/lastmile_qr_scan", "ios": "https://dc.lft.to/lastmile_qr_scan"}, "fusion_lon": 0.0}, {"lat": 38.91316783333333, "is_disabled": 0, "type": "electric_scooter", "lon": -76.98644016666667, "bike_id": "86639aff22a905ba6e9fbe118f9d1092", "fusion_lat": 0.0, "name": "86639aff22a905ba6e9fbe118f9d1092", "is_reserved": 0, "rental_uris": {"android": "https://dc.lft.to/lastmile_qr_scan", "ios": "https://dc.lft.to/lastmile_qr_scan"}, "fusion_lon": 0.0}, {"lat": 38.951592833333336, "is_disabled": 0, "type": "electric_scooter", "lon": -77.067727, "bike_id": "f086f2e52a23107879db9c93004971b0", "fusion_lat": 0.0, "name": "f086f2e52a23107879db9c93004971b0", "is_reserved": 0, "rental_uris": {"android": "https://dc.lft.to/lastmile_qr_scan", "ios": "https://dc.lft.to/lastmile_qr_scan"}, "fusion_lon": 0.0}, {"lat": 38.901421166666665, "is_disabled": 0, "type": "electric_scooter", "lon": -77.0290465, "bike_id": "400ebc6fc47509cd8379aa1eacb66a4f", "fusion_lat": 0.0, "name": "400ebc6fc47509cd8379aa1eacb66a4f", "is_reserved": 0, "rental_uris": {"android": "https://dc.lft.to/lastmile_qr_scan", "ios": "https://dc.lft.to/lastmile_qr_scan"}, "fusion_lon": 0.0}, {"lat": 39.030451, "is_disabled": 0, "type": "electric_bike", "lon": -77.09473033333333, "bike_id": "de8bee1434b7a35e8aa7c0d1ed3d4899", "fusion_lat": 0.0, "name": "de8bee1434b7a35e8aa7c0d1ed3d4899", "is_reserved": 0, "rental_uris": {"android": "https://dc.lft.to/lastmile_qr_scan", "ios": "https://dc.lft.to/lastmile_qr_scan"}, "fusion_lon": 0.0}, {"lat": 38.902016, "is_disabled": 0, "type": "electric_scooter", "lon": -77.0237695, "bike_id": "3230422ff3bc000e09a4bbd828b86030", "fusion_lat": 0.0, "name": "3230422ff3bc000e09a4bbd828b86030", "is_reserved": 0, "rental_uris": {"android": "https://dc.lft.to/lastmile_qr_scan", "ios": "https://dc.lft.to/lastmile_qr_scan"}, "fusion_lon": 0.0}, {"lat": 39.0243855, "is_disabled": 0, "type": "electric_bike", "lon": -77.13104066666666, "bike_id": "3fbb82bb160297c1d06db279b867a01b", "fusion_lat": 0.0, "name": "3fbb82bb160297c1d06db279b867a01b", "is_reserved": 0, "rental_uris": {"android": "https://dc.lft.to/lastmile_qr_scan", "ios": "https://dc.lft.to/lastmile_qr_scan"}, "fusion_lon": 0.0}, {"lat": 38.949772333333335, "is_disabled": 0, "type": "electric_scooter", "lon": -77.067625, "bike_id": "0f914a84fae9d8c735192842a87a7675", "fusion_lat": 0.0, "name": "0f914a84fae9d8c735192842a87a7675", "is_reserved": 0, "rental_uris": {"android": "https://dc.lft.to/lastmile_qr_scan", "ios": "https://dc.lft.to/lastmile_qr_scan"}, "fusion_lon": 0.0}, {"lat": 38.90628566666667, "is_disabled": 0, "type": "electric_scooter", "lon": -76.98702416666667, "bike_id": "d1f137d04a4d9090b6e6241ac0bce04d", "fusion_lat": 0.0, "name": "d1f137d04a4d9090b6e6241ac0bce04d", "is_reserved": 0, "rental_uris": {"android": "https://dc.lft.to/lastmile_qr_scan", "ios": "https://dc.lft.to/lastmile_qr_scan"}, "fusion_lon": 0.0}, {"lat": 38.8973115, "is_disabled": 0, "type": "electric_scooter", "lon": -77.04991766666667, "bike_id": "53f00d77ce5c33d2e1386761e2cff81c", "fusion_lat": 0.0, "name": "53f00d77ce5c33d2e1386761e2cff81c", "is_reserved": 0, "rental_uris": {"android": "https://dc.lft.to/lastmile_qr_scan", "ios": "https://dc.lft.to/lastmile_qr_scan"}, "fusion_lon": 0.0}, {"lat": 38.90982016666667, "is_disabled": 0, "type": "electric_scooter", "lon": -77.03442416666667, "bike_id": "e402be1bac95a44996a102cc784a3ff2", "fusion_lat": 0.0, "name": "e402be1bac95a44996a102cc784a3ff2", "is_reserved": 0, "rental_uris": {"android": "https://dc.lft.to/lastmile_qr_scan", "ios": "https://dc.lft.to/lastmile_qr_scan"}, "fusion_lon": 0.0}, {"lat": 38.90014933333333, "is_disabled": 0, "type": "electric_scooter", "lon": -77.01201616666667, "bike_id": "45c41e98d8690a2ef6197216cdbe8e5b", "fusion_lat": 0.0, "name": "45c41e98d8690a2ef6197216cdbe8e5b", "is_reserved": 0, "rental_uris": {"android": "https://dc.lft.to/lastmile_qr_scan", "ios": "https://dc.lft.to/lastmile_qr_scan"}, "fusion_lon": 0.0}, {"lat": 38.9257595, "is_disabled": 0, "type": "electric_scooter", "lon": -76.98611166666667, "bike_id": "b4a4fbd16bb054ebdc8e58d5104c728a", "fusion_lat": 0.0, "name": "b4a4fbd16bb054ebdc8e58d5104c728a", "is_reserved": 0, "rental_uris": {"android": "https://dc.lft.to/lastmile_qr_scan", "ios": "https://dc.lft.to/lastmile_qr_scan"}, "fusion_lon": 0.0}, {"lat": 38.84288816666667, "is_disabled": 0, "type": "electric_scooter", "lon": -76.9994575, "bike_id": "22ac014cf9df19b93e9ab74dea11ac22", "fusion_lat": 0.0, "name": "22ac014cf9df19b93e9ab74dea11ac22", "is_reserved": 0, "rental_uris": {"android": "https://dc.lft.to/lastmile_qr_scan", "ios": "https://dc.lft.to/lastmile_qr_scan"}, "fusion_lon": 0.0}, {"lat": 38.934945, "is_disabled": 0, "type": "electric_scooter", "lon": -77.03621266666667, "bike_id": "cf5c834f794dcb0e82174ce73f3ba4bc", "fusion_lat": 0.0, "name": "cf5c834f794dcb0e82174ce73f3ba4bc", "is_reserved": 0, "rental_uris": {"android": "https://dc.lft.to/lastmile_qr_scan", "ios": "https://dc.lft.to/lastmile_qr_scan"}, "fusion_lon": 0.0}, {"lat": 38.923751833333334, "is_disabled": 0, "type": "electric_scooter", "lon": -77.0293665, "bike_id": "8e93014d49976ddd14558b273d35c0c7", "fusion_lat": 0.0, "name": "8e93014d49976ddd14558b273d35c0c7", "is_reserved": 0, "rental_uris": {"android": "https://dc.lft.to/lastmile_qr_scan", "ios": "https://dc.lft.to/lastmile_qr_scan"}, "fusion_lon": 0.0}, {"lat": 38.90138283333334, "is_disabled": 0, "type": "electric_scooter", "lon": -77.03350583333334, "bike_id": "43820a9a575d82e3996396f7875b45c6", "fusion_lat": 0.0, "name": "43820a9a575d82e3996396f7875b45c6", "is_reserved": 0, "rental_uris": {"android": "https://dc.lft.to/lastmile_qr_scan", "ios": "https://dc.lft.to/lastmile_qr_scan"}, "fusion_lon": 0.0}, {"lat": 38.902702, "is_disabled": 0, "type": "electric_scooter", "lon": -77.05354083333333, "bike_id": "5985c6f8a7e05cfd2d99cbaaa07a5fc1", "fusion_lat": 0.0, "name": "5985c6f8a7e05cfd2d99cbaaa07a5fc1", "is_reserved": 0, "rental_uris": {"android": "https://dc.lft.to/lastmile_qr_scan", "ios": "https://dc.lft.to/lastmile_qr_scan"}, "fusion_lon": 0.0}, {"lat": 38.877807833333335, "is_disabled": 0, "type": "electric_scooter", "lon": -76.99511383333333, "bike_id": "cc9cf745833238ba8d4aa92c631d4ef6", "fusion_lat": 0.0, "name": "cc9cf745833238ba8d4aa92c631d4ef6", "is_reserved": 0, "rental_uris": {"android": "https://dc.lft.to/lastmile_qr_scan", "ios": "https://dc.lft.to/lastmile_qr_scan"}, "fusion_lon": 0.0}, {"lat": 38.994257166666664, "is_disabled": 0, "type": "electric_bike", "lon": -77.03249933333333, "bike_id": "91e3e28a6a31955650feeb7399db3ff7", "fusion_lat": 0.0, "name": "91e3e28a6a31955650feeb7399db3ff7", "is_reserved": 0, "rental_uris": {"android": "https://dc.lft.to/lastmile_qr_scan", "ios": "https://dc.lft.to/lastmile_qr_scan"}, "fusion_lon": 0.0}, {"lat": 38.88491916666667, "is_disabled": 0, "type": "electric_scooter", "lon": -77.00707433333334, "bike_id": "841322ed4f36cf9f0d0564693a51c800", "fusion_lat": 0.0, "name": "841322ed4f36cf9f0d0564693a51c800", "is_reserved": 0, "rental_uris": {"android": "https://dc.lft.to/lastmile_qr_scan", "ios": "https://dc.lft.to/lastmile_qr_scan"}, "fusion_lon": 0.0}, {"lat": 38.9201625, "is_disabled": 0, "type": "electric_scooter", "lon": -77.0239185, "bike_id": "6afeaf5599910378d47c55e72e217d42", "fusion_lat": 0.0, "name": "6afeaf5599910378d47c55e72e217d42", "is_reserved": 0, "rental_uris": {"android": "https://dc.lft.to/lastmile_qr_scan", "ios": "https://dc.lft.to/lastmile_qr_scan"}, "fusion_lon": 0.0}, {"lat": 38.92791583333333, "is_disabled": 0, "type": "electric_scooter", "lon": -77.02600033333333, "bike_id": "3ca3756030153fc1be889b12ccd0c914", "fusion_lat": 0.0, "name": "3ca3756030153fc1be889b12ccd0c914", "is_reserved": 0, "rental_uris": {"android": "https://dc.lft.to/lastmile_qr_scan", "ios": "https://dc.lft.to/lastmile_qr_scan"}, "fusion_lon": 0.0}, {"lat": 38.932813333333335, "is_disabled": 0, "type": "electric_scooter", "lon": -77.02671, "bike_id": "a8ac770c3d8188851de5953c83e712de", "fusion_lat": 0.0, "name": "a8ac770c3d8188851de5953c83e712de", "is_reserved": 0, "rental_uris": {"android": "https://dc.lft.to/lastmile_qr_scan", "ios": "https://dc.lft.to/lastmile_qr_scan"}, "fusion_lon": 0.0}, {"lat": 38.899520333333335, "is_disabled": 0, "type": "electric_scooter", "lon": -77.05202683333333, "bike_id": "5e8d6405d30b0845a0a9ccf98140286f", "fusion_lat": 0.0, "name": "5e8d6405d30b0845a0a9ccf98140286f", "is_reserved": 0, "rental_uris": {"android": "https://dc.lft.to/lastmile_qr_scan", "ios": "https://dc.lft.to/lastmile_qr_scan"}, "fusion_lon": 0.0}, {"lat": 38.92115016666666, "is_disabled": 0, "type": "electric_scooter", "lon": -77.04697, "bike_id": "5f3e9fad4eac585044ba1ceb7a9f3058", "fusion_lat": 0.0, "name": "5f3e9fad4eac585044ba1ceb7a9f3058", "is_reserved": 0, "rental_uris": {"android": "https://dc.lft.to/lastmile_qr_scan", "ios": "https://dc.lft.to/lastmile_qr_scan"}, "fusion_lon": 0.0}, {"lat": 38.91973433333333, "is_disabled": 0, "type": "electric_scooter", "lon": -77.03332583333334, "bike_id": "b0bf9d5c2cfc1964f9aa7058d86c4303", "fusion_lat": 0.0, "name": "b0bf9d5c2cfc1964f9aa7058d86c4303", "is_reserved": 0, "rental_uris": {"android": "https://dc.lft.to/lastmile_qr_scan", "ios": "https://dc.lft.to/lastmile_qr_scan"}, "fusion_lon": 0.0}, {"lat": 38.863724, "is_disabled": 0, "type": "electric_scooter", "lon": -76.990321, "bike_id": "fd971089648452df91fc333eefb0ce3b", "fusion_lat": 0.0, "name": "fd971089648452df91fc333eefb0ce3b", "is_reserved": 0, "rental_uris": {"android": "https://dc.lft.to/lastmile_qr_scan", "ios": "https://dc.lft.to/lastmile_qr_scan"}, "fusion_lon": 0.0}, {"lat": 38.897521833333336, "is_disabled": 0, "type": "electric_scooter", "lon": -77.02257133333333, "bike_id": "1276f8595780cbc7e23854bd662eb505", "fusion_lat": 0.0, "name": "1276f8595780cbc7e23854bd662eb505", "is_reserved": 0, "rental_uris": {"android": "https://dc.lft.to/lastmile_qr_scan", "ios": "https://dc.lft.to/lastmile_qr_scan"}, "fusion_lon": 0.0}, {"lat": 38.93384283333333, "is_disabled": 0, "type": "electric_scooter", "lon": -76.9951285, "bike_id": "e8a3ce6d4df66df710617d57858ee65b", "fusion_lat": 0.0, "name": "e8a3ce6d4df66df710617d57858ee65b", "is_reserved": 0, "rental_uris": {"android": "https://dc.lft.to/lastmile_qr_scan", "ios": "https://dc.lft.to/lastmile_qr_scan"}, "fusion_lon": 0.0}, {"lat": 38.885361333333336, "is_disabled": 0, "type": "electric_scooter", "lon": -76.9827095, "bike_id": "25e9acb0f22846123af04108e787bbe3", "fusion_lat": 0.0, "name": "25e9acb0f22846123af04108e787bbe3", "is_reserved": 0, "rental_uris": {"android": "https://dc.lft.to/lastmile_qr_scan", "ios": "https://dc.lft.to/lastmile_qr_scan"}, "fusion_lon": 0.0}, {"lat": 38.9190845, "is_disabled": 0, "type": "electric_scooter", "lon": -77.04459616666666, "bike_id": "7f036762f667d61438ce14ba09f38b8d", "fusion_lat": 0.0, "name": "7f036762f667d61438ce14ba09f38b8d", "is_reserved": 0, "rental_uris": {"android": "https://dc.lft.to/lastmile_qr_scan", "ios": "https://dc.lft.to/lastmile_qr_scan"}, "fusion_lon": 0.0}, {"lat": 38.802285166666664, "is_disabled": 0, "type": "electric_bike", "lon": -77.07917133333333, "bike_id": "85cb37b1ab1937d54ea8de54185355e8", "fusion_lat": 0.0, "name": "85cb37b1ab1937d54ea8de54185355e8", "is_reserved": 0, "rental_uris": {"android": "https://dc.lft.to/lastmile_qr_scan", "ios": "https://dc.lft.to/lastmile_qr_scan"}, "fusion_lon": 0.0}, {"lat": 38.92744166666667, "is_disabled": 0, "type": "electric_bike", "lon": -77.03427, "bike_id": "fbd560b7bf8a64a51e6294d9c0136cc3", "fusion_lat": 0.0, "name": "fbd560b7bf8a64a51e6294d9c0136cc3", "is_reserved": 0, "rental_uris": {"android": "https://dc.lft.to/lastmile_qr_scan", "ios": "https://dc.lft.to/lastmile_qr_scan"}, "fusion_lon": 0.0}, {"lat": 38.957331333333336, "is_disabled": 0, "type": "electric_scooter", "lon": -77.02404366666667, "bike_id": "49bc73573e960869187ab4741b9df8e7", "fusion_lat": 0.0, "name": "49bc73573e960869187ab4741b9df8e7", "is_reserved": 0, "rental_uris": {"android": "https://dc.lft.to/lastmile_qr_scan", "ios": "https://dc.lft.to/lastmile_qr_scan"}, "fusion_lon": 0.0}, {"lat": 38.92356383333333, "is_disabled": 0, "type": "electric_scooter", "lon": -77.04147983333333, "bike_id": "9f8ab1820f13807bce63abd863857c8f", "fusion_lat": 0.0, "name": "9f8ab1820f13807bce63abd863857c8f", "is_reserved": 0, "rental_uris": {"android": "https://dc.lft.to/lastmile_qr_scan", "ios": "https://dc.lft.to/lastmile_qr_scan"}, "fusion_lon": 0.0}, {"lat": 38.946314, "is_disabled": 0, "type": "electric_scooter", "lon": -77.025208, "bike_id": "dec182c14afe06ed4468fd63b8a85176", "fusion_lat": 0.0, "name": "dec182c14afe06ed4468fd63b8a85176", "is_reserved": 0, "rental_uris": {"android": "https://dc.lft.to/lastmile_qr_scan", "ios": "https://dc.lft.to/lastmile_qr_scan"}, "fusion_lon": 0.0}, {"lat": 38.92298266666667, "is_disabled": 0, "type": "electric_scooter", "lon": -77.0426755, "bike_id": "d729fb831654492deca845c586be1fa9", "fusion_lat": 0.0, "name": "d729fb831654492deca845c586be1fa9", "is_reserved": 0, "rental_uris": {"android": "https://dc.lft.to/lastmile_qr_scan", "ios": "https://dc.lft.to/lastmile_qr_scan"}, "fusion_lon": 0.0}, {"lat": 38.897474333333335, "is_disabled": 0, "type": "electric_scooter", "lon": -77.04675766666666, "bike_id": "078b6e59b90291479f59d3b2aa9829ec", "fusion_lat": 0.0, "name": "078b6e59b90291479f59d3b2aa9829ec", "is_reserved": 0, "rental_uris": {"android": "https://dc.lft.to/lastmile_qr_scan", "ios": "https://dc.lft.to/lastmile_qr_scan"}, "fusion_lon": 0.0}, {"lat": 38.92758033333333, "is_disabled": 0, "type": "electric_scooter", "lon": -77.0242105, "bike_id": "2bcde4889cdfe12804df58106a15b1d1", "fusion_lat": 0.0, "name": "2bcde4889cdfe12804df58106a15b1d1", "is_reserved": 0, "rental_uris": {"android": "https://dc.lft.to/lastmile_qr_scan", "ios": "https://dc.lft.to/lastmile_qr_scan"}, "fusion_lon": 0.0}, {"lat": 38.901468, "is_disabled": 0, "type": "electric_scooter", "lon": -77.00073183333333, "bike_id": "93b8b75df36e9a49c42b771119bb5c67", "fusion_lat": 0.0, "name": "93b8b75df36e9a49c42b771119bb5c67", "is_reserved": 0, "rental_uris": {"android": "https://dc.lft.to/lastmile_qr_scan", "ios": "https://dc.lft.to/lastmile_qr_scan"}, "fusion_lon": 0.0}, {"lat": 38.9014815, "is_disabled": 0, "type": "electric_scooter", "lon": -77.05101916666666, "bike_id": "164c136c6e11403f94048a5c5db83b5b", "fusion_lat": 0.0, "name": "164c136c6e11403f94048a5c5db83b5b", "is_reserved": 0, "rental_uris": {"android": "https://dc.lft.to/lastmile_qr_scan", "ios": "https://dc.lft.to/lastmile_qr_scan"}, "fusion_lon": 0.0}, {"lat": 38.89420483333333, "is_disabled": 0, "type": "electric_scooter", "lon": -77.02090083333333, "bike_id": "e4886d748f88931c112f31d91ed2ad0a", "fusion_lat": 0.0, "name": "e4886d748f88931c112f31d91ed2ad0a", "is_reserved": 0, "rental_uris": {"android": "https://dc.lft.to/lastmile_qr_scan", "ios": "https://dc.lft.to/lastmile_qr_scan"}, "fusion_lon": 0.0}, {"lat": 38.957375166666665, "is_disabled": 0, "type": "electric_scooter", "lon": -77.02381733333333, "bike_id": "781ba7c56fbc6ee1e454638ca07cafb4", "fusion_lat": 0.0, "name": "781ba7c56fbc6ee1e454638ca07cafb4", "is_reserved": 0, "rental_uris": {"android": "https://dc.lft.to/lastmile_qr_scan", "ios": "https://dc.lft.to/lastmile_qr_scan"}, "fusion_lon": 0.0}, {"lat": 38.887698, "is_disabled": 0, "type": "electric_scooter", "lon": -76.9835345, "bike_id": "6cdbe229f755b93194a6fa831b929ff8", "fusion_lat": 0.0, "name": "6cdbe229f755b93194a6fa831b929ff8", "is_reserved": 0, "rental_uris": {"android": "https://dc.lft.to/lastmile_qr_scan", "ios": "https://dc.lft.to/lastmile_qr_scan"}, "fusion_lon": 0.0}, {"lat": 38.935797666666666, "is_disabled": 0, "type": "electric_scooter", "lon": -77.03757716666667, "bike_id": "cdbaebc2ae31a188b381f6e16c8fb71c", "fusion_lat": 0.0, "name": "cdbaebc2ae31a188b381f6e16c8fb71c", "is_reserved": 0, "rental_uris": {"android": "https://dc.lft.to/lastmile_qr_scan", "ios": "https://dc.lft.to/lastmile_qr_scan"}, "fusion_lon": 0.0}, {"lat": 38.88277433333333, "is_disabled": 0, "type": "electric_bike", "lon": -76.93239483333333, "bike_id": "45967151df0a2dabb27b4c2f52fb632c", "fusion_lat": 0.0, "name": "45967151df0a2dabb27b4c2f52fb632c", "is_reserved": 0, "rental_uris": {"android": "https://dc.lft.to/lastmile_qr_scan", "ios": "https://dc.lft.to/lastmile_qr_scan"}, "fusion_lon": 0.0}, {"lat": 38.907468, "is_disabled": 0, "type": "electric_scooter", "lon": -77.04148666666667, "bike_id": "d004ef4087785d396efc478c15b517f2", "fusion_lat": 0.0, "name": "d004ef4087785d396efc478c15b517f2", "is_reserved": 0, "rental_uris": {"android": "https://dc.lft.to/lastmile_qr_scan", "ios": "https://dc.lft.to/lastmile_qr_scan"}, "fusion_lon": 0.0}, {"lat": 38.903316833333335, "is_disabled": 0, "type": "electric_scooter", "lon": -76.970557, "bike_id": "bdd39cc9492c23567394bf1f594b7fb4", "fusion_lat": 0.0, "name": "bdd39cc9492c23567394bf1f594b7fb4", "is_reserved": 0, "rental_uris": {"android": "https://dc.lft.to/lastmile_qr_scan", "ios": "https://dc.lft.to/lastmile_qr_scan"}, "fusion_lon": 0.0}, {"lat": 38.91185216666667, "is_disabled": 0, "type": "electric_scooter", "lon": -77.04464783333333, "bike_id": "4b9196f0fcff114d79be992357e00d07", "fusion_lat": 0.0, "name": "4b9196f0fcff114d79be992357e00d07", "is_reserved": 0, "rental_uris": {"android": "https://dc.lft.to/lastmile_qr_scan", "ios": "https://dc.lft.to/lastmile_qr_scan"}, "fusion_lon": 0.0}, {"lat": 38.90081083333333, "is_disabled": 0, "type": "electric_scooter", "lon": -77.05067466666667, "bike_id": "5bb31214b93cd4281d7ddf7d080fadef", "fusion_lat": 0.0, "name": "5bb31214b93cd4281d7ddf7d080fadef", "is_reserved": 0, "rental_uris": {"android": "https://dc.lft.to/lastmile_qr_scan", "ios": "https://dc.lft.to/lastmile_qr_scan"}, "fusion_lon": 0.0}, {"lat": 38.91565833333333, "is_disabled": 0, "type": "electric_scooter", "lon": -77.00976183333333, "bike_id": "fdf1e931a508ec786f9aea835e09037e", "fusion_lat": 0.0, "name": "fdf1e931a508ec786f9aea835e09037e", "is_reserved": 0, "rental_uris": {"android": "https://dc.lft.to/lastmile_qr_scan", "ios": "https://dc.lft.to/lastmile_qr_scan"}, "fusion_lon": 0.0}, {"lat": 38.8662095, "is_disabled": 0, "type": "electric_scooter", "lon": -76.98662266666666, "bike_id": "f749768b7974781fe683eb66c4ba5eb7", "fusion_lat": 0.0, "name": "f749768b7974781fe683eb66c4ba5eb7", "is_reserved": 0, "rental_uris": {"android": "https://dc.lft.to/lastmile_qr_scan", "ios": "https://dc.lft.to/lastmile_qr_scan"}, "fusion_lon": 0.0}, {"lat": 38.95080383333333, "is_disabled": 0, "type": "electric_bike", "lon": -77.01202533333333, "bike_id": "4d22a4f86d773d6041f33dbb80c3c3e4", "fusion_lat": 0.0, "name": "4d22a4f86d773d6041f33dbb80c3c3e4", "is_reserved": 0, "rental_uris": {"android": "https://dc.lft.to/lastmile_qr_scan", "ios": "https://dc.lft.to/lastmile_qr_scan"}, "fusion_lon": 0.0}, {"lat": 38.908857, "is_disabled": 0, "type": "electric_scooter", "lon": -77.03663566666667, "bike_id": "d35773608a9c86c009ac61998f3aa4f7", "fusion_lat": 0.0, "name": "d35773608a9c86c009ac61998f3aa4f7", "is_reserved": 0, "rental_uris": {"android": "https://dc.lft.to/lastmile_qr_scan", "ios": "https://dc.lft.to/lastmile_qr_scan"}, "fusion_lon": 0.0}, {"lat": 38.915067666666666, "is_disabled": 0, "type": "electric_scooter", "lon": -76.98380466666667, "bike_id": "fd7df29593a984871e45325f312daaa4", "fusion_lat": 0.0, "name": "fd7df29593a984871e45325f312daaa4", "is_reserved": 0, "rental_uris": {"android": "https://dc.lft.to/lastmile_qr_scan", "ios": "https://dc.lft.to/lastmile_qr_scan"}, "fusion_lon": 0.0}, {"lat": 38.923907, "is_disabled": 0, "type": "electric_scooter", "lon": -77.03062533333333, "bike_id": "1be56becd169227db1a9111c86a239e2", "fusion_lat": 0.0, "name": "1be56becd169227db1a9111c86a239e2", "is_reserved": 0, "rental_uris": {"android": "https://dc.lft.to/lastmile_qr_scan", "ios": "https://dc.lft.to/lastmile_qr_scan"}, "fusion_lon": 0.0}, {"lat": 38.91484783333333, "is_disabled": 0, "type": "electric_scooter", "lon": -77.01385133333333, "bike_id": "2fd3a3b460c21b2908eecdef161860da", "fusion_lat": 0.0, "name": "2fd3a3b460c21b2908eecdef161860da", "is_reserved": 0, "rental_uris": {"android": "https://dc.lft.to/lastmile_qr_scan", "ios": "https://dc.lft.to/lastmile_qr_scan"}, "fusion_lon": 0.0}, {"lat": 38.8135435, "is_disabled": 0, "type": "electric_bike", "lon": -77.04931, "bike_id": "a04e8a12cfff276108487bca85b43bc3", "fusion_lat": 0.0, "name": "a04e8a12cfff276108487bca85b43bc3", "is_reserved": 0, "rental_uris": {"android": "https://dc.lft.to/lastmile_qr_scan", "ios": "https://dc.lft.to/lastmile_qr_scan"}, "fusion_lon": 0.0}, {"lat": 38.911171333333336, "is_disabled": 0, "type": "electric_scooter", "lon": -77.04821916666667, "bike_id": "f644a3c9f9375af269d853d4ae739ee6", "fusion_lat": 0.0, "name": "f644a3c9f9375af269d853d4ae739ee6", "is_reserved": 0, "rental_uris": {"android": "https://dc.lft.to/lastmile_qr_scan", "ios": "https://dc.lft.to/lastmile_qr_scan"}, "fusion_lon": 0.0}, {"lat": 38.920351333333336, "is_disabled": 0, "type": "electric_scooter", "lon": -77.041791, "bike_id": "74aba8118eb9c17702134b7da873e8a5", "fusion_lat": 0.0, "name": "74aba8118eb9c17702134b7da873e8a5", "is_reserved": 0, "rental_uris": {"android": "https://dc.lft.to/lastmile_qr_scan", "ios": "https://dc.lft.to/lastmile_qr_scan"}, "fusion_lon": 0.0}, {"lat": 38.890165333333336, "is_disabled": 0, "type": "electric_scooter", "lon": -77.00042133333334, "bike_id": "86349098b1b8651e22fba850c028c45d", "fusion_lat": 0.0, "name": "86349098b1b8651e22fba850c028c45d", "is_reserved": 0, "rental_uris": {"android": "https://dc.lft.to/lastmile_qr_scan", "ios": "https://dc.lft.to/lastmile_qr_scan"}, "fusion_lon": 0.0}, {"lat": 38.902743, "is_disabled": 0, "type": "electric_scooter", "lon": -77.03644933333334, "bike_id": "7d4e90791e71f411c98a4216bea988e2", "fusion_lat": 0.0, "name": "7d4e90791e71f411c98a4216bea988e2", "is_reserved": 0, "rental_uris": {"android": "https://dc.lft.to/lastmile_qr_scan", "ios": "https://dc.lft.to/lastmile_qr_scan"}, "fusion_lon": 0.0}, {"lat": 38.93694633333333, "is_disabled": 0, "type": "electric_scooter", "lon": -77.03262316666667, "bike_id": "06d0e850a9118956c92d35ff2dfa02c0", "fusion_lat": 0.0, "name": "06d0e850a9118956c92d35ff2dfa02c0", "is_reserved": 0, "rental_uris": {"android": "https://dc.lft.to/lastmile_qr_scan", "ios": "https://dc.lft.to/lastmile_qr_scan"}, "fusion_lon": 0.0}, {"lat": 38.89759183333334, "is_disabled": 0, "type": "electric_scooter", "lon": -76.9418595, "bike_id": "94893f4c38409fb17ec94473de8d83e6", "fusion_lat": 0.0, "name": "94893f4c38409fb17ec94473de8d83e6", "is_reserved": 0, "rental_uris": {"android": "https://dc.lft.to/lastmile_qr_scan", "ios": "https://dc.lft.to/lastmile_qr_scan"}, "fusion_lon": 0.0}, {"lat": 38.855166833333335, "is_disabled": 0, "type": "electric_bike", "lon": -76.984288, "bike_id": "3b77fc4230afbfa0d04efa80b1488c41", "fusion_lat": 0.0, "name": "3b77fc4230afbfa0d04efa80b1488c41", "is_reserved": 0, "rental_uris": {"android": "https://dc.lft.to/lastmile_qr_scan", "ios": "https://dc.lft.to/lastmile_qr_scan"}, "fusion_lon": 0.0}, {"lat": 38.90537883333333, "is_disabled": 0, "type": "electric_scooter", "lon": -77.05679933333333, "bike_id": "d27fc8edfce50c1d76ea71a4db3cf7ed", "fusion_lat": 0.0, "name": "d27fc8edfce50c1d76ea71a4db3cf7ed", "is_reserved": 0, "rental_uris": {"android": "https://dc.lft.to/lastmile_qr_scan", "ios": "https://dc.lft.to/lastmile_qr_scan"}, "fusion_lon": 0.0}, {"lat": 38.90174066666667, "is_disabled": 0, "type": "electric_scooter", "lon": -77.01881, "bike_id": "804eb4f90fc7fcbb847ab70e671a9826", "fusion_lat": 0.0, "name": "804eb4f90fc7fcbb847ab70e671a9826", "is_reserved": 0, "rental_uris": {"android": "https://dc.lft.to/lastmile_qr_scan", "ios": "https://dc.lft.to/lastmile_qr_scan"}, "fusion_lon": 0.0}, {"lat": 38.89786216666667, "is_disabled": 0, "type": "electric_scooter", "lon": -77.00917083333333, "bike_id": "d9f470701727ad85870a546958481bdb", "fusion_lat": 0.0, "name": "d9f470701727ad85870a546958481bdb", "is_reserved": 0, "rental_uris": {"android": "https://dc.lft.to/lastmile_qr_scan", "ios": "https://dc.lft.to/lastmile_qr_scan"}, "fusion_lon": 0.0}, {"lat": 38.91926983333333, "is_disabled": 0, "type": "electric_scooter", "lon": -77.02480866666667, "bike_id": "9bcbe3e7c157cbdd8d866055ee1f2e75", "fusion_lat": 0.0, "name": "9bcbe3e7c157cbdd8d866055ee1f2e75", "is_reserved": 0, "rental_uris": {"android": "https://dc.lft.to/lastmile_qr_scan", "ios": "https://dc.lft.to/lastmile_qr_scan"}, "fusion_lon": 0.0}, {"lat": 38.88763466666666, "is_disabled": 0, "type": "electric_scooter", "lon": -76.955968, "bike_id": "279185a504928c6c882e3b68341ff44f", "fusion_lat": 0.0, "name": "279185a504928c6c882e3b68341ff44f", "is_reserved": 0, "rental_uris": {"android": "https://dc.lft.to/lastmile_qr_scan", "ios": "https://dc.lft.to/lastmile_qr_scan"}, "fusion_lon": 0.0}, {"lat": 38.93654216666667, "is_disabled": 0, "type": "electric_scooter", "lon": -77.03692516666666, "bike_id": "5b9a075cb5091d243660abc499c5ce4b", "fusion_lat": 0.0, "name": "5b9a075cb5091d243660abc499c5ce4b", "is_reserved": 0, "rental_uris": {"android": "https://dc.lft.to/lastmile_qr_scan", "ios": "https://dc.lft.to/lastmile_qr_scan"}, "fusion_lon": 0.0}, {"lat": 38.9529665, "is_disabled": 0, "type": "electric_scooter", "lon": -77.08154366666666, "bike_id": "4bb2b4f151ae818b0431b2fed1596241", "fusion_lat": 0.0, "name": "4bb2b4f151ae818b0431b2fed1596241", "is_reserved": 0, "rental_uris": {"android": "https://dc.lft.to/lastmile_qr_scan", "ios": "https://dc.lft.to/lastmile_qr_scan"}, "fusion_lon": 0.0}, {"lat": 38.866533833333335, "is_disabled": 0, "type": "electric_scooter", "lon": -76.988858, "bike_id": "0615804e168392f1e0e3c4658c10b0eb", "fusion_lat": 0.0, "name": "0615804e168392f1e0e3c4658c10b0eb", "is_reserved": 0, "rental_uris": {"android": "https://dc.lft.to/lastmile_qr_scan", "ios": "https://dc.lft.to/lastmile_qr_scan"}, "fusion_lon": 0.0}, {"lat": 38.8999575, "is_disabled": 0, "type": "electric_bike", "lon": -77.02114433333334, "bike_id": "6a4acea8cb8f8273e31a7947ed751abe", "fusion_lat": 0.0, "name": "6a4acea8cb8f8273e31a7947ed751abe", "is_reserved": 0, "rental_uris": {"android": "https://dc.lft.to/lastmile_qr_scan", "ios": "https://dc.lft.to/lastmile_qr_scan"}, "fusion_lon": 0.0}, {"lat": 38.9206305, "is_disabled": 0, "type": "electric_scooter", "lon": -77.04374233333333, "bike_id": "276cf008e10d7ba40b74eee7631a7182", "fusion_lat": 0.0, "name": "276cf008e10d7ba40b74eee7631a7182", "is_reserved": 0, "rental_uris": {"android": "https://dc.lft.to/lastmile_qr_scan", "ios": "https://dc.lft.to/lastmile_qr_scan"}, "fusion_lon": 0.0}, {"lat": 38.93875883333333, "is_disabled": 0, "type": "electric_scooter", "lon": -77.0312425, "bike_id": "b83f9c35b797d37454cd98b34a5b1178", "fusion_lat": 0.0, "name": "b83f9c35b797d37454cd98b34a5b1178", "is_reserved": 0, "rental_uris": {"android": "https://dc.lft.to/lastmile_qr_scan", "ios": "https://dc.lft.to/lastmile_qr_scan"}, "fusion_lon": 0.0}, {"lat": 38.92297133333334, "is_disabled": 0, "type": "electric_bike", "lon": -77.0354915, "bike_id": "6a5471505a359e5deb4cc1c6b0cce40f", "fusion_lat": 0.0, "name": "6a5471505a359e5deb4cc1c6b0cce40f", "is_reserved": 0, "rental_uris": {"android": "https://dc.lft.to/lastmile_qr_scan", "ios": "https://dc.lft.to/lastmile_qr_scan"}, "fusion_lon": 0.0}, {"lat": 38.84269166666667, "is_disabled": 0, "type": "electric_bike", "lon": -76.98837766666666, "bike_id": "bd15051b583d163a9e8cf2a0d16d663b", "fusion_lat": 0.0, "name": "bd15051b583d163a9e8cf2a0d16d663b", "is_reserved": 0, "rental_uris": {"android": "https://dc.lft.to/lastmile_qr_scan", "ios": "https://dc.lft.to/lastmile_qr_scan"}, "fusion_lon": 0.0}, {"lat": 38.934771, "is_disabled": 0, "type": "electric_scooter", "lon": -77.035821, "bike_id": "966d6b424ff080d0b1d671ca10d495ab", "fusion_lat": 0.0, "name": "966d6b424ff080d0b1d671ca10d495ab", "is_reserved": 0, "rental_uris": {"android": "https://dc.lft.to/lastmile_qr_scan", "ios": "https://dc.lft.to/lastmile_qr_scan"}, "fusion_lon": 0.0}, {"lat": 38.843081833333336, "is_disabled": 0, "type": "electric_scooter", "lon": -76.99942083333333, "bike_id": "0fc06bae901b6bc71c7fc014392ab244", "fusion_lat": 0.0, "name": "0fc06bae901b6bc71c7fc014392ab244", "is_reserved": 0, "rental_uris": {"android": "https://dc.lft.to/lastmile_qr_scan", "ios": "https://dc.lft.to/lastmile_qr_scan"}, "fusion_lon": 0.0}, {"lat": 38.87582333333334, "is_disabled": 0, "type": "electric_bike", "lon": -77.10560466666666, "bike_id": "269d4cefc7b446549b919d22ccfcf33c", "fusion_lat": 0.0, "name": "269d4cefc7b446549b919d22ccfcf33c", "is_reserved": 0, "rental_uris": {"android": "https://dc.lft.to/lastmile_qr_scan", "ios": "https://dc.lft.to/lastmile_qr_scan"}, "fusion_lon": 0.0}, {"lat": 38.9428885, "is_disabled": 0, "type": "electric_scooter", "lon": -77.02173183333333, "bike_id": "90b42f53268e4505d3fb41aa951090bb", "fusion_lat": 0.0, "name": "90b42f53268e4505d3fb41aa951090bb", "is_reserved": 0, "rental_uris": {"android": "https://dc.lft.to/lastmile_qr_scan", "ios": "https://dc.lft.to/lastmile_qr_scan"}, "fusion_lon": 0.0}, {"lat": 38.932343833333334, "is_disabled": 0, "type": "electric_scooter", "lon": -76.99605166666667, "bike_id": "da74a0f5f74875a2786d63781dafba95", "fusion_lat": 0.0, "name": "da74a0f5f74875a2786d63781dafba95", "is_reserved": 0, "rental_uris": {"android": "https://dc.lft.to/lastmile_qr_scan", "ios": "https://dc.lft.to/lastmile_qr_scan"}, "fusion_lon": 0.0}, {"lat": 38.9141225, "is_disabled": 0, "type": "electric_scooter", "lon": -77.039991, "bike_id": "35b9222c1c6517d147898f8ba8f8f9a1", "fusion_lat": 0.0, "name": "35b9222c1c6517d147898f8ba8f8f9a1", "is_reserved": 0, "rental_uris": {"android": "https://dc.lft.to/lastmile_qr_scan", "ios": "https://dc.lft.to/lastmile_qr_scan"}, "fusion_lon": 0.0}, {"lat": 38.911832833333335, "is_disabled": 0, "type": "electric_scooter", "lon": -77.002134, "bike_id": "7f430ec1405458aa93f2f2758175c621", "fusion_lat": 0.0, "name": "7f430ec1405458aa93f2f2758175c621", "is_reserved": 0, "rental_uris": {"android": "https://dc.lft.to/lastmile_qr_scan", "ios": "https://dc.lft.to/lastmile_qr_scan"}, "fusion_lon": 0.0}, {"lat": 38.887694333333336, "is_disabled": 0, "type": "electric_scooter", "lon": -76.95599366666667, "bike_id": "f09143ce800ee5a483e94d727faaab6c", "fusion_lat": 0.0, "name": "f09143ce800ee5a483e94d727faaab6c", "is_reserved": 0, "rental_uris": {"android": "https://dc.lft.to/lastmile_qr_scan", "ios": "https://dc.lft.to/lastmile_qr_scan"}, "fusion_lon": 0.0}, {"lat": 38.88486533333333, "is_disabled": 0, "type": "electric_scooter", "lon": -77.0071295, "bike_id": "93ff0ce7611f7d6b88a846e5d88ff40f", "fusion_lat": 0.0, "name": "93ff0ce7611f7d6b88a846e5d88ff40f", "is_reserved": 0, "rental_uris": {"android": "https://dc.lft.to/lastmile_qr_scan", "ios": "https://dc.lft.to/lastmile_qr_scan"}, "fusion_lon": 0.0}, {"lat": 38.866292666666666, "is_disabled": 0, "type": "electric_scooter", "lon": -76.98700183333334, "bike_id": "0fa75112187c616834e2ac2a5d91ad14", "fusion_lat": 0.0, "name": "0fa75112187c616834e2ac2a5d91ad14", "is_reserved": 0, "rental_uris": {"android": "https://dc.lft.to/lastmile_qr_scan", "ios": "https://dc.lft.to/lastmile_qr_scan"}, "fusion_lon": 0.0}, {"lat": 38.9174205, "is_disabled": 0, "type": "electric_scooter", "lon": -77.02524983333333, "bike_id": "d1acef6067e9c1a00566e1826e302e1e", "fusion_lat": 0.0, "name": "d1acef6067e9c1a00566e1826e302e1e", "is_reserved": 0, "rental_uris": {"android": "https://dc.lft.to/lastmile_qr_scan", "ios": "https://dc.lft.to/lastmile_qr_scan"}, "fusion_lon": 0.0}, {"lat": 38.92150016666667, "is_disabled": 0, "type": "electric_scooter", "lon": -77.0386635, "bike_id": "8e3ad0454771cb88320e4c0d8a16d83d", "fusion_lat": 0.0, "name": "8e3ad0454771cb88320e4c0d8a16d83d", "is_reserved": 0, "rental_uris": {"android": "https://dc.lft.to/lastmile_qr_scan", "ios": "https://dc.lft.to/lastmile_qr_scan"}, "fusion_lon": 0.0}, {"lat": 38.9279115, "is_disabled": 0, "type": "electric_scooter", "lon": -77.05249583333334, "bike_id": "7dd0ac59d2e059ee48cd0684533507eb", "fusion_lat": 0.0, "name": "7dd0ac59d2e059ee48cd0684533507eb", "is_reserved": 0, "rental_uris": {"android": "https://dc.lft.to/lastmile_qr_scan", "ios": "https://dc.lft.to/lastmile_qr_scan"}, "fusion_lon": 0.0}, {"lat": 38.898504, "is_disabled": 0, "type": "electric_bike", "lon": -76.93190633333333, "bike_id": "386ba00359c500c47dab8eec22ce1979", "fusion_lat": 0.0, "name": "386ba00359c500c47dab8eec22ce1979", "is_reserved": 0, "rental_uris": {"android": "https://dc.lft.to/lastmile_qr_scan", "ios": "https://dc.lft.to/lastmile_qr_scan"}, "fusion_lon": 0.0}, {"lat": 38.89606583333333, "is_disabled": 0, "type": "electric_scooter", "lon": -77.00925383333333, "bike_id": "f54f68f28c19c956deb64eb5db5191da", "fusion_lat": 0.0, "name": "f54f68f28c19c956deb64eb5db5191da", "is_reserved": 0, "rental_uris": {"android": "https://dc.lft.to/lastmile_qr_scan", "ios": "https://dc.lft.to/lastmile_qr_scan"}, "fusion_lon": 0.0}, {"lat": 38.93704316666667, "is_disabled": 0, "type": "electric_scooter", "lon": -77.06106866666667, "bike_id": "efcd30989cb41db00b471984299d3c7c", "fusion_lat": 0.0, "name": "efcd30989cb41db00b471984299d3c7c", "is_reserved": 0, "rental_uris": {"android": "https://dc.lft.to/lastmile_qr_scan", "ios": "https://dc.lft.to/lastmile_qr_scan"}, "fusion_lon": 0.0}, {"lat": 38.9152445, "is_disabled": 0, "type": "electric_scooter", "lon": -77.0385185, "bike_id": "9312e52d40e36ca411745c8df3e08c21", "fusion_lat": 0.0, "name": "9312e52d40e36ca411745c8df3e08c21", "is_reserved": 0, "rental_uris": {"android": "https://dc.lft.to/lastmile_qr_scan", "ios": "https://dc.lft.to/lastmile_qr_scan"}, "fusion_lon": 0.0}, {"lat": 38.93382, "is_disabled": 0, "type": "electric_scooter", "lon": -76.99513966666666, "bike_id": "072cdc422e9369df1d495b163aa060fc", "fusion_lat": 0.0, "name": "072cdc422e9369df1d495b163aa060fc", "is_reserved": 0, "rental_uris": {"android": "https://dc.lft.to/lastmile_qr_scan", "ios": "https://dc.lft.to/lastmile_qr_scan"}, "fusion_lon": 0.0}, {"lat": 38.93112633333333, "is_disabled": 0, "type": "electric_scooter", "lon": -77.03010733333333, "bike_id": "05eb07bd6cdc870b8a45cf06a453a670", "fusion_lat": 0.0, "name": "05eb07bd6cdc870b8a45cf06a453a670", "is_reserved": 0, "rental_uris": {"android": "https://dc.lft.to/lastmile_qr_scan", "ios": "https://dc.lft.to/lastmile_qr_scan"}, "fusion_lon": 0.0},