{"data": {"bikes": [{"is_disabled": 0, "fusion_lon": 0.0, "fusion_lat": 0.0, "lat": 38.90676333333333, "type": "electric_scooter", "lon": -77.02415233333333, "bike_id": "4aee0c4d4ac49f5b7684f57b472596ef", "rental_uris": {"android": "https://dc.lft.to/lastmile_qr_scan", "ios": "https://dc.lft.to/lastmile_qr_scan"}, "name": "4aee0c4d4ac49f5b7684f57b472596ef", "is_reserved": 0}, {"is_disabled": 0, "fusion_lon": 0.0, "fusion_lat": 0.0, "lat": 38.936003166666666, "type": "electric_scooter", "lon": -77.05599683333334, "bike_id": "321ef6ae5c4d549f677a599423962e9e", "rental_uris": {"android": "https://dc.lft.to/lastmile_qr_scan", "ios": "https://dc.lft.to/lastmile_qr_scan"}, "name": "321ef6ae5c4d549f677a599423962e9e", "is_reserved": 0}, {"is_disabled": 0, "fusion_lon": 0.0, "fusion_lat": 0.0, "lat": 38.91537783333333, "type": "electric_scooter", "lon": -77.03786633333333, "bike_id": "d173b9aad306907d644644657fb1275f", "rental_uris": {"android": "https://dc.lft.to/lastmile_qr_scan", "ios": "https://dc.lft.to/lastmile_qr_scan"}, "name": "d173b9aad306907d644644657fb1275f", "is_reserved": 0}, {"is_disabled": 0, "fusion_lon": 0.0, "fusion_lat": 0.0, "lat": 38.90808033333333, "type": "electric_scooter", "lon": -77.0340325, "bike_id": "2c34f2face8c3a93f17cceb48f6f7e6e", "rental_uris": {"android": "https://dc.lft.to/lastmile_qr_scan", "ios": "https://dc.lft.to/lastmile_qr_scan"}, "name": "2c34f2face8c3a93f17cceb48f6f7e6e", "is_reserved": 0}, {"is_disabled": 0, "fusion_lon": 0.0, "fusion_lat": 0.0, "lat": 38.922290333333336, "type": "electric_scooter", "lon": -77.03321983333333, "bike_id": "fad2c23a88c76ef9a416ea8166339286", "rental_uris": {"android": "https://dc.lft.to/lastmile_qr_scan", "ios": "https://dc.lft.to/lastmile_qr_scan"}, "name": "fad2c23a88c76ef9a416ea8166339286", "is_reserved": 0}, {"is_disabled": 0, "fusion_lon": 0.0, "fusion_lat": 0.0, "lat": 38.936595833333335, "type": "electric_scooter", "lon": -77.05908933333333, "bike_id": "406060f5879399aa7daf8b7d73f8c6d7", "rental_uris": {"android": "https://dc.lft.to/lastmile_qr_scan", "ios": "https://dc.lft.to/lastmile_qr_scan"}, "name": "406060f5879399aa7daf8b7d73f8c6d7", "is_reserved": 0}, {"is_disabled": 0, "fusion_lon": 0.0, "fusion_lat": 0.0, "lat": 38.802999166666666, "type": "electric_bike", "lon": -77.039896, "bike_id": "6cdb10d70e65545357eb02dbbf9bd209", "rental_uris": {"android": "https://dc.lft.to/lastmile_qr_scan", "ios": "https://dc.lft.to/lastmile_qr_scan"}, "name": "6cdb10d70e65545357eb02dbbf9bd209", "is_reserved": 0}, {"is_disabled": 0, "fusion_lon": 0.0, "fusion_lat": 0.0, "lat": 38.854940666666664, "type": "electric_bike", "lon": -77.12039733333333, "bike_id": "b9d5a4dbb478f6aea7a96cf477c483ce", "rental_uris": {"android": "https://dc.lft.to/lastmile_qr_scan", "ios": "https://dc.lft.to/lastmile_qr_scan"}, "name": "b9d5a4dbb478f6aea7a96cf477c483ce", "is_reserved": 0}, {"is_disabled": 0, "fusion_lon": 0.0, "fusion_lat": 0.0, "lat": 38.920796, "type": "electric_scooter", "lon": -77.0418145, "bike_id": "f2270f54087336d2d32a9d48dff73a3c", "rental_uris": {"android": "https://dc.lft.to/lastmile_qr_scan", "ios": "https://dc.lft.to/lastmile_qr_scan"}, "name": "f2270f54087336d2d32a9d48dff73a3c", "is_reserved": 0}, {"is_disabled": 0, "fusion_lon": 0.0, "fusion_lat": 0.0, "lat": 38.9221105, "type": "electric_scooter", "lon": -77.04239933333334, "bike_id": "a81cde288af500c381f21895e96ccfed", "rental_uris": {"android": "https://dc.lft.to/lastmile_qr_scan", "ios": "https://dc.lft.to/lastmile_qr_scan"}, "name": "a81cde288af500c381f21895e96ccfed", "is_reserved": 0}, {"is_disabled": 0, "fusion_lon": 0.0, "fusion_lat": 0.0, "lat": 38.912608666666664, "type": "electric_scooter", "lon": -77.01066216666666, "bike_id": "71c7e9263b664bf0b194145e70ffe168", "rental_uris": {"android": "https://dc.lft.to/lastmile_qr_scan", "ios": "https://dc.lft.to/lastmile_qr_scan"}, "name": "71c7e9263b664bf0b194145e70ffe168", "is_reserved": 0}, {"is_disabled": 0, "fusion_lon": 0.0, "fusion_lat": 0.0, "lat": 38.88739183333333, "type": "electric_scooter", "lon": -77.01536683333333, "bike_id": "f4abdc8d7982983423a20f63215688b4", "rental_uris": {"android": "https://dc.lft.to/lastmile_qr_scan", "ios": "https://dc.lft.to/lastmile_qr_scan"}, "name": "f4abdc8d7982983423a20f63215688b4", "is_reserved": 0}, {"is_disabled": 0, "fusion_lon": 0.0, "fusion_lat": 0.0, "lat": 38.8840205, "type": "electric_scooter", "lon": -77.02465033333333, "bike_id": "b6c812d344c94610280eccba5d221e41", "rental_uris": {"android": "https://dc.lft.to/lastmile_qr_scan", "ios": "https://dc.lft.to/lastmile_qr_scan"}, "name": "b6c812d344c94610280eccba5d221e41", "is_reserved": 0}, {"is_disabled": 0, "fusion_lon": 0.0, "fusion_lat": 0.0, "lat": 38.9194935, "type": "electric_scooter", "lon": -77.01394883333333, "bike_id": "7677f2c8a17dd1a5bdbb25eac18f1e95", "rental_uris": {"android": "https://dc.lft.to/lastmile_qr_scan", "ios": "https://dc.lft.to/lastmile_qr_scan"}, "name": "7677f2c8a17dd1a5bdbb25eac18f1e95", "is_reserved": 0}, {"is_disabled": 0, "fusion_lon": 0.0, "fusion_lat": 0.0, "lat": 38.934870333333336, "type": "electric_scooter", "lon": -77.02398583333333, "bike_id": "e7f4e41f46c3abfc1864241a12cfac06", "rental_uris": {"android": "https://dc.lft.to/lastmile_qr_scan", "ios": "https://dc.lft.to/lastmile_qr_scan"}, "name": "e7f4e41f46c3abfc1864241a12cfac06", "is_reserved": 0}, {"is_disabled": 0, "fusion_lon": 0.0, "fusion_lat": 0.0, "lat": 38.93033883333333, "type": "electric_bike", "lon": -77.08274483333334, "bike_id": "6a20d7385ac478633c0bdae7802e617c", "rental_uris": {"android": "https://dc.lft.to/lastmile_qr_scan", "ios": "https://dc.lft.to/lastmile_qr_scan"}, "name": "6a20d7385ac478633c0bdae7802e617c", "is_reserved": 0}, {"is_disabled": 0, "fusion_lon": 0.0, "fusion_lat": 0.0, "lat": 38.917057166666666, "type": "electric_scooter", "lon": -77.02880783333333, "bike_id": "7c73fd05b5670a9ad642e105b256e034", "rental_uris": {"android": "https://dc.lft.to/lastmile_qr_scan", "ios": "https://dc.lft.to/lastmile_qr_scan"}, "name": "7c73fd05b5670a9ad642e105b256e034", "is_reserved": 0}, {"is_disabled": 0, "fusion_lon": 0.0, "fusion_lat": 0.0, "lat": 38.90433933333333, "type": "electric_scooter", "lon": -77.0482315, "bike_id": "ab56d3afc440b340e1c99ac74a74b7ca", "rental_uris": {"android": "https://dc.lft.to/lastmile_qr_scan", "ios": "https://dc.lft.to/lastmile_qr_scan"}, "name": "ab56d3afc440b340e1c99ac74a74b7ca", "is_reserved": 0}, {"is_disabled": 0, "fusion_lon": 0.0, "fusion_lat": 0.0, "lat": 38.918067666666666, "type": "electric_scooter", "lon": -77.02692, "bike_id": "44c6067e0e3def99b1db7a765b58710c", "rental_uris": {"android": "https://dc.lft.to/lastmile_qr_scan", "ios": "https://dc.lft.to/lastmile_qr_scan"}, "name": "44c6067e0e3def99b1db7a765b58710c", "is_reserved": 0}, {"is_disabled": 0, "fusion_lon": 0.0, "fusion_lat": 0.0, "lat": 38.86885383333333, "type": "electric_scooter", "lon": -76.98312066666666, "bike_id": "e7a22ce733cd7f7a912df22831e09097", "rental_uris": {"android": "https://dc.lft.to/lastmile_qr_scan", "ios": "https://dc.lft.to/lastmile_qr_scan"}, "name": "e7a22ce733cd7f7a912df22831e09097", "is_reserved": 0}, {"is_disabled": 0, "fusion_lon": 0.0, "fusion_lat": 0.0, "lat": 38.8598695, "type": "electric_bike", "lon": -76.97048333333333, "bike_id": "a15beb344c7b485522de72efe39d048a", "rental_uris": {"android": "https://dc.lft.to/lastmile_qr_scan", "ios": "https://dc.lft.to/lastmile_qr_scan"}, "name": "a15beb344c7b485522de72efe39d048a", "is_reserved": 0}, {"is_disabled": 0, "fusion_lon": 0.0, "fusion_lat": 0.0, "lat": 38.9256335, "type": "electric_scooter", "lon": -77.022835, "bike_id": "12eedd97f3aded05e7f71286c751572d", "rental_uris": {"android": "https://dc.lft.to/lastmile_qr_scan", "ios": "https://dc.lft.to/lastmile_qr_scan"}, "name": "12eedd97f3aded05e7f71286c751572d", "is_reserved": 0}, {"is_disabled": 0, "fusion_lon": 0.0, "fusion_lat": 0.0, "lat": 38.88376733333333, "type": "electric_scooter", "lon": -76.98575283333334, "bike_id": "75675a44082d4974584a10fed839f2ec", "rental_uris": {"android": "https://dc.lft.to/lastmile_qr_scan", "ios": "https://dc.lft.to/lastmile_qr_scan"}, "name": "75675a44082d4974584a10fed839f2ec", "is_reserved": 0}, {"is_disabled": 0, "fusion_lon": 0.0, "fusion_lat": 0.0, "lat": 38.994560166666666, "type": "electric_bike", "lon": -76.90814633333333, "bike_id": "798f1c2259d305b4e361add2d5b64cde", "rental_uris": {"android": "https://dc.lft.to/lastmile_qr_scan", "ios": "https://dc.lft.to/lastmile_qr_scan"}, "name": "798f1c2259d305b4e361add2d5b64cde", "is_reserved": 0}, {"is_disabled": 0, "fusion_lon": 0.0, "fusion_lat": 0.0, "lat": 38.9767695, "type": "electric_bike", "lon": -76.9716465, "bike_id": "3e1fe5ede4e4c7f212d9c750b767dc10", "rental_uris": {"android": "https://dc.lft.to/lastmile_qr_scan", "ios": "https://dc.lft.to/lastmile_qr_scan"}, "name": "3e1fe5ede4e4c7f212d9c750b767dc10", "is_reserved": 0}, {"is_disabled": 0, "fusion_lon": 0.0, "fusion_lat": 0.0, "lat": 38.954129333333334, "type": "electric_scooter", "lon": -77.02842366666667, "bike_id": "4a654e79a92b06d480c2171484b98b61", "rental_uris": {"android": "https://dc.lft.to/lastmile_qr_scan", "ios": "https://dc.lft.to/lastmile_qr_scan"}, "name": "4a654e79a92b06d480c2171484b98b61", "is_reserved": 0}, {"is_disabled": 0, "fusion_lon": 0.0, "fusion_lat": 0.0, "lat": 38.892362166666665, "type": "electric_bike", "lon": -76.95222816666667, "bike_id": "8b9a966126977f029a5f9c2a6bb59a75", "rental_uris": {"android": "https://dc.lft.to/lastmile_qr_scan", "ios": "https://dc.lft.to/lastmile_qr_scan"}, "name": "8b9a966126977f029a5f9c2a6bb59a75", "is_reserved": 0}, {"is_disabled": 0, "fusion_lon": 0.0, "fusion_lat": 0.0, "lat": 38.93864266666667, "type": "electric_scooter", "lon": -77.02648133333334, "bike_id": "b1353a7f293fd2c419db64b94e1077e3", "rental_uris": {"android": "https://dc.lft.to/lastmile_qr_scan", "ios": "https://dc.lft.to/lastmile_qr_scan"}, "name": "b1353a7f293fd2c419db64b94e1077e3", "is_reserved": 0}, {"is_disabled": 0, "fusion_lon": 0.0, "fusion_lat": 0.0, "lat": 38.87288066666667, "type": "electric_scooter", "lon": -76.97730633333333, "bike_id": "cd0607c6d71ad7d5a7cc8bbb8d129fb7", "rental_uris": {"android": "https://dc.lft.to/lastmile_qr_scan", "ios": "https://dc.lft.to/lastmile_qr_scan"}, "name": "cd0607c6d71ad7d5a7cc8bbb8d129fb7", "is_reserved": 0}, {"is_disabled": 0, "fusion_lon": 0.0, "fusion_lat": 0.0, "lat": 38.917988, "type": "electric_scooter", "lon": -77.04011683333333, "bike_id": "a4a83c1a9273ad331ca7e0fbcae7ccc4", "rental_uris": {"android": "https://dc.lft.to/lastmile_qr_scan", "ios": "https://dc.lft.to/lastmile_qr_scan"}, "name": "a4a83c1a9273ad331ca7e0fbcae7ccc4", "is_reserved": 0}, {"is_disabled": 0, "fusion_lon": 0.0, "fusion_lat": 0.0, "lat": 38.908546333333334, "type": "electric_scooter", "lon": -77.071627, "bike_id": "2b6d59ca4523f8c1a27cea967c0aafb6", "rental_uris": {"android": "https://dc.lft.to/lastmile_qr_scan", "ios": "https://dc.lft.to/lastmile_qr_scan"}, "name": "2b6d59ca4523f8c1a27cea967c0aafb6", "is_reserved": 0}, {"is_disabled": 0, "fusion_lon": 0.0, "fusion_lat": 0.0, "lat": 38.92591733333333, "type": "electric_bike", "lon": -76.88904883333333, "bike_id": "173d49bf752e992d4aef78e723a600ac", "rental_uris": {"android": "https://dc.lft.to/lastmile_qr_scan", "ios": "https://dc.lft.to/lastmile_qr_scan"}, "name": "173d49bf752e992d4aef78e723a600ac", "is_reserved": 0}, {"is_disabled": 0, "fusion_lon": 0.0, "fusion_lat": 0.0, "lat": 38.9291015, "type": "electric_scooter", "lon": -77.02343516666667, "bike_id": "d080d674bab7bcd21df3a0aff76ac998", "rental_uris": {"android": "https://dc.lft.to/lastmile_qr_scan", "ios": "https://dc.lft.to/lastmile_qr_scan"}, "name": "d080d674bab7bcd21df3a0aff76ac998", "is_reserved": 0}, {"is_disabled": 0, "fusion_lon": 0.0, "fusion_lat": 0.0, "lat": 38.928987, "type": "electric_scooter", "lon": -76.98455116666666, "bike_id": "d4b4ea298eb1de65aa5b7f58c01aa1b0", "rental_uris": {"android": "https://dc.lft.to/lastmile_qr_scan", "ios": "https://dc.lft.to/lastmile_qr_scan"}, "name": "d4b4ea298eb1de65aa5b7f58c01aa1b0", "is_reserved": 0}, {"is_disabled": 0, "fusion_lon": 0.0, "fusion_lat": 0.0, "lat": 38.902743666666666, "type": "electric_scooter", "lon": -77.04262116666666, "bike_id": "5a6ca2fdee6eff969efac613777e02d6", "rental_uris": {"android": "https://dc.lft.to/lastmile_qr_scan", "ios": "https://dc.lft.to/lastmile_qr_scan"}, "name": "5a6ca2fdee6eff969efac613777e02d6", "is_reserved": 0}, {"is_disabled": 0, "fusion_lon": 0.0, "fusion_lat": 0.0, "lat": 38.924465, "type": "electric_bike", "lon": -76.96833516666666, "bike_id": "276285876153a55f20efd6e736ff895e", "rental_uris": {"android": "https://dc.lft.to/lastmile_qr_scan", "ios": "https://dc.lft.to/lastmile_qr_scan"}, "name": "276285876153a55f20efd6e736ff895e", "is_reserved": 0}, {"is_disabled": 0, "fusion_lon": 0.0, "fusion_lat": 0.0, "lat": 38.93634433333333, "type": "electric_scooter", "lon": -77.0365985, "bike_id": "0bd813d8c702ffbfda75aa9d71d413b2", "rental_uris": {"android": "https://dc.lft.to/lastmile_qr_scan", "ios": "https://dc.lft.to/lastmile_qr_scan"}, "name": "0bd813d8c702ffbfda75aa9d71d413b2", "is_reserved": 0}, {"is_disabled": 0, "fusion_lon": 0.0, "fusion_lat": 0.0, "lat": 39.105665333333334, "type": "electric_bike", "lon": -77.15268733333333, "bike_id": "0ba9cc116161704147a3e230fd34bbdb", "rental_uris": {"android": "https://dc.lft.to/lastmile_qr_scan", "ios": "https://dc.lft.to/lastmile_qr_scan"}, "name": "0ba9cc116161704147a3e230fd34bbdb", "is_reserved": 0}, {"is_disabled": 0, "fusion_lon": 0.0, "fusion_lat": 0.0, "lat": 38.92294616666667, "type": "electric_bike", "lon": -76.9942015, "bike_id": "b409054a5ed604fa5b7996d0db232899", "rental_uris": {"android": "https://dc.lft.to/lastmile_qr_scan", "ios": "https://dc.lft.to/lastmile_qr_scan"}, "name": "b409054a5ed604fa5b7996d0db232899", "is_reserved": 0}, {"is_disabled": 0, "fusion_lon": 0.0, "fusion_lat": 0.0, "lat": 38.92848716666666, "type": "electric_bike", "lon": -77.0207245, "bike_id": "9ce82b8eafbf59bee44653012209685e", "rental_uris": {"android": "https://dc.lft.to/lastmile_qr_scan", "ios": "https://dc.lft.to/lastmile_qr_scan"}, "name": "9ce82b8eafbf59bee44653012209685e", "is_reserved": 0}, {"is_disabled": 0, "fusion_lon": 0.0, "fusion_lat": 0.0, "lat": 38.924919333333335, "type": "electric_scooter", "lon": -76.9966695, "bike_id": "b119dec503bd0a84ac175da1518f6258", "rental_uris": {"android": "https://dc.lft.to/lastmile_qr_scan", "ios": "https://dc.lft.to/lastmile_qr_scan"}, "name": "b119dec503bd0a84ac175da1518f6258", "is_reserved": 0}, {"is_disabled": 0, "fusion_lon": 0.0, "fusion_lat": 0.0, "lat": 38.893762833333334, "type": "electric_scooter", "lon": -76.95000033333334, "bike_id": "b4be6f60476102f96b718129ad2dfd1c", "rental_uris": {"android": "https://dc.lft.to/lastmile_qr_scan", "ios": "https://dc.lft.to/lastmile_qr_scan"}, "name": "b4be6f60476102f96b718129ad2dfd1c", "is_reserved": 0}, {"is_disabled": 0, "fusion_lon": 0.0, "fusion_lat": 0.0, "lat": 38.841988, "type": "electric_bike", "lon": -77.10681766666667, "bike_id": "2e30e69af7a44ad5c95e94edd73bf01d", "rental_uris": {"android": "https://dc.lft.to/lastmile_qr_scan", "ios": "https://dc.lft.to/lastmile_qr_scan"}, "name": "2e30e69af7a44ad5c95e94edd73bf01d", "is_reserved": 0}, {"is_disabled": 0, "fusion_lon": 0.0, "fusion_lat": 0.0, "lat": 38.893670166666666, "type": "electric_scooter", "lon": -77.0226195, "bike_id": "17e9bcde135daaceaa8745118ddb93b0", "rental_uris": {"android": "https://dc.lft.to/lastmile_qr_scan", "ios": "https://dc.lft.to/lastmile_qr_scan"}, "name": "17e9bcde135daaceaa8745118ddb93b0", "is_reserved": 0}, {"is_disabled": 0, "fusion_lon": 0.0, "fusion_lat": 0.0, "lat": 38.91707566666667, "type": "electric_scooter", "lon": -77.03470866666666, "bike_id": "c652ea39724ff683b6d38603578a5fd5", "rental_uris": {"android": "https://dc.lft.to/lastmile_qr_scan", "ios": "https://dc.lft.to/lastmile_qr_scan"}, "name": "c652ea39724ff683b6d38603578a5fd5", "is_reserved": 0}, {"is_disabled": 0, "fusion_lon": 0.0, "fusion_lat": 0.0, "lat": 38.9193895, "type": "electric_scooter", "lon": -77.023181, "bike_id": "2d48531bd0fba8cfb755dc97c99c49d0", "rental_uris": {"android": "https://dc.lft.to/lastmile_qr_scan", "ios": "https://dc.lft.to/lastmile_qr_scan"}, "name": "2d48531bd0fba8cfb755dc97c99c49d0", "is_reserved": 0}, {"is_disabled": 0, "fusion_lon": 0.0, "fusion_lat": 0.0, "lat": 38.99863666666667, "type": "electric_bike", "lon": -77.0290395, "bike_id": "8269ca613e847aea445cbf3006e1ad7f", "rental_uris": {"android": "https://dc.lft.to/lastmile_qr_scan", "ios": "https://dc.lft.to/lastmile_qr_scan"}, "name": "8269ca613e847aea445cbf3006e1ad7f", "is_reserved": 0}, {"is_disabled": 0, "fusion_lon": 0.0, "fusion_lat": 0.0, "lat": 38.858069, "type": "electric_scooter", "lon": -76.98651683333334, "bike_id": "b097a45b3703f6053ab5393dd5759663", "rental_uris": {"android": "https://dc.lft.to/lastmile_qr_scan", "ios": "https://dc.lft.to/lastmile_qr_scan"}, "name": "b097a45b3703f6053ab5393dd5759663", "is_reserved": 0}, {"is_disabled": 0, "fusion_lon": 0.0, "fusion_lat": 0.0, "lat": 38.915846333333334, "type": "electric_scooter", "lon": -76.98115583333333, "bike_id": "5711033c5d120c2798a9e554949ea9e5", "rental_uris": {"android": "https://dc.lft.to/lastmile_qr_scan", "ios": "https://dc.lft.to/lastmile_qr_scan"}, "name": "5711033c5d120c2798a9e554949ea9e5", "is_reserved": 0}, {"is_disabled": 0, "fusion_lon": 0.0, "fusion_lat": 0.0, "lat": 38.928153333333334, "type": "electric_scooter", "lon": -77.01418216666667, "bike_id": "e25a76cf59f0c430fdde02022eefd5f4", "rental_uris": {"android": "https://dc.lft.to/lastmile_qr_scan", "ios": "https://dc.lft.to/lastmile_qr_scan"}, "name": "e25a76cf59f0c430fdde02022eefd5f4", "is_reserved": 0}, {"is_disabled": 0, "fusion_lon": 0.0, "fusion_lat": 0.0, "lat": 38.846009333333335, "type": "electric_bike", "lon": -76.96883916666667, "bike_id": "96b69d2685b0a2d9b8a3d3c5942750bd", "rental_uris": {"android": "https://dc.lft.to/lastmile_qr_scan", "ios": "https://dc.lft.to/lastmile_qr_scan"}, "name": "96b69d2685b0a2d9b8a3d3c5942750bd", "is_reserved": 0}, {"is_disabled": 0, "fusion_lon": 0.0, "fusion_lat": 0.0, "lat": 38.96756833333333, "type": "electric_bike", "lon": -77.09159633333333, "bike_id": "2762d5098c1f592a5c0180e3f6027dd7", "rental_uris": {"android": "https://dc.lft.to/lastmile_qr_scan", "ios": "https://dc.lft.to/lastmile_qr_scan"}, "name": "2762d5098c1f592a5c0180e3f6027dd7", "is_reserved": 0}, {"is_disabled": 0, "fusion_lon": 0.0, "fusion_lat": 0.0, "lat": 38.9247805, "type": "electric_scooter", "lon": -77.03486333333333, "bike_id": "8159728dfec3e45370a5607411189c13", "rental_uris": {"android": "https://dc.lft.to/lastmile_qr_scan", "ios": "https://dc.lft.to/lastmile_qr_scan"}, "name": "8159728dfec3e45370a5607411189c13", "is_reserved": 0}, {"is_disabled": 0, "fusion_lon": 0.0, "fusion_lat": 0.0, "lat": 38.863272333333335, "type": "electric_scooter", "lon": -76.99044016666667, "bike_id": "00098fabc112156f7860d17c8ea38aad", "rental_uris": {"android": "https://dc.lft.to/lastmile_qr_scan", "ios": "https://dc.lft.to/lastmile_qr_scan"}, "name": "00098fabc112156f7860d17c8ea38aad", "is_reserved": 0}, {"is_disabled": 0, "fusion_lon": 0.0, "fusion_lat": 0.0, "lat": 38.886112833333335, "type": "electric_scooter", "lon": -77.00579233333333, "bike_id": "79a08cde3b3f066404fedf7305bcd03c", "rental_uris": {"android": "https://dc.lft.to/lastmile_qr_scan", "ios": "https://dc.lft.to/lastmile_qr_scan"}, "name": "79a08cde3b3f066404fedf7305bcd03c", "is_reserved": 0}, {"is_disabled": 0, "fusion_lon": 0.0, "fusion_lat": 0.0, "lat": 38.88702333333333, "type": "electric_scooter", "lon": -76.98798766666667, "bike_id": "d16048e538bec5582c5b86032d0fbb81", "rental_uris": {"android": "https://dc.lft.to/lastmile_qr_scan", "ios": "https://dc.lft.to/lastmile_qr_scan"}, "name": "d16048e538bec5582c5b86032d0fbb81", "is_reserved": 0}, {"is_disabled": 0, "fusion_lon": 0.0, "fusion_lat": 0.0, "lat": 38.919252, "type": "electric_scooter", "lon": -77.024156, "bike_id": "28adedcd6bede941741b4b7b336eb5b7", "rental_uris": {"android": "https://dc.lft.to/lastmile_qr_scan", "ios": "https://dc.lft.to/lastmile_qr_scan"}, "name": "28adedcd6bede941741b4b7b336eb5b7", "is_reserved": 0}, {"is_disabled": 0, "fusion_lon": 0.0, "fusion_lat": 0.0, "lat": 38.937045166666664, "type": "electric_scooter", "lon": -77.0560065, "bike_id": "daf524cbf030aac21e3823f6c9285e13", "rental_uris": {"android": "https://dc.lft.to/lastmile_qr_scan", "ios": "https://dc.lft.to/lastmile_qr_scan"}, "name": "daf524cbf030aac21e3823f6c9285e13", "is_reserved": 0}, {"is_disabled": 0, "fusion_lon": 0.0, "fusion_lat": 0.0, "lat": 38.916994833333334, "type": "electric_scooter", "lon": -77.01168666666666, "bike_id": "21beeb476065e42eb814ec0c09e8a729", "rental_uris": {"android": "https://dc.lft.to/lastmile_qr_scan", "ios": "https://dc.lft.to/lastmile_qr_scan"}, "name": "21beeb476065e42eb814ec0c09e8a729", "is_reserved": 0}, {"is_disabled": 0, "fusion_lon": 0.0, "fusion_lat": 0.0, "lat": 38.90382066666667, "type": "electric_scooter", "lon": -77.05382516666667, "bike_id": "f6f5c28d2ccbf20492c7c1ce3b59b273", "rental_uris": {"android": "https://dc.lft.to/lastmile_qr_scan", "ios": "https://dc.lft.to/lastmile_qr_scan"}, "name": "f6f5c28d2ccbf20492c7c1ce3b59b273", "is_reserved": 0}, {"is_disabled": 0, "fusion_lon": 0.0, "fusion_lat": 0.0, "lat": 38.913132, "type": "electric_scooter", "lon": -77.01432216666667, "bike_id": "243b50832ebbe8e9462e0f99133ec2c7", "rental_uris": {"android": "https://dc.lft.to/lastmile_qr_scan", "ios": "https://dc.lft.to/lastmile_qr_scan"}, "name": "243b50832ebbe8e9462e0f99133ec2c7", "is_reserved": 0}, {"is_disabled": 0, "fusion_lon": 0.0, "fusion_lat": 0.0, "lat": 38.8705125, "type": "electric_scooter", "lon": -76.98086866666667, "bike_id": "6f1de833e814f10fcc875791511992ee", "rental_uris": {"android": "https://dc.lft.to/lastmile_qr_scan", "ios": "https://dc.lft.to/lastmile_qr_scan"}, "name": "6f1de833e814f10fcc875791511992ee", "is_reserved": 0}, {"is_disabled": 0, "fusion_lon": 0.0, "fusion_lat": 0.0, "lat": 38.9563815, "type": "electric_scooter", "lon": -77.0909665, "bike_id": "a9e744bc3a99265d7c81412ed2b60cbe", "rental_uris": {"android": "https://dc.lft.to/lastmile_qr_scan", "ios": "https://dc.lft.to/lastmile_qr_scan"}, "name": "a9e744bc3a99265d7c81412ed2b60cbe", "is_reserved": 0}, {"is_disabled": 0, "fusion_lon": 0.0, "fusion_lat": 0.0, "lat": 38.849327833333334, "type": "electric_bike", "lon": -77.10012983333333, "bike_id": "e06a403733317515bc59c1c6d4148627", "rental_uris": {"android": "https://dc.lft.to/lastmile_qr_scan", "ios": "https://dc.lft.to/lastmile_qr_scan"}, "name": "e06a403733317515bc59c1c6d4148627", "is_reserved": 0}, {"is_disabled": 0, "fusion_lon": 0.0, "fusion_lat": 0.0, "lat": 38.9076465, "type": "electric_scooter", "lon": -77.00109266666666, "bike_id": "56170cccff21ca4a4e0afd43d6125ed1", "rental_uris": {"android": "https://dc.lft.to/lastmile_qr_scan", "ios": "https://dc.lft.to/lastmile_qr_scan"}, "name": "56170cccff21ca4a4e0afd43d6125ed1", "is_reserved": 0}, {"is_disabled": 0, "fusion_lon": 0.0, "fusion_lat": 0.0, "lat": 38.856499666666664, "type": "electric_bike", "lon": -77.08527533333333, "bike_id": "dfc7fbfa595de3c253a942685ad365c1", "rental_uris": {"android": "https://dc.lft.to/lastmile_qr_scan", "ios": "https://dc.lft.to/lastmile_qr_scan"}, "name": "dfc7fbfa595de3c253a942685ad365c1", "is_reserved": 0}, {"is_disabled": 0, "fusion_lon": 0.0, "fusion_lat": 0.0, "lat": 38.93108216666667, "type": "electric_scooter", "lon": -77.03486316666667, "bike_id": "d97ffa6d6778eb7d62e2ab5c46e31fd7", "rental_uris": {"android": "https://dc.lft.to/lastmile_qr_scan", "ios": "https://dc.lft.to/lastmile_qr_scan"}, "name": "d97ffa6d6778eb7d62e2ab5c46e31fd7", "is_reserved": 0}, {"is_disabled": 0, "fusion_lon": 0.0, "fusion_lat": 0.0, "lat": 38.9320945, "type": "electric_scooter", "lon": -77.03677816666666, "bike_id": "2dbd8fcb9f63cbd22794aeae8867b5b7", "rental_uris": {"android": "https://dc.lft.to/lastmile_qr_scan", "ios": "https://dc.lft.to/lastmile_qr_scan"}, "name": "2dbd8fcb9f63cbd22794aeae8867b5b7", "is_reserved": 0}, {"is_disabled": 0, "fusion_lon": 0.0, "fusion_lat": 0.0, "lat": 38.89616, "type": "electric_scooter", "lon": -76.99633533333333, "bike_id": "3f3eb69f768f4f07b332f0c92ccde8dc", "rental_uris": {"android": "https://dc.lft.to/lastmile_qr_scan", "ios": "https://dc.lft.to/lastmile_qr_scan"}, "name": "3f3eb69f768f4f07b332f0c92ccde8dc", "is_reserved": 0}, {"is_disabled": 0, "fusion_lon": 0.0, "fusion_lat": 0.0, "lat": 38.91878883333333, "type": "electric_scooter", "lon": -77.0441635, "bike_id": "c99ad42753d1aa08c68a79965d859bd8", "rental_uris": {"android": "https://dc.lft.to/lastmile_qr_scan", "ios": "https://dc.lft.to/lastmile_qr_scan"}, "name": "c99ad42753d1aa08c68a79965d859bd8", "is_reserved": 0}, {"is_disabled": 0, "fusion_lon": 0.0, "fusion_lat": 0.0, "lat": 38.9080435, "type": "electric_scooter", "lon": -77.03391916666666, "bike_id": "da007f46cc567330117177a4e0366ace", "rental_uris": {"android": "https://dc.lft.to/lastmile_qr_scan", "ios": "https://dc.lft.to/lastmile_qr_scan"}, "name": "da007f46cc567330117177a4e0366ace", "is_reserved": 0}, {"is_disabled": 0, "fusion_lon": 0.0, "fusion_lat": 0.0, "lat": 38.947847, "type": "electric_scooter", "lon": -77.092768, "bike_id": "73cdf493df4acc5c143b8240f28d83bb", "rental_uris": {"android": "https://dc.lft.to/lastmile_qr_scan", "ios": "https://dc.lft.to/lastmile_qr_scan"}, "name": "73cdf493df4acc5c143b8240f28d83bb", "is_reserved": 0}, {"is_disabled": 0, "fusion_lon": 0.0, "fusion_lat": 0.0, "lat": 38.90001433333333, "type": "electric_scooter", "lon": -76.9926855, "bike_id": "275f426202372e094b172d8cbce4e96b", "rental_uris": {"android": "https://dc.lft.to/lastmile_qr_scan", "ios": "https://dc.lft.to/lastmile_qr_scan"}, "name": "275f426202372e094b172d8cbce4e96b", "is_reserved": 0}, {"is_disabled": 0, "fusion_lon": 0.0, "fusion_lat": 0.0, "lat": 38.905437166666665, "type": "electric_scooter", "lon": -77.04685333333333, "bike_id": "8cbc4faaa512244ce6c85888cd7c4748", "rental_uris": {"android": "https://dc.lft.to/lastmile_qr_scan", "ios": "https://dc.lft.to/lastmile_qr_scan"}, "name": "8cbc4faaa512244ce6c85888cd7c4748", "is_reserved": 0}, {"is_disabled": 0, "fusion_lon": 0.0, "fusion_lat": 0.0, "lat": 38.91676533333333, "type": "electric_scooter", "lon": -77.02715066666667, "bike_id": "7a713782cb29816db2591f45b5a89a4c", "rental_uris": {"android": "https://dc.lft.to/lastmile_qr_scan", "ios": "https://dc.lft.to/lastmile_qr_scan"}, "name": "7a713782cb29816db2591f45b5a89a4c", "is_reserved": 0}, {"is_disabled": 0, "fusion_lon": 0.0, "fusion_lat": 0.0, "lat": 38.865801166666664, "type": "electric_scooter", "lon": -76.99035583333334, "bike_id": "456b295328679dd94e18f2631863bedd", "rental_uris": {"android": "https://dc.lft.to/lastmile_qr_scan", "ios": "https://dc.lft.to/lastmile_qr_scan"}, "name": "456b295328679dd94e18f2631863bedd", "is_reserved": 0}, {"is_disabled": 0, "fusion_lon": 0.0, "fusion_lat": 0.0, "lat": 38.90176116666667, "type": "electric_scooter", "lon": -76.92826833333334, "bike_id": "021f468201148a9f30e6de32e17d0694", "rental_uris": {"android": "https://dc.lft.to/lastmile_qr_scan", "ios": "https://dc.lft.to/lastmile_qr_scan"}, "name": "021f468201148a9f30e6de32e17d0694", "is_reserved": 0}, {"is_disabled": 0, "fusion_lon": 0.0, "fusion_lat": 0.0, "lat": 38.918700666666666, "type": "electric_bike", "lon": -76.961227, "bike_id": "8fbb0326e73d1faf9f9bdbea3a2c4887", "rental_uris": {"android": "https://dc.lft.to/lastmile_qr_scan", "ios": "https://dc.lft.to/lastmile_qr_scan"}, "name": "8fbb0326e73d1faf9f9bdbea3a2c4887", "is_reserved": 0}, {"is_disabled": 0, "fusion_lon": 0.0, "fusion_lat": 0.0, "lat": 38.9207175, "type": "electric_scooter", "lon": -77.01794466666666, "bike_id": "2a02f1236c200a294d0d30421d023561", "rental_uris": {"android": "https://dc.lft.to/lastmile_qr_scan", "ios": "https://dc.lft.to/lastmile_qr_scan"}, "name": "2a02f1236c200a294d0d30421d023561", "is_reserved": 0}, {"is_disabled": 0, "fusion_lon": 0.0, "fusion_lat": 0.0, "lat": 38.852037, "type": "electric_bike", "lon": -77.10122066666666, "bike_id": "0209e88c4babb4810ea7ed864a023916", "rental_uris": {"android": "https://dc.lft.to/lastmile_qr_scan", "ios": "https://dc.lft.to/lastmile_qr_scan"}, "name": "0209e88c4babb4810ea7ed864a023916", "is_reserved": 0}, {"is_disabled": 0, "fusion_lon": 0.0, "fusion_lat": 0.0, "lat": 38.90770633333333, "type": "electric_scooter", "lon": -77.0631745, "bike_id": "192eef9188b55be4f8db6a392cc9cdfc", "rental_uris": {"android": "https://dc.lft.to/lastmile_qr_scan", "ios": "https://dc.lft.to/lastmile_qr_scan"}, "name": "192eef9188b55be4f8db6a392cc9cdfc", "is_reserved": 0}, {"is_disabled": 0, "fusion_lon": 0.0, "fusion_lat": 0.0, "lat": 38.905097, "type": "electric_bike", "lon": -76.98125783333333, "bike_id": "6d2177c960443a6777445d22d0d13c73", "rental_uris": {"android": "https://dc.lft.to/lastmile_qr_scan", "ios": "https://dc.lft.to/lastmile_qr_scan"}, "name": "6d2177c960443a6777445d22d0d13c73", "is_reserved": 0}, {"is_disabled": 0, "fusion_lon": 0.0, "fusion_lat": 0.0, "lat": 38.93273516666667, "type": "electric_scooter", "lon": -76.97415916666667, "bike_id": "2c82fe906ec301c7cfc2121030d337c5", "rental_uris": {"android": "https://dc.lft.to/lastmile_qr_scan", "ios": "https://dc.lft.to/lastmile_qr_scan"}, "name": "2c82fe906ec301c7cfc2121030d337c5", "is_reserved": 0}, {"is_disabled": 0, "fusion_lon": 0.0, "fusion_lat": 0.0, "lat": 38.896040166666666, "type": "electric_scooter", "lon": -77.009151, "bike_id": "1402d15b1fc65e2b9b0ebf40f93127b6", "rental_uris": {"android": "https://dc.lft.to/lastmile_qr_scan", "ios": "https://dc.lft.to/lastmile_qr_scan"}, "name": "1402d15b1fc65e2b9b0ebf40f93127b6", "is_reserved": 0}, {"is_disabled": 0, "fusion_lon": 0.0, "fusion_lat": 0.0, "lat": 38.92754516666667, "type": "electric_scooter", "lon": -77.00597533333334, "bike_id": "197487ef7d23b2d0c867ec3bd125d494", "rental_uris": {"android": "https://dc.lft.to/lastmile_qr_scan", "ios": "https://dc.lft.to/lastmile_qr_scan"}, "name": "197487ef7d23b2d0c867ec3bd125d494", "is_reserved": 0}, {"is_disabled": 0, "fusion_lon": 0.0, "fusion_lat": 0.0, "lat": 38.910374, "type": "electric_scooter", "lon": -77.04805633333334, "bike_id": "4fb769821d27f9c063174e761a9e9eb6", "rental_uris": {"android": "https://dc.lft.to/lastmile_qr_scan", "ios": "https://dc.lft.to/lastmile_qr_scan"}, "name": "4fb769821d27f9c063174e761a9e9eb6", "is_reserved": 0}, {"is_disabled": 0, "fusion_lon": 0.0, "fusion_lat": 0.0, "lat": 38.95299883333333, "type": "electric_scooter", "lon": -77.06863116666666, "bike_id": "3329e4f218575167ec6774f6cf7776a2", "rental_uris": {"android": "https://dc.lft.to/lastmile_qr_scan", "ios": "https://dc.lft.to/lastmile_qr_scan"}, "name": "3329e4f218575167ec6774f6cf7776a2", "is_reserved": 0}, {"is_disabled": 0, "fusion_lon": 0.0, "fusion_lat": 0.0, "lat": 38.940420333333336, "type": "electric_scooter", "lon": -77.0290565, "bike_id": "07d80d0463e40293110b2e17a3a1b84c", "rental_uris": {"android": "https://dc.lft.to/lastmile_qr_scan", "ios": "https://dc.lft.to/lastmile_qr_scan"}, "name": "07d80d0463e40293110b2e17a3a1b84c", "is_reserved": 0}, {"is_disabled": 0, "fusion_lon": 0.0, "fusion_lat": 0.0, "lat": 38.8879885, "type": "electric_bike", "lon": -76.92998483333334, "bike_id": "cdf2355afa952d8f45df34d37762c76e", "rental_uris": {"android": "https://dc.lft.to/lastmile_qr_scan", "ios": "https://dc.lft.to/lastmile_qr_scan"}, "name": "cdf2355afa952d8f45df34d37762c76e", "is_reserved": 0}, {"is_disabled": 0, "fusion_lon": 0.0, "fusion_lat": 0.0, "lat": 38.89310483333333, "type": "electric_scooter", "lon": -77.02206383333333, "bike_id": "62651b45a41d7d13a0d9a1aee5bee4e8", "rental_uris": {"android": "https://dc.lft.to/lastmile_qr_scan", "ios": "https://dc.lft.to/lastmile_qr_scan"}, "name": "62651b45a41d7d13a0d9a1aee5bee4e8", "is_reserved": 0}, {"is_disabled": 0, "fusion_lon": 0.0, "fusion_lat": 0.0, "lat": 38.89371516666667, "type": "electric_scooter", "lon": -76.94994733333333, "bike_id": "6b8621cdd539d24e701ad6cbc8c233b3", "rental_uris": {"android": "https://dc.lft.to/lastmile_qr_scan", "ios": "https://dc.lft.to/lastmile_qr_scan"}, "name": "6b8621cdd539d24e701ad6cbc8c233b3", "is_reserved": 0}, {"is_disabled": 0, "fusion_lon": 0.0, "fusion_lat": 0.0, "lat": 38.91034583333333, "type": "electric_scooter", "lon": -77.04057783333333, "bike_id": "beac564efc3c0c60b19c9a33caefd667", "rental_uris": {"android": "https://dc.lft.to/lastmile_qr_scan", "ios": "https://dc.lft.to/lastmile_qr_scan"}, "name": "beac564efc3c0c60b19c9a33caefd667", "is_reserved": 0}, {"is_disabled": 0, "fusion_lon": 0.0, "fusion_lat": 0.0, "lat": 38.9408275, "type": "electric_scooter", "lon": -77.05956316666666, "bike_id": "fef51414c182eff5c5ec55fbd299d377", "rental_uris": {"android": "https://dc.lft.to/lastmile_qr_scan", "ios": "https://dc.lft.to/lastmile_qr_scan"}, "name": "fef51414c182eff5c5ec55fbd299d377", "is_reserved": 0}, {"is_disabled": 0, "fusion_lon": 0.0, "fusion_lat": 0.0, "lat": 38.89731283333333, "type": "electric_bike", "lon": -77.023884, "bike_id": "e1bc9b1dd93239595ee0cb17fb4bf490", "rental_uris": {"android": "https://dc.lft.to/lastmile_qr_scan", "ios": "https://dc.lft.to/lastmile_qr_scan"}, "name": "e1bc9b1dd93239595ee0cb17fb4bf490", "is_reserved": 0}, {"is_disabled": 0, "fusion_lon": 0.0, "fusion_lat": 0.0, "lat": 38.91483366666667, "type": "electric_scooter", "lon": -77.02176466666667, "bike_id": "9c9a40791c0ed836a7625292b1ea56ed", "rental_uris": {"android": "https://dc.lft.to/lastmile_qr_scan", "ios": "https://dc.lft.to/lastmile_qr_scan"}, "name": "9c9a40791c0ed836a7625292b1ea56ed", "is_reserved": 0}, {"is_disabled": 0, "fusion_lon": 0.0, "fusion_lat": 0.0, "lat": 38.90501033333334, "type": "electric_scooter", "lon": -76.98841433333334, "bike_id": "21ddab9571b2c932ff1a7bd3cd9852fe", "rental_uris": {"android": "https://dc.lft.to/lastmile_qr_scan", "ios": "https://dc.lft.to/lastmile_qr_scan"}, "name": "21ddab9571b2c932ff1a7bd3cd9852fe", "is_reserved": 0}, {"is_disabled": 0, "fusion_lon": 0.0, "fusion_lat": 0.0, "lat": 38.90576333333333, "type": "electric_scooter", "lon": -76.98749966666666, "bike_id": "2a2275d05073f00a107155fb2a8db5d0", "rental_uris": {"android": "https://dc.lft.to/lastmile_qr_scan", "ios": "https://dc.lft.to/lastmile_qr_scan"}, "name": "2a2275d05073f00a107155fb2a8db5d0", "is_reserved": 0}, {"is_disabled": 0, "fusion_lon": 0.0, "fusion_lat": 0.0, "lat": 38.902642166666666, "type": "electric_scooter", "lon": -77.0343045, "bike_id": "a07a9d57a4a3da11a4bd668b5f25e517", "rental_uris": {"android": "https://dc.lft.to/lastmile_qr_scan", "ios": "https://dc.lft.to/lastmile_qr_scan"}, "name": "a07a9d57a4a3da11a4bd668b5f25e517", "is_reserved": 0}, {"is_disabled": 0, "fusion_lon": 0.0, "fusion_lat": 0.0, "lat": 38.924586, "type": "electric_scooter", "lon": -77.02962516666666, "bike_id": "d1fdce53a8112c1000b6c6190a33bb22", "rental_uris": {"android": "https://dc.lft.to/lastmile_qr_scan", "ios": "https://dc.lft.to/lastmile_qr_scan"}, "name": "d1fdce53a8112c1000b6c6190a33bb22", "is_reserved": 0}, {"is_disabled": 0, "fusion_lon": 0.0, "fusion_lat": 0.0, "lat": 38.903882833333334, "type": "electric_scooter", "lon": -76.99003266666666, "bike_id": "e67a8bf6a2041dc079ec9150065e4e79", "rental_uris": {"android": "https://dc.lft.to/lastmile_qr_scan", "ios": "https://dc.lft.to/lastmile_qr_scan"}, "name": "e67a8bf6a2041dc079ec9150065e4e79", "is_reserved": 0}, {"is_disabled": 0, "fusion_lon": 0.0, "fusion_lat": 0.0, "lat": 38.946219, "type": "electric_bike", "lon": -76.93412083333334, "bike_id": "ec1e62cae4cd3fcd2daa2be615eeca1d", "rental_uris": {"android": "https://dc.lft.to/lastmile_qr_scan", "ios": "https://dc.lft.to/lastmile_qr_scan"}, "name": "ec1e62cae4cd3fcd2daa2be615eeca1d", "is_reserved": 0}, {"is_disabled": 0, "fusion_lon": 0.0, "fusion_lat": 0.0, "lat": 38.881069, "type": "electric_bike", "lon": -77.01664333333333, "bike_id": "1936e40303cc7c1d9bda8d57a76936bf", "rental_uris": {"android": "https://dc.lft.to/lastmile_qr_scan", "ios": "https://dc.lft.to/lastmile_qr_scan"}, "name": "1936e40303cc7c1d9bda8d57a76936bf", "is_reserved": 0}, {"is_disabled": 0, "fusion_lon": 0.0, "fusion_lat": 0.0, "lat": 38.95186533333333, "type": "electric_scooter", "lon": -77.02613633333333, "bike_id": "bd2cfb7e6dcf7739ccb03e064462c158", "rental_uris": {"android": "https://dc.lft.to/lastmile_qr_scan", "ios": "https://dc.lft.to/lastmile_qr_scan"}, "name": "bd2cfb7e6dcf7739ccb03e064462c158", "is_reserved": 0}, {"is_disabled": 0, "fusion_lon": 0.0, "fusion_lat": 0.0, "lat": 38.928124333333336, "type": "electric_scooter", "lon": -77.03617766666666, "bike_id": "27c07e1d4444e236f58fbd0526a1975c", "rental_uris": {"android": "https://dc.lft.to/lastmile_qr_scan", "ios": "https://dc.lft.to/lastmile_qr_scan"}, "name": "27c07e1d4444e236f58fbd0526a1975c", "is_reserved": 0}, {"is_disabled": 0, "fusion_lon": 0.0, "fusion_lat": 0.0, "lat": 38.8695505, "type": "electric_scooter", "lon": -76.97594783333334, "bike_id": "70bb0eba697ed77af4e26787d31d9bf3", "rental_uris": {"android": "https://dc.lft.to/lastmile_qr_scan", "ios": "https://dc.lft.to/lastmile_qr_scan"}, "name": "70bb0eba697ed77af4e26787d31d9bf3", "is_reserved": 0}, {"is_disabled": 0, "fusion_lon": 0.0, "fusion_lat": 0.0, "lat": 38.898256833333335, "type": "electric_scooter", "lon": -76.946562, "bike_id": "5b5854f801ff04118bb396a5cbaa9ece", "rental_uris": {"android": "https://dc.lft.to/lastmile_qr_scan", "ios": "https://dc.lft.to/lastmile_qr_scan"}, "name": "5b5854f801ff04118bb396a5cbaa9ece", "is_reserved": 0}, {"is_disabled": 0, "fusion_lon": 0.0, "fusion_lat": 0.0, "lat": 38.91696116666667, "type": "electric_scooter", "lon": -77.03316183333334, "bike_id": "a4304d5e0ff02433e1f3d2857cedf192", "rental_uris": {"android": "https://dc.lft.to/lastmile_qr_scan", "ios": "https://dc.lft.to/lastmile_qr_scan"}, "name": "a4304d5e0ff02433e1f3d2857cedf192", "is_reserved": 0}, {"is_disabled": 0, "fusion_lon": 0.0, "fusion_lat": 0.0, "lat": 38.913828, "type": "electric_scooter", "lon": -77.02966366666666, "bike_id": "ffb1114fd04e242a7ae2237a75cb354a", "rental_uris": {"android": "https://dc.lft.to/lastmile_qr_scan", "ios": "https://dc.lft.to/lastmile_qr_scan"}, "name": "ffb1114fd04e242a7ae2237a75cb354a", "is_reserved": 0}, {"is_disabled": 0, "fusion_lon": 0.0, "fusion_lat": 0.0, "lat": 38.831706833333335, "type": "electric_bike", "lon": -76.9974615, "bike_id": "b87da86a4fc601518590d851a818a053", "rental_uris": {"android": "https://dc.lft.to/lastmile_qr_scan", "ios": "https://dc.lft.to/lastmile_qr_scan"}, "name": "b87da86a4fc601518590d851a818a053", "is_reserved": 0}, {"is_disabled": 0, "fusion_lon": 0.0, "fusion_lat": 0.0, "lat": 38.923843833333336, "type": "electric_scooter", "lon": -77.02758816666666, "bike_id": "237821506e879dea1e07e0983251cbd0", "rental_uris": {"android": "https://dc.lft.to/lastmile_qr_scan", "ios": "https://dc.lft.to/lastmile_qr_scan"}, "name": "237821506e879dea1e07e0983251cbd0", "is_reserved": 0}, {"is_disabled": 0, "fusion_lon": 0.0, "fusion_lat": 0.0, "lat": 38.9095105, "type": "electric_scooter", "lon": -77.0152675, "bike_id": "379851059640c8a20e6532fa1e07a579", "rental_uris": {"android": "https://dc.lft.to/lastmile_qr_scan", "ios": "https://dc.lft.to/lastmile_qr_scan"}, "name": "379851059640c8a20e6532fa1e07a579", "is_reserved": 0}, {"is_disabled": 0, "fusion_lon": 0.0, "fusion_lat": 0.0, "lat": 38.88352283333333, "type": "electric_scooter", "lon": -76.927873, "bike_id": "386175b2828c844046a9cfa5296a101f", "rental_uris": {"android": "https://dc.lft.to/lastmile_qr_scan", "ios": "https://dc.lft.to/lastmile_qr_scan"}, "name": "386175b2828c844046a9cfa5296a101f", "is_reserved": 0}, {"is_disabled": 0, "fusion_lon": 0.0, "fusion_lat": 0.0, "lat": 38.87923833333333, "type": "electric_scooter", "lon": -77.00577016666666, "bike_id": "f2002907e62b36c0bb9fb5c8135a163a", "rental_uris": {"android": "https://dc.lft.to/lastmile_qr_scan", "ios": "https://dc.lft.to/lastmile_qr_scan"}, "name": "f2002907e62b36c0bb9fb5c8135a163a", "is_reserved": 0}, {"is_disabled": 0, "fusion_lon": 0.0, "fusion_lat": 0.0, "lat": 38.892628, "type": "electric_scooter", "lon": -76.941614, "bike_id": "cc4042ad41706e3aa386a9f04ddfc409", "rental_uris": {"android": "https://dc.lft.to/lastmile_qr_scan", "ios": "https://dc.lft.to/lastmile_qr_scan"}, "name": "cc4042ad41706e3aa386a9f04ddfc409", "is_reserved": 0}, {"is_disabled": 0, "fusion_lon": 0.0, "fusion_lat": 0.0, "lat": 38.908226166666665, "type": "electric_scooter", "lon": -77.03344383333334, "bike_id": "f49a2bbd11233de56e7a76c1bf36c1c0", "rental_uris": {"android": "https://dc.lft.to/lastmile_qr_scan", "ios": "https://dc.lft.to/lastmile_qr_scan"}, "name": "f49a2bbd11233de56e7a76c1bf36c1c0", "is_reserved": 0}, {"is_disabled": 0, "fusion_lon": 0.0, "fusion_lat": 0.0, "lat": 38.898529333333336, "type": "electric_bike", "lon": -76.93190483333333, "bike_id": "d8365a29aec03dbc2310c46f334c8fdf", "rental_uris": {"android": "https://dc.lft.to/lastmile_qr_scan", "ios": "https://dc.lft.to/lastmile_qr_scan"}, "name": "d8365a29aec03dbc2310c46f334c8fdf", "is_reserved": 0}, {"is_disabled": 0, "fusion_lon": 0.0, "fusion_lat": 0.0, "lat": 38.903777, "type": "electric_scooter", "lon": -77.0380605, "bike_id": "baeaa28cd870f24a5ca9018e97ba60cc", "rental_uris": {"android": "https://dc.lft.to/lastmile_qr_scan", "ios": "https://dc.lft.to/lastmile_qr_scan"}, "name": "baeaa28cd870f24a5ca9018e97ba60cc", "is_reserved": 0}, {"is_disabled": 0, "fusion_lon": 0.0, "fusion_lat": 0.0, "lat": 38.90655116666667, "type": "electric_scooter", "lon": -77.02520083333333, "bike_id": "754df7008db7b57bab7e8cba7f0d381a", "rental_uris": {"android": "https://dc.lft.to/lastmile_qr_scan", "ios": "https://dc.lft.to/lastmile_qr_scan"}, "name": "754df7008db7b57bab7e8cba7f0d381a", "is_reserved": 0}, {"is_disabled": 0, "fusion_lon": 0.0, "fusion_lat": 0.0, "lat": 38.93092016666667, "type": "electric_scooter", "lon": -77.02537483333333, "bike_id": "140f79943a0622294ea16573bdfd1218", "rental_uris": {"android": "https://dc.lft.to/lastmile_qr_scan", "ios": "https://dc.lft.to/lastmile_qr_scan"}, "name": "140f79943a0622294ea16573bdfd1218", "is_reserved": 0}, {"is_disabled": 0, "fusion_lon": 0.0, "fusion_lat": 0.0, "lat": 38.9313305, "type": "electric_scooter", "lon": -77.07838283333334, "bike_id": "d124d52cb975734895c4f04a04615933", "rental_uris": {"android": "https://dc.lft.to/lastmile_qr_scan", "ios": "https://dc.lft.to/lastmile_qr_scan"}, "name": "d124d52cb975734895c4f04a04615933", "is_reserved": 0}, {"is_disabled": 0, "fusion_lon": 0.0, "fusion_lat": 0.0, "lat": 38.90052716666667, "type": "electric_scooter", "lon": -76.98336133333333, "bike_id": "88866fdf38951c9013a4a52c47b848f8", "rental_uris": {"android": "https://dc.lft.to/lastmile_qr_scan", "ios": "https://dc.lft.to/lastmile_qr_scan"}, "name": "88866fdf38951c9013a4a52c47b848f8", "is_reserved": 0}, {"is_disabled": 0, "fusion_lon": 0.0, "fusion_lat": 0.0, "lat": 38.905237, "type": "electric_scooter", "lon": -77.04885566666667, "bike_id": "d29d056732d258c5157f59bc3848fbfa", "rental_uris": {"android": "https://dc.lft.to/lastmile_qr_scan", "ios": "https://dc.lft.to/lastmile_qr_scan"}, "name": "d29d056732d258c5157f59bc3848fbfa", "is_reserved": 0}, {"is_disabled": 0, "fusion_lon": 0.0, "fusion_lat": 0.0, "lat": 38.875010333333336, "type": "electric_scooter", "lon": -76.9979875, "bike_id": "e3e8f9da4260beefe79c2d0c3488ab5b", "rental_uris": {"android": "https://dc.lft.to/lastmile_qr_scan", "ios": "https://dc.lft.to/lastmile_qr_scan"}, "name": "e3e8f9da4260beefe79c2d0c3488ab5b", "is_reserved": 0}, {"is_disabled": 0, "fusion_lon": 0.0, "fusion_lat": 0.0, "lat": 38.92996433333333, "type": "electric_scooter", "lon": -77.0240205, "bike_id": "d0b349308549f5891a78bf280d4fad3b", "rental_uris": {"android": "https://dc.lft.to/lastmile_qr_scan", "ios": "https://dc.lft.to/lastmile_qr_scan"}, "name": "d0b349308549f5891a78bf280d4fad3b", "is_reserved": 0}, {"is_disabled": 0, "fusion_lon": 0.0, "fusion_lat": 0.0, "lat": 38.894981333333334, "type": "electric_scooter", "lon": -77.00948266666667, "bike_id": "2b414868dbb949fd0fdc66d31ca179e2", "rental_uris": {"android": "https://dc.lft.to/lastmile_qr_scan", "ios": "https://dc.lft.to/lastmile_qr_scan"}, "name": "2b414868dbb949fd0fdc66d31ca179e2", "is_reserved": 0}, {"is_disabled": 0, "fusion_lon": 0.0, "fusion_lat": 0.0, "lat": 38.921171, "type": "electric_scooter", "lon": -77.01206333333333, "bike_id": "7ee7be191633ecdd53a643bcdf71856b", "rental_uris": {"android": "https://dc.lft.to/lastmile_qr_scan", "ios": "https://dc.lft.to/lastmile_qr_scan"}, "name": "7ee7be191633ecdd53a643bcdf71856b", "is_reserved": 0}, {"is_disabled": 0, "fusion_lon": 0.0, "fusion_lat": 0.0, "lat": 38.92998266666667, "type": "electric_scooter", "lon": -77.0379875, "bike_id": "7fb54abba090072af9f5d613be2ebd19", "rental_uris": {"android": "https://dc.lft.to/lastmile_qr_scan", "ios": "https://dc.lft.to/lastmile_qr_scan"}, "name": "7fb54abba090072af9f5d613be2ebd19", "is_reserved": 0}, {"is_disabled": 0, "fusion_lon": 0.0, "fusion_lat": 0.0, "lat": 38.91704416666666, "type": "electric_scooter", "lon": -77.03334416666667, "bike_id": "8409876cc3b03caae0629cbad27a69a7", "rental_uris": {"android": "https://dc.lft.to/lastmile_qr_scan", "ios": "https://dc.lft.to/lastmile_qr_scan"}, "name": "8409876cc3b03caae0629cbad27a69a7", "is_reserved": 0}, {"is_disabled": 0, "fusion_lon": 0.0, "fusion_lat": 0.0, "lat": 38.9059495, "type": "electric_scooter", "lon": -77.04377933333333, "bike_id": "1d1a9a186a71c54327ddadae77801bb4", "rental_uris": {"android": "https://dc.lft.to/lastmile_qr_scan", "ios": "https://dc.lft.to/lastmile_qr_scan"}, "name": "1d1a9a186a71c54327ddadae77801bb4", "is_reserved": 0}, {"is_disabled": 0, "fusion_lon": 0.0, "fusion_lat": 0.0, "lat": 38.905080833333336, "type": "electric_scooter", "lon": -77.05321383333333, "bike_id": "02e7e5f9f009de0ceec6de564f5fa22e", "rental_uris": {"android": "https://dc.lft.to/lastmile_qr_scan", "ios": "https://dc.lft.to/lastmile_qr_scan"}, "name": "02e7e5f9f009de0ceec6de564f5fa22e", "is_reserved": 0}, {"is_disabled": 0, "fusion_lon": 0.0, "fusion_lat": 0.0, "lat": 38.94303283333333, "type": "electric_scooter", "lon": -77.02763916666666, "bike_id": "f07488568fc7bbab47f38ca2a5fdec29", "rental_uris": {"android": "https://dc.lft.to/lastmile_qr_scan", "ios": "https://dc.lft.to/lastmile_qr_scan"}, "name": "f07488568fc7bbab47f38ca2a5fdec29", "is_reserved": 0}, {"is_disabled": 0, "fusion_lon": 0.0, "fusion_lat": 0.0, "lat": 38.8941125, "type": "electric_scooter", "lon": -77.0109135, "bike_id": "800343db71268977a6b312f971ea3341", "rental_uris": {"android": "https://dc.lft.to/lastmile_qr_scan", "ios": "https://dc.lft.to/lastmile_qr_scan"}, "name": "800343db71268977a6b312f971ea3341", "is_reserved": 0}, {"is_disabled": 0, "fusion_lon": 0.0, "fusion_lat": 0.0, "lat": 38.920709333333335, "type": "electric_scooter", "lon": -77.0438065, "bike_id": "ebadd624681b1827473d4394d98582bb", "rental_uris": {"android": "https://dc.lft.to/lastmile_qr_scan", "ios": "https://dc.lft.to/lastmile_qr_scan"}, "name": "ebadd624681b1827473d4394d98582bb", "is_reserved": 0}, {"is_disabled": 0, "fusion_lon": 0.0, "fusion_lat": 0.0, "lat": 38.86957483333333, "type": "electric_scooter", "lon": -76.9603135, "bike_id": "2d6edd981857f8c8d5b3bb307f0d5ae8", "rental_uris": {"android": "https://dc.lft.to/lastmile_qr_scan", "ios": "https://dc.lft.to/lastmile_qr_scan"}, "name": "2d6edd981857f8c8d5b3bb307f0d5ae8", "is_reserved": 0}, {"is_disabled": 0, "fusion_lon": 0.0, "fusion_lat": 0.0, "lat": 38.91835783333333, "type": "electric_scooter", "lon": -77.07209916666666, "bike_id": "e0d68d74a7e84be82660abcaec05eae8", "rental_uris": {"android": "https://dc.lft.to/lastmile_qr_scan", "ios": "https://dc.lft.to/lastmile_qr_scan"}, "name": "e0d68d74a7e84be82660abcaec05eae8", "is_reserved": 0}, {"is_disabled": 0, "fusion_lon": 0.0, "fusion_lat": 0.0, "lat": 38.92336533333334, "type": "electric_scooter", "lon": -77.041868, "bike_id": "544e41fc057418c9469a598f5d54e437", "rental_uris": {"android": "https://dc.lft.to/lastmile_qr_scan", "ios": "https://dc.lft.to/lastmile_qr_scan"}, "name": "544e41fc057418c9469a598f5d54e437", "is_reserved": 0}, {"is_disabled": 0, "fusion_lon": 0.0, "fusion_lat": 0.0, "lat": 38.810244833333336, "type": "electric_bike", "lon": -77.08434433333333, "bike_id": "614012d30f6dfaa47fe0ed5e7c6af211", "rental_uris": {"android": "https://dc.lft.to/lastmile_qr_scan", "ios": "https://dc.lft.to/lastmile_qr_scan"}, "name": "614012d30f6dfaa47fe0ed5e7c6af211", "is_reserved": 0}, {"is_disabled": 0, "fusion_lon": 0.0, "fusion_lat": 0.0, "lat": 38.90014516666667, "type": "electric_scooter", "lon": -77.03338333333333, "bike_id": "c22a4c5b548aaf3ff318bdc679fdecb9", "rental_uris": {"android": "https://dc.lft.to/lastmile_qr_scan", "ios": "https://dc.lft.to/lastmile_qr_scan"}, "name": "c22a4c5b548aaf3ff318bdc679fdecb9", "is_reserved": 0}, {"is_disabled": 0, "fusion_lon": 0.0, "fusion_lat": 0.0, "lat": 38.90959016666667, "type": "electric_scooter", "lon": -77.023757, "bike_id": "c44bef3e06a9d7a85e2baeca80d9f833", "rental_uris": {"android": "https://dc.lft.to/lastmile_qr_scan", "ios": "https://dc.lft.to/lastmile_qr_scan"}, "name": "c44bef3e06a9d7a85e2baeca80d9f833", "is_reserved": 0}, {"is_disabled": 0, "fusion_lon": 0.0, "fusion_lat": 0.0, "lat": 38.919347333333334, "type": "electric_bike", "lon": -76.97503733333333, "bike_id": "994e2a417873ada40a952dbdd16cd80b", "rental_uris": {"android": "https://dc.lft.to/lastmile_qr_scan", "ios": "https://dc.lft.to/lastmile_qr_scan"}, "name": "994e2a417873ada40a952dbdd16cd80b", "is_reserved": 0}, {"is_disabled": 0, "fusion_lon": 0.0, "fusion_lat": 0.0, "lat": 38.918956666666666, "type": "electric_scooter", "lon": -77.07109333333334, "bike_id": "c880176a381699d4373f0df66f7476ea", "rental_uris": {"android": "https://dc.lft.to/lastmile_qr_scan", "ios": "https://dc.lft.to/lastmile_qr_scan"}, "name": "c880176a381699d4373f0df66f7476ea", "is_reserved": 0}, {"is_disabled": 0, "fusion_lon": 0.0, "fusion_lat": 0.0, "lat": 38.8652025, "type": "electric_scooter", "lon": -76.98961066666666, "bike_id": "39812bc24f4e32e276c18c56ce8ce2ca", "rental_uris": {"android": "https://dc.lft.to/lastmile_qr_scan", "ios": "https://dc.lft.to/lastmile_qr_scan"}, "name": "39812bc24f4e32e276c18c56ce8ce2ca", "is_reserved": 0}, {"is_disabled": 0, "fusion_lon": 0.0, "fusion_lat": 0.0, "lat": 38.89908466666667, "type": "electric_scooter", "lon": -77.03980283333334, "bike_id": "0875e98196189e4400f2435c07483591", "rental_uris": {"android": "https://dc.lft.to/lastmile_qr_scan", "ios": "https://dc.lft.to/lastmile_qr_scan"}, "name": "0875e98196189e4400f2435c07483591", "is_reserved": 0}, {"is_disabled": 0, "fusion_lon": 0.0, "fusion_lat": 0.0, "lat": 38.846181666666666, "type": "electric_scooter", "lon": -76.996278, "bike_id": "c43159b34c939f0f082d6112fcef7a1b", "rental_uris": {"android": "https://dc.lft.to/lastmile_qr_scan", "ios": "https://dc.lft.to/lastmile_qr_scan"}, "name": "c43159b34c939f0f082d6112fcef7a1b", "is_reserved": 0}, {"is_disabled": 0, "fusion_lon": 0.0, "fusion_lat": 0.0, "lat": 38.903390333333334, "type": "electric_scooter", "lon": -76.980169, "bike_id": "4347fed01329146cd5c6de1faf304505", "rental_uris": {"android": "https://dc.lft.to/lastmile_qr_scan", "ios": "https://dc.lft.to/lastmile_qr_scan"}, "name": "4347fed01329146cd5c6de1faf304505", "is_reserved": 0}, {"is_disabled": 0, "fusion_lon": 0.0, "fusion_lat": 0.0, "lat": 38.924407333333335, "type": "electric_scooter", "lon": -77.02607566666667, "bike_id": "92c58edf11ff1ed613a9735f98d57afa", "rental_uris": {"android": "https://dc.lft.to/lastmile_qr_scan", "ios": "https://dc.lft.to/lastmile_qr_scan"}, "name": "92c58edf11ff1ed613a9735f98d57afa", "is_reserved": 0}, {"is_disabled": 0, "fusion_lon": 0.0, "fusion_lat": 0.0, "lat": 38.9181795, "type": "electric_scooter", "lon": -77.03136066666667, "bike_id": "9c4757368ab7d311d5a23d0e84efc3f3", "rental_uris": {"android": "https://dc.lft.to/lastmile_qr_scan", "ios": "https://dc.lft.to/lastmile_qr_scan"}, "name": "9c4757368ab7d311d5a23d0e84efc3f3", "is_reserved": 0}, {"is_disabled": 0, "fusion_lon": 0.0, "fusion_lat": 0.0, "lat": 38.9601805, "type": "electric_scooter", "lon": -77.033103, "bike_id": "1f94f1e8585dd501391c9344c98cfd38", "rental_uris": {"android": "https://dc.lft.to/lastmile_qr_scan", "ios": "https://dc.lft.to/lastmile_qr_scan"}, "name": "1f94f1e8585dd501391c9344c98cfd38", "is_reserved": 0}, {"is_disabled": 0, "fusion_lon": 0.0, "fusion_lat": 0.0, "lat": 38.92765166666667, "type": "electric_scooter", "lon": -77.027899, "bike_id": "9a3ac4c7e69652d8096cc57db00dd9ac", "rental_uris": {"android": "https://dc.lft.to/lastmile_qr_scan", "ios": "https://dc.lft.to/lastmile_qr_scan"}, "name": "9a3ac4c7e69652d8096cc57db00dd9ac", "is_reserved": 0}, {"is_disabled": 0, "fusion_lon": 0.0, "fusion_lat": 0.0, "lat": 38.962816333333336, "type": "electric_bike", "lon": -77.02871633333334, "bike_id": "bc338a0887740b4917c1db749d5f7c17", "rental_uris": {"android": "https://dc.lft.to/lastmile_qr_scan", "ios": "https://dc.lft.to/lastmile_qr_scan"}, "name": "bc338a0887740b4917c1db749d5f7c17", "is_reserved": 0}, {"is_disabled": 0, "fusion_lon": 0.0, "fusion_lat": 0.0, "lat": 38.910476, "type": "electric_scooter", "lon": -77.05437716666667, "bike_id": "6b109fed71d112e0c5dced35bd40e55e", "rental_uris": {"android": "https://dc.lft.to/lastmile_qr_scan", "ios": "https://dc.lft.to/lastmile_qr_scan"}, "name": "6b109fed71d112e0c5dced35bd40e55e", "is_reserved": 0}, {"is_disabled": 0, "fusion_lon": 0.0, "fusion_lat": 0.0, "lat": 38.904726, "type": "electric_scooter", "lon": -77.035834, "bike_id": "280e67be13169b9825fc108501451e64", "rental_uris": {"android": "https://dc.lft.to/lastmile_qr_scan", "ios": "https://dc.lft.to/lastmile_qr_scan"}, "name": "280e67be13169b9825fc108501451e64", "is_reserved": 0}, {"is_disabled": 0, "fusion_lon": 0.0, "fusion_lat": 0.0, "lat": 38.9346295, "type": "electric_scooter", "lon": -77.03012533333333, "bike_id": "61b38244444996d8eae072ee6b2bb67e", "rental_uris": {"android": "https://dc.lft.to/lastmile_qr_scan", "ios": "https://dc.lft.to/lastmile_qr_scan"}, "name": "61b38244444996d8eae072ee6b2bb67e", "is_reserved": 0}, {"is_disabled": 0, "fusion_lon": 0.0, "fusion_lat": 0.0, "lat": 38.901850333333336, "type": "electric_scooter", "lon": -77.02502466666667, "bike_id": "81e56d0ff632f78ec756d19c6869b566", "rental_uris": {"android": "https://dc.lft.to/lastmile_qr_scan", "ios": "https://dc.lft.to/lastmile_qr_scan"}, "name": "81e56d0ff632f78ec756d19c6869b566", "is_reserved": 0}, {"is_disabled": 0, "fusion_lon": 0.0, "fusion_lat": 0.0, "lat": 38.89746733333333, "type": "electric_scooter", "lon": -77.030397, "bike_id": "9eb350566179ebd59f27729d4cb694c6", "rental_uris": {"android": "https://dc.lft.to/lastmile_qr_scan", "ios": "https://dc.lft.to/lastmile_qr_scan"}, "name": "9eb350566179ebd59f27729d4cb694c6", "is_reserved": 0}, {"is_disabled": 0, "fusion_lon": 0.0, "fusion_lat": 0.0, "lat": 38.82392933333333, "type": "electric_scooter", "lon": -77.006957, "bike_id": "2f468bae0026a932f318660b4d7f0f8b", "rental_uris": {"android": "https://dc.lft.to/lastmile_qr_scan", "ios": "https://dc.lft.to/lastmile_qr_scan"}, "name": "2f468bae0026a932f318660b4d7f0f8b", "is_reserved": 0}, {"is_disabled": 0, "fusion_lon": 0.0, "fusion_lat": 0.0, "lat": 38.945753, "type": "electric_bike", "lon": -76.98774266666666, "bike_id": "54cd839f43d100ef6547d79243a71f84", "rental_uris": {"android": "https://dc.lft.to/lastmile_qr_scan", "ios": "https://dc.lft.to/lastmile_qr_scan"}, "name": "54cd839f43d100ef6547d79243a71f84", "is_reserved": 0}, {"is_disabled": 0, "fusion_lon": 0.0, "fusion_lat": 0.0, "lat": 38.923008833333334, "type": "electric_scooter", "lon": -77.041781, "bike_id": "138a85477c68a6142dd851457081420a", "rental_uris": {"android": "https://dc.lft.to/lastmile_qr_scan", "ios": "https://dc.lft.to/lastmile_qr_scan"}, "name": "138a85477c68a6142dd851457081420a", "is_reserved": 0}, {"is_disabled": 0, "fusion_lon": 0.0, "fusion_lat": 0.0, "lat": 38.936429333333336, "type": "electric_bike", "lon": -76.95447466666667, "bike_id": "48977e2f7384861df8fc12064759d89f", "rental_uris": {"android": "https://dc.lft.to/lastmile_qr_scan", "ios": "https://dc.lft.to/lastmile_qr_scan"}, "name": "48977e2f7384861df8fc12064759d89f", "is_reserved": 0}, {"is_disabled": 0, "fusion_lon": 0.0, "fusion_lat": 0.0, "lat": 38.890007, "type": "electric_scooter", "lon": -77.04895516666667, "bike_id": "86e659956a345bfa6acca291009bfa28", "rental_uris": {"android": "https://dc.lft.to/lastmile_qr_scan", "ios": "https://dc.lft.to/lastmile_qr_scan"}, "name": "86e659956a345bfa6acca291009bfa28", "is_reserved": 0}, {"is_disabled": 0, "fusion_lon": 0.0, "fusion_lat": 0.0, "lat": 38.896327666666664, "type": "electric_scooter", "lon": -77.00936133333333, "bike_id": "303ca7e3ccd462fd5db8bba948ccf60c", "rental_uris": {"android": "https://dc.lft.to/lastmile_qr_scan", "ios": "https://dc.lft.to/lastmile_qr_scan"}, "name": "303ca7e3ccd462fd5db8bba948ccf60c", "is_reserved": 0}, {"is_disabled": 0, "fusion_lon": 0.0, "fusion_lat": 0.0, "lat": 38.908548333333336, "type": "electric_scooter", "lon": -77.05506133333333, "bike_id": "d6ad9118f7f63a89f233256d9f9e68fe", "rental_uris": {"android": "https://dc.lft.to/lastmile_qr_scan", "ios": "https://dc.lft.to/lastmile_qr_scan"}, "name": "d6ad9118f7f63a89f233256d9f9e68fe", "is_reserved": 0}, {"is_disabled": 0, "fusion_lon": 0.0, "fusion_lat": 0.0, "lat": 38.90270066666667, "type": "electric_scooter", "lon": -77.00320933333333, "bike_id": "61d9389a185866c1cb3867c0333472b7", "rental_uris": {"android": "https://dc.lft.to/lastmile_qr_scan", "ios": "https://dc.lft.to/lastmile_qr_scan"}, "name": "61d9389a185866c1cb3867c0333472b7", "is_reserved": 0}, {"is_disabled": 0, "fusion_lon": 0.0, "fusion_lat": 0.0, "lat": 38.88745733333333, "type": "electric_scooter", "lon": -77.014317, "bike_id": "16c2fc40156cc1f172b3836e2dbdb39a", "rental_uris": {"android": "https://dc.lft.to/lastmile_qr_scan", "ios": "https://dc.lft.to/lastmile_qr_scan"}, "name": "16c2fc40156cc1f172b3836e2dbdb39a", "is_reserved": 0}, {"is_disabled": 0, "fusion_lon": 0.0, "fusion_lat": 0.0, "lat": 38.884269333333336, "type": "electric_scooter", "lon": -77.02970616666667, "bike_id": "77553f7b926bcbde19d91b182e820e8f", "rental_uris": {"android": "https://dc.lft.to/lastmile_qr_scan", "ios": "https://dc.lft.to/lastmile_qr_scan"}, "name": "77553f7b926bcbde19d91b182e820e8f", "is_reserved": 0}, {"is_disabled": 0, "fusion_lon": 0.0, "fusion_lat": 0.0, "lat": 38.8922015, "type": "electric_scooter", "lon": -77.0333755, "bike_id": "314d10014a3b0b01205b8fbc3dbcade7", "rental_uris": {"android": "https://dc.lft.to/lastmile_qr_scan", "ios": "https://dc.lft.to/lastmile_qr_scan"}, "name": "314d10014a3b0b01205b8fbc3dbcade7", "is_reserved": 0}, {"is_disabled": 0, "fusion_lon": 0.0, "fusion_lat": 0.0, "lat": 38.905541, "type": "electric_scooter", "lon": -76.981457, "bike_id": "80ea7b8500efbeb7d6a416ce995cdc7f", "rental_uris": {"android": "https://dc.lft.to/lastmile_qr_scan", "ios": "https://dc.lft.to/lastmile_qr_scan"}, "name": "80ea7b8500efbeb7d6a416ce995cdc7f", "is_reserved": 0}, {"is_disabled": 0, "fusion_lon": 0.0, "fusion_lat": 0.0, "lat": 38.945908, "type": "electric_bike", "lon": -77.344074, "bike_id": "12bd7a05bea7ca5dcccc293c1a91a153", "rental_uris": {"android": "https://dc.lft.to/lastmile_qr_scan", "ios": "https://dc.lft.to/lastmile_qr_scan"}, "name": "12bd7a05bea7ca5dcccc293c1a91a153", "is_reserved": 0}, {"is_disabled": 0, "fusion_lon": 0.0, "fusion_lat": 0.0, "lat": 39.05459416666667, "type": "electric_bike", "lon": -77.1432835, "bike_id": "f53c52e17348a4700451899ec1350cf4", "rental_uris": {"android": "https://dc.lft.to/lastmile_qr_scan", "ios": "https://dc.lft.to/lastmile_qr_scan"}, "name": "f53c52e17348a4700451899ec1350cf4", "is_reserved": 0}, {"is_disabled": 0, "fusion_lon": 0.0, "fusion_lat": 0.0, "lat": 38.893907666666664, "type": "electric_scooter", "lon": -76.94989416666667, "bike_id": "867cc39165b433c379fbf91e457145bc", "rental_uris": {"android": "https://dc.lft.to/lastmile_qr_scan", "ios": "https://dc.lft.to/lastmile_qr_scan"}, "name": "867cc39165b433c379fbf91e457145bc", "is_reserved": 0}, {"is_disabled": 0, "fusion_lon": 0.0, "fusion_lat": 0.0, "lat": 38.924830666666665, "type": "electric_scooter", "lon": -77.037742, "bike_id": "c718effa0220ce29971327b68ebb5f70", "rental_uris": {"android": "https://dc.lft.to/lastmile_qr_scan", "ios": "https://dc.lft.to/lastmile_qr_scan"}, "name": "c718effa0220ce29971327b68ebb5f70", "is_reserved": 0}, {"is_disabled": 0, "fusion_lon": 0.0, "fusion_lat": 0.0, "lat": 38.9003235, "type": "electric_scooter", "lon": -77.046798, "bike_id": "18cb8394610be5d71945b861f4b2eb53", "rental_uris": {"android": "https://dc.lft.to/lastmile_qr_scan", "ios": "https://dc.lft.to/lastmile_qr_scan"}, "name": "18cb8394610be5d71945b861f4b2eb53", "is_reserved": 0}, {"is_disabled": 0, "fusion_lon": 0.0, "fusion_lat": 0.0, "lat": 38.888523666666664, "type": "electric_bike", "lon": -76.97701233333333, "bike_id": "fc17054e9fda00dbcb933f0e21d9d3e7", "rental_uris": {"android": "https://dc.lft.to/lastmile_qr_scan", "ios": "https://dc.lft.to/lastmile_qr_scan"}, "name": "fc17054e9fda00dbcb933f0e21d9d3e7", "is_reserved": 0}, {"is_disabled": 0, "fusion_lon": 0.0, "fusion_lat": 0.0, "lat": 38.897943166666664, "type": "electric_scooter", "lon": -76.93055983333333, "bike_id": "09f8f9e9c81f4650e475a75bd0f9504f", "rental_uris": {"android": "https://dc.lft.to/lastmile_qr_scan", "ios": "https://dc.lft.to/lastmile_qr_scan"}, "name": "09f8f9e9c81f4650e475a75bd0f9504f", "is_reserved": 0}, {"is_disabled": 0, "fusion_lon": 0.0, "fusion_lat": 0.0, "lat": 38.867426, "type": "electric_scooter", "lon": -76.9885585, "bike_id": "8187ef71979372741f3c664467583fe7", "rental_uris": {"android": "https://dc.lft.to/lastmile_qr_scan", "ios": "https://dc.lft.to/lastmile_qr_scan"}, "name": "8187ef71979372741f3c664467583fe7", "is_reserved": 0}, {"is_disabled": 0, "fusion_lon": 0.0, "fusion_lat": 0.0, "lat": 38.94984566666667, "type": "electric_scooter", "lon": -77.0270475, "bike_id": "1dafa7a88854f5229f9ee4b1000f1c95", "rental_uris": {"android": "https://dc.lft.to/lastmile_qr_scan", "ios": "https://dc.lft.to/lastmile_qr_scan"}, "name": "1dafa7a88854f5229f9ee4b1000f1c95", "is_reserved": 0}, {"is_disabled": 0, "fusion_lon": 0.0, "fusion_lat": 0.0, "lat": 38.926590166666664, "type": "electric_scooter", "lon": -77.02309983333333, "bike_id": "02278e893195409165e014c742702e92", "rental_uris": {"android": "https://dc.lft.to/lastmile_qr_scan", "ios": "https://dc.lft.to/lastmile_qr_scan"}, "name": "02278e893195409165e014c742702e92", "is_reserved": 0}, {"is_disabled": 0, "fusion_lon": 0.0, "fusion_lat": 0.0, "lat": 38.83153433333333, "type": "electric_bike", "lon": -76.99692616666667, "bike_id": "e6925701c2cadd67803db657a6f8d73f", "rental_uris": {"android": "https://dc.lft.to/lastmile_qr_scan", "ios": "https://dc.lft.to/lastmile_qr_scan"}, "name": "e6925701c2cadd67803db657a6f8d73f", "is_reserved": 0}, {"is_disabled": 0, "fusion_lon": 0.0, "fusion_lat": 0.0, "lat": 38.98818816666667, "type": "electric_bike", "lon": -77.02646666666666, "bike_id": "3177ca429f7febecf7ce6cc8f5501bcf", "rental_uris": {"android": "https://dc.lft.to/lastmile_qr_scan", "ios": "https://dc.lft.to/lastmile_qr_scan"}, "name": "3177ca429f7febecf7ce6cc8f5501bcf", "is_reserved": 0}, {"is_disabled": 0, "fusion_lon": 0.0, "fusion_lat": 0.0, "lat": 38.942465166666665, "type": "electric_scooter", "lon": -77.02171816666667, "bike_id": "883441c3235d5617cd94e54c063852f1", "rental_uris": {"android": "https://dc.lft.to/lastmile_qr_scan", "ios": "https://dc.lft.to/lastmile_qr_scan"}, "name": "883441c3235d5617cd94e54c063852f1", "is_reserved": 0}, {"is_disabled": 0, "fusion_lon": 0.0, "fusion_lat": 0.0, "lat": 38.919216166666665, "type": "electric_scooter", "lon": -77.0446445, "bike_id": "581dd4ca511094e96e1d4769daf62a4b", "rental_uris": {"android": "https://dc.lft.to/lastmile_qr_scan", "ios": "https://dc.lft.to/lastmile_qr_scan"}, "name": "581dd4ca511094e96e1d4769daf62a4b", "is_reserved": 0}, {"is_disabled": 0, "fusion_lon": 0.0, "fusion_lat": 0.0, "lat": 38.845192833333336, "type": "electric_scooter", "lon": -76.9814575, "bike_id": "cb8741ddb2508d7fb2102a6df868c02f", "rental_uris": {"android": "https://dc.lft.to/lastmile_qr_scan", "ios": "https://dc.lft.to/lastmile_qr_scan"}, "name": "cb8741ddb2508d7fb2102a6df868c02f", "is_reserved": 0}, {"is_disabled": 0, "fusion_lon": 0.0, "fusion_lat": 0.0, "lat": 38.9133995, "type": "electric_scooter", "lon": -77.04224466666666, "bike_id": "aba22eff036fcc27557be163414a3ac3", "rental_uris": {"android": "https://dc.lft.to/lastmile_qr_scan", "ios": "https://dc.lft.to/lastmile_qr_scan"}, "name": "aba22eff036fcc27557be163414a3ac3", "is_reserved": 0}, {"is_disabled": 0, "fusion_lon": 0.0, "fusion_lat": 0.0, "lat": 38.874976333333336, "type": "electric_scooter", "lon": -76.99793566666666, "bike_id": "af0864ca1e1f2366fc69edc94fb2e899", "rental_uris": {"android": "https://dc.lft.to/lastmile_qr_scan", "ios": "https://dc.lft.to/lastmile_qr_scan"}, "name": "af0864ca1e1f2366fc69edc94fb2e899", "is_reserved": 0}, {"is_disabled": 0, "fusion_lon": 0.0, "fusion_lat": 0.0, "lat": 38.887284, "type": "electric_scooter", "lon": -77.02204716666667, "bike_id": "47f12c9d0b5a5c4ba281d8b72288b254", "rental_uris": {"android": "https://dc.lft.to/lastmile_qr_scan", "ios": "https://dc.lft.to/lastmile_qr_scan"}, "name": "47f12c9d0b5a5c4ba281d8b72288b254", "is_reserved": 0}, {"is_disabled": 0, "fusion_lon": 0.0, "fusion_lat": 0.0, "lat": 38.918218333333336, "type": "electric_scooter", "lon": -77.03530516666666, "bike_id": "b546a2daded317167490769af5f97158", "rental_uris": {"android": "https://dc.lft.to/lastmile_qr_scan", "ios": "https://dc.lft.to/lastmile_qr_scan"}, "name": "b546a2daded317167490769af5f97158", "is_reserved": 0}, {"is_disabled": 0, "fusion_lon": 0.0, "fusion_lat": 0.0, "lat": 38.90253383333334, "type": "electric_scooter", "lon": -77.0002475, "bike_id": "37c1541e0d0ba3ea0f3559ac95b944c4", "rental_uris": {"android": "https://dc.lft.to/lastmile_qr_scan", "ios": "https://dc.lft.to/lastmile_qr_scan"}, "name": "37c1541e0d0ba3ea0f3559ac95b944c4", "is_reserved": 0}, {"is_disabled": 0, "fusion_lon": 0.0, "fusion_lat": 0.0, "lat": 38.86465333333334, "type": "electric_scooter", "lon": -76.99604366666667, "bike_id": "6913fd6565b35d557a798d66e154a49f", "rental_uris": {"android": "https://dc.lft.to/lastmile_qr_scan", "ios": "https://dc.lft.to/lastmile_qr_scan"}, "name": "6913fd6565b35d557a798d66e154a49f", "is_reserved": 0}, {"is_disabled": 0, "fusion_lon": 0.0, "fusion_lat": 0.0, "lat": 38.921406166666664, "type": "electric_scooter", "lon": -77.00914983333334, "bike_id": "cd4193f5f62e237aeb7a4f805de714ff", "rental_uris": {"android": "https://dc.lft.to/lastmile_qr_scan", "ios": "https://dc.lft.to/lastmile_qr_scan"}, "name": "cd4193f5f62e237aeb7a4f805de714ff", "is_reserved": 0}, {"is_disabled": 0, "fusion_lon": 0.0, "fusion_lat": 0.0, "lat": 38.931019, "type": "electric_scooter", "lon": -77.02461433333333, "bike_id": "51966ee78fcecd0cc0bd50b0f48b1868", "rental_uris": {"android": "https://dc.lft.to/lastmile_qr_scan", "ios": "https://dc.lft.to/lastmile_qr_scan"}, "name": "51966ee78fcecd0cc0bd50b0f48b1868", "is_reserved": 0}, {"is_disabled": 0, "fusion_lon": 0.0, "fusion_lat": 0.0, "lat": 38.90729183333333, "type": "electric_scooter", "lon": -77.02421283333334, "bike_id": "fdbcf96094d047052f9a2872576c33f6", "rental_uris": {"android": "https://dc.lft.to/lastmile_qr_scan", "ios": "https://dc.lft.to/lastmile_qr_scan"}, "name": "fdbcf96094d047052f9a2872576c33f6", "is_reserved": 0}, {"is_disabled": 0, "fusion_lon": 0.0, "fusion_lat": 0.0, "lat": 38.8851165, "type": "electric_scooter", "lon": -76.99844683333333, "bike_id": "dbed7fbfcb1f65214dc8030b10f63f41", "rental_uris": {"android": "https://dc.lft.to/lastmile_qr_scan", "ios": "https://dc.lft.to/lastmile_qr_scan"}, "name": "dbed7fbfcb1f65214dc8030b10f63f41", "is_reserved": 0}, {"is_disabled": 0, "fusion_lon": 0.0, "fusion_lat": 0.0, "lat": 38.87924566666667, "type": "electric_scooter", "lon": -77.013464, "bike_id": "19bfdd301fd584bd4b8c56e2f75f129c", "rental_uris": {"android": "https://dc.lft.to/lastmile_qr_scan", "ios": "https://dc.lft.to/lastmile_qr_scan"}, "name": "19bfdd301fd584bd4b8c56e2f75f129c", "is_reserved": 0}, {"is_disabled": 0, "fusion_lon": 0.0, "fusion_lat": 0.0, "lat": 38.90963416666666, "type": "electric_scooter", "lon": -77.02305566666666, "bike_id": "671655d5a409d281f75871b10bbb115a", "rental_uris": {"android": "https://dc.lft.to/lastmile_qr_scan", "ios": "https://dc.lft.to/lastmile_qr_scan"}, "name": "671655d5a409d281f75871b10bbb115a", "is_reserved": 0}, {"is_disabled": 0, "fusion_lon": 0.0, "fusion_lat": 0.0, "lat": 38.90899233333333, "type": "electric_scooter", "lon": -76.9986035, "bike_id": "2a54444617e7a9bdf18c72847f28b2bd", "rental_uris": {"android": "https://dc.lft.to/lastmile_qr_scan", "ios": "https://dc.lft.to/lastmile_qr_scan"}, "name": "2a54444617e7a9bdf18c72847f28b2bd", "is_reserved": 0}, {"is_disabled": 0, "fusion_lon": 0.0, "fusion_lat": 0.0, "lat": 38.933917, "type": "electric_scooter", "lon": -77.0311145, "bike_id": "09eda79ca81784ed1bac7e37b9d00227", "rental_uris": {"android": "https://dc.lft.to/lastmile_qr_scan", "ios": "https://dc.lft.to/lastmile_qr_scan"}, "name": "09eda79ca81784ed1bac7e37b9d00227", "is_reserved": 0}, {"is_disabled": 0, "fusion_lon": 0.0, "fusion_lat": 0.0, "lat": 38.9070525, "type": "electric_scooter", "lon": -77.02693566666666, "bike_id": "849ff9c34fb4287a88ef25aee1d353fd", "rental_uris": {"android": "https://dc.lft.to/lastmile_qr_scan", "ios": "https://dc.lft.to/lastmile_qr_scan"}, "name": "849ff9c34fb4287a88ef25aee1d353fd", "is_reserved": 0}, {"is_disabled": 0, "fusion_lon": 0.0, "fusion_lat": 0.0, "lat": 38.92034116666667, "type": "electric_scooter", "lon": -77.02585833333333, "bike_id": "489ed518a908d20bf25a874c064bdc71", "rental_uris": {"android": "https://dc.lft.to/lastmile_qr_scan", "ios": "https://dc.lft.to/lastmile_qr_scan"}, "name": "489ed518a908d20bf25a874c064bdc71", "is_reserved": 0}, {"is_disabled": 0, "fusion_lon": 0.0, "fusion_lat": 0.0, "lat": 38.988275333333334, "type": "electric_bike", "lon": -76.98749116666667, "bike_id": "8d382d534918c82073ddaa3cffaf1e15", "rental_uris": {"android": "https://dc.lft.to/lastmile_qr_scan", "ios": "https://dc.lft.to/lastmile_qr_scan"}, "name": "8d382d534918c82073ddaa3cffaf1e15", "is_reserved": 0}, {"is_disabled": 0, "fusion_lon": 0.0, "fusion_lat": 0.0, "lat": 38.93599833333333, "type": "electric_scooter", "lon": -77.05854533333333, "bike_id": "885d8ce92e4d5492a2231c02257296c9", "rental_uris": {"android": "https://dc.lft.to/lastmile_qr_scan", "ios": "https://dc.lft.to/lastmile_qr_scan"}, "name": "885d8ce92e4d5492a2231c02257296c9", "is_reserved": 0}, {"is_disabled": 0, "fusion_lon": 0.0, "fusion_lat": 0.0, "lat": 38.9232905, "type": "electric_scooter", "lon": -77.04172833333334, "bike_id": "27a1a81a37ed095df3e1db8ef18d4ac5", "rental_uris": {"android": "https://dc.lft.to/lastmile_qr_scan", "ios": "https://dc.lft.to/lastmile_qr_scan"}, "name": "27a1a81a37ed095df3e1db8ef18d4ac5", "is_reserved": 0}, {"is_disabled": 0, "fusion_lon": 0.0, "fusion_lat": 0.0, "lat": 38.90694766666667, "type": "electric_scooter", "lon": -77.04653816666666, "bike_id": "e2119194e8e926805eb2bf2603325a61", "rental_uris": {"android": "https://dc.lft.to/lastmile_qr_scan", "ios": "https://dc.lft.to/lastmile_qr_scan"}, "name": "e2119194e8e926805eb2bf2603325a61", "is_reserved": 0}, {"is_disabled": 0, "fusion_lon": 0.0, "fusion_lat": 0.0, "lat": 38.8716015, "type": "electric_scooter", "lon": -77.01353266666666, "bike_id": "53eb83de9a9574c8dc3f2cf5e7553b5a", "rental_uris": {"android": "https://dc.lft.to/lastmile_qr_scan", "ios": "https://dc.lft.to/lastmile_qr_scan"}, "name": "53eb83de9a9574c8dc3f2cf5e7553b5a", "is_reserved": 0}, {"is_disabled": 0, "fusion_lon": 0.0, "fusion_lat": 0.0, "lat": 38.90059483333334, "type": "electric_scooter", "lon": -76.9338215, "bike_id": "05904952637d2fba5179d8fa7142bab9", "rental_uris": {"android": "https://dc.lft.to/lastmile_qr_scan", "ios": "https://dc.lft.to/lastmile_qr_scan"}, "name": "05904952637d2fba5179d8fa7142bab9", "is_reserved": 0}, {"is_disabled": 0, "fusion_lon": 0.0, "fusion_lat": 0.0, "lat": 38.878934666666666, "type": "electric_scooter", "lon": -76.93522666666667, "bike_id": "8551769a2104b8b5ef8c08ac23e2ecf9", "rental_uris": {"android": "https://dc.lft.to/lastmile_qr_scan", "ios": "https://dc.lft.to/lastmile_qr_scan"}, "name": "8551769a2104b8b5ef8c08ac23e2ecf9", "is_reserved": 0}, {"is_disabled": 0, "fusion_lon": 0.0, "fusion_lat": 0.0, "lat": 38.899594, "type": "electric_scooter", "lon": -77.05133083333334, "bike_id": "fd28f1de86c9c57919f3388d97cc651d", "rental_uris": {"android": "https://dc.lft.to/lastmile_qr_scan", "ios": "https://dc.lft.to/lastmile_qr_scan"}, "name": "fd28f1de86c9c57919f3388d97cc651d", "is_reserved": 0}, {"is_disabled": 0, "fusion_lon": 0.0, "fusion_lat": 0.0, "lat": 38.913109166666665, "type": "electric_scooter", "lon": -77.0384855, "bike_id": "7d7674b5ac0bf701c8275948f6b1bd6b", "rental_uris": {"android": "https://dc.lft.to/lastmile_qr_scan", "ios": "https://dc.lft.to/lastmile_qr_scan"}, "name": "7d7674b5ac0bf701c8275948f6b1bd6b", "is_reserved": 0}, {"is_disabled": 0, "fusion_lon": 0.0, "fusion_lat": 0.0, "lat": 38.919133333333335, "type": "electric_scooter", "lon": -77.04813983333334, "bike_id": "e04d2865e0b96181a07c4bd4643b0846", "rental_uris": {"android": "https://dc.lft.to/lastmile_qr_scan", "ios": "https://dc.lft.to/lastmile_qr_scan"}, "name": "e04d2865e0b96181a07c4bd4643b0846", "is_reserved": 0}, {"is_disabled": 0, "fusion_lon": 0.0, "fusion_lat": 0.0, "lat": 38.85205466666667, "type": "electric_bike", "lon": -77.1012665, "bike_id": "3ec6e2378582cbb84004f7e5ffad5e26", "rental_uris": {"android": "https://dc.lft.to/lastmile_qr_scan", "ios": "https://dc.lft.to/lastmile_qr_scan"}, "name": "3ec6e2378582cbb84004f7e5ffad5e26", "is_reserved": 0}, {"is_disabled": 0, "fusion_lon": 0.0, "fusion_lat": 0.0, "lat": 38.908660833333336, "type": "electric_scooter", "lon": -77.03549316666667, "bike_id": "933ba1d1c182fb222e3265747b529d92", "rental_uris": {"android": "https://dc.lft.to/lastmile_qr_scan", "ios": "https://dc.lft.to/lastmile_qr_scan"}, "name": "933ba1d1c182fb222e3265747b529d92", "is_reserved": 0}, {"is_disabled": 0, "fusion_lon": 0.0, "fusion_lat": 0.0, "lat": 38.87613433333333, "type": "electric_scooter", "lon": -76.9653145, "bike_id": "4b1b316721f6f8f7faedf422171aa799", "rental_uris": {"android": "https://dc.lft.to/lastmile_qr_scan", "ios": "https://dc.lft.to/lastmile_qr_scan"}, "name": "4b1b316721f6f8f7faedf422171aa799", "is_reserved": 0}, {"is_disabled": 0, "fusion_lon": 0.0, "fusion_lat": 0.0, "lat": 38.920053333333335, "type": "electric_scooter", "lon": -76.98492166666666, "bike_id": "8a22cda69d8af905ed7ff1b5dba6d805", "rental_uris": {"android": "https://dc.lft.to/lastmile_qr_scan", "ios": "https://dc.lft.to/lastmile_qr_scan"}, "name": "8a22cda69d8af905ed7ff1b5dba6d805", "is_reserved": 0}, {"is_disabled": 0, "fusion_lon": 0.0, "fusion_lat": 0.0, "lat": 38.9068745, "type": "electric_scooter", "lon": -77.06287433333334, "bike_id": "3f949dd4212b768ba76276ab53ebbc29", "rental_uris": {"android": "https://dc.lft.to/lastmile_qr_scan", "ios": "https://dc.lft.to/lastmile_qr_scan"}, "name": "3f949dd4212b768ba76276ab53ebbc29", "is_reserved": 0}, {"is_disabled": 0, "fusion_lon": 0.0, "fusion_lat": 0.0, "lat": 38.93826516666667, "type": "electric_scooter", "lon": -77.02795683333333, "bike_id": "b8514e1c5f5e6e788258f53afe645644", "rental_uris": {"android": "https://dc.lft.to/lastmile_qr_scan", "ios": "https://dc.lft.to/lastmile_qr_scan"}, "name": "b8514e1c5f5e6e788258f53afe645644", "is_reserved": 0}, {"is_disabled": 0, "fusion_lon": 0.0, "fusion_lat": 0.0, "lat": 38.929074666666665, "type": "electric_scooter", "lon": -77.02264983333333, "bike_id": "938391e2ea486cbd2634b20e5d97e021", "rental_uris": {"android": "https://dc.lft.to/lastmile_qr_scan", "ios": "https://dc.lft.to/lastmile_qr_scan"}, "name": "938391e2ea486cbd2634b20e5d97e021", "is_reserved": 0}, {"is_disabled": 0, "fusion_lon": 0.0, "fusion_lat": 0.0, "lat": 38.90424933333333, "type": "electric_scooter", "lon": -76.98550866666666, "bike_id": "6d61e0dd9c6f5974b30683a29707a104", "rental_uris": {"android": "https://dc.lft.to/lastmile_qr_scan", "ios": "https://dc.lft.to/lastmile_qr_scan"}, "name": "6d61e0dd9c6f5974b30683a29707a104", "is_reserved": 0}, {"is_disabled": 0, "fusion_lon": 0.0, "fusion_lat": 0.0, "lat": 38.918552166666665, "type": "electric_bike", "lon": -76.960881, "bike_id": "f69ec944e94c62d5ca9bc4343334f688", "rental_uris": {"android": "https://dc.lft.to/lastmile_qr_scan", "ios": "https://dc.lft.to/lastmile_qr_scan"}, "name": "f69ec944e94c62d5ca9bc4343334f688", "is_reserved": 0}, {"is_disabled": 0, "fusion_lon": 0.0, "fusion_lat": 0.0, "lat": 38.937067, "type": "electric_scooter", "lon": -77.061037, "bike_id": "9b9db311df6b4b59732a75db3486e41a", "rental_uris": {"android": "https://dc.lft.to/lastmile_qr_scan", "ios": "https://dc.lft.to/lastmile_qr_scan"}, "name": "9b9db311df6b4b59732a75db3486e41a", "is_reserved": 0}, {"is_disabled": 0, "fusion_lon": 0.0, "fusion_lat": 0.0, "lat": 38.863564, "type": "electric_scooter", "lon": -76.99065666666667, "bike_id": "ace36112ad774bfe903871f1dd0ced07", "rental_uris": {"android": "https://dc.lft.to/lastmile_qr_scan", "ios": "https://dc.lft.to/lastmile_qr_scan"}, "name": "ace36112ad774bfe903871f1dd0ced07", "is_reserved": 0}, {"is_disabled": 0, "fusion_lon": 0.0, "fusion_lat": 0.0, "lat": 38.937056, "type": "electric_scooter", "lon": -77.061017, "bike_id": "705f5bd5f70e450b40dd63d4640c84dc", "rental_uris": {"android": "https://dc.lft.to/lastmile_qr_scan", "ios": "https://dc.lft.to/lastmile_qr_scan"}, "name": "705f5bd5f70e450b40dd63d4640c84dc", "is_reserved": 0}, {"is_disabled": 0, "fusion_lon": 0.0, "fusion_lat": 0.0, "lat": 38.9018595, "type": "electric_scooter", "lon": -77.05002216666666, "bike_id": "e7d504fcf11fa659df3192ea568cbaf9", "rental_uris": {"android": "https://dc.lft.to/lastmile_qr_scan", "ios": "https://dc.lft.to/lastmile_qr_scan"}, "name": "e7d504fcf11fa659df3192ea568cbaf9", "is_reserved": 0}, {"is_disabled": 0, "fusion_lon": 0.0, "fusion_lat": 0.0, "lat": 38.898228833333334, "type": "electric_scooter", "lon": -77.043416, "bike_id": "3d302ee7c579f871bace1c636040c6cd", "rental_uris": {"android": "https://dc.lft.to/lastmile_qr_scan", "ios": "https://dc.lft.to/lastmile_qr_scan"}, "name": "3d302ee7c579f871bace1c636040c6cd", "is_reserved": 0}, {"is_disabled": 0, "fusion_lon": 0.0, "fusion_lat": 0.0, "lat": 38.89535083333333, "type": "electric_bike", "lon": -77.04050283333333, "bike_id": "d417edc56e84ab004860676345d5b8d1", "rental_uris": {"android": "https://dc.lft.to/lastmile_qr_scan", "ios": "https://dc.lft.to/lastmile_qr_scan"}, "name": "d417edc56e84ab004860676345d5b8d1", "is_reserved": 0}, {"is_disabled": 0, "fusion_lon": 0.0, "fusion_lat": 0.0, "lat": 38.932548833333335, "type": "electric_scooter", "lon": -77.03284766666667, "bike_id": "8a1bee209b2688f41a0cff95aa3a6b7e", "rental_uris": {"android": "https://dc.lft.to/lastmile_qr_scan", "ios": "https://dc.lft.to/lastmile_qr_scan"}, "name": "8a1bee209b2688f41a0cff95aa3a6b7e", "is_reserved": 0}, {"is_disabled": 0, "fusion_lon": 0.0, "fusion_lat": 0.0, "lat": 38.93097366666667, "type": "electric_scooter", "lon": -77.03812083333334, "bike_id": "4953d3b1d9443607409f9ed77f95ca26", "rental_uris": {"android": "https://dc.lft.to/lastmile_qr_scan", "ios": "https://dc.lft.to/lastmile_qr_scan"}, "name": "4953d3b1d9443607409f9ed77f95ca26", "is_reserved": 0}, {"is_disabled": 0, "fusion_lon": 0.0, "fusion_lat": 0.0, "lat": 38.858705, "type": "electric_scooter", "lon": -76.99029516666667, "bike_id": "cfded38f08d35c61d93a74a0c84b7c27", "rental_uris": {"android": "https://dc.lft.to/lastmile_qr_scan", "ios": "https://dc.lft.to/lastmile_qr_scan"}, "name": "cfded38f08d35c61d93a74a0c84b7c27", "is_reserved": 0}, {"is_disabled": 0, "fusion_lon": 0.0, "fusion_lat": 0.0, "lat": 38.907018666666666, "type": "electric_scooter", "lon": -77.06304066666667, "bike_id": "80a413c17ebbd7eb7e463c4ee1b87321", "rental_uris": {"android": "https://dc.lft.to/lastmile_qr_scan", "ios": "https://dc.lft.to/lastmile_qr_scan"}, "name": "80a413c17ebbd7eb7e463c4ee1b87321", "is_reserved": 0}, {"is_disabled": 0, "fusion_lon": 0.0, "fusion_lat": 0.0, "lat": 38.95881516666667, "type": "electric_bike", "lon": -76.924823, "bike_id": "856687a84507cc55dd8fb0e0ea182aed", "rental_uris": {"android": "https://dc.lft.to/lastmile_qr_scan", "ios": "https://dc.lft.to/lastmile_qr_scan"}, "name": "856687a84507cc55dd8fb0e0ea182aed", "is_reserved": 0}, {"is_disabled": 0, "fusion_lon": 0.0, "fusion_lat": 0.0, "lat": 38.8936875, "type": "electric_scooter", "lon": -76.97814466666667, "bike_id": "515d41271f62122b9dbc09f12f76c3ae", "rental_uris": {"android": "https://dc.lft.to/lastmile_qr_scan", "ios": "https://dc.lft.to/lastmile_qr_scan"}, "name": "515d41271f62122b9dbc09f12f76c3ae", "is_reserved": 0}, {"is_disabled": 0, "fusion_lon": 0.0, "fusion_lat": 0.0, "lat": 38.89312116666667, "type": "electric_scooter", "lon": -77.02205983333333, "bike_id": "19c144b6eaf215855bbd81521951490d", "rental_uris": {"android": "https://dc.lft.to/lastmile_qr_scan", "ios": "https://dc.lft.to/lastmile_qr_scan"}, "name": "19c144b6eaf215855bbd81521951490d", "is_reserved": 0}, {"is_disabled": 0, "fusion_lon": 0.0, "fusion_lat": 0.0, "lat": 38.8973875, "type": "electric_scooter", "lon": -77.02505333333333, "bike_id": "6e286da3d72046f1934d4bcf3129e74e", "rental_uris": {"android": "https://dc.lft.to/lastmile_qr_scan", "ios": "https://dc.lft.to/lastmile_qr_scan"}, "name": "6e286da3d72046f1934d4bcf3129e74e", "is_reserved": 0}, {"is_disabled": 0, "fusion_lon": 0.0, "fusion_lat": 0.0, "lat": 38.885240333333336, "type": "electric_scooter", "lon": -76.99805166666667, "bike_id": "874f8384bb0d59e9373f73067350711f", "rental_uris": {"android": "https://dc.lft.to/lastmile_qr_scan", "ios": "https://dc.lft.to/lastmile_qr_scan"}, "name": "874f8384bb0d59e9373f73067350711f", "is_reserved": 0}, {"is_disabled": 0, "fusion_lon": 0.0, "fusion_lat": 0.0, "lat": 38.916598666666665, "type": "electric_scooter", "lon": -77.04655166666667, "bike_id": "a17d36fe260506e821b42a025d2b5827", "rental_uris": {"android": "https://dc.lft.to/lastmile_qr_scan", "ios": "https://dc.lft.to/lastmile_qr_scan"}, "name": "a17d36fe260506e821b42a025d2b5827", "is_reserved": 0}, {"is_disabled": 0, "fusion_lon": 0.0, "fusion_lat": 0.0, "lat": 38.960249833333336, "type": "electric_bike", "lon": -76.92730016666667, "bike_id": "6400a7d3859279332b457d09ceedc5d1", "rental_uris": {"android": "https://dc.lft.to/lastmile_qr_scan", "ios": "https://dc.lft.to/lastmile_qr_scan"}, "name": "6400a7d3859279332b457d09ceedc5d1", "is_reserved": 0}, {"is_disabled": 0, "fusion_lon": 0.0, "fusion_lat": 0.0, "lat": 38.92016266666667, "type": "electric_scooter", "lon": -77.04420316666666, "bike_id": "66a9cc119933049bced775294be895a8", "rental_uris": {"android": "https://dc.lft.to/lastmile_qr_scan", "ios": "https://dc.lft.to/lastmile_qr_scan"}, "name": "66a9cc119933049bced775294be895a8", "is_reserved": 0}, {"is_disabled": 0, "fusion_lon": 0.0, "fusion_lat": 0.0, "lat": 38.900598, "type": "electric_scooter", "lon": -76.98681083333334, "bike_id": "26fc06af866a8fbce8562bfe7daf5bf6", "rental_uris": {"android": "https://dc.lft.to/lastmile_qr_scan", "ios": "https://dc.lft.to/lastmile_qr_scan"}, "name": "26fc06af866a8fbce8562bfe7daf5bf6", "is_reserved": 0}, {"is_disabled": 0, "fusion_lon": 0.0, "fusion_lat": 0.0, "lat": 38.913827166666664, "type": "electric_scooter", "lon": -77.029702, "bike_id": "67085e2788ca2ddd174fa8bd3621244c", "rental_uris": {"android": "https://dc.lft.to/lastmile_qr_scan", "ios": "https://dc.lft.to/lastmile_qr_scan"}, "name": "67085e2788ca2ddd174fa8bd3621244c", "is_reserved": 0}, {"is_disabled": 0, "fusion_lon": 0.0, "fusion_lat": 0.0, "lat": 38.91635516666667, "type": "electric_scooter", "lon": -77.04159033333333, "bike_id": "f52c141bd1799250bfe5aba7da82ca0f", "rental_uris": {"android": "https://dc.lft.to/lastmile_qr_scan", "ios": "https://dc.lft.to/lastmile_qr_scan"}, "name": "f52c141bd1799250bfe5aba7da82ca0f", "is_reserved": 0}, {"is_disabled": 0, "fusion_lon": 0.0, "fusion_lat": 0.0, "lat": 38.8870245, "type": "electric_scooter", "lon": -76.95360883333333, "bike_id": "854ed095f50128eaad47ddb82ed16fa8", "rental_uris": {"android": "https://dc.lft.to/lastmile_qr_scan", "ios": "https://dc.lft.to/lastmile_qr_scan"}, "name": "854ed095f50128eaad47ddb82ed16fa8", "is_reserved": 0}, {"is_disabled": 0, "fusion_lon": 0.0, "fusion_lat": 0.0, "lat": 38.842926, "type": "electric_scooter", "lon": -76.99950866666667, "bike_id": "96586ea44d7ee4ac789e2cbabb775923", "rental_uris": {"android": "https://dc.lft.to/lastmile_qr_scan", "ios": "https://dc.lft.to/lastmile_qr_scan"}, "name": "96586ea44d7ee4ac789e2cbabb775923", "is_reserved": 0}, {"is_disabled": 0, "fusion_lon": 0.0, "fusion_lat": 0.0, "lat": 38.91979383333333, "type": "electric_scooter", "lon": -77.0001815, "bike_id": "e64e6f6182787b0f18dab56f3095942b", "rental_uris": {"android": "https://dc.lft.to/lastmile_qr_scan", "ios": "https://dc.lft.to/lastmile_qr_scan"}, "name": "e64e6f6182787b0f18dab56f3095942b", "is_reserved": 0}, {"is_disabled": 0, "fusion_lon": 0.0, "fusion_lat": 0.0, "lat": 38.900338833333336, "type": "electric_scooter", "lon": -76.99675266666667, "bike_id": "1df612cb8dd6707a210b55cb4c65f627", "rental_uris": {"android": "https://dc.lft.to/lastmile_qr_scan", "ios": "https://dc.lft.to/lastmile_qr_scan"}, "name": "1df612cb8dd6707a210b55cb4c65f627", "is_reserved": 0}, {"is_disabled": 0, "fusion_lon": 0.0, "fusion_lat": 0.0, "lat": 38.88911133333333, "type": "electric_scooter", "lon": -76.9800215, "bike_id": "5bd6fa816a0339d57d9e6efec1194666", "rental_uris": {"android": "https://dc.lft.to/lastmile_qr_scan", "ios": "https://dc.lft.to/lastmile_qr_scan"}, "name": "5bd6fa816a0339d57d9e6efec1194666", "is_reserved": 0}, {"is_disabled": 0, "fusion_lon": 0.0, "fusion_lat": 0.0, "lat": 38.928819, "type": "electric_scooter", "lon": -77.03730266666666, "bike_id": "366ae6cb361902249c15db62988a9e9a", "rental_uris": {"android": "https://dc.lft.to/lastmile_qr_scan", "ios": "https://dc.lft.to/lastmile_qr_scan"}, "name": "366ae6cb361902249c15db62988a9e9a", "is_reserved": 0}, {"is_disabled": 0, "fusion_lon": 0.0, "fusion_lat": 0.0, "lat": 38.9243925, "type": "electric_bike", "lon": -76.907563, "bike_id": "10211cf5ac4ae95b1e51074532b2439c", "rental_uris": {"android": "https://dc.lft.to/lastmile_qr_scan", "ios": "https://dc.lft.to/lastmile_qr_scan"}, "name": "10211cf5ac4ae95b1e51074532b2439c", "is_reserved": 0}, {"is_disabled": 0, "fusion_lon": 0.0, "fusion_lat": 0.0, "lat": 38.903397, "type": "electric_scooter", "lon": -77.03867683333333, "bike_id": "24f5fa32a34911143cb4b3ab747490ed", "rental_uris": {"android": "https://dc.lft.to/lastmile_qr_scan", "ios": "https://dc.lft.to/lastmile_qr_scan"}, "name": "24f5fa32a34911143cb4b3ab747490ed", "is_reserved": 0}, {"is_disabled": 0, "fusion_lon": 0.0, "fusion_lat": 0.0, "lat": 38.900137, "type": "electric_scooter", "lon": -77.033935, "bike_id": "d14f402504da55c60cb4a40d02a8c0c5", "rental_uris": {"android": "https://dc.lft.to/lastmile_qr_scan", "ios": "https://dc.lft.to/lastmile_qr_scan"}, "name": "d14f402504da55c60cb4a40d02a8c0c5", "is_reserved": 0}, {"is_disabled": 0, "fusion_lon": 0.0, "fusion_lat": 0.0, "lat": 38.89673233333333, "type": "electric_bike", "lon": -76.98163483333333, "bike_id": "76a1a2ce594c0578888c765b3d200e02", "rental_uris": {"android": "https://dc.lft.to/lastmile_qr_scan", "ios": "https://dc.lft.to/lastmile_qr_scan"}, "name": "76a1a2ce594c0578888c765b3d200e02", "is_reserved": 0}, {"is_disabled": 0, "fusion_lon": 0.0, "fusion_lat": 0.0, "lat": 38.899500333333336, "type": "electric_scooter", "lon": -77.002141, "bike_id": "e62ab861072ffebb6e760328db758e97", "rental_uris": {"android": "https://dc.lft.to/lastmile_qr_scan", "ios": "https://dc.lft.to/lastmile_qr_scan"}, "name": "e62ab861072ffebb6e760328db758e97", "is_reserved": 0}, {"is_disabled": 0, "fusion_lon": 0.0, "fusion_lat": 0.0, "lat": 38.87195883333333, "type": "electric_scooter", "lon": -76.97822683333334, "bike_id": "8c566e03ce612a18ae0294a5d88015ed", "rental_uris": {"android": "https://dc.lft.to/lastmile_qr_scan", "ios": "https://dc.lft.to/lastmile_qr_scan"}, "name": "8c566e03ce612a18ae0294a5d88015ed", "is_reserved": 0}, {"is_disabled": 0, "fusion_lon": 0.0, "fusion_lat": 0.0, "lat": 38.8970055, "type": "electric_scooter", "lon": -77.01177783333333, "bike_id": "acb54a774d88d1526b22a9af2e2d8b9d", "rental_uris": {"android": "https://dc.lft.to/lastmile_qr_scan", "ios": "https://dc.lft.to/lastmile_qr_scan"}, "name": "acb54a774d88d1526b22a9af2e2d8b9d", "is_reserved": 0}, {"is_disabled": 0, "fusion_lon": 0.0, "fusion_lat": 0.0, "lat": 38.90430216666667, "type": "electric_scooter", "lon": -77.06887866666666, "bike_id": "72069226c5925c1eb4e6497a3b5ef348", "rental_uris": {"android": "https://dc.lft.to/lastmile_qr_scan", "ios": "https://dc.lft.to/lastmile_qr_scan"}, "name": "72069226c5925c1eb4e6497a3b5ef348", "is_reserved": 0}, {"is_disabled": 0, "fusion_lon": 0.0, "fusion_lat": 0.0, "lat": 38.90598716666667, "type": "electric_scooter", "lon": -77.06918166666667, "bike_id": "76b37cea7f98c8271c90c4bedac3971a", "rental_uris": {"android": "https://dc.lft.to/lastmile_qr_scan", "ios": "https://dc.lft.to/lastmile_qr_scan"}, "name": "76b37cea7f98c8271c90c4bedac3971a", "is_reserved": 0}, {"is_disabled": 0, "fusion_lon": 0.0, "fusion_lat": 0.0, "lat": 38.96144533333333, "type": "electric_scooter", "lon": -77.02806483333333, "bike_id": "95720e4fc0a0bed69870277409607660", "rental_uris": {"android": "https://dc.lft.to/lastmile_qr_scan", "ios": "https://dc.lft.to/lastmile_qr_scan"}, "name": "95720e4fc0a0bed69870277409607660", "is_reserved": 0}, {"is_disabled": 0, "fusion_lon": 0.0, "fusion_lat": 0.0, "lat": 38.908232166666664, "type": "electric_scooter", "lon": -77.00140016666667, "bike_id": "6e792855699c47282292af1a2fa2bc98", "rental_uris": {"android": "https://dc.lft.to/lastmile_qr_scan", "ios": "https://dc.lft.to/lastmile_qr_scan"}, "name": "6e792855699c47282292af1a2fa2bc98", "is_reserved": 0}, {"is_disabled": 0, "fusion_lon": 0.0, "fusion_lat": 0.0, "lat": 38.9036405, "type": "electric_scooter", "lon": -77.02912566666667, "bike_id": "4585c5e3d23d7c16f13014673bc597be", "rental_uris": {"android": "https://dc.lft.to/lastmile_qr_scan", "ios": "https://dc.lft.to/lastmile_qr_scan"}, "name": "4585c5e3d23d7c16f13014673bc597be", "is_reserved": 0}, {"is_disabled": 0, "fusion_lon": 0.0, "fusion_lat": 0.0, "lat": 38.933028, "type": "electric_scooter", "lon": -77.02136666666667, "bike_id": "8ada66b03991d5f34e9a111c5024b404", "rental_uris": {"android": "https://dc.lft.to/lastmile_qr_scan", "ios": "https://dc.lft.to/lastmile_qr_scan"}, "name": "8ada66b03991d5f34e9a111c5024b404", "is_reserved": 0}, {"is_disabled": 0, "fusion_lon": 0.0, "fusion_lat": 0.0, "lat": 38.9162045, "type": "electric_scooter", "lon": -77.021761, "bike_id": "828138e7e23a120ad2881ce9515fccfa", "rental_uris": {"android": "https://dc.lft.to/lastmile_qr_scan", "ios": "https://dc.lft.to/lastmile_qr_scan"}, "name": "828138e7e23a120ad2881ce9515fccfa", "is_reserved": 0}, {"is_disabled": 0, "fusion_lon": 0.0, "fusion_lat": 0.0, "lat": 38.863549, "type": "electric_scooter", "lon": -76.99066483333333, "bike_id": "557f1ca020ac2802d354022b6528b96c", "rental_uris": {"android": "https://dc.lft.to/lastmile_qr_scan", "ios": "https://dc.lft.to/lastmile_qr_scan"}, "name": "557f1ca020ac2802d354022b6528b96c", "is_reserved": 0}, {"is_disabled": 0, "fusion_lon": 0.0, "fusion_lat": 0.0, "lat": 38.990637166666666, "type": "electric_bike", "lon": -77.10025983333334, "bike_id": "b3567c0fe1dfc1c53aeff04b9091222a", "rental_uris": {"android": "https://dc.lft.to/lastmile_qr_scan", "ios": "https://dc.lft.to/lastmile_qr_scan"}, "name": "b3567c0fe1dfc1c53aeff04b9091222a", "is_reserved": 0}, {"is_disabled": 0, "fusion_lon": 0.0, "fusion_lat": 0.0, "lat": 38.90536083333333, "type": "electric_scooter", "lon": -77.05010866666667, "bike_id": "b7b317d9024748c45984092c97f2c34a", "rental_uris": {"android": "https://dc.lft.to/lastmile_qr_scan", "ios": "https://dc.lft.to/lastmile_qr_scan"}, "name": "b7b317d9024748c45984092c97f2c34a", "is_reserved": 0}, {"is_disabled": 0, "fusion_lon": 0.0, "fusion_lat": 0.0, "lat": 38.907776166666665, "type": "electric_scooter", "lon": -77.03173733333334, "bike_id": "25ca20a13b7febe57c7dc4e36a42a8fc", "rental_uris": {"android": "https://dc.lft.to/lastmile_qr_scan", "ios": "https://dc.lft.to/lastmile_qr_scan"}, "name": "25ca20a13b7febe57c7dc4e36a42a8fc", "is_reserved": 0}, {"is_disabled": 0, "fusion_lon": 0.0, "fusion_lat": 0.0, "lat": 38.927819166666666, "type": "electric_scooter", "lon": -77.01454966666667, "bike_id": "ea222d3db583e6d191585525ddf6454e", "rental_uris": {"android": "https://dc.lft.to/lastmile_qr_scan", "ios": "https://dc.lft.to/lastmile_qr_scan"}, "name": "ea222d3db583e6d191585525ddf6454e", "is_reserved": 0}, {"is_disabled": 0, "fusion_lon": 0.0, "fusion_lat": 0.0, "lat": 38.9908955, "type": "electric_bike", "lon": -76.874952, "bike_id": "63ce50d6f02e62c5af2b34b699ba6b29", "rental_uris": {"android": "https://dc.lft.to/lastmile_qr_scan", "ios": "https://dc.lft.to/lastmile_qr_scan"}, "name": "63ce50d6f02e62c5af2b34b699ba6b29", "is_reserved": 0}, {"is_disabled": 0, "fusion_lon": 0.0, "fusion_lat": 0.0, "lat": 38.88581666666666, "type": "electric_scooter", "lon": -77.0198395, "bike_id": "79027e9cb27e489305b6b579d08ef426", "rental_uris": {"android": "https://dc.lft.to/lastmile_qr_scan", "ios": "https://dc.lft.to/lastmile_qr_scan"}, "name": "79027e9cb27e489305b6b579d08ef426", "is_reserved": 0}, {"is_disabled": 0, "fusion_lon": 0.0, "fusion_lat": 0.0, "lat": 38.926896166666666, "type": "electric_scooter", "lon": -77.03740883333333, "bike_id": "c32b4d6fb0b3212fde344b091cc0d52c", "rental_uris": {"android": "https://dc.lft.to/lastmile_qr_scan", "ios": "https://dc.lft.to/lastmile_qr_scan"}, "name": "c32b4d6fb0b3212fde344b091cc0d52c", "is_reserved": 0}, {"is_disabled": 0, "fusion_lon": 0.0, "fusion_lat": 0.0, "lat": 38.92995, "type": "electric_scooter", "lon": -77.03231766666667, "bike_id": "0cf446563b0de0345e737ff5089b8946", "rental_uris": {"android": "https://dc.lft.to/lastmile_qr_scan", "ios": "https://dc.lft.to/lastmile_qr_scan"}, "name": "0cf446563b0de0345e737ff5089b8946", "is_reserved": 0}, {"is_disabled": 0, "fusion_lon": 0.0, "fusion_lat": 0.0, "lat": 38.84292583333333, "type": "electric_scooter", "lon": -76.99949466666666, "bike_id": "0501980dda5b52f2344ca35b0f328123", "rental_uris": {"android": "https://dc.lft.to/lastmile_qr_scan", "ios": "https://dc.lft.to/lastmile_qr_scan"}, "name": "0501980dda5b52f2344ca35b0f328123", "is_reserved": 0}, {"is_disabled": 0, "fusion_lon": 0.0, "fusion_lat": 0.0, "lat": 38.920272833333335, "type": "electric_scooter", "lon": -77.03125483333334, "bike_id": "5cebcb3f46a0bb655fe845f6881be4d4", "rental_uris": {"android": "https://dc.lft.to/lastmile_qr_scan", "ios": "https://dc.lft.to/lastmile_qr_scan"}, "name": "5cebcb3f46a0bb655fe845f6881be4d4", "is_reserved": 0}, {"is_disabled": 0, "fusion_lon": 0.0, "fusion_lat": 0.0, "lat": 38.88739483333333, "type": "electric_scooter", "lon": -77.01601783333334, "bike_id": "bbb1286686a33b9088e6cb530ddfda01", "rental_uris": {"android": "https://dc.lft.to/lastmile_qr_scan", "ios": "https://dc.lft.to/lastmile_qr_scan"}, "name": "bbb1286686a33b9088e6cb530ddfda01", "is_reserved": 0}, {"is_disabled": 0, "fusion_lon": 0.0, "fusion_lat": 0.0, "lat": 38.94049366666667, "type": "electric_scooter", "lon": -77.02489333333334, "bike_id": "e1b6b9cc12abf1e409d4032175e855d1", "rental_uris": {"android": "https://dc.lft.to/lastmile_qr_scan", "ios": "https://dc.lft.to/lastmile_qr_scan"}, "name": "e1b6b9cc12abf1e409d4032175e855d1", "is_reserved": 0}, {"is_disabled": 0, "fusion_lon": 0.0, "fusion_lat": 0.0, "lat": 38.89954516666667, "type": "electric_scooter", "lon": -77.05200333333333, "bike_id": "8f63eb08951e7f2a6cb838f9ea038913", "rental_uris": {"android": "https://dc.lft.to/lastmile_qr_scan", "ios": "https://dc.lft.to/lastmile_qr_scan"}, "name": "8f63eb08951e7f2a6cb838f9ea038913", "is_reserved": 0}, {"is_disabled": 0, "fusion_lon": 0.0, "fusion_lat": 0.0, "lat": 38.94274, "type": "electric_scooter", "lon": -77.03259883333334, "bike_id": "9dbb8189209c54cafa9f77a253eab7ff", "rental_uris": {"android": "https://dc.lft.to/lastmile_qr_scan", "ios": "https://dc.lft.to/lastmile_qr_scan"}, "name": "9dbb8189209c54cafa9f77a253eab7ff", "is_reserved": 0}, {"is_disabled": 0, "fusion_lon": 0.0, "fusion_lat": 0.0, "lat": 38.899102166666665, "type": "electric_scooter", "lon": -76.93391316666667, "bike_id": "3d7458b9a5fb38916abe68907c3f9007", "rental_uris": {"android": "https://dc.lft.to/lastmile_qr_scan", "ios": "https://dc.lft.to/lastmile_qr_scan"}, "name": "3d7458b9a5fb38916abe68907c3f9007", "is_reserved": 0}, {"is_disabled": 0, "fusion_lon": 0.0, "fusion_lat": 0.0, "lat": 38.934148, "type": "electric_bike", "lon": -77.02511816666667, "bike_id": "5eb39c8ae2eb28c139e6d7cd3ceca2d4", "rental_uris": {"android": "https://dc.lft.to/lastmile_qr_scan", "ios": "https://dc.lft.to/lastmile_qr_scan"}, "name": "5eb39c8ae2eb28c139e6d7cd3ceca2d4", "is_reserved": 0}, {"is_disabled": 0, "fusion_lon": 0.0, "fusion_lat": 0.0, "lat": 38.964464666666665, "type": "electric_bike", "lon": -76.97720233333334, "bike_id": "35d5e9f272126e9ccb954271da562320", "rental_uris": {"android": "https://dc.lft.to/lastmile_qr_scan", "ios": "https://dc.lft.to/lastmile_qr_scan"}, "name": "35d5e9f272126e9ccb954271da562320", "is_reserved": 0}, {"is_disabled": 0, "fusion_lon": 0.0, "fusion_lat": 0.0, "lat": 38.911841333333335, "type": "electric_scooter", "lon": -77.01093483333334, "bike_id": "4e0849825554020b71a288705ab13291", "rental_uris": {"android": "https://dc.lft.to/lastmile_qr_scan", "ios": "https://dc.lft.to/lastmile_qr_scan"}, "name": "4e0849825554020b71a288705ab13291", "is_reserved": 0}, {"is_disabled": 0, "fusion_lon": 0.0, "fusion_lat": 0.0, "lat": 39.0299465, "type": "electric_bike", "lon": -77.10654333333333, "bike_id": "c0dc1e7764b8896247e3b0e6e8133931", "rental_uris": {"android": "https://dc.lft.to/lastmile_qr_scan", "ios": "https://dc.lft.to/lastmile_qr_scan"}, "name": "c0dc1e7764b8896247e3b0e6e8133931", "is_reserved": 0}, {"is_disabled": 0, "fusion_lon": 0.0, "fusion_lat": 0.0, "lat": 38.86593216666667, "type": "electric_bike", "lon": -76.974484, "bike_id": "754421e814a6960397f656e7149e418a", "rental_uris": {"android": "https://dc.lft.to/lastmile_qr_scan", "ios": "https://dc.lft.to/lastmile_qr_scan"}, "name": "754421e814a6960397f656e7149e418a", "is_reserved": 0}, {"is_disabled": 0, "fusion_lon": 0.0, "fusion_lat": 0.0, "lat": 38.85848433333334, "type": "electric_bike", "lon": -77.09745, "bike_id": "33f90eb6e591082c2d84a041e196c778", "rental_uris": {"android": "https://dc.lft.to/lastmile_qr_scan", "ios": "https://dc.lft.to/lastmile_qr_scan"}, "name": "33f90eb6e591082c2d84a041e196c778", "is_reserved": 0}, {"is_disabled": 0, "fusion_lon": 0.0, "fusion_lat": 0.0, "lat": 38.9059985, "type": "electric_scooter", "lon": -77.046785, "bike_id": "843c0268f2152cfc106339959c427720", "rental_uris": {"android": "https://dc.lft.to/lastmile_qr_scan", "ios": "https://dc.lft.to/lastmile_qr_scan"}, "name": "843c0268f2152cfc106339959c427720", "is_reserved": 0}, {"is_disabled": 0, "fusion_lon": 0.0, "fusion_lat": 0.0, "lat": 38.9182275, "type": "electric_scooter", "lon": -77.0451065, "bike_id": "2b01b161313d07213cbd9adb23e1ea37", "rental_uris": {"android": "https://dc.lft.to/lastmile_qr_scan", "ios": "https://dc.lft.to/lastmile_qr_scan"}, "name": "2b01b161313d07213cbd9adb23e1ea37", "is_reserved": 0},