{"data": {"bikes": [{"lat": 38.898376666666664, "is_disabled": 0, "type": "electric_scooter", "lon": -76.931009, "bike_id": "979e0c297bcc1cadafbb561affb676be", "fusion_lat": 0.0, "name": "979e0c297bcc1cadafbb561affb676be", "is_reserved": 0, "rental_uris": {"android": "https://dc.lft.to/lastmile_qr_scan", "ios": "https://dc.lft.to/lastmile_qr_scan"}, "fusion_lon": 0.0}, {"lat": 38.9232105, "is_disabled": 0, "type": "electric_scooter", "lon": -77.02960916666666, "bike_id": "71784dfe81da03fd5076f4337d11e702", "fusion_lat": 0.0, "name": "71784dfe81da03fd5076f4337d11e702", "is_reserved": 0, "rental_uris": {"android": "https://dc.lft.to/lastmile_qr_scan", "ios": "https://dc.lft.to/lastmile_qr_scan"}, "fusion_lon": 0.0}, {"lat": 38.936394666666665, "is_disabled": 0, "type": "electric_bike", "lon": -77.032796, "bike_id": "9e48845b90a252399fa0a0a9cacfa402", "fusion_lat": 0.0, "name": "9e48845b90a252399fa0a0a9cacfa402", "is_reserved": 0, "rental_uris": {"android": "https://dc.lft.to/lastmile_qr_scan", "ios": "https://dc.lft.to/lastmile_qr_scan"}, "fusion_lon": 0.0}, {"lat": 38.9257065, "is_disabled": 0, "type": "electric_scooter", "lon": -76.97005383333334, "bike_id": "8638c19b5ddc5b24ed2e0782bd147dc3", "fusion_lat": 0.0, "name": "8638c19b5ddc5b24ed2e0782bd147dc3", "is_reserved": 0, "rental_uris": {"android": "https://dc.lft.to/lastmile_qr_scan", "ios": "https://dc.lft.to/lastmile_qr_scan"}, "fusion_lon": 0.0}, {"lat": 38.90713566666667, "is_disabled": 0, "type": "electric_scooter", "lon": -77.037203, "bike_id": "7c9117e12a307c9b09b9a205f9ea5cd3", "fusion_lat": 0.0, "name": "7c9117e12a307c9b09b9a205f9ea5cd3", "is_reserved": 0, "rental_uris": {"android": "https://dc.lft.to/lastmile_qr_scan", "ios": "https://dc.lft.to/lastmile_qr_scan"}, "fusion_lon": 0.0}, {"lat": 38.89234066666667, "is_disabled": 0, "type": "electric_scooter", "lon": -77.048959, "bike_id": "0ed5b0122b99d78af495203300f4d06f", "fusion_lat": 0.0, "name": "0ed5b0122b99d78af495203300f4d06f", "is_reserved": 0, "rental_uris": {"android": "https://dc.lft.to/lastmile_qr_scan", "ios": "https://dc.lft.to/lastmile_qr_scan"}, "fusion_lon": 0.0}, {"lat": 38.924432, "is_disabled": 0, "type": "electric_bike", "lon": -77.02690483333333, "bike_id": "34b85689d983e3af9a689593c927cdff", "fusion_lat": 0.0, "name": "34b85689d983e3af9a689593c927cdff", "is_reserved": 0, "rental_uris": {"android": "https://dc.lft.to/lastmile_qr_scan", "ios": "https://dc.lft.to/lastmile_qr_scan"}, "fusion_lon": 0.0}, {"lat": 38.923120833333336, "is_disabled": 0, "type": "electric_scooter", "lon": -77.0390925, "bike_id": "1d96471d3ebb67b206723592dad8996a", "fusion_lat": 0.0, "name": "1d96471d3ebb67b206723592dad8996a", "is_reserved": 0, "rental_uris": {"android": "https://dc.lft.to/lastmile_qr_scan", "ios": "https://dc.lft.to/lastmile_qr_scan"}, "fusion_lon": 0.0}, {"lat": 38.933284, "is_disabled": 0, "type": "electric_scooter", "lon": -77.05701533333334, "bike_id": "56249e4da3ca30175aef07b91913b519", "fusion_lat": 0.0, "name": "56249e4da3ca30175aef07b91913b519", "is_reserved": 0, "rental_uris": {"android": "https://dc.lft.to/lastmile_qr_scan", "ios": "https://dc.lft.to/lastmile_qr_scan"}, "fusion_lon": 0.0}, {"lat": 38.93114083333333, "is_disabled": 0, "type": "electric_scooter", "lon": -77.023394, "bike_id": "009eba8c7de4cbe15ce9f5240cb00b25", "fusion_lat": 0.0, "name": "009eba8c7de4cbe15ce9f5240cb00b25", "is_reserved": 0, "rental_uris": {"android": "https://dc.lft.to/lastmile_qr_scan", "ios": "https://dc.lft.to/lastmile_qr_scan"}, "fusion_lon": 0.0}, {"lat": 38.966062666666666, "is_disabled": 0, "type": "electric_bike", "lon": -76.98331416666667, "bike_id": "38fa2ca7118f4d50f91e6de4a7d7ccdd", "fusion_lat": 0.0, "name": "38fa2ca7118f4d50f91e6de4a7d7ccdd", "is_reserved": 0, "rental_uris": {"android": "https://dc.lft.to/lastmile_qr_scan", "ios": "https://dc.lft.to/lastmile_qr_scan"}, "fusion_lon": 0.0}, {"lat": 38.932922166666664, "is_disabled": 0, "type": "electric_scooter", "lon": -77.02814916666667, "bike_id": "d11ca85ff5e43101974209fa0a33d116", "fusion_lat": 0.0, "name": "d11ca85ff5e43101974209fa0a33d116", "is_reserved": 0, "rental_uris": {"android": "https://dc.lft.to/lastmile_qr_scan", "ios": "https://dc.lft.to/lastmile_qr_scan"}, "fusion_lon": 0.0}, {"lat": 38.938208833333334, "is_disabled": 0, "type": "electric_scooter", "lon": -77.06044983333334, "bike_id": "ad9a246e53a17f760d903eacf8b94ef8", "fusion_lat": 0.0, "name": "ad9a246e53a17f760d903eacf8b94ef8", "is_reserved": 0, "rental_uris": {"android": "https://dc.lft.to/lastmile_qr_scan", "ios": "https://dc.lft.to/lastmile_qr_scan"}, "fusion_lon": 0.0}, {"lat": 38.93731666666667, "is_disabled": 0, "type": "electric_scooter", "lon": -77.032615, "bike_id": "809c9a8dc58a17e8dfd07b4c062adeb4", "fusion_lat": 0.0, "name": "809c9a8dc58a17e8dfd07b4c062adeb4", "is_reserved": 0, "rental_uris": {"android": "https://dc.lft.to/lastmile_qr_scan", "ios": "https://dc.lft.to/lastmile_qr_scan"}, "fusion_lon": 0.0}, {"lat": 38.908365833333335, "is_disabled": 0, "type": "electric_scooter", "lon": -76.99970016666667, "bike_id": "c2bde05a3a3572d09b28f47d604a9739", "fusion_lat": 0.0, "name": "c2bde05a3a3572d09b28f47d604a9739", "is_reserved": 0, "rental_uris": {"android": "https://dc.lft.to/lastmile_qr_scan", "ios": "https://dc.lft.to/lastmile_qr_scan"}, "fusion_lon": 0.0}, {"lat": 38.90279533333333, "is_disabled": 0, "type": "electric_scooter", "lon": -77.04599083333333, "bike_id": "4ab02aa6db26f3dd44462d9a78a6b21a", "fusion_lat": 0.0, "name": "4ab02aa6db26f3dd44462d9a78a6b21a", "is_reserved": 0, "rental_uris": {"android": "https://dc.lft.to/lastmile_qr_scan", "ios": "https://dc.lft.to/lastmile_qr_scan"}, "fusion_lon": 0.0}, {"lat": 38.9096915, "is_disabled": 0, "type": "electric_scooter", "lon": -77.04522666666666, "bike_id": "1958c55009ce58b6c4e4ce09cfce2fc7", "fusion_lat": 0.0, "name": "1958c55009ce58b6c4e4ce09cfce2fc7", "is_reserved": 0, "rental_uris": {"android": "https://dc.lft.to/lastmile_qr_scan", "ios": "https://dc.lft.to/lastmile_qr_scan"}, "fusion_lon": 0.0}, {"lat": 38.899700833333334, "is_disabled": 0, "type": "electric_scooter", "lon": -76.98373683333334, "bike_id": "786cdb431b6cc5e55f2ebb1892c10dd8", "fusion_lat": 0.0, "name": "786cdb431b6cc5e55f2ebb1892c10dd8", "is_reserved": 0, "rental_uris": {"android": "https://dc.lft.to/lastmile_qr_scan", "ios": "https://dc.lft.to/lastmile_qr_scan"}, "fusion_lon": 0.0}, {"lat": 38.93298733333334, "is_disabled": 0, "type": "electric_scooter", "lon": -77.03452216666666, "bike_id": "9f29b6d1d5717ffbba371250ce6ca0e0", "fusion_lat": 0.0, "name": "9f29b6d1d5717ffbba371250ce6ca0e0", "is_reserved": 0, "rental_uris": {"android": "https://dc.lft.to/lastmile_qr_scan", "ios": "https://dc.lft.to/lastmile_qr_scan"}, "fusion_lon": 0.0}, {"lat": 38.913318, "is_disabled": 0, "type": "electric_scooter", "lon": -77.04816266666667, "bike_id": "dc0032b2ce69ffe175d68934a13a0536", "fusion_lat": 0.0, "name": "dc0032b2ce69ffe175d68934a13a0536", "is_reserved": 0, "rental_uris": {"android": "https://dc.lft.to/lastmile_qr_scan", "ios": "https://dc.lft.to/lastmile_qr_scan"}, "fusion_lon": 0.0}, {"lat": 38.9080305, "is_disabled": 0, "type": "electric_scooter", "lon": -77.03166333333333, "bike_id": "9ef9166ac204583e66316a423b621849", "fusion_lat": 0.0, "name": "9ef9166ac204583e66316a423b621849", "is_reserved": 0, "rental_uris": {"android": "https://dc.lft.to/lastmile_qr_scan", "ios": "https://dc.lft.to/lastmile_qr_scan"}, "fusion_lon": 0.0}, {"lat": 38.88514033333333, "is_disabled": 0, "type": "electric_scooter", "lon": -77.01067316666666, "bike_id": "cfe2606e6fa0398b295965ef9c06d06a", "fusion_lat": 0.0, "name": "cfe2606e6fa0398b295965ef9c06d06a", "is_reserved": 0, "rental_uris": {"android": "https://dc.lft.to/lastmile_qr_scan", "ios": "https://dc.lft.to/lastmile_qr_scan"}, "fusion_lon": 0.0}, {"lat": 38.90814733333333, "is_disabled": 0, "type": "electric_scooter", "lon": -77.04154733333333, "bike_id": "84ecf7d29ec4597fbd9cd000745d8c2d", "fusion_lat": 0.0, "name": "84ecf7d29ec4597fbd9cd000745d8c2d", "is_reserved": 0, "rental_uris": {"android": "https://dc.lft.to/lastmile_qr_scan", "ios": "https://dc.lft.to/lastmile_qr_scan"}, "fusion_lon": 0.0}, {"lat": 38.91359333333333, "is_disabled": 0, "type": "electric_scooter", "lon": -77.02185766666666, "bike_id": "f636aacba6af0a5d393d32f57b46784b", "fusion_lat": 0.0, "name": "f636aacba6af0a5d393d32f57b46784b", "is_reserved": 0, "rental_uris": {"android": "https://dc.lft.to/lastmile_qr_scan", "ios": "https://dc.lft.to/lastmile_qr_scan"}, "fusion_lon": 0.0}, {"lat": 38.888768166666665, "is_disabled": 0, "type": "electric_scooter", "lon": -76.97704366666666, "bike_id": "4623e76876fea2a63cbc0e2774feb886", "fusion_lat": 0.0, "name": "4623e76876fea2a63cbc0e2774feb886", "is_reserved": 0, "rental_uris": {"android": "https://dc.lft.to/lastmile_qr_scan", "ios": "https://dc.lft.to/lastmile_qr_scan"}, "fusion_lon": 0.0}, {"lat": 38.89742533333333, "is_disabled": 0, "type": "electric_scooter", "lon": -77.04677683333334, "bike_id": "308e900fd522cc7837e3a1f96a47a105", "fusion_lat": 0.0, "name": "308e900fd522cc7837e3a1f96a47a105", "is_reserved": 0, "rental_uris": {"android": "https://dc.lft.to/lastmile_qr_scan", "ios": "https://dc.lft.to/lastmile_qr_scan"}, "fusion_lon": 0.0}, {"lat": 38.90811333333333, "is_disabled": 0, "type": "electric_scooter", "lon": -76.9856495, "bike_id": "8c29d3d4358e65688ac8edc7ea80c843", "fusion_lat": 0.0, "name": "8c29d3d4358e65688ac8edc7ea80c843", "is_reserved": 0, "rental_uris": {"android": "https://dc.lft.to/lastmile_qr_scan", "ios": "https://dc.lft.to/lastmile_qr_scan"}, "fusion_lon": 0.0}, {"lat": 38.946015833333334, "is_disabled": 0, "type": "electric_scooter", "lon": -77.0298, "bike_id": "7e39101675e14a89c4fd83f76133a260", "fusion_lat": 0.0, "name": "7e39101675e14a89c4fd83f76133a260", "is_reserved": 0, "rental_uris": {"android": "https://dc.lft.to/lastmile_qr_scan", "ios": "https://dc.lft.to/lastmile_qr_scan"}, "fusion_lon": 0.0}, {"lat": 38.899732166666666, "is_disabled": 0, "type": "electric_scooter", "lon": -77.05094633333333, "bike_id": "3744eb28d6a00d39e3052d5dcd3a733f", "fusion_lat": 0.0, "name": "3744eb28d6a00d39e3052d5dcd3a733f", "is_reserved": 0, "rental_uris": {"android": "https://dc.lft.to/lastmile_qr_scan", "ios": "https://dc.lft.to/lastmile_qr_scan"}, "fusion_lon": 0.0}, {"lat": 38.91428116666667, "is_disabled": 0, "type": "electric_scooter", "lon": -77.032163, "bike_id": "42c65015a5dc81b57624cfddb7b1ffa5", "fusion_lat": 0.0, "name": "42c65015a5dc81b57624cfddb7b1ffa5", "is_reserved": 0, "rental_uris": {"android": "https://dc.lft.to/lastmile_qr_scan", "ios": "https://dc.lft.to/lastmile_qr_scan"}, "fusion_lon": 0.0}, {"lat": 38.92257083333333, "is_disabled": 0, "type": "electric_scooter", "lon": -77.04137, "bike_id": "a5061236eff6aef82c0ede0a3536fcc7", "fusion_lat": 0.0, "name": "a5061236eff6aef82c0ede0a3536fcc7", "is_reserved": 0, "rental_uris": {"android": "https://dc.lft.to/lastmile_qr_scan", "ios": "https://dc.lft.to/lastmile_qr_scan"}, "fusion_lon": 0.0}, {"lat": 38.87475116666667, "is_disabled": 0, "type": "electric_scooter", "lon": -77.01065616666666, "bike_id": "c0a50b0a42b28b69b7b7cbafab446401", "fusion_lat": 0.0, "name": "c0a50b0a42b28b69b7b7cbafab446401", "is_reserved": 0, "rental_uris": {"android": "https://dc.lft.to/lastmile_qr_scan", "ios": "https://dc.lft.to/lastmile_qr_scan"}, "fusion_lon": 0.0}, {"lat": 38.92620983333333, "is_disabled": 0, "type": "electric_scooter", "lon": -77.03786316666667, "bike_id": "ea323396cb34ef1bb8118dcbb5f5e7e4", "fusion_lat": 0.0, "name": "ea323396cb34ef1bb8118dcbb5f5e7e4", "is_reserved": 0, "rental_uris": {"android": "https://dc.lft.to/lastmile_qr_scan", "ios": "https://dc.lft.to/lastmile_qr_scan"}, "fusion_lon": 0.0}, {"lat": 38.89216783333333, "is_disabled": 0, "type": "electric_scooter", "lon": -77.02647833333333, "bike_id": "cce2940facb8bc2f51ce99de37ddc496", "fusion_lat": 0.0, "name": "cce2940facb8bc2f51ce99de37ddc496", "is_reserved": 0, "rental_uris": {"android": "https://dc.lft.to/lastmile_qr_scan", "ios": "https://dc.lft.to/lastmile_qr_scan"}, "fusion_lon": 0.0}, {"lat": 38.902918666666665, "is_disabled": 0, "type": "electric_scooter", "lon": -77.05321916666666, "bike_id": "c2db8a52aaf3348708683851590e7816", "fusion_lat": 0.0, "name": "c2db8a52aaf3348708683851590e7816", "is_reserved": 0, "rental_uris": {"android": "https://dc.lft.to/lastmile_qr_scan", "ios": "https://dc.lft.to/lastmile_qr_scan"}, "fusion_lon": 0.0}, {"lat": 38.924786833333336, "is_disabled": 0, "type": "electric_scooter", "lon": -77.05211783333333, "bike_id": "861458e6165c99cd940fae15a2460060", "fusion_lat": 0.0, "name": "861458e6165c99cd940fae15a2460060", "is_reserved": 0, "rental_uris": {"android": "https://dc.lft.to/lastmile_qr_scan", "ios": "https://dc.lft.to/lastmile_qr_scan"}, "fusion_lon": 0.0}, {"lat": 38.8650975, "is_disabled": 0, "type": "electric_scooter", "lon": -76.974298, "bike_id": "185def7c6f53156e9557bdce4e7b6855", "fusion_lat": 0.0, "name": "185def7c6f53156e9557bdce4e7b6855", "is_reserved": 0, "rental_uris": {"android": "https://dc.lft.to/lastmile_qr_scan", "ios": "https://dc.lft.to/lastmile_qr_scan"}, "fusion_lon": 0.0}, {"lat": 38.90855666666667, "is_disabled": 0, "type": "electric_scooter", "lon": -77.02394983333333, "bike_id": "5fad2a99c992ff403c9b281d31769d32", "fusion_lat": 0.0, "name": "5fad2a99c992ff403c9b281d31769d32", "is_reserved": 0, "rental_uris": {"android": "https://dc.lft.to/lastmile_qr_scan", "ios": "https://dc.lft.to/lastmile_qr_scan"}, "fusion_lon": 0.0}, {"lat": 38.899504666666665, "is_disabled": 0, "type": "electric_scooter", "lon": -77.0516565, "bike_id": "a4aab77a40f0999243801a6d5d7bb3f3", "fusion_lat": 0.0, "name": "a4aab77a40f0999243801a6d5d7bb3f3", "is_reserved": 0, "rental_uris": {"android": "https://dc.lft.to/lastmile_qr_scan", "ios": "https://dc.lft.to/lastmile_qr_scan"}, "fusion_lon": 0.0}, {"lat": 38.91758083333333, "is_disabled": 0, "type": "electric_scooter", "lon": -77.03171833333333, "bike_id": "c46285bddcdd1909f96aeeb42e53222f", "fusion_lat": 0.0, "name": "c46285bddcdd1909f96aeeb42e53222f", "is_reserved": 0, "rental_uris": {"android": "https://dc.lft.to/lastmile_qr_scan", "ios": "https://dc.lft.to/lastmile_qr_scan"}, "fusion_lon": 0.0}, {"lat": 38.90914383333333, "is_disabled": 0, "type": "electric_scooter", "lon": -77.036402, "bike_id": "2255c0114960905e8aa14345e7d8bdc5", "fusion_lat": 0.0, "name": "2255c0114960905e8aa14345e7d8bdc5", "is_reserved": 0, "rental_uris": {"android": "https://dc.lft.to/lastmile_qr_scan", "ios": "https://dc.lft.to/lastmile_qr_scan"}, "fusion_lon": 0.0}, {"lat": 38.86559583333333, "is_disabled": 0, "type": "electric_scooter", "lon": -76.98945066666667, "bike_id": "aacc7df85d934017e7d86bc7c7f1a81c", "fusion_lat": 0.0, "name": "aacc7df85d934017e7d86bc7c7f1a81c", "is_reserved": 0, "rental_uris": {"android": "https://dc.lft.to/lastmile_qr_scan", "ios": "https://dc.lft.to/lastmile_qr_scan"}, "fusion_lon": 0.0}, {"lat": 38.95562916666667, "is_disabled": 0, "type": "electric_scooter", "lon": -77.02231983333333, "bike_id": "958061aa06b07ef80b86a34b3ac0e6c5", "fusion_lat": 0.0, "name": "958061aa06b07ef80b86a34b3ac0e6c5", "is_reserved": 0, "rental_uris": {"android": "https://dc.lft.to/lastmile_qr_scan", "ios": "https://dc.lft.to/lastmile_qr_scan"}, "fusion_lon": 0.0}, {"lat": 38.887356833333335, "is_disabled": 0, "type": "electric_scooter", "lon": -77.032132, "bike_id": "2e9fc79ca3c1bb72e850040e530717c4", "fusion_lat": 0.0, "name": "2e9fc79ca3c1bb72e850040e530717c4", "is_reserved": 0, "rental_uris": {"android": "https://dc.lft.to/lastmile_qr_scan", "ios": "https://dc.lft.to/lastmile_qr_scan"}, "fusion_lon": 0.0}, {"lat": 38.914676666666665, "is_disabled": 0, "type": "electric_scooter", "lon": -77.03210316666667, "bike_id": "46c449a5bc7770bd98033ce33bbac9cc", "fusion_lat": 0.0, "name": "46c449a5bc7770bd98033ce33bbac9cc", "is_reserved": 0, "rental_uris": {"android": "https://dc.lft.to/lastmile_qr_scan", "ios": "https://dc.lft.to/lastmile_qr_scan"}, "fusion_lon": 0.0}, {"lat": 38.880838, "is_disabled": 0, "type": "electric_scooter", "lon": -76.995055, "bike_id": "4c602ad13191375b314dc5131ce6a449", "fusion_lat": 0.0, "name": "4c602ad13191375b314dc5131ce6a449", "is_reserved": 0, "rental_uris": {"android": "https://dc.lft.to/lastmile_qr_scan", "ios": "https://dc.lft.to/lastmile_qr_scan"}, "fusion_lon": 0.0}, {"lat": 38.90867633333333, "is_disabled": 0, "type": "electric_scooter", "lon": -77.046573, "bike_id": "930a4a3bd55f7c8b9b383ff89f74833a", "fusion_lat": 0.0, "name": "930a4a3bd55f7c8b9b383ff89f74833a", "is_reserved": 0, "rental_uris": {"android": "https://dc.lft.to/lastmile_qr_scan", "ios": "https://dc.lft.to/lastmile_qr_scan"}, "fusion_lon": 0.0}, {"lat": 38.8604985, "is_disabled": 0, "type": "electric_bike", "lon": -77.05644716666667, "bike_id": "83502503873217d9b385971b3cdc5a23", "fusion_lat": 0.0, "name": "83502503873217d9b385971b3cdc5a23", "is_reserved": 0, "rental_uris": {"android": "https://dc.lft.to/lastmile_qr_scan", "ios": "https://dc.lft.to/lastmile_qr_scan"}, "fusion_lon": 0.0}, {"lat": 38.92857466666667, "is_disabled": 0, "type": "electric_bike", "lon": -77.03688866666667, "bike_id": "b27a9e044354614df7a086fd553b9ed9", "fusion_lat": 0.0, "name": "b27a9e044354614df7a086fd553b9ed9", "is_reserved": 0, "rental_uris": {"android": "https://dc.lft.to/lastmile_qr_scan", "ios": "https://dc.lft.to/lastmile_qr_scan"}, "fusion_lon": 0.0}, {"lat": 38.909797, "is_disabled": 0, "type": "electric_scooter", "lon": -77.0334495, "bike_id": "a5b8c4a7312aaf703ae2e725941e26bd", "fusion_lat": 0.0, "name": "a5b8c4a7312aaf703ae2e725941e26bd", "is_reserved": 0, "rental_uris": {"android": "https://dc.lft.to/lastmile_qr_scan", "ios": "https://dc.lft.to/lastmile_qr_scan"}, "fusion_lon": 0.0}, {"lat": 38.965596833333336, "is_disabled": 0, "type": "electric_bike", "lon": -77.0229855, "bike_id": "607533ecd623ff29a01d4460a16650e6", "fusion_lat": 0.0, "name": "607533ecd623ff29a01d4460a16650e6", "is_reserved": 0, "rental_uris": {"android": "https://dc.lft.to/lastmile_qr_scan", "ios": "https://dc.lft.to/lastmile_qr_scan"}, "fusion_lon": 0.0}, {"lat": 38.91778983333333, "is_disabled": 0, "type": "electric_scooter", "lon": -77.04098716666667, "bike_id": "bbddf0568f8cc61e7d80f01e6c0a37ab", "fusion_lat": 0.0, "name": "bbddf0568f8cc61e7d80f01e6c0a37ab", "is_reserved": 0, "rental_uris": {"android": "https://dc.lft.to/lastmile_qr_scan", "ios": "https://dc.lft.to/lastmile_qr_scan"}, "fusion_lon": 0.0}, {"lat": 38.914066, "is_disabled": 0, "type": "electric_scooter", "lon": -77.02062216666667, "bike_id": "5430d3e9cc20976b2c522f1e387b65dc", "fusion_lat": 0.0, "name": "5430d3e9cc20976b2c522f1e387b65dc", "is_reserved": 0, "rental_uris": {"android": "https://dc.lft.to/lastmile_qr_scan", "ios": "https://dc.lft.to/lastmile_qr_scan"}, "fusion_lon": 0.0}, {"lat": 38.919893333333334, "is_disabled": 0, "type": "electric_scooter", "lon": -76.97302583333334, "bike_id": "5aa94dde4f8e4708910432beeb7b3324", "fusion_lat": 0.0, "name": "5aa94dde4f8e4708910432beeb7b3324", "is_reserved": 0, "rental_uris": {"android": "https://dc.lft.to/lastmile_qr_scan", "ios": "https://dc.lft.to/lastmile_qr_scan"}, "fusion_lon": 0.0}, {"lat": 38.93286883333333, "is_disabled": 0, "type": "electric_scooter", "lon": -77.03972266666666, "bike_id": "1ce2bef240d0aad2a371d2a1e0e4d01b", "fusion_lat": 0.0, "name": "1ce2bef240d0aad2a371d2a1e0e4d01b", "is_reserved": 0, "rental_uris": {"android": "https://dc.lft.to/lastmile_qr_scan", "ios": "https://dc.lft.to/lastmile_qr_scan"}, "fusion_lon": 0.0}, {"lat": 38.93565183333333, "is_disabled": 0, "type": "electric_scooter", "lon": -77.07310333333334, "bike_id": "2dd5163edfa8c8f96ede13c9dcdb12b6", "fusion_lat": 0.0, "name": "2dd5163edfa8c8f96ede13c9dcdb12b6", "is_reserved": 0, "rental_uris": {"android": "https://dc.lft.to/lastmile_qr_scan", "ios": "https://dc.lft.to/lastmile_qr_scan"}, "fusion_lon": 0.0}, {"lat": 38.894802, "is_disabled": 0, "type": "electric_scooter", "lon": -77.02127116666666, "bike_id": "860accaae4c4d0dfe2ca68899fe36871", "fusion_lat": 0.0, "name": "860accaae4c4d0dfe2ca68899fe36871", "is_reserved": 0, "rental_uris": {"android": "https://dc.lft.to/lastmile_qr_scan", "ios": "https://dc.lft.to/lastmile_qr_scan"}, "fusion_lon": 0.0}, {"lat": 38.92022816666667, "is_disabled": 0, "type": "electric_scooter", "lon": -77.03136, "bike_id": "4b5d3e9f9a7df32589107aacb681d751", "fusion_lat": 0.0, "name": "4b5d3e9f9a7df32589107aacb681d751", "is_reserved": 0, "rental_uris": {"android": "https://dc.lft.to/lastmile_qr_scan", "ios": "https://dc.lft.to/lastmile_qr_scan"}, "fusion_lon": 0.0}, {"lat": 38.895099333333334, "is_disabled": 0, "type": "electric_scooter", "lon": -77.02288633333333, "bike_id": "95eb8265c64e1393e13463f532554e23", "fusion_lat": 0.0, "name": "95eb8265c64e1393e13463f532554e23", "is_reserved": 0, "rental_uris": {"android": "https://dc.lft.to/lastmile_qr_scan", "ios": "https://dc.lft.to/lastmile_qr_scan"}, "fusion_lon": 0.0}, {"lat": 38.902822, "is_disabled": 0, "type": "electric_scooter", "lon": -77.02607416666666, "bike_id": "bc3e997affd1de0a0fd67dd5a60af211", "fusion_lat": 0.0, "name": "bc3e997affd1de0a0fd67dd5a60af211", "is_reserved": 0, "rental_uris": {"android": "https://dc.lft.to/lastmile_qr_scan", "ios": "https://dc.lft.to/lastmile_qr_scan"}, "fusion_lon": 0.0}, {"lat": 38.846570666666665, "is_disabled": 0, "type": "electric_bike", "lon": -76.97928816666666, "bike_id": "af27a5621cacd4ff930e562c87f1c048", "fusion_lat": 0.0, "name": "af27a5621cacd4ff930e562c87f1c048", "is_reserved": 0, "rental_uris": {"android": "https://dc.lft.to/lastmile_qr_scan", "ios": "https://dc.lft.to/lastmile_qr_scan"}, "fusion_lon": 0.0}, {"lat": 38.93214183333333, "is_disabled": 0, "type": "electric_bike", "lon": -77.023215, "bike_id": "2f4412e70addf74456d79651cbde5261", "fusion_lat": 0.0, "name": "2f4412e70addf74456d79651cbde5261", "is_reserved": 0, "rental_uris": {"android": "https://dc.lft.to/lastmile_qr_scan", "ios": "https://dc.lft.to/lastmile_qr_scan"}, "fusion_lon": 0.0}, {"lat": 38.924805, "is_disabled": 0, "type": "electric_scooter", "lon": -77.05205233333334, "bike_id": "f81148700ea82d56b15f6c206d214d1b", "fusion_lat": 0.0, "name": "f81148700ea82d56b15f6c206d214d1b", "is_reserved": 0, "rental_uris": {"android": "https://dc.lft.to/lastmile_qr_scan", "ios": "https://dc.lft.to/lastmile_qr_scan"}, "fusion_lon": 0.0}, {"lat": 38.941764666666664, "is_disabled": 0, "type": "electric_scooter", "lon": -77.02349533333333, "bike_id": "6cf056b7fffb503b07ad9fc032b5ea0f", "fusion_lat": 0.0, "name": "6cf056b7fffb503b07ad9fc032b5ea0f", "is_reserved": 0, "rental_uris": {"android": "https://dc.lft.to/lastmile_qr_scan", "ios": "https://dc.lft.to/lastmile_qr_scan"}, "fusion_lon": 0.0}, {"lat": 38.86910133333333, "is_disabled": 0, "type": "electric_bike", "lon": -77.13180333333334, "bike_id": "bcf93d6dacc4fbccfe4201b94b7ceae5", "fusion_lat": 0.0, "name": "bcf93d6dacc4fbccfe4201b94b7ceae5", "is_reserved": 0, "rental_uris": {"android": "https://dc.lft.to/lastmile_qr_scan", "ios": "https://dc.lft.to/lastmile_qr_scan"}, "fusion_lon": 0.0}, {"lat": 38.9584235, "is_disabled": 0, "type": "electric_bike", "lon": -77.03052566666666, "bike_id": "0b9214e722aef6112fdb1362304b6cf4", "fusion_lat": 0.0, "name": "0b9214e722aef6112fdb1362304b6cf4", "is_reserved": 0, "rental_uris": {"android": "https://dc.lft.to/lastmile_qr_scan", "ios": "https://dc.lft.to/lastmile_qr_scan"}, "fusion_lon": 0.0}, {"lat": 38.893717, "is_disabled": 0, "type": "electric_scooter", "lon": -76.949747, "bike_id": "39b38f7f72ee6c60372e97c161bf4dbc", "fusion_lat": 0.0, "name": "39b38f7f72ee6c60372e97c161bf4dbc", "is_reserved": 0, "rental_uris": {"android": "https://dc.lft.to/lastmile_qr_scan", "ios": "https://dc.lft.to/lastmile_qr_scan"}, "fusion_lon": 0.0}, {"lat": 38.913954333333336, "is_disabled": 0, "type": "electric_scooter", "lon": -77.03196916666667, "bike_id": "1015bc5d151332a5893b55221b0d3b4b", "fusion_lat": 0.0, "name": "1015bc5d151332a5893b55221b0d3b4b", "is_reserved": 0, "rental_uris": {"android": "https://dc.lft.to/lastmile_qr_scan", "ios": "https://dc.lft.to/lastmile_qr_scan"}, "fusion_lon": 0.0}, {"lat": 38.915532, "is_disabled": 0, "type": "electric_scooter", "lon": -77.03168883333333, "bike_id": "7f0c72cb27194b652c23cceed0953189", "fusion_lat": 0.0, "name": "7f0c72cb27194b652c23cceed0953189", "is_reserved": 0, "rental_uris": {"android": "https://dc.lft.to/lastmile_qr_scan", "ios": "https://dc.lft.to/lastmile_qr_scan"}, "fusion_lon": 0.0}, {"lat": 38.925898333333336, "is_disabled": 0, "type": "electric_scooter", "lon": -77.0322685, "bike_id": "f4d290125b20088d4e8d3b9a711a394a", "fusion_lat": 0.0, "name": "f4d290125b20088d4e8d3b9a711a394a", "is_reserved": 0, "rental_uris": {"android": "https://dc.lft.to/lastmile_qr_scan", "ios": "https://dc.lft.to/lastmile_qr_scan"}, "fusion_lon": 0.0}, {"lat": 38.89613283333333, "is_disabled": 0, "type": "electric_scooter", "lon": -76.99849166666667, "bike_id": "f2db5ead2f98d0ac77aa687711b01292", "fusion_lat": 0.0, "name": "f2db5ead2f98d0ac77aa687711b01292", "is_reserved": 0, "rental_uris": {"android": "https://dc.lft.to/lastmile_qr_scan", "ios": "https://dc.lft.to/lastmile_qr_scan"}, "fusion_lon": 0.0}, {"lat": 38.867337, "is_disabled": 0, "type": "electric_scooter", "lon": -76.98785916666667, "bike_id": "afc5942670424a57203d0b80f23835d8", "fusion_lat": 0.0, "name": "afc5942670424a57203d0b80f23835d8", "is_reserved": 0, "rental_uris": {"android": "https://dc.lft.to/lastmile_qr_scan", "ios": "https://dc.lft.to/lastmile_qr_scan"}, "fusion_lon": 0.0}, {"lat": 38.9133025, "is_disabled": 0, "type": "electric_bike", "lon": -77.01872466666667, "bike_id": "e33349cdacfe0ab178c8c51e3bb745f1", "fusion_lat": 0.0, "name": "e33349cdacfe0ab178c8c51e3bb745f1", "is_reserved": 0, "rental_uris": {"android": "https://dc.lft.to/lastmile_qr_scan", "ios": "https://dc.lft.to/lastmile_qr_scan"}, "fusion_lon": 0.0}, {"lat": 38.922569, "is_disabled": 0, "type": "electric_scooter", "lon": -77.019253, "bike_id": "be528485011eb666fd015bce096c8174", "fusion_lat": 0.0, "name": "be528485011eb666fd015bce096c8174", "is_reserved": 0, "rental_uris": {"android": "https://dc.lft.to/lastmile_qr_scan", "ios": "https://dc.lft.to/lastmile_qr_scan"}, "fusion_lon": 0.0}, {"lat": 38.9090465, "is_disabled": 0, "type": "electric_scooter", "lon": -77.0465685, "bike_id": "fe8084411e4bbb697caa9a87098ad4a9", "fusion_lat": 0.0, "name": "fe8084411e4bbb697caa9a87098ad4a9", "is_reserved": 0, "rental_uris": {"android": "https://dc.lft.to/lastmile_qr_scan", "ios": "https://dc.lft.to/lastmile_qr_scan"}, "fusion_lon": 0.0}, {"lat": 38.919785, "is_disabled": 0, "type": "electric_scooter", "lon": -77.04165283333333, "bike_id": "9500bad24ef7bd2d41a4643b9529ba3b", "fusion_lat": 0.0, "name": "9500bad24ef7bd2d41a4643b9529ba3b", "is_reserved": 0, "rental_uris": {"android": "https://dc.lft.to/lastmile_qr_scan", "ios": "https://dc.lft.to/lastmile_qr_scan"}, "fusion_lon": 0.0}, {"lat": 38.842911666666666, "is_disabled": 0, "type": "electric_scooter", "lon": -76.99945, "bike_id": "292f692573a76d2be79d85c9849ec71a", "fusion_lat": 0.0, "name": "292f692573a76d2be79d85c9849ec71a", "is_reserved": 0, "rental_uris": {"android": "https://dc.lft.to/lastmile_qr_scan", "ios": "https://dc.lft.to/lastmile_qr_scan"}, "fusion_lon": 0.0}, {"lat": 38.9252455, "is_disabled": 0, "type": "electric_scooter", "lon": -77.00754416666666, "bike_id": "324f1c7dd12db989c32340a853b08006", "fusion_lat": 0.0, "name": "324f1c7dd12db989c32340a853b08006", "is_reserved": 0, "rental_uris": {"android": "https://dc.lft.to/lastmile_qr_scan", "ios": "https://dc.lft.to/lastmile_qr_scan"}, "fusion_lon": 0.0}, {"lat": 38.916645, "is_disabled": 0, "type": "electric_scooter", "lon": -77.0065395, "bike_id": "727343ec2f114f1bd9b920cc35ed59b3", "fusion_lat": 0.0, "name": "727343ec2f114f1bd9b920cc35ed59b3", "is_reserved": 0, "rental_uris": {"android": "https://dc.lft.to/lastmile_qr_scan", "ios": "https://dc.lft.to/lastmile_qr_scan"}, "fusion_lon": 0.0}, {"lat": 38.902637166666665, "is_disabled": 0, "type": "electric_scooter", "lon": -77.0175135, "bike_id": "154854ff3ac2e96b155a1d3b33b5abad", "fusion_lat": 0.0, "name": "154854ff3ac2e96b155a1d3b33b5abad", "is_reserved": 0, "rental_uris": {"android": "https://dc.lft.to/lastmile_qr_scan", "ios": "https://dc.lft.to/lastmile_qr_scan"}, "fusion_lon": 0.0}, {"lat": 38.917280166666664, "is_disabled": 0, "type": "electric_scooter", "lon": -77.03206166666666, "bike_id": "ac30ee2162f9b696fff7a5b15d80e313", "fusion_lat": 0.0, "name": "ac30ee2162f9b696fff7a5b15d80e313", "is_reserved": 0, "rental_uris": {"android": "https://dc.lft.to/lastmile_qr_scan", "ios": "https://dc.lft.to/lastmile_qr_scan"}, "fusion_lon": 0.0}, {"lat": 38.89269016666667, "is_disabled": 0, "type": "electric_scooter", "lon": -77.050306, "bike_id": "2b2e005e1b67b1378976fd22f5f5866f", "fusion_lat": 0.0, "name": "2b2e005e1b67b1378976fd22f5f5866f", "is_reserved": 0, "rental_uris": {"android": "https://dc.lft.to/lastmile_qr_scan", "ios": "https://dc.lft.to/lastmile_qr_scan"}, "fusion_lon": 0.0}, {"lat": 38.89616433333333, "is_disabled": 0, "type": "electric_scooter", "lon": -77.0220965, "bike_id": "375156a4c3266b9320947d7ee243d5b3", "fusion_lat": 0.0, "name": "375156a4c3266b9320947d7ee243d5b3", "is_reserved": 0, "rental_uris": {"android": "https://dc.lft.to/lastmile_qr_scan", "ios": "https://dc.lft.to/lastmile_qr_scan"}, "fusion_lon": 0.0}, {"lat": 38.918496, "is_disabled": 0, "type": "electric_scooter", "lon": -77.02449466666667, "bike_id": "11b8e4e26780fcd3d39c2a8459aaf6e2", "fusion_lat": 0.0, "name": "11b8e4e26780fcd3d39c2a8459aaf6e2", "is_reserved": 0, "rental_uris": {"android": "https://dc.lft.to/lastmile_qr_scan", "ios": "https://dc.lft.to/lastmile_qr_scan"}, "fusion_lon": 0.0}, {"lat": 38.91672333333333, "is_disabled": 0, "type": "electric_scooter", "lon": -77.023811, "bike_id": "032226b852f31f4499740ad565338f38", "fusion_lat": 0.0, "name": "032226b852f31f4499740ad565338f38", "is_reserved": 0, "rental_uris": {"android": "https://dc.lft.to/lastmile_qr_scan", "ios": "https://dc.lft.to/lastmile_qr_scan"}, "fusion_lon": 0.0}, {"lat": 38.9184215, "is_disabled": 0, "type": "electric_scooter", "lon": -76.9653985, "bike_id": "f914cb8241b30ad3cd64ee58290f48fd", "fusion_lat": 0.0, "name": "f914cb8241b30ad3cd64ee58290f48fd", "is_reserved": 0, "rental_uris": {"android": "https://dc.lft.to/lastmile_qr_scan", "ios": "https://dc.lft.to/lastmile_qr_scan"}, "fusion_lon": 0.0}, {"lat": 38.84625183333333, "is_disabled": 0, "type": "electric_bike", "lon": -77.06928966666666, "bike_id": "a3f855af0ffa954d0fca99c5d1c36042", "fusion_lat": 0.0, "name": "a3f855af0ffa954d0fca99c5d1c36042", "is_reserved": 0, "rental_uris": {"android": "https://dc.lft.to/lastmile_qr_scan", "ios": "https://dc.lft.to/lastmile_qr_scan"}, "fusion_lon": 0.0}, {"lat": 38.954029, "is_disabled": 0, "type": "electric_scooter", "lon": -77.02747216666667, "bike_id": "66faabd77b7098fff7385e56de50ab41", "fusion_lat": 0.0, "name": "66faabd77b7098fff7385e56de50ab41", "is_reserved": 0, "rental_uris": {"android": "https://dc.lft.to/lastmile_qr_scan", "ios": "https://dc.lft.to/lastmile_qr_scan"}, "fusion_lon": 0.0}, {"lat": 38.9038735, "is_disabled": 0, "type": "electric_scooter", "lon": -77.03945583333334, "bike_id": "4bd516c635032eb897947b59dabc9279", "fusion_lat": 0.0, "name": "4bd516c635032eb897947b59dabc9279", "is_reserved": 0, "rental_uris": {"android": "https://dc.lft.to/lastmile_qr_scan", "ios": "https://dc.lft.to/lastmile_qr_scan"}, "fusion_lon": 0.0}, {"lat": 38.9055025, "is_disabled": 0, "type": "electric_scooter", "lon": -77.056916, "bike_id": "b65440a5600f8134b88a4d9759870fc6", "fusion_lat": 0.0, "name": "b65440a5600f8134b88a4d9759870fc6", "is_reserved": 0, "rental_uris": {"android": "https://dc.lft.to/lastmile_qr_scan", "ios": "https://dc.lft.to/lastmile_qr_scan"}, "fusion_lon": 0.0}, {"lat": 38.93210783333333, "is_disabled": 0, "type": "electric_scooter", "lon": -77.0235335, "bike_id": "20e5090dfbff3303e589199b96293691", "fusion_lat": 0.0, "name": "20e5090dfbff3303e589199b96293691", "is_reserved": 0, "rental_uris": {"android": "https://dc.lft.to/lastmile_qr_scan", "ios": "https://dc.lft.to/lastmile_qr_scan"}, "fusion_lon": 0.0}, {"lat": 38.802688, "is_disabled": 0, "type": "electric_bike", "lon": -77.08112933333334, "bike_id": "08186b2a7a1d2b3d820206334ce16281", "fusion_lat": 0.0, "name": "08186b2a7a1d2b3d820206334ce16281", "is_reserved": 0, "rental_uris": {"android": "https://dc.lft.to/lastmile_qr_scan", "ios": "https://dc.lft.to/lastmile_qr_scan"}, "fusion_lon": 0.0}, {"lat": 38.91484633333334, "is_disabled": 0, "type": "electric_scooter", "lon": -77.03469716666666, "bike_id": "499a91233cdbb427dd168819e17fe139", "fusion_lat": 0.0, "name": "499a91233cdbb427dd168819e17fe139", "is_reserved": 0, "rental_uris": {"android": "https://dc.lft.to/lastmile_qr_scan", "ios": "https://dc.lft.to/lastmile_qr_scan"}, "fusion_lon": 0.0}, {"lat": 38.917108, "is_disabled": 0, "type": "electric_scooter", "lon": -77.02812683333333, "bike_id": "b08646add67fe23dc9be217cb4521354", "fusion_lat": 0.0, "name": "b08646add67fe23dc9be217cb4521354", "is_reserved": 0, "rental_uris": {"android": "https://dc.lft.to/lastmile_qr_scan", "ios": "https://dc.lft.to/lastmile_qr_scan"}, "fusion_lon": 0.0}, {"lat": 38.916996166666664, "is_disabled": 0, "type": "electric_scooter", "lon": -77.0308995, "bike_id": "6aa0befc985c5f795a897cbaa51d8017", "fusion_lat": 0.0, "name": "6aa0befc985c5f795a897cbaa51d8017", "is_reserved": 0, "rental_uris": {"android": "https://dc.lft.to/lastmile_qr_scan", "ios": "https://dc.lft.to/lastmile_qr_scan"}, "fusion_lon": 0.0}, {"lat": 38.939393833333334, "is_disabled": 0, "type": "electric_scooter", "lon": -77.03669333333333, "bike_id": "aeedf3f025d570d519e5fe8a1b3ab3ba", "fusion_lat": 0.0, "name": "aeedf3f025d570d519e5fe8a1b3ab3ba", "is_reserved": 0, "rental_uris": {"android": "https://dc.lft.to/lastmile_qr_scan", "ios": "https://dc.lft.to/lastmile_qr_scan"}, "fusion_lon": 0.0}, {"lat": 38.89732016666667, "is_disabled": 0, "type": "electric_scooter", "lon": -77.04676133333334, "bike_id": "acd7a404a3e6573e624d1504bffa7b94", "fusion_lat": 0.0, "name": "acd7a404a3e6573e624d1504bffa7b94", "is_reserved": 0, "rental_uris": {"android": "https://dc.lft.to/lastmile_qr_scan", "ios": "https://dc.lft.to/lastmile_qr_scan"}, "fusion_lon": 0.0}, {"lat": 38.918666, "is_disabled": 0, "type": "electric_scooter", "lon": -77.046042, "bike_id": "fc8e97336f05b235185a01f197d2aca5", "fusion_lat": 0.0, "name": "fc8e97336f05b235185a01f197d2aca5", "is_reserved": 0, "rental_uris": {"android": "https://dc.lft.to/lastmile_qr_scan", "ios": "https://dc.lft.to/lastmile_qr_scan"}, "fusion_lon": 0.0}, {"lat": 38.907078166666665, "is_disabled": 0, "type": "electric_scooter", "lon": -77.031893, "bike_id": "dd09231b2288bfb6149de004a67a4ef0", "fusion_lat": 0.0, "name": "dd09231b2288bfb6149de004a67a4ef0", "is_reserved": 0, "rental_uris": {"android": "https://dc.lft.to/lastmile_qr_scan", "ios": "https://dc.lft.to/lastmile_qr_scan"}, "fusion_lon": 0.0}, {"lat": 38.927576, "is_disabled": 0, "type": "electric_scooter", "lon": -77.03209383333333, "bike_id": "f67d1c3b59a84744cb2254066501d331", "fusion_lat": 0.0, "name": "f67d1c3b59a84744cb2254066501d331", "is_reserved": 0, "rental_uris": {"android": "https://dc.lft.to/lastmile_qr_scan", "ios": "https://dc.lft.to/lastmile_qr_scan"}, "fusion_lon": 0.0}, {"lat": 38.908717833333334, "is_disabled": 0, "type": "electric_scooter", "lon": -77.04332366666667, "bike_id": "3ab4ed64900a2e268dacc76f02ddfe2a", "fusion_lat": 0.0, "name": "3ab4ed64900a2e268dacc76f02ddfe2a", "is_reserved": 0, "rental_uris": {"android": "https://dc.lft.to/lastmile_qr_scan", "ios": "https://dc.lft.to/lastmile_qr_scan"}, "fusion_lon": 0.0}, {"lat": 38.89850833333333, "is_disabled": 0, "type": "electric_scooter", "lon": -77.02388566666667, "bike_id": "35fa7b78dce3393ae738b7059ce6ee2a", "fusion_lat": 0.0, "name": "35fa7b78dce3393ae738b7059ce6ee2a", "is_reserved": 0, "rental_uris": {"android": "https://dc.lft.to/lastmile_qr_scan", "ios": "https://dc.lft.to/lastmile_qr_scan"}, "fusion_lon": 0.0}, {"lat": 38.93963866666667, "is_disabled": 0, "type": "electric_bike", "lon": -77.36092833333333, "bike_id": "1d7116ddd2f979e6193dc579b1e590f8", "fusion_lat": 0.0, "name": "1d7116ddd2f979e6193dc579b1e590f8", "is_reserved": 0, "rental_uris": {"android": "https://dc.lft.to/lastmile_qr_scan", "ios": "https://dc.lft.to/lastmile_qr_scan"}, "fusion_lon": 0.0}, {"lat": 38.909198833333335, "is_disabled": 0, "type": "electric_scooter", "lon": -77.0802175, "bike_id": "cc79fe3c4119720ca941df26acf53d60", "fusion_lat": 0.0, "name": "cc79fe3c4119720ca941df26acf53d60", "is_reserved": 0, "rental_uris": {"android": "https://dc.lft.to/lastmile_qr_scan", "ios": "https://dc.lft.to/lastmile_qr_scan"}, "fusion_lon": 0.0}, {"lat": 38.89556433333333, "is_disabled": 0, "type": "electric_scooter", "lon": -76.93076, "bike_id": "6a28fdfe817ac2fc8e40fadc73d34563", "fusion_lat": 0.0, "name": "6a28fdfe817ac2fc8e40fadc73d34563", "is_reserved": 0, "rental_uris": {"android": "https://dc.lft.to/lastmile_qr_scan", "ios": "https://dc.lft.to/lastmile_qr_scan"}, "fusion_lon": 0.0}, {"lat": 38.95288983333333, "is_disabled": 0, "type": "electric_bike", "lon": -76.945967, "bike_id": "c51e0e3ab66ae4d4f00fbdfd41581c34", "fusion_lat": 0.0, "name": "c51e0e3ab66ae4d4f00fbdfd41581c34", "is_reserved": 0, "rental_uris": {"android": "https://dc.lft.to/lastmile_qr_scan", "ios": "https://dc.lft.to/lastmile_qr_scan"}, "fusion_lon": 0.0}, {"lat": 38.9265595, "is_disabled": 0, "type": "electric_scooter", "lon": -77.024305, "bike_id": "f92a571d3e56165c598e00dd78d74965", "fusion_lat": 0.0, "name": "f92a571d3e56165c598e00dd78d74965", "is_reserved": 0, "rental_uris": {"android": "https://dc.lft.to/lastmile_qr_scan", "ios": "https://dc.lft.to/lastmile_qr_scan"}, "fusion_lon": 0.0}, {"lat": 38.9110645, "is_disabled": 0, "type": "electric_scooter", "lon": -77.03215816666666, "bike_id": "40bef18d62a4feb512bdb1969e2641ac", "fusion_lat": 0.0, "name": "40bef18d62a4feb512bdb1969e2641ac", "is_reserved": 0, "rental_uris": {"android": "https://dc.lft.to/lastmile_qr_scan", "ios": "https://dc.lft.to/lastmile_qr_scan"}, "fusion_lon": 0.0}, {"lat": 38.89856916666667, "is_disabled": 0, "type": "electric_scooter", "lon": -77.02917066666667, "bike_id": "03f3ec1aa1efb1f901ab3868f4fc4b25", "fusion_lat": 0.0, "name": "03f3ec1aa1efb1f901ab3868f4fc4b25", "is_reserved": 0, "rental_uris": {"android": "https://dc.lft.to/lastmile_qr_scan", "ios": "https://dc.lft.to/lastmile_qr_scan"}, "fusion_lon": 0.0}, {"lat": 38.86448266666667, "is_disabled": 0, "type": "electric_bike", "lon": -76.94538166666666, "bike_id": "3daa4babe367b15f10c38611443044d3", "fusion_lat": 0.0, "name": "3daa4babe367b15f10c38611443044d3", "is_reserved": 0, "rental_uris": {"android": "https://dc.lft.to/lastmile_qr_scan", "ios": "https://dc.lft.to/lastmile_qr_scan"}, "fusion_lon": 0.0}, {"lat": 38.871396833333336, "is_disabled": 0, "type": "electric_bike", "lon": -76.9370555, "bike_id": "a58bccd5c97e1e4ec761d5e4332de6a7", "fusion_lat": 0.0, "name": "a58bccd5c97e1e4ec761d5e4332de6a7", "is_reserved": 0, "rental_uris": {"android": "https://dc.lft.to/lastmile_qr_scan", "ios": "https://dc.lft.to/lastmile_qr_scan"}, "fusion_lon": 0.0}, {"lat": 38.91736916666667, "is_disabled": 0, "type": "electric_scooter", "lon": -77.02111066666667, "bike_id": "687d8fd0800eb55e92bb2fae04dacf0c", "fusion_lat": 0.0, "name": "687d8fd0800eb55e92bb2fae04dacf0c", "is_reserved": 0, "rental_uris": {"android": "https://dc.lft.to/lastmile_qr_scan", "ios": "https://dc.lft.to/lastmile_qr_scan"}, "fusion_lon": 0.0}, {"lat": 38.91312533333333, "is_disabled": 0, "type": "electric_scooter", "lon": -77.01433166666666, "bike_id": "9b3ae5f0b9a7a0080d1168244ce0150d", "fusion_lat": 0.0, "name": "9b3ae5f0b9a7a0080d1168244ce0150d", "is_reserved": 0, "rental_uris": {"android": "https://dc.lft.to/lastmile_qr_scan", "ios": "https://dc.lft.to/lastmile_qr_scan"}, "fusion_lon": 0.0}, {"lat": 38.9001365, "is_disabled": 0, "type": "electric_scooter", "lon": -77.00145166666667, "bike_id": "5dda38af696896674fede827aadc038b", "fusion_lat": 0.0, "name": "5dda38af696896674fede827aadc038b", "is_reserved": 0, "rental_uris": {"android": "https://dc.lft.to/lastmile_qr_scan", "ios": "https://dc.lft.to/lastmile_qr_scan"}, "fusion_lon": 0.0}, {"lat": 38.91816, "is_disabled": 0, "type": "electric_scooter", "lon": -77.01211583333334, "bike_id": "1f253c86a20e545fc2dc383754327472", "fusion_lat": 0.0, "name": "1f253c86a20e545fc2dc383754327472", "is_reserved": 0, "rental_uris": {"android": "https://dc.lft.to/lastmile_qr_scan", "ios": "https://dc.lft.to/lastmile_qr_scan"}, "fusion_lon": 0.0}, {"lat": 38.8779785, "is_disabled": 0, "type": "electric_scooter", "lon": -76.994982, "bike_id": "29156ecbc6d3c3824c483ec0786d38ec", "fusion_lat": 0.0, "name": "29156ecbc6d3c3824c483ec0786d38ec", "is_reserved": 0, "rental_uris": {"android": "https://dc.lft.to/lastmile_qr_scan", "ios": "https://dc.lft.to/lastmile_qr_scan"}, "fusion_lon": 0.0}, {"lat": 38.91829466666667, "is_disabled": 0, "type": "electric_scooter", "lon": -77.03188933333334, "bike_id": "d7b0e1e7ebdbf80910c2d5ccf0a118b9", "fusion_lat": 0.0, "name": "d7b0e1e7ebdbf80910c2d5ccf0a118b9", "is_reserved": 0, "rental_uris": {"android": "https://dc.lft.to/lastmile_qr_scan", "ios": "https://dc.lft.to/lastmile_qr_scan"}, "fusion_lon": 0.0}, {"lat": 38.8951775, "is_disabled": 0, "type": "electric_scooter", "lon": -77.02190866666666, "bike_id": "7e2e4d130f4a75fcbf3fc26d9ee73601", "fusion_lat": 0.0, "name": "7e2e4d130f4a75fcbf3fc26d9ee73601", "is_reserved": 0, "rental_uris": {"android": "https://dc.lft.to/lastmile_qr_scan", "ios": "https://dc.lft.to/lastmile_qr_scan"}, "fusion_lon": 0.0}, {"lat": 38.90927533333333, "is_disabled": 0, "type": "electric_scooter", "lon": -76.99918016666666, "bike_id": "53a1201d4cdaadd3d0e76145ec6d3173", "fusion_lat": 0.0, "name": "53a1201d4cdaadd3d0e76145ec6d3173", "is_reserved": 0, "rental_uris": {"android": "https://dc.lft.to/lastmile_qr_scan", "ios": "https://dc.lft.to/lastmile_qr_scan"}, "fusion_lon": 0.0}, {"lat": 38.95804316666667, "is_disabled": 0, "type": "electric_scooter", "lon": -77.03162566666667, "bike_id": "fc501313e3fae74ca19c8f611c8708c7", "fusion_lat": 0.0, "name": "fc501313e3fae74ca19c8f611c8708c7", "is_reserved": 0, "rental_uris": {"android": "https://dc.lft.to/lastmile_qr_scan", "ios": "https://dc.lft.to/lastmile_qr_scan"}, "fusion_lon": 0.0}, {"lat": 38.916731, "is_disabled": 0, "type": "electric_scooter", "lon": -77.0294455, "bike_id": "6f317804bfc9b476b1516ce1c076bf22", "fusion_lat": 0.0, "name": "6f317804bfc9b476b1516ce1c076bf22", "is_reserved": 0, "rental_uris": {"android": "https://dc.lft.to/lastmile_qr_scan", "ios": "https://dc.lft.to/lastmile_qr_scan"}, "fusion_lon": 0.0}, {"lat": 38.917201666666664, "is_disabled": 0, "type": "electric_scooter", "lon": -77.0281115, "bike_id": "63cde488298a5c775c1c56b51fc737cc", "fusion_lat": 0.0, "name": "63cde488298a5c775c1c56b51fc737cc", "is_reserved": 0, "rental_uris": {"android": "https://dc.lft.to/lastmile_qr_scan", "ios": "https://dc.lft.to/lastmile_qr_scan"}, "fusion_lon": 0.0}, {"lat": 38.905319666666664, "is_disabled": 0, "type": "electric_scooter", "lon": -77.0593425, "bike_id": "09766a755cbeacd519fd6a7793cd15d8", "fusion_lat": 0.0, "name": "09766a755cbeacd519fd6a7793cd15d8", "is_reserved": 0, "rental_uris": {"android": "https://dc.lft.to/lastmile_qr_scan", "ios": "https://dc.lft.to/lastmile_qr_scan"}, "fusion_lon": 0.0}, {"lat": 38.892213, "is_disabled": 0, "type": "electric_scooter", "lon": -77.048673, "bike_id": "9eb9c2266097660f1d2c588b3c1f1645", "fusion_lat": 0.0, "name": "9eb9c2266097660f1d2c588b3c1f1645", "is_reserved": 0, "rental_uris": {"android": "https://dc.lft.to/lastmile_qr_scan", "ios": "https://dc.lft.to/lastmile_qr_scan"}, "fusion_lon": 0.0}, {"lat": 38.92114016666667, "is_disabled": 0, "type": "electric_scooter", "lon": -77.042026, "bike_id": "377d21122899653cdec476862cd1b714", "fusion_lat": 0.0, "name": "377d21122899653cdec476862cd1b714", "is_reserved": 0, "rental_uris": {"android": "https://dc.lft.to/lastmile_qr_scan", "ios": "https://dc.lft.to/lastmile_qr_scan"}, "fusion_lon": 0.0}, {"lat": 38.90497383333334, "is_disabled": 0, "type": "electric_scooter", "lon": -77.001214, "bike_id": "38c373fd93826885ef8f1e21108c3185", "fusion_lat": 0.0, "name": "38c373fd93826885ef8f1e21108c3185", "is_reserved": 0, "rental_uris": {"android": "https://dc.lft.to/lastmile_qr_scan", "ios": "https://dc.lft.to/lastmile_qr_scan"}, "fusion_lon": 0.0}, {"lat": 38.917677833333336, "is_disabled": 0, "type": "electric_scooter", "lon": -77.01490683333333, "bike_id": "68d0b11210f6a02ba9567365564398ec", "fusion_lat": 0.0, "name": "68d0b11210f6a02ba9567365564398ec", "is_reserved": 0, "rental_uris": {"android": "https://dc.lft.to/lastmile_qr_scan", "ios": "https://dc.lft.to/lastmile_qr_scan"}, "fusion_lon": 0.0}, {"lat": 38.90277533333333, "is_disabled": 0, "type": "electric_scooter", "lon": -77.01735283333333, "bike_id": "6c2590781a95a928b7aecc999513c7fc", "fusion_lat": 0.0, "name": "6c2590781a95a928b7aecc999513c7fc", "is_reserved": 0, "rental_uris": {"android": "https://dc.lft.to/lastmile_qr_scan", "ios": "https://dc.lft.to/lastmile_qr_scan"}, "fusion_lon": 0.0}, {"lat": 38.911758166666665, "is_disabled": 0, "type": "electric_scooter", "lon": -77.021928, "bike_id": "25284c83923429b0d09758aa71216fb7", "fusion_lat": 0.0, "name": "25284c83923429b0d09758aa71216fb7", "is_reserved": 0, "rental_uris": {"android": "https://dc.lft.to/lastmile_qr_scan", "ios": "https://dc.lft.to/lastmile_qr_scan"}, "fusion_lon": 0.0}, {"lat": 38.92317583333333, "is_disabled": 0, "type": "electric_scooter", "lon": -77.04373383333333, "bike_id": "ee98fb06de282417efeda88b48ae7fb1", "fusion_lat": 0.0, "name": "ee98fb06de282417efeda88b48ae7fb1", "is_reserved": 0, "rental_uris": {"android": "https://dc.lft.to/lastmile_qr_scan", "ios": "https://dc.lft.to/lastmile_qr_scan"}, "fusion_lon": 0.0}, {"lat": 38.921468, "is_disabled": 0, "type": "electric_scooter", "lon": -76.96917066666667, "bike_id": "e12c8136ad48b4e8b84828eeca3dd2ee", "fusion_lat": 0.0, "name": "e12c8136ad48b4e8b84828eeca3dd2ee", "is_reserved": 0, "rental_uris": {"android": "https://dc.lft.to/lastmile_qr_scan", "ios": "https://dc.lft.to/lastmile_qr_scan"}, "fusion_lon": 0.0}, {"lat": 38.8616595, "is_disabled": 0, "type": "electric_bike", "lon": -76.9506595, "bike_id": "136409c5d49c8855635ecc90828fab34", "fusion_lat": 0.0, "name": "136409c5d49c8855635ecc90828fab34", "is_reserved": 0, "rental_uris": {"android": "https://dc.lft.to/lastmile_qr_scan", "ios": "https://dc.lft.to/lastmile_qr_scan"}, "fusion_lon": 0.0}, {"lat": 38.921828, "is_disabled": 0, "type": "electric_scooter", "lon": -76.99755366666666, "bike_id": "f528de41df0e76bf1e094a38d9aba7d1", "fusion_lat": 0.0, "name": "f528de41df0e76bf1e094a38d9aba7d1", "is_reserved": 0, "rental_uris": {"android": "https://dc.lft.to/lastmile_qr_scan", "ios": "https://dc.lft.to/lastmile_qr_scan"}, "fusion_lon": 0.0}, {"lat": 38.892202833333336, "is_disabled": 0, "type": "electric_scooter", "lon": -77.048676, "bike_id": "98b6282984202e824079481a5d3a62be", "fusion_lat": 0.0, "name": "98b6282984202e824079481a5d3a62be", "is_reserved": 0, "rental_uris": {"android": "https://dc.lft.to/lastmile_qr_scan", "ios": "https://dc.lft.to/lastmile_qr_scan"}, "fusion_lon": 0.0}, {"lat": 38.887653666666665, "is_disabled": 0, "type": "electric_scooter", "lon": -76.955939, "bike_id": "f5bcd115791df4f01dbf536484073a0d", "fusion_lat": 0.0, "name": "f5bcd115791df4f01dbf536484073a0d", "is_reserved": 0, "rental_uris": {"android": "https://dc.lft.to/lastmile_qr_scan", "ios": "https://dc.lft.to/lastmile_qr_scan"}, "fusion_lon": 0.0}, {"lat": 38.896882166666664, "is_disabled": 0, "type": "electric_scooter", "lon": -77.024082, "bike_id": "531873775373f185c846df82bb5a1b54", "fusion_lat": 0.0, "name": "531873775373f185c846df82bb5a1b54", "is_reserved": 0, "rental_uris": {"android": "https://dc.lft.to/lastmile_qr_scan", "ios": "https://dc.lft.to/lastmile_qr_scan"}, "fusion_lon": 0.0}, {"lat": 38.862313, "is_disabled": 0, "type": "electric_scooter", "lon": -76.99475166666667, "bike_id": "53a748aa574ee677ab31edf4faa893f0", "fusion_lat": 0.0, "name": "53a748aa574ee677ab31edf4faa893f0", "is_reserved": 0, "rental_uris": {"android": "https://dc.lft.to/lastmile_qr_scan", "ios": "https://dc.lft.to/lastmile_qr_scan"}, "fusion_lon": 0.0}, {"lat": 38.94304916666667, "is_disabled": 0, "type": "electric_scooter", "lon": -77.05925133333334, "bike_id": "72406d9de5cf04bddaf5a012a3c7c103", "fusion_lat": 0.0, "name": "72406d9de5cf04bddaf5a012a3c7c103", "is_reserved": 0, "rental_uris": {"android": "https://dc.lft.to/lastmile_qr_scan", "ios": "https://dc.lft.to/lastmile_qr_scan"}, "fusion_lon": 0.0}, {"lat": 38.9244365, "is_disabled": 0, "type": "electric_scooter", "lon": -77.020256, "bike_id": "a8be58203cdce39bf0782e21ca0b5796", "fusion_lat": 0.0, "name": "a8be58203cdce39bf0782e21ca0b5796", "is_reserved": 0, "rental_uris": {"android": "https://dc.lft.to/lastmile_qr_scan", "ios": "https://dc.lft.to/lastmile_qr_scan"}, "fusion_lon": 0.0}, {"lat": 38.91278, "is_disabled": 0, "type": "electric_scooter", "lon": -77.04505433333334, "bike_id": "27eee3592699e285f8161de078f64e9d", "fusion_lat": 0.0, "name": "27eee3592699e285f8161de078f64e9d", "is_reserved": 0, "rental_uris": {"android": "https://dc.lft.to/lastmile_qr_scan", "ios": "https://dc.lft.to/lastmile_qr_scan"}, "fusion_lon": 0.0}, {"lat": 38.97841233333333, "is_disabled": 0, "type": "electric_bike", "lon": -77.02650083333333, "bike_id": "55fafb310cbb329b46145e2bda968747", "fusion_lat": 0.0, "name": "55fafb310cbb329b46145e2bda968747", "is_reserved": 0, "rental_uris": {"android": "https://dc.lft.to/lastmile_qr_scan", "ios": "https://dc.lft.to/lastmile_qr_scan"}, "fusion_lon": 0.0}, {"lat": 38.91133333333333, "is_disabled": 0, "type": "electric_scooter", "lon": -77.031984, "bike_id": "c721ba2218b5b5e320479e8cfec87d3b", "fusion_lat": 0.0, "name": "c721ba2218b5b5e320479e8cfec87d3b", "is_reserved": 0, "rental_uris": {"android": "https://dc.lft.to/lastmile_qr_scan", "ios": "https://dc.lft.to/lastmile_qr_scan"}, "fusion_lon": 0.0}, {"lat": 38.97877016666666, "is_disabled": 0, "type": "electric_scooter", "lon": -77.02546166666667, "bike_id": "348999bce4a0547179f4aa9205d462f0", "fusion_lat": 0.0, "name": "348999bce4a0547179f4aa9205d462f0", "is_reserved": 0, "rental_uris": {"android": "https://dc.lft.to/lastmile_qr_scan", "ios": "https://dc.lft.to/lastmile_qr_scan"}, "fusion_lon": 0.0}, {"lat": 38.863894, "is_disabled": 0, "type": "electric_scooter", "lon": -76.99246783333334, "bike_id": "bb1f1c2e41d077f6012e7a7fab915852", "fusion_lat": 0.0, "name": "bb1f1c2e41d077f6012e7a7fab915852", "is_reserved": 0, "rental_uris": {"android": "https://dc.lft.to/lastmile_qr_scan", "ios": "https://dc.lft.to/lastmile_qr_scan"}, "fusion_lon": 0.0}, {"lat": 38.8323745, "is_disabled": 0, "type": "electric_bike", "lon": -76.94622150000001, "bike_id": "2813474b7416ea2e3438444992d0e281", "fusion_lat": 0.0, "name": "2813474b7416ea2e3438444992d0e281", "is_reserved": 0, "rental_uris": {"android": "https://dc.lft.to/lastmile_qr_scan", "ios": "https://dc.lft.to/lastmile_qr_scan"}, "fusion_lon": 0.0}, {"lat": 38.897099, "is_disabled": 0, "type": "electric_scooter", "lon": -77.00657283333334, "bike_id": "b5f68b960614499633d6f682b3f2656b", "fusion_lat": 0.0, "name": "b5f68b960614499633d6f682b3f2656b", "is_reserved": 0, "rental_uris": {"android": "https://dc.lft.to/lastmile_qr_scan", "ios": "https://dc.lft.to/lastmile_qr_scan"}, "fusion_lon": 0.0}, {"lat": 38.9182695, "is_disabled": 0, "type": "electric_scooter", "lon": -77.03224933333334, "bike_id": "620da17a9f2f95d5f008effa2abee95f", "fusion_lat": 0.0, "name": "620da17a9f2f95d5f008effa2abee95f", "is_reserved": 0, "rental_uris": {"android": "https://dc.lft.to/lastmile_qr_scan", "ios": "https://dc.lft.to/lastmile_qr_scan"}, "fusion_lon": 0.0}, {"lat": 38.87245816666667, "is_disabled": 0, "type": "electric_scooter", "lon": -76.97725983333333, "bike_id": "85a34476f1ff1471e48e6cc52db17825", "fusion_lat": 0.0, "name": "85a34476f1ff1471e48e6cc52db17825", "is_reserved": 0, "rental_uris": {"android": "https://dc.lft.to/lastmile_qr_scan", "ios": "https://dc.lft.to/lastmile_qr_scan"}, "fusion_lon": 0.0}, {"lat": 38.89533683333333, "is_disabled": 0, "type": "electric_scooter", "lon": -76.94886983333333, "bike_id": "04669de509b3665d3ed8d0d79718bba4", "fusion_lat": 0.0, "name": "04669de509b3665d3ed8d0d79718bba4", "is_reserved": 0, "rental_uris": {"android": "https://dc.lft.to/lastmile_qr_scan", "ios": "https://dc.lft.to/lastmile_qr_scan"}, "fusion_lon": 0.0}, {"lat": 38.943157, "is_disabled": 0, "type": "electric_scooter", "lon": -77.06131216666667, "bike_id": "67d86571f8fdc2785303d41ab863015e", "fusion_lat": 0.0, "name": "67d86571f8fdc2785303d41ab863015e", "is_reserved": 0, "rental_uris": {"android": "https://dc.lft.to/lastmile_qr_scan", "ios": "https://dc.lft.to/lastmile_qr_scan"}, "fusion_lon": 0.0}, {"lat": 38.907183333333336, "is_disabled": 0, "type": "electric_scooter", "lon": -77.03992383333333, "bike_id": "a22f9c86d5d9a892596730d50717a911", "fusion_lat": 0.0, "name": "a22f9c86d5d9a892596730d50717a911", "is_reserved": 0, "rental_uris": {"android": "https://dc.lft.to/lastmile_qr_scan", "ios": "https://dc.lft.to/lastmile_qr_scan"}, "fusion_lon": 0.0}, {"lat": 38.92839633333333, "is_disabled": 0, "type": "electric_scooter", "lon": -77.05421333333334, "bike_id": "0792ac8101ea466d89a5cde1b096fcbf", "fusion_lat": 0.0, "name": "0792ac8101ea466d89a5cde1b096fcbf", "is_reserved": 0, "rental_uris": {"android": "https://dc.lft.to/lastmile_qr_scan", "ios": "https://dc.lft.to/lastmile_qr_scan"}, "fusion_lon": 0.0}, {"lat": 38.91854566666667, "is_disabled": 0, "type": "electric_scooter", "lon": -77.0410515, "bike_id": "85614b2971e27fc6d00c06f2a0a10443", "fusion_lat": 0.0, "name": "85614b2971e27fc6d00c06f2a0a10443", "is_reserved": 0, "rental_uris": {"android": "https://dc.lft.to/lastmile_qr_scan", "ios": "https://dc.lft.to/lastmile_qr_scan"}, "fusion_lon": 0.0}, {"lat": 38.92138633333333, "is_disabled": 0, "type": "electric_scooter", "lon": -77.01801616666667, "bike_id": "23310135170dedbe0ca3098f17f89e81", "fusion_lat": 0.0, "name": "23310135170dedbe0ca3098f17f89e81", "is_reserved": 0, "rental_uris": {"android": "https://dc.lft.to/lastmile_qr_scan", "ios": "https://dc.lft.to/lastmile_qr_scan"}, "fusion_lon": 0.0}, {"lat": 38.91566783333333, "is_disabled": 0, "type": "electric_scooter", "lon": -77.05020883333333, "bike_id": "49e07d8464e0e24bdc7bc62f5efd9df0", "fusion_lat": 0.0, "name": "49e07d8464e0e24bdc7bc62f5efd9df0", "is_reserved": 0, "rental_uris": {"android": "https://dc.lft.to/lastmile_qr_scan", "ios": "https://dc.lft.to/lastmile_qr_scan"}, "fusion_lon": 0.0}, {"lat": 38.92106966666667, "is_disabled": 0, "type": "electric_scooter", "lon": -77.04680766666667, "bike_id": "eb756115eddb8c861cee629103834b72", "fusion_lat": 0.0, "name": "eb756115eddb8c861cee629103834b72", "is_reserved": 0, "rental_uris": {"android": "https://dc.lft.to/lastmile_qr_scan", "ios": "https://dc.lft.to/lastmile_qr_scan"}, "fusion_lon": 0.0}, {"lat": 38.92660933333333, "is_disabled": 0, "type": "electric_scooter", "lon": -77.05605833333334, "bike_id": "45a433548e519a0e137254af0689bd52", "fusion_lat": 0.0, "name": "45a433548e519a0e137254af0689bd52", "is_reserved": 0, "rental_uris": {"android": "https://dc.lft.to/lastmile_qr_scan", "ios": "https://dc.lft.to/lastmile_qr_scan"}, "fusion_lon": 0.0}, {"lat": 38.793030333333334, "is_disabled": 0, "type": "electric_bike", "lon": -77.0492625, "bike_id": "cb4f5e96d6359f77adf3159928f1ced9", "fusion_lat": 0.0, "name": "cb4f5e96d6359f77adf3159928f1ced9", "is_reserved": 0, "rental_uris": {"android": "https://dc.lft.to/lastmile_qr_scan", "ios": "https://dc.lft.to/lastmile_qr_scan"}, "fusion_lon": 0.0}, {"lat": 38.895527333333334, "is_disabled": 0, "type": "electric_scooter", "lon": -76.93377, "bike_id": "e20edc49098ee9f65d0bdbd83ed503fb", "fusion_lat": 0.0, "name": "e20edc49098ee9f65d0bdbd83ed503fb", "is_reserved": 0, "rental_uris": {"android": "https://dc.lft.to/lastmile_qr_scan", "ios": "https://dc.lft.to/lastmile_qr_scan"}, "fusion_lon": 0.0}, {"lat": 38.9242175, "is_disabled": 0, "type": "electric_scooter", "lon": -77.02971066666667, "bike_id": "7e7d5e3e9305fff92a0dc3f3eaddb872", "fusion_lat": 0.0, "name": "7e7d5e3e9305fff92a0dc3f3eaddb872", "is_reserved": 0, "rental_uris": {"android": "https://dc.lft.to/lastmile_qr_scan", "ios": "https://dc.lft.to/lastmile_qr_scan"}, "fusion_lon": 0.0}, {"lat": 38.8962785, "is_disabled": 0, "type": "electric_scooter", "lon": -77.023042, "bike_id": "ae61a9b53c59fa6d5429c1f6fa8664a6", "fusion_lat": 0.0, "name": "ae61a9b53c59fa6d5429c1f6fa8664a6", "is_reserved": 0, "rental_uris": {"android": "https://dc.lft.to/lastmile_qr_scan", "ios": "https://dc.lft.to/lastmile_qr_scan"}, "fusion_lon": 0.0}, {"lat": 38.9051515, "is_disabled": 0, "type": "electric_scooter", "lon": -77.03471133333333, "bike_id": "4b31b4047c2c5a7c32ae2a41c4bc568f", "fusion_lat": 0.0, "name": "4b31b4047c2c5a7c32ae2a41c4bc568f", "is_reserved": 0, "rental_uris": {"android": "https://dc.lft.to/lastmile_qr_scan", "ios": "https://dc.lft.to/lastmile_qr_scan"}, "fusion_lon": 0.0}, {"lat": 38.902060166666665, "is_disabled": 0, "type": "electric_scooter", "lon": -76.98829316666667, "bike_id": "fc6c0e97cfa71ae1f2e7d66767db4b6f", "fusion_lat": 0.0, "name": "fc6c0e97cfa71ae1f2e7d66767db4b6f", "is_reserved": 0, "rental_uris": {"android": "https://dc.lft.to/lastmile_qr_scan", "ios": "https://dc.lft.to/lastmile_qr_scan"}, "fusion_lon": 0.0}, {"lat": 38.904711666666664, "is_disabled": 0, "type": "electric_scooter", "lon": -77.00778816666667, "bike_id": "d61ef60cd679f7c9e0abc26fd96543a8", "fusion_lat": 0.0, "name": "d61ef60cd679f7c9e0abc26fd96543a8", "is_reserved": 0, "rental_uris": {"android": "https://dc.lft.to/lastmile_qr_scan", "ios": "https://dc.lft.to/lastmile_qr_scan"}, "fusion_lon": 0.0}, {"lat": 38.903637833333335, "is_disabled": 0, "type": "electric_scooter", "lon": -76.97656733333334, "bike_id": "c0d1936a4ea47836d04824c3cee013f9", "fusion_lat": 0.0, "name": "c0d1936a4ea47836d04824c3cee013f9", "is_reserved": 0, "rental_uris": {"android": "https://dc.lft.to/lastmile_qr_scan", "ios": "https://dc.lft.to/lastmile_qr_scan"}, "fusion_lon": 0.0}, {"lat": 38.90459883333333, "is_disabled": 0, "type": "electric_scooter", "lon": -77.04342616666666, "bike_id": "4d8c2d4e9265e2c3f41e86ebfdd394cd", "fusion_lat": 0.0, "name": "4d8c2d4e9265e2c3f41e86ebfdd394cd", "is_reserved": 0, "rental_uris": {"android": "https://dc.lft.to/lastmile_qr_scan", "ios": "https://dc.lft.to/lastmile_qr_scan"}, "fusion_lon": 0.0}, {"lat": 38.92229733333333, "is_disabled": 0, "type": "electric_scooter", "lon": -77.04381466666666, "bike_id": "c9708d2ed80fa7634860d8ea3bb2d87d", "fusion_lat": 0.0, "name": "c9708d2ed80fa7634860d8ea3bb2d87d", "is_reserved": 0, "rental_uris": {"android": "https://dc.lft.to/lastmile_qr_scan", "ios": "https://dc.lft.to/lastmile_qr_scan"}, "fusion_lon": 0.0}, {"lat": 38.920128, "is_disabled": 0, "type": "electric_scooter", "lon": -77.019444, "bike_id": "50306ccdece7c0d8039965a3e0b537aa", "fusion_lat": 0.0, "name": "50306ccdece7c0d8039965a3e0b537aa", "is_reserved": 0, "rental_uris": {"android": "https://dc.lft.to/lastmile_qr_scan", "ios": "https://dc.lft.to/lastmile_qr_scan"}, "fusion_lon": 0.0}, {"lat": 38.899306, "is_disabled": 0, "type": "electric_scooter", "lon": -77.01647316666667, "bike_id": "659d0eac5bf9cb0683d0d5c1d377765a", "fusion_lat": 0.0, "name": "659d0eac5bf9cb0683d0d5c1d377765a", "is_reserved": 0, "rental_uris": {"android": "https://dc.lft.to/lastmile_qr_scan", "ios": "https://dc.lft.to/lastmile_qr_scan"}, "fusion_lon": 0.0}, {"lat": 38.899138, "is_disabled": 0, "type": "electric_scooter", "lon": -77.01658716666667, "bike_id": "893be757578e18e98ea05d43682bb07f", "fusion_lat": 0.0, "name": "893be757578e18e98ea05d43682bb07f", "is_reserved": 0, "rental_uris": {"android": "https://dc.lft.to/lastmile_qr_scan", "ios": "https://dc.lft.to/lastmile_qr_scan"}, "fusion_lon": 0.0}, {"lat": 38.880107333333335, "is_disabled": 0, "type": "electric_scooter", "lon": -76.93131333333334, "bike_id": "f715ffadbc6c3ccde7eadf805a2f7ae6", "fusion_lat": 0.0, "name": "f715ffadbc6c3ccde7eadf805a2f7ae6", "is_reserved": 0, "rental_uris": {"android": "https://dc.lft.to/lastmile_qr_scan", "ios": "https://dc.lft.to/lastmile_qr_scan"}, "fusion_lon": 0.0}, {"lat": 38.942289333333335, "is_disabled": 0, "type": "electric_scooter", "lon": -77.01386816666667, "bike_id": "00770f26965a9d17cc29ae4e154133c8", "fusion_lat": 0.0, "name": "00770f26965a9d17cc29ae4e154133c8", "is_reserved": 0, "rental_uris": {"android": "https://dc.lft.to/lastmile_qr_scan", "ios": "https://dc.lft.to/lastmile_qr_scan"}, "fusion_lon": 0.0}, {"lat": 38.9084035, "is_disabled": 0, "type": "electric_scooter", "lon": -77.03827833333334, "bike_id": "f9416f7ada73193b465ecad321a7bf25", "fusion_lat": 0.0, "name": "f9416f7ada73193b465ecad321a7bf25", "is_reserved": 0, "rental_uris": {"android": "https://dc.lft.to/lastmile_qr_scan", "ios": "https://dc.lft.to/lastmile_qr_scan"}, "fusion_lon": 0.0}, {"lat": 38.904746833333334, "is_disabled": 0, "type": "electric_scooter", "lon": -77.00704533333334, "bike_id": "31784957a755f663cb9e66fa39d8e699", "fusion_lat": 0.0, "name": "31784957a755f663cb9e66fa39d8e699", "is_reserved": 0, "rental_uris": {"android": "https://dc.lft.to/lastmile_qr_scan", "ios": "https://dc.lft.to/lastmile_qr_scan"}, "fusion_lon": 0.0}, {"lat": 38.9135235, "is_disabled": 0, "type": "electric_scooter", "lon": -77.015212, "bike_id": "5111d5515d34b8fd1fe528e7eb3f8e3c", "fusion_lat": 0.0, "name": "5111d5515d34b8fd1fe528e7eb3f8e3c", "is_reserved": 0, "rental_uris": {"android": "https://dc.lft.to/lastmile_qr_scan", "ios": "https://dc.lft.to/lastmile_qr_scan"}, "fusion_lon": 0.0}, {"lat": 38.914627833333334, "is_disabled": 0, "type": "electric_scooter", "lon": -77.03178483333333, "bike_id": "710fc8a13276f4e62804126b7b41c403", "fusion_lat": 0.0, "name": "710fc8a13276f4e62804126b7b41c403", "is_reserved": 0, "rental_uris": {"android": "https://dc.lft.to/lastmile_qr_scan", "ios": "https://dc.lft.to/lastmile_qr_scan"}, "fusion_lon": 0.0}, {"lat": 38.8816945, "is_disabled": 0, "type": "electric_scooter", "lon": -76.99481083333333, "bike_id": "b3a82ed9e3c6c5c7bf3623ebce9b0726", "fusion_lat": 0.0, "name": "b3a82ed9e3c6c5c7bf3623ebce9b0726", "is_reserved": 0, "rental_uris": {"android": "https://dc.lft.to/lastmile_qr_scan", "ios": "https://dc.lft.to/lastmile_qr_scan"}, "fusion_lon": 0.0}, {"lat": 38.9041705, "is_disabled": 0, "type": "electric_scooter", "lon": -76.99071666666667, "bike_id": "4e6fbb7e36d9bf104f50f117fb168c4a", "fusion_lat": 0.0, "name": "4e6fbb7e36d9bf104f50f117fb168c4a", "is_reserved": 0, "rental_uris": {"android": "https://dc.lft.to/lastmile_qr_scan", "ios": "https://dc.lft.to/lastmile_qr_scan"}, "fusion_lon": 0.0}, {"lat": 38.9202255, "is_disabled": 0, "type": "electric_scooter", "lon": -77.04186966666667, "bike_id": "5c303d6032573897df45918da85c903c", "fusion_lat": 0.0, "name": "5c303d6032573897df45918da85c903c", "is_reserved": 0, "rental_uris": {"android": "https://dc.lft.to/lastmile_qr_scan", "ios": "https://dc.lft.to/lastmile_qr_scan"}, "fusion_lon": 0.0}, {"lat": 38.960192666666664, "is_disabled": 0, "type": "electric_scooter", "lon": -77.0283485, "bike_id": "ad33ed4af7c773d6838c5cf06429ed91", "fusion_lat": 0.0, "name": "ad33ed4af7c773d6838c5cf06429ed91", "is_reserved": 0, "rental_uris": {"android": "https://dc.lft.to/lastmile_qr_scan", "ios": "https://dc.lft.to/lastmile_qr_scan"}, "fusion_lon": 0.0}, {"lat": 38.919737833333336, "is_disabled": 0, "type": "electric_scooter", "lon": -77.000163, "bike_id": "6684e8c44b9c62e940579b2b895a1954", "fusion_lat": 0.0, "name": "6684e8c44b9c62e940579b2b895a1954", "is_reserved": 0, "rental_uris": {"android": "https://dc.lft.to/lastmile_qr_scan", "ios": "https://dc.lft.to/lastmile_qr_scan"}, "fusion_lon": 0.0}, {"lat": 38.93409416666667, "is_disabled": 0, "type": "electric_bike", "lon": -77.02504583333334, "bike_id": "bdecc881ff4b6140d21d3b3b5070f7f4", "fusion_lat": 0.0, "name": "bdecc881ff4b6140d21d3b3b5070f7f4", "is_reserved": 0, "rental_uris": {"android": "https://dc.lft.to/lastmile_qr_scan", "ios": "https://dc.lft.to/lastmile_qr_scan"}, "fusion_lon": 0.0}, {"lat": 38.90242383333333, "is_disabled": 0, "type": "electric_scooter", "lon": -77.06303383333334, "bike_id": "84ff095a827de4215e47bdf62d26bc81", "fusion_lat": 0.0, "name": "84ff095a827de4215e47bdf62d26bc81", "is_reserved": 0, "rental_uris": {"android": "https://dc.lft.to/lastmile_qr_scan", "ios": "https://dc.lft.to/lastmile_qr_scan"}, "fusion_lon": 0.0}, {"lat": 38.93120116666667, "is_disabled": 0, "type": "electric_scooter", "lon": -77.03030566666666, "bike_id": "8f35d207ac63023579f204053f4428c7", "fusion_lat": 0.0, "name": "8f35d207ac63023579f204053f4428c7", "is_reserved": 0, "rental_uris": {"android": "https://dc.lft.to/lastmile_qr_scan", "ios": "https://dc.lft.to/lastmile_qr_scan"}, "fusion_lon": 0.0}, {"lat": 38.90140066666667, "is_disabled": 0, "type": "electric_scooter", "lon": -76.980546, "bike_id": "1b4df1b55639658b4ac4b24387c3d223", "fusion_lat": 0.0, "name": "1b4df1b55639658b4ac4b24387c3d223", "is_reserved": 0, "rental_uris": {"android": "https://dc.lft.to/lastmile_qr_scan", "ios": "https://dc.lft.to/lastmile_qr_scan"}, "fusion_lon": 0.0}, {"lat": 38.8948185, "is_disabled": 0, "type": "electric_scooter", "lon": -77.00253566666666, "bike_id": "b09c6a71ffc9f8de07f50f9f8024f276", "fusion_lat": 0.0, "name": "b09c6a71ffc9f8de07f50f9f8024f276", "is_reserved": 0, "rental_uris": {"android": "https://dc.lft.to/lastmile_qr_scan", "ios": "https://dc.lft.to/lastmile_qr_scan"}, "fusion_lon": 0.0}, {"lat": 38.886714, "is_disabled": 0, "type": "electric_scooter", "lon": -76.9855655, "bike_id": "73c3249bd98d43403bcbdac2c4efab0d", "fusion_lat": 0.0, "name": "73c3249bd98d43403bcbdac2c4efab0d", "is_reserved": 0, "rental_uris": {"android": "https://dc.lft.to/lastmile_qr_scan", "ios": "https://dc.lft.to/lastmile_qr_scan"}, "fusion_lon": 0.0}, {"lat": 38.88706066666667, "is_disabled": 0, "type": "electric_scooter", "lon": -77.00146866666667, "bike_id": "d742fed77b1913ba305f85242fa82dae", "fusion_lat": 0.0, "name": "d742fed77b1913ba305f85242fa82dae", "is_reserved": 0, "rental_uris": {"android": "https://dc.lft.to/lastmile_qr_scan", "ios": "https://dc.lft.to/lastmile_qr_scan"}, "fusion_lon": 0.0}, {"lat": 38.9300725, "is_disabled": 0, "type": "electric_scooter", "lon": -77.027877, "bike_id": "b6643b007dfdb98f99839878a2438897", "fusion_lat": 0.0, "name": "b6643b007dfdb98f99839878a2438897", "is_reserved": 0, "rental_uris": {"android": "https://dc.lft.to/lastmile_qr_scan", "ios": "https://dc.lft.to/lastmile_qr_scan"}, "fusion_lon": 0.0}, {"lat": 38.8951675, "is_disabled": 0, "type": "electric_scooter", "lon": -77.04350816666667, "bike_id": "fb142c455f69f8f3c5291a64133f88b1", "fusion_lat": 0.0, "name": "fb142c455f69f8f3c5291a64133f88b1", "is_reserved": 0, "rental_uris": {"android": "https://dc.lft.to/lastmile_qr_scan", "ios": "https://dc.lft.to/lastmile_qr_scan"}, "fusion_lon": 0.0}, {"lat": 38.922025166666664, "is_disabled": 0, "type": "electric_scooter", "lon": -77.0423335, "bike_id": "e0825baf80fb34e4ea9b0e6908403577", "fusion_lat": 0.0, "name": "e0825baf80fb34e4ea9b0e6908403577", "is_reserved": 0, "rental_uris": {"android": "https://dc.lft.to/lastmile_qr_scan", "ios": "https://dc.lft.to/lastmile_qr_scan"}, "fusion_lon": 0.0}, {"lat": 38.91693633333333, "is_disabled": 0, "type": "electric_scooter", "lon": -77.02891216666667, "bike_id": "1f3d2a8d4519cb4012c7715e309319a9", "fusion_lat": 0.0, "name": "1f3d2a8d4519cb4012c7715e309319a9", "is_reserved": 0, "rental_uris": {"android": "https://dc.lft.to/lastmile_qr_scan", "ios": "https://dc.lft.to/lastmile_qr_scan"}, "fusion_lon": 0.0}, {"lat": 38.936789833333336, "is_disabled": 0, "type": "electric_scooter", "lon": -77.03575433333333, "bike_id": "058d394dc4dbb0130686211929e6fcf6", "fusion_lat": 0.0, "name": "058d394dc4dbb0130686211929e6fcf6", "is_reserved": 0, "rental_uris": {"android": "https://dc.lft.to/lastmile_qr_scan", "ios": "https://dc.lft.to/lastmile_qr_scan"}, "fusion_lon": 0.0}, {"lat": 39.03045183333333, "is_disabled": 0, "type": "electric_bike", "lon": -77.09474183333333, "bike_id": "22559c0561a208e84fb74ffc9348dc60", "fusion_lat": 0.0, "name": "22559c0561a208e84fb74ffc9348dc60", "is_reserved": 0, "rental_uris": {"android": "https://dc.lft.to/lastmile_qr_scan", "ios": "https://dc.lft.to/lastmile_qr_scan"}, "fusion_lon": 0.0}, {"lat": 38.90498766666666, "is_disabled": 0, "type": "electric_scooter", "lon": -77.04661383333334, "bike_id": "80f1dce5d0193102430cf6c68fcbe5ce", "fusion_lat": 0.0, "name": "80f1dce5d0193102430cf6c68fcbe5ce", "is_reserved": 0, "rental_uris": {"android": "https://dc.lft.to/lastmile_qr_scan", "ios": "https://dc.lft.to/lastmile_qr_scan"}, "fusion_lon": 0.0}, {"lat": 38.923277666666664, "is_disabled": 0, "type": "electric_scooter", "lon": -77.03889066666666, "bike_id": "bd999836f0f4c1561a96f0e54bc85ff0", "fusion_lat": 0.0, "name": "bd999836f0f4c1561a96f0e54bc85ff0", "is_reserved": 0, "rental_uris": {"android": "https://dc.lft.to/lastmile_qr_scan", "ios": "https://dc.lft.to/lastmile_qr_scan"}, "fusion_lon": 0.0}, {"lat": 38.909687166666664, "is_disabled": 0, "type": "electric_scooter", "lon": -77.04510166666667, "bike_id": "c46c61ec89930a8b90b5f36bcccf4897", "fusion_lat": 0.0, "name": "c46c61ec89930a8b90b5f36bcccf4897", "is_reserved": 0, "rental_uris": {"android": "https://dc.lft.to/lastmile_qr_scan", "ios": "https://dc.lft.to/lastmile_qr_scan"}, "fusion_lon": 0.0}, {"lat": 38.9218095, "is_disabled": 0, "type": "electric_scooter", "lon": -77.04229166666667, "bike_id": "ff027f13848f1426657323f8678246fc", "fusion_lat": 0.0, "name": "ff027f13848f1426657323f8678246fc", "is_reserved": 0, "rental_uris": {"android": "https://dc.lft.to/lastmile_qr_scan", "ios": "https://dc.lft.to/lastmile_qr_scan"}, "fusion_lon": 0.0}, {"lat": 38.90136233333333, "is_disabled": 0, "type": "electric_scooter", "lon": -77.00067566666667, "bike_id": "bed1c1f3128a78e61c6219383a2680ab", "fusion_lat": 0.0, "name": "bed1c1f3128a78e61c6219383a2680ab", "is_reserved": 0, "rental_uris": {"android": "https://dc.lft.to/lastmile_qr_scan", "ios": "https://dc.lft.to/lastmile_qr_scan"}, "fusion_lon": 0.0}, {"lat": 38.90080183333333, "is_disabled": 0, "type": "electric_scooter", "lon": -77.05314216666666, "bike_id": "70e940f654f9e7457cfa1d99021570a5", "fusion_lat": 0.0, "name": "70e940f654f9e7457cfa1d99021570a5", "is_reserved": 0, "rental_uris": {"android": "https://dc.lft.to/lastmile_qr_scan", "ios": "https://dc.lft.to/lastmile_qr_scan"}, "fusion_lon": 0.0}, {"lat": 38.9462785, "is_disabled": 0, "type": "electric_scooter", "lon": -77.01845483333334, "bike_id": "6159b8b3065d3a004e1b5f5562b6877f", "fusion_lat": 0.0, "name": "6159b8b3065d3a004e1b5f5562b6877f", "is_reserved": 0, "rental_uris": {"android": "https://dc.lft.to/lastmile_qr_scan", "ios": "https://dc.lft.to/lastmile_qr_scan"}, "fusion_lon": 0.0}, {"lat": 38.917003666666666, "is_disabled": 0, "type": "electric_scooter", "lon": -77.02891083333333, "bike_id": "fa2a46b716b5949a317c2edd45742c35", "fusion_lat": 0.0, "name": "fa2a46b716b5949a317c2edd45742c35", "is_reserved": 0, "rental_uris": {"android": "https://dc.lft.to/lastmile_qr_scan", "ios": "https://dc.lft.to/lastmile_qr_scan"}, "fusion_lon": 0.0}, {"lat": 38.9285545, "is_disabled": 0, "type": "electric_bike", "lon": -77.222109, "bike_id": "7e1eeae39623cfc58ce5459ded51335a", "fusion_lat": 0.0, "name": "7e1eeae39623cfc58ce5459ded51335a", "is_reserved": 0, "rental_uris": {"android": "https://dc.lft.to/lastmile_qr_scan", "ios": "https://dc.lft.to/lastmile_qr_scan"}, "fusion_lon": 0.0}, {"lat": 38.905047833333334, "is_disabled": 0, "type": "electric_scooter", "lon": -77.04329666666666, "bike_id": "011536fde6b58b0415d46bff2bf9bf2e", "fusion_lat": 0.0, "name": "011536fde6b58b0415d46bff2bf9bf2e", "is_reserved": 0, "rental_uris": {"android": "https://dc.lft.to/lastmile_qr_scan", "ios": "https://dc.lft.to/lastmile_qr_scan"}, "fusion_lon": 0.0}, {"lat": 38.879017166666664, "is_disabled": 0, "type": "electric_scooter", "lon": -77.02226666666667, "bike_id": "15a4c963c0904cd97ec28c7e54a66153", "fusion_lat": 0.0, "name": "15a4c963c0904cd97ec28c7e54a66153", "is_reserved": 0, "rental_uris": {"android": "https://dc.lft.to/lastmile_qr_scan", "ios": "https://dc.lft.to/lastmile_qr_scan"}, "fusion_lon": 0.0}, {"lat": 38.9238425, "is_disabled": 0, "type": "electric_bike", "lon": -77.04021033333333, "bike_id": "51a9ddb35a66a08992174fe91a1ed7a3", "fusion_lat": 0.0, "name": "51a9ddb35a66a08992174fe91a1ed7a3", "is_reserved": 0, "rental_uris": {"android": "https://dc.lft.to/lastmile_qr_scan", "ios": "https://dc.lft.to/lastmile_qr_scan"}, "fusion_lon": 0.0}, {"lat": 38.98366216666667, "is_disabled": 0, "type": "electric_scooter", "lon": -77.02643966666666, "bike_id": "2a984216104483536cc49b7cb7cbb95a", "fusion_lat": 0.0, "name": "2a984216104483536cc49b7cb7cbb95a", "is_reserved": 0, "rental_uris": {"android": "https://dc.lft.to/lastmile_qr_scan", "ios": "https://dc.lft.to/lastmile_qr_scan"}, "fusion_lon": 0.0}, {"lat": 38.912017666666664, "is_disabled": 0, "type": "electric_scooter", "lon": -77.038373, "bike_id": "a7a7f8805d7e4840459c8d98d86e49f4", "fusion_lat": 0.0, "name": "a7a7f8805d7e4840459c8d98d86e49f4", "is_reserved": 0, "rental_uris": {"android": "https://dc.lft.to/lastmile_qr_scan", "ios": "https://dc.lft.to/lastmile_qr_scan"}, "fusion_lon": 0.0}, {"lat": 38.91177233333333, "is_disabled": 0, "type": "electric_scooter", "lon": -77.01195033333333, "bike_id": "2044f3042ac548ccbb864fe26179961c", "fusion_lat": 0.0, "name": "2044f3042ac548ccbb864fe26179961c", "is_reserved": 0, "rental_uris": {"android": "https://dc.lft.to/lastmile_qr_scan", "ios": "https://dc.lft.to/lastmile_qr_scan"}, "fusion_lon": 0.0}, {"lat": 38.923379833333335, "is_disabled": 0, "type": "electric_scooter", "lon": -77.05108483333333, "bike_id": "26d7a2939a17b8633e21676853b665b7", "fusion_lat": 0.0, "name": "26d7a2939a17b8633e21676853b665b7", "is_reserved": 0, "rental_uris": {"android": "https://dc.lft.to/lastmile_qr_scan", "ios": "https://dc.lft.to/lastmile_qr_scan"}, "fusion_lon": 0.0}, {"lat": 38.90663416666666, "is_disabled": 0, "type": "electric_scooter", "lon": -77.00888533333334, "bike_id": "e4951a1513cc1487daa36bc45ffe73a5", "fusion_lat": 0.0, "name": "e4951a1513cc1487daa36bc45ffe73a5", "is_reserved": 0, "rental_uris": {"android": "https://dc.lft.to/lastmile_qr_scan", "ios": "https://dc.lft.to/lastmile_qr_scan"}, "fusion_lon": 0.0}, {"lat": 39.08858983333333, "is_disabled": 0, "type": "electric_bike", "lon": -77.17841016666667, "bike_id": "1a307564fd3a78cea5beab0ced646426", "fusion_lat": 0.0, "name": "1a307564fd3a78cea5beab0ced646426", "is_reserved": 0, "rental_uris": {"android": "https://dc.lft.to/lastmile_qr_scan", "ios": "https://dc.lft.to/lastmile_qr_scan"}, "fusion_lon": 0.0}, {"lat": 38.895890333333334, "is_disabled": 0, "type": "electric_scooter", "lon": -77.02902916666666, "bike_id": "1e943d9a012b1abb0e32d16e351f511c", "fusion_lat": 0.0, "name": "1e943d9a012b1abb0e32d16e351f511c", "is_reserved": 0, "rental_uris": {"android": "https://dc.lft.to/lastmile_qr_scan", "ios": "https://dc.lft.to/lastmile_qr_scan"}, "fusion_lon": 0.0}, {"lat": 38.917692833333334, "is_disabled": 0, "type": "electric_bike", "lon": -77.04058366666666, "bike_id": "eb230d7fdde63bc758c64576ddd1e706", "fusion_lat": 0.0, "name": "eb230d7fdde63bc758c64576ddd1e706", "is_reserved": 0, "rental_uris": {"android": "https://dc.lft.to/lastmile_qr_scan", "ios": "https://dc.lft.to/lastmile_qr_scan"}, "fusion_lon": 0.0}, {"lat": 38.91427233333334, "is_disabled": 0, "type": "electric_scooter", "lon": -77.03210466666667, "bike_id": "e4dcd17eb2f3189074cd223017249a51", "fusion_lat": 0.0, "name": "e4dcd17eb2f3189074cd223017249a51", "is_reserved": 0, "rental_uris": {"android": "https://dc.lft.to/lastmile_qr_scan", "ios": "https://dc.lft.to/lastmile_qr_scan"}, "fusion_lon": 0.0}, {"lat": 38.914707, "is_disabled": 0, "type": "electric_scooter", "lon": -77.032036, "bike_id": "5475899ee9f318833de57c07d0076c0c", "fusion_lat": 0.0, "name": "5475899ee9f318833de57c07d0076c0c", "is_reserved": 0, "rental_uris": {"android": "https://dc.lft.to/lastmile_qr_scan", "ios": "https://dc.lft.to/lastmile_qr_scan"}, "fusion_lon": 0.0}, {"lat": 38.9176675, "is_disabled": 0, "type": "electric_scooter", "lon": -77.0288675, "bike_id": "4ffa60d584a49013c6817cdabafb36b8", "fusion_lat": 0.0, "name": "4ffa60d584a49013c6817cdabafb36b8", "is_reserved": 0, "rental_uris": {"android": "https://dc.lft.to/lastmile_qr_scan", "ios": "https://dc.lft.to/lastmile_qr_scan"}, "fusion_lon": 0.0}, {"lat": 38.90229383333333, "is_disabled": 0, "type": "electric_scooter", "lon": -77.05335466666666, "bike_id": "cbde0025bbb5814abc9c47e269a4537a", "fusion_lat": 0.0, "name": "cbde0025bbb5814abc9c47e269a4537a", "is_reserved": 0, "rental_uris": {"android": "https://dc.lft.to/lastmile_qr_scan", "ios": "https://dc.lft.to/lastmile_qr_scan"}, "fusion_lon": 0.0}, {"lat": 38.8699195, "is_disabled": 0, "type": "electric_bike", "lon": -76.959776, "bike_id": "1c496efa4d7deecd93aff12fb12ace66", "fusion_lat": 0.0, "name": "1c496efa4d7deecd93aff12fb12ace66", "is_reserved": 0, "rental_uris": {"android": "https://dc.lft.to/lastmile_qr_scan", "ios": "https://dc.lft.to/lastmile_qr_scan"}, "fusion_lon": 0.0}, {"lat": 38.91250633333333, "is_disabled": 0, "type": "electric_scooter", "lon": -77.032073, "bike_id": "72fac85be8b91c3d895e8c6904565e03", "fusion_lat": 0.0, "name": "72fac85be8b91c3d895e8c6904565e03", "is_reserved": 0, "rental_uris": {"android": "https://dc.lft.to/lastmile_qr_scan", "ios": "https://dc.lft.to/lastmile_qr_scan"}, "fusion_lon": 0.0}, {"lat": 38.89248216666667, "is_disabled": 0, "type": "electric_bike", "lon": -76.985357, "bike_id": "08cb12bdec402e2be66edffb03ef342c", "fusion_lat": 0.0, "name": "08cb12bdec402e2be66edffb03ef342c", "is_reserved": 0, "rental_uris": {"android": "https://dc.lft.to/lastmile_qr_scan", "ios": "https://dc.lft.to/lastmile_qr_scan"}, "fusion_lon": 0.0}, {"lat": 38.89972083333333, "is_disabled": 0, "type": "electric_scooter", "lon": -77.02091666666666, "bike_id": "836087ecc3c4a615d55150f6ef492cd0", "fusion_lat": 0.0, "name": "836087ecc3c4a615d55150f6ef492cd0", "is_reserved": 0, "rental_uris": {"android": "https://dc.lft.to/lastmile_qr_scan", "ios": "https://dc.lft.to/lastmile_qr_scan"}, "fusion_lon": 0.0}, {"lat": 38.907863166666665, "is_disabled": 0, "type": "electric_scooter", "lon": -77.03649916666667, "bike_id": "254862ea0c48097b01711d0dce9997c8", "fusion_lat": 0.0, "name": "254862ea0c48097b01711d0dce9997c8", "is_reserved": 0, "rental_uris": {"android": "https://dc.lft.to/lastmile_qr_scan", "ios": "https://dc.lft.to/lastmile_qr_scan"}, "fusion_lon": 0.0}, {"lat": 38.93881416666667, "is_disabled": 0, "type": "electric_scooter", "lon": -77.0328325, "bike_id": "63524bf88464a96874b5f305044d8ea0", "fusion_lat": 0.0, "name": "63524bf88464a96874b5f305044d8ea0", "is_reserved": 0, "rental_uris": {"android": "https://dc.lft.to/lastmile_qr_scan", "ios": "https://dc.lft.to/lastmile_qr_scan"}, "fusion_lon": 0.0}, {"lat": 38.8949145, "is_disabled": 0, "type": "electric_scooter", "lon": -77.01126316666667, "bike_id": "29c193b21a1bb9d2c11b5adf34f5e930", "fusion_lat": 0.0, "name": "29c193b21a1bb9d2c11b5adf34f5e930", "is_reserved": 0, "rental_uris": {"android": "https://dc.lft.to/lastmile_qr_scan", "ios": "https://dc.lft.to/lastmile_qr_scan"}, "fusion_lon": 0.0}, {"lat": 38.98503516666667, "is_disabled": 0, "type": "electric_bike", "lon": -76.9820795, "bike_id": "b776100200eea9cfb0dc2d8719344227", "fusion_lat": 0.0, "name": "b776100200eea9cfb0dc2d8719344227", "is_reserved": 0, "rental_uris": {"android": "https://dc.lft.to/lastmile_qr_scan", "ios": "https://dc.lft.to/lastmile_qr_scan"}, "fusion_lon": 0.0}, {"lat": 38.911298333333335, "is_disabled": 0, "type": "electric_scooter", "lon": -77.02198416666667, "bike_id": "ba1a37fb0462b8415fc806bbc364f1c1", "fusion_lat": 0.0, "name": "ba1a37fb0462b8415fc806bbc364f1c1", "is_reserved": 0, "rental_uris": {"android": "https://dc.lft.to/lastmile_qr_scan", "ios": "https://dc.lft.to/lastmile_qr_scan"}, "fusion_lon": 0.0}, {"lat": 38.822621166666664, "is_disabled": 0, "type": "electric_bike", "lon": -77.058027, "bike_id": "41336c468aaa8de25b22b0ec89059ce5", "fusion_lat": 0.0, "name": "41336c468aaa8de25b22b0ec89059ce5", "is_reserved": 0, "rental_uris": {"android": "https://dc.lft.to/lastmile_qr_scan", "ios": "https://dc.lft.to/lastmile_qr_scan"}, "fusion_lon": 0.0}, {"lat": 38.922353333333334, "is_disabled": 0, "type": "electric_scooter", "lon": -77.0307155, "bike_id": "2ee90c630bececcca0d3f4edf0080d3a", "fusion_lat": 0.0, "name": "2ee90c630bececcca0d3f4edf0080d3a", "is_reserved": 0, "rental_uris": {"android": "https://dc.lft.to/lastmile_qr_scan", "ios": "https://dc.lft.to/lastmile_qr_scan"}, "fusion_lon": 0.0}, {"lat": 38.973666, "is_disabled": 0, "type": "electric_scooter", "lon": -77.01851966666666, "bike_id": "732fd0a0dcd8b978125b606cb1ee3e8b", "fusion_lat": 0.0, "name": "732fd0a0dcd8b978125b606cb1ee3e8b", "is_reserved": 0, "rental_uris": {"android": "https://dc.lft.to/lastmile_qr_scan", "ios": "https://dc.lft.to/lastmile_qr_scan"}, "fusion_lon": 0.0}, {"lat": 38.898352333333335, "is_disabled": 0, "type": "electric_scooter", "lon": -77.03154983333333, "bike_id": "4c45b20191c408500724f4ff3e0190e5", "fusion_lat": 0.0, "name": "4c45b20191c408500724f4ff3e0190e5", "is_reserved": 0, "rental_uris": {"android": "https://dc.lft.to/lastmile_qr_scan", "ios": "https://dc.lft.to/lastmile_qr_scan"}, "fusion_lon": 0.0}, {"lat": 38.85916483333333, "is_disabled": 0, "type": "electric_scooter", "lon": -76.994737, "bike_id": "386197f93871c279a7dc458f01c319ee", "fusion_lat": 0.0, "name": "386197f93871c279a7dc458f01c319ee", "is_reserved": 0, "rental_uris": {"android": "https://dc.lft.to/lastmile_qr_scan", "ios": "https://dc.lft.to/lastmile_qr_scan"}, "fusion_lon": 0.0}, {"lat": 38.908337333333336, "is_disabled": 0, "type": "electric_scooter", "lon": -76.99696083333333, "bike_id": "8a5f08dd492715ac9f44f880c6dc2fbb", "fusion_lat": 0.0, "name": "8a5f08dd492715ac9f44f880c6dc2fbb", "is_reserved": 0, "rental_uris": {"android": "https://dc.lft.to/lastmile_qr_scan", "ios": "https://dc.lft.to/lastmile_qr_scan"}, "fusion_lon": 0.0}, {"lat": 38.931876, "is_disabled": 0, "type": "electric_scooter", "lon": -77.02822333333333, "bike_id": "e63def97dd392b676acdb42e58d4d52b", "fusion_lat": 0.0, "name": "e63def97dd392b676acdb42e58d4d52b", "is_reserved": 0, "rental_uris": {"android": "https://dc.lft.to/lastmile_qr_scan", "ios": "https://dc.lft.to/lastmile_qr_scan"}, "fusion_lon": 0.0}, {"lat": 38.86104916666667, "is_disabled": 0, "type": "electric_scooter", "lon": -76.983273, "bike_id": "8a0b5f8318413657306ae7c0e31d69c2", "fusion_lat": 0.0, "name": "8a0b5f8318413657306ae7c0e31d69c2", "is_reserved": 0, "rental_uris": {"android": "https://dc.lft.to/lastmile_qr_scan", "ios": "https://dc.lft.to/lastmile_qr_scan"}, "fusion_lon": 0.0}, {"lat": 38.900614166666664, "is_disabled": 0, "type": "electric_scooter", "lon": -76.93387216666666, "bike_id": "caa51ceb1f569b9e94fe5e87d1af2f19", "fusion_lat": 0.0, "name": "caa51ceb1f569b9e94fe5e87d1af2f19", "is_reserved": 0, "rental_uris": {"android": "https://dc.lft.to/lastmile_qr_scan", "ios": "https://dc.lft.to/lastmile_qr_scan"}, "fusion_lon": 0.0}, {"lat": 38.900922, "is_disabled": 0, "type": "electric_scooter", "lon": -77.049729, "bike_id": "83ca62c1bfac4c740738f61c485b70f9", "fusion_lat": 0.0, "name": "83ca62c1bfac4c740738f61c485b70f9", "is_reserved": 0, "rental_uris": {"android": "https://dc.lft.to/lastmile_qr_scan", "ios": "https://dc.lft.to/lastmile_qr_scan"}, "fusion_lon": 0.0}, {"lat": 38.913071, "is_disabled": 0, "type": "electric_scooter", "lon": -77.04155283333333, "bike_id": "4f311b8f70bc1c327140fa7ae9a30a6d", "fusion_lat": 0.0, "name": "4f311b8f70bc1c327140fa7ae9a30a6d", "is_reserved": 0, "rental_uris": {"android": "https://dc.lft.to/lastmile_qr_scan", "ios": "https://dc.lft.to/lastmile_qr_scan"}, "fusion_lon": 0.0}, {"lat": 38.8766695, "is_disabled": 0, "type": "electric_scooter", "lon": -76.96729533333334, "bike_id": "5d0225f213f235158e59be815ff6ea4b", "fusion_lat": 0.0, "name": "5d0225f213f235158e59be815ff6ea4b", "is_reserved": 0, "rental_uris": {"android": "https://dc.lft.to/lastmile_qr_scan", "ios": "https://dc.lft.to/lastmile_qr_scan"}, "fusion_lon": 0.0}, {"lat": 38.9193175, "is_disabled": 0, "type": "electric_scooter", "lon": -77.08133583333333, "bike_id": "617b33cbf9385282b4ae9b23828afbb8", "fusion_lat": 0.0, "name": "617b33cbf9385282b4ae9b23828afbb8", "is_reserved": 0, "rental_uris": {"android": "https://dc.lft.to/lastmile_qr_scan", "ios": "https://dc.lft.to/lastmile_qr_scan"}, "fusion_lon": 0.0}, {"lat": 38.916865333333334, "is_disabled": 0, "type": "electric_scooter", "lon": -77.0296635, "bike_id": "340ffeac06da47b922c4ff5e5874f5b0", "fusion_lat": 0.0, "name": "340ffeac06da47b922c4ff5e5874f5b0", "is_reserved": 0, "rental_uris": {"android": "https://dc.lft.to/lastmile_qr_scan", "ios": "https://dc.lft.to/lastmile_qr_scan"}, "fusion_lon": 0.0}, {"lat": 38.91415716666667, "is_disabled": 0, "type": "electric_scooter", "lon": -77.03217816666667, "bike_id": "34fc0dbaf5c9667df506dadcb2ace30e", "fusion_lat": 0.0, "name": "34fc0dbaf5c9667df506dadcb2ace30e", "is_reserved": 0, "rental_uris": {"android": "https://dc.lft.to/lastmile_qr_scan", "ios": "https://dc.lft.to/lastmile_qr_scan"}, "fusion_lon": 0.0}, {"lat": 38.99997783333333, "is_disabled": 0, "type": "electric_bike", "lon": -76.92496633333333, "bike_id": "9bac7200b5eb32aa2feb4301a30aba0a", "fusion_lat": 0.0, "name": "9bac7200b5eb32aa2feb4301a30aba0a", "is_reserved": 0, "rental_uris": {"android": "https://dc.lft.to/lastmile_qr_scan", "ios": "https://dc.lft.to/lastmile_qr_scan"}, "fusion_lon": 0.0}, {"lat": 38.90970733333333, "is_disabled": 0, "type": "electric_scooter", "lon": -77.04500133333333, "bike_id": "65661bc7310b316c863533974cb30b88", "fusion_lat": 0.0, "name": "65661bc7310b316c863533974cb30b88", "is_reserved": 0, "rental_uris": {"android": "https://dc.lft.to/lastmile_qr_scan", "ios": "https://dc.lft.to/lastmile_qr_scan"}, "fusion_lon": 0.0}, {"lat": 38.882986, "is_disabled": 0, "type": "electric_scooter", "lon": -76.9821225, "bike_id": "40d1bdfd63fabff1cdbde0f821aa99f4", "fusion_lat": 0.0, "name": "40d1bdfd63fabff1cdbde0f821aa99f4", "is_reserved": 0, "rental_uris": {"android": "https://dc.lft.to/lastmile_qr_scan", "ios": "https://dc.lft.to/lastmile_qr_scan"}, "fusion_lon": 0.0}, {"lat": 38.863648833333336, "is_disabled": 0, "type": "electric_scooter", "lon": -76.99040316666667, "bike_id": "60e8b074c1bcfd7089676df344371021", "fusion_lat": 0.0, "name": "60e8b074c1bcfd7089676df344371021", "is_reserved": 0, "rental_uris": {"android": "https://dc.lft.to/lastmile_qr_scan", "ios": "https://dc.lft.to/lastmile_qr_scan"}, "fusion_lon": 0.0}, {"lat": 38.918916833333334, "is_disabled": 0, "type": "electric_scooter", "lon": -77.04180233333334, "bike_id": "e88df1d3653e896cbf7382b83590eee1", "fusion_lat": 0.0, "name": "e88df1d3653e896cbf7382b83590eee1", "is_reserved": 0, "rental_uris": {"android": "https://dc.lft.to/lastmile_qr_scan", "ios": "https://dc.lft.to/lastmile_qr_scan"}, "fusion_lon": 0.0}, {"lat": 38.8711385, "is_disabled": 0, "type": "electric_scooter", "lon": -77.01067583333334, "bike_id": "0b14a01eed9f50422dbd174ba0323196", "fusion_lat": 0.0, "name": "0b14a01eed9f50422dbd174ba0323196", "is_reserved": 0, "rental_uris": {"android": "https://dc.lft.to/lastmile_qr_scan", "ios": "https://dc.lft.to/lastmile_qr_scan"}, "fusion_lon": 0.0}, {"lat": 38.90699266666667, "is_disabled": 0, "type": "electric_scooter", "lon": -76.98695733333334, "bike_id": "d235c081acb562b9f4f9da5aa5e8194d", "fusion_lat": 0.0, "name": "d235c081acb562b9f4f9da5aa5e8194d", "is_reserved": 0, "rental_uris": {"android": "https://dc.lft.to/lastmile_qr_scan", "ios": "https://dc.lft.to/lastmile_qr_scan"}, "fusion_lon": 0.0}, {"lat": 38.92887116666667, "is_disabled": 0, "type": "electric_scooter", "lon": -77.02582516666666, "bike_id": "363c32f8742422a5466ef4ff8b4f6092", "fusion_lat": 0.0, "name": "363c32f8742422a5466ef4ff8b4f6092", "is_reserved": 0, "rental_uris": {"android": "https://dc.lft.to/lastmile_qr_scan", "ios": "https://dc.lft.to/lastmile_qr_scan"}, "fusion_lon": 0.0}, {"lat": 38.91255566666667, "is_disabled": 0, "type": "electric_scooter", "lon": -77.03623716666667, "bike_id": "98246000f5bcfbcb8aa2c889ceb96f78", "fusion_lat": 0.0, "name": "98246000f5bcfbcb8aa2c889ceb96f78", "is_reserved": 0, "rental_uris": {"android": "https://dc.lft.to/lastmile_qr_scan", "ios": "https://dc.lft.to/lastmile_qr_scan"}, "fusion_lon": 0.0}, {"lat": 38.93931583333333, "is_disabled": 0, "type": "electric_scooter", "lon": -77.0221865, "bike_id": "550b7f79ec360d64b675aeb27f451eb1", "fusion_lat": 0.0, "name": "550b7f79ec360d64b675aeb27f451eb1", "is_reserved": 0, "rental_uris": {"android": "https://dc.lft.to/lastmile_qr_scan", "ios": "https://dc.lft.to/lastmile_qr_scan"}, "fusion_lon": 0.0}, {"lat": 38.9518535, "is_disabled": 0, "type": "electric_bike", "lon": -76.93544366666667, "bike_id": "1a4e61f55ddb132f5ebc8be0b67777d6", "fusion_lat": 0.0, "name": "1a4e61f55ddb132f5ebc8be0b67777d6", "is_reserved": 0, "rental_uris": {"android": "https://dc.lft.to/lastmile_qr_scan", "ios": "https://dc.lft.to/lastmile_qr_scan"}, "fusion_lon": 0.0}, {"lat": 38.87732033333333, "is_disabled": 0, "type": "electric_bike", "lon": -77.11844666666667, "bike_id": "2a4d252118f686894910e193083ff22a", "fusion_lat": 0.0, "name": "2a4d252118f686894910e193083ff22a", "is_reserved": 0, "rental_uris": {"android": "https://dc.lft.to/lastmile_qr_scan", "ios": "https://dc.lft.to/lastmile_qr_scan"}, "fusion_lon": 0.0}, {"lat": 38.93981433333333, "is_disabled": 0, "type": "electric_scooter", "lon": -77.0326525, "bike_id": "b4af26fed04c81b8daa27770f3938714", "fusion_lat": 0.0, "name": "b4af26fed04c81b8daa27770f3938714", "is_reserved": 0, "rental_uris": {"android": "https://dc.lft.to/lastmile_qr_scan", "ios": "https://dc.lft.to/lastmile_qr_scan"}, "fusion_lon": 0.0}, {"lat": 38.898802333333336, "is_disabled": 0, "type": "electric_scooter", "lon": -77.02933566666667, "bike_id": "64091aa0b9af8b39c81d0e1cade02599", "fusion_lat": 0.0, "name": "64091aa0b9af8b39c81d0e1cade02599", "is_reserved": 0, "rental_uris": {"android": "https://dc.lft.to/lastmile_qr_scan", "ios": "https://dc.lft.to/lastmile_qr_scan"}, "fusion_lon": 0.0}, {"lat": 38.917057, "is_disabled": 0, "type": "electric_scooter", "lon": -77.02967416666667, "bike_id": "39191f42cc7f7c87dd8dbf446d913b07", "fusion_lat": 0.0, "name": "39191f42cc7f7c87dd8dbf446d913b07", "is_reserved": 0, "rental_uris": {"android": "https://dc.lft.to/lastmile_qr_scan", "ios": "https://dc.lft.to/lastmile_qr_scan"}, "fusion_lon": 0.0}, {"lat": 38.903337666666665, "is_disabled": 0, "type": "electric_scooter", "lon": -76.97058983333334, "bike_id": "13affd23e2f3a695adf7854dd3058bb4", "fusion_lat": 0.0, "name": "13affd23e2f3a695adf7854dd3058bb4", "is_reserved": 0, "rental_uris": {"android": "https://dc.lft.to/lastmile_qr_scan", "ios": "https://dc.lft.to/lastmile_qr_scan"}, "fusion_lon": 0.0}, {"lat": 38.910071333333335, "is_disabled": 0, "type": "electric_scooter", "lon": -76.9938395, "bike_id": "33115aedcce8dc7a640067df48c52435", "fusion_lat": 0.0, "name": "33115aedcce8dc7a640067df48c52435", "is_reserved": 0, "rental_uris": {"android": "https://dc.lft.to/lastmile_qr_scan", "ios": "https://dc.lft.to/lastmile_qr_scan"}, "fusion_lon": 0.0}, {"lat": 38.919935333333335, "is_disabled": 0, "type": "electric_scooter", "lon": -77.02380516666666, "bike_id": "b4ca06890248d5dde2b6780f5a9a1a07", "fusion_lat": 0.0, "name": "b4ca06890248d5dde2b6780f5a9a1a07", "is_reserved": 0, "rental_uris": {"android": "https://dc.lft.to/lastmile_qr_scan", "ios": "https://dc.lft.to/lastmile_qr_scan"}, "fusion_lon": 0.0}, {"lat": 38.894847, "is_disabled": 0, "type": "electric_scooter", "lon": -76.94952283333333, "bike_id": "10379dd35875bbc09bc6f985ab05fbdc", "fusion_lat": 0.0, "name": "10379dd35875bbc09bc6f985ab05fbdc", "is_reserved": 0, "rental_uris": {"android": "https://dc.lft.to/lastmile_qr_scan", "ios": "https://dc.lft.to/lastmile_qr_scan"}, "fusion_lon": 0.0}, {"lat": 38.90882466666667, "is_disabled": 0, "type": "electric_scooter", "lon": -77.0366025, "bike_id": "fb77276c27715a828fe76eb1433c3834", "fusion_lat": 0.0, "name": "fb77276c27715a828fe76eb1433c3834", "is_reserved": 0, "rental_uris": {"android": "https://dc.lft.to/lastmile_qr_scan", "ios": "https://dc.lft.to/lastmile_qr_scan"}, "fusion_lon": 0.0}, {"lat": 38.91086683333333, "is_disabled": 0, "type": "electric_scooter", "lon": -77.02181366666667, "bike_id": "272b653583f6c8c8cad76bd7dd836ba6", "fusion_lat": 0.0, "name": "272b653583f6c8c8cad76bd7dd836ba6", "is_reserved": 0, "rental_uris": {"android": "https://dc.lft.to/lastmile_qr_scan", "ios": "https://dc.lft.to/lastmile_qr_scan"}, "fusion_lon": 0.0}, {"lat": 38.8924235, "is_disabled": 0, "type": "electric_scooter", "lon": -77.0334625, "bike_id": "3c1c2766483ec43ed76508b9e89cee4e", "fusion_lat": 0.0, "name": "3c1c2766483ec43ed76508b9e89cee4e", "is_reserved": 0, "rental_uris": {"android": "https://dc.lft.to/lastmile_qr_scan", "ios": "https://dc.lft.to/lastmile_qr_scan"}, "fusion_lon": 0.0}, {"lat": 38.90955233333333, "is_disabled": 0, "type": "electric_scooter", "lon": -77.04630933333334, "bike_id": "1b1a9ebf7db56837739d1b02e3721cf0", "fusion_lat": 0.0, "name": "1b1a9ebf7db56837739d1b02e3721cf0", "is_reserved": 0, "rental_uris": {"android": "https://dc.lft.to/lastmile_qr_scan", "ios": "https://dc.lft.to/lastmile_qr_scan"}, "fusion_lon": 0.0}, {"lat": 38.922419166666664, "is_disabled": 0, "type": "electric_scooter", "lon": -77.042447, "bike_id": "1e2d21e268f6d3ab66c1bc412c0c2f85", "fusion_lat": 0.0, "name": "1e2d21e268f6d3ab66c1bc412c0c2f85", "is_reserved": 0, "rental_uris": {"android": "https://dc.lft.to/lastmile_qr_scan", "ios": "https://dc.lft.to/lastmile_qr_scan"}, "fusion_lon": 0.0}, {"lat": 38.91261633333333, "is_disabled": 0, "type": "electric_scooter", "lon": -77.03497366666667, "bike_id": "d6cc850c738ea38841dac4412d37b2d8", "fusion_lat": 0.0, "name": "d6cc850c738ea38841dac4412d37b2d8", "is_reserved": 0, "rental_uris": {"android": "https://dc.lft.to/lastmile_qr_scan", "ios": "https://dc.lft.to/lastmile_qr_scan"}, "fusion_lon": 0.0}, {"lat": 38.8786615, "is_disabled": 0, "type": "electric_scooter", "lon": -77.02217983333334, "bike_id": "5f9aa75df78d8c89a69507ce08b50d65", "fusion_lat": 0.0, "name": "5f9aa75df78d8c89a69507ce08b50d65", "is_reserved": 0, "rental_uris": {"android": "https://dc.lft.to/lastmile_qr_scan", "ios": "https://dc.lft.to/lastmile_qr_scan"}, "fusion_lon": 0.0}, {"lat": 38.898323500000004, "is_disabled": 0, "type": "electric_scooter", "lon": -77.0220905, "bike_id": "1107d44dc536087d538b556a3b1ae102", "fusion_lat": 0.0, "name": "1107d44dc536087d538b556a3b1ae102", "is_reserved": 0, "rental_uris": {"android": "https://dc.lft.to/lastmile_qr_scan", "ios": "https://dc.lft.to/lastmile_qr_scan"}, "fusion_lon": 0.0}, {"lat": 38.922365666666664, "is_disabled": 0, "type": "electric_scooter", "lon": -77.02911666666667, "bike_id": "148076cb56d0d2a5cbe8c7d0d7cb6ffd", "fusion_lat": 0.0, "name": "148076cb56d0d2a5cbe8c7d0d7cb6ffd", "is_reserved": 0, "rental_uris": {"android": "https://dc.lft.to/lastmile_qr_scan", "ios": "https://dc.lft.to/lastmile_qr_scan"}, "fusion_lon": 0.0}, {"lat": 38.9614925, "is_disabled": 0, "type": "electric_bike", "lon": -77.03235, "bike_id": "ff95bd22784151004f0797821b3a6544", "fusion_lat": 0.0, "name": "ff95bd22784151004f0797821b3a6544", "is_reserved": 0, "rental_uris": {"android": "https://dc.lft.to/lastmile_qr_scan", "ios": "https://dc.lft.to/lastmile_qr_scan"}, "fusion_lon": 0.0}, {"lat": 38.86619433333333, "is_disabled": 0, "type": "electric_scooter", "lon": -76.9865545, "bike_id": "101ee71427fab70b563b223447067c1d", "fusion_lat": 0.0, "name": "101ee71427fab70b563b223447067c1d", "is_reserved": 0, "rental_uris": {"android": "https://dc.lft.to/lastmile_qr_scan", "ios": "https://dc.lft.to/lastmile_qr_scan"}, "fusion_lon": 0.0}, {"lat": 38.89463966666667, "is_disabled": 0, "type": "electric_bike", "lon": -76.956198, "bike_id": "0588e226fe122b4c2ae8c5d53a31d9f2", "fusion_lat": 0.0, "name": "0588e226fe122b4c2ae8c5d53a31d9f2", "is_reserved": 0, "rental_uris": {"android": "https://dc.lft.to/lastmile_qr_scan", "ios": "https://dc.lft.to/lastmile_qr_scan"}, "fusion_lon": 0.0}, {"lat": 38.93572366666667, "is_disabled": 0, "type": "electric_scooter", "lon": -77.037268, "bike_id": "642c1473679fd285b7a7b3d0e8ba20b2", "fusion_lat": 0.0, "name": "642c1473679fd285b7a7b3d0e8ba20b2", "is_reserved": 0, "rental_uris": {"android": "https://dc.lft.to/lastmile_qr_scan", "ios": "https://dc.lft.to/lastmile_qr_scan"}, "fusion_lon": 0.0}, {"lat": 38.892185833333336, "is_disabled": 0, "type": "electric_scooter", "lon": -77.04867283333333, "bike_id": "4f4d97dca60ad497a2ae06e84f16aed7", "fusion_lat": 0.0, "name": "4f4d97dca60ad497a2ae06e84f16aed7", "is_reserved": 0, "rental_uris": {"android": "https://dc.lft.to/lastmile_qr_scan", "ios": "https://dc.lft.to/lastmile_qr_scan"}, "fusion_lon": 0.0}, {"lat": 38.884275333333335, "is_disabled": 0, "type": "electric_bike", "lon": -76.95753333333333, "bike_id": "4f31d6f437d94975967dd40024f047c6", "fusion_lat": 0.0, "name": "4f31d6f437d94975967dd40024f047c6", "is_reserved": 0, "rental_uris": {"android": "https://dc.lft.to/lastmile_qr_scan", "ios": "https://dc.lft.to/lastmile_qr_scan"}, "fusion_lon": 0.0}, {"lat": 38.871464333333336, "is_disabled": 0, "type": "electric_scooter", "lon": -77.01316333333334, "bike_id": "8c3bec87985c2c4571af55752a4910f6", "fusion_lat": 0.0, "name": "8c3bec87985c2c4571af55752a4910f6", "is_reserved": 0, "rental_uris": {"android": "https://dc.lft.to/lastmile_qr_scan", "ios": "https://dc.lft.to/lastmile_qr_scan"}, "fusion_lon": 0.0}, {"lat": 38.90025083333333, "is_disabled": 0, "type": "electric_scooter", "lon": -76.98803716666667, "bike_id": "dcc288ffff9a34083035cb1df6792fa7", "fusion_lat": 0.0, "name": "dcc288ffff9a34083035cb1df6792fa7", "is_reserved": 0, "rental_uris": {"android": "https://dc.lft.to/lastmile_qr_scan", "ios": "https://dc.lft.to/lastmile_qr_scan"}, "fusion_lon": 0.0}, {"lat": 38.914816333333334, "is_disabled": 0, "type": "electric_scooter", "lon": -77.021771, "bike_id": "02d7b65289977c4eb217417d46fb8ff5", "fusion_lat": 0.0, "name": "02d7b65289977c4eb217417d46fb8ff5", "is_reserved": 0, "rental_uris": {"android": "https://dc.lft.to/lastmile_qr_scan", "ios": "https://dc.lft.to/lastmile_qr_scan"}, "fusion_lon": 0.0}, {"lat": 38.86710683333333, "is_disabled": 0, "type": "electric_scooter", "lon": -76.9872445, "bike_id": "2cac5a1a588bed182d6a37e9b7fd13c1", "fusion_lat": 0.0, "name": "2cac5a1a588bed182d6a37e9b7fd13c1", "is_reserved": 0, "rental_uris": {"android": "https://dc.lft.to/lastmile_qr_scan", "ios": "https://dc.lft.to/lastmile_qr_scan"}, "fusion_lon": 0.0}, {"lat": 38.904758666666666, "is_disabled": 0, "type": "electric_scooter", "lon": -77.00721683333333, "bike_id": "6e03bae99f97b5e83f71af81def7de60", "fusion_lat": 0.0, "name": "6e03bae99f97b5e83f71af81def7de60", "is_reserved": 0, "rental_uris": {"android": "https://dc.lft.to/lastmile_qr_scan", "ios": "https://dc.lft.to/lastmile_qr_scan"}, "fusion_lon": 0.0}, {"lat": 38.932243166666666, "is_disabled": 0, "type": "electric_scooter", "lon": -77.03868133333333, "bike_id": "da211e1bc376813db017cb7cd3d0378c", "fusion_lat": 0.0, "name": "da211e1bc376813db017cb7cd3d0378c", "is_reserved": 0, "rental_uris": {"android": "https://dc.lft.to/lastmile_qr_scan", "ios": "https://dc.lft.to/lastmile_qr_scan"}, "fusion_lon": 0.0},