{"data": {"bikes": [{"bike_id": "792c69eeb2ac552455cbcaa39bd0d3a2", "type": "electric_scooter", "is_disabled": 0, "lat": 38.94329666666667, "rental_uris": {"ios": "https://dc.lft.to/lastmile_qr_scan", "android": "https://dc.lft.to/lastmile_qr_scan"}, "is_reserved": 0, "fusion_lon": 0.0, "fusion_lat": 0.0, "lon": -77.01475266666667, "name": "792c69eeb2ac552455cbcaa39bd0d3a2"}, {"bike_id": "da2c458d59a8f596469d43a8ee14ed33", "type": "electric_scooter", "is_disabled": 0, "lat": 38.9168865, "rental_uris": {"ios": "https://dc.lft.to/lastmile_qr_scan", "android": "https://dc.lft.to/lastmile_qr_scan"}, "is_reserved": 0, "fusion_lon": 0.0, "fusion_lat": 0.0, "lon": -77.0321705, "name": "da2c458d59a8f596469d43a8ee14ed33"}, {"bike_id": "5207c6303f1ada45450cbd3c7c3db6d0", "type": "electric_scooter", "is_disabled": 0, "lat": 38.9039655, "rental_uris": {"ios": "https://dc.lft.to/lastmile_qr_scan", "android": "https://dc.lft.to/lastmile_qr_scan"}, "is_reserved": 0, "fusion_lon": 0.0, "fusion_lat": 0.0, "lon": -77.0685565, "name": "5207c6303f1ada45450cbd3c7c3db6d0"}, {"bike_id": "f76dd6c27023255da5c6e638fbf6e127", "type": "electric_scooter", "is_disabled": 0, "lat": 38.91136216666666, "rental_uris": {"ios": "https://dc.lft.to/lastmile_qr_scan", "android": "https://dc.lft.to/lastmile_qr_scan"}, "is_reserved": 0, "fusion_lon": 0.0, "fusion_lat": 0.0, "lon": -77.06533733333333, "name": "f76dd6c27023255da5c6e638fbf6e127"}, {"bike_id": "2daf9713ab697a4cb5f215804deb7597", "type": "electric_scooter", "is_disabled": 0, "lat": 38.898284, "rental_uris": {"ios": "https://dc.lft.to/lastmile_qr_scan", "android": "https://dc.lft.to/lastmile_qr_scan"}, "is_reserved": 0, "fusion_lon": 0.0, "fusion_lat": 0.0, "lon": -77.02379633333334, "name": "2daf9713ab697a4cb5f215804deb7597"}, {"bike_id": "565dc2de9b9a492ba0d3f46d3bfdf7ae", "type": "electric_scooter", "is_disabled": 0, "lat": 38.93715483333333, "rental_uris": {"ios": "https://dc.lft.to/lastmile_qr_scan", "android": "https://dc.lft.to/lastmile_qr_scan"}, "is_reserved": 0, "fusion_lon": 0.0, "fusion_lat": 0.0, "lon": -76.99050916666667, "name": "565dc2de9b9a492ba0d3f46d3bfdf7ae"}, {"bike_id": "362ce1371fdbfb773b66f0269e66ac38", "type": "electric_scooter", "is_disabled": 0, "lat": 38.912701166666665, "rental_uris": {"ios": "https://dc.lft.to/lastmile_qr_scan", "android": "https://dc.lft.to/lastmile_qr_scan"}, "is_reserved": 0, "fusion_lon": 0.0, "fusion_lat": 0.0, "lon": -77.05158683333333, "name": "362ce1371fdbfb773b66f0269e66ac38"}, {"bike_id": "fdb33fe8f6761bca03f8edb1756efc37", "type": "electric_scooter", "is_disabled": 0, "lat": 38.920188833333334, "rental_uris": {"ios": "https://dc.lft.to/lastmile_qr_scan", "android": "https://dc.lft.to/lastmile_qr_scan"}, "is_reserved": 0, "fusion_lon": 0.0, "fusion_lat": 0.0, "lon": -77.020107, "name": "fdb33fe8f6761bca03f8edb1756efc37"}, {"bike_id": "005bdb14ae63b0a1f865c0d04fa2b1f0", "type": "electric_scooter", "is_disabled": 0, "lat": 38.88270266666667, "rental_uris": {"ios": "https://dc.lft.to/lastmile_qr_scan", "android": "https://dc.lft.to/lastmile_qr_scan"}, "is_reserved": 0, "fusion_lon": 0.0, "fusion_lat": 0.0, "lon": -76.9925505, "name": "005bdb14ae63b0a1f865c0d04fa2b1f0"}, {"bike_id": "d9cbed6e68f68cbf016c1a6f3494ba13", "type": "electric_scooter", "is_disabled": 0, "lat": 38.92147033333333, "rental_uris": {"ios": "https://dc.lft.to/lastmile_qr_scan", "android": "https://dc.lft.to/lastmile_qr_scan"}, "is_reserved": 0, "fusion_lon": 0.0, "fusion_lat": 0.0, "lon": -77.03317883333334, "name": "d9cbed6e68f68cbf016c1a6f3494ba13"}, {"bike_id": "81cd5355a6293758da93780dbb6de597", "type": "electric_scooter", "is_disabled": 0, "lat": 38.913315, "rental_uris": {"ios": "https://dc.lft.to/lastmile_qr_scan", "android": "https://dc.lft.to/lastmile_qr_scan"}, "is_reserved": 0, "fusion_lon": 0.0, "fusion_lat": 0.0, "lon": -77.03184083333333, "name": "81cd5355a6293758da93780dbb6de597"}, {"bike_id": "b39286a2cf443f7dc57451378cb064a0", "type": "electric_scooter", "is_disabled": 0, "lat": 38.93138366666667, "rental_uris": {"ios": "https://dc.lft.to/lastmile_qr_scan", "android": "https://dc.lft.to/lastmile_qr_scan"}, "is_reserved": 0, "fusion_lon": 0.0, "fusion_lat": 0.0, "lon": -77.0336215, "name": "b39286a2cf443f7dc57451378cb064a0"}, {"bike_id": "6e7f6ff0ac670d46099db2d0018eb0e9", "type": "electric_scooter", "is_disabled": 0, "lat": 38.89960083333333, "rental_uris": {"ios": "https://dc.lft.to/lastmile_qr_scan", "android": "https://dc.lft.to/lastmile_qr_scan"}, "is_reserved": 0, "fusion_lon": 0.0, "fusion_lat": 0.0, "lon": -77.00349, "name": "6e7f6ff0ac670d46099db2d0018eb0e9"}, {"bike_id": "63d9c8603e9c2193f1c2eeb6b29a3401", "type": "electric_scooter", "is_disabled": 0, "lat": 38.90840933333333, "rental_uris": {"ios": "https://dc.lft.to/lastmile_qr_scan", "android": "https://dc.lft.to/lastmile_qr_scan"}, "is_reserved": 0, "fusion_lon": 0.0, "fusion_lat": 0.0, "lon": -77.02328833333333, "name": "63d9c8603e9c2193f1c2eeb6b29a3401"}, {"bike_id": "47431549cd846e2532f02089d7ec3b81", "type": "electric_scooter", "is_disabled": 0, "lat": 38.947453, "rental_uris": {"ios": "https://dc.lft.to/lastmile_qr_scan", "android": "https://dc.lft.to/lastmile_qr_scan"}, "is_reserved": 0, "fusion_lon": 0.0, "fusion_lat": 0.0, "lon": -77.0759275, "name": "47431549cd846e2532f02089d7ec3b81"}, {"bike_id": "5838cfaa948c1e5ee747532990e8328f", "type": "electric_scooter", "is_disabled": 0, "lat": 38.9096825, "rental_uris": {"ios": "https://dc.lft.to/lastmile_qr_scan", "android": "https://dc.lft.to/lastmile_qr_scan"}, "is_reserved": 0, "fusion_lon": 0.0, "fusion_lat": 0.0, "lon": -77.04669883333334, "name": "5838cfaa948c1e5ee747532990e8328f"}, {"bike_id": "0e9cd4a917716c45ddf4db93bf9d1540", "type": "electric_scooter", "is_disabled": 0, "lat": 38.866926, "rental_uris": {"ios": "https://dc.lft.to/lastmile_qr_scan", "android": "https://dc.lft.to/lastmile_qr_scan"}, "is_reserved": 0, "fusion_lon": 0.0, "fusion_lat": 0.0, "lon": -76.98718566666666, "name": "0e9cd4a917716c45ddf4db93bf9d1540"}, {"bike_id": "67df9fb4a63635450b441215c310afcf", "type": "electric_scooter", "is_disabled": 0, "lat": 38.9181935, "rental_uris": {"ios": "https://dc.lft.to/lastmile_qr_scan", "android": "https://dc.lft.to/lastmile_qr_scan"}, "is_reserved": 0, "fusion_lon": 0.0, "fusion_lat": 0.0, "lon": -77.049462, "name": "67df9fb4a63635450b441215c310afcf"}, {"bike_id": "3072f11fae0aa0df3d473d3e2edf06c5", "type": "electric_scooter", "is_disabled": 0, "lat": 38.91696816666666, "rental_uris": {"ios": "https://dc.lft.to/lastmile_qr_scan", "android": "https://dc.lft.to/lastmile_qr_scan"}, "is_reserved": 0, "fusion_lon": 0.0, "fusion_lat": 0.0, "lon": -77.0065805, "name": "3072f11fae0aa0df3d473d3e2edf06c5"}, {"bike_id": "25856f4cfbdf33b10de78b452394aac1", "type": "electric_bike", "is_disabled": 0, "lat": 39.05279216666667, "rental_uris": {"ios": "https://dc.lft.to/lastmile_qr_scan", "android": "https://dc.lft.to/lastmile_qr_scan"}, "is_reserved": 0, "fusion_lon": 0.0, "fusion_lat": 0.0, "lon": -77.08070533333333, "name": "25856f4cfbdf33b10de78b452394aac1"}, {"bike_id": "85f28c28c207b2210a2876c192a45416", "type": "electric_scooter", "is_disabled": 0, "lat": 38.9313065, "rental_uris": {"ios": "https://dc.lft.to/lastmile_qr_scan", "android": "https://dc.lft.to/lastmile_qr_scan"}, "is_reserved": 0, "fusion_lon": 0.0, "fusion_lat": 0.0, "lon": -76.995758, "name": "85f28c28c207b2210a2876c192a45416"}, {"bike_id": "fa863c5d662807c8e929588b8d9298d5", "type": "electric_scooter", "is_disabled": 0, "lat": 38.93332383333333, "rental_uris": {"ios": "https://dc.lft.to/lastmile_qr_scan", "android": "https://dc.lft.to/lastmile_qr_scan"}, "is_reserved": 0, "fusion_lon": 0.0, "fusion_lat": 0.0, "lon": -77.02071633333334, "name": "fa863c5d662807c8e929588b8d9298d5"}, {"bike_id": "1000424b718b3cfa888f6d04fc02e3aa", "type": "electric_scooter", "is_disabled": 0, "lat": 38.916839, "rental_uris": {"ios": "https://dc.lft.to/lastmile_qr_scan", "android": "https://dc.lft.to/lastmile_qr_scan"}, "is_reserved": 0, "fusion_lon": 0.0, "fusion_lat": 0.0, "lon": -77.0295225, "name": "1000424b718b3cfa888f6d04fc02e3aa"}, {"bike_id": "ab8246a98ef8a6da56d207215631d5d5", "type": "electric_scooter", "is_disabled": 0, "lat": 38.907090833333335, "rental_uris": {"ios": "https://dc.lft.to/lastmile_qr_scan", "android": "https://dc.lft.to/lastmile_qr_scan"}, "is_reserved": 0, "fusion_lon": 0.0, "fusion_lat": 0.0, "lon": -77.02399216666667, "name": "ab8246a98ef8a6da56d207215631d5d5"}, {"bike_id": "285d88725d6c7d32ee15389b8972f297", "type": "electric_scooter", "is_disabled": 0, "lat": 38.9196925, "rental_uris": {"ios": "https://dc.lft.to/lastmile_qr_scan", "android": "https://dc.lft.to/lastmile_qr_scan"}, "is_reserved": 0, "fusion_lon": 0.0, "fusion_lat": 0.0, "lon": -77.024603, "name": "285d88725d6c7d32ee15389b8972f297"}, {"bike_id": "4bc57df240fdf2d3c08d71405c67e61a", "type": "electric_scooter", "is_disabled": 0, "lat": 38.920158, "rental_uris": {"ios": "https://dc.lft.to/lastmile_qr_scan", "android": "https://dc.lft.to/lastmile_qr_scan"}, "is_reserved": 0, "fusion_lon": 0.0, "fusion_lat": 0.0, "lon": -77.013216, "name": "4bc57df240fdf2d3c08d71405c67e61a"}, {"bike_id": "e4383eb086345e504ea7fc77c57c4d13", "type": "electric_scooter", "is_disabled": 0, "lat": 38.913304, "rental_uris": {"ios": "https://dc.lft.to/lastmile_qr_scan", "android": "https://dc.lft.to/lastmile_qr_scan"}, "is_reserved": 0, "fusion_lon": 0.0, "fusion_lat": 0.0, "lon": -77.026898, "name": "e4383eb086345e504ea7fc77c57c4d13"}, {"bike_id": "3e2053af6e43e1fe724456e68a0cb53d", "type": "electric_scooter", "is_disabled": 0, "lat": 38.932509333333336, "rental_uris": {"ios": "https://dc.lft.to/lastmile_qr_scan", "android": "https://dc.lft.to/lastmile_qr_scan"}, "is_reserved": 0, "fusion_lon": 0.0, "fusion_lat": 0.0, "lon": -77.027174, "name": "3e2053af6e43e1fe724456e68a0cb53d"}, {"bike_id": "1d4f6f77db38f62560fe2a166559bd65", "type": "electric_scooter", "is_disabled": 0, "lat": 38.901733, "rental_uris": {"ios": "https://dc.lft.to/lastmile_qr_scan", "android": "https://dc.lft.to/lastmile_qr_scan"}, "is_reserved": 0, "fusion_lon": 0.0, "fusion_lat": 0.0, "lon": -77.03170566666667, "name": "1d4f6f77db38f62560fe2a166559bd65"}, {"bike_id": "fd42cdcb6c410f51268bcc3924525d71", "type": "electric_scooter", "is_disabled": 0, "lat": 38.916292, "rental_uris": {"ios": "https://dc.lft.to/lastmile_qr_scan", "android": "https://dc.lft.to/lastmile_qr_scan"}, "is_reserved": 0, "fusion_lon": 0.0, "fusion_lat": 0.0, "lon": -77.03044166666666, "name": "fd42cdcb6c410f51268bcc3924525d71"}, {"bike_id": "a430b7897c79bcd66cecbff0ce65d8d8", "type": "electric_scooter", "is_disabled": 0, "lat": 38.909683666666666, "rental_uris": {"ios": "https://dc.lft.to/lastmile_qr_scan", "android": "https://dc.lft.to/lastmile_qr_scan"}, "is_reserved": 0, "fusion_lon": 0.0, "fusion_lat": 0.0, "lon": -77.03226916666667, "name": "a430b7897c79bcd66cecbff0ce65d8d8"}, {"bike_id": "a3a8118bb41c29fe6db0351028658a24", "type": "electric_scooter", "is_disabled": 0, "lat": 38.94217366666667, "rental_uris": {"ios": "https://dc.lft.to/lastmile_qr_scan", "android": "https://dc.lft.to/lastmile_qr_scan"}, "is_reserved": 0, "fusion_lon": 0.0, "fusion_lat": 0.0, "lon": -77.02591483333333, "name": "a3a8118bb41c29fe6db0351028658a24"}, {"bike_id": "66e7042666936a3474379a2f83409fbd", "type": "electric_scooter", "is_disabled": 0, "lat": 38.897288833333334, "rental_uris": {"ios": "https://dc.lft.to/lastmile_qr_scan", "android": "https://dc.lft.to/lastmile_qr_scan"}, "is_reserved": 0, "fusion_lon": 0.0, "fusion_lat": 0.0, "lon": -77.04583933333333, "name": "66e7042666936a3474379a2f83409fbd"}, {"bike_id": "2ae29d42c0073c90e0ff559b6bf5ead5", "type": "electric_scooter", "is_disabled": 0, "lat": 38.89981516666667, "rental_uris": {"ios": "https://dc.lft.to/lastmile_qr_scan", "android": "https://dc.lft.to/lastmile_qr_scan"}, "is_reserved": 0, "fusion_lon": 0.0, "fusion_lat": 0.0, "lon": -77.02385666666666, "name": "2ae29d42c0073c90e0ff559b6bf5ead5"}, {"bike_id": "b150d19413aabc4801fc2e75375c5f83", "type": "electric_scooter", "is_disabled": 0, "lat": 38.92747416666667, "rental_uris": {"ios": "https://dc.lft.to/lastmile_qr_scan", "android": "https://dc.lft.to/lastmile_qr_scan"}, "is_reserved": 0, "fusion_lon": 0.0, "fusion_lat": 0.0, "lon": -77.025364, "name": "b150d19413aabc4801fc2e75375c5f83"}, {"bike_id": "39a59fafcfa0ea0a35ad20e0912bcdbc", "type": "electric_bike", "is_disabled": 0, "lat": 38.93141466666667, "rental_uris": {"ios": "https://dc.lft.to/lastmile_qr_scan", "android": "https://dc.lft.to/lastmile_qr_scan"}, "is_reserved": 0, "fusion_lon": 0.0, "fusion_lat": 0.0, "lon": -77.03603366666667, "name": "39a59fafcfa0ea0a35ad20e0912bcdbc"}, {"bike_id": "2e2a1c598bfc76f63f1b18ede10d2102", "type": "electric_scooter", "is_disabled": 0, "lat": 38.9111105, "rental_uris": {"ios": "https://dc.lft.to/lastmile_qr_scan", "android": "https://dc.lft.to/lastmile_qr_scan"}, "is_reserved": 0, "fusion_lon": 0.0, "fusion_lat": 0.0, "lon": -77.04719683333333, "name": "2e2a1c598bfc76f63f1b18ede10d2102"}, {"bike_id": "243d7633ed41d0ea26d2d6b664d9b86c", "type": "electric_scooter", "is_disabled": 0, "lat": 38.91686766666667, "rental_uris": {"ios": "https://dc.lft.to/lastmile_qr_scan", "android": "https://dc.lft.to/lastmile_qr_scan"}, "is_reserved": 0, "fusion_lon": 0.0, "fusion_lat": 0.0, "lon": -77.03772616666667, "name": "243d7633ed41d0ea26d2d6b664d9b86c"}, {"bike_id": "4a31a08fe7aa949bc11de4015c9517ce", "type": "electric_scooter", "is_disabled": 0, "lat": 38.90734716666667, "rental_uris": {"ios": "https://dc.lft.to/lastmile_qr_scan", "android": "https://dc.lft.to/lastmile_qr_scan"}, "is_reserved": 0, "fusion_lon": 0.0, "fusion_lat": 0.0, "lon": -77.02180733333333, "name": "4a31a08fe7aa949bc11de4015c9517ce"}, {"bike_id": "3036ca04237eea50c346fc869c8c2696", "type": "electric_bike", "is_disabled": 0, "lat": 38.85358216666667, "rental_uris": {"ios": "https://dc.lft.to/lastmile_qr_scan", "android": "https://dc.lft.to/lastmile_qr_scan"}, "is_reserved": 0, "fusion_lon": 0.0, "fusion_lat": 0.0, "lon": -77.13475166666667, "name": "3036ca04237eea50c346fc869c8c2696"}, {"bike_id": "18443c95899aa787a97d63bc03f48c93", "type": "electric_scooter", "is_disabled": 0, "lat": 38.8974295, "rental_uris": {"ios": "https://dc.lft.to/lastmile_qr_scan", "android": "https://dc.lft.to/lastmile_qr_scan"}, "is_reserved": 0, "fusion_lon": 0.0, "fusion_lat": 0.0, "lon": -77.00368483333334, "name": "18443c95899aa787a97d63bc03f48c93"}, {"bike_id": "bd17c6edb671ed08e4a0ca0cdb25c36f", "type": "electric_scooter", "is_disabled": 0, "lat": 38.94294433333334, "rental_uris": {"ios": "https://dc.lft.to/lastmile_qr_scan", "android": "https://dc.lft.to/lastmile_qr_scan"}, "is_reserved": 0, "fusion_lon": 0.0, "fusion_lat": 0.0, "lon": -77.02171766666666, "name": "bd17c6edb671ed08e4a0ca0cdb25c36f"}, {"bike_id": "4725266fcb2b3c614ebe42ffad33ab82", "type": "electric_scooter", "is_disabled": 0, "lat": 38.917429166666665, "rental_uris": {"ios": "https://dc.lft.to/lastmile_qr_scan", "android": "https://dc.lft.to/lastmile_qr_scan"}, "is_reserved": 0, "fusion_lon": 0.0, "fusion_lat": 0.0, "lon": -77.040697, "name": "4725266fcb2b3c614ebe42ffad33ab82"}, {"bike_id": "aa05a6a14826eac31caf622875d4cbc8", "type": "electric_scooter", "is_disabled": 0, "lat": 38.907239, "rental_uris": {"ios": "https://dc.lft.to/lastmile_qr_scan", "android": "https://dc.lft.to/lastmile_qr_scan"}, "is_reserved": 0, "fusion_lon": 0.0, "fusion_lat": 0.0, "lon": -77.04033316666667, "name": "aa05a6a14826eac31caf622875d4cbc8"}, {"bike_id": "c502ebda251890f4c4451d4f78da7f36", "type": "electric_scooter", "is_disabled": 0, "lat": 38.895933166666666, "rental_uris": {"ios": "https://dc.lft.to/lastmile_qr_scan", "android": "https://dc.lft.to/lastmile_qr_scan"}, "is_reserved": 0, "fusion_lon": 0.0, "fusion_lat": 0.0, "lon": -77.00505416666667, "name": "c502ebda251890f4c4451d4f78da7f36"}, {"bike_id": "9d78b82ba9e52cd70f82ba225cdecf3e", "type": "electric_scooter", "is_disabled": 0, "lat": 38.901981666666664, "rental_uris": {"ios": "https://dc.lft.to/lastmile_qr_scan", "android": "https://dc.lft.to/lastmile_qr_scan"}, "is_reserved": 0, "fusion_lon": 0.0, "fusion_lat": 0.0, "lon": -77.02171916666667, "name": "9d78b82ba9e52cd70f82ba225cdecf3e"}, {"bike_id": "f73a2ba51fb7690a5a5d502dc483792f", "type": "electric_scooter", "is_disabled": 0, "lat": 38.925149166666664, "rental_uris": {"ios": "https://dc.lft.to/lastmile_qr_scan", "android": "https://dc.lft.to/lastmile_qr_scan"}, "is_reserved": 0, "fusion_lon": 0.0, "fusion_lat": 0.0, "lon": -77.05130766666667, "name": "f73a2ba51fb7690a5a5d502dc483792f"}, {"bike_id": "2652d8e3794cbbc49ac17c9a15951956", "type": "electric_scooter", "is_disabled": 0, "lat": 38.8974015, "rental_uris": {"ios": "https://dc.lft.to/lastmile_qr_scan", "android": "https://dc.lft.to/lastmile_qr_scan"}, "is_reserved": 0, "fusion_lon": 0.0, "fusion_lat": 0.0, "lon": -76.979747, "name": "2652d8e3794cbbc49ac17c9a15951956"}, {"bike_id": "39eb8a2b9e3726fa3d456719b7c2c5df", "type": "electric_scooter", "is_disabled": 0, "lat": 38.91761833333333, "rental_uris": {"ios": "https://dc.lft.to/lastmile_qr_scan", "android": "https://dc.lft.to/lastmile_qr_scan"}, "is_reserved": 0, "fusion_lon": 0.0, "fusion_lat": 0.0, "lon": -77.0226465, "name": "39eb8a2b9e3726fa3d456719b7c2c5df"}, {"bike_id": "dfe66140be924b49b279b178faf891cd", "type": "electric_scooter", "is_disabled": 0, "lat": 38.91176866666667, "rental_uris": {"ios": "https://dc.lft.to/lastmile_qr_scan", "android": "https://dc.lft.to/lastmile_qr_scan"}, "is_reserved": 0, "fusion_lon": 0.0, "fusion_lat": 0.0, "lon": -77.01120933333333, "name": "dfe66140be924b49b279b178faf891cd"}, {"bike_id": "beea99f97ac0ed8fa9a08140b375e5a1", "type": "electric_scooter", "is_disabled": 0, "lat": 38.900319833333334, "rental_uris": {"ios": "https://dc.lft.to/lastmile_qr_scan", "android": "https://dc.lft.to/lastmile_qr_scan"}, "is_reserved": 0, "fusion_lon": 0.0, "fusion_lat": 0.0, "lon": -77.0172565, "name": "beea99f97ac0ed8fa9a08140b375e5a1"}, {"bike_id": "5697176d4aca19bb75153a41f14dbe2c", "type": "electric_scooter", "is_disabled": 0, "lat": 38.9270735, "rental_uris": {"ios": "https://dc.lft.to/lastmile_qr_scan", "android": "https://dc.lft.to/lastmile_qr_scan"}, "is_reserved": 0, "fusion_lon": 0.0, "fusion_lat": 0.0, "lon": -77.023993, "name": "5697176d4aca19bb75153a41f14dbe2c"}, {"bike_id": "d1782ffae81178264e45b3393f505730", "type": "electric_scooter", "is_disabled": 0, "lat": 38.920456, "rental_uris": {"ios": "https://dc.lft.to/lastmile_qr_scan", "android": "https://dc.lft.to/lastmile_qr_scan"}, "is_reserved": 0, "fusion_lon": 0.0, "fusion_lat": 0.0, "lon": -77.04262216666666, "name": "d1782ffae81178264e45b3393f505730"}, {"bike_id": "2e27bc3d38428c4faed7df4d0f011472", "type": "electric_scooter", "is_disabled": 0, "lat": 38.92314366666667, "rental_uris": {"ios": "https://dc.lft.to/lastmile_qr_scan", "android": "https://dc.lft.to/lastmile_qr_scan"}, "is_reserved": 0, "fusion_lon": 0.0, "fusion_lat": 0.0, "lon": -77.046434, "name": "2e27bc3d38428c4faed7df4d0f011472"}, {"bike_id": "68ba72e64346e9dc96e93497a93860f9", "type": "electric_bike", "is_disabled": 0, "lat": 38.94798483333334, "rental_uris": {"ios": "https://dc.lft.to/lastmile_qr_scan", "android": "https://dc.lft.to/lastmile_qr_scan"}, "is_reserved": 0, "fusion_lon": 0.0, "fusion_lat": 0.0, "lon": -76.95545133333333, "name": "68ba72e64346e9dc96e93497a93860f9"}, {"bike_id": "3cec8f0ebfa8b6b5d40833a6fcb72b76", "type": "electric_scooter", "is_disabled": 0, "lat": 38.90717866666667, "rental_uris": {"ios": "https://dc.lft.to/lastmile_qr_scan", "android": "https://dc.lft.to/lastmile_qr_scan"}, "is_reserved": 0, "fusion_lon": 0.0, "fusion_lat": 0.0, "lon": -77.02249866666666, "name": "3cec8f0ebfa8b6b5d40833a6fcb72b76"}, {"bike_id": "b5e2ea537d06e1d3e0d97bc4587851fc", "type": "electric_scooter", "is_disabled": 0, "lat": 38.915479166666664, "rental_uris": {"ios": "https://dc.lft.to/lastmile_qr_scan", "android": "https://dc.lft.to/lastmile_qr_scan"}, "is_reserved": 0, "fusion_lon": 0.0, "fusion_lat": 0.0, "lon": -77.031763, "name": "b5e2ea537d06e1d3e0d97bc4587851fc"}, {"bike_id": "b86e6ad087ae3923f3b02a0653b6f7b3", "type": "electric_scooter", "is_disabled": 0, "lat": 38.90708566666667, "rental_uris": {"ios": "https://dc.lft.to/lastmile_qr_scan", "android": "https://dc.lft.to/lastmile_qr_scan"}, "is_reserved": 0, "fusion_lon": 0.0, "fusion_lat": 0.0, "lon": -77.02415733333333, "name": "b86e6ad087ae3923f3b02a0653b6f7b3"}, {"bike_id": "0d60acd73ad24fe91f73659a2777d33f", "type": "electric_scooter", "is_disabled": 0, "lat": 38.905192666666665, "rental_uris": {"ios": "https://dc.lft.to/lastmile_qr_scan", "android": "https://dc.lft.to/lastmile_qr_scan"}, "is_reserved": 0, "fusion_lon": 0.0, "fusion_lat": 0.0, "lon": -77.0677335, "name": "0d60acd73ad24fe91f73659a2777d33f"}, {"bike_id": "6cd8042be3d2df5279ee650f89fec1d3", "type": "electric_scooter", "is_disabled": 0, "lat": 38.9085915, "rental_uris": {"ios": "https://dc.lft.to/lastmile_qr_scan", "android": "https://dc.lft.to/lastmile_qr_scan"}, "is_reserved": 0, "fusion_lon": 0.0, "fusion_lat": 0.0, "lon": -77.02391783333333, "name": "6cd8042be3d2df5279ee650f89fec1d3"}, {"bike_id": "d367838a1c9ebe64f4c46119ae1bd45e", "type": "electric_scooter", "is_disabled": 0, "lat": 38.84317133333333, "rental_uris": {"ios": "https://dc.lft.to/lastmile_qr_scan", "android": "https://dc.lft.to/lastmile_qr_scan"}, "is_reserved": 0, "fusion_lon": 0.0, "fusion_lat": 0.0, "lon": -76.9992285, "name": "d367838a1c9ebe64f4c46119ae1bd45e"}, {"bike_id": "f0893d367a2d9341b5cfbfb1ac7ef4ca", "type": "electric_scooter", "is_disabled": 0, "lat": 38.90833133333334, "rental_uris": {"ios": "https://dc.lft.to/lastmile_qr_scan", "android": "https://dc.lft.to/lastmile_qr_scan"}, "is_reserved": 0, "fusion_lon": 0.0, "fusion_lat": 0.0, "lon": -77.031877, "name": "f0893d367a2d9341b5cfbfb1ac7ef4ca"}, {"bike_id": "cc67b1d739c7b6125fface4322de5566", "type": "electric_bike", "is_disabled": 0, "lat": 38.865202833333335, "rental_uris": {"ios": "https://dc.lft.to/lastmile_qr_scan", "android": "https://dc.lft.to/lastmile_qr_scan"}, "is_reserved": 0, "fusion_lon": 0.0, "fusion_lat": 0.0, "lon": -76.973358, "name": "cc67b1d739c7b6125fface4322de5566"}, {"bike_id": "c6448fbe576d9babfd3d7a0d8a335506", "type": "electric_scooter", "is_disabled": 0, "lat": 38.895371833333336, "rental_uris": {"ios": "https://dc.lft.to/lastmile_qr_scan", "android": "https://dc.lft.to/lastmile_qr_scan"}, "is_reserved": 0, "fusion_lon": 0.0, "fusion_lat": 0.0, "lon": -76.98860816666667, "name": "c6448fbe576d9babfd3d7a0d8a335506"}, {"bike_id": "1c3429fd0be69d1ef842d3f7394b7113", "type": "electric_scooter", "is_disabled": 0, "lat": 38.8453505, "rental_uris": {"ios": "https://dc.lft.to/lastmile_qr_scan", "android": "https://dc.lft.to/lastmile_qr_scan"}, "is_reserved": 0, "fusion_lon": 0.0, "fusion_lat": 0.0, "lon": -76.9854535, "name": "1c3429fd0be69d1ef842d3f7394b7113"}, {"bike_id": "0e42f3d8f35a55b1a06608edf96db13e", "type": "electric_scooter", "is_disabled": 0, "lat": 38.91866816666667, "rental_uris": {"ios": "https://dc.lft.to/lastmile_qr_scan", "android": "https://dc.lft.to/lastmile_qr_scan"}, "is_reserved": 0, "fusion_lon": 0.0, "fusion_lat": 0.0, "lon": -77.04167966666667, "name": "0e42f3d8f35a55b1a06608edf96db13e"}, {"bike_id": "1103322c1777400d4a983a5a5c27a25b", "type": "electric_scooter", "is_disabled": 0, "lat": 38.92265916666667, "rental_uris": {"ios": "https://dc.lft.to/lastmile_qr_scan", "android": "https://dc.lft.to/lastmile_qr_scan"}, "is_reserved": 0, "fusion_lon": 0.0, "fusion_lat": 0.0, "lon": -77.042415, "name": "1103322c1777400d4a983a5a5c27a25b"}, {"bike_id": "3c557fe0121975124f3e2ff322c683ae", "type": "electric_scooter", "is_disabled": 0, "lat": 38.9182215, "rental_uris": {"ios": "https://dc.lft.to/lastmile_qr_scan", "android": "https://dc.lft.to/lastmile_qr_scan"}, "is_reserved": 0, "fusion_lon": 0.0, "fusion_lat": 0.0, "lon": -77.03187783333334, "name": "3c557fe0121975124f3e2ff322c683ae"}, {"bike_id": "ba0ccf307ef2e7b67cc56653af751c31", "type": "electric_scooter", "is_disabled": 0, "lat": 38.9183645, "rental_uris": {"ios": "https://dc.lft.to/lastmile_qr_scan", "android": "https://dc.lft.to/lastmile_qr_scan"}, "is_reserved": 0, "fusion_lon": 0.0, "fusion_lat": 0.0, "lon": -76.965552, "name": "ba0ccf307ef2e7b67cc56653af751c31"}, {"bike_id": "91a48ed8b341bdb833903ea1bd8dfd5c", "type": "electric_scooter", "is_disabled": 0, "lat": 38.92210033333333, "rental_uris": {"ios": "https://dc.lft.to/lastmile_qr_scan", "android": "https://dc.lft.to/lastmile_qr_scan"}, "is_reserved": 0, "fusion_lon": 0.0, "fusion_lat": 0.0, "lon": -77.03296083333333, "name": "91a48ed8b341bdb833903ea1bd8dfd5c"}, {"bike_id": "2a881f75b293b7e9c405667b05254910", "type": "electric_scooter", "is_disabled": 0, "lat": 38.928285833333334, "rental_uris": {"ios": "https://dc.lft.to/lastmile_qr_scan", "android": "https://dc.lft.to/lastmile_qr_scan"}, "is_reserved": 0, "fusion_lon": 0.0, "fusion_lat": 0.0, "lon": -77.055104, "name": "2a881f75b293b7e9c405667b05254910"}, {"bike_id": "eb6a6ae337ad4322bc3fe0f60ddd95c1", "type": "electric_scooter", "is_disabled": 0, "lat": 38.897186, "rental_uris": {"ios": "https://dc.lft.to/lastmile_qr_scan", "android": "https://dc.lft.to/lastmile_qr_scan"}, "is_reserved": 0, "fusion_lon": 0.0, "fusion_lat": 0.0, "lon": -77.024473, "name": "eb6a6ae337ad4322bc3fe0f60ddd95c1"}, {"bike_id": "8b9f1e30d97c267de6978b8933bf2b19", "type": "electric_scooter", "is_disabled": 0, "lat": 38.902886, "rental_uris": {"ios": "https://dc.lft.to/lastmile_qr_scan", "android": "https://dc.lft.to/lastmile_qr_scan"}, "is_reserved": 0, "fusion_lon": 0.0, "fusion_lat": 0.0, "lon": -77.05197083333333, "name": "8b9f1e30d97c267de6978b8933bf2b19"}, {"bike_id": "4c38bec4a63fd364cd138be83b1920df", "type": "electric_scooter", "is_disabled": 0, "lat": 38.911023166666666, "rental_uris": {"ios": "https://dc.lft.to/lastmile_qr_scan", "android": "https://dc.lft.to/lastmile_qr_scan"}, "is_reserved": 0, "fusion_lon": 0.0, "fusion_lat": 0.0, "lon": -77.03790166666667, "name": "4c38bec4a63fd364cd138be83b1920df"}, {"bike_id": "fc89ac266e0565bb25c8d84f1dde18cf", "type": "electric_scooter", "is_disabled": 0, "lat": 38.917437166666666, "rental_uris": {"ios": "https://dc.lft.to/lastmile_qr_scan", "android": "https://dc.lft.to/lastmile_qr_scan"}, "is_reserved": 0, "fusion_lon": 0.0, "fusion_lat": 0.0, "lon": -77.038644, "name": "fc89ac266e0565bb25c8d84f1dde18cf"}, {"bike_id": "998d4d29d9623efdd26ebcdb976c33e4", "type": "electric_bike", "is_disabled": 0, "lat": 38.89743683333333, "rental_uris": {"ios": "https://dc.lft.to/lastmile_qr_scan", "android": "https://dc.lft.to/lastmile_qr_scan"}, "is_reserved": 0, "fusion_lon": 0.0, "fusion_lat": 0.0, "lon": -76.9204975, "name": "998d4d29d9623efdd26ebcdb976c33e4"}, {"bike_id": "5a0682fc341c1767277419268a3c1ce9", "type": "electric_scooter", "is_disabled": 0, "lat": 38.927878166666666, "rental_uris": {"ios": "https://dc.lft.to/lastmile_qr_scan", "android": "https://dc.lft.to/lastmile_qr_scan"}, "is_reserved": 0, "fusion_lon": 0.0, "fusion_lat": 0.0, "lon": -77.043302, "name": "5a0682fc341c1767277419268a3c1ce9"}, {"bike_id": "fc38d94edf55ea7e7faacbe294186d36", "type": "electric_scooter", "is_disabled": 0, "lat": 38.918133166666664, "rental_uris": {"ios": "https://dc.lft.to/lastmile_qr_scan", "android": "https://dc.lft.to/lastmile_qr_scan"}, "is_reserved": 0, "fusion_lon": 0.0, "fusion_lat": 0.0, "lon": -77.04953266666666, "name": "fc38d94edf55ea7e7faacbe294186d36"}, {"bike_id": "87771a0e417c275507927a8f5b711951", "type": "electric_scooter", "is_disabled": 0, "lat": 38.908707, "rental_uris": {"ios": "https://dc.lft.to/lastmile_qr_scan", "android": "https://dc.lft.to/lastmile_qr_scan"}, "is_reserved": 0, "fusion_lon": 0.0, "fusion_lat": 0.0, "lon": -76.998176, "name": "87771a0e417c275507927a8f5b711951"}, {"bike_id": "a7b5de3a34eb61ca315b6f58f188f92a", "type": "electric_scooter", "is_disabled": 0, "lat": 38.90959216666667, "rental_uris": {"ios": "https://dc.lft.to/lastmile_qr_scan", "android": "https://dc.lft.to/lastmile_qr_scan"}, "is_reserved": 0, "fusion_lon": 0.0, "fusion_lat": 0.0, "lon": -77.03472816666667, "name": "a7b5de3a34eb61ca315b6f58f188f92a"}, {"bike_id": "155f719332c482319c3037ba6a1ce635", "type": "electric_scooter", "is_disabled": 0, "lat": 38.943015833333334, "rental_uris": {"ios": "https://dc.lft.to/lastmile_qr_scan", "android": "https://dc.lft.to/lastmile_qr_scan"}, "is_reserved": 0, "fusion_lon": 0.0, "fusion_lat": 0.0, "lon": -77.06201416666667, "name": "155f719332c482319c3037ba6a1ce635"}, {"bike_id": "96e0ff7c6c52ed0a0bed4d0091818f76", "type": "electric_scooter", "is_disabled": 0, "lat": 38.921922333333335, "rental_uris": {"ios": "https://dc.lft.to/lastmile_qr_scan", "android": "https://dc.lft.to/lastmile_qr_scan"}, "is_reserved": 0, "fusion_lon": 0.0, "fusion_lat": 0.0, "lon": -77.01975066666667, "name": "96e0ff7c6c52ed0a0bed4d0091818f76"}, {"bike_id": "bd3fe987da06e2bd4ce34aa0b4ac51da", "type": "electric_scooter", "is_disabled": 0, "lat": 38.952381, "rental_uris": {"ios": "https://dc.lft.to/lastmile_qr_scan", "android": "https://dc.lft.to/lastmile_qr_scan"}, "is_reserved": 0, "fusion_lon": 0.0, "fusion_lat": 0.0, "lon": -77.01966783333333, "name": "bd3fe987da06e2bd4ce34aa0b4ac51da"}, {"bike_id": "9d955e87674f0b40082101cae72c2413", "type": "electric_bike", "is_disabled": 0, "lat": 38.983540833333336, "rental_uris": {"ios": "https://dc.lft.to/lastmile_qr_scan", "android": "https://dc.lft.to/lastmile_qr_scan"}, "is_reserved": 0, "fusion_lon": 0.0, "fusion_lat": 0.0, "lon": -76.97212866666666, "name": "9d955e87674f0b40082101cae72c2413"}, {"bike_id": "ce511744515966daad51b7ae1b13e0db", "type": "electric_scooter", "is_disabled": 0, "lat": 38.897449, "rental_uris": {"ios": "https://dc.lft.to/lastmile_qr_scan", "android": "https://dc.lft.to/lastmile_qr_scan"}, "is_reserved": 0, "fusion_lon": 0.0, "fusion_lat": 0.0, "lon": -77.04607833333333, "name": "ce511744515966daad51b7ae1b13e0db"}, {"bike_id": "935741bb73c879d824e97f6d0cf8385e", "type": "electric_scooter", "is_disabled": 0, "lat": 38.8667835, "rental_uris": {"ios": "https://dc.lft.to/lastmile_qr_scan", "android": "https://dc.lft.to/lastmile_qr_scan"}, "is_reserved": 0, "fusion_lon": 0.0, "fusion_lat": 0.0, "lon": -76.985792, "name": "935741bb73c879d824e97f6d0cf8385e"}, {"bike_id": "d221337ef21f70644fd56bf07d401287", "type": "electric_scooter", "is_disabled": 0, "lat": 38.86644316666667, "rental_uris": {"ios": "https://dc.lft.to/lastmile_qr_scan", "android": "https://dc.lft.to/lastmile_qr_scan"}, "is_reserved": 0, "fusion_lon": 0.0, "fusion_lat": 0.0, "lon": -76.98822983333334, "name": "d221337ef21f70644fd56bf07d401287"}, {"bike_id": "4d2f13b817d50c5bf9a00f6c43694baf", "type": "electric_scooter", "is_disabled": 0, "lat": 38.907674666666665, "rental_uris": {"ios": "https://dc.lft.to/lastmile_qr_scan", "android": "https://dc.lft.to/lastmile_qr_scan"}, "is_reserved": 0, "fusion_lon": 0.0, "fusion_lat": 0.0, "lon": -77.03227783333334, "name": "4d2f13b817d50c5bf9a00f6c43694baf"}, {"bike_id": "771c9119ec5be3cc8e6486740468e617", "type": "electric_bike", "is_disabled": 0, "lat": 38.93718833333333, "rental_uris": {"ios": "https://dc.lft.to/lastmile_qr_scan", "android": "https://dc.lft.to/lastmile_qr_scan"}, "is_reserved": 0, "fusion_lon": 0.0, "fusion_lat": 0.0, "lon": -76.99149066666666, "name": "771c9119ec5be3cc8e6486740468e617"}, {"bike_id": "bc7d4ca93201b6fbb9459d78b078c547", "type": "electric_scooter", "is_disabled": 0, "lat": 38.92749516666667, "rental_uris": {"ios": "https://dc.lft.to/lastmile_qr_scan", "android": "https://dc.lft.to/lastmile_qr_scan"}, "is_reserved": 0, "fusion_lon": 0.0, "fusion_lat": 0.0, "lon": -77.02536166666667, "name": "bc7d4ca93201b6fbb9459d78b078c547"}, {"bike_id": "5f9ab595592e73fe7178658a02b20ffb", "type": "electric_scooter", "is_disabled": 0, "lat": 38.907068833333334, "rental_uris": {"ios": "https://dc.lft.to/lastmile_qr_scan", "android": "https://dc.lft.to/lastmile_qr_scan"}, "is_reserved": 0, "fusion_lon": 0.0, "fusion_lat": 0.0, "lon": -77.02402533333333, "name": "5f9ab595592e73fe7178658a02b20ffb"}, {"bike_id": "19d7edefe9ca915fa202cb38d7fe5bbc", "type": "electric_scooter", "is_disabled": 0, "lat": 38.934632, "rental_uris": {"ios": "https://dc.lft.to/lastmile_qr_scan", "android": "https://dc.lft.to/lastmile_qr_scan"}, "is_reserved": 0, "fusion_lon": 0.0, "fusion_lat": 0.0, "lon": -77.02768466666667, "name": "19d7edefe9ca915fa202cb38d7fe5bbc"}, {"bike_id": "ab2d1d92870db58b7f92aea1d882c9f7", "type": "electric_scooter", "is_disabled": 0, "lat": 38.93945766666667, "rental_uris": {"ios": "https://dc.lft.to/lastmile_qr_scan", "android": "https://dc.lft.to/lastmile_qr_scan"}, "is_reserved": 0, "fusion_lon": 0.0, "fusion_lat": 0.0, "lon": -77.072538, "name": "ab2d1d92870db58b7f92aea1d882c9f7"}, {"bike_id": "1b9fbef4401879b7e3c2734d332b32c1", "type": "electric_bike", "is_disabled": 0, "lat": 38.88664766666667, "rental_uris": {"ios": "https://dc.lft.to/lastmile_qr_scan", "android": "https://dc.lft.to/lastmile_qr_scan"}, "is_reserved": 0, "fusion_lon": 0.0, "fusion_lat": 0.0, "lon": -77.16266316666666, "name": "1b9fbef4401879b7e3c2734d332b32c1"}, {"bike_id": "8ba6c1afd5d39c362a741c8d33da7a5b", "type": "electric_scooter", "is_disabled": 0, "lat": 38.9233295, "rental_uris": {"ios": "https://dc.lft.to/lastmile_qr_scan", "android": "https://dc.lft.to/lastmile_qr_scan"}, "is_reserved": 0, "fusion_lon": 0.0, "fusion_lat": 0.0, "lon": -77.02699033333333, "name": "8ba6c1afd5d39c362a741c8d33da7a5b"}, {"bike_id": "46df86e6131936300c015d15278f959a", "type": "electric_scooter", "is_disabled": 0, "lat": 38.916953166666666, "rental_uris": {"ios": "https://dc.lft.to/lastmile_qr_scan", "android": "https://dc.lft.to/lastmile_qr_scan"}, "is_reserved": 0, "fusion_lon": 0.0, "fusion_lat": 0.0, "lon": -77.04106666666667, "name": "46df86e6131936300c015d15278f959a"}, {"bike_id": "0deec3010f98dbbbb1d2623ae109f620", "type": "electric_scooter", "is_disabled": 0, "lat": 38.8983925, "rental_uris": {"ios": "https://dc.lft.to/lastmile_qr_scan", "android": "https://dc.lft.to/lastmile_qr_scan"}, "is_reserved": 0, "fusion_lon": 0.0, "fusion_lat": 0.0, "lon": -77.0225615, "name": "0deec3010f98dbbbb1d2623ae109f620"}, {"bike_id": "3dfec21780ed5bb47b251169ec5428a5", "type": "electric_scooter", "is_disabled": 0, "lat": 38.86468333333333, "rental_uris": {"ios": "https://dc.lft.to/lastmile_qr_scan", "android": "https://dc.lft.to/lastmile_qr_scan"}, "is_reserved": 0, "fusion_lon": 0.0, "fusion_lat": 0.0, "lon": -77.00008483333333, "name": "3dfec21780ed5bb47b251169ec5428a5"}, {"bike_id": "a4e35e25fcbdf601f607430b67a4ac3b", "type": "electric_scooter", "is_disabled": 0, "lat": 38.90105483333333, "rental_uris": {"ios": "https://dc.lft.to/lastmile_qr_scan", "android": "https://dc.lft.to/lastmile_qr_scan"}, "is_reserved": 0, "fusion_lon": 0.0, "fusion_lat": 0.0, "lon": -77.03859133333333, "name": "a4e35e25fcbdf601f607430b67a4ac3b"}, {"bike_id": "49c4251ab6a5fb6b1e177cebaa569624", "type": "electric_scooter", "is_disabled": 0, "lat": 38.92362416666667, "rental_uris": {"ios": "https://dc.lft.to/lastmile_qr_scan", "android": "https://dc.lft.to/lastmile_qr_scan"}, "is_reserved": 0, "fusion_lon": 0.0, "fusion_lat": 0.0, "lon": -77.05133216666667, "name": "49c4251ab6a5fb6b1e177cebaa569624"}, {"bike_id": "1b2b4fc45ea06a630e84f8d7d8b5af14", "type": "electric_scooter", "is_disabled": 0, "lat": 38.9055665, "rental_uris": {"ios": "https://dc.lft.to/lastmile_qr_scan", "android": "https://dc.lft.to/lastmile_qr_scan"}, "is_reserved": 0, "fusion_lon": 0.0, "fusion_lat": 0.0, "lon": -77.06527016666666, "name": "1b2b4fc45ea06a630e84f8d7d8b5af14"}, {"bike_id": "f5716177d7ec89044cf9ba7da664df3a", "type": "electric_bike", "is_disabled": 0, "lat": 38.8788635, "rental_uris": {"ios": "https://dc.lft.to/lastmile_qr_scan", "android": "https://dc.lft.to/lastmile_qr_scan"}, "is_reserved": 0, "fusion_lon": 0.0, "fusion_lat": 0.0, "lon": -77.00690516666667, "name": "f5716177d7ec89044cf9ba7da664df3a"}, {"bike_id": "e1cb6da5abc88f7696282c6c1da415d1", "type": "electric_scooter", "is_disabled": 0, "lat": 38.904144, "rental_uris": {"ios": "https://dc.lft.to/lastmile_qr_scan", "android": "https://dc.lft.to/lastmile_qr_scan"}, "is_reserved": 0, "fusion_lon": 0.0, "fusion_lat": 0.0, "lon": -77.02652466666666, "name": "e1cb6da5abc88f7696282c6c1da415d1"}, {"bike_id": "d3e8ec08717068daaa498780ac94d2ac", "type": "electric_scooter", "is_disabled": 0, "lat": 38.8431325, "rental_uris": {"ios": "https://dc.lft.to/lastmile_qr_scan", "android": "https://dc.lft.to/lastmile_qr_scan"}, "is_reserved": 0, "fusion_lon": 0.0, "fusion_lat": 0.0, "lon": -76.99915916666667, "name": "d3e8ec08717068daaa498780ac94d2ac"}, {"bike_id": "c2c2bcc4fdda4cf39f0dc551564fd69f", "type": "electric_scooter", "is_disabled": 0, "lat": 38.923679, "rental_uris": {"ios": "https://dc.lft.to/lastmile_qr_scan", "android": "https://dc.lft.to/lastmile_qr_scan"}, "is_reserved": 0, "fusion_lon": 0.0, "fusion_lat": 0.0, "lon": -77.05150316666666, "name": "c2c2bcc4fdda4cf39f0dc551564fd69f"}, {"bike_id": "e724b0a62173fa3c287b49e2777aad62", "type": "electric_scooter", "is_disabled": 0, "lat": 38.87178516666667, "rental_uris": {"ios": "https://dc.lft.to/lastmile_qr_scan", "android": "https://dc.lft.to/lastmile_qr_scan"}, "is_reserved": 0, "fusion_lon": 0.0, "fusion_lat": 0.0, "lon": -77.00616566666666, "name": "e724b0a62173fa3c287b49e2777aad62"}, {"bike_id": "a1b3d77f420efb7f15dbeba8fc00a798", "type": "electric_scooter", "is_disabled": 0, "lat": 38.91398216666666, "rental_uris": {"ios": "https://dc.lft.to/lastmile_qr_scan", "android": "https://dc.lft.to/lastmile_qr_scan"}, "is_reserved": 0, "fusion_lon": 0.0, "fusion_lat": 0.0, "lon": -77.02111116666667, "name": "a1b3d77f420efb7f15dbeba8fc00a798"}, {"bike_id": "a66082f2230af35c7270179464566acd", "type": "electric_scooter", "is_disabled": 0, "lat": 38.91404633333333, "rental_uris": {"ios": "https://dc.lft.to/lastmile_qr_scan", "android": "https://dc.lft.to/lastmile_qr_scan"}, "is_reserved": 0, "fusion_lon": 0.0, "fusion_lat": 0.0, "lon": -77.03596133333333, "name": "a66082f2230af35c7270179464566acd"}, {"bike_id": "abf850434e16e4bd5bde899ddc6caa85", "type": "electric_scooter", "is_disabled": 0, "lat": 38.898421666666664, "rental_uris": {"ios": "https://dc.lft.to/lastmile_qr_scan", "android": "https://dc.lft.to/lastmile_qr_scan"}, "is_reserved": 0, "fusion_lon": 0.0, "fusion_lat": 0.0, "lon": -76.94637616666667, "name": "abf850434e16e4bd5bde899ddc6caa85"}, {"bike_id": "4e0980b79c52e97e3fe4bc83fdc369a9", "type": "electric_scooter", "is_disabled": 0, "lat": 38.91275916666667, "rental_uris": {"ios": "https://dc.lft.to/lastmile_qr_scan", "android": "https://dc.lft.to/lastmile_qr_scan"}, "is_reserved": 0, "fusion_lon": 0.0, "fusion_lat": 0.0, "lon": -77.06112416666667, "name": "4e0980b79c52e97e3fe4bc83fdc369a9"}, {"bike_id": "3a7475e15878ba74dd5cc265051baa10", "type": "electric_bike", "is_disabled": 0, "lat": 38.84273616666667, "rental_uris": {"ios": "https://dc.lft.to/lastmile_qr_scan", "android": "https://dc.lft.to/lastmile_qr_scan"}, "is_reserved": 0, "fusion_lon": 0.0, "fusion_lat": 0.0, "lon": -76.988464, "name": "3a7475e15878ba74dd5cc265051baa10"}, {"bike_id": "78c666f2aae783f02309272b13b11a98", "type": "electric_scooter", "is_disabled": 0, "lat": 38.9285255, "rental_uris": {"ios": "https://dc.lft.to/lastmile_qr_scan", "android": "https://dc.lft.to/lastmile_qr_scan"}, "is_reserved": 0, "fusion_lon": 0.0, "fusion_lat": 0.0, "lon": -77.03194066666667, "name": "78c666f2aae783f02309272b13b11a98"}, {"bike_id": "085d2266a1385a3270964745138d5c21", "type": "electric_scooter", "is_disabled": 0, "lat": 38.918147833333336, "rental_uris": {"ios": "https://dc.lft.to/lastmile_qr_scan", "android": "https://dc.lft.to/lastmile_qr_scan"}, "is_reserved": 0, "fusion_lon": 0.0, "fusion_lat": 0.0, "lon": -77.02477783333333, "name": "085d2266a1385a3270964745138d5c21"}, {"bike_id": "0fd8a05cdaec78cbc2a7a2b90b4ccc68", "type": "electric_scooter", "is_disabled": 0, "lat": 38.911745333333336, "rental_uris": {"ios": "https://dc.lft.to/lastmile_qr_scan", "android": "https://dc.lft.to/lastmile_qr_scan"}, "is_reserved": 0, "fusion_lon": 0.0, "fusion_lat": 0.0, "lon": -77.03181516666666, "name": "0fd8a05cdaec78cbc2a7a2b90b4ccc68"}, {"bike_id": "de980463cd4ae5168be9c2c023e5d238", "type": "electric_scooter", "is_disabled": 0, "lat": 38.92365133333333, "rental_uris": {"ios": "https://dc.lft.to/lastmile_qr_scan", "android": "https://dc.lft.to/lastmile_qr_scan"}, "is_reserved": 0, "fusion_lon": 0.0, "fusion_lat": 0.0, "lon": -77.051266, "name": "de980463cd4ae5168be9c2c023e5d238"}, {"bike_id": "f1cd610e7ae7768c136de75be2bcb17e", "type": "electric_bike", "is_disabled": 0, "lat": 38.9206115, "rental_uris": {"ios": "https://dc.lft.to/lastmile_qr_scan", "android": "https://dc.lft.to/lastmile_qr_scan"}, "is_reserved": 0, "fusion_lon": 0.0, "fusion_lat": 0.0, "lon": -76.89074883333333, "name": "f1cd610e7ae7768c136de75be2bcb17e"}, {"bike_id": "b3318fcb27a6481cacd316969bc6634d", "type": "electric_scooter", "is_disabled": 0, "lat": 38.91617766666667, "rental_uris": {"ios": "https://dc.lft.to/lastmile_qr_scan", "android": "https://dc.lft.to/lastmile_qr_scan"}, "is_reserved": 0, "fusion_lon": 0.0, "fusion_lat": 0.0, "lon": -77.024052, "name": "b3318fcb27a6481cacd316969bc6634d"}, {"bike_id": "8e2068c7d9a452b4dcc6aa6994858c01", "type": "electric_scooter", "is_disabled": 0, "lat": 38.913205166666664, "rental_uris": {"ios": "https://dc.lft.to/lastmile_qr_scan", "android": "https://dc.lft.to/lastmile_qr_scan"}, "is_reserved": 0, "fusion_lon": 0.0, "fusion_lat": 0.0, "lon": -77.04490533333333, "name": "8e2068c7d9a452b4dcc6aa6994858c01"}, {"bike_id": "7391e35ac09afb9409b6ef3042720c8c", "type": "electric_scooter", "is_disabled": 0, "lat": 38.910490833333334, "rental_uris": {"ios": "https://dc.lft.to/lastmile_qr_scan", "android": "https://dc.lft.to/lastmile_qr_scan"}, "is_reserved": 0, "fusion_lon": 0.0, "fusion_lat": 0.0, "lon": -77.02207266666667, "name": "7391e35ac09afb9409b6ef3042720c8c"}, {"bike_id": "774cc8a739802b0b8b36fd968b570d76", "type": "electric_scooter", "is_disabled": 0, "lat": 38.91577266666667, "rental_uris": {"ios": "https://dc.lft.to/lastmile_qr_scan", "android": "https://dc.lft.to/lastmile_qr_scan"}, "is_reserved": 0, "fusion_lon": 0.0, "fusion_lat": 0.0, "lon": -77.06757166666667, "name": "774cc8a739802b0b8b36fd968b570d76"}, {"bike_id": "215ea447ecdd5b76bfcda614b5ea2dd0", "type": "electric_scooter", "is_disabled": 0, "lat": 38.916084166666664, "rental_uris": {"ios": "https://dc.lft.to/lastmile_qr_scan", "android": "https://dc.lft.to/lastmile_qr_scan"}, "is_reserved": 0, "fusion_lon": 0.0, "fusion_lat": 0.0, "lon": -77.03394033333333, "name": "215ea447ecdd5b76bfcda614b5ea2dd0"}, {"bike_id": "1f06900b17653964232d2a551c02e44c", "type": "electric_scooter", "is_disabled": 0, "lat": 38.864997833333334, "rental_uris": {"ios": "https://dc.lft.to/lastmile_qr_scan", "android": "https://dc.lft.to/lastmile_qr_scan"}, "is_reserved": 0, "fusion_lon": 0.0, "fusion_lat": 0.0, "lon": -76.99004666666667, "name": "1f06900b17653964232d2a551c02e44c"}, {"bike_id": "0c37894ffbb6ca7ad5fbdec2838fa5e2", "type": "electric_scooter", "is_disabled": 0, "lat": 38.922552, "rental_uris": {"ios": "https://dc.lft.to/lastmile_qr_scan", "android": "https://dc.lft.to/lastmile_qr_scan"}, "is_reserved": 0, "fusion_lon": 0.0, "fusion_lat": 0.0, "lon": -77.03523683333333, "name": "0c37894ffbb6ca7ad5fbdec2838fa5e2"}, {"bike_id": "e3cf1196499ebfd41c6bca757dd82a6e", "type": "electric_scooter", "is_disabled": 0, "lat": 38.923934, "rental_uris": {"ios": "https://dc.lft.to/lastmile_qr_scan", "android": "https://dc.lft.to/lastmile_qr_scan"}, "is_reserved": 0, "fusion_lon": 0.0, "fusion_lat": 0.0, "lon": -77.04467033333333, "name": "e3cf1196499ebfd41c6bca757dd82a6e"}, {"bike_id": "d454ffc15213800fda6bd2cccfa6e910", "type": "electric_scooter", "is_disabled": 0, "lat": 38.92865066666667, "rental_uris": {"ios": "https://dc.lft.to/lastmile_qr_scan", "android": "https://dc.lft.to/lastmile_qr_scan"}, "is_reserved": 0, "fusion_lon": 0.0, "fusion_lat": 0.0, "lon": -77.03361583333333, "name": "d454ffc15213800fda6bd2cccfa6e910"}, {"bike_id": "8411b2df70330826e7c1dd655a5bb626", "type": "electric_scooter", "is_disabled": 0, "lat": 38.90562933333333, "rental_uris": {"ios": "https://dc.lft.to/lastmile_qr_scan", "android": "https://dc.lft.to/lastmile_qr_scan"}, "is_reserved": 0, "fusion_lon": 0.0, "fusion_lat": 0.0, "lon": -77.02199133333333, "name": "8411b2df70330826e7c1dd655a5bb626"}, {"bike_id": "d159695cc433bb38ab2edd19020d5394", "type": "electric_scooter", "is_disabled": 0, "lat": 38.924153833333335, "rental_uris": {"ios": "https://dc.lft.to/lastmile_qr_scan", "android": "https://dc.lft.to/lastmile_qr_scan"}, "is_reserved": 0, "fusion_lon": 0.0, "fusion_lat": 0.0, "lon": -77.01972833333333, "name": "d159695cc433bb38ab2edd19020d5394"}, {"bike_id": "e079c61cf86d639b2f0fd5a19cc309ea", "type": "electric_scooter", "is_disabled": 0, "lat": 38.910468333333334, "rental_uris": {"ios": "https://dc.lft.to/lastmile_qr_scan", "android": "https://dc.lft.to/lastmile_qr_scan"}, "is_reserved": 0, "fusion_lon": 0.0, "fusion_lat": 0.0, "lon": -77.04106566666667, "name": "e079c61cf86d639b2f0fd5a19cc309ea"}, {"bike_id": "077a3afd92af3b920812a4cea8de6a00", "type": "electric_scooter", "is_disabled": 0, "lat": 38.910888166666666, "rental_uris": {"ios": "https://dc.lft.to/lastmile_qr_scan", "android": "https://dc.lft.to/lastmile_qr_scan"}, "is_reserved": 0, "fusion_lon": 0.0, "fusion_lat": 0.0, "lon": -77.0421225, "name": "077a3afd92af3b920812a4cea8de6a00"}, {"bike_id": "dd225fa160b2b843c56d35f1fab0b1ad", "type": "electric_scooter", "is_disabled": 0, "lat": 38.916894166666665, "rental_uris": {"ios": "https://dc.lft.to/lastmile_qr_scan", "android": "https://dc.lft.to/lastmile_qr_scan"}, "is_reserved": 0, "fusion_lon": 0.0, "fusion_lat": 0.0, "lon": -77.037781, "name": "dd225fa160b2b843c56d35f1fab0b1ad"}, {"bike_id": "fcf76f6b3f1793270ca6c2e1a6c30e4b", "type": "electric_bike", "is_disabled": 0, "lat": 38.80022483333333, "rental_uris": {"ios": "https://dc.lft.to/lastmile_qr_scan", "android": "https://dc.lft.to/lastmile_qr_scan"}, "is_reserved": 0, "fusion_lon": 0.0, "fusion_lat": 0.0, "lon": -77.06340216666666, "name": "fcf76f6b3f1793270ca6c2e1a6c30e4b"}, {"bike_id": "ba6b33a3c03a0b32e72931be3acc3505", "type": "electric_scooter", "is_disabled": 0, "lat": 38.93914216666667, "rental_uris": {"ios": "https://dc.lft.to/lastmile_qr_scan", "android": "https://dc.lft.to/lastmile_qr_scan"}, "is_reserved": 0, "fusion_lon": 0.0, "fusion_lat": 0.0, "lon": -77.0605635, "name": "ba6b33a3c03a0b32e72931be3acc3505"}, {"bike_id": "1cb01ac944fa81518570100994359d3e", "type": "electric_scooter", "is_disabled": 0, "lat": 38.915307, "rental_uris": {"ios": "https://dc.lft.to/lastmile_qr_scan", "android": "https://dc.lft.to/lastmile_qr_scan"}, "is_reserved": 0, "fusion_lon": 0.0, "fusion_lat": 0.0, "lon": -77.01849916666667, "name": "1cb01ac944fa81518570100994359d3e"}, {"bike_id": "698a1b836fe0f146092ce1181c0f33d1", "type": "electric_scooter", "is_disabled": 0, "lat": 38.915192, "rental_uris": {"ios": "https://dc.lft.to/lastmile_qr_scan", "android": "https://dc.lft.to/lastmile_qr_scan"}, "is_reserved": 0, "fusion_lon": 0.0, "fusion_lat": 0.0, "lon": -77.02303616666667, "name": "698a1b836fe0f146092ce1181c0f33d1"}, {"bike_id": "9ca4bd8726d7a37ad944c15c242e61c2", "type": "electric_bike", "is_disabled": 0, "lat": 39.036985, "rental_uris": {"ios": "https://dc.lft.to/lastmile_qr_scan", "android": "https://dc.lft.to/lastmile_qr_scan"}, "is_reserved": 0, "fusion_lon": 0.0, "fusion_lat": 0.0, "lon": -77.02864166666667, "name": "9ca4bd8726d7a37ad944c15c242e61c2"}, {"bike_id": "92a486c2b1dbaf3d47e9edd7a86f82dc", "type": "electric_scooter", "is_disabled": 0, "lat": 38.8755955, "rental_uris": {"ios": "https://dc.lft.to/lastmile_qr_scan", "android": "https://dc.lft.to/lastmile_qr_scan"}, "is_reserved": 0, "fusion_lon": 0.0, "fusion_lat": 0.0, "lon": -76.9587255, "name": "92a486c2b1dbaf3d47e9edd7a86f82dc"}, {"bike_id": "e1963ebaf1849d43bdf56223e7c3a0a1", "type": "electric_scooter", "is_disabled": 0, "lat": 38.92246766666667, "rental_uris": {"ios": "https://dc.lft.to/lastmile_qr_scan", "android": "https://dc.lft.to/lastmile_qr_scan"}, "is_reserved": 0, "fusion_lon": 0.0, "fusion_lat": 0.0, "lon": -77.04270383333333, "name": "e1963ebaf1849d43bdf56223e7c3a0a1"}, {"bike_id": "3bc9434d337ddd9a1b91c35f7eab235b", "type": "electric_scooter", "is_disabled": 0, "lat": 38.90637266666667, "rental_uris": {"ios": "https://dc.lft.to/lastmile_qr_scan", "android": "https://dc.lft.to/lastmile_qr_scan"}, "is_reserved": 0, "fusion_lon": 0.0, "fusion_lat": 0.0, "lon": -77.0515225, "name": "3bc9434d337ddd9a1b91c35f7eab235b"}, {"bike_id": "a3104a8d8b19f9e174843fb3aa81cb3f", "type": "electric_scooter", "is_disabled": 0, "lat": 38.9198355, "rental_uris": {"ios": "https://dc.lft.to/lastmile_qr_scan", "android": "https://dc.lft.to/lastmile_qr_scan"}, "is_reserved": 0, "fusion_lon": 0.0, "fusion_lat": 0.0, "lon": -77.03973616666667, "name": "a3104a8d8b19f9e174843fb3aa81cb3f"}, {"bike_id": "13e7dada29dce2c9a0a387f25d6cc00b", "type": "electric_scooter", "is_disabled": 0, "lat": 38.89669283333333, "rental_uris": {"ios": "https://dc.lft.to/lastmile_qr_scan", "android": "https://dc.lft.to/lastmile_qr_scan"}, "is_reserved": 0, "fusion_lon": 0.0, "fusion_lat": 0.0, "lon": -77.02712333333334, "name": "13e7dada29dce2c9a0a387f25d6cc00b"}, {"bike_id": "38f834d426e45be13670960fdd3da05e", "type": "electric_scooter", "is_disabled": 0, "lat": 38.92285566666666, "rental_uris": {"ios": "https://dc.lft.to/lastmile_qr_scan", "android": "https://dc.lft.to/lastmile_qr_scan"}, "is_reserved": 0, "fusion_lon": 0.0, "fusion_lat": 0.0, "lon": -77.02240866666666, "name": "38f834d426e45be13670960fdd3da05e"}, {"bike_id": "eee317c0d60f063ce26c4c0c5aade466", "type": "electric_scooter", "is_disabled": 0, "lat": 38.9019805, "rental_uris": {"ios": "https://dc.lft.to/lastmile_qr_scan", "android": "https://dc.lft.to/lastmile_qr_scan"}, "is_reserved": 0, "fusion_lon": 0.0, "fusion_lat": 0.0, "lon": -77.01349283333333, "name": "eee317c0d60f063ce26c4c0c5aade466"}, {"bike_id": "2bdd07384fdc25ee3f58f0380d068fc7", "type": "electric_bike", "is_disabled": 0, "lat": 38.838275833333334, "rental_uris": {"ios": "https://dc.lft.to/lastmile_qr_scan", "android": "https://dc.lft.to/lastmile_qr_scan"}, "is_reserved": 0, "fusion_lon": 0.0, "fusion_lat": 0.0, "lon": -77.07918933333333, "name": "2bdd07384fdc25ee3f58f0380d068fc7"}, {"bike_id": "0f3379bf857649ce4e2c234195ddd304", "type": "electric_scooter", "is_disabled": 0, "lat": 38.91680366666667, "rental_uris": {"ios": "https://dc.lft.to/lastmile_qr_scan", "android": "https://dc.lft.to/lastmile_qr_scan"}, "is_reserved": 0, "fusion_lon": 0.0, "fusion_lat": 0.0, "lon": -77.03747833333334, "name": "0f3379bf857649ce4e2c234195ddd304"}, {"bike_id": "ab9e7476a069742d1d15c325ccacf688", "type": "electric_scooter", "is_disabled": 0, "lat": 38.93451783333333, "rental_uris": {"ios": "https://dc.lft.to/lastmile_qr_scan", "android": "https://dc.lft.to/lastmile_qr_scan"}, "is_reserved": 0, "fusion_lon": 0.0, "fusion_lat": 0.0, "lon": -77.02792083333334, "name": "ab9e7476a069742d1d15c325ccacf688"}, {"bike_id": "39ea3dbf336e70c0d935a2749b96263b", "type": "electric_scooter", "is_disabled": 0, "lat": 38.904677666666664, "rental_uris": {"ios": "https://dc.lft.to/lastmile_qr_scan", "android": "https://dc.lft.to/lastmile_qr_scan"}, "is_reserved": 0, "fusion_lon": 0.0, "fusion_lat": 0.0, "lon": -76.976135, "name": "39ea3dbf336e70c0d935a2749b96263b"}, {"bike_id": "033a597a70cffda5591fc7a38ca9bf38", "type": "electric_scooter", "is_disabled": 0, "lat": 38.906795, "rental_uris": {"ios": "https://dc.lft.to/lastmile_qr_scan", "android": "https://dc.lft.to/lastmile_qr_scan"}, "is_reserved": 0, "fusion_lon": 0.0, "fusion_lat": 0.0, "lon": -76.97999483333334, "name": "033a597a70cffda5591fc7a38ca9bf38"}, {"bike_id": "23e5d21763a6154e63c6e9fa22c3248f", "type": "electric_scooter", "is_disabled": 0, "lat": 38.9046795, "rental_uris": {"ios": "https://dc.lft.to/lastmile_qr_scan", "android": "https://dc.lft.to/lastmile_qr_scan"}, "is_reserved": 0, "fusion_lon": 0.0, "fusion_lat": 0.0, "lon": -77.02817866666666, "name": "23e5d21763a6154e63c6e9fa22c3248f"}, {"bike_id": "59661c77fe43e6fd63f178947deae0e8", "type": "electric_scooter", "is_disabled": 0, "lat": 38.921528, "rental_uris": {"ios": "https://dc.lft.to/lastmile_qr_scan", "android": "https://dc.lft.to/lastmile_qr_scan"}, "is_reserved": 0, "fusion_lon": 0.0, "fusion_lat": 0.0, "lon": -77.0351865, "name": "59661c77fe43e6fd63f178947deae0e8"}, {"bike_id": "d99e03c48a0a34a4ab6bcb6edd06e3dc", "type": "electric_scooter", "is_disabled": 0, "lat": 38.94850316666667, "rental_uris": {"ios": "https://dc.lft.to/lastmile_qr_scan", "android": "https://dc.lft.to/lastmile_qr_scan"}, "is_reserved": 0, "fusion_lon": 0.0, "fusion_lat": 0.0, "lon": -77.08023366666667, "name": "d99e03c48a0a34a4ab6bcb6edd06e3dc"}, {"bike_id": "2b781afb4563810b5ecb01759a732292", "type": "electric_scooter", "is_disabled": 0, "lat": 38.916648, "rental_uris": {"ios": "https://dc.lft.to/lastmile_qr_scan", "android": "https://dc.lft.to/lastmile_qr_scan"}, "is_reserved": 0, "fusion_lon": 0.0, "fusion_lat": 0.0, "lon": -77.04383883333334, "name": "2b781afb4563810b5ecb01759a732292"}, {"bike_id": "2404b43fffab97fe77f06645c3183210", "type": "electric_scooter", "is_disabled": 0, "lat": 38.8921355, "rental_uris": {"ios": "https://dc.lft.to/lastmile_qr_scan", "android": "https://dc.lft.to/lastmile_qr_scan"}, "is_reserved": 0, "fusion_lon": 0.0, "fusion_lat": 0.0, "lon": -77.03025616666666, "name": "2404b43fffab97fe77f06645c3183210"}, {"bike_id": "58618da48f582a9536e839969c6e1995", "type": "electric_scooter", "is_disabled": 0, "lat": 38.90235283333333, "rental_uris": {"ios": "https://dc.lft.to/lastmile_qr_scan", "android": "https://dc.lft.to/lastmile_qr_scan"}, "is_reserved": 0, "fusion_lon": 0.0, "fusion_lat": 0.0, "lon": -77.00192066666666, "name": "58618da48f582a9536e839969c6e1995"}, {"bike_id": "93f0057c92f67ffb7338c3941db7134c", "type": "electric_scooter", "is_disabled": 0, "lat": 38.931455, "rental_uris": {"ios": "https://dc.lft.to/lastmile_qr_scan", "android": "https://dc.lft.to/lastmile_qr_scan"}, "is_reserved": 0, "fusion_lon": 0.0, "fusion_lat": 0.0, "lon": -77.03358483333334, "name": "93f0057c92f67ffb7338c3941db7134c"}, {"bike_id": "bbe6f8105dd164bae085c4795936d208", "type": "electric_scooter", "is_disabled": 0, "lat": 38.929673333333334, "rental_uris": {"ios": "https://dc.lft.to/lastmile_qr_scan", "android": "https://dc.lft.to/lastmile_qr_scan"}, "is_reserved": 0, "fusion_lon": 0.0, "fusion_lat": 0.0, "lon": -77.04372166666667, "name": "bbe6f8105dd164bae085c4795936d208"}, {"bike_id": "3b3cf7cc4af3ea331eebac4bea9c8279", "type": "electric_bike", "is_disabled": 0, "lat": 38.88242283333334, "rental_uris": {"ios": "https://dc.lft.to/lastmile_qr_scan", "android": "https://dc.lft.to/lastmile_qr_scan"}, "is_reserved": 0, "fusion_lon": 0.0, "fusion_lat": 0.0, "lon": -76.96264116666667, "name": "3b3cf7cc4af3ea331eebac4bea9c8279"}, {"bike_id": "04a4e0a7535c3fa50f66b3d7b18ede8a", "type": "electric_bike", "is_disabled": 0, "lat": 38.93226133333334, "rental_uris": {"ios": "https://dc.lft.to/lastmile_qr_scan", "android": "https://dc.lft.to/lastmile_qr_scan"}, "is_reserved": 0, "fusion_lon": 0.0, "fusion_lat": 0.0, "lon": -77.18124466666667, "name": "04a4e0a7535c3fa50f66b3d7b18ede8a"}, {"bike_id": "9b969191197ea0904d557ef464bacde1", "type": "electric_scooter", "is_disabled": 0, "lat": 38.91614583333333, "rental_uris": {"ios": "https://dc.lft.to/lastmile_qr_scan", "android": "https://dc.lft.to/lastmile_qr_scan"}, "is_reserved": 0, "fusion_lon": 0.0, "fusion_lat": 0.0, "lon": -77.04882766666667, "name": "9b969191197ea0904d557ef464bacde1"}, {"bike_id": "90431c65d0da37acfb7583da5477013b", "type": "electric_scooter", "is_disabled": 0, "lat": 38.92541166666667, "rental_uris": {"ios": "https://dc.lft.to/lastmile_qr_scan", "android": "https://dc.lft.to/lastmile_qr_scan"}, "is_reserved": 0, "fusion_lon": 0.0, "fusion_lat": 0.0, "lon": -77.03226566666666, "name": "90431c65d0da37acfb7583da5477013b"}, {"bike_id": "d44a42240f0d6d1bd049b334646cf096", "type": "electric_scooter", "is_disabled": 0, "lat": 38.91073316666667, "rental_uris": {"ios": "https://dc.lft.to/lastmile_qr_scan", "android": "https://dc.lft.to/lastmile_qr_scan"}, "is_reserved": 0, "fusion_lon": 0.0, "fusion_lat": 0.0, "lon": -77.037182, "name": "d44a42240f0d6d1bd049b334646cf096"}, {"bike_id": "521845fd91ee974337a19680f134282c", "type": "electric_scooter", "is_disabled": 0, "lat": 38.922996499999996, "rental_uris": {"ios": "https://dc.lft.to/lastmile_qr_scan", "android": "https://dc.lft.to/lastmile_qr_scan"}, "is_reserved": 0, "fusion_lon": 0.0, "fusion_lat": 0.0, "lon": -77.07293766666666, "name": "521845fd91ee974337a19680f134282c"}, {"bike_id": "ffe2862fc212cb59efad077b29f52e0b", "type": "electric_scooter", "is_disabled": 0, "lat": 38.909087, "rental_uris": {"ios": "https://dc.lft.to/lastmile_qr_scan", "android": "https://dc.lft.to/lastmile_qr_scan"}, "is_reserved": 0, "fusion_lon": 0.0, "fusion_lat": 0.0, "lon": -77.04500133333333, "name": "ffe2862fc212cb59efad077b29f52e0b"}, {"bike_id": "01f1289e009bbd974a8a948f907545d5", "type": "electric_scooter", "is_disabled": 0, "lat": 38.887114833333335, "rental_uris": {"ios": "https://dc.lft.to/lastmile_qr_scan", "android": "https://dc.lft.to/lastmile_qr_scan"}, "is_reserved": 0, "fusion_lon": 0.0, "fusion_lat": 0.0, "lon": -77.02204516666667, "name": "01f1289e009bbd974a8a948f907545d5"}, {"bike_id": "333f432bbe30c3346e28acf6750ac841", "type": "electric_scooter", "is_disabled": 0, "lat": 38.915507166666664, "rental_uris": {"ios": "https://dc.lft.to/lastmile_qr_scan", "android": "https://dc.lft.to/lastmile_qr_scan"}, "is_reserved": 0, "fusion_lon": 0.0, "fusion_lat": 0.0, "lon": -77.0317815, "name": "333f432bbe30c3346e28acf6750ac841"}, {"bike_id": "99a2cfad462f3abbcfda7b11c6fceb7e", "type": "electric_scooter", "is_disabled": 0, "lat": 38.931297666666666, "rental_uris": {"ios": "https://dc.lft.to/lastmile_qr_scan", "android": "https://dc.lft.to/lastmile_qr_scan"}, "is_reserved": 0, "fusion_lon": 0.0, "fusion_lat": 0.0, "lon": -77.03851433333334, "name": "99a2cfad462f3abbcfda7b11c6fceb7e"}, {"bike_id": "d7fa18681789b27cf833ff57951c798e", "type": "electric_scooter", "is_disabled": 0, "lat": 38.91835733333333, "rental_uris": {"ios": "https://dc.lft.to/lastmile_qr_scan", "android": "https://dc.lft.to/lastmile_qr_scan"}, "is_reserved": 0, "fusion_lon": 0.0, "fusion_lat": 0.0, "lon": -77.03943, "name": "d7fa18681789b27cf833ff57951c798e"}, {"bike_id": "a3b039ce2cef7739b0bf6c19b00ddbed", "type": "electric_scooter", "is_disabled": 0, "lat": 38.892250833333335, "rental_uris": {"ios": "https://dc.lft.to/lastmile_qr_scan", "android": "https://dc.lft.to/lastmile_qr_scan"}, "is_reserved": 0, "fusion_lon": 0.0, "fusion_lat": 0.0, "lon": -77.02915833333333, "name": "a3b039ce2cef7739b0bf6c19b00ddbed"}, {"bike_id": "0d7103209aa899bb6dcc005dc34c479f", "type": "electric_scooter", "is_disabled": 0, "lat": 38.936825166666665, "rental_uris": {"ios": "https://dc.lft.to/lastmile_qr_scan", "android": "https://dc.lft.to/lastmile_qr_scan"}, "is_reserved": 0, "fusion_lon": 0.0, "fusion_lat": 0.0, "lon": -77.06623583333334, "name": "0d7103209aa899bb6dcc005dc34c479f"}, {"bike_id": "ef9da69ba0a3752e05bfe05cf6adc4a9", "type": "electric_scooter", "is_disabled": 0, "lat": 38.9175995, "rental_uris": {"ios": "https://dc.lft.to/lastmile_qr_scan", "android": "https://dc.lft.to/lastmile_qr_scan"}, "is_reserved": 0, "fusion_lon": 0.0, "fusion_lat": 0.0, "lon": -77.02390083333333, "name": "ef9da69ba0a3752e05bfe05cf6adc4a9"}, {"bike_id": "a5e097ff1e2eb1e6b04ec34aee5c7314", "type": "electric_scooter", "is_disabled": 0, "lat": 38.922118166666664, "rental_uris": {"ios": "https://dc.lft.to/lastmile_qr_scan", "android": "https://dc.lft.to/lastmile_qr_scan"}, "is_reserved": 0, "fusion_lon": 0.0, "fusion_lat": 0.0, "lon": -77.04251533333333, "name": "a5e097ff1e2eb1e6b04ec34aee5c7314"}, {"bike_id": "183cdf342f9f3e0e7c71b36c55ae988c", "type": "electric_scooter", "is_disabled": 0, "lat": 38.9008475, "rental_uris": {"ios": "https://dc.lft.to/lastmile_qr_scan", "android": "https://dc.lft.to/lastmile_qr_scan"}, "is_reserved": 0, "fusion_lon": 0.0, "fusion_lat": 0.0, "lon": -77.049999, "name": "183cdf342f9f3e0e7c71b36c55ae988c"}, {"bike_id": "746364bf713df8b82e3afe0d066483d2", "type": "electric_scooter", "is_disabled": 0, "lat": 38.910320666666664, "rental_uris": {"ios": "https://dc.lft.to/lastmile_qr_scan", "android": "https://dc.lft.to/lastmile_qr_scan"}, "is_reserved": 0, "fusion_lon": 0.0, "fusion_lat": 0.0, "lon": -77.03800333333334, "name": "746364bf713df8b82e3afe0d066483d2"}, {"bike_id": "8caa36f6ba1fbec1e83d6650ea0319d7", "type": "electric_scooter", "is_disabled": 0, "lat": 38.91323516666667, "rental_uris": {"ios": "https://dc.lft.to/lastmile_qr_scan", "android": "https://dc.lft.to/lastmile_qr_scan"}, "is_reserved": 0, "fusion_lon": 0.0, "fusion_lat": 0.0, "lon": -77.03190466666666, "name": "8caa36f6ba1fbec1e83d6650ea0319d7"}, {"bike_id": "27ac8670c2f060ca1ce904160293e4a7", "type": "electric_scooter", "is_disabled": 0, "lat": 38.917821, "rental_uris": {"ios": "https://dc.lft.to/lastmile_qr_scan", "android": "https://dc.lft.to/lastmile_qr_scan"}, "is_reserved": 0, "fusion_lon": 0.0, "fusion_lat": 0.0, "lon": -77.02292633333333, "name": "27ac8670c2f060ca1ce904160293e4a7"}, {"bike_id": "ac72a9738867e64c764fdf165deda6a2", "type": "electric_scooter", "is_disabled": 0, "lat": 38.918304166666665, "rental_uris": {"ios": "https://dc.lft.to/lastmile_qr_scan", "android": "https://dc.lft.to/lastmile_qr_scan"}, "is_reserved": 0, "fusion_lon": 0.0, "fusion_lat": 0.0, "lon": -77.045125, "name": "ac72a9738867e64c764fdf165deda6a2"}, {"bike_id": "c56f3bedd58bfdda170575e288637a09", "type": "electric_scooter", "is_disabled": 0, "lat": 38.890091, "rental_uris": {"ios": "https://dc.lft.to/lastmile_qr_scan", "android": "https://dc.lft.to/lastmile_qr_scan"}, "is_reserved": 0, "fusion_lon": 0.0, "fusion_lat": 0.0, "lon": -76.93750016666667, "name": "c56f3bedd58bfdda170575e288637a09"}, {"bike_id": "a3310b5ea10c9caa55a294aef2680ac7", "type": "electric_scooter", "is_disabled": 0, "lat": 38.91546016666667, "rental_uris": {"ios": "https://dc.lft.to/lastmile_qr_scan", "android": "https://dc.lft.to/lastmile_qr_scan"}, "is_reserved": 0, "fusion_lon": 0.0, "fusion_lat": 0.0, "lon": -77.038523, "name": "a3310b5ea10c9caa55a294aef2680ac7"}, {"bike_id": "9af127bc546cf6a5c7064a0c5e42f5b8", "type": "electric_scooter", "is_disabled": 0, "lat": 38.91437883333333, "rental_uris": {"ios": "https://dc.lft.to/lastmile_qr_scan", "android": "https://dc.lft.to/lastmile_qr_scan"}, "is_reserved": 0, "fusion_lon": 0.0, "fusion_lat": 0.0, "lon": -77.02589683333333, "name": "9af127bc546cf6a5c7064a0c5e42f5b8"}, {"bike_id": "cc43872c5bbbc141fbf2a6e06f029f41", "type": "electric_scooter", "is_disabled": 0, "lat": 38.90135033333333, "rental_uris": {"ios": "https://dc.lft.to/lastmile_qr_scan", "android": "https://dc.lft.to/lastmile_qr_scan"}, "is_reserved": 0, "fusion_lon": 0.0, "fusion_lat": 0.0, "lon": -77.01798316666667, "name": "cc43872c5bbbc141fbf2a6e06f029f41"}, {"bike_id": "82f9f6422e678a434266048761f72797", "type": "electric_scooter", "is_disabled": 0, "lat": 38.887313666666664, "rental_uris": {"ios": "https://dc.lft.to/lastmile_qr_scan", "android": "https://dc.lft.to/lastmile_qr_scan"}, "is_reserved": 0, "fusion_lon": 0.0, "fusion_lat": 0.0, "lon": -77.02398883333333, "name": "82f9f6422e678a434266048761f72797"}, {"bike_id": "50a7c438dca62ab724550911ef390239", "type": "electric_scooter", "is_disabled": 0, "lat": 38.884241, "rental_uris": {"ios": "https://dc.lft.to/lastmile_qr_scan", "android": "https://dc.lft.to/lastmile_qr_scan"}, "is_reserved": 0, "fusion_lon": 0.0, "fusion_lat": 0.0, "lon": -76.95759516666666, "name": "50a7c438dca62ab724550911ef390239"}, {"bike_id": "b30378a2f5db50467b1ca56dc736aa9d", "type": "electric_scooter", "is_disabled": 0, "lat": 38.900453166666665, "rental_uris": {"ios": "https://dc.lft.to/lastmile_qr_scan", "android": "https://dc.lft.to/lastmile_qr_scan"}, "is_reserved": 0, "fusion_lon": 0.0, "fusion_lat": 0.0, "lon": -77.03374716666667, "name": "b30378a2f5db50467b1ca56dc736aa9d"}, {"bike_id": "58cc627a9bf3cad8c1114794709cdba9", "type": "electric_bike", "is_disabled": 0, "lat": 38.8651465, "rental_uris": {"ios": "https://dc.lft.to/lastmile_qr_scan", "android": "https://dc.lft.to/lastmile_qr_scan"}, "is_reserved": 0, "fusion_lon": 0.0, "fusion_lat": 0.0, "lon": -77.12937266666667, "name": "58cc627a9bf3cad8c1114794709cdba9"}, {"bike_id": "9700a14359a813e70f4b8649e173f0ce", "type": "electric_scooter", "is_disabled": 0, "lat": 38.9006355, "rental_uris": {"ios": "https://dc.lft.to/lastmile_qr_scan", "android": "https://dc.lft.to/lastmile_qr_scan"}, "is_reserved": 0, "fusion_lon": 0.0, "fusion_lat": 0.0, "lon": -77.05069566666667, "name": "9700a14359a813e70f4b8649e173f0ce"}, {"bike_id": "7e9b55d1715358141d7a35ffd5725dcf", "type": "electric_bike", "is_disabled": 0, "lat": 38.8039135, "rental_uris": {"ios": "https://dc.lft.to/lastmile_qr_scan", "android": "https://dc.lft.to/lastmile_qr_scan"}, "is_reserved": 0, "fusion_lon": 0.0, "fusion_lat": 0.0, "lon": -77.0556745, "name": "7e9b55d1715358141d7a35ffd5725dcf"}, {"bike_id": "0a5f94ca7a8167d8d246bbaa26e56b0a", "type": "electric_scooter", "is_disabled": 0, "lat": 38.876295999999996, "rental_uris": {"ios": "https://dc.lft.to/lastmile_qr_scan", "android": "https://dc.lft.to/lastmile_qr_scan"}, "is_reserved": 0, "fusion_lon": 0.0, "fusion_lat": 0.0, "lon": -77.00963783333333, "name": "0a5f94ca7a8167d8d246bbaa26e56b0a"}, {"bike_id": "581959bfd4f9987c351a4e48d22053a0", "type": "electric_scooter", "is_disabled": 0, "lat": 38.8970305, "rental_uris": {"ios": "https://dc.lft.to/lastmile_qr_scan", "android": "https://dc.lft.to/lastmile_qr_scan"}, "is_reserved": 0, "fusion_lon": 0.0, "fusion_lat": 0.0, "lon": -76.92994683333333, "name": "581959bfd4f9987c351a4e48d22053a0"}, {"bike_id": "45de1ec2b33b5bad7f843c198c85d221", "type": "electric_scooter", "is_disabled": 0, "lat": 38.900003166666664, "rental_uris": {"ios": "https://dc.lft.to/lastmile_qr_scan", "android": "https://dc.lft.to/lastmile_qr_scan"}, "is_reserved": 0, "fusion_lon": 0.0, "fusion_lat": 0.0, "lon": -77.04143216666667, "name": "45de1ec2b33b5bad7f843c198c85d221"}, {"bike_id": "ce8dd490e1a29c121984eea8b989fde7", "type": "electric_scooter", "is_disabled": 0, "lat": 38.942022, "rental_uris": {"ios": "https://dc.lft.to/lastmile_qr_scan", "android": "https://dc.lft.to/lastmile_qr_scan"}, "is_reserved": 0, "fusion_lon": 0.0, "fusion_lat": 0.0, "lon": -77.02601416666667, "name": "ce8dd490e1a29c121984eea8b989fde7"}, {"bike_id": "a8dbd2f22141f366523e042c1fd708db", "type": "electric_scooter", "is_disabled": 0, "lat": 38.9155015, "rental_uris": {"ios": "https://dc.lft.to/lastmile_qr_scan", "android": "https://dc.lft.to/lastmile_qr_scan"}, "is_reserved": 0, "fusion_lon": 0.0, "fusion_lat": 0.0, "lon": -77.02134933333333, "name": "a8dbd2f22141f366523e042c1fd708db"}, {"bike_id": "bae92e686db15a29170716cb80380732", "type": "electric_scooter", "is_disabled": 0, "lat": 38.908443166666665, "rental_uris": {"ios": "https://dc.lft.to/lastmile_qr_scan", "android": "https://dc.lft.to/lastmile_qr_scan"}, "is_reserved": 0, "fusion_lon": 0.0, "fusion_lat": 0.0, "lon": -77.020608, "name": "bae92e686db15a29170716cb80380732"}, {"bike_id": "da7f49326c29b7abe7b2081c00970ab6", "type": "electric_scooter", "is_disabled": 0, "lat": 38.91501783333333, "rental_uris": {"ios": "https://dc.lft.to/lastmile_qr_scan", "android": "https://dc.lft.to/lastmile_qr_scan"}, "is_reserved": 0, "fusion_lon": 0.0, "fusion_lat": 0.0, "lon": -77.03187833333334, "name": "da7f49326c29b7abe7b2081c00970ab6"}, {"bike_id": "e65ea14899d2c5d0199ca3e1bb44ea72", "type": "electric_scooter", "is_disabled": 0, "lat": 38.89953233333333, "rental_uris": {"ios": "https://dc.lft.to/lastmile_qr_scan", "android": "https://dc.lft.to/lastmile_qr_scan"}, "is_reserved": 0, "fusion_lon": 0.0, "fusion_lat": 0.0, "lon": -77.01509716666666, "name": "e65ea14899d2c5d0199ca3e1bb44ea72"}, {"bike_id": "3848fadc7d7da7c388447e95a19f091d", "type": "electric_scooter", "is_disabled": 0, "lat": 38.930392166666664, "rental_uris": {"ios": "https://dc.lft.to/lastmile_qr_scan", "android": "https://dc.lft.to/lastmile_qr_scan"}, "is_reserved": 0, "fusion_lon": 0.0, "fusion_lat": 0.0, "lon": -77.018267, "name": "3848fadc7d7da7c388447e95a19f091d"}, {"bike_id": "5ac1cdf712f1336d4efc4c553bdf1340", "type": "electric_scooter", "is_disabled": 0, "lat": 38.88213533333333, "rental_uris": {"ios": "https://dc.lft.to/lastmile_qr_scan", "android": "https://dc.lft.to/lastmile_qr_scan"}, "is_reserved": 0, "fusion_lon": 0.0, "fusion_lat": 0.0, "lon": -77.029066, "name": "5ac1cdf712f1336d4efc4c553bdf1340"}, {"bike_id": "a2dbf038dafbb411442f486ae68ac381", "type": "electric_scooter", "is_disabled": 0, "lat": 38.90197783333333, "rental_uris": {"ios": "https://dc.lft.to/lastmile_qr_scan", "android": "https://dc.lft.to/lastmile_qr_scan"}, "is_reserved": 0, "fusion_lon": 0.0, "fusion_lat": 0.0, "lon": -76.99689233333334, "name": "a2dbf038dafbb411442f486ae68ac381"}, {"bike_id": "8e428d4e27cff38d6020a287c9079c4c", "type": "electric_scooter", "is_disabled": 0, "lat": 38.91838633333333, "rental_uris": {"ios": "https://dc.lft.to/lastmile_qr_scan", "android": "https://dc.lft.to/lastmile_qr_scan"}, "is_reserved": 0, "fusion_lon": 0.0, "fusion_lat": 0.0, "lon": -76.96550033333334, "name": "8e428d4e27cff38d6020a287c9079c4c"}, {"bike_id": "242730dad94941c467e147cc66d5a417", "type": "electric_scooter", "is_disabled": 0, "lat": 38.88428716666667, "rental_uris": {"ios": "https://dc.lft.to/lastmile_qr_scan", "android": "https://dc.lft.to/lastmile_qr_scan"}, "is_reserved": 0, "fusion_lon": 0.0, "fusion_lat": 0.0, "lon": -76.957578, "name": "242730dad94941c467e147cc66d5a417"}, {"bike_id": "f774356809a86ee5d39881387bc56099", "type": "electric_scooter", "is_disabled": 0, "lat": 38.90809083333333, "rental_uris": {"ios": "https://dc.lft.to/lastmile_qr_scan", "android": "https://dc.lft.to/lastmile_qr_scan"}, "is_reserved": 0, "fusion_lon": 0.0, "fusion_lat": 0.0, "lon": -77.02612683333334, "name": "f774356809a86ee5d39881387bc56099"}, {"bike_id": "9fba6738166f9f9f142b259c2d8d7b55", "type": "electric_scooter", "is_disabled": 0, "lat": 38.916804666666664, "rental_uris": {"ios": "https://dc.lft.to/lastmile_qr_scan", "android": "https://dc.lft.to/lastmile_qr_scan"}, "is_reserved": 0, "fusion_lon": 0.0, "fusion_lat": 0.0, "lon": -77.03778683333333, "name": "9fba6738166f9f9f142b259c2d8d7b55"}, {"bike_id": "9f52a72a5ffe8d0ab893b90e712ccca3", "type": "electric_scooter", "is_disabled": 0, "lat": 38.91490666666667, "rental_uris": {"ios": "https://dc.lft.to/lastmile_qr_scan", "android": "https://dc.lft.to/lastmile_qr_scan"}, "is_reserved": 0, "fusion_lon": 0.0, "fusion_lat": 0.0, "lon": -77.0317985, "name": "9f52a72a5ffe8d0ab893b90e712ccca3"}, {"bike_id": "cdc3c144a010d17a554b9ceccc7bd1fc", "type": "electric_scooter", "is_disabled": 0, "lat": 38.916977833333334, "rental_uris": {"ios": "https://dc.lft.to/lastmile_qr_scan", "android": "https://dc.lft.to/lastmile_qr_scan"}, "is_reserved": 0, "fusion_lon": 0.0, "fusion_lat": 0.0, "lon": -77.0461225, "name": "cdc3c144a010d17a554b9ceccc7bd1fc"}, {"bike_id": "aeb7dd9e3ba756e686457bdd29bdcc9d", "type": "electric_scooter", "is_disabled": 0, "lat": 38.892435666666664, "rental_uris": {"ios": "https://dc.lft.to/lastmile_qr_scan", "android": "https://dc.lft.to/lastmile_qr_scan"}, "is_reserved": 0, "fusion_lon": 0.0, "fusion_lat": 0.0, "lon": -77.02205266666667, "name": "aeb7dd9e3ba756e686457bdd29bdcc9d"}, {"bike_id": "6280f894430bd7da9271de9abace17a5", "type": "electric_scooter", "is_disabled": 0, "lat": 38.90062066666667, "rental_uris": {"ios": "https://dc.lft.to/lastmile_qr_scan", "android": "https://dc.lft.to/lastmile_qr_scan"}, "is_reserved": 0, "fusion_lon": 0.0, "fusion_lat": 0.0, "lon": -77.03654083333333, "name": "6280f894430bd7da9271de9abace17a5"}, {"bike_id": "d2853eeb60eefd6174c7c3ded8b418a7", "type": "electric_scooter", "is_disabled": 0, "lat": 38.90918883333333, "rental_uris": {"ios": "https://dc.lft.to/lastmile_qr_scan", "android": "https://dc.lft.to/lastmile_qr_scan"}, "is_reserved": 0, "fusion_lon": 0.0, "fusion_lat": 0.0, "lon": -76.9997655, "name": "d2853eeb60eefd6174c7c3ded8b418a7"}, {"bike_id": "48fe636644ca43db1609d8548ebf5700", "type": "electric_scooter", "is_disabled": 0, "lat": 38.892943333333335, "rental_uris": {"ios": "https://dc.lft.to/lastmile_qr_scan", "android": "https://dc.lft.to/lastmile_qr_scan"}, "is_reserved": 0, "fusion_lon": 0.0, "fusion_lat": 0.0, "lon": -77.04875966666667, "name": "48fe636644ca43db1609d8548ebf5700"}, {"bike_id": "d939d017d98a04b58d139001b55da4c3", "type": "electric_scooter", "is_disabled": 0, "lat": 38.9070625, "rental_uris": {"ios": "https://dc.lft.to/lastmile_qr_scan", "android": "https://dc.lft.to/lastmile_qr_scan"}, "is_reserved": 0, "fusion_lon": 0.0, "fusion_lat": 0.0, "lon": -77.023972, "name": "d939d017d98a04b58d139001b55da4c3"}, {"bike_id": "afd2bd01526c195eb8a753553d82a42f", "type": "electric_scooter", "is_disabled": 0, "lat": 38.922186333333336, "rental_uris": {"ios": "https://dc.lft.to/lastmile_qr_scan", "android": "https://dc.lft.to/lastmile_qr_scan"}, "is_reserved": 0, "fusion_lon": 0.0, "fusion_lat": 0.0, "lon": -77.03460216666667, "name": "afd2bd01526c195eb8a753553d82a42f"}, {"bike_id": "9fc2155e57c999e0553e0c9375a6594f", "type": "electric_scooter", "is_disabled": 0, "lat": 38.91263633333333, "rental_uris": {"ios": "https://dc.lft.to/lastmile_qr_scan", "android": "https://dc.lft.to/lastmile_qr_scan"}, "is_reserved": 0, "fusion_lon": 0.0, "fusion_lat": 0.0, "lon": -77.03861833333333, "name": "9fc2155e57c999e0553e0c9375a6594f"}, {"bike_id": "a72c2d25a097ec5d5ea618ef7a72e6bb", "type": "electric_bike", "is_disabled": 0, "lat": 39.03988433333333, "rental_uris": {"ios": "https://dc.lft.to/lastmile_qr_scan", "android": "https://dc.lft.to/lastmile_qr_scan"}, "is_reserved": 0, "fusion_lon": 0.0, "fusion_lat": 0.0, "lon": -76.99929, "name": "a72c2d25a097ec5d5ea618ef7a72e6bb"}, {"bike_id": "4d8fdecce8d6953218081c5757e19201", "type": "electric_scooter", "is_disabled": 0, "lat": 38.9076215, "rental_uris": {"ios": "https://dc.lft.to/lastmile_qr_scan", "android": "https://dc.lft.to/lastmile_qr_scan"}, "is_reserved": 0, "fusion_lon": 0.0, "fusion_lat": 0.0, "lon": -77.04207183333334, "name": "4d8fdecce8d6953218081c5757e19201"}, {"bike_id": "83acf9ebaa877763d9eef901a291f884", "type": "electric_scooter", "is_disabled": 0, "lat": 38.92106733333333, "rental_uris": {"ios": "https://dc.lft.to/lastmile_qr_scan", "android": "https://dc.lft.to/lastmile_qr_scan"}, "is_reserved": 0, "fusion_lon": 0.0, "fusion_lat": 0.0, "lon": -77.04699416666666, "name": "83acf9ebaa877763d9eef901a291f884"}, {"bike_id": "9b55eb789d6e8846a40712aa7cd38246", "type": "electric_scooter", "is_disabled": 0, "lat": 38.897334666666666, "rental_uris": {"ios": "https://dc.lft.to/lastmile_qr_scan", "android": "https://dc.lft.to/lastmile_qr_scan"}, "is_reserved": 0, "fusion_lon": 0.0, "fusion_lat": 0.0, "lon": -77.02459866666666, "name": "9b55eb789d6e8846a40712aa7cd38246"}, {"bike_id": "f917c919050f176d3c6a34d92b6c6d9a", "type": "electric_bike", "is_disabled": 0, "lat": 38.859350666666664, "rental_uris": {"ios": "https://dc.lft.to/lastmile_qr_scan", "android": "https://dc.lft.to/lastmile_qr_scan"}, "is_reserved": 0, "fusion_lon": 0.0, "fusion_lat": 0.0, "lon": -77.11832616666666, "name": "f917c919050f176d3c6a34d92b6c6d9a"}, {"bike_id": "cbbbc04d22b7409f4a12f9e1f705849f", "type": "electric_bike", "is_disabled": 0, "lat": 38.823702, "rental_uris": {"ios": "https://dc.lft.to/lastmile_qr_scan", "android": "https://dc.lft.to/lastmile_qr_scan"}, "is_reserved": 0, "fusion_lon": 0.0, "fusion_lat": 0.0, "lon": -77.002213, "name": "cbbbc04d22b7409f4a12f9e1f705849f"}, {"bike_id": "caab954a1c2336ecd20c6c98eb779661", "type": "electric_scooter", "is_disabled": 0, "lat": 38.90504216666667, "rental_uris": {"ios": "https://dc.lft.to/lastmile_qr_scan", "android": "https://dc.lft.to/lastmile_qr_scan"}, "is_reserved": 0, "fusion_lon": 0.0, "fusion_lat": 0.0, "lon": -77.043377, "name": "caab954a1c2336ecd20c6c98eb779661"}, {"bike_id": "84a9c607626b593ec912063aee02ed70", "type": "electric_scooter", "is_disabled": 0, "lat": 38.898297166666666, "rental_uris": {"ios": "https://dc.lft.to/lastmile_qr_scan", "android": "https://dc.lft.to/lastmile_qr_scan"}, "is_reserved": 0, "fusion_lon": 0.0, "fusion_lat": 0.0, "lon": -76.91949916666667, "name": "84a9c607626b593ec912063aee02ed70"}, {"bike_id": "e8444f730c5dc09bf375eb41f65d6772", "type": "electric_scooter", "is_disabled": 0, "lat": 38.923259, "rental_uris": {"ios": "https://dc.lft.to/lastmile_qr_scan", "android": "https://dc.lft.to/lastmile_qr_scan"}, "is_reserved": 0, "fusion_lon": 0.0, "fusion_lat": 0.0, "lon": -77.02130033333333, "name": "e8444f730c5dc09bf375eb41f65d6772"}, {"bike_id": "bfce9c0c8d995ba36c747aa5f3139920", "type": "electric_scooter", "is_disabled": 0, "lat": 38.9041615, "rental_uris": {"ios": "https://dc.lft.to/lastmile_qr_scan", "android": "https://dc.lft.to/lastmile_qr_scan"}, "is_reserved": 0, "fusion_lon": 0.0, "fusion_lat": 0.0, "lon": -76.97334433333333, "name": "bfce9c0c8d995ba36c747aa5f3139920"}, {"bike_id": "d3298baf1f178c710556462faefee61b", "type": "electric_scooter", "is_disabled": 0, "lat": 38.942887666666664, "rental_uris": {"ios": "https://dc.lft.to/lastmile_qr_scan", "android": "https://dc.lft.to/lastmile_qr_scan"}, "is_reserved": 0, "fusion_lon": 0.0, "fusion_lat": 0.0, "lon": -77.03621583333333, "name": "d3298baf1f178c710556462faefee61b"}, {"bike_id": "5357c32b0f8f4c3d3839183e256a6282", "type": "electric_scooter", "is_disabled": 0, "lat": 38.89082033333333, "rental_uris": {"ios": "https://dc.lft.to/lastmile_qr_scan", "android": "https://dc.lft.to/lastmile_qr_scan"}, "is_reserved": 0, "fusion_lon": 0.0, "fusion_lat": 0.0, "lon": -76.999413, "name": "5357c32b0f8f4c3d3839183e256a6282"}, {"bike_id": "66a694cebe8ed067f7db7adedb8dc306", "type": "electric_scooter", "is_disabled": 0, "lat": 38.90129816666666, "rental_uris": {"ios": "https://dc.lft.to/lastmile_qr_scan", "android": "https://dc.lft.to/lastmile_qr_scan"}, "is_reserved": 0, "fusion_lon": 0.0, "fusion_lat": 0.0, "lon": -77.02191133333334, "name": "66a694cebe8ed067f7db7adedb8dc306"}, {"bike_id": "eac4b3db9b9cbbf3c888e1407071dc21", "type": "electric_bike", "is_disabled": 0, "lat": 38.904513666666666, "rental_uris": {"ios": "https://dc.lft.to/lastmile_qr_scan", "android": "https://dc.lft.to/lastmile_qr_scan"}, "is_reserved": 0, "fusion_lon": 0.0, "fusion_lat": 0.0, "lon": -77.06760066666666, "name": "eac4b3db9b9cbbf3c888e1407071dc21"}, {"bike_id": "6289adb5015e42f559f1ad52c8663778", "type": "electric_scooter", "is_disabled": 0, "lat": 38.918118, "rental_uris": {"ios": "https://dc.lft.to/lastmile_qr_scan", "android": "https://dc.lft.to/lastmile_qr_scan"}, "is_reserved": 0, "fusion_lon": 0.0, "fusion_lat": 0.0, "lon": -77.02477966666666, "name": "6289adb5015e42f559f1ad52c8663778"}, {"bike_id": "d5fe0a424eb428fb7bf8e2dc6550d8ba", "type": "electric_scooter", "is_disabled": 0, "lat": 38.9267345, "rental_uris": {"ios": "https://dc.lft.to/lastmile_qr_scan", "android": "https://dc.lft.to/lastmile_qr_scan"}, "is_reserved": 0, "fusion_lon": 0.0, "fusion_lat": 0.0, "lon": -77.035727, "name": "d5fe0a424eb428fb7bf8e2dc6550d8ba"}, {"bike_id": "6391d28c40100e9a764f42d1027da998", "type": "electric_scooter", "is_disabled": 0, "lat": 38.884085166666665, "rental_uris": {"ios": "https://dc.lft.to/lastmile_qr_scan", "android": "https://dc.lft.to/lastmile_qr_scan"}, "is_reserved": 0, "fusion_lon": 0.0, "fusion_lat": 0.0, "lon": -77.01789366666667, "name": "6391d28c40100e9a764f42d1027da998"}, {"bike_id": "038e9a2c56e303f3533f77cf28500754", "type": "electric_scooter", "is_disabled": 0, "lat": 38.917074666666664, "rental_uris": {"ios": "https://dc.lft.to/lastmile_qr_scan", "android": "https://dc.lft.to/lastmile_qr_scan"}, "is_reserved": 0, "fusion_lon": 0.0, "fusion_lat": 0.0, "lon": -77.09578916666666, "name": "038e9a2c56e303f3533f77cf28500754"}, {"bike_id": "0a9f1702c2aec1f49cfcc92a10254f5f", "type": "electric_scooter", "is_disabled": 0, "lat": 38.927638333333334, "rental_uris": {"ios": "https://dc.lft.to/lastmile_qr_scan", "android": "https://dc.lft.to/lastmile_qr_scan"}, "is_reserved": 0, "fusion_lon": 0.0, "fusion_lat": 0.0, "lon": -76.98755883333334, "name": "0a9f1702c2aec1f49cfcc92a10254f5f"}, {"bike_id": "8af7991b74949efb3d9563fed9e62ea3", "type": "electric_scooter", "is_disabled": 0, "lat": 38.9157735, "rental_uris": {"ios": "https://dc.lft.to/lastmile_qr_scan", "android": "https://dc.lft.to/lastmile_qr_scan"}, "is_reserved": 0, "fusion_lon": 0.0, "fusion_lat": 0.0, "lon": -77.04626466666667, "name": "8af7991b74949efb3d9563fed9e62ea3"}, {"bike_id": "62177f040a4131e011ac461431c5e035", "type": "electric_scooter", "is_disabled": 0, "lat": 38.91945483333333, "rental_uris": {"ios": "https://dc.lft.to/lastmile_qr_scan", "android": "https://dc.lft.to/lastmile_qr_scan"}, "is_reserved": 0, "fusion_lon": 0.0, "fusion_lat": 0.0, "lon": -77.04157866666667, "name": "62177f040a4131e011ac461431c5e035"}, {"bike_id": "f16b498b86070713dd9f638510cbe24d", "type": "electric_scooter", "is_disabled": 0, "lat": 38.89824316666667, "rental_uris": {"ios": "https://dc.lft.to/lastmile_qr_scan", "android": "https://dc.lft.to/lastmile_qr_scan"}, "is_reserved": 0, "fusion_lon": 0.0, "fusion_lat": 0.0, "lon": -77.0401885, "name": "f16b498b86070713dd9f638510cbe24d"}, {"bike_id": "e83e8460a5ce4f175d84cfcfc422d44e", "type": "electric_scooter", "is_disabled": 0, "lat": 38.865011833333334, "rental_uris": {"ios": "https://dc.lft.to/lastmile_qr_scan", "android": "https://dc.lft.to/lastmile_qr_scan"}, "is_reserved": 0, "fusion_lon": 0.0, "fusion_lat": 0.0, "lon": -76.99004816666667, "name": "e83e8460a5ce4f175d84cfcfc422d44e"}, {"bike_id": "bc53dbce02bf9b8fce83f5a6230ec8b8", "type": "electric_scooter", "is_disabled": 0, "lat": 38.86681016666667, "rental_uris": {"ios": "https://dc.lft.to/lastmile_qr_scan", "android": "https://dc.lft.to/lastmile_qr_scan"}, "is_reserved": 0, "fusion_lon": 0.0, "fusion_lat": 0.0, "lon": -76.98579033333333, "name": "bc53dbce02bf9b8fce83f5a6230ec8b8"}, {"bike_id": "32353a3add2ee4e260ddbd0c12761d34", "type": "electric_scooter", "is_disabled": 0, "lat": 38.957276666666665, "rental_uris": {"ios": "https://dc.lft.to/lastmile_qr_scan", "android": "https://dc.lft.to/lastmile_qr_scan"}, "is_reserved": 0, "fusion_lon": 0.0, "fusion_lat": 0.0, "lon": -77.024059, "name": "32353a3add2ee4e260ddbd0c12761d34"}, {"bike_id": "2bc227eaa2b2b804a10760b73691ab4c", "type": "electric_scooter", "is_disabled": 0, "lat": 38.898223, "rental_uris": {"ios": "https://dc.lft.to/lastmile_qr_scan", "android": "https://dc.lft.to/lastmile_qr_scan"}, "is_reserved": 0, "fusion_lon": 0.0, "fusion_lat": 0.0, "lon": -77.01807466666666, "name": "2bc227eaa2b2b804a10760b73691ab4c"}, {"bike_id": "aadb7b7d756db51a45a6426e4f164dc4", "type": "electric_scooter", "is_disabled": 0, "lat": 38.92716083333333, "rental_uris": {"ios": "https://dc.lft.to/lastmile_qr_scan", "android": "https://dc.lft.to/lastmile_qr_scan"}, "is_reserved": 0, "fusion_lon": 0.0, "fusion_lat": 0.0, "lon": -77.02091766666666, "name": "aadb7b7d756db51a45a6426e4f164dc4"}, {"bike_id": "87ee13e25b2011f1d72a2492ea2940e4", "type": "electric_bike", "is_disabled": 0, "lat": 38.86153616666667, "rental_uris": {"ios": "https://dc.lft.to/lastmile_qr_scan", "android": "https://dc.lft.to/lastmile_qr_scan"}, "is_reserved": 0, "fusion_lon": 0.0, "fusion_lat": 0.0, "lon": -77.09145233333334, "name": "87ee13e25b2011f1d72a2492ea2940e4"}, {"bike_id": "215a8b600891de499aef33062cbc5407", "type": "electric_scooter", "is_disabled": 0, "lat": 38.932482, "rental_uris": {"ios": "https://dc.lft.to/lastmile_qr_scan", "android": "https://dc.lft.to/lastmile_qr_scan"}, "is_reserved": 0, "fusion_lon": 0.0, "fusion_lat": 0.0, "lon": -77.02000466666667, "name": "215a8b600891de499aef33062cbc5407"}, {"bike_id": "12e846fe1ad336f25b5fccd9be736d14", "type": "electric_scooter", "is_disabled": 0, "lat": 38.89001616666667, "rental_uris": {"ios": "https://dc.lft.to/lastmile_qr_scan", "android": "https://dc.lft.to/lastmile_qr_scan"}, "is_reserved": 0, "fusion_lon": 0.0, "fusion_lat": 0.0, "lon": -77.002051, "name": "12e846fe1ad336f25b5fccd9be736d14"}, {"bike_id": "02999c9d0209621aa1fba5f756a9fdba", "type": "electric_scooter", "is_disabled": 0, "lat": 38.8983975, "rental_uris": {"ios": "https://dc.lft.to/lastmile_qr_scan", "android": "https://dc.lft.to/lastmile_qr_scan"}, "is_reserved": 0, "fusion_lon": 0.0, "fusion_lat": 0.0, "lon": -76.94632116666666, "name": "02999c9d0209621aa1fba5f756a9fdba"}, {"bike_id": "55f016f6818939951cde13dfdc8df49e", "type": "electric_scooter", "is_disabled": 0, "lat": 38.90288416666667, "rental_uris": {"ios": "https://dc.lft.to/lastmile_qr_scan", "android": "https://dc.lft.to/lastmile_qr_scan"}, "is_reserved": 0, "fusion_lon": 0.0, "fusion_lat": 0.0, "lon": -77.05802966666667, "name": "55f016f6818939951cde13dfdc8df49e"}, {"bike_id": "e25bd6b244c2af56dc98a1794d09c334", "type": "electric_scooter", "is_disabled": 0, "lat": 38.870679, "rental_uris": {"ios": "https://dc.lft.to/lastmile_qr_scan", "android": "https://dc.lft.to/lastmile_qr_scan"}, "is_reserved": 0, "fusion_lon": 0.0, "fusion_lat": 0.0, "lon": -76.98131683333334, "name": "e25bd6b244c2af56dc98a1794d09c334"}, {"bike_id": "59852d2e8a4ea3f60310082a69f366bf", "type": "electric_scooter", "is_disabled": 0, "lat": 38.937519, "rental_uris": {"ios": "https://dc.lft.to/lastmile_qr_scan", "android": "https://dc.lft.to/lastmile_qr_scan"}, "is_reserved": 0, "fusion_lon": 0.0, "fusion_lat": 0.0, "lon": -77.0326435, "name": "59852d2e8a4ea3f60310082a69f366bf"}, {"bike_id": "3a482d1955f0ec81e553b6d0ced316d0", "type": "electric_scooter", "is_disabled": 0, "lat": 38.94733466666667, "rental_uris": {"ios": "https://dc.lft.to/lastmile_qr_scan", "android": "https://dc.lft.to/lastmile_qr_scan"}, "is_reserved": 0, "fusion_lon": 0.0, "fusion_lat": 0.0, "lon": -77.07867416666667, "name": "3a482d1955f0ec81e553b6d0ced316d0"}, {"bike_id": "a41e8df8acbbb942806da3c867f476d3", "type": "electric_scooter", "is_disabled": 0, "lat": 38.92430683333333, "rental_uris": {"ios": "https://dc.lft.to/lastmile_qr_scan", "android": "https://dc.lft.to/lastmile_qr_scan"}, "is_reserved": 0, "fusion_lon": 0.0, "fusion_lat": 0.0, "lon": -77.020136, "name": "a41e8df8acbbb942806da3c867f476d3"}, {"bike_id": "302e0c5b8d8e4d138cadc7fc43272adb", "type": "electric_scooter", "is_disabled": 0, "lat": 38.904095166666664, "rental_uris": {"ios": "https://dc.lft.to/lastmile_qr_scan", "android": "https://dc.lft.to/lastmile_qr_scan"}, "is_reserved": 0, "fusion_lon": 0.0, "fusion_lat": 0.0, "lon": -76.973302, "name": "302e0c5b8d8e4d138cadc7fc43272adb"}, {"bike_id": "5277de629318d3242ba873a7fc322bb0", "type": "electric_scooter", "is_disabled": 0, "lat": 38.9156055, "rental_uris": {"ios": "https://dc.lft.to/lastmile_qr_scan", "android": "https://dc.lft.to/lastmile_qr_scan"}, "is_reserved": 0, "fusion_lon": 0.0, "fusion_lat": 0.0, "lon": -77.03122383333333, "name": "5277de629318d3242ba873a7fc322bb0"}, {"bike_id": "c40edd2dc093ce8d867ab62498657bb6", "type": "electric_scooter", "is_disabled": 0, "lat": 38.9097775, "rental_uris": {"ios": "https://dc.lft.to/lastmile_qr_scan", "android": "https://dc.lft.to/lastmile_qr_scan"}, "is_reserved": 0, "fusion_lon": 0.0, "fusion_lat": 0.0, "lon": -77.02202533333333, "name": "c40edd2dc093ce8d867ab62498657bb6"}, {"bike_id": "82aaf52b429f24f8316c64133a310e67", "type": "electric_bike", "is_disabled": 0, "lat": 38.996712333333335, "rental_uris": {"ios": "https://dc.lft.to/lastmile_qr_scan", "android": "https://dc.lft.to/lastmile_qr_scan"}, "is_reserved": 0, "fusion_lon": 0.0, "fusion_lat": 0.0, "lon": -77.0379335, "name": "82aaf52b429f24f8316c64133a310e67"}, {"bike_id": "f8e9201e59b446c017163c1e4337d0c4", "type": "electric_bike", "is_disabled": 0, "lat": 38.89611083333333, "rental_uris": {"ios": "https://dc.lft.to/lastmile_qr_scan", "android": "https://dc.lft.to/lastmile_qr_scan"}, "is_reserved": 0, "fusion_lon": 0.0, "fusion_lat": 0.0, "lon": -76.90737533333333, "name": "f8e9201e59b446c017163c1e4337d0c4"}, {"bike_id": "cfaaf4d3fa761ba8b68042eb74146b88", "type": "electric_scooter", "is_disabled": 0, "lat": 38.91776466666666, "rental_uris": {"ios": "https://dc.lft.to/lastmile_qr_scan", "android": "https://dc.lft.to/lastmile_qr_scan"}, "is_reserved": 0, "fusion_lon": 0.0, "fusion_lat": 0.0, "lon": -77.0318115, "name": "cfaaf4d3fa761ba8b68042eb74146b88"}, {"bike_id": "6c83d168fd6e0e127992b04d709159bc", "type": "electric_scooter", "is_disabled": 0, "lat": 38.90412233333333, "rental_uris": {"ios": "https://dc.lft.to/lastmile_qr_scan", "android": "https://dc.lft.to/lastmile_qr_scan"}, "is_reserved": 0, "fusion_lon": 0.0, "fusion_lat": 0.0, "lon": -77.02425016666666, "name": "6c83d168fd6e0e127992b04d709159bc"}, {"bike_id": "8c56c54bdb20f548d9959031fb0f0bd2", "type": "electric_scooter", "is_disabled": 0, "lat": 38.895953, "rental_uris": {"ios": "https://dc.lft.to/lastmile_qr_scan", "android": "https://dc.lft.to/lastmile_qr_scan"}, "is_reserved": 0, "fusion_lon": 0.0, "fusion_lat": 0.0, "lon": -77.02208466666667, "name": "8c56c54bdb20f548d9959031fb0f0bd2"}, {"bike_id": "5297974e185680d60733c57e970fad9f", "type": "electric_scooter", "is_disabled": 0, "lat": 38.91839, "rental_uris": {"ios": "https://dc.lft.to/lastmile_qr_scan", "android": "https://dc.lft.to/lastmile_qr_scan"}, "is_reserved": 0, "fusion_lon": 0.0, "fusion_lat": 0.0, "lon": -76.9655245, "name": "5297974e185680d60733c57e970fad9f"}, {"bike_id": "3469238212927cebdb1874d10389a0f2", "type": "electric_scooter", "is_disabled": 0, "lat": 38.927009166666664, "rental_uris": {"ios": "https://dc.lft.to/lastmile_qr_scan", "android": "https://dc.lft.to/lastmile_qr_scan"}, "is_reserved": 0, "fusion_lon": 0.0, "fusion_lat": 0.0, "lon": -77.02068883333334, "name": "3469238212927cebdb1874d10389a0f2"}, {"bike_id": "b59d82887bba1c562ff323206076bd06", "type": "electric_scooter", "is_disabled": 0, "lat": 38.933168, "rental_uris": {"ios": "https://dc.lft.to/lastmile_qr_scan", "android": "https://dc.lft.to/lastmile_qr_scan"}, "is_reserved": 0, "fusion_lon": 0.0, "fusion_lat": 0.0, "lon": -77.02390816666667, "name": "b59d82887bba1c562ff323206076bd06"}, {"bike_id": "c629ce67ce2375205a9bf9ae50234b26", "type": "electric_scooter", "is_disabled": 0, "lat": 38.86627133333333, "rental_uris": {"ios": "https://dc.lft.to/lastmile_qr_scan", "android": "https://dc.lft.to/lastmile_qr_scan"}, "is_reserved": 0, "fusion_lon": 0.0, "fusion_lat": 0.0, "lon": -76.9871735, "name": "c629ce67ce2375205a9bf9ae50234b26"}, {"bike_id": "b8ba2252420ebdb767d953efbaff9e98", "type": "electric_scooter", "is_disabled": 0, "lat": 38.89471566666667, "rental_uris": {"ios": "https://dc.lft.to/lastmile_qr_scan", "android": "https://dc.lft.to/lastmile_qr_scan"}, "is_reserved": 0, "fusion_lon": 0.0, "fusion_lat": 0.0, "lon": -77.011076, "name": "b8ba2252420ebdb767d953efbaff9e98"}, {"bike_id": "4eb64e7208dacd3c3476bcbb927284c1", "type": "electric_scooter", "is_disabled": 0, "lat": 38.905515, "rental_uris": {"ios": "https://dc.lft.to/lastmile_qr_scan", "android": "https://dc.lft.to/lastmile_qr_scan"}, "is_reserved": 0, "fusion_lon": 0.0, "fusion_lat": 0.0, "lon": -77.02185366666667, "name": "4eb64e7208dacd3c3476bcbb927284c1"}, {"bike_id": "4a5a953735efad6959467b45b96ffc31", "type": "electric_scooter", "is_disabled": 0, "lat": 38.894817, "rental_uris": {"ios": "https://dc.lft.to/lastmile_qr_scan", "android": "https://dc.lft.to/lastmile_qr_scan"}, "is_reserved": 0, "fusion_lon": 0.0, "fusion_lat": 0.0, "lon": -76.987785, "name": "4a5a953735efad6959467b45b96ffc31"}, {"bike_id": "eaec9e407c63f8456a769d450051fb3e", "type": "electric_scooter", "is_disabled": 0, "lat": 38.89269916666667, "rental_uris": {"ios": "https://dc.lft.to/lastmile_qr_scan", "android": "https://dc.lft.to/lastmile_qr_scan"}, "is_reserved": 0, "fusion_lon": 0.0, "fusion_lat": 0.0, "lon": -77.02042616666667, "name": "eaec9e407c63f8456a769d450051fb3e"}, {"bike_id": "708d3febb5feb332f270ce8026fe5c54", "type": "electric_scooter", "is_disabled": 0, "lat": 38.916841833333336, "rental_uris": {"ios": "https://dc.lft.to/lastmile_qr_scan", "android": "https://dc.lft.to/lastmile_qr_scan"}, "is_reserved": 0, "fusion_lon": 0.0, "fusion_lat": 0.0, "lon": -77.03182583333333, "name": "708d3febb5feb332f270ce8026fe5c54"}, {"bike_id": "3a1f609119b29135ef84d045e51e59fb", "type": "electric_scooter", "is_disabled": 0, "lat": 38.858094666666666, "rental_uris": {"ios": "https://dc.lft.to/lastmile_qr_scan", "android": "https://dc.lft.to/lastmile_qr_scan"}, "is_reserved": 0, "fusion_lon": 0.0, "fusion_lat": 0.0, "lon": -76.989272, "name": "3a1f609119b29135ef84d045e51e59fb"}, {"bike_id": "0651a9a1c0727d958883d3b812f49251", "type": "electric_scooter", "is_disabled": 0, "lat": 38.870718333333336, "rental_uris": {"ios": "https://dc.lft.to/lastmile_qr_scan", "android": "https://dc.lft.to/lastmile_qr_scan"}, "is_reserved": 0, "fusion_lon": 0.0, "fusion_lat": 0.0, "lon": -76.9813155, "name": "0651a9a1c0727d958883d3b812f49251"}, {"bike_id": "f26ee662e0abe8029bd4682d0fa02848", "type": "electric_scooter", "is_disabled": 0, "lat": 38.897286, "rental_uris": {"ios": "https://dc.lft.to/lastmile_qr_scan", "android": "https://dc.lft.to/lastmile_qr_scan"}, "is_reserved": 0, "fusion_lon": 0.0, "fusion_lat": 0.0, "lon": -77.02695016666667, "name": "f26ee662e0abe8029bd4682d0fa02848"}, {"bike_id": "aa3b64610a7db890dad241cae74f8af7", "type": "electric_scooter", "is_disabled": 0, "lat": 38.886378, "rental_uris": {"ios": "https://dc.lft.to/lastmile_qr_scan", "android": "https://dc.lft.to/lastmile_qr_scan"}, "is_reserved": 0, "fusion_lon": 0.0, "fusion_lat": 0.0, "lon": -77.01366316666666, "name": "aa3b64610a7db890dad241cae74f8af7"}, {"bike_id": "7867646828d87f97322a72b8fdf13e7c", "type": "electric_scooter", "is_disabled": 0, "lat": 38.93508683333334, "rental_uris": {"ios": "https://dc.lft.to/lastmile_qr_scan", "android": "https://dc.lft.to/lastmile_qr_scan"}, "is_reserved": 0, "fusion_lon": 0.0, "fusion_lat": 0.0, "lon": -77.02540333333333, "name": "7867646828d87f97322a72b8fdf13e7c"}, {"bike_id": "483a6c0787c626d438d63fc0c15c34a8", "type": "electric_scooter", "is_disabled": 0, "lat": 38.9170015, "rental_uris": {"ios": "https://dc.lft.to/lastmile_qr_scan", "android": "https://dc.lft.to/lastmile_qr_scan"}, "is_reserved": 0, "fusion_lon": 0.0, "fusion_lat": 0.0, "lon": -77.02895383333333, "name": "483a6c0787c626d438d63fc0c15c34a8"}, {"bike_id": "231efab9fc72851ddb4778fd4dc64773", "type": "electric_bike", "is_disabled": 0, "lat": 38.807495333333335, "rental_uris": {"ios": "https://dc.lft.to/lastmile_qr_scan", "android": "https://dc.lft.to/lastmile_qr_scan"}, "is_reserved": 0, "fusion_lon": 0.0, "fusion_lat": 0.0, "lon": -77.09455633333333, "name": "231efab9fc72851ddb4778fd4dc64773"}, {"bike_id": "5469778df7d7e4256ea10d450b8d03c1", "type": "electric_scooter", "is_disabled": 0, "lat": 38.89965733333333, "rental_uris": {"ios": "https://dc.lft.to/lastmile_qr_scan", "android": "https://dc.lft.to/lastmile_qr_scan"}, "is_reserved": 0, "fusion_lon": 0.0, "fusion_lat": 0.0, "lon": -76.98304266666666, "name": "5469778df7d7e4256ea10d450b8d03c1"}, {"bike_id": "06b024f9d788b118500bafd0bd2d5ea0", "type": "electric_scooter", "is_disabled": 0, "lat": 38.89196033333333, "rental_uris": {"ios": "https://dc.lft.to/lastmile_qr_scan", "android": "https://dc.lft.to/lastmile_qr_scan"}, "is_reserved": 0, "fusion_lon": 0.0, "fusion_lat": 0.0, "lon": -77.025015, "name": "06b024f9d788b118500bafd0bd2d5ea0"}, {"bike_id": "549d18e07f27ea4db4185cb9da79a31c", "type": "electric_bike", "is_disabled": 0, "lat": 38.943627, "rental_uris": {"ios": "https://dc.lft.to/lastmile_qr_scan", "android": "https://dc.lft.to/lastmile_qr_scan"}, "is_reserved": 0, "fusion_lon": 0.0, "fusion_lat": 0.0, "lon": -77.00352166666667, "name": "549d18e07f27ea4db4185cb9da79a31c"}, {"bike_id": "fe4dbeb5aa13b8e248ce3a546a76c694", "type": "electric_scooter", "is_disabled": 0, "lat": 38.916006, "rental_uris": {"ios": "https://dc.lft.to/lastmile_qr_scan", "android": "https://dc.lft.to/lastmile_qr_scan"}, "is_reserved": 0, "fusion_lon": 0.0, "fusion_lat": 0.0, "lon": -77.03989883333334, "name": "fe4dbeb5aa13b8e248ce3a546a76c694"}, {"bike_id": "22b020742081520a3b382acaedb8ae84", "type": "electric_scooter", "is_disabled": 0, "lat": 38.907922166666665, "rental_uris": {"ios": "https://dc.lft.to/lastmile_qr_scan", "android": "https://dc.lft.to/lastmile_qr_scan"}, "is_reserved": 0, "fusion_lon": 0.0, "fusion_lat": 0.0, "lon": -76.99450016666667, "name": "22b020742081520a3b382acaedb8ae84"}, {"bike_id": "f7017840e8415bb6a8d01f9d9d773826", "type": "electric_scooter", "is_disabled": 0, "lat": 38.93983216666667, "rental_uris": {"ios": "https://dc.lft.to/lastmile_qr_scan", "android": "https://dc.lft.to/lastmile_qr_scan"}, "is_reserved": 0, "fusion_lon": 0.0, "fusion_lat": 0.0, "lon": -77.02872566666667, "name": "f7017840e8415bb6a8d01f9d9d773826"}, {"bike_id": "9e90b1709f14a478166cd82965f228ba", "type": "electric_scooter", "is_disabled": 0, "lat": 38.946054, "rental_uris": {"ios": "https://dc.lft.to/lastmile_qr_scan", "android": "https://dc.lft.to/lastmile_qr_scan"}, "is_reserved": 0, "fusion_lon": 0.0, "fusion_lat": 0.0, "lon": -77.02269633333333, "name": "9e90b1709f14a478166cd82965f228ba"}, {"bike_id": "ed09d3deaaf8512d791fe92b9266f607", "type": "electric_scooter", "is_disabled": 0, "lat": 38.91817233333333, "rental_uris": {"ios": "https://dc.lft.to/lastmile_qr_scan", "android": "https://dc.lft.to/lastmile_qr_scan"}, "is_reserved": 0, "fusion_lon": 0.0, "fusion_lat": 0.0, "lon": -77.031875, "name": "ed09d3deaaf8512d791fe92b9266f607"}, {"bike_id": "ef9f124f3349c36bdf8732619617e8d2", "type": "electric_scooter", "is_disabled": 0, "lat": 38.909564, "rental_uris": {"ios": "https://dc.lft.to/lastmile_qr_scan", "android": "https://dc.lft.to/lastmile_qr_scan"}, "is_reserved": 0, "fusion_lon": 0.0, "fusion_lat": 0.0, "lon": -77.03370316666667, "name": "ef9f124f3349c36bdf8732619617e8d2"}, {"bike_id": "a3e87212d706a1133bbe0bd825eef55b", "type": "electric_scooter", "is_disabled": 0, "lat": 38.915530333333336, "rental_uris": {"ios": "https://dc.lft.to/lastmile_qr_scan", "android": "https://dc.lft.to/lastmile_qr_scan"}, "is_reserved": 0, "fusion_lon": 0.0, "fusion_lat": 0.0, "lon": -77.02645266666667, "name": "a3e87212d706a1133bbe0bd825eef55b"}, {"bike_id": "c7864f8ea9869356626f7c1f2747b7e2", "type": "electric_scooter", "is_disabled": 0, "lat": 38.919075, "rental_uris": {"ios": "https://dc.lft.to/lastmile_qr_scan", "android": "https://dc.lft.to/lastmile_qr_scan"}, "is_reserved": 0, "fusion_lon": 0.0, "fusion_lat": 0.0, "lon": -77.0344585, "name": "c7864f8ea9869356626f7c1f2747b7e2"}, {"bike_id": "d7f681c340b9f084e4aadd692b33a617", "type": "electric_scooter", "is_disabled": 0, "lat": 38.84433583333333, "rental_uris": {"ios": "https://dc.lft.to/lastmile_qr_scan", "android": "https://dc.lft.to/lastmile_qr_scan"}, "is_reserved": 0, "fusion_lon": 0.0, "fusion_lat": 0.0, "lon": -76.99874066666666, "name": "d7f681c340b9f084e4aadd692b33a617"}, {"bike_id": "c9c421206ce681fadd3729d03bdfa187", "type": "electric_scooter", "is_disabled": 0, "lat": 38.95618416666667, "rental_uris": {"ios": "https://dc.lft.to/lastmile_qr_scan", "android": "https://dc.lft.to/lastmile_qr_scan"}, "is_reserved": 0, "fusion_lon": 0.0, "fusion_lat": 0.0, "lon": -77.02238016666666, "name": "c9c421206ce681fadd3729d03bdfa187"},