{"data": {"bikes": [{"name": "f385c059abfe1712703430c6f9f8b777", "fusion_lon": 0.0, "lat": 38.924396333333334, "is_reserved": 0, "type": "electric_scooter", "bike_id": "f385c059abfe1712703430c6f9f8b777", "is_disabled": 0, "rental_uris": {"android": "https://dc.lft.to/lastmile_qr_scan", "ios": "https://dc.lft.to/lastmile_qr_scan"}, "lon": -77.04250716666667, "fusion_lat": 0.0}, {"name": "094b000e3a4ca26cecdff34c7527bb5f", "fusion_lon": 0.0, "lat": 38.86698716666667, "is_reserved": 0, "type": "electric_scooter", "bike_id": "094b000e3a4ca26cecdff34c7527bb5f", "is_disabled": 0, "rental_uris": {"android": "https://dc.lft.to/lastmile_qr_scan", "ios": "https://dc.lft.to/lastmile_qr_scan"}, "lon": -76.98716533333334, "fusion_lat": 0.0}, {"name": "e1fe16cfa461353ca797010b19dff393", "fusion_lon": 0.0, "lat": 38.911127, "is_reserved": 0, "type": "electric_scooter", "bike_id": "e1fe16cfa461353ca797010b19dff393", "is_disabled": 0, "rental_uris": {"android": "https://dc.lft.to/lastmile_qr_scan", "ios": "https://dc.lft.to/lastmile_qr_scan"}, "lon": -77.00370983333333, "fusion_lat": 0.0}, {"name": "98f17c5297b7d6abdfdc83cbc53b10a1", "fusion_lon": 0.0, "lat": 38.947968, "is_reserved": 0, "type": "electric_scooter", "bike_id": "98f17c5297b7d6abdfdc83cbc53b10a1", "is_disabled": 0, "rental_uris": {"android": "https://dc.lft.to/lastmile_qr_scan", "ios": "https://dc.lft.to/lastmile_qr_scan"}, "lon": -77.08021466666666, "fusion_lat": 0.0}, {"name": "a538ad594d248c10b457a84dfa5b7448", "fusion_lon": 0.0, "lat": 38.91467033333333, "is_reserved": 0, "type": "electric_scooter", "bike_id": "a538ad594d248c10b457a84dfa5b7448", "is_disabled": 0, "rental_uris": {"android": "https://dc.lft.to/lastmile_qr_scan", "ios": "https://dc.lft.to/lastmile_qr_scan"}, "lon": -76.98412366666666, "fusion_lat": 0.0}, {"name": "8b634eb383ffda61ca6346c891e2174b", "fusion_lon": 0.0, "lat": 38.899531333333336, "is_reserved": 0, "type": "electric_scooter", "bike_id": "8b634eb383ffda61ca6346c891e2174b", "is_disabled": 0, "rental_uris": {"android": "https://dc.lft.to/lastmile_qr_scan", "ios": "https://dc.lft.to/lastmile_qr_scan"}, "lon": -77.01614533333333, "fusion_lat": 0.0}, {"name": "9f04fa3dc56c42c898de4a6384a9ed7b", "fusion_lon": 0.0, "lat": 38.918367333333336, "is_reserved": 0, "type": "electric_scooter", "bike_id": "9f04fa3dc56c42c898de4a6384a9ed7b", "is_disabled": 0, "rental_uris": {"android": "https://dc.lft.to/lastmile_qr_scan", "ios": "https://dc.lft.to/lastmile_qr_scan"}, "lon": -77.03179866666666, "fusion_lat": 0.0}, {"name": "f928dbb9a6eb56689aa267967ab318db", "fusion_lon": 0.0, "lat": 38.921382333333334, "is_reserved": 0, "type": "electric_scooter", "bike_id": "f928dbb9a6eb56689aa267967ab318db", "is_disabled": 0, "rental_uris": {"android": "https://dc.lft.to/lastmile_qr_scan", "ios": "https://dc.lft.to/lastmile_qr_scan"}, "lon": -76.99555883333333, "fusion_lat": 0.0}, {"name": "640435ddfe71051fb31245aa9ef3bc4f", "fusion_lon": 0.0, "lat": 38.91603883333333, "is_reserved": 0, "type": "electric_scooter", "bike_id": "640435ddfe71051fb31245aa9ef3bc4f", "is_disabled": 0, "rental_uris": {"android": "https://dc.lft.to/lastmile_qr_scan", "ios": "https://dc.lft.to/lastmile_qr_scan"}, "lon": -76.98371466666667, "fusion_lat": 0.0}, {"name": "732d3563c2e95a7f4280e6d3885ffbe5", "fusion_lon": 0.0, "lat": 38.862167166666666, "is_reserved": 0, "type": "electric_scooter", "bike_id": "732d3563c2e95a7f4280e6d3885ffbe5", "is_disabled": 0, "rental_uris": {"android": "https://dc.lft.to/lastmile_qr_scan", "ios": "https://dc.lft.to/lastmile_qr_scan"}, "lon": -76.994797, "fusion_lat": 0.0}, {"name": "956729fd2db7f43324a38814df2fb31f", "fusion_lon": 0.0, "lat": 38.878278, "is_reserved": 0, "type": "electric_scooter", "bike_id": "956729fd2db7f43324a38814df2fb31f", "is_disabled": 0, "rental_uris": {"android": "https://dc.lft.to/lastmile_qr_scan", "ios": "https://dc.lft.to/lastmile_qr_scan"}, "lon": -76.9631035, "fusion_lat": 0.0}, {"name": "839a8532b410becf072d01481f6491c9", "fusion_lon": 0.0, "lat": 38.87104766666667, "is_reserved": 0, "type": "electric_scooter", "bike_id": "839a8532b410becf072d01481f6491c9", "is_disabled": 0, "rental_uris": {"android": "https://dc.lft.to/lastmile_qr_scan", "ios": "https://dc.lft.to/lastmile_qr_scan"}, "lon": -76.96572966666666, "fusion_lat": 0.0}, {"name": "9ce985ef67d834cc15584140444b68f4", "fusion_lon": 0.0, "lat": 38.8665855, "is_reserved": 0, "type": "electric_scooter", "bike_id": "9ce985ef67d834cc15584140444b68f4", "is_disabled": 0, "rental_uris": {"android": "https://dc.lft.to/lastmile_qr_scan", "ios": "https://dc.lft.to/lastmile_qr_scan"}, "lon": -76.98885566666667, "fusion_lat": 0.0}, {"name": "0d75a5aaed47facdea122ff0cc4c8cf5", "fusion_lon": 0.0, "lat": 38.92968533333333, "is_reserved": 0, "type": "electric_scooter", "bike_id": "0d75a5aaed47facdea122ff0cc4c8cf5", "is_disabled": 0, "rental_uris": {"android": "https://dc.lft.to/lastmile_qr_scan", "ios": "https://dc.lft.to/lastmile_qr_scan"}, "lon": -77.0274825, "fusion_lat": 0.0}, {"name": "db9e7d537e6a04e7ed34ee090dbef145", "fusion_lon": 0.0, "lat": 38.935996833333334, "is_reserved": 0, "type": "electric_scooter", "bike_id": "db9e7d537e6a04e7ed34ee090dbef145", "is_disabled": 0, "rental_uris": {"android": "https://dc.lft.to/lastmile_qr_scan", "ios": "https://dc.lft.to/lastmile_qr_scan"}, "lon": -77.03548316666667, "fusion_lat": 0.0}, {"name": "9f101dce55b583cc17c13ceb37dde050", "fusion_lon": 0.0, "lat": 38.887343666666666, "is_reserved": 0, "type": "electric_scooter", "bike_id": "9f101dce55b583cc17c13ceb37dde050", "is_disabled": 0, "rental_uris": {"android": "https://dc.lft.to/lastmile_qr_scan", "ios": "https://dc.lft.to/lastmile_qr_scan"}, "lon": -77.02821266666666, "fusion_lat": 0.0}, {"name": "4d602970ca7e3e8da6cf2c1e6e48aa2c", "fusion_lon": 0.0, "lat": 39.05284533333333, "is_reserved": 0, "type": "electric_bike", "bike_id": "4d602970ca7e3e8da6cf2c1e6e48aa2c", "is_disabled": 0, "rental_uris": {"android": "https://dc.lft.to/lastmile_qr_scan", "ios": "https://dc.lft.to/lastmile_qr_scan"}, "lon": -77.0806485, "fusion_lat": 0.0}, {"name": "a3bf40b7f7547c610d1120d9eba6cb9f", "fusion_lon": 0.0, "lat": 38.922117, "is_reserved": 0, "type": "electric_bike", "bike_id": "a3bf40b7f7547c610d1120d9eba6cb9f", "is_disabled": 0, "rental_uris": {"android": "https://dc.lft.to/lastmile_qr_scan", "ios": "https://dc.lft.to/lastmile_qr_scan"}, "lon": -76.98796983333334, "fusion_lat": 0.0}, {"name": "3a02b4cb8d7196430589854445a2e8af", "fusion_lon": 0.0, "lat": 38.9203505, "is_reserved": 0, "type": "electric_scooter", "bike_id": "3a02b4cb8d7196430589854445a2e8af", "is_disabled": 0, "rental_uris": {"android": "https://dc.lft.to/lastmile_qr_scan", "ios": "https://dc.lft.to/lastmile_qr_scan"}, "lon": -77.01004433333334, "fusion_lat": 0.0}, {"name": "c12de936aebe09e04fdc80c698c184a2", "fusion_lon": 0.0, "lat": 38.860925, "is_reserved": 0, "type": "electric_bike", "bike_id": "c12de936aebe09e04fdc80c698c184a2", "is_disabled": 0, "rental_uris": {"android": "https://dc.lft.to/lastmile_qr_scan", "ios": "https://dc.lft.to/lastmile_qr_scan"}, "lon": -77.09592516666666, "fusion_lat": 0.0}, {"name": "1c6ac60e273cf13489371bf7ead06398", "fusion_lon": 0.0, "lat": 38.888159, "is_reserved": 0, "type": "electric_scooter", "bike_id": "1c6ac60e273cf13489371bf7ead06398", "is_disabled": 0, "rental_uris": {"android": "https://dc.lft.to/lastmile_qr_scan", "ios": "https://dc.lft.to/lastmile_qr_scan"}, "lon": -76.93347716666666, "fusion_lat": 0.0}, {"name": "e0547fef1599b0f39a093111eae3ffcb", "fusion_lon": 0.0, "lat": 38.91842066666667, "is_reserved": 0, "type": "electric_scooter", "bike_id": "e0547fef1599b0f39a093111eae3ffcb", "is_disabled": 0, "rental_uris": {"android": "https://dc.lft.to/lastmile_qr_scan", "ios": "https://dc.lft.to/lastmile_qr_scan"}, "lon": -77.031776, "fusion_lat": 0.0}, {"name": "b8182b4c11cc234820a2173c8ad7d244", "fusion_lon": 0.0, "lat": 38.903785166666665, "is_reserved": 0, "type": "electric_scooter", "bike_id": "b8182b4c11cc234820a2173c8ad7d244", "is_disabled": 0, "rental_uris": {"android": "https://dc.lft.to/lastmile_qr_scan", "ios": "https://dc.lft.to/lastmile_qr_scan"}, "lon": -77.0403195, "fusion_lat": 0.0}, {"name": "3ae8f79230f9ab0e03af06b03e12a839", "fusion_lon": 0.0, "lat": 38.897422166666665, "is_reserved": 0, "type": "electric_scooter", "bike_id": "3ae8f79230f9ab0e03af06b03e12a839", "is_disabled": 0, "rental_uris": {"android": "https://dc.lft.to/lastmile_qr_scan", "ios": "https://dc.lft.to/lastmile_qr_scan"}, "lon": -77.04288083333333, "fusion_lat": 0.0}, {"name": "4f413f862d14dcc27b3b8b97dae6eb27", "fusion_lon": 0.0, "lat": 38.88498766666667, "is_reserved": 0, "type": "electric_scooter", "bike_id": "4f413f862d14dcc27b3b8b97dae6eb27", "is_disabled": 0, "rental_uris": {"android": "https://dc.lft.to/lastmile_qr_scan", "ios": "https://dc.lft.to/lastmile_qr_scan"}, "lon": -77.02093233333333, "fusion_lat": 0.0}, {"name": "5d713e124b663f346fa8650bebd08436", "fusion_lon": 0.0, "lat": 38.92472683333333, "is_reserved": 0, "type": "electric_scooter", "bike_id": "5d713e124b663f346fa8650bebd08436", "is_disabled": 0, "rental_uris": {"android": "https://dc.lft.to/lastmile_qr_scan", "ios": "https://dc.lft.to/lastmile_qr_scan"}, "lon": -77.02203933333334, "fusion_lat": 0.0}, {"name": "1d47be73647df53c5fece1f9b2aa69b7", "fusion_lon": 0.0, "lat": 38.9141545, "is_reserved": 0, "type": "electric_scooter", "bike_id": "1d47be73647df53c5fece1f9b2aa69b7", "is_disabled": 0, "rental_uris": {"android": "https://dc.lft.to/lastmile_qr_scan", "ios": "https://dc.lft.to/lastmile_qr_scan"}, "lon": -77.0222295, "fusion_lat": 0.0}, {"name": "36d3e1e88f194871f8c4a7bab872966c", "fusion_lon": 0.0, "lat": 38.896238333333336, "is_reserved": 0, "type": "electric_scooter", "bike_id": "36d3e1e88f194871f8c4a7bab872966c", "is_disabled": 0, "rental_uris": {"android": "https://dc.lft.to/lastmile_qr_scan", "ios": "https://dc.lft.to/lastmile_qr_scan"}, "lon": -77.028502, "fusion_lat": 0.0}, {"name": "2f16b682469b817b1e18a785f65e0c09", "fusion_lon": 0.0, "lat": 38.90366516666667, "is_reserved": 0, "type": "electric_scooter", "bike_id": "2f16b682469b817b1e18a785f65e0c09", "is_disabled": 0, "rental_uris": {"android": "https://dc.lft.to/lastmile_qr_scan", "ios": "https://dc.lft.to/lastmile_qr_scan"}, "lon": -77.04635966666666, "fusion_lat": 0.0}, {"name": "9033ef2e48683f3258aab2080edb96d3", "fusion_lon": 0.0, "lat": 38.92055633333333, "is_reserved": 0, "type": "electric_scooter", "bike_id": "9033ef2e48683f3258aab2080edb96d3", "is_disabled": 0, "rental_uris": {"android": "https://dc.lft.to/lastmile_qr_scan", "ios": "https://dc.lft.to/lastmile_qr_scan"}, "lon": -77.01670166666666, "fusion_lat": 0.0}, {"name": "7f2e272e53e8770a888c6922b349347c", "fusion_lon": 0.0, "lat": 38.917913666666664, "is_reserved": 0, "type": "electric_scooter", "bike_id": "7f2e272e53e8770a888c6922b349347c", "is_disabled": 0, "rental_uris": {"android": "https://dc.lft.to/lastmile_qr_scan", "ios": "https://dc.lft.to/lastmile_qr_scan"}, "lon": -77.04211983333333, "fusion_lat": 0.0}, {"name": "ad8a331e8b5363e4a77b3cc458799315", "fusion_lon": 0.0, "lat": 38.928996166666664, "is_reserved": 0, "type": "electric_scooter", "bike_id": "ad8a331e8b5363e4a77b3cc458799315", "is_disabled": 0, "rental_uris": {"android": "https://dc.lft.to/lastmile_qr_scan", "ios": "https://dc.lft.to/lastmile_qr_scan"}, "lon": -77.01644716666667, "fusion_lat": 0.0}, {"name": "acb7baea8aca11f53a4c5f6d222eb54e", "fusion_lon": 0.0, "lat": 38.900225, "is_reserved": 0, "type": "electric_scooter", "bike_id": "acb7baea8aca11f53a4c5f6d222eb54e", "is_disabled": 0, "rental_uris": {"android": "https://dc.lft.to/lastmile_qr_scan", "ios": "https://dc.lft.to/lastmile_qr_scan"}, "lon": -77.00690983333334, "fusion_lat": 0.0}, {"name": "8ebf9977486fc08f3696b104ce301c29", "fusion_lon": 0.0, "lat": 38.900777833333336, "is_reserved": 0, "type": "electric_scooter", "bike_id": "8ebf9977486fc08f3696b104ce301c29", "is_disabled": 0, "rental_uris": {"android": "https://dc.lft.to/lastmile_qr_scan", "ios": "https://dc.lft.to/lastmile_qr_scan"}, "lon": -77.0475945, "fusion_lat": 0.0}, {"name": "80a0cc52253a12c81a0c92cc01731621", "fusion_lon": 0.0, "lat": 38.96475183333333, "is_reserved": 0, "type": "electric_bike", "bike_id": "80a0cc52253a12c81a0c92cc01731621", "is_disabled": 0, "rental_uris": {"android": "https://dc.lft.to/lastmile_qr_scan", "ios": "https://dc.lft.to/lastmile_qr_scan"}, "lon": -77.0355815, "fusion_lat": 0.0}, {"name": "5a43953e23a8529647b6864bf92e9b6e", "fusion_lon": 0.0, "lat": 38.91379233333333, "is_reserved": 0, "type": "electric_scooter", "bike_id": "5a43953e23a8529647b6864bf92e9b6e", "is_disabled": 0, "rental_uris": {"android": "https://dc.lft.to/lastmile_qr_scan", "ios": "https://dc.lft.to/lastmile_qr_scan"}, "lon": -77.041377, "fusion_lat": 0.0}, {"name": "dd20ed8c48206ee56b0ef05dd53c40e2", "fusion_lon": 0.0, "lat": 38.8727755, "is_reserved": 0, "type": "electric_bike", "bike_id": "dd20ed8c48206ee56b0ef05dd53c40e2", "is_disabled": 0, "rental_uris": {"android": "https://dc.lft.to/lastmile_qr_scan", "ios": "https://dc.lft.to/lastmile_qr_scan"}, "lon": -77.23328983333333, "fusion_lat": 0.0}, {"name": "287c5cc7f8a8734cf7b12191f7672b3a", "fusion_lon": 0.0, "lat": 38.90828716666667, "is_reserved": 0, "type": "electric_scooter", "bike_id": "287c5cc7f8a8734cf7b12191f7672b3a", "is_disabled": 0, "rental_uris": {"android": "https://dc.lft.to/lastmile_qr_scan", "ios": "https://dc.lft.to/lastmile_qr_scan"}, "lon": -76.94161566666666, "fusion_lat": 0.0}, {"name": "b96799d8e7db795ca720536c53a136f6", "fusion_lon": 0.0, "lat": 38.9017245, "is_reserved": 0, "type": "electric_scooter", "bike_id": "b96799d8e7db795ca720536c53a136f6", "is_disabled": 0, "rental_uris": {"android": "https://dc.lft.to/lastmile_qr_scan", "ios": "https://dc.lft.to/lastmile_qr_scan"}, "lon": -77.06019166666667, "fusion_lat": 0.0}, {"name": "faf7db2e2bf416700f94995bab350d34", "fusion_lon": 0.0, "lat": 38.903990666666665, "is_reserved": 0, "type": "electric_scooter", "bike_id": "faf7db2e2bf416700f94995bab350d34", "is_disabled": 0, "rental_uris": {"android": "https://dc.lft.to/lastmile_qr_scan", "ios": "https://dc.lft.to/lastmile_qr_scan"}, "lon": -77.0383825, "fusion_lat": 0.0}, {"name": "1c2210edc2d9c59821215ad601fb23bd", "fusion_lon": 0.0, "lat": 38.90506333333333, "is_reserved": 0, "type": "electric_scooter", "bike_id": "1c2210edc2d9c59821215ad601fb23bd", "is_disabled": 0, "rental_uris": {"android": "https://dc.lft.to/lastmile_qr_scan", "ios": "https://dc.lft.to/lastmile_qr_scan"}, "lon": -77.00679933333333, "fusion_lat": 0.0}, {"name": "2f228bdc6964287448865d0237cb31c6", "fusion_lon": 0.0, "lat": 38.92726783333333, "is_reserved": 0, "type": "electric_scooter", "bike_id": "2f228bdc6964287448865d0237cb31c6", "is_disabled": 0, "rental_uris": {"android": "https://dc.lft.to/lastmile_qr_scan", "ios": "https://dc.lft.to/lastmile_qr_scan"}, "lon": -77.03994716666666, "fusion_lat": 0.0}, {"name": "78982f2a5ba2fdbfcfb49cedcf62f844", "fusion_lon": 0.0, "lat": 38.884367833333336, "is_reserved": 0, "type": "electric_scooter", "bike_id": "78982f2a5ba2fdbfcfb49cedcf62f844", "is_disabled": 0, "rental_uris": {"android": "https://dc.lft.to/lastmile_qr_scan", "ios": "https://dc.lft.to/lastmile_qr_scan"}, "lon": -77.02967483333333, "fusion_lat": 0.0}, {"name": "9f71ab17b3f31926ddb86583edf9778c", "fusion_lon": 0.0, "lat": 38.92344516666667, "is_reserved": 0, "type": "electric_scooter", "bike_id": "9f71ab17b3f31926ddb86583edf9778c", "is_disabled": 0, "rental_uris": {"android": "https://dc.lft.to/lastmile_qr_scan", "ios": "https://dc.lft.to/lastmile_qr_scan"}, "lon": -77.05083383333333, "fusion_lat": 0.0}, {"name": "f09c7e23b864557004904d98b5212cc8", "fusion_lon": 0.0, "lat": 38.98364433333333, "is_reserved": 0, "type": "electric_bike", "bike_id": "f09c7e23b864557004904d98b5212cc8", "is_disabled": 0, "rental_uris": {"android": "https://dc.lft.to/lastmile_qr_scan", "ios": "https://dc.lft.to/lastmile_qr_scan"}, "lon": -76.97211366666667, "fusion_lat": 0.0}, {"name": "b20182f5157366c253e1feaa1338bdd5", "fusion_lon": 0.0, "lat": 38.924170833333335, "is_reserved": 0, "type": "electric_scooter", "bike_id": "b20182f5157366c253e1feaa1338bdd5", "is_disabled": 0, "rental_uris": {"android": "https://dc.lft.to/lastmile_qr_scan", "ios": "https://dc.lft.to/lastmile_qr_scan"}, "lon": -77.0505795, "fusion_lat": 0.0}, {"name": "91139922a2e9a335aa1f4f7474a5917b", "fusion_lon": 0.0, "lat": 38.862469, "is_reserved": 0, "type": "electric_scooter", "bike_id": "91139922a2e9a335aa1f4f7474a5917b", "is_disabled": 0, "rental_uris": {"android": "https://dc.lft.to/lastmile_qr_scan", "ios": "https://dc.lft.to/lastmile_qr_scan"}, "lon": -76.99495383333333, "fusion_lat": 0.0}, {"name": "08160ea56330b148928a46f9466b4a83", "fusion_lon": 0.0, "lat": 38.93676933333333, "is_reserved": 0, "type": "electric_scooter", "bike_id": "08160ea56330b148928a46f9466b4a83", "is_disabled": 0, "rental_uris": {"android": "https://dc.lft.to/lastmile_qr_scan", "ios": "https://dc.lft.to/lastmile_qr_scan"}, "lon": -77.03562616666666, "fusion_lat": 0.0}, {"name": "671438af6620cc04fddac582263cdc84", "fusion_lon": 0.0, "lat": 38.90229683333333, "is_reserved": 0, "type": "electric_scooter", "bike_id": "671438af6620cc04fddac582263cdc84", "is_disabled": 0, "rental_uris": {"android": "https://dc.lft.to/lastmile_qr_scan", "ios": "https://dc.lft.to/lastmile_qr_scan"}, "lon": -77.04400066666666, "fusion_lat": 0.0}, {"name": "49f0f34d749b52afe8f024a6525b9bb2", "fusion_lon": 0.0, "lat": 38.95751583333333, "is_reserved": 0, "type": "electric_scooter", "bike_id": "49f0f34d749b52afe8f024a6525b9bb2", "is_disabled": 0, "rental_uris": {"android": "https://dc.lft.to/lastmile_qr_scan", "ios": "https://dc.lft.to/lastmile_qr_scan"}, "lon": -77.0206825, "fusion_lat": 0.0}, {"name": "394d95733da503dcd62f003f8fa7b641", "fusion_lon": 0.0, "lat": 38.8316255, "is_reserved": 0, "type": "electric_scooter", "bike_id": "394d95733da503dcd62f003f8fa7b641", "is_disabled": 0, "rental_uris": {"android": "https://dc.lft.to/lastmile_qr_scan", "ios": "https://dc.lft.to/lastmile_qr_scan"}, "lon": -77.05116833333334, "fusion_lat": 0.0}, {"name": "bed844e3c69878e136706f4a3c18d9e1", "fusion_lon": 0.0, "lat": 38.9174905, "is_reserved": 0, "type": "electric_scooter", "bike_id": "bed844e3c69878e136706f4a3c18d9e1", "is_disabled": 0, "rental_uris": {"android": "https://dc.lft.to/lastmile_qr_scan", "ios": "https://dc.lft.to/lastmile_qr_scan"}, "lon": -77.01465216666666, "fusion_lat": 0.0}, {"name": "9d86a27381ac5cbcd0355a7955128b15", "fusion_lon": 0.0, "lat": 38.9182055, "is_reserved": 0, "type": "electric_scooter", "bike_id": "9d86a27381ac5cbcd0355a7955128b15", "is_disabled": 0, "rental_uris": {"android": "https://dc.lft.to/lastmile_qr_scan", "ios": "https://dc.lft.to/lastmile_qr_scan"}, "lon": -77.02702366666666, "fusion_lat": 0.0}, {"name": "fbc2daf4b68ba1638b82edc8baf0c36f", "fusion_lon": 0.0, "lat": 38.897244, "is_reserved": 0, "type": "electric_scooter", "bike_id": "fbc2daf4b68ba1638b82edc8baf0c36f", "is_disabled": 0, "rental_uris": {"android": "https://dc.lft.to/lastmile_qr_scan", "ios": "https://dc.lft.to/lastmile_qr_scan"}, "lon": -76.97348516666666, "fusion_lat": 0.0}, {"name": "52936296c31ea3a9fb86ed294dc8d6a2", "fusion_lon": 0.0, "lat": 38.880619, "is_reserved": 0, "type": "electric_bike", "bike_id": "52936296c31ea3a9fb86ed294dc8d6a2", "is_disabled": 0, "rental_uris": {"android": "https://dc.lft.to/lastmile_qr_scan", "ios": "https://dc.lft.to/lastmile_qr_scan"}, "lon": -76.96234383333334, "fusion_lat": 0.0}, {"name": "a49ec921dd64230f1c6f020618a48b3e", "fusion_lon": 0.0, "lat": 38.9060645, "is_reserved": 0, "type": "electric_scooter", "bike_id": "a49ec921dd64230f1c6f020618a48b3e", "is_disabled": 0, "rental_uris": {"android": "https://dc.lft.to/lastmile_qr_scan", "ios": "https://dc.lft.to/lastmile_qr_scan"}, "lon": -77.05688566666667, "fusion_lat": 0.0}, {"name": "b148723044626329c4f2b89fe371d3c2", "fusion_lon": 0.0, "lat": 38.893230333333335, "is_reserved": 0, "type": "electric_scooter", "bike_id": "b148723044626329c4f2b89fe371d3c2", "is_disabled": 0, "rental_uris": {"android": "https://dc.lft.to/lastmile_qr_scan", "ios": "https://dc.lft.to/lastmile_qr_scan"}, "lon": -77.0487595, "fusion_lat": 0.0}, {"name": "8fcd2b49bc95a9cd7046030b6eab9b9f", "fusion_lon": 0.0, "lat": 38.86953466666667, "is_reserved": 0, "type": "electric_scooter", "bike_id": "8fcd2b49bc95a9cd7046030b6eab9b9f", "is_disabled": 0, "rental_uris": {"android": "https://dc.lft.to/lastmile_qr_scan", "ios": "https://dc.lft.to/lastmile_qr_scan"}, "lon": -76.981746, "fusion_lat": 0.0}, {"name": "5c5f7782e2a99c72fa84103a9d9886ae", "fusion_lon": 0.0, "lat": 38.9240285, "is_reserved": 0, "type": "electric_scooter", "bike_id": "5c5f7782e2a99c72fa84103a9d9886ae", "is_disabled": 0, "rental_uris": {"android": "https://dc.lft.to/lastmile_qr_scan", "ios": "https://dc.lft.to/lastmile_qr_scan"}, "lon": -77.02143033333333, "fusion_lat": 0.0}, {"name": "f55caf577cd9bc4bfbe73081e55b542c", "fusion_lon": 0.0, "lat": 38.91626383333333, "is_reserved": 0, "type": "electric_scooter", "bike_id": "f55caf577cd9bc4bfbe73081e55b542c", "is_disabled": 0, "rental_uris": {"android": "https://dc.lft.to/lastmile_qr_scan", "ios": "https://dc.lft.to/lastmile_qr_scan"}, "lon": -77.048534, "fusion_lat": 0.0}, {"name": "4e2f773a41ae3f74b09e4efc43f83a30", "fusion_lon": 0.0, "lat": 38.8729085, "is_reserved": 0, "type": "electric_scooter", "bike_id": "4e2f773a41ae3f74b09e4efc43f83a30", "is_disabled": 0, "rental_uris": {"android": "https://dc.lft.to/lastmile_qr_scan", "ios": "https://dc.lft.to/lastmile_qr_scan"}, "lon": -77.00984166666667, "fusion_lat": 0.0}, {"name": "ea3502c0ad3db9663e5666bb27a2203a", "fusion_lon": 0.0, "lat": 38.876409333333335, "is_reserved": 0, "type": "electric_scooter", "bike_id": "ea3502c0ad3db9663e5666bb27a2203a", "is_disabled": 0, "rental_uris": {"android": "https://dc.lft.to/lastmile_qr_scan", "ios": "https://dc.lft.to/lastmile_qr_scan"}, "lon": -77.000777, "fusion_lat": 0.0}, {"name": "23af7a16263fe710a44edadd07dadd62", "fusion_lon": 0.0, "lat": 38.91529233333333, "is_reserved": 0, "type": "electric_scooter", "bike_id": "23af7a16263fe710a44edadd07dadd62", "is_disabled": 0, "rental_uris": {"android": "https://dc.lft.to/lastmile_qr_scan", "ios": "https://dc.lft.to/lastmile_qr_scan"}, "lon": -77.03858816666667, "fusion_lat": 0.0}, {"name": "91c3f7611c54451c9cd83e8c1d91131c", "fusion_lon": 0.0, "lat": 38.89824266666667, "is_reserved": 0, "type": "electric_scooter", "bike_id": "91c3f7611c54451c9cd83e8c1d91131c", "is_disabled": 0, "rental_uris": {"android": "https://dc.lft.to/lastmile_qr_scan", "ios": "https://dc.lft.to/lastmile_qr_scan"}, "lon": -77.033315, "fusion_lat": 0.0}, {"name": "f0751fdbb616e9120ce3b6b2b24eb025", "fusion_lon": 0.0, "lat": 38.923183333333334, "is_reserved": 0, "type": "electric_scooter", "bike_id": "f0751fdbb616e9120ce3b6b2b24eb025", "is_disabled": 0, "rental_uris": {"android": "https://dc.lft.to/lastmile_qr_scan", "ios": "https://dc.lft.to/lastmile_qr_scan"}, "lon": -77.027501, "fusion_lat": 0.0}, {"name": "055631f051e1f60f91084157ff6d7ee2", "fusion_lon": 0.0, "lat": 38.9420675, "is_reserved": 0, "type": "electric_scooter", "bike_id": "055631f051e1f60f91084157ff6d7ee2", "is_disabled": 0, "rental_uris": {"android": "https://dc.lft.to/lastmile_qr_scan", "ios": "https://dc.lft.to/lastmile_qr_scan"}, "lon": -77.02513683333333, "fusion_lat": 0.0}, {"name": "1582998717699d80202a941b5dc98c4c", "fusion_lon": 0.0, "lat": 38.90392883333333, "is_reserved": 0, "type": "electric_scooter", "bike_id": "1582998717699d80202a941b5dc98c4c", "is_disabled": 0, "rental_uris": {"android": "https://dc.lft.to/lastmile_qr_scan", "ios": "https://dc.lft.to/lastmile_qr_scan"}, "lon": -77.03828766666666, "fusion_lat": 0.0}, {"name": "968e7ee538aa5af210abd3bcb00b0a3f", "fusion_lon": 0.0, "lat": 38.8635915, "is_reserved": 0, "type": "electric_scooter", "bike_id": "968e7ee538aa5af210abd3bcb00b0a3f", "is_disabled": 0, "rental_uris": {"android": "https://dc.lft.to/lastmile_qr_scan", "ios": "https://dc.lft.to/lastmile_qr_scan"}, "lon": -76.98702083333333, "fusion_lat": 0.0}, {"name": "e93877fafd1be2b02496446b3b1bc74f", "fusion_lon": 0.0, "lat": 38.915199666666666, "is_reserved": 0, "type": "electric_scooter", "bike_id": "e93877fafd1be2b02496446b3b1bc74f", "is_disabled": 0, "rental_uris": {"android": "https://dc.lft.to/lastmile_qr_scan", "ios": "https://dc.lft.to/lastmile_qr_scan"}, "lon": -77.03187216666667, "fusion_lat": 0.0}, {"name": "bb8676b9625f09d98231e1a5185435d3", "fusion_lon": 0.0, "lat": 38.910204, "is_reserved": 0, "type": "electric_bike", "bike_id": "bb8676b9625f09d98231e1a5185435d3", "is_disabled": 0, "rental_uris": {"android": "https://dc.lft.to/lastmile_qr_scan", "ios": "https://dc.lft.to/lastmile_qr_scan"}, "lon": -77.2280295, "fusion_lat": 0.0}, {"name": "2ac907bdacbdde37cf7120c9ac5b9e48", "fusion_lon": 0.0, "lat": 38.872838333333334, "is_reserved": 0, "type": "electric_bike", "bike_id": "2ac907bdacbdde37cf7120c9ac5b9e48", "is_disabled": 0, "rental_uris": {"android": "https://dc.lft.to/lastmile_qr_scan", "ios": "https://dc.lft.to/lastmile_qr_scan"}, "lon": -77.23320716666667, "fusion_lat": 0.0}, {"name": "215f82bbfd94e238e7899bcd869e4a6f", "fusion_lon": 0.0, "lat": 38.984323333333336, "is_reserved": 0, "type": "electric_scooter", "bike_id": "215f82bbfd94e238e7899bcd869e4a6f", "is_disabled": 0, "rental_uris": {"android": "https://dc.lft.to/lastmile_qr_scan", "ios": "https://dc.lft.to/lastmile_qr_scan"}, "lon": -77.026742, "fusion_lat": 0.0}, {"name": "6d8c2cb3e9e5e2e9b987b1fe07988426", "fusion_lon": 0.0, "lat": 38.904074, "is_reserved": 0, "type": "electric_scooter", "bike_id": "6d8c2cb3e9e5e2e9b987b1fe07988426", "is_disabled": 0, "rental_uris": {"android": "https://dc.lft.to/lastmile_qr_scan", "ios": "https://dc.lft.to/lastmile_qr_scan"}, "lon": -77.02642516666667, "fusion_lat": 0.0}, {"name": "ef7c2f9c3af372159357d5bd028c7471", "fusion_lon": 0.0, "lat": 38.894828, "is_reserved": 0, "type": "electric_scooter", "bike_id": "ef7c2f9c3af372159357d5bd028c7471", "is_disabled": 0, "rental_uris": {"android": "https://dc.lft.to/lastmile_qr_scan", "ios": "https://dc.lft.to/lastmile_qr_scan"}, "lon": -77.0465475, "fusion_lat": 0.0}, {"name": "27a2f81eca234c9fe2ae4f93cd0680e5", "fusion_lon": 0.0, "lat": 38.9112215, "is_reserved": 0, "type": "electric_scooter", "bike_id": "27a2f81eca234c9fe2ae4f93cd0680e5", "is_disabled": 0, "rental_uris": {"android": "https://dc.lft.to/lastmile_qr_scan", "ios": "https://dc.lft.to/lastmile_qr_scan"}, "lon": -77.0223925, "fusion_lat": 0.0}, {"name": "7fcf23125d92d502b1bb780b215a1235", "fusion_lon": 0.0, "lat": 38.8922605, "is_reserved": 0, "type": "electric_scooter", "bike_id": "7fcf23125d92d502b1bb780b215a1235", "is_disabled": 0, "rental_uris": {"android": "https://dc.lft.to/lastmile_qr_scan", "ios": "https://dc.lft.to/lastmile_qr_scan"}, "lon": -77.04869033333334, "fusion_lat": 0.0}, {"name": "47840bd5fae2e06916d07e49fdf52771", "fusion_lon": 0.0, "lat": 38.89246416666667, "is_reserved": 0, "type": "electric_scooter", "bike_id": "47840bd5fae2e06916d07e49fdf52771", "is_disabled": 0, "rental_uris": {"android": "https://dc.lft.to/lastmile_qr_scan", "ios": "https://dc.lft.to/lastmile_qr_scan"}, "lon": -77.02414516666667, "fusion_lat": 0.0}, {"name": "71c25f668b1d727436af09ec89bdaac8", "fusion_lon": 0.0, "lat": 38.87834466666666, "is_reserved": 0, "type": "electric_scooter", "bike_id": "71c25f668b1d727436af09ec89bdaac8", "is_disabled": 0, "rental_uris": {"android": "https://dc.lft.to/lastmile_qr_scan", "ios": "https://dc.lft.to/lastmile_qr_scan"}, "lon": -77.015981, "fusion_lat": 0.0}, {"name": "30801da3b37ba5323d34bf7fa5a4cb37", "fusion_lon": 0.0, "lat": 38.902608, "is_reserved": 0, "type": "electric_scooter", "bike_id": "30801da3b37ba5323d34bf7fa5a4cb37", "is_disabled": 0, "rental_uris": {"android": "https://dc.lft.to/lastmile_qr_scan", "ios": "https://dc.lft.to/lastmile_qr_scan"}, "lon": -77.04850783333333, "fusion_lat": 0.0}, {"name": "a027ca7e806448c4be6ad2a6b6926b89", "fusion_lon": 0.0, "lat": 38.907616166666664, "is_reserved": 0, "type": "electric_scooter", "bike_id": "a027ca7e806448c4be6ad2a6b6926b89", "is_disabled": 0, "rental_uris": {"android": "https://dc.lft.to/lastmile_qr_scan", "ios": "https://dc.lft.to/lastmile_qr_scan"}, "lon": -77.02597516666667, "fusion_lat": 0.0}, {"name": "162bc6db63d58780a28aac587dd394db", "fusion_lon": 0.0, "lat": 38.92040183333334, "is_reserved": 0, "type": "electric_scooter", "bike_id": "162bc6db63d58780a28aac587dd394db", "is_disabled": 0, "rental_uris": {"android": "https://dc.lft.to/lastmile_qr_scan", "ios": "https://dc.lft.to/lastmile_qr_scan"}, "lon": -77.02585716666667, "fusion_lat": 0.0}, {"name": "17624a3d88694052ed9cb705a21ea211", "fusion_lon": 0.0, "lat": 38.893010333333336, "is_reserved": 0, "type": "electric_scooter", "bike_id": "17624a3d88694052ed9cb705a21ea211", "is_disabled": 0, "rental_uris": {"android": "https://dc.lft.to/lastmile_qr_scan", "ios": "https://dc.lft.to/lastmile_qr_scan"}, "lon": -76.93928583333333, "fusion_lat": 0.0}, {"name": "9bee7ce548c10a210b036be6716e8f87", "fusion_lon": 0.0, "lat": 38.8722845, "is_reserved": 0, "type": "electric_scooter", "bike_id": "9bee7ce548c10a210b036be6716e8f87", "is_disabled": 0, "rental_uris": {"android": "https://dc.lft.to/lastmile_qr_scan", "ios": "https://dc.lft.to/lastmile_qr_scan"}, "lon": -77.01165083333333, "fusion_lat": 0.0}, {"name": "fd549b0baeee5c13e0f70e4ec50374df", "fusion_lon": 0.0, "lat": 38.902514333333336, "is_reserved": 0, "type": "electric_scooter", "bike_id": "fd549b0baeee5c13e0f70e4ec50374df", "is_disabled": 0, "rental_uris": {"android": "https://dc.lft.to/lastmile_qr_scan", "ios": "https://dc.lft.to/lastmile_qr_scan"}, "lon": -77.0175625, "fusion_lat": 0.0}, {"name": "4a7f051be169d63f3e965f3554dd2320", "fusion_lon": 0.0, "lat": 38.921601, "is_reserved": 0, "type": "electric_scooter", "bike_id": "4a7f051be169d63f3e965f3554dd2320", "is_disabled": 0, "rental_uris": {"android": "https://dc.lft.to/lastmile_qr_scan", "ios": "https://dc.lft.to/lastmile_qr_scan"}, "lon": -77.03458233333333, "fusion_lat": 0.0}, {"name": "3fb3e8aa0a263809f9fe2051d563d64e", "fusion_lon": 0.0, "lat": 38.92883333333333, "is_reserved": 0, "type": "electric_scooter", "bike_id": "3fb3e8aa0a263809f9fe2051d563d64e", "is_disabled": 0, "rental_uris": {"android": "https://dc.lft.to/lastmile_qr_scan", "ios": "https://dc.lft.to/lastmile_qr_scan"}, "lon": -77.04231616666667, "fusion_lat": 0.0}, {"name": "07b7e9bc5bca1de337783698f1da6482", "fusion_lon": 0.0, "lat": 38.902576333333336, "is_reserved": 0, "type": "electric_scooter", "bike_id": "07b7e9bc5bca1de337783698f1da6482", "is_disabled": 0, "rental_uris": {"android": "https://dc.lft.to/lastmile_qr_scan", "ios": "https://dc.lft.to/lastmile_qr_scan"}, "lon": -77.01756066666667, "fusion_lat": 0.0}, {"name": "63c14cc3a861928e4406a0703aa969e3", "fusion_lon": 0.0, "lat": 38.900165666666666, "is_reserved": 0, "type": "electric_scooter", "bike_id": "63c14cc3a861928e4406a0703aa969e3", "is_disabled": 0, "rental_uris": {"android": "https://dc.lft.to/lastmile_qr_scan", "ios": "https://dc.lft.to/lastmile_qr_scan"}, "lon": -77.00146116666667, "fusion_lat": 0.0}, {"name": "f8c995c2c012ffa1eac95fe7fd40fc21", "fusion_lon": 0.0, "lat": 38.956335, "is_reserved": 0, "type": "electric_bike", "bike_id": "f8c995c2c012ffa1eac95fe7fd40fc21", "is_disabled": 0, "rental_uris": {"android": "https://dc.lft.to/lastmile_qr_scan", "ios": "https://dc.lft.to/lastmile_qr_scan"}, "lon": -76.9387235, "fusion_lat": 0.0}, {"name": "0df84cc716cbe62ddd120e924de4eef0", "fusion_lon": 0.0, "lat": 38.918770333333335, "is_reserved": 0, "type": "electric_scooter", "bike_id": "0df84cc716cbe62ddd120e924de4eef0", "is_disabled": 0, "rental_uris": {"android": "https://dc.lft.to/lastmile_qr_scan", "ios": "https://dc.lft.to/lastmile_qr_scan"}, "lon": -77.047597, "fusion_lat": 0.0}, {"name": "bdee1da454f5fe2f740277730d2b58ec", "fusion_lon": 0.0, "lat": 38.896161, "is_reserved": 0, "type": "electric_scooter", "bike_id": "bdee1da454f5fe2f740277730d2b58ec", "is_disabled": 0, "rental_uris": {"android": "https://dc.lft.to/lastmile_qr_scan", "ios": "https://dc.lft.to/lastmile_qr_scan"}, "lon": -77.04560966666666, "fusion_lat": 0.0}, {"name": "4ce9f9c0e081de2d4526082b55b77196", "fusion_lon": 0.0, "lat": 38.925085, "is_reserved": 0, "type": "electric_scooter", "bike_id": "4ce9f9c0e081de2d4526082b55b77196", "is_disabled": 0, "rental_uris": {"android": "https://dc.lft.to/lastmile_qr_scan", "ios": "https://dc.lft.to/lastmile_qr_scan"}, "lon": -77.03881483333333, "fusion_lat": 0.0}, {"name": "03d0e6cfd37fa972e6fa5463d448688e", "fusion_lon": 0.0, "lat": 38.905992499999996, "is_reserved": 0, "type": "electric_scooter", "bike_id": "03d0e6cfd37fa972e6fa5463d448688e", "is_disabled": 0, "rental_uris": {"android": "https://dc.lft.to/lastmile_qr_scan", "ios": "https://dc.lft.to/lastmile_qr_scan"}, "lon": -77.02195066666667, "fusion_lat": 0.0}, {"name": "cf655c4bed69ddfd1a2c356af572e031", "fusion_lon": 0.0, "lat": 38.904113833333334, "is_reserved": 0, "type": "electric_scooter", "bike_id": "cf655c4bed69ddfd1a2c356af572e031", "is_disabled": 0, "rental_uris": {"android": "https://dc.lft.to/lastmile_qr_scan", "ios": "https://dc.lft.to/lastmile_qr_scan"}, "lon": -76.973331, "fusion_lat": 0.0}, {"name": "1e1ed4138f900bfd68a262d81759785d", "fusion_lon": 0.0, "lat": 38.90386616666667, "is_reserved": 0, "type": "electric_scooter", "bike_id": "1e1ed4138f900bfd68a262d81759785d", "is_disabled": 0, "rental_uris": {"android": "https://dc.lft.to/lastmile_qr_scan", "ios": "https://dc.lft.to/lastmile_qr_scan"}, "lon": -77.0398585, "fusion_lat": 0.0}, {"name": "507bf6d95ae160b1d6041197a27367a0", "fusion_lon": 0.0, "lat": 38.91555816666666, "is_reserved": 0, "type": "electric_scooter", "bike_id": "507bf6d95ae160b1d6041197a27367a0", "is_disabled": 0, "rental_uris": {"android": "https://dc.lft.to/lastmile_qr_scan", "ios": "https://dc.lft.to/lastmile_qr_scan"}, "lon": -77.041798, "fusion_lat": 0.0}, {"name": "c60b89e7016d9558efb9a06df88d431b", "fusion_lon": 0.0, "lat": 38.906337, "is_reserved": 0, "type": "electric_scooter", "bike_id": "c60b89e7016d9558efb9a06df88d431b", "is_disabled": 0, "rental_uris": {"android": "https://dc.lft.to/lastmile_qr_scan", "ios": "https://dc.lft.to/lastmile_qr_scan"}, "lon": -77.04178383333333, "fusion_lat": 0.0}, {"name": "524ecc82ed54a9ebdf39b5c313515401", "fusion_lon": 0.0, "lat": 38.885273, "is_reserved": 0, "type": "electric_scooter", "bike_id": "524ecc82ed54a9ebdf39b5c313515401", "is_disabled": 0, "rental_uris": {"android": "https://dc.lft.to/lastmile_qr_scan", "ios": "https://dc.lft.to/lastmile_qr_scan"}, "lon": -76.99605783333334, "fusion_lat": 0.0}, {"name": "8015bf66eed70b6883e474615ba2bc75", "fusion_lon": 0.0, "lat": 38.95733966666667, "is_reserved": 0, "type": "electric_scooter", "bike_id": "8015bf66eed70b6883e474615ba2bc75", "is_disabled": 0, "rental_uris": {"android": "https://dc.lft.to/lastmile_qr_scan", "ios": "https://dc.lft.to/lastmile_qr_scan"}, "lon": -77.02406116666667, "fusion_lat": 0.0}, {"name": "8a8cb74b58ca7f0932f63d83ef0d7da7", "fusion_lon": 0.0, "lat": 38.90821183333333, "is_reserved": 0, "type": "electric_scooter", "bike_id": "8a8cb74b58ca7f0932f63d83ef0d7da7", "is_disabled": 0, "rental_uris": {"android": "https://dc.lft.to/lastmile_qr_scan", "ios": "https://dc.lft.to/lastmile_qr_scan"}, "lon": -77.03850316666667, "fusion_lat": 0.0}, {"name": "be5f4441fb17ca7873188438f8a3857c", "fusion_lon": 0.0, "lat": 38.920916166666665, "is_reserved": 0, "type": "electric_scooter", "bike_id": "be5f4441fb17ca7873188438f8a3857c", "is_disabled": 0, "rental_uris": {"android": "https://dc.lft.to/lastmile_qr_scan", "ios": "https://dc.lft.to/lastmile_qr_scan"}, "lon": -77.02289933333333, "fusion_lat": 0.0}, {"name": "0df484d2b176f8312877bbd5be3cf21a", "fusion_lon": 0.0, "lat": 38.933771166666666, "is_reserved": 0, "type": "electric_scooter", "bike_id": "0df484d2b176f8312877bbd5be3cf21a", "is_disabled": 0, "rental_uris": {"android": "https://dc.lft.to/lastmile_qr_scan", "ios": "https://dc.lft.to/lastmile_qr_scan"}, "lon": -77.0326055, "fusion_lat": 0.0}, {"name": "8c17ab552884c0023f8aede0e6ebd0d2", "fusion_lon": 0.0, "lat": 38.90717183333334, "is_reserved": 0, "type": "electric_scooter", "bike_id": "8c17ab552884c0023f8aede0e6ebd0d2", "is_disabled": 0, "rental_uris": {"android": "https://dc.lft.to/lastmile_qr_scan", "ios": "https://dc.lft.to/lastmile_qr_scan"}, "lon": -77.07617433333333, "fusion_lat": 0.0}, {"name": "d730260e57f4087432825a1ae45502cc", "fusion_lon": 0.0, "lat": 38.919883666666664, "is_reserved": 0, "type": "electric_scooter", "bike_id": "d730260e57f4087432825a1ae45502cc", "is_disabled": 0, "rental_uris": {"android": "https://dc.lft.to/lastmile_qr_scan", "ios": "https://dc.lft.to/lastmile_qr_scan"}, "lon": -77.04170233333333, "fusion_lat": 0.0}, {"name": "75b4ae76ec32fae73ca3f462088bcd77", "fusion_lon": 0.0, "lat": 38.882495166666665, "is_reserved": 0, "type": "electric_scooter", "bike_id": "75b4ae76ec32fae73ca3f462088bcd77", "is_disabled": 0, "rental_uris": {"android": "https://dc.lft.to/lastmile_qr_scan", "ios": "https://dc.lft.to/lastmile_qr_scan"}, "lon": -76.991196, "fusion_lat": 0.0}, {"name": "752b948162bbb1562e8d949ee22d162e", "fusion_lon": 0.0, "lat": 38.90799916666667, "is_reserved": 0, "type": "electric_scooter", "bike_id": "752b948162bbb1562e8d949ee22d162e", "is_disabled": 0, "rental_uris": {"android": "https://dc.lft.to/lastmile_qr_scan", "ios": "https://dc.lft.to/lastmile_qr_scan"}, "lon": -77.0341855, "fusion_lat": 0.0}, {"name": "89f12cbc567b203170861e4122d1eff4", "fusion_lon": 0.0, "lat": 38.916863, "is_reserved": 0, "type": "electric_scooter", "bike_id": "89f12cbc567b203170861e4122d1eff4", "is_disabled": 0, "rental_uris": {"android": "https://dc.lft.to/lastmile_qr_scan", "ios": "https://dc.lft.to/lastmile_qr_scan"}, "lon": -77.04143716666667, "fusion_lat": 0.0}, {"name": "751bd8c3d7532a0c55b53b5c2315431a", "fusion_lon": 0.0, "lat": 38.8493145, "is_reserved": 0, "type": "electric_bike", "bike_id": "751bd8c3d7532a0c55b53b5c2315431a", "is_disabled": 0, "rental_uris": {"android": "https://dc.lft.to/lastmile_qr_scan", "ios": "https://dc.lft.to/lastmile_qr_scan"}, "lon": -77.07799066666666, "fusion_lat": 0.0}, {"name": "300c3d63c838d49e3d36e00d9e791baf", "fusion_lon": 0.0, "lat": 38.956535333333335, "is_reserved": 0, "type": "electric_bike", "bike_id": "300c3d63c838d49e3d36e00d9e791baf", "is_disabled": 0, "rental_uris": {"android": "https://dc.lft.to/lastmile_qr_scan", "ios": "https://dc.lft.to/lastmile_qr_scan"}, "lon": -77.01278816666667, "fusion_lat": 0.0}, {"name": "5f27144146d2d954f96c12444dfe2738", "fusion_lon": 0.0, "lat": 38.866581333333336, "is_reserved": 0, "type": "electric_scooter", "bike_id": "5f27144146d2d954f96c12444dfe2738", "is_disabled": 0, "rental_uris": {"android": "https://dc.lft.to/lastmile_qr_scan", "ios": "https://dc.lft.to/lastmile_qr_scan"}, "lon": -76.98886233333333, "fusion_lat": 0.0}, {"name": "d4b0669b98d930e0986dcd7c6cd6918f", "fusion_lon": 0.0, "lat": 38.862423666666665, "is_reserved": 0, "type": "electric_scooter", "bike_id": "d4b0669b98d930e0986dcd7c6cd6918f", "is_disabled": 0, "rental_uris": {"android": "https://dc.lft.to/lastmile_qr_scan", "ios": "https://dc.lft.to/lastmile_qr_scan"}, "lon": -76.99494966666667, "fusion_lat": 0.0}, {"name": "e4ca27830ded8e54a816c0153870b84c", "fusion_lon": 0.0, "lat": 38.9019845, "is_reserved": 0, "type": "electric_scooter", "bike_id": "e4ca27830ded8e54a816c0153870b84c", "is_disabled": 0, "rental_uris": {"android": "https://dc.lft.to/lastmile_qr_scan", "ios": "https://dc.lft.to/lastmile_qr_scan"}, "lon": -77.02185833333333, "fusion_lat": 0.0}, {"name": "b36fc0f18040ce54e51b381d29bbc227", "fusion_lon": 0.0, "lat": 38.9255255, "is_reserved": 0, "type": "electric_scooter", "bike_id": "b36fc0f18040ce54e51b381d29bbc227", "is_disabled": 0, "rental_uris": {"android": "https://dc.lft.to/lastmile_qr_scan", "ios": "https://dc.lft.to/lastmile_qr_scan"}, "lon": -77.032976, "fusion_lat": 0.0}, {"name": "74b34625b5fc82ddf1f3824a29df17a7", "fusion_lon": 0.0, "lat": 38.9248375, "is_reserved": 0, "type": "electric_scooter", "bike_id": "74b34625b5fc82ddf1f3824a29df17a7", "is_disabled": 0, "rental_uris": {"android": "https://dc.lft.to/lastmile_qr_scan", "ios": "https://dc.lft.to/lastmile_qr_scan"}, "lon": -77.03498866666666, "fusion_lat": 0.0}, {"name": "6c854ab91b49c0e9635328b12e4f791f", "fusion_lon": 0.0, "lat": 38.865172, "is_reserved": 0, "type": "electric_scooter", "bike_id": "6c854ab91b49c0e9635328b12e4f791f", "is_disabled": 0, "rental_uris": {"android": "https://dc.lft.to/lastmile_qr_scan", "ios": "https://dc.lft.to/lastmile_qr_scan"}, "lon": -76.97346916666666, "fusion_lat": 0.0}, {"name": "10870a1d6138d795aa1c7ba4be16d44d", "fusion_lon": 0.0, "lat": 38.905153166666665, "is_reserved": 0, "type": "electric_scooter", "bike_id": "10870a1d6138d795aa1c7ba4be16d44d", "is_disabled": 0, "rental_uris": {"android": "https://dc.lft.to/lastmile_qr_scan", "ios": "https://dc.lft.to/lastmile_qr_scan"}, "lon": -77.0013855, "fusion_lat": 0.0}, {"name": "be69e73c04533010f36bb45e8c52b976", "fusion_lon": 0.0, "lat": 38.911943666666666, "is_reserved": 0, "type": "electric_scooter", "bike_id": "be69e73c04533010f36bb45e8c52b976", "is_disabled": 0, "rental_uris": {"android": "https://dc.lft.to/lastmile_qr_scan", "ios": "https://dc.lft.to/lastmile_qr_scan"}, "lon": -77.03833083333333, "fusion_lat": 0.0}, {"name": "e30c3cc35dd3c8deb503bc53d2c2f380", "fusion_lon": 0.0, "lat": 38.893714, "is_reserved": 0, "type": "electric_scooter", "bike_id": "e30c3cc35dd3c8deb503bc53d2c2f380", "is_disabled": 0, "rental_uris": {"android": "https://dc.lft.to/lastmile_qr_scan", "ios": "https://dc.lft.to/lastmile_qr_scan"}, "lon": -77.01547333333333, "fusion_lat": 0.0}, {"name": "801d95689fcfbeb612a67a15006f1c83", "fusion_lon": 0.0, "lat": 38.90670766666667, "is_reserved": 0, "type": "electric_scooter", "bike_id": "801d95689fcfbeb612a67a15006f1c83", "is_disabled": 0, "rental_uris": {"android": "https://dc.lft.to/lastmile_qr_scan", "ios": "https://dc.lft.to/lastmile_qr_scan"}, "lon": -77.07135583333333, "fusion_lat": 0.0}, {"name": "db3323175e5ce21013273571b5cac760", "fusion_lon": 0.0, "lat": 38.9018375, "is_reserved": 0, "type": "electric_scooter", "bike_id": "db3323175e5ce21013273571b5cac760", "is_disabled": 0, "rental_uris": {"android": "https://dc.lft.to/lastmile_qr_scan", "ios": "https://dc.lft.to/lastmile_qr_scan"}, "lon": -76.98817916666667, "fusion_lat": 0.0}, {"name": "690cf1182c11316573febad7e35003c2", "fusion_lon": 0.0, "lat": 38.906080833333334, "is_reserved": 0, "type": "electric_scooter", "bike_id": "690cf1182c11316573febad7e35003c2", "is_disabled": 0, "rental_uris": {"android": "https://dc.lft.to/lastmile_qr_scan", "ios": "https://dc.lft.to/lastmile_qr_scan"}, "lon": -77.0416805, "fusion_lat": 0.0}, {"name": "9364b4b720d7981ab736ff80c667b80f", "fusion_lon": 0.0, "lat": 38.92765266666667, "is_reserved": 0, "type": "electric_scooter", "bike_id": "9364b4b720d7981ab736ff80c667b80f", "is_disabled": 0, "rental_uris": {"android": "https://dc.lft.to/lastmile_qr_scan", "ios": "https://dc.lft.to/lastmile_qr_scan"}, "lon": -77.0326745, "fusion_lat": 0.0}, {"name": "b220ea36784aea0acd561595696be389", "fusion_lon": 0.0, "lat": 38.91278283333333, "is_reserved": 0, "type": "electric_scooter", "bike_id": "b220ea36784aea0acd561595696be389", "is_disabled": 0, "rental_uris": {"android": "https://dc.lft.to/lastmile_qr_scan", "ios": "https://dc.lft.to/lastmile_qr_scan"}, "lon": -77.04499866666667, "fusion_lat": 0.0}, {"name": "0840f231e2dd87637cdf59c755fc124d", "fusion_lon": 0.0, "lat": 38.90310216666666, "is_reserved": 0, "type": "electric_scooter", "bike_id": "0840f231e2dd87637cdf59c755fc124d", "is_disabled": 0, "rental_uris": {"android": "https://dc.lft.to/lastmile_qr_scan", "ios": "https://dc.lft.to/lastmile_qr_scan"}, "lon": -77.022213, "fusion_lat": 0.0}, {"name": "70e5f209a2c461acd12e40a8abb726b8", "fusion_lon": 0.0, "lat": 38.93436116666667, "is_reserved": 0, "type": "electric_scooter", "bike_id": "70e5f209a2c461acd12e40a8abb726b8", "is_disabled": 0, "rental_uris": {"android": "https://dc.lft.to/lastmile_qr_scan", "ios": "https://dc.lft.to/lastmile_qr_scan"}, "lon": -77.04538483333333, "fusion_lat": 0.0}, {"name": "e3cbd3a4e1f048a743b82b0ca30c093e", "fusion_lon": 0.0, "lat": 38.942073666666666, "is_reserved": 0, "type": "electric_scooter", "bike_id": "e3cbd3a4e1f048a743b82b0ca30c093e", "is_disabled": 0, "rental_uris": {"android": "https://dc.lft.to/lastmile_qr_scan", "ios": "https://dc.lft.to/lastmile_qr_scan"}, "lon": -77.02515483333333, "fusion_lat": 0.0}, {"name": "3746a67441b31f7fb25403b8f73a1872", "fusion_lon": 0.0, "lat": 38.90408933333333, "is_reserved": 0, "type": "electric_scooter", "bike_id": "3746a67441b31f7fb25403b8f73a1872", "is_disabled": 0, "rental_uris": {"android": "https://dc.lft.to/lastmile_qr_scan", "ios": "https://dc.lft.to/lastmile_qr_scan"}, "lon": -77.0435935, "fusion_lat": 0.0}, {"name": "0751f1700bd3046dfc63ce29edc2d285", "fusion_lon": 0.0, "lat": 38.917222833333334, "is_reserved": 0, "type": "electric_scooter", "bike_id": "0751f1700bd3046dfc63ce29edc2d285", "is_disabled": 0, "rental_uris": {"android": "https://dc.lft.to/lastmile_qr_scan", "ios": "https://dc.lft.to/lastmile_qr_scan"}, "lon": -77.0281285, "fusion_lat": 0.0}, {"name": "d01438a33726b2ae60f916220db7e4e4", "fusion_lon": 0.0, "lat": 38.949945, "is_reserved": 0, "type": "electric_scooter", "bike_id": "d01438a33726b2ae60f916220db7e4e4", "is_disabled": 0, "rental_uris": {"android": "https://dc.lft.to/lastmile_qr_scan", "ios": "https://dc.lft.to/lastmile_qr_scan"}, "lon": -77.0333015, "fusion_lat": 0.0}, {"name": "22d76591246fb6409e2cc3c683ee3482", "fusion_lon": 0.0, "lat": 38.92382466666667, "is_reserved": 0, "type": "electric_scooter", "bike_id": "22d76591246fb6409e2cc3c683ee3482", "is_disabled": 0, "rental_uris": {"android": "https://dc.lft.to/lastmile_qr_scan", "ios": "https://dc.lft.to/lastmile_qr_scan"}, "lon": -77.02060633333333, "fusion_lat": 0.0}, {"name": "92e78f32dc9e2ad6725dcbe83030a6b1", "fusion_lon": 0.0, "lat": 38.866396, "is_reserved": 0, "type": "electric_scooter", "bike_id": "92e78f32dc9e2ad6725dcbe83030a6b1", "is_disabled": 0, "rental_uris": {"android": "https://dc.lft.to/lastmile_qr_scan", "ios": "https://dc.lft.to/lastmile_qr_scan"}, "lon": -76.98263483333334, "fusion_lat": 0.0}, {"name": "277e984709911368bf59145748cdb56b", "fusion_lon": 0.0, "lat": 38.94535483333333, "is_reserved": 0, "type": "electric_scooter", "bike_id": "277e984709911368bf59145748cdb56b", "is_disabled": 0, "rental_uris": {"android": "https://dc.lft.to/lastmile_qr_scan", "ios": "https://dc.lft.to/lastmile_qr_scan"}, "lon": -77.02093416666666, "fusion_lat": 0.0}, {"name": "8386120a03a8610523de4f9f9a6d4434", "fusion_lon": 0.0, "lat": 38.918270166666666, "is_reserved": 0, "type": "electric_scooter", "bike_id": "8386120a03a8610523de4f9f9a6d4434", "is_disabled": 0, "rental_uris": {"android": "https://dc.lft.to/lastmile_qr_scan", "ios": "https://dc.lft.to/lastmile_qr_scan"}, "lon": -77.027096, "fusion_lat": 0.0}, {"name": "159c08e35305227b1cca315a1ba3d3a2", "fusion_lon": 0.0, "lat": 38.907471666666666, "is_reserved": 0, "type": "electric_scooter", "bike_id": "159c08e35305227b1cca315a1ba3d3a2", "is_disabled": 0, "rental_uris": {"android": "https://dc.lft.to/lastmile_qr_scan", "ios": "https://dc.lft.to/lastmile_qr_scan"}, "lon": -77.00136783333333, "fusion_lat": 0.0}, {"name": "b78e55d36d7df63aed3519a330c61d71", "fusion_lon": 0.0, "lat": 38.9222095, "is_reserved": 0, "type": "electric_scooter", "bike_id": "b78e55d36d7df63aed3519a330c61d71", "is_disabled": 0, "rental_uris": {"android": "https://dc.lft.to/lastmile_qr_scan", "ios": "https://dc.lft.to/lastmile_qr_scan"}, "lon": -77.03286533333333, "fusion_lat": 0.0}, {"name": "b26b6d779bc1041bce6b381124b3192c", "fusion_lon": 0.0, "lat": 38.903243, "is_reserved": 0, "type": "electric_scooter", "bike_id": "b26b6d779bc1041bce6b381124b3192c", "is_disabled": 0, "rental_uris": {"android": "https://dc.lft.to/lastmile_qr_scan", "ios": "https://dc.lft.to/lastmile_qr_scan"}, "lon": -77.05171766666666, "fusion_lat": 0.0}, {"name": "e55b54ca6dc2039360b4c365480934b7", "fusion_lon": 0.0, "lat": 38.86242333333333, "is_reserved": 0, "type": "electric_scooter", "bike_id": "e55b54ca6dc2039360b4c365480934b7", "is_disabled": 0, "rental_uris": {"android": "https://dc.lft.to/lastmile_qr_scan", "ios": "https://dc.lft.to/lastmile_qr_scan"}, "lon": -76.99493166666667, "fusion_lat": 0.0}, {"name": "213bfd9d1fa74a3ea46846b9cf752e3e", "fusion_lon": 0.0, "lat": 38.88865883333333, "is_reserved": 0, "type": "electric_scooter", "bike_id": "213bfd9d1fa74a3ea46846b9cf752e3e", "is_disabled": 0, "rental_uris": {"android": "https://dc.lft.to/lastmile_qr_scan", "ios": "https://dc.lft.to/lastmile_qr_scan"}, "lon": -76.99999966666667, "fusion_lat": 0.0}, {"name": "e4b6818af0ad96327676074abcf309eb", "fusion_lon": 0.0, "lat": 38.92677316666666, "is_reserved": 0, "type": "electric_scooter", "bike_id": "e4b6818af0ad96327676074abcf309eb", "is_disabled": 0, "rental_uris": {"android": "https://dc.lft.to/lastmile_qr_scan", "ios": "https://dc.lft.to/lastmile_qr_scan"}, "lon": -77.01477933333334, "fusion_lat": 0.0}, {"name": "5207901ab059006ad2d7261ed2958f5f", "fusion_lon": 0.0, "lat": 38.921393, "is_reserved": 0, "type": "electric_scooter", "bike_id": "5207901ab059006ad2d7261ed2958f5f", "is_disabled": 0, "rental_uris": {"android": "https://dc.lft.to/lastmile_qr_scan", "ios": "https://dc.lft.to/lastmile_qr_scan"}, "lon": -77.04136816666667, "fusion_lat": 0.0}, {"name": "a9652b22d2a899a9acfaae6a80d3d6c6", "fusion_lon": 0.0, "lat": 38.91880533333333, "is_reserved": 0, "type": "electric_scooter", "bike_id": "a9652b22d2a899a9acfaae6a80d3d6c6", "is_disabled": 0, "rental_uris": {"android": "https://dc.lft.to/lastmile_qr_scan", "ios": "https://dc.lft.to/lastmile_qr_scan"}, "lon": -77.0295445, "fusion_lat": 0.0}, {"name": "9dc268ca9a3cff24762262ed14428fee", "fusion_lon": 0.0, "lat": 38.92169966666667, "is_reserved": 0, "type": "electric_scooter", "bike_id": "9dc268ca9a3cff24762262ed14428fee", "is_disabled": 0, "rental_uris": {"android": "https://dc.lft.to/lastmile_qr_scan", "ios": "https://dc.lft.to/lastmile_qr_scan"}, "lon": -77.03265733333333, "fusion_lat": 0.0}, {"name": "2e7e9a4e4cfd51f68191d4608f24666e", "fusion_lon": 0.0, "lat": 38.91841616666667, "is_reserved": 0, "type": "electric_scooter", "bike_id": "2e7e9a4e4cfd51f68191d4608f24666e", "is_disabled": 0, "rental_uris": {"android": "https://dc.lft.to/lastmile_qr_scan", "ios": "https://dc.lft.to/lastmile_qr_scan"}, "lon": -77.02297266666666, "fusion_lat": 0.0}, {"name": "37844b9456f0ed9c684261a8c8167e81", "fusion_lon": 0.0, "lat": 38.92437833333334, "is_reserved": 0, "type": "electric_scooter", "bike_id": "37844b9456f0ed9c684261a8c8167e81", "is_disabled": 0, "rental_uris": {"android": "https://dc.lft.to/lastmile_qr_scan", "ios": "https://dc.lft.to/lastmile_qr_scan"}, "lon": -77.04250883333333, "fusion_lat": 0.0}, {"name": "9d7dd15d25b9c4f6928517558897ad4b", "fusion_lon": 0.0, "lat": 38.88991716666666, "is_reserved": 0, "type": "electric_scooter", "bike_id": "9d7dd15d25b9c4f6928517558897ad4b", "is_disabled": 0, "rental_uris": {"android": "https://dc.lft.to/lastmile_qr_scan", "ios": "https://dc.lft.to/lastmile_qr_scan"}, "lon": -76.9311215, "fusion_lat": 0.0}, {"name": "5413b726c5677a4829b23d632e3aac6c", "fusion_lon": 0.0, "lat": 38.9089285, "is_reserved": 0, "type": "electric_scooter", "bike_id": "5413b726c5677a4829b23d632e3aac6c", "is_disabled": 0, "rental_uris": {"android": "https://dc.lft.to/lastmile_qr_scan", "ios": "https://dc.lft.to/lastmile_qr_scan"}, "lon": -76.998538, "fusion_lat": 0.0}, {"name": "3477da1603b29abbb665ff7c55c7c1c4", "fusion_lon": 0.0, "lat": 38.906035, "is_reserved": 0, "type": "electric_scooter", "bike_id": "3477da1603b29abbb665ff7c55c7c1c4", "is_disabled": 0, "rental_uris": {"android": "https://dc.lft.to/lastmile_qr_scan", "ios": "https://dc.lft.to/lastmile_qr_scan"}, "lon": -77.022014, "fusion_lat": 0.0}, {"name": "d24ee8b65e73ee424a74ee9fd464d693", "fusion_lon": 0.0, "lat": 38.862212, "is_reserved": 0, "type": "electric_bike", "bike_id": "d24ee8b65e73ee424a74ee9fd464d693", "is_disabled": 0, "rental_uris": {"android": "https://dc.lft.to/lastmile_qr_scan", "ios": "https://dc.lft.to/lastmile_qr_scan"}, "lon": -76.99570233333333, "fusion_lat": 0.0}, {"name": "6b14af8e3b1bdb8fc0eab93115a67185", "fusion_lon": 0.0, "lat": 38.902713, "is_reserved": 0, "type": "electric_scooter", "bike_id": "6b14af8e3b1bdb8fc0eab93115a67185", "is_disabled": 0, "rental_uris": {"android": "https://dc.lft.to/lastmile_qr_scan", "ios": "https://dc.lft.to/lastmile_qr_scan"}, "lon": -77.01749266666667, "fusion_lat": 0.0}, {"name": "dc8beb51853a3a7ab42f62ef53f37f76", "fusion_lon": 0.0, "lat": 38.929399333333336, "is_reserved": 0, "type": "electric_scooter", "bike_id": "dc8beb51853a3a7ab42f62ef53f37f76", "is_disabled": 0, "rental_uris": {"android": "https://dc.lft.to/lastmile_qr_scan", "ios": "https://dc.lft.to/lastmile_qr_scan"}, "lon": -77.032901, "fusion_lat": 0.0}, {"name": "e9ccdfdf62429e1c7d57f4feeabc0de1", "fusion_lon": 0.0, "lat": 38.90569766666667, "is_reserved": 0, "type": "electric_scooter", "bike_id": "e9ccdfdf62429e1c7d57f4feeabc0de1", "is_disabled": 0, "rental_uris": {"android": "https://dc.lft.to/lastmile_qr_scan", "ios": "https://dc.lft.to/lastmile_qr_scan"}, "lon": -77.00594, "fusion_lat": 0.0}, {"name": "e8c44ed2d1b6064da4ba6389f2ccb840", "fusion_lon": 0.0, "lat": 38.875815833333334, "is_reserved": 0, "type": "electric_scooter", "bike_id": "e8c44ed2d1b6064da4ba6389f2ccb840", "is_disabled": 0, "rental_uris": {"android": "https://dc.lft.to/lastmile_qr_scan", "ios": "https://dc.lft.to/lastmile_qr_scan"}, "lon": -77.00603183333334, "fusion_lat": 0.0}, {"name": "f514c6c42522c817653d77cda99d297f", "fusion_lon": 0.0, "lat": 38.908247833333334, "is_reserved": 0, "type": "electric_scooter", "bike_id": "f514c6c42522c817653d77cda99d297f", "is_disabled": 0, "rental_uris": {"android": "https://dc.lft.to/lastmile_qr_scan", "ios": "https://dc.lft.to/lastmile_qr_scan"}, "lon": -77.03859783333333, "fusion_lat": 0.0}, {"name": "d775d74a09551eb638cf02ee46c1ea54", "fusion_lon": 0.0, "lat": 38.915742, "is_reserved": 0, "type": "electric_scooter", "bike_id": "d775d74a09551eb638cf02ee46c1ea54", "is_disabled": 0, "rental_uris": {"android": "https://dc.lft.to/lastmile_qr_scan", "ios": "https://dc.lft.to/lastmile_qr_scan"}, "lon": -77.02386483333333, "fusion_lat": 0.0}, {"name": "222d18895cf6c202a41101d1b1c8a4b5", "fusion_lon": 0.0, "lat": 38.916983, "is_reserved": 0, "type": "electric_scooter", "bike_id": "222d18895cf6c202a41101d1b1c8a4b5", "is_disabled": 0, "rental_uris": {"android": "https://dc.lft.to/lastmile_qr_scan", "ios": "https://dc.lft.to/lastmile_qr_scan"}, "lon": -77.0315305, "fusion_lat": 0.0}, {"name": "03a48d5d1e1e5df5e00ebd6f977b2dce", "fusion_lon": 0.0, "lat": 38.85893866666667, "is_reserved": 0, "type": "electric_scooter", "bike_id": "03a48d5d1e1e5df5e00ebd6f977b2dce", "is_disabled": 0, "rental_uris": {"android": "https://dc.lft.to/lastmile_qr_scan", "ios": "https://dc.lft.to/lastmile_qr_scan"}, "lon": -76.99726383333334, "fusion_lat": 0.0}, {"name": "0b7070d491f05b342206743efbc2bb46", "fusion_lon": 0.0, "lat": 38.899146333333334, "is_reserved": 0, "type": "electric_scooter", "bike_id": "0b7070d491f05b342206743efbc2bb46", "is_disabled": 0, "rental_uris": {"android": "https://dc.lft.to/lastmile_qr_scan", "ios": "https://dc.lft.to/lastmile_qr_scan"}, "lon": -76.95068283333333, "fusion_lat": 0.0}, {"name": "eaad6dce7a169c8b5522e7139d036d83", "fusion_lon": 0.0, "lat": 38.89462666666667, "is_reserved": 0, "type": "electric_bike", "bike_id": "eaad6dce7a169c8b5522e7139d036d83", "is_disabled": 0, "rental_uris": {"android": "https://dc.lft.to/lastmile_qr_scan", "ios": "https://dc.lft.to/lastmile_qr_scan"}, "lon": -77.04677649999999, "fusion_lat": 0.0}, {"name": "9ed83bbf66b1d6d1e1017722ae1824a1", "fusion_lon": 0.0, "lat": 38.916327, "is_reserved": 0, "type": "electric_scooter", "bike_id": "9ed83bbf66b1d6d1e1017722ae1824a1", "is_disabled": 0, "rental_uris": {"android": "https://dc.lft.to/lastmile_qr_scan", "ios": "https://dc.lft.to/lastmile_qr_scan"}, "lon": -77.03978233333333, "fusion_lat": 0.0}, {"name": "b7fd3717f97ed31f57915cf77a431f0f", "fusion_lon": 0.0, "lat": 38.92533433333333, "is_reserved": 0, "type": "electric_bike", "bike_id": "b7fd3717f97ed31f57915cf77a431f0f", "is_disabled": 0, "rental_uris": {"android": "https://dc.lft.to/lastmile_qr_scan", "ios": "https://dc.lft.to/lastmile_qr_scan"}, "lon": -77.00122466666667, "fusion_lat": 0.0}, {"name": "f9a5cf388bffde571026a0d2abecbf0e", "fusion_lon": 0.0, "lat": 38.929391, "is_reserved": 0, "type": "electric_scooter", "bike_id": "f9a5cf388bffde571026a0d2abecbf0e", "is_disabled": 0, "rental_uris": {"android": "https://dc.lft.to/lastmile_qr_scan", "ios": "https://dc.lft.to/lastmile_qr_scan"}, "lon": -77.0199045, "fusion_lat": 0.0}, {"name": "cd7cec03e0cb9af211485026ff000fd1", "fusion_lon": 0.0, "lat": 38.93035916666667, "is_reserved": 0, "type": "electric_scooter", "bike_id": "cd7cec03e0cb9af211485026ff000fd1", "is_disabled": 0, "rental_uris": {"android": "https://dc.lft.to/lastmile_qr_scan", "ios": "https://dc.lft.to/lastmile_qr_scan"}, "lon": -77.03218683333333, "fusion_lat": 0.0}, {"name": "775492fff316854eb8a536b899f6a3c3", "fusion_lon": 0.0, "lat": 38.923719166666665, "is_reserved": 0, "type": "electric_scooter", "bike_id": "775492fff316854eb8a536b899f6a3c3", "is_disabled": 0, "rental_uris": {"android": "https://dc.lft.to/lastmile_qr_scan", "ios": "https://dc.lft.to/lastmile_qr_scan"}, "lon": -76.99547583333333, "fusion_lat": 0.0}, {"name": "8e1448f736b7c701c5714391a6f5c11c", "fusion_lon": 0.0, "lat": 38.893164166666665, "is_reserved": 0, "type": "electric_scooter", "bike_id": "8e1448f736b7c701c5714391a6f5c11c", "is_disabled": 0, "rental_uris": {"android": "https://dc.lft.to/lastmile_qr_scan", "ios": "https://dc.lft.to/lastmile_qr_scan"}, "lon": -77.012069, "fusion_lat": 0.0}, {"name": "5e5a0867a8d393007edaa51f7a8558b5", "fusion_lon": 0.0, "lat": 38.91105983333333, "is_reserved": 0, "type": "electric_scooter", "bike_id": "5e5a0867a8d393007edaa51f7a8558b5", "is_disabled": 0, "rental_uris": {"android": "https://dc.lft.to/lastmile_qr_scan", "ios": "https://dc.lft.to/lastmile_qr_scan"}, "lon": -77.02504016666667, "fusion_lat": 0.0}, {"name": "80d201e1c8870bd76cd5a45553a4f2ee", "fusion_lon": 0.0, "lat": 38.903891, "is_reserved": 0, "type": "electric_scooter", "bike_id": "80d201e1c8870bd76cd5a45553a4f2ee", "is_disabled": 0, "rental_uris": {"android": "https://dc.lft.to/lastmile_qr_scan", "ios": "https://dc.lft.to/lastmile_qr_scan"}, "lon": -77.03836116666666, "fusion_lat": 0.0}, {"name": "14aa5ccef2392dbef52bfe576b2a38cb", "fusion_lon": 0.0, "lat": 38.92513966666667, "is_reserved": 0, "type": "electric_scooter", "bike_id": "14aa5ccef2392dbef52bfe576b2a38cb", "is_disabled": 0, "rental_uris": {"android": "https://dc.lft.to/lastmile_qr_scan", "ios": "https://dc.lft.to/lastmile_qr_scan"}, "lon": -77.05257583333334, "fusion_lat": 0.0}, {"name": "f74cca268f8ad79ad05fd5ffffbc9290", "fusion_lon": 0.0, "lat": 38.91820833333333, "is_reserved": 0, "type": "electric_scooter", "bike_id": "f74cca268f8ad79ad05fd5ffffbc9290", "is_disabled": 0, "rental_uris": {"android": "https://dc.lft.to/lastmile_qr_scan", "ios": "https://dc.lft.to/lastmile_qr_scan"}, "lon": -77.0249325, "fusion_lat": 0.0}, {"name": "13b142d594c8a490c038dfc6decb4046", "fusion_lon": 0.0, "lat": 38.907198, "is_reserved": 0, "type": "electric_scooter", "bike_id": "13b142d594c8a490c038dfc6decb4046", "is_disabled": 0, "rental_uris": {"android": "https://dc.lft.to/lastmile_qr_scan", "ios": "https://dc.lft.to/lastmile_qr_scan"}, "lon": -77.01011766666667, "fusion_lat": 0.0}, {"name": "86debfa7849e944d04777b28ed806ab7", "fusion_lon": 0.0, "lat": 38.90574483333333, "is_reserved": 0, "type": "electric_scooter", "bike_id": "86debfa7849e944d04777b28ed806ab7", "is_disabled": 0, "rental_uris": {"android": "https://dc.lft.to/lastmile_qr_scan", "ios": "https://dc.lft.to/lastmile_qr_scan"}, "lon": -77.04334683333333, "fusion_lat": 0.0}, {"name": "87265c9edae0e9e57bfaa37f8af9bfb2", "fusion_lon": 0.0, "lat": 38.9157685, "is_reserved": 0, "type": "electric_scooter", "bike_id": "87265c9edae0e9e57bfaa37f8af9bfb2", "is_disabled": 0, "rental_uris": {"android": "https://dc.lft.to/lastmile_qr_scan", "ios": "https://dc.lft.to/lastmile_qr_scan"}, "lon": -77.044912, "fusion_lat": 0.0}, {"name": "ab15b3c1a12fbf9c703a2e0fb092b2d5", "fusion_lon": 0.0, "lat": 38.900487, "is_reserved": 0, "type": "electric_scooter", "bike_id": "ab15b3c1a12fbf9c703a2e0fb092b2d5", "is_disabled": 0, "rental_uris": {"android": "https://dc.lft.to/lastmile_qr_scan", "ios": "https://dc.lft.to/lastmile_qr_scan"}, "lon": -76.98829566666667, "fusion_lat": 0.0}, {"name": "08ea1d829063eee66b28c952e1de52f8", "fusion_lon": 0.0, "lat": 38.92853916666667, "is_reserved": 0, "type": "electric_scooter", "bike_id": "08ea1d829063eee66b28c952e1de52f8", "is_disabled": 0, "rental_uris": {"android": "https://dc.lft.to/lastmile_qr_scan", "ios": "https://dc.lft.to/lastmile_qr_scan"}, "lon": -77.0139595, "fusion_lat": 0.0}, {"name": "67db74bb2d0d78f3d331c5cb0792a70f", "fusion_lon": 0.0, "lat": 38.90354816666667, "is_reserved": 0, "type": "electric_scooter", "bike_id": "67db74bb2d0d78f3d331c5cb0792a70f", "is_disabled": 0, "rental_uris": {"android": "https://dc.lft.to/lastmile_qr_scan", "ios": "https://dc.lft.to/lastmile_qr_scan"}, "lon": -76.97479066666666, "fusion_lat": 0.0}, {"name": "e813d2552e2d1deb2f64d4facae13a49", "fusion_lon": 0.0, "lat": 38.91922683333333, "is_reserved": 0, "type": "electric_scooter", "bike_id": "e813d2552e2d1deb2f64d4facae13a49", "is_disabled": 0, "rental_uris": {"android": "https://dc.lft.to/lastmile_qr_scan", "ios": "https://dc.lft.to/lastmile_qr_scan"}, "lon": -77.02509983333333, "fusion_lat": 0.0}, {"name": "99b5c121f6b4d530a2f03f1b64958be7", "fusion_lon": 0.0, "lat": 38.92122216666667, "is_reserved": 0, "type": "electric_scooter", "bike_id": "99b5c121f6b4d530a2f03f1b64958be7", "is_disabled": 0, "rental_uris": {"android": "https://dc.lft.to/lastmile_qr_scan", "ios": "https://dc.lft.to/lastmile_qr_scan"}, "lon": -77.04569316666667, "fusion_lat": 0.0}, {"name": "f600b5e5118f26a08b4c5f5ef44cc44c", "fusion_lon": 0.0, "lat": 38.90045766666667, "is_reserved": 0, "type": "electric_scooter", "bike_id": "f600b5e5118f26a08b4c5f5ef44cc44c", "is_disabled": 0, "rental_uris": {"android": "https://dc.lft.to/lastmile_qr_scan", "ios": "https://dc.lft.to/lastmile_qr_scan"}, "lon": -77.02914183333333, "fusion_lat": 0.0}, {"name": "112145a66ff0eb0b21a59e3079439a38", "fusion_lon": 0.0, "lat": 38.89719816666667, "is_reserved": 0, "type": "electric_scooter", "bike_id": "112145a66ff0eb0b21a59e3079439a38", "is_disabled": 0, "rental_uris": {"android": "https://dc.lft.to/lastmile_qr_scan", "ios": "https://dc.lft.to/lastmile_qr_scan"}, "lon": -77.00801183333333, "fusion_lat": 0.0}, {"name": "4f0d5435ff77ceba511e06a0386f4973", "fusion_lon": 0.0, "lat": 38.91418133333333, "is_reserved": 0, "type": "electric_scooter", "bike_id": "4f0d5435ff77ceba511e06a0386f4973", "is_disabled": 0, "rental_uris": {"android": "https://dc.lft.to/lastmile_qr_scan", "ios": "https://dc.lft.to/lastmile_qr_scan"}, "lon": -77.031727, "fusion_lat": 0.0}, {"name": "0e3ea613f5517bd07216a06f429c9d68", "fusion_lon": 0.0, "lat": 38.8824665, "is_reserved": 0, "type": "electric_bike", "bike_id": "0e3ea613f5517bd07216a06f429c9d68", "is_disabled": 0, "rental_uris": {"android": "https://dc.lft.to/lastmile_qr_scan", "ios": "https://dc.lft.to/lastmile_qr_scan"}, "lon": -76.96260433333333, "fusion_lat": 0.0}, {"name": "7e4f8aec5d837793faa5659c946ba159", "fusion_lon": 0.0, "lat": 39.04308233333333, "is_reserved": 0, "type": "electric_bike", "bike_id": "7e4f8aec5d837793faa5659c946ba159", "is_disabled": 0, "rental_uris": {"android": "https://dc.lft.to/lastmile_qr_scan", "ios": "https://dc.lft.to/lastmile_qr_scan"}, "lon": -77.0515945, "fusion_lat": 0.0}, {"name": "1c74184d16d7f5a3a4aa27a758b55667", "fusion_lon": 0.0, "lat": 38.894963, "is_reserved": 0, "type": "electric_bike", "bike_id": "1c74184d16d7f5a3a4aa27a758b55667", "is_disabled": 0, "rental_uris": {"android": "https://dc.lft.to/lastmile_qr_scan", "ios": "https://dc.lft.to/lastmile_qr_scan"}, "lon": -77.07120866666666, "fusion_lat": 0.0}, {"name": "9e3c498e6591e3a5686b90e45fbbc7d1", "fusion_lon": 0.0, "lat": 38.916419833333336, "is_reserved": 0, "type": "electric_scooter", "bike_id": "9e3c498e6591e3a5686b90e45fbbc7d1", "is_disabled": 0, "rental_uris": {"android": "https://dc.lft.to/lastmile_qr_scan", "ios": "https://dc.lft.to/lastmile_qr_scan"}, "lon": -77.03855066666667, "fusion_lat": 0.0}, {"name": "e8ade3798221eaec07ac036883ca3eeb", "fusion_lon": 0.0, "lat": 38.905876666666664, "is_reserved": 0, "type": "electric_scooter", "bike_id": "e8ade3798221eaec07ac036883ca3eeb", "is_disabled": 0, "rental_uris": {"android": "https://dc.lft.to/lastmile_qr_scan", "ios": "https://dc.lft.to/lastmile_qr_scan"}, "lon": -77.0414535, "fusion_lat": 0.0}, {"name": "e9340fb97d03b639a4ef0b6cac2bc653", "fusion_lon": 0.0, "lat": 38.8605865, "is_reserved": 0, "type": "electric_scooter", "bike_id": "e9340fb97d03b639a4ef0b6cac2bc653", "is_disabled": 0, "rental_uris": {"android": "https://dc.lft.to/lastmile_qr_scan", "ios": "https://dc.lft.to/lastmile_qr_scan"}, "lon": -76.98505, "fusion_lat": 0.0}, {"name": "b394756a99b3b2cc8d1afe5fb9b839f2", "fusion_lon": 0.0, "lat": 38.896117833333335, "is_reserved": 0, "type": "electric_scooter", "bike_id": "b394756a99b3b2cc8d1afe5fb9b839f2", "is_disabled": 0, "rental_uris": {"android": "https://dc.lft.to/lastmile_qr_scan", "ios": "https://dc.lft.to/lastmile_qr_scan"}, "lon": -77.04598583333333, "fusion_lat": 0.0}, {"name": "231ef0ae2421f852e0c1de22ee3eeca1", "fusion_lon": 0.0, "lat": 38.922211, "is_reserved": 0, "type": "electric_scooter", "bike_id": "231ef0ae2421f852e0c1de22ee3eeca1", "is_disabled": 0, "rental_uris": {"android": "https://dc.lft.to/lastmile_qr_scan", "ios": "https://dc.lft.to/lastmile_qr_scan"}, "lon": -77.03660933333333, "fusion_lat": 0.0}, {"name": "294569e720d72afe3d58a0ac5d79bf38", "fusion_lon": 0.0, "lat": 38.89224333333333, "is_reserved": 0, "type": "electric_scooter", "bike_id": "294569e720d72afe3d58a0ac5d79bf38", "is_disabled": 0, "rental_uris": {"android": "https://dc.lft.to/lastmile_qr_scan", "ios": "https://dc.lft.to/lastmile_qr_scan"}, "lon": -77.0469015, "fusion_lat": 0.0}, {"name": "1a86f5584e46837802ef601e31dcff0a", "fusion_lon": 0.0, "lat": 38.90864216666667, "is_reserved": 0, "type": "electric_scooter", "bike_id": "1a86f5584e46837802ef601e31dcff0a", "is_disabled": 0, "rental_uris": {"android": "https://dc.lft.to/lastmile_qr_scan", "ios": "https://dc.lft.to/lastmile_qr_scan"}, "lon": -77.02414666666667, "fusion_lat": 0.0}, {"name": "184439ef3fbb32a7c3acb61b068671de", "fusion_lon": 0.0, "lat": 38.90010683333333, "is_reserved": 0, "type": "electric_scooter", "bike_id": "184439ef3fbb32a7c3acb61b068671de", "is_disabled": 0, "rental_uris": {"android": "https://dc.lft.to/lastmile_qr_scan", "ios": "https://dc.lft.to/lastmile_qr_scan"}, "lon": -76.99617366666666, "fusion_lat": 0.0}, {"name": "98b640d7336984590325acdf663a44e0", "fusion_lon": 0.0, "lat": 38.906689, "is_reserved": 0, "type": "electric_scooter", "bike_id": "98b640d7336984590325acdf663a44e0", "is_disabled": 0, "rental_uris": {"android": "https://dc.lft.to/lastmile_qr_scan", "ios": "https://dc.lft.to/lastmile_qr_scan"}, "lon": -77.0712215, "fusion_lat": 0.0}, {"name": "f495f2fa3b1633d0bb3e3785fcd31feb", "fusion_lon": 0.0, "lat": 38.91992166666667, "is_reserved": 0, "type": "electric_scooter", "bike_id": "f495f2fa3b1633d0bb3e3785fcd31feb", "is_disabled": 0, "rental_uris": {"android": "https://dc.lft.to/lastmile_qr_scan", "ios": "https://dc.lft.to/lastmile_qr_scan"}, "lon": -77.041712, "fusion_lat": 0.0}, {"name": "29107487647ed4ab4e2a8a68138827a0", "fusion_lon": 0.0, "lat": 38.910189, "is_reserved": 0, "type": "electric_scooter", "bike_id": "29107487647ed4ab4e2a8a68138827a0", "is_disabled": 0, "rental_uris": {"android": "https://dc.lft.to/lastmile_qr_scan", "ios": "https://dc.lft.to/lastmile_qr_scan"}, "lon": -77.00917866666667, "fusion_lat": 0.0}, {"name": "4eba85170d8152df56445066a4bcc38b", "fusion_lon": 0.0, "lat": 38.91545466666667, "is_reserved": 0, "type": "electric_scooter", "bike_id": "4eba85170d8152df56445066a4bcc38b", "is_disabled": 0, "rental_uris": {"android": "https://dc.lft.to/lastmile_qr_scan", "ios": "https://dc.lft.to/lastmile_qr_scan"}, "lon": -76.97015, "fusion_lat": 0.0}, {"name": "ae1499fdd0a5d488c7e3d8670c0bd4f3", "fusion_lon": 0.0, "lat": 38.902359, "is_reserved": 0, "type": "electric_scooter", "bike_id": "ae1499fdd0a5d488c7e3d8670c0bd4f3", "is_disabled": 0, "rental_uris": {"android": "https://dc.lft.to/lastmile_qr_scan", "ios": "https://dc.lft.to/lastmile_qr_scan"}, "lon": -77.00893916666666, "fusion_lat": 0.0}, {"name": "3076dd59d984d8b4ab1d9fbdd72d652b", "fusion_lon": 0.0, "lat": 38.9217265, "is_reserved": 0, "type": "electric_scooter", "bike_id": "3076dd59d984d8b4ab1d9fbdd72d652b", "is_disabled": 0, "rental_uris": {"android": "https://dc.lft.to/lastmile_qr_scan", "ios": "https://dc.lft.to/lastmile_qr_scan"}, "lon": -77.03246, "fusion_lat": 0.0}, {"name": "51727e27417a4359a9d2474a75f36d2d", "fusion_lon": 0.0, "lat": 38.893626, "is_reserved": 0, "type": "electric_scooter", "bike_id": "51727e27417a4359a9d2474a75f36d2d", "is_disabled": 0, "rental_uris": {"android": "https://dc.lft.to/lastmile_qr_scan", "ios": "https://dc.lft.to/lastmile_qr_scan"}, "lon": -76.94931633333333, "fusion_lat": 0.0}, {"name": "ad29907c1a143af1d7bacfc16ddb1c7c", "fusion_lon": 0.0, "lat": 38.908434166666666, "is_reserved": 0, "type": "electric_scooter", "bike_id": "ad29907c1a143af1d7bacfc16ddb1c7c", "is_disabled": 0, "rental_uris": {"android": "https://dc.lft.to/lastmile_qr_scan", "ios": "https://dc.lft.to/lastmile_qr_scan"}, "lon": -77.03666716666666, "fusion_lat": 0.0}, {"name": "7f94eadba97302feaa5c3fc618185209", "fusion_lon": 0.0, "lat": 38.898678833333335, "is_reserved": 0, "type": "electric_scooter", "bike_id": "7f94eadba97302feaa5c3fc618185209", "is_disabled": 0, "rental_uris": {"android": "https://dc.lft.to/lastmile_qr_scan", "ios": "https://dc.lft.to/lastmile_qr_scan"}, "lon": -76.9466165, "fusion_lat": 0.0}, {"name": "03bbdd014a5b523f0e6850d32353e8ae", "fusion_lon": 0.0, "lat": 38.930862, "is_reserved": 0, "type": "electric_scooter", "bike_id": "03bbdd014a5b523f0e6850d32353e8ae", "is_disabled": 0, "rental_uris": {"android": "https://dc.lft.to/lastmile_qr_scan", "ios": "https://dc.lft.to/lastmile_qr_scan"}, "lon": -77.0256505, "fusion_lat": 0.0}, {"name": "05e765b089c2f925f079e3a9bfc28059", "fusion_lon": 0.0, "lat": 38.942024, "is_reserved": 0, "type": "electric_scooter", "bike_id": "05e765b089c2f925f079e3a9bfc28059", "is_disabled": 0, "rental_uris": {"android": "https://dc.lft.to/lastmile_qr_scan", "ios": "https://dc.lft.to/lastmile_qr_scan"}, "lon": -77.02513833333333, "fusion_lat": 0.0}, {"name": "c8fcaf0b48cd050d93684a153b4e92d3", "fusion_lon": 0.0, "lat": 38.872108833333336, "is_reserved": 0, "type": "electric_scooter", "bike_id": "c8fcaf0b48cd050d93684a153b4e92d3", "is_disabled": 0, "rental_uris": {"android": "https://dc.lft.to/lastmile_qr_scan", "ios": "https://dc.lft.to/lastmile_qr_scan"}, "lon": -76.978347, "fusion_lat": 0.0}, {"name": "621167e4ee86ec49e7378e075c489937", "fusion_lon": 0.0, "lat": 38.885077, "is_reserved": 0, "type": "electric_scooter", "bike_id": "621167e4ee86ec49e7378e075c489937", "is_disabled": 0, "rental_uris": {"android": "https://dc.lft.to/lastmile_qr_scan", "ios": "https://dc.lft.to/lastmile_qr_scan"}, "lon": -76.9984075, "fusion_lat": 0.0}, {"name": "5b3862d6f4320304b32523788b255b6f", "fusion_lon": 0.0, "lat": 38.93951233333333, "is_reserved": 0, "type": "electric_scooter", "bike_id": "5b3862d6f4320304b32523788b255b6f", "is_disabled": 0, "rental_uris": {"android": "https://dc.lft.to/lastmile_qr_scan", "ios": "https://dc.lft.to/lastmile_qr_scan"}, "lon": -77.072522, "fusion_lat": 0.0}, {"name": "1783f650c5c09cc35a1ea71fa20d79d0", "fusion_lon": 0.0, "lat": 38.89837816666667, "is_reserved": 0, "type": "electric_scooter", "bike_id": "1783f650c5c09cc35a1ea71fa20d79d0", "is_disabled": 0, "rental_uris": {"android": "https://dc.lft.to/lastmile_qr_scan", "ios": "https://dc.lft.to/lastmile_qr_scan"}, "lon": -77.0334005, "fusion_lat": 0.0}, {"name": "fa7b0ff777ea4629fa6620201b1df927", "fusion_lon": 0.0, "lat": 38.912713833333335, "is_reserved": 0, "type": "electric_scooter", "bike_id": "fa7b0ff777ea4629fa6620201b1df927", "is_disabled": 0, "rental_uris": {"android": "https://dc.lft.to/lastmile_qr_scan", "ios": "https://dc.lft.to/lastmile_qr_scan"}, "lon": -77.02228133333334, "fusion_lat": 0.0}, {"name": "0eeed0d97b12518aa818b766af6c073c", "fusion_lon": 0.0, "lat": 38.89632666666667, "is_reserved": 0, "type": "electric_scooter", "bike_id": "0eeed0d97b12518aa818b766af6c073c", "is_disabled": 0, "rental_uris": {"android": "https://dc.lft.to/lastmile_qr_scan", "ios": "https://dc.lft.to/lastmile_qr_scan"}, "lon": -77.021297, "fusion_lat": 0.0}, {"name": "f8d6f6ac4848c06bd18d0ac434fa2144", "fusion_lon": 0.0, "lat": 38.927748666666666, "is_reserved": 0, "type": "electric_scooter", "bike_id": "f8d6f6ac4848c06bd18d0ac434fa2144", "is_disabled": 0, "rental_uris": {"android": "https://dc.lft.to/lastmile_qr_scan", "ios": "https://dc.lft.to/lastmile_qr_scan"}, "lon": -77.026189, "fusion_lat": 0.0}, {"name": "22180330df4b7593f4f6f5657f91bd32", "fusion_lon": 0.0, "lat": 38.907819, "is_reserved": 0, "type": "electric_scooter", "bike_id": "22180330df4b7593f4f6f5657f91bd32", "is_disabled": 0, "rental_uris": {"android": "https://dc.lft.to/lastmile_qr_scan", "ios": "https://dc.lft.to/lastmile_qr_scan"}, "lon": -77.03829616666667, "fusion_lat": 0.0}, {"name": "26d4a24ff738ad6231686037ba86793a", "fusion_lon": 0.0, "lat": 38.79986233333333, "is_reserved": 0, "type": "electric_bike", "bike_id": "26d4a24ff738ad6231686037ba86793a", "is_disabled": 0, "rental_uris": {"android": "https://dc.lft.to/lastmile_qr_scan", "ios": "https://dc.lft.to/lastmile_qr_scan"}, "lon": -77.12982166666667, "fusion_lat": 0.0}, {"name": "905297c580c1197141d02288267b80cd", "fusion_lon": 0.0, "lat": 38.910599166666664, "is_reserved": 0, "type": "electric_scooter", "bike_id": "905297c580c1197141d02288267b80cd", "is_disabled": 0, "rental_uris": {"android": "https://dc.lft.to/lastmile_qr_scan", "ios": "https://dc.lft.to/lastmile_qr_scan"}, "lon": -77.04497183333334, "fusion_lat": 0.0}, {"name": "60fc000391fcba01d53d136e7af8688d", "fusion_lon": 0.0, "lat": 38.934788, "is_reserved": 0, "type": "electric_scooter", "bike_id": "60fc000391fcba01d53d136e7af8688d", "is_disabled": 0, "rental_uris": {"android": "https://dc.lft.to/lastmile_qr_scan", "ios": "https://dc.lft.to/lastmile_qr_scan"}, "lon": -77.03580333333333, "fusion_lat": 0.0}, {"name": "1abab9075a4991cf8482cfaac4395735", "fusion_lon": 0.0, "lat": 38.9047755, "is_reserved": 0, "type": "electric_scooter", "bike_id": "1abab9075a4991cf8482cfaac4395735", "is_disabled": 0, "rental_uris": {"android": "https://dc.lft.to/lastmile_qr_scan", "ios": "https://dc.lft.to/lastmile_qr_scan"}, "lon": -77.035486, "fusion_lat": 0.0}, {"name": "5d2c82e09479b716eb557e9dd33c2722", "fusion_lon": 0.0, "lat": 38.918795333333335, "is_reserved": 0, "type": "electric_scooter", "bike_id": "5d2c82e09479b716eb557e9dd33c2722", "is_disabled": 0, "rental_uris": {"android": "https://dc.lft.to/lastmile_qr_scan", "ios": "https://dc.lft.to/lastmile_qr_scan"}, "lon": -77.0350465, "fusion_lat": 0.0}, {"name": "887c3f55c0ad34488025d21153c5561b", "fusion_lon": 0.0, "lat": 38.9239425, "is_reserved": 0, "type": "electric_scooter", "bike_id": "887c3f55c0ad34488025d21153c5561b", "is_disabled": 0, "rental_uris": {"android": "https://dc.lft.to/lastmile_qr_scan", "ios": "https://dc.lft.to/lastmile_qr_scan"}, "lon": -77.040577, "fusion_lat": 0.0}, {"name": "87aa979057811b769a2cdeaac578f418", "fusion_lon": 0.0, "lat": 38.910053, "is_reserved": 0, "type": "electric_scooter", "bike_id": "87aa979057811b769a2cdeaac578f418", "is_disabled": 0, "rental_uris": {"android": "https://dc.lft.to/lastmile_qr_scan", "ios": "https://dc.lft.to/lastmile_qr_scan"}, "lon": -77.0400485, "fusion_lat": 0.0}, {"name": "5fe5ede8f7565c43ca9fa2a59e256812", "fusion_lon": 0.0, "lat": 38.874850333333335, "is_reserved": 0, "type": "electric_bike", "bike_id": "5fe5ede8f7565c43ca9fa2a59e256812", "is_disabled": 0, "rental_uris": {"android": "https://dc.lft.to/lastmile_qr_scan", "ios": "https://dc.lft.to/lastmile_qr_scan"}, "lon": -76.96525466666667, "fusion_lat": 0.0}, {"name": "9b28fdea3012e9b43ea113ffd1722bfa", "fusion_lon": 0.0, "lat": 38.906593666666666, "is_reserved": 0, "type": "electric_scooter", "bike_id": "9b28fdea3012e9b43ea113ffd1722bfa", "is_disabled": 0, "rental_uris": {"android": "https://dc.lft.to/lastmile_qr_scan", "ios": "https://dc.lft.to/lastmile_qr_scan"}, "lon": -77.01149066666666, "fusion_lat": 0.0}, {"name": "efebd6e90cac8197bcbe6f25e44f9c14", "fusion_lon": 0.0, "lat": 38.91419416666667, "is_reserved": 0, "type": "electric_scooter", "bike_id": "efebd6e90cac8197bcbe6f25e44f9c14", "is_disabled": 0, "rental_uris": {"android": "https://dc.lft.to/lastmile_qr_scan", "ios": "https://dc.lft.to/lastmile_qr_scan"}, "lon": -77.04920183333333, "fusion_lat": 0.0}, {"name": "40533aa9896a90c4e64d27dd16c9fcbc", "fusion_lon": 0.0, "lat": 38.90243816666667, "is_reserved": 0, "type": "electric_scooter", "bike_id": "40533aa9896a90c4e64d27dd16c9fcbc", "is_disabled": 0, "rental_uris": {"android": "https://dc.lft.to/lastmile_qr_scan", "ios": "https://dc.lft.to/lastmile_qr_scan"}, "lon": -77.0019835, "fusion_lat": 0.0}, {"name": "da3ed4cda529f10fd8d59d54916db863", "fusion_lon": 0.0, "lat": 38.87476916666667, "is_reserved": 0, "type": "electric_scooter", "bike_id": "da3ed4cda529f10fd8d59d54916db863", "is_disabled": 0, "rental_uris": {"android": "https://dc.lft.to/lastmile_qr_scan", "ios": "https://dc.lft.to/lastmile_qr_scan"}, "lon": -77.00558866666667, "fusion_lat": 0.0}, {"name": "13e94dbc18d12370970d73f66d5b7598", "fusion_lon": 0.0, "lat": 38.90168883333333, "is_reserved": 0, "type": "electric_scooter", "bike_id": "13e94dbc18d12370970d73f66d5b7598", "is_disabled": 0, "rental_uris": {"android": "https://dc.lft.to/lastmile_qr_scan", "ios": "https://dc.lft.to/lastmile_qr_scan"}, "lon": -76.930246, "fusion_lat": 0.0}, {"name": "279167bdc28a077396688ef0d16782dd", "fusion_lon": 0.0, "lat": 38.916868666666666, "is_reserved": 0, "type": "electric_scooter", "bike_id": "279167bdc28a077396688ef0d16782dd", "is_disabled": 0, "rental_uris": {"android": "https://dc.lft.to/lastmile_qr_scan", "ios": "https://dc.lft.to/lastmile_qr_scan"}, "lon": -77.01579333333333, "fusion_lat": 0.0}, {"name": "bfb85071c8c7e709cc5e9869312b5dec", "fusion_lon": 0.0, "lat": 38.88114016666667, "is_reserved": 0, "type": "electric_scooter", "bike_id": "bfb85071c8c7e709cc5e9869312b5dec", "is_disabled": 0, "rental_uris": {"android": "https://dc.lft.to/lastmile_qr_scan", "ios": "https://dc.lft.to/lastmile_qr_scan"}, "lon": -77.016523, "fusion_lat": 0.0}, {"name": "6079b9500777b93263f1b8ee6b3839e5", "fusion_lon": 0.0, "lat": 38.907213666666664, "is_reserved": 0, "type": "electric_scooter", "bike_id": "6079b9500777b93263f1b8ee6b3839e5", "is_disabled": 0, "rental_uris": {"android": "https://dc.lft.to/lastmile_qr_scan", "ios": "https://dc.lft.to/lastmile_qr_scan"}, "lon": -77.0401305, "fusion_lat": 0.0}, {"name": "4c7c1cb5b06c010d6da72e851d953695", "fusion_lon": 0.0, "lat": 38.924202666666666, "is_reserved": 0, "type": "electric_scooter", "bike_id": "4c7c1cb5b06c010d6da72e851d953695", "is_disabled": 0, "rental_uris": {"android": "https://dc.lft.to/lastmile_qr_scan", "ios": "https://dc.lft.to/lastmile_qr_scan"}, "lon": -77.05067583333333, "fusion_lat": 0.0}, {"name": "7166432ba8f004b78f77b2f0af7e882d", "fusion_lon": 0.0, "lat": 38.951846, "is_reserved": 0, "type": "electric_scooter", "bike_id": "7166432ba8f004b78f77b2f0af7e882d", "is_disabled": 0, "rental_uris": {"android": "https://dc.lft.to/lastmile_qr_scan", "ios": "https://dc.lft.to/lastmile_qr_scan"}, "lon": -77.0272565, "fusion_lat": 0.0}, {"name": "432cacdac2e1707e3473d7fec567cc55", "fusion_lon": 0.0, "lat": 38.901763333333335, "is_reserved": 0, "type": "electric_scooter", "bike_id": "432cacdac2e1707e3473d7fec567cc55", "is_disabled": 0, "rental_uris": {"android": "https://dc.lft.to/lastmile_qr_scan", "ios": "https://dc.lft.to/lastmile_qr_scan"}, "lon": -77.02486583333334, "fusion_lat": 0.0}, {"name": "ef26a8065a03efa673b1d4f33f036d8f", "fusion_lon": 0.0, "lat": 38.95757916666667, "is_reserved": 0, "type": "electric_scooter", "bike_id": "ef26a8065a03efa673b1d4f33f036d8f", "is_disabled": 0, "rental_uris": {"android": "https://dc.lft.to/lastmile_qr_scan", "ios": "https://dc.lft.to/lastmile_qr_scan"}, "lon": -77.02097233333333, "fusion_lat": 0.0}, {"name": "7e11c6b945c6e55bbaeede24c96c4069", "fusion_lon": 0.0, "lat": 38.896170166666664, "is_reserved": 0, "type": "electric_scooter", "bike_id": "7e11c6b945c6e55bbaeede24c96c4069", "is_disabled": 0, "rental_uris": {"android": "https://dc.lft.to/lastmile_qr_scan", "ios": "https://dc.lft.to/lastmile_qr_scan"}, "lon": -77.02977816666667, "fusion_lat": 0.0}, {"name": "8db7a42e0795076453bb9f80c4d3e033", "fusion_lon": 0.0, "lat": 38.904422, "is_reserved": 0, "type": "electric_scooter", "bike_id": "8db7a42e0795076453bb9f80c4d3e033", "is_disabled": 0, "rental_uris": {"android": "https://dc.lft.to/lastmile_qr_scan", "ios": "https://dc.lft.to/lastmile_qr_scan"}, "lon": -76.98493283333333, "fusion_lat": 0.0}, {"name": "1043b522c8c6612860943800c60eed47", "fusion_lon": 0.0, "lat": 38.9073435, "is_reserved": 0, "type": "electric_bike", "bike_id": "1043b522c8c6612860943800c60eed47", "is_disabled": 0, "rental_uris": {"android": "https://dc.lft.to/lastmile_qr_scan", "ios": "https://dc.lft.to/lastmile_qr_scan"}, "lon": -76.98495833333334, "fusion_lat": 0.0}, {"name": "1deaca1b452308bb3573f76ab2e96f9c", "fusion_lon": 0.0, "lat": 38.83454366666667, "is_reserved": 0, "type": "electric_scooter", "bike_id": "1deaca1b452308bb3573f76ab2e96f9c", "is_disabled": 0, "rental_uris": {"android": "https://dc.lft.to/lastmile_qr_scan", "ios": "https://dc.lft.to/lastmile_qr_scan"}, "lon": -76.99075883333333, "fusion_lat": 0.0}, {"name": "27c61b47b71c907965dc799e899e598a", "fusion_lon": 0.0, "lat": 38.9153335, "is_reserved": 0, "type": "electric_scooter", "bike_id": "27c61b47b71c907965dc799e899e598a", "is_disabled": 0, "rental_uris": {"android": "https://dc.lft.to/lastmile_qr_scan", "ios": "https://dc.lft.to/lastmile_qr_scan"}, "lon": -77.0385225, "fusion_lat": 0.0}, {"name": "782e8bb2d085e0a383aedc0c620322ea", "fusion_lon": 0.0, "lat": 38.928611, "is_reserved": 0, "type": "electric_scooter", "bike_id": "782e8bb2d085e0a383aedc0c620322ea", "is_disabled": 0, "rental_uris": {"android": "https://dc.lft.to/lastmile_qr_scan", "ios": "https://dc.lft.to/lastmile_qr_scan"}, "lon": -77.0323865, "fusion_lat": 0.0}, {"name": "24a55b392121bcba37dcec3a3cfb755f", "fusion_lon": 0.0, "lat": 38.9045095, "is_reserved": 0, "type": "electric_scooter", "bike_id": "24a55b392121bcba37dcec3a3cfb755f", "is_disabled": 0, "rental_uris": {"android": "https://dc.lft.to/lastmile_qr_scan", "ios": "https://dc.lft.to/lastmile_qr_scan"}, "lon": -76.979979, "fusion_lat": 0.0}, {"name": "41860bd025bafe071a6ec61111aef344", "fusion_lon": 0.0, "lat": 38.90374516666667, "is_reserved": 0, "type": "electric_scooter", "bike_id": "41860bd025bafe071a6ec61111aef344", "is_disabled": 0, "rental_uris": {"android": "https://dc.lft.to/lastmile_qr_scan", "ios": "https://dc.lft.to/lastmile_qr_scan"}, "lon": -77.04030066666667, "fusion_lat": 0.0}, {"name": "ea73b73e94997d11a717c5b49424ba87", "fusion_lon": 0.0, "lat": 38.91195883333333, "is_reserved": 0, "type": "electric_scooter", "bike_id": "ea73b73e94997d11a717c5b49424ba87", "is_disabled": 0, "rental_uris": {"android": "https://dc.lft.to/lastmile_qr_scan", "ios": "https://dc.lft.to/lastmile_qr_scan"}, "lon": -77.01782616666667, "fusion_lat": 0.0}, {"name": "736b0cf15f3d92372443e7153f711735", "fusion_lon": 0.0, "lat": 38.900519333333335, "is_reserved": 0, "type": "electric_scooter", "bike_id": "736b0cf15f3d92372443e7153f711735", "is_disabled": 0, "rental_uris": {"android": "https://dc.lft.to/lastmile_qr_scan", "ios": "https://dc.lft.to/lastmile_qr_scan"}, "lon": -77.0177285, "fusion_lat": 0.0}, {"name": "456e6dc9991e980218d37dd1082e537e", "fusion_lon": 0.0, "lat": 38.900279833333336, "is_reserved": 0, "type": "electric_scooter", "bike_id": "456e6dc9991e980218d37dd1082e537e", "is_disabled": 0, "rental_uris": {"android": "https://dc.lft.to/lastmile_qr_scan", "ios": "https://dc.lft.to/lastmile_qr_scan"}, "lon": -76.9805145, "fusion_lat": 0.0}, {"name": "b96fd98318958b2e5a28adc6f30c01ae", "fusion_lon": 0.0, "lat": 38.91035816666667, "is_reserved": 0, "type": "electric_scooter", "bike_id": "b96fd98318958b2e5a28adc6f30c01ae", "is_disabled": 0, "rental_uris": {"android": "https://dc.lft.to/lastmile_qr_scan", "ios": "https://dc.lft.to/lastmile_qr_scan"}, "lon": -77.0292455, "fusion_lat": 0.0}, {"name": "c2bb6654323ee80edbd118143b8d7c07", "fusion_lon": 0.0, "lat": 38.92606816666667, "is_reserved": 0, "type": "electric_scooter", "bike_id": "c2bb6654323ee80edbd118143b8d7c07", "is_disabled": 0, "rental_uris": {"android": "https://dc.lft.to/lastmile_qr_scan", "ios": "https://dc.lft.to/lastmile_qr_scan"}, "lon": -77.0663, "fusion_lat": 0.0}, {"name": "213bcab801c048771d131855ea7eb2ee", "fusion_lon": 0.0, "lat": 38.93866533333333, "is_reserved": 0, "type": "electric_scooter", "bike_id": "213bcab801c048771d131855ea7eb2ee", "is_disabled": 0, "rental_uris": {"android": "https://dc.lft.to/lastmile_qr_scan", "ios": "https://dc.lft.to/lastmile_qr_scan"}, "lon": -77.03084316666667, "fusion_lat": 0.0}, {"name": "a2b3a1418ed8483b558279068bdcdac8", "fusion_lon": 0.0, "lat": 38.92190883333333, "is_reserved": 0, "type": "electric_scooter", "bike_id": "a2b3a1418ed8483b558279068bdcdac8", "is_disabled": 0, "rental_uris": {"android": "https://dc.lft.to/lastmile_qr_scan", "ios": "https://dc.lft.to/lastmile_qr_scan"}, "lon": -77.02087966666667, "fusion_lat": 0.0}, {"name": "473eb43e26d49e3596ffd8aac25b4629", "fusion_lon": 0.0, "lat": 38.91361333333333, "is_reserved": 0, "type": "electric_scooter", "bike_id": "473eb43e26d49e3596ffd8aac25b4629", "is_disabled": 0, "rental_uris": {"android": "https://dc.lft.to/lastmile_qr_scan", "ios": "https://dc.lft.to/lastmile_qr_scan"}, "lon": -77.069386, "fusion_lat": 0.0}, {"name": "e34692117a787ced3a841dcfe4b942d6", "fusion_lon": 0.0, "lat": 38.91640783333333, "is_reserved": 0, "type": "electric_scooter", "bike_id": "e34692117a787ced3a841dcfe4b942d6", "is_disabled": 0, "rental_uris": {"android": "https://dc.lft.to/lastmile_qr_scan", "ios": "https://dc.lft.to/lastmile_qr_scan"}, "lon": -77.03849833333334, "fusion_lat": 0.0}, {"name": "07e6507dd5467e2caa993658ea982e41", "fusion_lon": 0.0, "lat": 38.931133333333335, "is_reserved": 0, "type": "electric_scooter", "bike_id": "07e6507dd5467e2caa993658ea982e41", "is_disabled": 0, "rental_uris": {"android": "https://dc.lft.to/lastmile_qr_scan", "ios": "https://dc.lft.to/lastmile_qr_scan"}, "lon": -77.03031433333334, "fusion_lat": 0.0}, {"name": "71064ee75677c0e79778263709d7f902", "fusion_lon": 0.0, "lat": 38.924921166666664, "is_reserved": 0, "type": "electric_scooter", "bike_id": "71064ee75677c0e79778263709d7f902", "is_disabled": 0, "rental_uris": {"android": "https://dc.lft.to/lastmile_qr_scan", "ios": "https://dc.lft.to/lastmile_qr_scan"}, "lon": -77.052537, "fusion_lat": 0.0}, {"name": "bd109b4f058cb616e3db0ad8421ae1e1", "fusion_lon": 0.0, "lat": 38.9165445, "is_reserved": 0, "type": "electric_scooter", "bike_id": "bd109b4f058cb616e3db0ad8421ae1e1", "is_disabled": 0, "rental_uris": {"android": "https://dc.lft.to/lastmile_qr_scan", "ios": "https://dc.lft.to/lastmile_qr_scan"}, "lon": -77.0200845, "fusion_lat": 0.0}, {"name": "2b16c94ac4b488113823f25e4c8d75f6", "fusion_lon": 0.0, "lat": 38.9004735, "is_reserved": 0, "type": "electric_scooter", "bike_id": "2b16c94ac4b488113823f25e4c8d75f6", "is_disabled": 0, "rental_uris": {"android": "https://dc.lft.to/lastmile_qr_scan", "ios": "https://dc.lft.to/lastmile_qr_scan"}, "lon": -76.98838766666667, "fusion_lat": 0.0}, {"name": "ca421584a6b18ec05c63477f53a34059", "fusion_lon": 0.0, "lat": 38.916336333333334, "is_reserved": 0, "type": "electric_scooter", "bike_id": "ca421584a6b18ec05c63477f53a34059", "is_disabled": 0, "rental_uris": {"android": "https://dc.lft.to/lastmile_qr_scan", "ios": "https://dc.lft.to/lastmile_qr_scan"}, "lon": -77.02548283333333, "fusion_lat": 0.0}, {"name": "124d034a11737dfbc7958563d967a8a4", "fusion_lon": 0.0, "lat": 38.90632033333333, "is_reserved": 0, "type": "electric_scooter", "bike_id": "124d034a11737dfbc7958563d967a8a4", "is_disabled": 0, "rental_uris": {"android": "https://dc.lft.to/lastmile_qr_scan", "ios": "https://dc.lft.to/lastmile_qr_scan"}, "lon": -77.00190216666667, "fusion_lat": 0.0}, {"name": "a5012d717d47d01296b045d7f3f0fd9a", "fusion_lon": 0.0, "lat": 38.932761, "is_reserved": 0, "type": "electric_scooter", "bike_id": "a5012d717d47d01296b045d7f3f0fd9a", "is_disabled": 0, "rental_uris": {"android": "https://dc.lft.to/lastmile_qr_scan", "ios": "https://dc.lft.to/lastmile_qr_scan"}, "lon": -77.04538433333333, "fusion_lat": 0.0}, {"name": "b8a688190532d556311e097cfd7867b4", "fusion_lon": 0.0, "lat": 38.91112833333333, "is_reserved": 0, "type": "electric_scooter", "bike_id": "b8a688190532d556311e097cfd7867b4", "is_disabled": 0, "rental_uris": {"android": "https://dc.lft.to/lastmile_qr_scan", "ios": "https://dc.lft.to/lastmile_qr_scan"}, "lon": -77.04831783333333, "fusion_lat": 0.0}, {"name": "ab65f0af6c0c51064c0f051787f8e33a", "fusion_lon": 0.0, "lat": 38.86388566666667, "is_reserved": 0, "type": "electric_scooter", "bike_id": "ab65f0af6c0c51064c0f051787f8e33a", "is_disabled": 0, "rental_uris": {"android": "https://dc.lft.to/lastmile_qr_scan", "ios": "https://dc.lft.to/lastmile_qr_scan"}, "lon": -76.99044633333334, "fusion_lat": 0.0}, {"name": "486ae64c319a3f2011b8ac2b750f4a4d", "fusion_lon": 0.0, "lat": 38.9024325, "is_reserved": 0, "type": "electric_scooter", "bike_id": "486ae64c319a3f2011b8ac2b750f4a4d", "is_disabled": 0, "rental_uris": {"android": "https://dc.lft.to/lastmile_qr_scan", "ios": "https://dc.lft.to/lastmile_qr_scan"}, "lon": -77.00195783333334, "fusion_lat": 0.0}, {"name": "c94bb391bfe715bf220b1ff4f52c0c9e", "fusion_lon": 0.0, "lat": 38.9040705, "is_reserved": 0, "type": "electric_scooter", "bike_id": "c94bb391bfe715bf220b1ff4f52c0c9e", "is_disabled": 0, "rental_uris": {"android": "https://dc.lft.to/lastmile_qr_scan", "ios": "https://dc.lft.to/lastmile_qr_scan"}, "lon": -77.06772566666666, "fusion_lat": 0.0}, {"name": "968c00381488c0f2041818e8dd42230c", "fusion_lon": 0.0, "lat": 38.92172516666667, "is_reserved": 0, "type": "electric_scooter", "bike_id": "968c00381488c0f2041818e8dd42230c", "is_disabled": 0, "rental_uris": {"android": "https://dc.lft.to/lastmile_qr_scan", "ios": "https://dc.lft.to/lastmile_qr_scan"}, "lon": -77.032308, "fusion_lat": 0.0}, {"name": "9cd6b7dbfd16f21b0987dd4e7bbbbd12", "fusion_lon": 0.0, "lat": 38.9232405, "is_reserved": 0, "type": "electric_scooter", "bike_id": "9cd6b7dbfd16f21b0987dd4e7bbbbd12", "is_disabled": 0, "rental_uris": {"android": "https://dc.lft.to/lastmile_qr_scan", "ios": "https://dc.lft.to/lastmile_qr_scan"}, "lon": -77.03569783333333, "fusion_lat": 0.0}, {"name": "f9c878e4a0cbe837f56c4ad87b5ccfb6", "fusion_lon": 0.0, "lat": 38.87697383333333, "is_reserved": 0, "type": "electric_scooter", "bike_id": "f9c878e4a0cbe837f56c4ad87b5ccfb6", "is_disabled": 0, "rental_uris": {"android": "https://dc.lft.to/lastmile_qr_scan", "ios": "https://dc.lft.to/lastmile_qr_scan"}, "lon": -77.00452916666667, "fusion_lat": 0.0}, {"name": "bfc8b5fe4f2cd73a3684bb654f3af3f0", "fusion_lon": 0.0, "lat": 38.901846666666664, "is_reserved": 0, "type": "electric_scooter", "bike_id": "bfc8b5fe4f2cd73a3684bb654f3af3f0", "is_disabled": 0, "rental_uris": {"android": "https://dc.lft.to/lastmile_qr_scan", "ios": "https://dc.lft.to/lastmile_qr_scan"}, "lon": -77.013096, "fusion_lat": 0.0}, {"name": "999576cd8d926746cb7efe14a41e8e4a", "fusion_lon": 0.0, "lat": 38.85519433333333, "is_reserved": 0, "type": "electric_bike", "bike_id": "999576cd8d926746cb7efe14a41e8e4a", "is_disabled": 0, "rental_uris": {"android": "https://dc.lft.to/lastmile_qr_scan", "ios": "https://dc.lft.to/lastmile_qr_scan"}, "lon": -76.98445866666667, "fusion_lat": 0.0}, {"name": "8c2b02e0d114d065c105175fca542b85", "fusion_lon": 0.0, "lat": 38.9125865, "is_reserved": 0, "type": "electric_scooter", "bike_id": "8c2b02e0d114d065c105175fca542b85", "is_disabled": 0, "rental_uris": {"android": "https://dc.lft.to/lastmile_qr_scan", "ios": "https://dc.lft.to/lastmile_qr_scan"}, "lon": -77.04440066666666, "fusion_lat": 0.0}, {"name": "97e4cd3b8141fafd2257ecf9c26ca3e9", "fusion_lon": 0.0, "lat": 38.908593, "is_reserved": 0, "type": "electric_scooter", "bike_id": "97e4cd3b8141fafd2257ecf9c26ca3e9", "is_disabled": 0, "rental_uris": {"android": "https://dc.lft.to/lastmile_qr_scan", "ios": "https://dc.lft.to/lastmile_qr_scan"}, "lon": -76.99971433333333, "fusion_lat": 0.0}, {"name": "25af49750e8606503e312ed440df3215", "fusion_lon": 0.0, "lat": 38.91916166666667, "is_reserved": 0, "type": "electric_scooter", "bike_id": "25af49750e8606503e312ed440df3215", "is_disabled": 0, "rental_uris": {"android": "https://dc.lft.to/lastmile_qr_scan", "ios": "https://dc.lft.to/lastmile_qr_scan"}, "lon": -77.0318935, "fusion_lat": 0.0}, {"name": "19e796dc2b36025ab9725f79cb41d784", "fusion_lon": 0.0, "lat": 38.88317083333333, "is_reserved": 0, "type": "electric_scooter", "bike_id": "19e796dc2b36025ab9725f79cb41d784", "is_disabled": 0, "rental_uris": {"android": "https://dc.lft.to/lastmile_qr_scan", "ios": "https://dc.lft.to/lastmile_qr_scan"}, "lon": -77.0005055, "fusion_lat": 0.0}, {"name": "4fb7d08e3452150ce1d64ffb785bf5ac", "fusion_lon": 0.0, "lat": 38.874766, "is_reserved": 0, "type": "electric_scooter", "bike_id": "4fb7d08e3452150ce1d64ffb785bf5ac", "is_disabled": 0, "rental_uris": {"android": "https://dc.lft.to/lastmile_qr_scan", "ios": "https://dc.lft.to/lastmile_qr_scan"}, "lon": -77.00939266666667, "fusion_lat": 0.0}, {"name": "550aa8482ed41a0186def6f7f09d3416", "fusion_lon": 0.0, "lat": 38.8431685, "is_reserved": 0, "type": "electric_scooter", "bike_id": "550aa8482ed41a0186def6f7f09d3416", "is_disabled": 0, "rental_uris": {"android": "https://dc.lft.to/lastmile_qr_scan", "ios": "https://dc.lft.to/lastmile_qr_scan"}, "lon": -76.99928633333333, "fusion_lat": 0.0}, {"name": "b698718c112d4c26de4f5bc4425bf3ef", "fusion_lon": 0.0, "lat": 38.92050116666667, "is_reserved": 0, "type": "electric_scooter", "bike_id": "b698718c112d4c26de4f5bc4425bf3ef", "is_disabled": 0, "rental_uris": {"android": "https://dc.lft.to/lastmile_qr_scan", "ios": "https://dc.lft.to/lastmile_qr_scan"}, "lon": -77.0260635, "fusion_lat": 0.0}, {"name": "f55f403dc3b43c4355bfd8b6236bfb1e", "fusion_lon": 0.0, "lat": 38.90413733333333, "is_reserved": 0, "type": "electric_scooter", "bike_id": "f55f403dc3b43c4355bfd8b6236bfb1e", "is_disabled": 0, "rental_uris": {"android": "https://dc.lft.to/lastmile_qr_scan", "ios": "https://dc.lft.to/lastmile_qr_scan"}, "lon": -76.9732995, "fusion_lat": 0.0}, {"name": "977a0deceadad6f19ad39c25430855e4", "fusion_lon": 0.0, "lat": 38.928767, "is_reserved": 0, "type": "electric_scooter", "bike_id": "977a0deceadad6f19ad39c25430855e4", "is_disabled": 0, "rental_uris": {"android": "https://dc.lft.to/lastmile_qr_scan", "ios": "https://dc.lft.to/lastmile_qr_scan"}, "lon": -77.0136135, "fusion_lat": 0.0}, {"name": "afb7bf4a586890688a492480b0eb0c83", "fusion_lon": 0.0, "lat": 38.97179033333333, "is_reserved": 0, "type": "electric_scooter", "bike_id": "afb7bf4a586890688a492480b0eb0c83", "is_disabled": 0, "rental_uris": {"android": "https://dc.lft.to/lastmile_qr_scan", "ios": "https://dc.lft.to/lastmile_qr_scan"}, "lon": -77.02699166666666, "fusion_lat": 0.0}, {"name": "5f7d78551698c08c25ba4fdaa4a0ebd5", "fusion_lon": 0.0, "lat": 38.905681, "is_reserved": 0, "type": "electric_scooter", "bike_id": "5f7d78551698c08c25ba4fdaa4a0ebd5", "is_disabled": 0, "rental_uris": {"android": "https://dc.lft.to/lastmile_qr_scan", "ios": "https://dc.lft.to/lastmile_qr_scan"}, "lon": -77.04336083333334, "fusion_lat": 0.0}, {"name": "321bccacf7c23d42e2aae6ceaabe2f54", "fusion_lon": 0.0, "lat": 38.872989833333335, "is_reserved": 0, "type": "electric_bike", "bike_id": "321bccacf7c23d42e2aae6ceaabe2f54", "is_disabled": 0, "rental_uris": {"android": "https://dc.lft.to/lastmile_qr_scan", "ios": "https://dc.lft.to/lastmile_qr_scan"}, "lon": -76.969793, "fusion_lat": 0.0}, {"name": "20020ec130a9efe730f4b7ee6606129e", "fusion_lon": 0.0, "lat": 39.000337, "is_reserved": 0, "type": "electric_bike", "bike_id": "20020ec130a9efe730f4b7ee6606129e", "is_disabled": 0, "rental_uris": {"android": "https://dc.lft.to/lastmile_qr_scan", "ios": "https://dc.lft.to/lastmile_qr_scan"}, "lon": -77.04743966666666, "fusion_lat": 0.0}, {"name": "14714b1cc2c956d234592edcb02a0db8", "fusion_lon": 0.0, "lat": 38.9156595, "is_reserved": 0, "type": "electric_scooter", "bike_id": "14714b1cc2c956d234592edcb02a0db8", "is_disabled": 0, "rental_uris": {"android": "https://dc.lft.to/lastmile_qr_scan", "ios": "https://dc.lft.to/lastmile_qr_scan"}, "lon": -77.031685, "fusion_lat": 0.0}, {"name": "f374f9ee1015221eb8c2b2e54cab40fc", "fusion_lon": 0.0, "lat": 38.949886166666666, "is_reserved": 0, "type": "electric_scooter", "bike_id": "f374f9ee1015221eb8c2b2e54cab40fc", "is_disabled": 0, "rental_uris": {"android": "https://dc.lft.to/lastmile_qr_scan", "ios": "https://dc.lft.to/lastmile_qr_scan"}, "lon": -77.02706533333334, "fusion_lat": 0.0}, {"name": "e80b2d1e5da49c08e024277dc2ff1db0", "fusion_lon": 0.0, "lat": 38.88400166666667, "is_reserved": 0, "type": "electric_scooter", "bike_id": "e80b2d1e5da49c08e024277dc2ff1db0", "is_disabled": 0, "rental_uris": {"android": "https://dc.lft.to/lastmile_qr_scan", "ios": "https://dc.lft.to/lastmile_qr_scan"}, "lon": -77.026065, "fusion_lat": 0.0}, {"name": "6e22a37995b32c9a56ad9a47bc0312df", "fusion_lon": 0.0, "lat": 38.91123966666667, "is_reserved": 0, "type": "electric_scooter", "bike_id": "6e22a37995b32c9a56ad9a47bc0312df", "is_disabled": 0, "rental_uris": {"android": "https://dc.lft.to/lastmile_qr_scan", "ios": "https://dc.lft.to/lastmile_qr_scan"}, "lon": -77.0224515, "fusion_lat": 0.0}, {"name": "00109f958c04adc615af112df092adc2", "fusion_lon": 0.0, "lat": 38.87820716666667, "is_reserved": 0, "type": "electric_scooter", "bike_id": "00109f958c04adc615af112df092adc2", "is_disabled": 0, "rental_uris": {"android": "https://dc.lft.to/lastmile_qr_scan", "ios": "https://dc.lft.to/lastmile_qr_scan"}, "lon": -76.93109416666667, "fusion_lat": 0.0}, {"name": "c7e8d81ee6b97200fdcebe68f771307a", "fusion_lon": 0.0, "lat": 38.92091466666667, "is_reserved": 0, "type": "electric_scooter", "bike_id": "c7e8d81ee6b97200fdcebe68f771307a", "is_disabled": 0, "rental_uris": {"android": "https://dc.lft.to/lastmile_qr_scan", "ios": "https://dc.lft.to/lastmile_qr_scan"}, "lon": -77.02290783333333, "fusion_lat": 0.0}, {"name": "993667b949b854c4d67c7765f8c5ee26", "fusion_lon": 0.0, "lat": 38.956908, "is_reserved": 0, "type": "electric_bike", "bike_id": "993667b949b854c4d67c7765f8c5ee26", "is_disabled": 0, "rental_uris": {"android": "https://dc.lft.to/lastmile_qr_scan", "ios": "https://dc.lft.to/lastmile_qr_scan"}, "lon": -77.02228033333333, "fusion_lat": 0.0},