{"data": {"bikes": [{"lon": -77.05011, "lat": 38.901323, "name": "7038bb243ecb5e93ce18560e500a5954", "fusion_lat": 0.0, "fusion_lon": 0.0, "rental_uris": {"android": "https://dc.lft.to/lastmile_qr_scan", "ios": "https://dc.lft.to/lastmile_qr_scan"}, "is_reserved": 0, "is_disabled": 0, "type": "electric_scooter", "bike_id": "7038bb243ecb5e93ce18560e500a5954"}, {"lon": -77.04367166666667, "lat": 38.93334466666667, "name": "62217ea993952da6e92519c95a31b3c0", "fusion_lat": 0.0, "fusion_lon": 0.0, "rental_uris": {"android": "https://dc.lft.to/lastmile_qr_scan", "ios": "https://dc.lft.to/lastmile_qr_scan"}, "is_reserved": 0, "is_disabled": 0, "type": "electric_scooter", "bike_id": "62217ea993952da6e92519c95a31b3c0"}, {"lon": -77.033666, "lat": 38.935902, "name": "310ca65316887adc864d399614ce1694", "fusion_lat": 0.0, "fusion_lon": 0.0, "rental_uris": {"android": "https://dc.lft.to/lastmile_qr_scan", "ios": "https://dc.lft.to/lastmile_qr_scan"}, "is_reserved": 0, "is_disabled": 0, "type": "electric_scooter", "bike_id": "310ca65316887adc864d399614ce1694"}, {"lon": -77.026004, "lat": 38.8873895, "name": "9160e022b8a99ed4018a4484b5b7b0da", "fusion_lat": 0.0, "fusion_lon": 0.0, "rental_uris": {"android": "https://dc.lft.to/lastmile_qr_scan", "ios": "https://dc.lft.to/lastmile_qr_scan"}, "is_reserved": 0, "is_disabled": 0, "type": "electric_scooter", "bike_id": "9160e022b8a99ed4018a4484b5b7b0da"}, {"lon": -77.04166033333334, "lat": 38.9024575, "name": "12ef0bbef0ffa26ab60926a0734b28ba", "fusion_lat": 0.0, "fusion_lon": 0.0, "rental_uris": {"android": "https://dc.lft.to/lastmile_qr_scan", "ios": "https://dc.lft.to/lastmile_qr_scan"}, "is_reserved": 0, "is_disabled": 0, "type": "electric_scooter", "bike_id": "12ef0bbef0ffa26ab60926a0734b28ba"}, {"lon": -77.03849666666666, "lat": 38.910431833333334, "name": "c14a7feafae04b425195a61a737dda94", "fusion_lat": 0.0, "fusion_lon": 0.0, "rental_uris": {"android": "https://dc.lft.to/lastmile_qr_scan", "ios": "https://dc.lft.to/lastmile_qr_scan"}, "is_reserved": 0, "is_disabled": 0, "type": "electric_scooter", "bike_id": "c14a7feafae04b425195a61a737dda94"}, {"lon": -77.03378383333333, "lat": 38.90277116666667, "name": "ebd90954d91ec86ace036b8a4b964879", "fusion_lat": 0.0, "fusion_lon": 0.0, "rental_uris": {"android": "https://dc.lft.to/lastmile_qr_scan", "ios": "https://dc.lft.to/lastmile_qr_scan"}, "is_reserved": 0, "is_disabled": 0, "type": "electric_scooter", "bike_id": "ebd90954d91ec86ace036b8a4b964879"}, {"lon": -76.97598533333333, "lat": 38.903309166666666, "name": "c68708b73526b47fa95aad0248f00535", "fusion_lat": 0.0, "fusion_lon": 0.0, "rental_uris": {"android": "https://dc.lft.to/lastmile_qr_scan", "ios": "https://dc.lft.to/lastmile_qr_scan"}, "is_reserved": 0, "is_disabled": 0, "type": "electric_scooter", "bike_id": "c68708b73526b47fa95aad0248f00535"}, {"lon": -77.03264333333334, "lat": 38.938993333333336, "name": "d820232316c48ef94563e786027ba8d1", "fusion_lat": 0.0, "fusion_lon": 0.0, "rental_uris": {"android": "https://dc.lft.to/lastmile_qr_scan", "ios": "https://dc.lft.to/lastmile_qr_scan"}, "is_reserved": 0, "is_disabled": 0, "type": "electric_bike", "bike_id": "d820232316c48ef94563e786027ba8d1"}, {"lon": -77.06435633333334, "lat": 38.91040383333333, "name": "e3417afacb3f0d4f9123b0cb9f217fea", "fusion_lat": 0.0, "fusion_lon": 0.0, "rental_uris": {"android": "https://dc.lft.to/lastmile_qr_scan", "ios": "https://dc.lft.to/lastmile_qr_scan"}, "is_reserved": 0, "is_disabled": 0, "type": "electric_scooter", "bike_id": "e3417afacb3f0d4f9123b0cb9f217fea"}, {"lon": -77.0033565, "lat": 38.893521666666665, "name": "26d97a8509f27f19df1ddc528e0bc0e2", "fusion_lat": 0.0, "fusion_lon": 0.0, "rental_uris": {"android": "https://dc.lft.to/lastmile_qr_scan", "ios": "https://dc.lft.to/lastmile_qr_scan"}, "is_reserved": 0, "is_disabled": 0, "type": "electric_scooter", "bike_id": "26d97a8509f27f19df1ddc528e0bc0e2"}, {"lon": -77.02700966666667, "lat": 38.91825716666666, "name": "2050d2898ba05bbe8ceff15fe7cf032e", "fusion_lat": 0.0, "fusion_lon": 0.0, "rental_uris": {"android": "https://dc.lft.to/lastmile_qr_scan", "ios": "https://dc.lft.to/lastmile_qr_scan"}, "is_reserved": 0, "is_disabled": 0, "type": "electric_scooter", "bike_id": "2050d2898ba05bbe8ceff15fe7cf032e"}, {"lon": -77.005951, "lat": 38.90556266666667, "name": "b41ac73681fea0a90fdf13fe6acc42fb", "fusion_lat": 0.0, "fusion_lon": 0.0, "rental_uris": {"android": "https://dc.lft.to/lastmile_qr_scan", "ios": "https://dc.lft.to/lastmile_qr_scan"}, "is_reserved": 0, "is_disabled": 0, "type": "electric_scooter", "bike_id": "b41ac73681fea0a90fdf13fe6acc42fb"}, {"lon": -77.0283475, "lat": 38.92472433333333, "name": "96ae47df0e84951583eda2961c3318bd", "fusion_lat": 0.0, "fusion_lon": 0.0, "rental_uris": {"android": "https://dc.lft.to/lastmile_qr_scan", "ios": "https://dc.lft.to/lastmile_qr_scan"}, "is_reserved": 0, "is_disabled": 0, "type": "electric_scooter", "bike_id": "96ae47df0e84951583eda2961c3318bd"}, {"lon": -77.0269515, "lat": 38.922529833333336, "name": "1c1e8595ce69b60dfe8b1368a8df8e64", "fusion_lat": 0.0, "fusion_lon": 0.0, "rental_uris": {"android": "https://dc.lft.to/lastmile_qr_scan", "ios": "https://dc.lft.to/lastmile_qr_scan"}, "is_reserved": 0, "is_disabled": 0, "type": "electric_scooter", "bike_id": "1c1e8595ce69b60dfe8b1368a8df8e64"}, {"lon": -77.027662, "lat": 38.891952, "name": "078e4fca5b6d45a2a36e64e37824aa6a", "fusion_lat": 0.0, "fusion_lon": 0.0, "rental_uris": {"android": "https://dc.lft.to/lastmile_qr_scan", "ios": "https://dc.lft.to/lastmile_qr_scan"}, "is_reserved": 0, "is_disabled": 0, "type": "electric_scooter", "bike_id": "078e4fca5b6d45a2a36e64e37824aa6a"}, {"lon": -77.01771166666667, "lat": 38.90034433333334, "name": "7b2c8fd2d149c526903d037f151be830", "fusion_lat": 0.0, "fusion_lon": 0.0, "rental_uris": {"android": "https://dc.lft.to/lastmile_qr_scan", "ios": "https://dc.lft.to/lastmile_qr_scan"}, "is_reserved": 0, "is_disabled": 0, "type": "electric_scooter", "bike_id": "7b2c8fd2d149c526903d037f151be830"}, {"lon": -77.01081416666666, "lat": 38.95652833333333, "name": "18021bc4d7205589d2772b76a2e64b75", "fusion_lat": 0.0, "fusion_lon": 0.0, "rental_uris": {"android": "https://dc.lft.to/lastmile_qr_scan", "ios": "https://dc.lft.to/lastmile_qr_scan"}, "is_reserved": 0, "is_disabled": 0, "type": "electric_bike", "bike_id": "18021bc4d7205589d2772b76a2e64b75"}, {"lon": -77.034452, "lat": 38.918408166666666, "name": "5cee926c81ee67e88b1f931332393517", "fusion_lat": 0.0, "fusion_lon": 0.0, "rental_uris": {"android": "https://dc.lft.to/lastmile_qr_scan", "ios": "https://dc.lft.to/lastmile_qr_scan"}, "is_reserved": 0, "is_disabled": 0, "type": "electric_scooter", "bike_id": "5cee926c81ee67e88b1f931332393517"}, {"lon": -77.03945416666667, "lat": 38.902725833333335, "name": "b75481d327748d447d1ea4b7eadf63f0", "fusion_lat": 0.0, "fusion_lon": 0.0, "rental_uris": {"android": "https://dc.lft.to/lastmile_qr_scan", "ios": "https://dc.lft.to/lastmile_qr_scan"}, "is_reserved": 0, "is_disabled": 0, "type": "electric_scooter", "bike_id": "b75481d327748d447d1ea4b7eadf63f0"}, {"lon": -76.9763055, "lat": 38.892837666666665, "name": "1b7102ef6a5ccc028ef7e808cae3a48b", "fusion_lat": 0.0, "fusion_lon": 0.0, "rental_uris": {"android": "https://dc.lft.to/lastmile_qr_scan", "ios": "https://dc.lft.to/lastmile_qr_scan"}, "is_reserved": 0, "is_disabled": 0, "type": "electric_bike", "bike_id": "1b7102ef6a5ccc028ef7e808cae3a48b"}, {"lon": -77.04251666666667, "lat": 38.9205145, "name": "3ec0e69189e377df6a42db9f07155e08", "fusion_lat": 0.0, "fusion_lon": 0.0, "rental_uris": {"android": "https://dc.lft.to/lastmile_qr_scan", "ios": "https://dc.lft.to/lastmile_qr_scan"}, "is_reserved": 0, "is_disabled": 0, "type": "electric_scooter", "bike_id": "3ec0e69189e377df6a42db9f07155e08"}, {"lon": -77.00591566666667, "lat": 38.90620283333333, "name": "4f620840d7388bfbe6d9694c69dc71e4", "fusion_lat": 0.0, "fusion_lon": 0.0, "rental_uris": {"android": "https://dc.lft.to/lastmile_qr_scan", "ios": "https://dc.lft.to/lastmile_qr_scan"}, "is_reserved": 0, "is_disabled": 0, "type": "electric_scooter", "bike_id": "4f620840d7388bfbe6d9694c69dc71e4"}, {"lon": -77.06389366666667, "lat": 38.92910916666666, "name": "8ac6d484c88226cd2629aad36e9ed397", "fusion_lat": 0.0, "fusion_lon": 0.0, "rental_uris": {"android": "https://dc.lft.to/lastmile_qr_scan", "ios": "https://dc.lft.to/lastmile_qr_scan"}, "is_reserved": 0, "is_disabled": 0, "type": "electric_scooter", "bike_id": "8ac6d484c88226cd2629aad36e9ed397"}, {"lon": -77.00210766666666, "lat": 38.89723166666667, "name": "9d35f5f33a6c73c46d061ed30b973468", "fusion_lat": 0.0, "fusion_lon": 0.0, "rental_uris": {"android": "https://dc.lft.to/lastmile_qr_scan", "ios": "https://dc.lft.to/lastmile_qr_scan"}, "is_reserved": 0, "is_disabled": 0, "type": "electric_scooter", "bike_id": "9d35f5f33a6c73c46d061ed30b973468"}, {"lon": -76.99045883333334, "lat": 38.902930166666664, "name": "7933564b4dfc73086070ba99c129e146", "fusion_lat": 0.0, "fusion_lon": 0.0, "rental_uris": {"android": "https://dc.lft.to/lastmile_qr_scan", "ios": "https://dc.lft.to/lastmile_qr_scan"}, "is_reserved": 0, "is_disabled": 0, "type": "electric_bike", "bike_id": "7933564b4dfc73086070ba99c129e146"}, {"lon": -77.049044, "lat": 38.888399666666665, "name": "900363f3ba440e5ac2b2174bb40d470f", "fusion_lat": 0.0, "fusion_lon": 0.0, "rental_uris": {"android": "https://dc.lft.to/lastmile_qr_scan", "ios": "https://dc.lft.to/lastmile_qr_scan"}, "is_reserved": 0, "is_disabled": 0, "type": "electric_scooter", "bike_id": "900363f3ba440e5ac2b2174bb40d470f"}, {"lon": -77.0423585, "lat": 38.92270466666667, "name": "5539728c62f9ce44d39dbef43809e7ca", "fusion_lat": 0.0, "fusion_lon": 0.0, "rental_uris": {"android": "https://dc.lft.to/lastmile_qr_scan", "ios": "https://dc.lft.to/lastmile_qr_scan"}, "is_reserved": 0, "is_disabled": 0, "type": "electric_scooter", "bike_id": "5539728c62f9ce44d39dbef43809e7ca"}, {"lon": -76.9883995, "lat": 38.901822333333335, "name": "2d8fa6e46b9575d879760623f1cb4469", "fusion_lat": 0.0, "fusion_lon": 0.0, "rental_uris": {"android": "https://dc.lft.to/lastmile_qr_scan", "ios": "https://dc.lft.to/lastmile_qr_scan"}, "is_reserved": 0, "is_disabled": 0, "type": "electric_scooter", "bike_id": "2d8fa6e46b9575d879760623f1cb4469"}, {"lon": -77.00712616666667, "lat": 38.884873666666664, "name": "eef0e29a634dc2b088953bdf6011d73e", "fusion_lat": 0.0, "fusion_lon": 0.0, "rental_uris": {"android": "https://dc.lft.to/lastmile_qr_scan", "ios": "https://dc.lft.to/lastmile_qr_scan"}, "is_reserved": 0, "is_disabled": 0, "type": "electric_scooter", "bike_id": "eef0e29a634dc2b088953bdf6011d73e"}, {"lon": -77.02763033333333, "lat": 38.95611383333333, "name": "d3d774fc677eb7814c252c0719665d70", "fusion_lat": 0.0, "fusion_lon": 0.0, "rental_uris": {"android": "https://dc.lft.to/lastmile_qr_scan", "ios": "https://dc.lft.to/lastmile_qr_scan"}, "is_reserved": 0, "is_disabled": 0, "type": "electric_scooter", "bike_id": "d3d774fc677eb7814c252c0719665d70"}, {"lon": -77.04737816666666, "lat": 38.91113216666667, "name": "7db87662dca73fee556ef50d70e7262e", "fusion_lat": 0.0, "fusion_lon": 0.0, "rental_uris": {"android": "https://dc.lft.to/lastmile_qr_scan", "ios": "https://dc.lft.to/lastmile_qr_scan"}, "is_reserved": 0, "is_disabled": 0, "type": "electric_scooter", "bike_id": "7db87662dca73fee556ef50d70e7262e"}, {"lon": -77.02965683333333, "lat": 38.954238333333336, "name": "a6a01c7f405a044435fdc50b0b9c1c12", "fusion_lat": 0.0, "fusion_lon": 0.0, "rental_uris": {"android": "https://dc.lft.to/lastmile_qr_scan", "ios": "https://dc.lft.to/lastmile_qr_scan"}, "is_reserved": 0, "is_disabled": 0, "type": "electric_scooter", "bike_id": "a6a01c7f405a044435fdc50b0b9c1c12"}, {"lon": -77.0227685, "lat": 38.916746333333336, "name": "fac3e59c5a6334d0a8eaae18d4716257", "fusion_lat": 0.0, "fusion_lon": 0.0, "rental_uris": {"android": "https://dc.lft.to/lastmile_qr_scan", "ios": "https://dc.lft.to/lastmile_qr_scan"}, "is_reserved": 0, "is_disabled": 0, "type": "electric_scooter", "bike_id": "fac3e59c5a6334d0a8eaae18d4716257"}, {"lon": -77.069547, "lat": 38.99042766666667, "name": "4da7856281e5cee36356656bb62c25c2", "fusion_lat": 0.0, "fusion_lon": 0.0, "rental_uris": {"android": "https://dc.lft.to/lastmile_qr_scan", "ios": "https://dc.lft.to/lastmile_qr_scan"}, "is_reserved": 0, "is_disabled": 0, "type": "electric_bike", "bike_id": "4da7856281e5cee36356656bb62c25c2"}, {"lon": -77.05516566666667, "lat": 38.930001, "name": "245a06fc5d6ae1a8264b625d91ed6c93", "fusion_lat": 0.0, "fusion_lon": 0.0, "rental_uris": {"android": "https://dc.lft.to/lastmile_qr_scan", "ios": "https://dc.lft.to/lastmile_qr_scan"}, "is_reserved": 0, "is_disabled": 0, "type": "electric_scooter", "bike_id": "245a06fc5d6ae1a8264b625d91ed6c93"}, {"lon": -77.011163, "lat": 38.87090366666666, "name": "c9fd8693a4efc8b5e80068dca2d6199f", "fusion_lat": 0.0, "fusion_lon": 0.0, "rental_uris": {"android": "https://dc.lft.to/lastmile_qr_scan", "ios": "https://dc.lft.to/lastmile_qr_scan"}, "is_reserved": 0, "is_disabled": 0, "type": "electric_scooter", "bike_id": "c9fd8693a4efc8b5e80068dca2d6199f"}, {"lon": -77.05382883333333, "lat": 38.910502666666666, "name": "f1dd65bc18c985d92aa73c1a6b01e85f", "fusion_lat": 0.0, "fusion_lon": 0.0, "rental_uris": {"android": "https://dc.lft.to/lastmile_qr_scan", "ios": "https://dc.lft.to/lastmile_qr_scan"}, "is_reserved": 0, "is_disabled": 0, "type": "electric_scooter", "bike_id": "f1dd65bc18c985d92aa73c1a6b01e85f"}, {"lon": -77.007921, "lat": 38.897167333333336, "name": "6800158ca5a204454665faea40fb900c", "fusion_lat": 0.0, "fusion_lon": 0.0, "rental_uris": {"android": "https://dc.lft.to/lastmile_qr_scan", "ios": "https://dc.lft.to/lastmile_qr_scan"}, "is_reserved": 0, "is_disabled": 0, "type": "electric_scooter", "bike_id": "6800158ca5a204454665faea40fb900c"}, {"lon": -77.02591366666667, "lat": 38.903529, "name": "6768c42715db1c90b8b4935220f6daf9", "fusion_lat": 0.0, "fusion_lon": 0.0, "rental_uris": {"android": "https://dc.lft.to/lastmile_qr_scan", "ios": "https://dc.lft.to/lastmile_qr_scan"}, "is_reserved": 0, "is_disabled": 0, "type": "electric_scooter", "bike_id": "6768c42715db1c90b8b4935220f6daf9"}, {"lon": -77.04273116666667, "lat": 38.92245466666667, "name": "8df0689134d02861632396704a30fef9", "fusion_lat": 0.0, "fusion_lon": 0.0, "rental_uris": {"android": "https://dc.lft.to/lastmile_qr_scan", "ios": "https://dc.lft.to/lastmile_qr_scan"}, "is_reserved": 0, "is_disabled": 0, "type": "electric_scooter", "bike_id": "8df0689134d02861632396704a30fef9"}, {"lon": -77.0003425, "lat": 38.9197065, "name": "67db94f159babfc5412a75f68901c2c2", "fusion_lat": 0.0, "fusion_lon": 0.0, "rental_uris": {"android": "https://dc.lft.to/lastmile_qr_scan", "ios": "https://dc.lft.to/lastmile_qr_scan"}, "is_reserved": 0, "is_disabled": 0, "type": "electric_scooter", "bike_id": "67db94f159babfc5412a75f68901c2c2"}, {"lon": -77.02390316666667, "lat": 38.957339833333336, "name": "5fb284ea21d802a8a52e384fb973c733", "fusion_lat": 0.0, "fusion_lon": 0.0, "rental_uris": {"android": "https://dc.lft.to/lastmile_qr_scan", "ios": "https://dc.lft.to/lastmile_qr_scan"}, "is_reserved": 0, "is_disabled": 0, "type": "electric_scooter", "bike_id": "5fb284ea21d802a8a52e384fb973c733"}, {"lon": -76.99628683333333, "lat": 38.885646333333334, "name": "2a2b64f35a00e1ce9eadfab6c35c31f6", "fusion_lat": 0.0, "fusion_lon": 0.0, "rental_uris": {"android": "https://dc.lft.to/lastmile_qr_scan", "ios": "https://dc.lft.to/lastmile_qr_scan"}, "is_reserved": 0, "is_disabled": 0, "type": "electric_scooter", "bike_id": "2a2b64f35a00e1ce9eadfab6c35c31f6"}, {"lon": -76.98729766666666, "lat": 38.867099333333336, "name": "adef78ca8c2daba3024af647f6907dbf", "fusion_lat": 0.0, "fusion_lon": 0.0, "rental_uris": {"android": "https://dc.lft.to/lastmile_qr_scan", "ios": "https://dc.lft.to/lastmile_qr_scan"}, "is_reserved": 0, "is_disabled": 0, "type": "electric_scooter", "bike_id": "adef78ca8c2daba3024af647f6907dbf"}, {"lon": -77.036397, "lat": 38.917851666666664, "name": "6e93f9fa4418bc264b0509490b50dc87", "fusion_lat": 0.0, "fusion_lon": 0.0, "rental_uris": {"android": "https://dc.lft.to/lastmile_qr_scan", "ios": "https://dc.lft.to/lastmile_qr_scan"}, "is_reserved": 0, "is_disabled": 0, "type": "electric_scooter", "bike_id": "6e93f9fa4418bc264b0509490b50dc87"}, {"lon": -76.94652583333334, "lat": 38.898259333333336, "name": "31615c7f1eb76c4df6d94c5d1a013e98", "fusion_lat": 0.0, "fusion_lon": 0.0, "rental_uris": {"android": "https://dc.lft.to/lastmile_qr_scan", "ios": "https://dc.lft.to/lastmile_qr_scan"}, "is_reserved": 0, "is_disabled": 0, "type": "electric_scooter", "bike_id": "31615c7f1eb76c4df6d94c5d1a013e98"}, {"lon": -77.02128833333333, "lat": 38.9030155, "name": "e275393dd96ac8bacf79ee2e2523a922", "fusion_lat": 0.0, "fusion_lon": 0.0, "rental_uris": {"android": "https://dc.lft.to/lastmile_qr_scan", "ios": "https://dc.lft.to/lastmile_qr_scan"}, "is_reserved": 0, "is_disabled": 0, "type": "electric_scooter", "bike_id": "e275393dd96ac8bacf79ee2e2523a922"}, {"lon": -77.0002775, "lat": 38.873620833333334, "name": "d6a146210e9e649265e92f06f3a3355f", "fusion_lat": 0.0, "fusion_lon": 0.0, "rental_uris": {"android": "https://dc.lft.to/lastmile_qr_scan", "ios": "https://dc.lft.to/lastmile_qr_scan"}, "is_reserved": 0, "is_disabled": 0, "type": "electric_scooter", "bike_id": "d6a146210e9e649265e92f06f3a3355f"}, {"lon": -77.0419055, "lat": 38.9204595, "name": "c649bd428c27193167d88dc371518068", "fusion_lat": 0.0, "fusion_lon": 0.0, "rental_uris": {"android": "https://dc.lft.to/lastmile_qr_scan", "ios": "https://dc.lft.to/lastmile_qr_scan"}, "is_reserved": 0, "is_disabled": 0, "type": "electric_scooter", "bike_id": "c649bd428c27193167d88dc371518068"}, {"lon": -77.04902166666666, "lat": 38.87491466666667, "name": "218819acdc2d0ada39d11a2d66827093", "fusion_lat": 0.0, "fusion_lon": 0.0, "rental_uris": {"android": "https://dc.lft.to/lastmile_qr_scan", "ios": "https://dc.lft.to/lastmile_qr_scan"}, "is_reserved": 0, "is_disabled": 0, "type": "electric_bike", "bike_id": "218819acdc2d0ada39d11a2d66827093"}, {"lon": -77.04682266666667, "lat": 38.8922095, "name": "52579a329696fea4c55da6800f407637", "fusion_lat": 0.0, "fusion_lon": 0.0, "rental_uris": {"android": "https://dc.lft.to/lastmile_qr_scan", "ios": "https://dc.lft.to/lastmile_qr_scan"}, "is_reserved": 0, "is_disabled": 0, "type": "electric_scooter", "bike_id": "52579a329696fea4c55da6800f407637"}, {"lon": -76.98571283333334, "lat": 38.898846, "name": "711fc08c4b2a0c8e0fdf9e640793004f", "fusion_lat": 0.0, "fusion_lon": 0.0, "rental_uris": {"android": "https://dc.lft.to/lastmile_qr_scan", "ios": "https://dc.lft.to/lastmile_qr_scan"}, "is_reserved": 0, "is_disabled": 0, "type": "electric_scooter", "bike_id": "711fc08c4b2a0c8e0fdf9e640793004f"}, {"lon": -77.01815733333333, "lat": 38.911933166666664, "name": "9e8c85c13980736963c9e399931e39ac", "fusion_lat": 0.0, "fusion_lon": 0.0, "rental_uris": {"android": "https://dc.lft.to/lastmile_qr_scan", "ios": "https://dc.lft.to/lastmile_qr_scan"}, "is_reserved": 0, "is_disabled": 0, "type": "electric_scooter", "bike_id": "9e8c85c13980736963c9e399931e39ac"}, {"lon": -77.004686, "lat": 38.87758683333333, "name": "32adbbe78521ece49fdce6bc4e2d1d9a", "fusion_lat": 0.0, "fusion_lon": 0.0, "rental_uris": {"android": "https://dc.lft.to/lastmile_qr_scan", "ios": "https://dc.lft.to/lastmile_qr_scan"}, "is_reserved": 0, "is_disabled": 0, "type": "electric_scooter", "bike_id": "32adbbe78521ece49fdce6bc4e2d1d9a"}, {"lon": -77.03344933333334, "lat": 38.928715333333336, "name": "3317105762ac7540c958b90c8e1a17f9", "fusion_lat": 0.0, "fusion_lon": 0.0, "rental_uris": {"android": "https://dc.lft.to/lastmile_qr_scan", "ios": "https://dc.lft.to/lastmile_qr_scan"}, "is_reserved": 0, "is_disabled": 0, "type": "electric_scooter", "bike_id": "3317105762ac7540c958b90c8e1a17f9"}, {"lon": -77.039001, "lat": 38.917141666666666, "name": "5948bb8d2d82b263c98c78b2abd97b16", "fusion_lat": 0.0, "fusion_lon": 0.0, "rental_uris": {"android": "https://dc.lft.to/lastmile_qr_scan", "ios": "https://dc.lft.to/lastmile_qr_scan"}, "is_reserved": 0, "is_disabled": 0, "type": "electric_scooter", "bike_id": "5948bb8d2d82b263c98c78b2abd97b16"}, {"lon": -77.03431283333333, "lat": 38.939701666666664, "name": "99c45621fb0234857f23d39faa59fde5", "fusion_lat": 0.0, "fusion_lon": 0.0, "rental_uris": {"android": "https://dc.lft.to/lastmile_qr_scan", "ios": "https://dc.lft.to/lastmile_qr_scan"}, "is_reserved": 0, "is_disabled": 0, "type": "electric_scooter", "bike_id": "99c45621fb0234857f23d39faa59fde5"}, {"lon": -77.04096383333334, "lat": 38.91258233333333, "name": "ff852701ccce6676c47f3dc45cc34320", "fusion_lat": 0.0, "fusion_lon": 0.0, "rental_uris": {"android": "https://dc.lft.to/lastmile_qr_scan", "ios": "https://dc.lft.to/lastmile_qr_scan"}, "is_reserved": 0, "is_disabled": 0, "type": "electric_scooter", "bike_id": "ff852701ccce6676c47f3dc45cc34320"}, {"lon": -77.0468005, "lat": 38.90073183333333, "name": "f34c750505a5a3e8226748b5d52ddec7", "fusion_lat": 0.0, "fusion_lon": 0.0, "rental_uris": {"android": "https://dc.lft.to/lastmile_qr_scan", "ios": "https://dc.lft.to/lastmile_qr_scan"}, "is_reserved": 0, "is_disabled": 0, "type": "electric_scooter", "bike_id": "f34c750505a5a3e8226748b5d52ddec7"}, {"lon": -77.10031616666667, "lat": 38.99061533333333, "name": "784627dc75345c29595f61a4706fa098", "fusion_lat": 0.0, "fusion_lon": 0.0, "rental_uris": {"android": "https://dc.lft.to/lastmile_qr_scan", "ios": "https://dc.lft.to/lastmile_qr_scan"}, "is_reserved": 0, "is_disabled": 0, "type": "electric_bike", "bike_id": "784627dc75345c29595f61a4706fa098"}, {"lon": -77.0441125, "lat": 38.910808333333335, "name": "bbebe702346b67f2ba0614d6e060b0ac", "fusion_lat": 0.0, "fusion_lon": 0.0, "rental_uris": {"android": "https://dc.lft.to/lastmile_qr_scan", "ios": "https://dc.lft.to/lastmile_qr_scan"}, "is_reserved": 0, "is_disabled": 0, "type": "electric_scooter", "bike_id": "bbebe702346b67f2ba0614d6e060b0ac"}, {"lon": -77.04154016666666, "lat": 38.923339166666665, "name": "f43f10f215b2973f761b23520daecd36", "fusion_lat": 0.0, "fusion_lon": 0.0, "rental_uris": {"android": "https://dc.lft.to/lastmile_qr_scan", "ios": "https://dc.lft.to/lastmile_qr_scan"}, "is_reserved": 0, "is_disabled": 0, "type": "electric_scooter", "bike_id": "f43f10f215b2973f761b23520daecd36"}, {"lon": -77.0341055, "lat": 38.91929483333333, "name": "c6a89ff3780590baf8f44faf1a32fd6a", "fusion_lat": 0.0, "fusion_lon": 0.0, "rental_uris": {"android": "https://dc.lft.to/lastmile_qr_scan", "ios": "https://dc.lft.to/lastmile_qr_scan"}, "is_reserved": 0, "is_disabled": 0, "type": "electric_scooter", "bike_id": "c6a89ff3780590baf8f44faf1a32fd6a"}, {"lon": -77.007368, "lat": 38.876942666666665, "name": "890dc1a82b0c3a363de8a25068330cfd", "fusion_lat": 0.0, "fusion_lon": 0.0, "rental_uris": {"android": "https://dc.lft.to/lastmile_qr_scan", "ios": "https://dc.lft.to/lastmile_qr_scan"}, "is_reserved": 0, "is_disabled": 0, "type": "electric_scooter", "bike_id": "890dc1a82b0c3a363de8a25068330cfd"}, {"lon": -76.999194, "lat": 38.909397, "name": "570091035a8d384836cc55e4d6fe0406", "fusion_lat": 0.0, "fusion_lon": 0.0, "rental_uris": {"android": "https://dc.lft.to/lastmile_qr_scan", "ios": "https://dc.lft.to/lastmile_qr_scan"}, "is_reserved": 0, "is_disabled": 0, "type": "electric_scooter", "bike_id": "570091035a8d384836cc55e4d6fe0406"}, {"lon": -76.994692, "lat": 38.86190916666666, "name": "4e4266a5e1adcf373626a82450230b6b", "fusion_lat": 0.0, "fusion_lon": 0.0, "rental_uris": {"android": "https://dc.lft.to/lastmile_qr_scan", "ios": "https://dc.lft.to/lastmile_qr_scan"}, "is_reserved": 0, "is_disabled": 0, "type": "electric_scooter", "bike_id": "4e4266a5e1adcf373626a82450230b6b"}, {"lon": -77.06845133333333, "lat": 38.9172965, "name": "2224e263245f647e4066fe2c4825f25b", "fusion_lat": 0.0, "fusion_lon": 0.0, "rental_uris": {"android": "https://dc.lft.to/lastmile_qr_scan", "ios": "https://dc.lft.to/lastmile_qr_scan"}, "is_reserved": 0, "is_disabled": 0, "type": "electric_scooter", "bike_id": "2224e263245f647e4066fe2c4825f25b"}, {"lon": -77.10627733333334, "lat": 38.873242, "name": "493ae89da9aa1e9411aca6b3d3c88222", "fusion_lat": 0.0, "fusion_lon": 0.0, "rental_uris": {"android": "https://dc.lft.to/lastmile_qr_scan", "ios": "https://dc.lft.to/lastmile_qr_scan"}, "is_reserved": 0, "is_disabled": 0, "type": "electric_bike", "bike_id": "493ae89da9aa1e9411aca6b3d3c88222"}, {"lon": -77.03855616666667, "lat": 38.932492333333336, "name": "8a231d5867b9589f827197b05fc23b1f", "fusion_lat": 0.0, "fusion_lon": 0.0, "rental_uris": {"android": "https://dc.lft.to/lastmile_qr_scan", "ios": "https://dc.lft.to/lastmile_qr_scan"}, "is_reserved": 0, "is_disabled": 0, "type": "electric_scooter", "bike_id": "8a231d5867b9589f827197b05fc23b1f"}, {"lon": -77.02420816666667, "lat": 38.919149833333336, "name": "c5bc1e4831283f7dda8b70e3be179673", "fusion_lat": 0.0, "fusion_lon": 0.0, "rental_uris": {"android": "https://dc.lft.to/lastmile_qr_scan", "ios": "https://dc.lft.to/lastmile_qr_scan"}, "is_reserved": 0, "is_disabled": 0, "type": "electric_scooter", "bike_id": "c5bc1e4831283f7dda8b70e3be179673"}, {"lon": -77.03466933333333, "lat": 38.91699233333333, "name": "012f5a0e4055669867d55d50b980103a", "fusion_lat": 0.0, "fusion_lon": 0.0, "rental_uris": {"android": "https://dc.lft.to/lastmile_qr_scan", "ios": "https://dc.lft.to/lastmile_qr_scan"}, "is_reserved": 0, "is_disabled": 0, "type": "electric_scooter", "bike_id": "012f5a0e4055669867d55d50b980103a"}, {"lon": -77.03748816666666, "lat": 38.92916016666667, "name": "5509afef2197d716967c1dda5f68db18", "fusion_lat": 0.0, "fusion_lon": 0.0, "rental_uris": {"android": "https://dc.lft.to/lastmile_qr_scan", "ios": "https://dc.lft.to/lastmile_qr_scan"}, "is_reserved": 0, "is_disabled": 0, "type": "electric_scooter", "bike_id": "5509afef2197d716967c1dda5f68db18"}, {"lon": -77.028366, "lat": 38.88768316666667, "name": "8dde47d0eb36678f2162e11c92603311", "fusion_lat": 0.0, "fusion_lon": 0.0, "rental_uris": {"android": "https://dc.lft.to/lastmile_qr_scan", "ios": "https://dc.lft.to/lastmile_qr_scan"}, "is_reserved": 0, "is_disabled": 0, "type": "electric_scooter", "bike_id": "8dde47d0eb36678f2162e11c92603311"}, {"lon": -77.02470683333334, "lat": 38.938568333333336, "name": "06957c217c90111bbaf1e4f439c4dd4f", "fusion_lat": 0.0, "fusion_lon": 0.0, "rental_uris": {"android": "https://dc.lft.to/lastmile_qr_scan", "ios": "https://dc.lft.to/lastmile_qr_scan"}, "is_reserved": 0, "is_disabled": 0, "type": "electric_scooter", "bike_id": "06957c217c90111bbaf1e4f439c4dd4f"}, {"lon": -77.00745183333333, "lat": 38.903608166666665, "name": "50c7e0331e2c16b4acb902a4ec961cdb", "fusion_lat": 0.0, "fusion_lon": 0.0, "rental_uris": {"android": "https://dc.lft.to/lastmile_qr_scan", "ios": "https://dc.lft.to/lastmile_qr_scan"}, "is_reserved": 0, "is_disabled": 0, "type": "electric_scooter", "bike_id": "50c7e0331e2c16b4acb902a4ec961cdb"}, {"lon": -76.93345616666667, "lat": 38.899057666666664, "name": "f1b5f87808ed3cbef4c853227c4bc063", "fusion_lat": 0.0, "fusion_lon": 0.0, "rental_uris": {"android": "https://dc.lft.to/lastmile_qr_scan", "ios": "https://dc.lft.to/lastmile_qr_scan"}, "is_reserved": 0, "is_disabled": 0, "type": "electric_scooter", "bike_id": "f1b5f87808ed3cbef4c853227c4bc063"}, {"lon": -77.02402916666666, "lat": 38.9191315, "name": "b5e457fe10c71c04a65755c5d4171d14", "fusion_lat": 0.0, "fusion_lon": 0.0, "rental_uris": {"android": "https://dc.lft.to/lastmile_qr_scan", "ios": "https://dc.lft.to/lastmile_qr_scan"}, "is_reserved": 0, "is_disabled": 0, "type": "electric_scooter", "bike_id": "b5e457fe10c71c04a65755c5d4171d14"}, {"lon": -77.05148466666667, "lat": 38.906258, "name": "132b64a1176f3968a0b8ad61ba9a03fa", "fusion_lat": 0.0, "fusion_lon": 0.0, "rental_uris": {"android": "https://dc.lft.to/lastmile_qr_scan", "ios": "https://dc.lft.to/lastmile_qr_scan"}, "is_reserved": 0, "is_disabled": 0, "type": "electric_scooter", "bike_id": "132b64a1176f3968a0b8ad61ba9a03fa"}, {"lon": -77.021805, "lat": 38.9097585, "name": "25ff127843a7dba3483f8f47c006f4f8", "fusion_lat": 0.0, "fusion_lon": 0.0, "rental_uris": {"android": "https://dc.lft.to/lastmile_qr_scan", "ios": "https://dc.lft.to/lastmile_qr_scan"}, "is_reserved": 0, "is_disabled": 0, "type": "electric_scooter", "bike_id": "25ff127843a7dba3483f8f47c006f4f8"}, {"lon": -77.06036816666666, "lat": 38.9392145, "name": "774d11c42b407ac175d00b226d5fd364", "fusion_lat": 0.0, "fusion_lon": 0.0, "rental_uris": {"android": "https://dc.lft.to/lastmile_qr_scan", "ios": "https://dc.lft.to/lastmile_qr_scan"}, "is_reserved": 0, "is_disabled": 0, "type": "electric_scooter", "bike_id": "774d11c42b407ac175d00b226d5fd364"}, {"lon": -77.04426533333333, "lat": 38.926064833333335, "name": "87c4e3b5a81dd45ab1ac7b82e0fda921", "fusion_lat": 0.0, "fusion_lon": 0.0, "rental_uris": {"android": "https://dc.lft.to/lastmile_qr_scan", "ios": "https://dc.lft.to/lastmile_qr_scan"}, "is_reserved": 0, "is_disabled": 0, "type": "electric_scooter", "bike_id": "87c4e3b5a81dd45ab1ac7b82e0fda921"}, {"lon": -77.0242275, "lat": 38.89221216666667, "name": "236266657c6adcc313e5cc5ddd544b0d", "fusion_lat": 0.0, "fusion_lon": 0.0, "rental_uris": {"android": "https://dc.lft.to/lastmile_qr_scan", "ios": "https://dc.lft.to/lastmile_qr_scan"}, "is_reserved": 0, "is_disabled": 0, "type": "electric_scooter", "bike_id": "236266657c6adcc313e5cc5ddd544b0d"}, {"lon": -76.9838595, "lat": 38.915199, "name": "7a30d209ffd72d4032f2a90843650172", "fusion_lat": 0.0, "fusion_lon": 0.0, "rental_uris": {"android": "https://dc.lft.to/lastmile_qr_scan", "ios": "https://dc.lft.to/lastmile_qr_scan"}, "is_reserved": 0, "is_disabled": 0, "type": "electric_scooter", "bike_id": "7a30d209ffd72d4032f2a90843650172"}, {"lon": -76.98041233333333, "lat": 38.88966516666667, "name": "4f0c999410a8edb91ae7970e597bd25b", "fusion_lat": 0.0, "fusion_lon": 0.0, "rental_uris": {"android": "https://dc.lft.to/lastmile_qr_scan", "ios": "https://dc.lft.to/lastmile_qr_scan"}, "is_reserved": 0, "is_disabled": 0, "type": "electric_scooter", "bike_id": "4f0c999410a8edb91ae7970e597bd25b"}, {"lon": -77.03824133333333, "lat": 38.90268183333333, "name": "4b7650a85f60500327ad314e543ca5eb", "fusion_lat": 0.0, "fusion_lon": 0.0, "rental_uris": {"android": "https://dc.lft.to/lastmile_qr_scan", "ios": "https://dc.lft.to/lastmile_qr_scan"}, "is_reserved": 0, "is_disabled": 0, "type": "electric_scooter", "bike_id": "4b7650a85f60500327ad314e543ca5eb"}, {"lon": -77.05634283333333, "lat": 38.92416983333333, "name": "6a78a025be8e661613e82a6108990ae7", "fusion_lat": 0.0, "fusion_lon": 0.0, "rental_uris": {"android": "https://dc.lft.to/lastmile_qr_scan", "ios": "https://dc.lft.to/lastmile_qr_scan"}, "is_reserved": 0, "is_disabled": 0, "type": "electric_scooter", "bike_id": "6a78a025be8e661613e82a6108990ae7"}, {"lon": -77.029677, "lat": 38.89762016666667, "name": "910f190a4e01a8e31bfdd7c21926c9d1", "fusion_lat": 0.0, "fusion_lon": 0.0, "rental_uris": {"android": "https://dc.lft.to/lastmile_qr_scan", "ios": "https://dc.lft.to/lastmile_qr_scan"}, "is_reserved": 0, "is_disabled": 0, "type": "electric_scooter", "bike_id": "910f190a4e01a8e31bfdd7c21926c9d1"}, {"lon": -77.03266016666667, "lat": 38.93819, "name": "cae789eeadcdcde8b9f75a77b0c1c00a", "fusion_lat": 0.0, "fusion_lon": 0.0, "rental_uris": {"android": "https://dc.lft.to/lastmile_qr_scan", "ios": "https://dc.lft.to/lastmile_qr_scan"}, "is_reserved": 0, "is_disabled": 0, "type": "electric_scooter", "bike_id": "cae789eeadcdcde8b9f75a77b0c1c00a"}, {"lon": -77.03506516666667, "lat": 38.921386166666665, "name": "9cbe9e16dc383420f1565fa6ea610cf7", "fusion_lat": 0.0, "fusion_lon": 0.0, "rental_uris": {"android": "https://dc.lft.to/lastmile_qr_scan", "ios": "https://dc.lft.to/lastmile_qr_scan"}, "is_reserved": 0, "is_disabled": 0, "type": "electric_scooter", "bike_id": "9cbe9e16dc383420f1565fa6ea610cf7"}, {"lon": -77.02695916666667, "lat": 38.9126905, "name": "b1a9e33d4578e743d7387c616f077c51", "fusion_lat": 0.0, "fusion_lon": 0.0, "rental_uris": {"android": "https://dc.lft.to/lastmile_qr_scan", "ios": "https://dc.lft.to/lastmile_qr_scan"}, "is_reserved": 0, "is_disabled": 0, "type": "electric_scooter", "bike_id": "b1a9e33d4578e743d7387c616f077c51"}, {"lon": -77.09214283333333, "lat": 38.917060166666666, "name": "02b7b7f5a5678157bc056e6e6b8a094d", "fusion_lat": 0.0, "fusion_lon": 0.0, "rental_uris": {"android": "https://dc.lft.to/lastmile_qr_scan", "ios": "https://dc.lft.to/lastmile_qr_scan"}, "is_reserved": 0, "is_disabled": 0, "type": "electric_scooter", "bike_id": "02b7b7f5a5678157bc056e6e6b8a094d"}, {"lon": -77.02237716666667, "lat": 38.91106383333333, "name": "29ed004209d35bdbefec4d50d9783f80", "fusion_lat": 0.0, "fusion_lon": 0.0, "rental_uris": {"android": "https://dc.lft.to/lastmile_qr_scan", "ios": "https://dc.lft.to/lastmile_qr_scan"}, "is_reserved": 0, "is_disabled": 0, "type": "electric_scooter", "bike_id": "29ed004209d35bdbefec4d50d9783f80"}, {"lon": -77.03296816666666, "lat": 38.95636016666667, "name": "af9463ad1e72b92ae4822d40f72deca3", "fusion_lat": 0.0, "fusion_lon": 0.0, "rental_uris": {"android": "https://dc.lft.to/lastmile_qr_scan", "ios": "https://dc.lft.to/lastmile_qr_scan"}, "is_reserved": 0, "is_disabled": 0, "type": "electric_scooter", "bike_id": "af9463ad1e72b92ae4822d40f72deca3"}, {"lon": -77.03440866666666, "lat": 38.91838683333334, "name": "1e5538990268de94d434732656434c78", "fusion_lat": 0.0, "fusion_lon": 0.0, "rental_uris": {"android": "https://dc.lft.to/lastmile_qr_scan", "ios": "https://dc.lft.to/lastmile_qr_scan"}, "is_reserved": 0, "is_disabled": 0, "type": "electric_scooter", "bike_id": "1e5538990268de94d434732656434c78"}, {"lon": -77.03251816666666, "lat": 38.9593375, "name": "987f905ea891c6a8c2bf71f163bf9bd6", "fusion_lat": 0.0, "fusion_lon": 0.0, "rental_uris": {"android": "https://dc.lft.to/lastmile_qr_scan", "ios": "https://dc.lft.to/lastmile_qr_scan"}, "is_reserved": 0, "is_disabled": 0, "type": "electric_scooter", "bike_id": "987f905ea891c6a8c2bf71f163bf9bd6"}, {"lon": -77.0426295, "lat": 38.9170285, "name": "b23bb019745a141cdb0be6ff6e81049a", "fusion_lat": 0.0, "fusion_lon": 0.0, "rental_uris": {"android": "https://dc.lft.to/lastmile_qr_scan", "ios": "https://dc.lft.to/lastmile_qr_scan"}, "is_reserved": 0, "is_disabled": 0, "type": "electric_scooter", "bike_id": "b23bb019745a141cdb0be6ff6e81049a"}, {"lon": -77.02835266666666, "lat": 38.887671166666664, "name": "e878a475bba69cab28fbd74d8a51cfe3", "fusion_lat": 0.0, "fusion_lon": 0.0, "rental_uris": {"android": "https://dc.lft.to/lastmile_qr_scan", "ios": "https://dc.lft.to/lastmile_qr_scan"}, "is_reserved": 0, "is_disabled": 0, "type": "electric_scooter", "bike_id": "e878a475bba69cab28fbd74d8a51cfe3"}, {"lon": -77.01433416666667, "lat": 38.92992666666667, "name": "c04b38871ce1118d17f7452fd72a620a", "fusion_lat": 0.0, "fusion_lon": 0.0, "rental_uris": {"android": "https://dc.lft.to/lastmile_qr_scan", "ios": "https://dc.lft.to/lastmile_qr_scan"}, "is_reserved": 0, "is_disabled": 0, "type": "electric_scooter", "bike_id": "c04b38871ce1118d17f7452fd72a620a"}, {"lon": -77.02299983333333, "lat": 38.918448833333336, "name": "bafa239bf3438206ca005ff948633694", "fusion_lat": 0.0, "fusion_lon": 0.0, "rental_uris": {"android": "https://dc.lft.to/lastmile_qr_scan", "ios": "https://dc.lft.to/lastmile_qr_scan"}, "is_reserved": 0, "is_disabled": 0, "type": "electric_scooter", "bike_id": "bafa239bf3438206ca005ff948633694"}, {"lon": -77.02304383333333, "lat": 38.917737833333334, "name": "035c6a8b3e7ffdaa7ddea832b652e9bb", "fusion_lat": 0.0, "fusion_lon": 0.0, "rental_uris": {"android": "https://dc.lft.to/lastmile_qr_scan", "ios": "https://dc.lft.to/lastmile_qr_scan"}, "is_reserved": 0, "is_disabled": 0, "type": "electric_scooter", "bike_id": "035c6a8b3e7ffdaa7ddea832b652e9bb"}, {"lon": -77.03918883333333, "lat": 38.911094, "name": "119989211c77003f990f3bfaa2df5a32", "fusion_lat": 0.0, "fusion_lon": 0.0, "rental_uris": {"android": "https://dc.lft.to/lastmile_qr_scan", "ios": "https://dc.lft.to/lastmile_qr_scan"}, "is_reserved": 0, "is_disabled": 0, "type": "electric_scooter", "bike_id": "119989211c77003f990f3bfaa2df5a32"}, {"lon": -77.04296416666666, "lat": 38.922694, "name": "f4f0ca960605196615c921d5b25c535b", "fusion_lat": 0.0, "fusion_lon": 0.0, "rental_uris": {"android": "https://dc.lft.to/lastmile_qr_scan", "ios": "https://dc.lft.to/lastmile_qr_scan"}, "is_reserved": 0, "is_disabled": 0, "type": "electric_scooter", "bike_id": "f4f0ca960605196615c921d5b25c535b"}, {"lon": -76.990069, "lat": 38.8650755, "name": "4b7bec66612864e85305073c00d3a1a9", "fusion_lat": 0.0, "fusion_lon": 0.0, "rental_uris": {"android": "https://dc.lft.to/lastmile_qr_scan", "ios": "https://dc.lft.to/lastmile_qr_scan"}, "is_reserved": 0, "is_disabled": 0, "type": "electric_scooter", "bike_id": "4b7bec66612864e85305073c00d3a1a9"}, {"lon": -77.0389555, "lat": 38.92332183333333, "name": "48d24a34603cba56e5ea00fffe8e1a30", "fusion_lat": 0.0, "fusion_lon": 0.0, "rental_uris": {"android": "https://dc.lft.to/lastmile_qr_scan", "ios": "https://dc.lft.to/lastmile_qr_scan"}, "is_reserved": 0, "is_disabled": 0, "type": "electric_scooter", "bike_id": "48d24a34603cba56e5ea00fffe8e1a30"}, {"lon": -77.04880266666666, "lat": 38.901739166666665, "name": "c1ecdc7f368d2a109147adf5f921fcbd", "fusion_lat": 0.0, "fusion_lon": 0.0, "rental_uris": {"android": "https://dc.lft.to/lastmile_qr_scan", "ios": "https://dc.lft.to/lastmile_qr_scan"}, "is_reserved": 0, "is_disabled": 0, "type": "electric_scooter", "bike_id": "c1ecdc7f368d2a109147adf5f921fcbd"}, {"lon": -76.99083433333334, "lat": 38.86048566666667, "name": "471895a638c7ae7c8d03001a9c6fac34", "fusion_lat": 0.0, "fusion_lon": 0.0, "rental_uris": {"android": "https://dc.lft.to/lastmile_qr_scan", "ios": "https://dc.lft.to/lastmile_qr_scan"}, "is_reserved": 0, "is_disabled": 0, "type": "electric_scooter", "bike_id": "471895a638c7ae7c8d03001a9c6fac34"}, {"lon": -76.99979033333334, "lat": 38.83834816666667, "name": "e83ad573e64a80f1e8b113ad839f3471", "fusion_lat": 0.0, "fusion_lon": 0.0, "rental_uris": {"android": "https://dc.lft.to/lastmile_qr_scan", "ios": "https://dc.lft.to/lastmile_qr_scan"}, "is_reserved": 0, "is_disabled": 0, "type": "electric_scooter", "bike_id": "e83ad573e64a80f1e8b113ad839f3471"}, {"lon": -77.043438, "lat": 38.9082865, "name": "0e55936c3a18735a7c1017362390ebe7", "fusion_lat": 0.0, "fusion_lon": 0.0, "rental_uris": {"android": "https://dc.lft.to/lastmile_qr_scan", "ios": "https://dc.lft.to/lastmile_qr_scan"}, "is_reserved": 0, "is_disabled": 0, "type": "electric_scooter", "bike_id": "0e55936c3a18735a7c1017362390ebe7"}, {"lon": -77.02305283333334, "lat": 38.90901683333333, "name": "938207e8b0fc32b826b3bcd0baab3899", "fusion_lat": 0.0, "fusion_lon": 0.0, "rental_uris": {"android": "https://dc.lft.to/lastmile_qr_scan", "ios": "https://dc.lft.to/lastmile_qr_scan"}, "is_reserved": 0, "is_disabled": 0, "type": "electric_scooter", "bike_id": "938207e8b0fc32b826b3bcd0baab3899"}, {"lon": -77.03450783333334, "lat": 38.90896883333333, "name": "b9e7022161ee520cedd3a90b790fed35", "fusion_lat": 0.0, "fusion_lon": 0.0, "rental_uris": {"android": "https://dc.lft.to/lastmile_qr_scan", "ios": "https://dc.lft.to/lastmile_qr_scan"}, "is_reserved": 0, "is_disabled": 0, "type": "electric_scooter", "bike_id": "b9e7022161ee520cedd3a90b790fed35"}, {"lon": -77.03808533333333, "lat": 38.936005, "name": "fec86e553933708ff9ec08102795191d", "fusion_lat": 0.0, "fusion_lon": 0.0, "rental_uris": {"android": "https://dc.lft.to/lastmile_qr_scan", "ios": "https://dc.lft.to/lastmile_qr_scan"}, "is_reserved": 0, "is_disabled": 0, "type": "electric_scooter", "bike_id": "fec86e553933708ff9ec08102795191d"}, {"lon": -77.03378716666667, "lat": 38.9103995, "name": "f23c4684d68ca05dba041be7abda0a0d", "fusion_lat": 0.0, "fusion_lon": 0.0, "rental_uris": {"android": "https://dc.lft.to/lastmile_qr_scan", "ios": "https://dc.lft.to/lastmile_qr_scan"}, "is_reserved": 0, "is_disabled": 0, "type": "electric_scooter", "bike_id": "f23c4684d68ca05dba041be7abda0a0d"}, {"lon": -77.023049, "lat": 38.917719166666664, "name": "1e6b05c5c464ab3767abcba3a7fea538", "fusion_lat": 0.0, "fusion_lon": 0.0, "rental_uris": {"android": "https://dc.lft.to/lastmile_qr_scan", "ios": "https://dc.lft.to/lastmile_qr_scan"}, "is_reserved": 0, "is_disabled": 0, "type": "electric_scooter", "bike_id": "1e6b05c5c464ab3767abcba3a7fea538"}, {"lon": -77.05597933333334, "lat": 38.93698, "name": "32bc99f5ed6b15d5cfb43db51374c070", "fusion_lat": 0.0, "fusion_lon": 0.0, "rental_uris": {"android": "https://dc.lft.to/lastmile_qr_scan", "ios": "https://dc.lft.to/lastmile_qr_scan"}, "is_reserved": 0, "is_disabled": 0, "type": "electric_scooter", "bike_id": "32bc99f5ed6b15d5cfb43db51374c070"}, {"lon": -77.03232633333333, "lat": 38.89642, "name": "03bd366d828faa7ac72b97f41ab024f2", "fusion_lat": 0.0, "fusion_lon": 0.0, "rental_uris": {"android": "https://dc.lft.to/lastmile_qr_scan", "ios": "https://dc.lft.to/lastmile_qr_scan"}, "is_reserved": 0, "is_disabled": 0, "type": "electric_scooter", "bike_id": "03bd366d828faa7ac72b97f41ab024f2"}, {"lon": -77.130934, "lat": 38.86160683333333, "name": "66cbb96180122c652981a7a04acac3fc", "fusion_lat": 0.0, "fusion_lon": 0.0, "rental_uris": {"android": "https://dc.lft.to/lastmile_qr_scan", "ios": "https://dc.lft.to/lastmile_qr_scan"}, "is_reserved": 0, "is_disabled": 0, "type": "electric_bike", "bike_id": "66cbb96180122c652981a7a04acac3fc"}, {"lon": -77.041959, "lat": 38.92051333333333, "name": "0aa2605cf076a41b2248db5fe4cfde1c", "fusion_lat": 0.0, "fusion_lon": 0.0, "rental_uris": {"android": "https://dc.lft.to/lastmile_qr_scan", "ios": "https://dc.lft.to/lastmile_qr_scan"}, "is_reserved": 0, "is_disabled": 0, "type": "electric_scooter", "bike_id": "0aa2605cf076a41b2248db5fe4cfde1c"}, {"lon": -77.042078, "lat": 38.9014375, "name": "7f9634f8bd05e5e41bf6c7b49c370fe4", "fusion_lat": 0.0, "fusion_lon": 0.0, "rental_uris": {"android": "https://dc.lft.to/lastmile_qr_scan", "ios": "https://dc.lft.to/lastmile_qr_scan"}, "is_reserved": 0, "is_disabled": 0, "type": "electric_scooter", "bike_id": "7f9634f8bd05e5e41bf6c7b49c370fe4"}, {"lon": -77.02873833333334, "lat": 38.907190166666666, "name": "758cde20bb1c860ece2a8c123e2d9665", "fusion_lat": 0.0, "fusion_lon": 0.0, "rental_uris": {"android": "https://dc.lft.to/lastmile_qr_scan", "ios": "https://dc.lft.to/lastmile_qr_scan"}, "is_reserved": 0, "is_disabled": 0, "type": "electric_scooter", "bike_id": "758cde20bb1c860ece2a8c123e2d9665"}, {"lon": -77.02614266666667, "lat": 38.961989833333334, "name": "ab5caf1b03a1770b46a746fd47091575", "fusion_lat": 0.0, "fusion_lon": 0.0, "rental_uris": {"android": "https://dc.lft.to/lastmile_qr_scan", "ios": "https://dc.lft.to/lastmile_qr_scan"}, "is_reserved": 0, "is_disabled": 0, "type": "electric_bike", "bike_id": "ab5caf1b03a1770b46a746fd47091575"}, {"lon": -77.01334816666666, "lat": 38.966102666666664, "name": "d00d58ba4a604fedfea99d7e115d02d1", "fusion_lat": 0.0, "fusion_lon": 0.0, "rental_uris": {"android": "https://dc.lft.to/lastmile_qr_scan", "ios": "https://dc.lft.to/lastmile_qr_scan"}, "is_reserved": 0, "is_disabled": 0, "type": "electric_scooter", "bike_id": "d00d58ba4a604fedfea99d7e115d02d1"}, {"lon": -77.02337733333333, "lat": 38.883370666666664, "name": "8e887a3dea0482fb0287e8b36b06526e", "fusion_lat": 0.0, "fusion_lon": 0.0, "rental_uris": {"android": "https://dc.lft.to/lastmile_qr_scan", "ios": "https://dc.lft.to/lastmile_qr_scan"}, "is_reserved": 0, "is_disabled": 0, "type": "electric_scooter", "bike_id": "8e887a3dea0482fb0287e8b36b06526e"}, {"lon": -77.09161283333333, "lat": 38.96760166666667, "name": "d313829c4e247e2d17eb42ad7dd8ba7c", "fusion_lat": 0.0, "fusion_lon": 0.0, "rental_uris": {"android": "https://dc.lft.to/lastmile_qr_scan", "ios": "https://dc.lft.to/lastmile_qr_scan"}, "is_reserved": 0, "is_disabled": 0, "type": "electric_bike", "bike_id": "d313829c4e247e2d17eb42ad7dd8ba7c"}, {"lon": -77.044087, "lat": 38.8742845, "name": "3a7009e5d18560ef6ba3f6fa243dd2d1", "fusion_lat": 0.0, "fusion_lon": 0.0, "rental_uris": {"android": "https://dc.lft.to/lastmile_qr_scan", "ios": "https://dc.lft.to/lastmile_qr_scan"}, "is_reserved": 0, "is_disabled": 0, "type": "electric_scooter", "bike_id": "3a7009e5d18560ef6ba3f6fa243dd2d1"}, {"lon": -77.03117916666666, "lat": 38.973761833333334, "name": "29f89a7d085abe86ca10ad43a2b7b703", "fusion_lat": 0.0, "fusion_lon": 0.0, "rental_uris": {"android": "https://dc.lft.to/lastmile_qr_scan", "ios": "https://dc.lft.to/lastmile_qr_scan"}, "is_reserved": 0, "is_disabled": 0, "type": "electric_scooter", "bike_id": "29f89a7d085abe86ca10ad43a2b7b703"}, {"lon": -76.96179283333333, "lat": 38.91860333333333, "name": "15aa8da6afc65371e71e2d9bf1d68c34", "fusion_lat": 0.0, "fusion_lon": 0.0, "rental_uris": {"android": "https://dc.lft.to/lastmile_qr_scan", "ios": "https://dc.lft.to/lastmile_qr_scan"}, "is_reserved": 0, "is_disabled": 0, "type": "electric_bike", "bike_id": "15aa8da6afc65371e71e2d9bf1d68c34"}, {"lon": -77.024221, "lat": 38.909730833333334, "name": "9032580b9dbc66acf061c21b67628e37", "fusion_lat": 0.0, "fusion_lon": 0.0, "rental_uris": {"android": "https://dc.lft.to/lastmile_qr_scan", "ios": "https://dc.lft.to/lastmile_qr_scan"}, "is_reserved": 0, "is_disabled": 0, "type": "electric_scooter", "bike_id": "9032580b9dbc66acf061c21b67628e37"}, {"lon": -77.0189935, "lat": 38.9098925, "name": "3391dd3b8bdd6186f2357c305541fe97", "fusion_lat": 0.0, "fusion_lon": 0.0, "rental_uris": {"android": "https://dc.lft.to/lastmile_qr_scan", "ios": "https://dc.lft.to/lastmile_qr_scan"}, "is_reserved": 0, "is_disabled": 0, "type": "electric_scooter", "bike_id": "3391dd3b8bdd6186f2357c305541fe97"}, {"lon": -77.03844266666667, "lat": 38.918237500000004, "name": "c321a3b783a188fd3060ac4a652165e5", "fusion_lat": 0.0, "fusion_lon": 0.0, "rental_uris": {"android": "https://dc.lft.to/lastmile_qr_scan", "ios": "https://dc.lft.to/lastmile_qr_scan"}, "is_reserved": 0, "is_disabled": 0, "type": "electric_scooter", "bike_id": "c321a3b783a188fd3060ac4a652165e5"}, {"lon": -77.00031266666667, "lat": 38.87637866666667, "name": "f97666e9b4f96eb965adda38f3c18ae0", "fusion_lat": 0.0, "fusion_lon": 0.0, "rental_uris": {"android": "https://dc.lft.to/lastmile_qr_scan", "ios": "https://dc.lft.to/lastmile_qr_scan"}, "is_reserved": 0, "is_disabled": 0, "type": "electric_scooter", "bike_id": "f97666e9b4f96eb965adda38f3c18ae0"}, {"lon": -77.02717216666667, "lat": 38.90952433333333, "name": "784f9f4e363a14e8f042738ac0b4bf72", "fusion_lat": 0.0, "fusion_lon": 0.0, "rental_uris": {"android": "https://dc.lft.to/lastmile_qr_scan", "ios": "https://dc.lft.to/lastmile_qr_scan"}, "is_reserved": 0, "is_disabled": 0, "type": "electric_scooter", "bike_id": "784f9f4e363a14e8f042738ac0b4bf72"}, {"lon": -76.93173533333334, "lat": 38.898813, "name": "65c689649697b90db915817377369912", "fusion_lat": 0.0, "fusion_lon": 0.0, "rental_uris": {"android": "https://dc.lft.to/lastmile_qr_scan", "ios": "https://dc.lft.to/lastmile_qr_scan"}, "is_reserved": 0, "is_disabled": 0, "type": "electric_scooter", "bike_id": "65c689649697b90db915817377369912"}, {"lon": -77.017596, "lat": 38.8771575, "name": "26df68bb3ae39bbfb1afb187331ef7cb", "fusion_lat": 0.0, "fusion_lon": 0.0, "rental_uris": {"android": "https://dc.lft.to/lastmile_qr_scan", "ios": "https://dc.lft.to/lastmile_qr_scan"}, "is_reserved": 0, "is_disabled": 0, "type": "electric_scooter", "bike_id": "26df68bb3ae39bbfb1afb187331ef7cb"}, {"lon": -77.00033783333333, "lat": 38.90688383333333, "name": "4a371a3d24e2cdf4c0ba9109b7ff8724", "fusion_lat": 0.0, "fusion_lon": 0.0, "rental_uris": {"android": "https://dc.lft.to/lastmile_qr_scan", "ios": "https://dc.lft.to/lastmile_qr_scan"}, "is_reserved": 0, "is_disabled": 0, "type": "electric_scooter", "bike_id": "4a371a3d24e2cdf4c0ba9109b7ff8724"}, {"lon": -77.06474133333333, "lat": 38.973827, "name": "a239ab899feac26e92daf33fdda07116", "fusion_lat": 0.0, "fusion_lon": 0.0, "rental_uris": {"android": "https://dc.lft.to/lastmile_qr_scan", "ios": "https://dc.lft.to/lastmile_qr_scan"}, "is_reserved": 0, "is_disabled": 0, "type": "electric_bike", "bike_id": "a239ab899feac26e92daf33fdda07116"}, {"lon": -77.0265575, "lat": 38.93856866666667, "name": "e462f4a89bc2bcf243c74a979c7ae8a9", "fusion_lat": 0.0, "fusion_lon": 0.0, "rental_uris": {"android": "https://dc.lft.to/lastmile_qr_scan", "ios": "https://dc.lft.to/lastmile_qr_scan"}, "is_reserved": 0, "is_disabled": 0, "type": "electric_bike", "bike_id": "e462f4a89bc2bcf243c74a979c7ae8a9"}, {"lon": -77.03163366666666, "lat": 38.91414366666667, "name": "4c4297acf2a079cef3519f943e79e31f", "fusion_lat": 0.0, "fusion_lon": 0.0, "rental_uris": {"android": "https://dc.lft.to/lastmile_qr_scan", "ios": "https://dc.lft.to/lastmile_qr_scan"}, "is_reserved": 0, "is_disabled": 0, "type": "electric_scooter", "bike_id": "4c4297acf2a079cef3519f943e79e31f"}, {"lon": -77.03839216666667, "lat": 38.91276466666667, "name": "001c8932878900272971f096fa54113e", "fusion_lat": 0.0, "fusion_lon": 0.0, "rental_uris": {"android": "https://dc.lft.to/lastmile_qr_scan", "ios": "https://dc.lft.to/lastmile_qr_scan"}, "is_reserved": 0, "is_disabled": 0, "type": "electric_scooter", "bike_id": "001c8932878900272971f096fa54113e"}, {"lon": -77.00211983333334, "lat": 38.905133666666664, "name": "d5675a665d13e4216cf90fc35d7a9885", "fusion_lat": 0.0, "fusion_lon": 0.0, "rental_uris": {"android": "https://dc.lft.to/lastmile_qr_scan", "ios": "https://dc.lft.to/lastmile_qr_scan"}, "is_reserved": 0, "is_disabled": 0, "type": "electric_scooter", "bike_id": "d5675a665d13e4216cf90fc35d7a9885"}, {"lon": -76.991729, "lat": 38.8792395, "name": "fc511b4eb5bc59f4d25707558314f0e9", "fusion_lat": 0.0, "fusion_lon": 0.0, "rental_uris": {"android": "https://dc.lft.to/lastmile_qr_scan", "ios": "https://dc.lft.to/lastmile_qr_scan"}, "is_reserved": 0, "is_disabled": 0, "type": "electric_scooter", "bike_id": "fc511b4eb5bc59f4d25707558314f0e9"}, {"lon": -77.03797266666666, "lat": 38.925533, "name": "1985e811ef8bcf50ff78e444dee6072a", "fusion_lat": 0.0, "fusion_lon": 0.0, "rental_uris": {"android": "https://dc.lft.to/lastmile_qr_scan", "ios": "https://dc.lft.to/lastmile_qr_scan"}, "is_reserved": 0, "is_disabled": 0, "type": "electric_scooter", "bike_id": "1985e811ef8bcf50ff78e444dee6072a"}, {"lon": -77.02063116666666, "lat": 38.920167, "name": "17a7a1a956c915f4a08798a526a37adb", "fusion_lat": 0.0, "fusion_lon": 0.0, "rental_uris": {"android": "https://dc.lft.to/lastmile_qr_scan", "ios": "https://dc.lft.to/lastmile_qr_scan"}, "is_reserved": 0, "is_disabled": 0, "type": "electric_scooter", "bike_id": "17a7a1a956c915f4a08798a526a37adb"}, {"lon": -77.03384416666667, "lat": 38.921492666666666, "name": "84d277ed3605d66cbed06b877cb928e6", "fusion_lat": 0.0, "fusion_lon": 0.0, "rental_uris": {"android": "https://dc.lft.to/lastmile_qr_scan", "ios": "https://dc.lft.to/lastmile_qr_scan"}, "is_reserved": 0, "is_disabled": 0, "type": "electric_scooter", "bike_id": "84d277ed3605d66cbed06b877cb928e6"}, {"lon": -77.025009, "lat": 38.9428835, "name": "bebbd16d5290fcc5c03acf74b30879df", "fusion_lat": 0.0, "fusion_lon": 0.0, "rental_uris": {"android": "https://dc.lft.to/lastmile_qr_scan", "ios": "https://dc.lft.to/lastmile_qr_scan"}, "is_reserved": 0, "is_disabled": 0, "type": "electric_scooter", "bike_id": "bebbd16d5290fcc5c03acf74b30879df"}, {"lon": -77.02800883333333, "lat": 38.8923755, "name": "c32b946b24e13fd8fa9d6f2e24c2383f", "fusion_lat": 0.0, "fusion_lon": 0.0, "rental_uris": {"android": "https://dc.lft.to/lastmile_qr_scan", "ios": "https://dc.lft.to/lastmile_qr_scan"}, "is_reserved": 0, "is_disabled": 0, "type": "electric_scooter", "bike_id": "c32b946b24e13fd8fa9d6f2e24c2383f"}, {"lon": -77.00507383333333, "lat": 38.875334, "name": "215a880bc627a28c80b5ee22379b0cde", "fusion_lat": 0.0, "fusion_lon": 0.0, "rental_uris": {"android": "https://dc.lft.to/lastmile_qr_scan", "ios": "https://dc.lft.to/lastmile_qr_scan"}, "is_reserved": 0, "is_disabled": 0, "type": "electric_scooter", "bike_id": "215a880bc627a28c80b5ee22379b0cde"}, {"lon": -77.01506966666666, "lat": 38.9134795, "name": "1c71b97e85cff849e0eaa439f7f4b0b9", "fusion_lat": 0.0, "fusion_lon": 0.0, "rental_uris": {"android": "https://dc.lft.to/lastmile_qr_scan", "ios": "https://dc.lft.to/lastmile_qr_scan"}, "is_reserved": 0, "is_disabled": 0, "type": "electric_scooter", "bike_id": "1c71b97e85cff849e0eaa439f7f4b0b9"}, {"lon": -76.99874633333333, "lat": 38.90753683333333, "name": "209ecfe6e785af316b7581cabb7794af", "fusion_lat": 0.0, "fusion_lon": 0.0, "rental_uris": {"android": "https://dc.lft.to/lastmile_qr_scan", "ios": "https://dc.lft.to/lastmile_qr_scan"}, "is_reserved": 0, "is_disabled": 0, "type": "electric_scooter", "bike_id": "209ecfe6e785af316b7581cabb7794af"}, {"lon": -77.03657216666667, "lat": 38.90282083333334, "name": "c39aad8405241030419db50478827627", "fusion_lat": 0.0, "fusion_lon": 0.0, "rental_uris": {"android": "https://dc.lft.to/lastmile_qr_scan", "ios": "https://dc.lft.to/lastmile_qr_scan"}, "is_reserved": 0, "is_disabled": 0, "type": "electric_scooter", "bike_id": "c39aad8405241030419db50478827627"}, {"lon": -76.99487883333333, "lat": 38.8996825, "name": "51bb99bbddc86484248199f24ae2d4c5", "fusion_lat": 0.0, "fusion_lon": 0.0, "rental_uris": {"android": "https://dc.lft.to/lastmile_qr_scan", "ios": "https://dc.lft.to/lastmile_qr_scan"}, "is_reserved": 0, "is_disabled": 0, "type": "electric_bike", "bike_id": "51bb99bbddc86484248199f24ae2d4c5"}, {"lon": -76.95679466666667, "lat": 38.94727666666667, "name": "b249685e59057bcaaf56b800ab344b5e", "fusion_lat": 0.0, "fusion_lon": 0.0, "rental_uris": {"android": "https://dc.lft.to/lastmile_qr_scan", "ios": "https://dc.lft.to/lastmile_qr_scan"}, "is_reserved": 0, "is_disabled": 0, "type": "electric_bike", "bike_id": "b249685e59057bcaaf56b800ab344b5e"}, {"lon": -76.99527566666667, "lat": 38.9003055, "name": "56a2fa8536eadb2c962574226641056b", "fusion_lat": 0.0, "fusion_lon": 0.0, "rental_uris": {"android": "https://dc.lft.to/lastmile_qr_scan", "ios": "https://dc.lft.to/lastmile_qr_scan"}, "is_reserved": 0, "is_disabled": 0, "type": "electric_scooter", "bike_id": "56a2fa8536eadb2c962574226641056b"}, {"lon": -77.005935, "lat": 38.905523, "name": "ea50e596f65d1d590ee9aeb5088107c3", "fusion_lat": 0.0, "fusion_lon": 0.0, "rental_uris": {"android": "https://dc.lft.to/lastmile_qr_scan", "ios": "https://dc.lft.to/lastmile_qr_scan"}, "is_reserved": 0, "is_disabled": 0, "type": "electric_scooter", "bike_id": "ea50e596f65d1d590ee9aeb5088107c3"}, {"lon": -77.01116083333334, "lat": 38.8708765, "name": "f368bb1d342a3029389289e29cc04615", "fusion_lat": 0.0, "fusion_lon": 0.0, "rental_uris": {"android": "https://dc.lft.to/lastmile_qr_scan", "ios": "https://dc.lft.to/lastmile_qr_scan"}, "is_reserved": 0, "is_disabled": 0, "type": "electric_scooter", "bike_id": "f368bb1d342a3029389289e29cc04615"}, {"lon": -76.95109083333334, "lat": 38.887901, "name": "6508addfdeb93c4be0fd4499513ede08", "fusion_lat": 0.0, "fusion_lon": 0.0, "rental_uris": {"android": "https://dc.lft.to/lastmile_qr_scan", "ios": "https://dc.lft.to/lastmile_qr_scan"}, "is_reserved": 0, "is_disabled": 0, "type": "electric_scooter", "bike_id": "6508addfdeb93c4be0fd4499513ede08"}, {"lon": -76.99461266666667, "lat": 38.851609833333335, "name": "94a7037d538bf0443d7806e8c2fee354", "fusion_lat": 0.0, "fusion_lon": 0.0, "rental_uris": {"android": "https://dc.lft.to/lastmile_qr_scan", "ios": "https://dc.lft.to/lastmile_qr_scan"}, "is_reserved": 0, "is_disabled": 0, "type": "electric_scooter", "bike_id": "94a7037d538bf0443d7806e8c2fee354"}, {"lon": -77.0231325, "lat": 38.91812383333333, "name": "20ade47ceffc1fefd6a235d6364e158a", "fusion_lat": 0.0, "fusion_lon": 0.0, "rental_uris": {"android": "https://dc.lft.to/lastmile_qr_scan", "ios": "https://dc.lft.to/lastmile_qr_scan"}, "is_reserved": 0, "is_disabled": 0, "type": "electric_scooter", "bike_id": "20ade47ceffc1fefd6a235d6364e158a"}, {"lon": -77.0314885, "lat": 38.89358416666666, "name": "6364e17d921486a6c4c1bdcb23411797", "fusion_lat": 0.0, "fusion_lon": 0.0, "rental_uris": {"android": "https://dc.lft.to/lastmile_qr_scan", "ios": "https://dc.lft.to/lastmile_qr_scan"}, "is_reserved": 0, "is_disabled": 0, "type": "electric_scooter", "bike_id": "6364e17d921486a6c4c1bdcb23411797"}, {"lon": -77.00223866666667, "lat": 38.89447916666667, "name": "2cc8249b02a38a1542e151713bfb69f0", "fusion_lat": 0.0, "fusion_lon": 0.0, "rental_uris": {"android": "https://dc.lft.to/lastmile_qr_scan", "ios": "https://dc.lft.to/lastmile_qr_scan"}, "is_reserved": 0, "is_disabled": 0, "type": "electric_scooter", "bike_id": "2cc8249b02a38a1542e151713bfb69f0"}, {"lon": -77.03874566666667, "lat": 38.908178666666664, "name": "62857446d35f732aa1247195ad6a77ff", "fusion_lat": 0.0, "fusion_lon": 0.0, "rental_uris": {"android": "https://dc.lft.to/lastmile_qr_scan", "ios": "https://dc.lft.to/lastmile_qr_scan"}, "is_reserved": 0, "is_disabled": 0, "type": "electric_scooter", "bike_id": "62857446d35f732aa1247195ad6a77ff"}, {"lon": -77.04280433333334, "lat": 38.90714466666667, "name": "d2626ead4270551b8d196a379c8f8c33", "fusion_lat": 0.0, "fusion_lon": 0.0, "rental_uris": {"android": "https://dc.lft.to/lastmile_qr_scan", "ios": "https://dc.lft.to/lastmile_qr_scan"}, "is_reserved": 0, "is_disabled": 0, "type": "electric_scooter", "bike_id": "d2626ead4270551b8d196a379c8f8c33"}, {"lon": -77.02405033333334, "lat": 38.920892, "name": "9e65325f66ec0fcd607397b14e5e5929", "fusion_lat": 0.0, "fusion_lon": 0.0, "rental_uris": {"android": "https://dc.lft.to/lastmile_qr_scan", "ios": "https://dc.lft.to/lastmile_qr_scan"}, "is_reserved": 0, "is_disabled": 0, "type": "electric_scooter", "bike_id": "9e65325f66ec0fcd607397b14e5e5929"}, {"lon": -77.0209905, "lat": 38.90214, "name": "f41ba1a137deead493479fc62e80bd95", "fusion_lat": 0.0, "fusion_lon": 0.0, "rental_uris": {"android": "https://dc.lft.to/lastmile_qr_scan", "ios": "https://dc.lft.to/lastmile_qr_scan"}, "is_reserved": 0, "is_disabled": 0, "type": "electric_scooter", "bike_id": "f41ba1a137deead493479fc62e80bd95"}, {"lon": -77.03308216666667, "lat": 38.902922833333335, "name": "b489575084c53d7a1ed676c0c01167a0", "fusion_lat": 0.0, "fusion_lon": 0.0, "rental_uris": {"android": "https://dc.lft.to/lastmile_qr_scan", "ios": "https://dc.lft.to/lastmile_qr_scan"}, "is_reserved": 0, "is_disabled": 0, "type": "electric_scooter", "bike_id": "b489575084c53d7a1ed676c0c01167a0"}, {"lon": -76.92879233333333, "lat": 38.88442366666666, "name": "a6bece6a2b07137e474127e1d7009b8f", "fusion_lat": 0.0, "fusion_lon": 0.0, "rental_uris": {"android": "https://dc.lft.to/lastmile_qr_scan", "ios": "https://dc.lft.to/lastmile_qr_scan"}, "is_reserved": 0, "is_disabled": 0, "type": "electric_scooter", "bike_id": "a6bece6a2b07137e474127e1d7009b8f"}, {"lon": -77.03262033333333, "lat": 38.9180895, "name": "38acfdee10588231490496b78add79f6", "fusion_lat": 0.0, "fusion_lon": 0.0, "rental_uris": {"android": "https://dc.lft.to/lastmile_qr_scan", "ios": "https://dc.lft.to/lastmile_qr_scan"}, "is_reserved": 0, "is_disabled": 0, "type": "electric_scooter", "bike_id": "38acfdee10588231490496b78add79f6"}, {"lon": -77.08045816666667, "lat": 38.84843033333333, "name": "c058d46d5af87eeca408c5f8875a2a4e", "fusion_lat": 0.0, "fusion_lon": 0.0, "rental_uris": {"android": "https://dc.lft.to/lastmile_qr_scan", "ios": "https://dc.lft.to/lastmile_qr_scan"}, "is_reserved": 0, "is_disabled": 0, "type": "electric_bike", "bike_id": "c058d46d5af87eeca408c5f8875a2a4e"}, {"lon": -77.0611135, "lat": 38.9050375, "name": "055ac0de01d9ef268931cbab6cd5b966", "fusion_lat": 0.0, "fusion_lon": 0.0, "rental_uris": {"android": "https://dc.lft.to/lastmile_qr_scan", "ios": "https://dc.lft.to/lastmile_qr_scan"}, "is_reserved": 0, "is_disabled": 0, "type": "electric_scooter", "bike_id": "055ac0de01d9ef268931cbab6cd5b966"}, {"lon": -77.04003666666667, "lat": 38.918197666666664, "name": "8f5ea5387579cf4f909f617c936db8d7", "fusion_lat": 0.0, "fusion_lon": 0.0, "rental_uris": {"android": "https://dc.lft.to/lastmile_qr_scan", "ios": "https://dc.lft.to/lastmile_qr_scan"}, "is_reserved": 0, "is_disabled": 0, "type": "electric_scooter", "bike_id": "8f5ea5387579cf4f909f617c936db8d7"}, {"lon": -76.99414283333333, "lat": 38.91006983333333, "name": "73791ba84aae4233d0c3755b9b0329c1", "fusion_lat": 0.0, "fusion_lon": 0.0, "rental_uris": {"android": "https://dc.lft.to/lastmile_qr_scan", "ios": "https://dc.lft.to/lastmile_qr_scan"}, "is_reserved": 0, "is_disabled": 0, "type": "electric_scooter", "bike_id": "73791ba84aae4233d0c3755b9b0329c1"}, {"lon": -76.99635133333334, "lat": 38.8462225, "name": "a665f15d7bd22812f95345bbe0d00714", "fusion_lat": 0.0, "fusion_lon": 0.0, "rental_uris": {"android": "https://dc.lft.to/lastmile_qr_scan", "ios": "https://dc.lft.to/lastmile_qr_scan"}, "is_reserved": 0, "is_disabled": 0, "type": "electric_scooter", "bike_id": "a665f15d7bd22812f95345bbe0d00714"}, {"lon": -77.06638083333333, "lat": 38.92805666666667, "name": "6d18fd8b0f4b99735905c4590b3d78a1", "fusion_lat": 0.0, "fusion_lon": 0.0, "rental_uris": {"android": "https://dc.lft.to/lastmile_qr_scan", "ios": "https://dc.lft.to/lastmile_qr_scan"}, "is_reserved": 0, "is_disabled": 0, "type": "electric_scooter", "bike_id": "6d18fd8b0f4b99735905c4590b3d78a1"}, {"lon": -77.02695233333333, "lat": 38.909428, "name": "7d386fd95b0de19479a304fa51249d01", "fusion_lat": 0.0, "fusion_lon": 0.0, "rental_uris": {"android": "https://dc.lft.to/lastmile_qr_scan", "ios": "https://dc.lft.to/lastmile_qr_scan"}, "is_reserved": 0, "is_disabled": 0, "type": "electric_scooter", "bike_id": "7d386fd95b0de19479a304fa51249d01"}, {"lon": -77.01229933333333, "lat": 38.93041616666667, "name": "1be47507a09e6bec5ab03a88f6af7bc9", "fusion_lat": 0.0, "fusion_lon": 0.0, "rental_uris": {"android": "https://dc.lft.to/lastmile_qr_scan", "ios": "https://dc.lft.to/lastmile_qr_scan"}, "is_reserved": 0, "is_disabled": 0, "type": "electric_scooter", "bike_id": "1be47507a09e6bec5ab03a88f6af7bc9"}, {"lon": -76.92715316666667, "lat": 38.887697333333335, "name": "cd330c48285371cb3e5fcec3107764de", "fusion_lat": 0.0, "fusion_lon": 0.0, "rental_uris": {"android": "https://dc.lft.to/lastmile_qr_scan", "ios": "https://dc.lft.to/lastmile_qr_scan"}, "is_reserved": 0, "is_disabled": 0, "type": "electric_scooter", "bike_id": "cd330c48285371cb3e5fcec3107764de"}, {"lon": -77.01748533333334, "lat": 38.88735466666667, "name": "8c5942d860c088d1c4163c065c2991ae", "fusion_lat": 0.0, "fusion_lon": 0.0, "rental_uris": {"android": "https://dc.lft.to/lastmile_qr_scan", "ios": "https://dc.lft.to/lastmile_qr_scan"}, "is_reserved": 0, "is_disabled": 0, "type": "electric_scooter", "bike_id": "8c5942d860c088d1c4163c065c2991ae"}, {"lon": -76.99748983333333, "lat": 38.90019483333333, "name": "9c5b974fb009bfc51bee61500585da51", "fusion_lat": 0.0, "fusion_lon": 0.0, "rental_uris": {"android": "https://dc.lft.to/lastmile_qr_scan", "ios": "https://dc.lft.to/lastmile_qr_scan"}, "is_reserved": 0, "is_disabled": 0, "type": "electric_scooter", "bike_id": "9c5b974fb009bfc51bee61500585da51"}, {"lon": -77.16231616666667, "lat": 38.886514166666664, "name": "e1792c5760689454091f1af5fd7212d6", "fusion_lat": 0.0, "fusion_lon": 0.0, "rental_uris": {"android": "https://dc.lft.to/lastmile_qr_scan", "ios": "https://dc.lft.to/lastmile_qr_scan"}, "is_reserved": 0, "is_disabled": 0, "type": "electric_bike", "bike_id": "e1792c5760689454091f1af5fd7212d6"}, {"lon": -76.98904533333334, "lat": 38.866943, "name": "5e33ba428c1ea9dcc1d006be4a54192b", "fusion_lat": 0.0, "fusion_lon": 0.0, "rental_uris": {"android": "https://dc.lft.to/lastmile_qr_scan", "ios": "https://dc.lft.to/lastmile_qr_scan"}, "is_reserved": 0, "is_disabled": 0, "type": "electric_scooter", "bike_id": "5e33ba428c1ea9dcc1d006be4a54192b"}, {"lon": -77.05599, "lat": 38.936981333333335, "name": "ecc03e5824604c628a18251ce4b4405f", "fusion_lat": 0.0, "fusion_lon": 0.0, "rental_uris": {"android": "https://dc.lft.to/lastmile_qr_scan", "ios": "https://dc.lft.to/lastmile_qr_scan"}, "is_reserved": 0, "is_disabled": 0, "type": "electric_scooter", "bike_id": "ecc03e5824604c628a18251ce4b4405f"}, {"lon": -77.04638533333333, "lat": 38.919175, "name": "3209fa65baf6d81dbac7eaa9daa21f96", "fusion_lat": 0.0, "fusion_lon": 0.0, "rental_uris": {"android": "https://dc.lft.to/lastmile_qr_scan", "ios": "https://dc.lft.to/lastmile_qr_scan"}, "is_reserved": 0, "is_disabled": 0, "type": "electric_scooter", "bike_id": "3209fa65baf6d81dbac7eaa9daa21f96"}, {"lon": -77.02575533333334, "lat": 38.8840275, "name": "1f2b574a378bc9b51b605816bcec7e06", "fusion_lat": 0.0, "fusion_lon": 0.0, "rental_uris": {"android": "https://dc.lft.to/lastmile_qr_scan", "ios": "https://dc.lft.to/lastmile_qr_scan"}, "is_reserved": 0, "is_disabled": 0, "type": "electric_scooter", "bike_id": "1f2b574a378bc9b51b605816bcec7e06"}, {"lon": -76.97332416666667, "lat": 38.85063316666667, "name": "8d7f85fd860f540f19b4025e03353645", "fusion_lat": 0.0, "fusion_lon": 0.0, "rental_uris": {"android": "https://dc.lft.to/lastmile_qr_scan", "ios": "https://dc.lft.to/lastmile_qr_scan"}, "is_reserved": 0, "is_disabled": 0, "type": "electric_bike", "bike_id": "8d7f85fd860f540f19b4025e03353645"}, {"lon": -77.045412, "lat": 38.91935133333333, "name": "4e8a27e94aac4707c78a1dfcbf9cd041", "fusion_lat": 0.0, "fusion_lon": 0.0, "rental_uris": {"android": "https://dc.lft.to/lastmile_qr_scan", "ios": "https://dc.lft.to/lastmile_qr_scan"}, "is_reserved": 0, "is_disabled": 0, "type": "electric_scooter", "bike_id": "4e8a27e94aac4707c78a1dfcbf9cd041"}, {"lon": -77.02068433333334, "lat": 38.902679, "name": "85deec16b9412c85c9b41720b68ac81f", "fusion_lat": 0.0, "fusion_lon": 0.0, "rental_uris": {"android": "https://dc.lft.to/lastmile_qr_scan", "ios": "https://dc.lft.to/lastmile_qr_scan"}, "is_reserved": 0, "is_disabled": 0, "type": "electric_scooter", "bike_id": "85deec16b9412c85c9b41720b68ac81f"}, {"lon": -77.03812216666667, "lat": 38.9142175, "name": "28433bf3420b446d2230f39ec336e0ed", "fusion_lat": 0.0, "fusion_lon": 0.0, "rental_uris": {"android": "https://dc.lft.to/lastmile_qr_scan", "ios": "https://dc.lft.to/lastmile_qr_scan"}, "is_reserved": 0, "is_disabled": 0, "type": "electric_scooter", "bike_id": "28433bf3420b446d2230f39ec336e0ed"}, {"lon": -77.01768633333333, "lat": 38.91266183333333, "name": "720e86982932a10ca179356d28a37b4c", "fusion_lat": 0.0, "fusion_lon": 0.0, "rental_uris": {"android": "https://dc.lft.to/lastmile_qr_scan", "ios": "https://dc.lft.to/lastmile_qr_scan"}, "is_reserved": 0, "is_disabled": 0, "type": "electric_scooter", "bike_id": "720e86982932a10ca179356d28a37b4c"}, {"lon": -77.04652833333333, "lat": 38.914159, "name": "a2a8fb5a698e6df4f4d4d2205776167b", "fusion_lat": 0.0, "fusion_lon": 0.0, "rental_uris": {"android": "https://dc.lft.to/lastmile_qr_scan", "ios": "https://dc.lft.to/lastmile_qr_scan"}, "is_reserved": 0, "is_disabled": 0, "type": "electric_scooter", "bike_id": "a2a8fb5a698e6df4f4d4d2205776167b"}, {"lon": -77.0529175, "lat": 38.91009316666667, "name": "c732ac6fc6db3a3aa8eec7dd300fbbb0", "fusion_lat": 0.0, "fusion_lon": 0.0, "rental_uris": {"android": "https://dc.lft.to/lastmile_qr_scan", "ios": "https://dc.lft.to/lastmile_qr_scan"}, "is_reserved": 0, "is_disabled": 0, "type": "electric_scooter", "bike_id": "c732ac6fc6db3a3aa8eec7dd300fbbb0"}, {"lon": -77.02183516666666, "lat": 38.9112955, "name": "20a655d82a7a286f5e257ed98a4eea61", "fusion_lat": 0.0, "fusion_lon": 0.0, "rental_uris": {"android": "https://dc.lft.to/lastmile_qr_scan", "ios": "https://dc.lft.to/lastmile_qr_scan"}, "is_reserved": 0, "is_disabled": 0, "type": "electric_scooter", "bike_id": "20a655d82a7a286f5e257ed98a4eea61"}, {"lon": -77.02883566666667, "lat": 38.91122466666667, "name": "04824fc21b17694afe2408137b8476c4", "fusion_lat": 0.0, "fusion_lon": 0.0, "rental_uris": {"android": "https://dc.lft.to/lastmile_qr_scan", "ios": "https://dc.lft.to/lastmile_qr_scan"}, "is_reserved": 0, "is_disabled": 0, "type": "electric_scooter", "bike_id": "04824fc21b17694afe2408137b8476c4"}, {"lon": -77.04375966666667, "lat": 38.8921925, "name": "5ae1dd6fab6d57461a069ba4b3adfb8b", "fusion_lat": 0.0, "fusion_lon": 0.0, "rental_uris": {"android": "https://dc.lft.to/lastmile_qr_scan", "ios": "https://dc.lft.to/lastmile_qr_scan"}, "is_reserved": 0, "is_disabled": 0, "type": "electric_scooter", "bike_id": "5ae1dd6fab6d57461a069ba4b3adfb8b"}, {"lon": -77.01873166666667, "lat": 38.8874715, "name": "a876119d38248510e8e2dc61c82c15ac", "fusion_lat": 0.0, "fusion_lon": 0.0, "rental_uris": {"android": "https://dc.lft.to/lastmile_qr_scan", "ios": "https://dc.lft.to/lastmile_qr_scan"}, "is_reserved": 0, "is_disabled": 0, "type": "electric_scooter", "bike_id": "a876119d38248510e8e2dc61c82c15ac"}, {"lon": -77.01933333333334, "lat": 38.9023845, "name": "8bec801b999c2dad3f1c8fdfc9e9a9b2", "fusion_lat": 0.0, "fusion_lon": 0.0, "rental_uris": {"android": "https://dc.lft.to/lastmile_qr_scan", "ios": "https://dc.lft.to/lastmile_qr_scan"}, "is_reserved": 0, "is_disabled": 0, "type": "electric_scooter", "bike_id": "8bec801b999c2dad3f1c8fdfc9e9a9b2"}, {"lon": -76.99712683333334, "lat": 38.9003465, "name": "34fab99aa38134c3e855eb0213241574", "fusion_lat": 0.0, "fusion_lon": 0.0, "rental_uris": {"android": "https://dc.lft.to/lastmile_qr_scan", "ios": "https://dc.lft.to/lastmile_qr_scan"}, "is_reserved": 0, "is_disabled": 0, "type": "electric_scooter", "bike_id": "34fab99aa38134c3e855eb0213241574"}, {"lon": -77.02604833333334, "lat": 38.90479966666667, "name": "fc2c62eb9edacad5fe50d32962225a78", "fusion_lat": 0.0, "fusion_lon": 0.0, "rental_uris": {"android": "https://dc.lft.to/lastmile_qr_scan", "ios": "https://dc.lft.to/lastmile_qr_scan"}, "is_reserved": 0, "is_disabled": 0, "type": "electric_scooter", "bike_id": "fc2c62eb9edacad5fe50d32962225a78"}, {"lon": -77.04907383333334, "lat": 38.888357166666665, "name": "0cc162f3de7600b1041c503e041e7496", "fusion_lat": 0.0, "fusion_lon": 0.0, "rental_uris": {"android": "https://dc.lft.to/lastmile_qr_scan", "ios": "https://dc.lft.to/lastmile_qr_scan"}, "is_reserved": 0, "is_disabled": 0, "type": "electric_scooter", "bike_id": "0cc162f3de7600b1041c503e041e7496"}, {"lon": -77.04235266666667, "lat": 38.909266, "name": "58222f10175db3d4af575ef3e9c019ac", "fusion_lat": 0.0, "fusion_lon": 0.0, "rental_uris": {"android": "https://dc.lft.to/lastmile_qr_scan", "ios": "https://dc.lft.to/lastmile_qr_scan"}, "is_reserved": 0, "is_disabled": 0, "type": "electric_bike", "bike_id": "58222f10175db3d4af575ef3e9c019ac"}, {"lon": -76.90974733333333, "lat": 38.85422116666667, "name": "4d1b7a9c6b47f05756f26473fe475160", "fusion_lat": 0.0, "fusion_lon": 0.0, "rental_uris": {"android": "https://dc.lft.to/lastmile_qr_scan", "ios": "https://dc.lft.to/lastmile_qr_scan"}, "is_reserved": 0, "is_disabled": 0, "type": "electric_bike", "bike_id": "4d1b7a9c6b47f05756f26473fe475160"}, {"lon": -77.001226, "lat": 38.91705833333333, "name": "5755c5fe4096dde9d345aa0dd5da8252", "fusion_lat": 0.0, "fusion_lon": 0.0, "rental_uris": {"android": "https://dc.lft.to/lastmile_qr_scan", "ios": "https://dc.lft.to/lastmile_qr_scan"}, "is_reserved": 0, "is_disabled": 0, "type": "electric_scooter", "bike_id": "5755c5fe4096dde9d345aa0dd5da8252"}, {"lon": -77.03658166666666, "lat": 38.936421333333335, "name": "ba9810ed7c5edac35d202a25a7a0758a", "fusion_lat": 0.0, "fusion_lon": 0.0, "rental_uris": {"android": "https://dc.lft.to/lastmile_qr_scan", "ios": "https://dc.lft.to/lastmile_qr_scan"}, "is_reserved": 0, "is_disabled": 0, "type": "electric_scooter", "bike_id": "ba9810ed7c5edac35d202a25a7a0758a"}, {"lon": -77.02406383333333, "lat": 38.936929, "name": "2189942f1d5434e447eadae797a3d9e7", "fusion_lat": 0.0, "fusion_lon": 0.0, "rental_uris": {"android": "https://dc.lft.to/lastmile_qr_scan", "ios": "https://dc.lft.to/lastmile_qr_scan"}, "is_reserved": 0, "is_disabled": 0, "type": "electric_bike", "bike_id": "2189942f1d5434e447eadae797a3d9e7"}, {"lon": -77.0417315, "lat": 38.914692, "name": "8eac1abbcc17e9fe728ee9abd0e5cc25", "fusion_lat": 0.0, "fusion_lon": 0.0, "rental_uris": {"android": "https://dc.lft.to/lastmile_qr_scan", "ios": "https://dc.lft.to/lastmile_qr_scan"}, "is_reserved": 0, "is_disabled": 0, "type": "electric_scooter", "bike_id": "8eac1abbcc17e9fe728ee9abd0e5cc25"}, {"lon": -77.044437, "lat": 38.91878833333333, "name": "a6d281082a3005cb9767848b41d3e02b", "fusion_lat": 0.0, "fusion_lon": 0.0, "rental_uris": {"android": "https://dc.lft.to/lastmile_qr_scan", "ios": "https://dc.lft.to/lastmile_qr_scan"}, "is_reserved": 0, "is_disabled": 0, "type": "electric_scooter", "bike_id": "a6d281082a3005cb9767848b41d3e02b"}, {"lon": -76.94733083333334, "lat": 38.896752, "name": "0b5fce50b9149b0ee3ee6a84f3ae5005", "fusion_lat": 0.0, "fusion_lon": 0.0, "rental_uris": {"android": "https://dc.lft.to/lastmile_qr_scan", "ios": "https://dc.lft.to/lastmile_qr_scan"}, "is_reserved": 0, "is_disabled": 0, "type": "electric_scooter", "bike_id": "0b5fce50b9149b0ee3ee6a84f3ae5005"}, {"lon": -76.99945416666667, "lat": 38.842903666666665, "name": "ce4453d9b3cff0807669220827dd356c", "fusion_lat": 0.0, "fusion_lon": 0.0, "rental_uris": {"android": "https://dc.lft.to/lastmile_qr_scan", "ios": "https://dc.lft.to/lastmile_qr_scan"}, "is_reserved": 0, "is_disabled": 0, "type": "electric_scooter", "bike_id": "ce4453d9b3cff0807669220827dd356c"}, {"lon": -77.04647716666666, "lat": 38.852084166666664, "name": "ff16ca27eed9a8ba990f420a67e55775", "fusion_lat": 0.0, "fusion_lon": 0.0, "rental_uris": {"android": "https://dc.lft.to/lastmile_qr_scan", "ios": "https://dc.lft.to/lastmile_qr_scan"}, "is_reserved": 0, "is_disabled": 0, "type": "electric_bike", "bike_id": "ff16ca27eed9a8ba990f420a67e55775"}, {"lon": -77.03355583333334, "lat": 38.9002845, "name": "f950dc917565d6cd61ba429d045f472a", "fusion_lat": 0.0, "fusion_lon": 0.0, "rental_uris": {"android": "https://dc.lft.to/lastmile_qr_scan", "ios": "https://dc.lft.to/lastmile_qr_scan"}, "is_reserved": 0, "is_disabled": 0, "type": "electric_scooter", "bike_id": "f950dc917565d6cd61ba429d045f472a"}, {"lon": -77.0316845, "lat": 38.94457283333333, "name": "5e78d1b2a4b536a7a9bdb64d7dd597f4", "fusion_lat": 0.0, "fusion_lon": 0.0, "rental_uris": {"android": "https://dc.lft.to/lastmile_qr_scan", "ios": "https://dc.lft.to/lastmile_qr_scan"}, "is_reserved": 0, "is_disabled": 0, "type": "electric_bike", "bike_id": "5e78d1b2a4b536a7a9bdb64d7dd597f4"}, {"lon": -77.04382683333333, "lat": 38.9178575, "name": "6e463617b7b83ea5275ffb452e4514e1", "fusion_lat": 0.0, "fusion_lon": 0.0, "rental_uris": {"android": "https://dc.lft.to/lastmile_qr_scan", "ios": "https://dc.lft.to/lastmile_qr_scan"}, "is_reserved": 0, "is_disabled": 0, "type": "electric_scooter", "bike_id": "6e463617b7b83ea5275ffb452e4514e1"}, {"lon": -77.01772366666667, "lat": 38.92101683333333, "name": "8626c9a11f31bb0b6f632d118d232a7c", "fusion_lat": 0.0, "fusion_lon": 0.0, "rental_uris": {"android": "https://dc.lft.to/lastmile_qr_scan", "ios": "https://dc.lft.to/lastmile_qr_scan"}, "is_reserved": 0, "is_disabled": 0, "type": "electric_scooter", "bike_id": "8626c9a11f31bb0b6f632d118d232a7c"}, {"lon": -77.05321316666667, "lat": 38.90421166666667, "name": "ae65cd942b72b1aba93c3989c2c2fbcf", "fusion_lat": 0.0, "fusion_lon": 0.0, "rental_uris": {"android": "https://dc.lft.to/lastmile_qr_scan", "ios": "https://dc.lft.to/lastmile_qr_scan"}, "is_reserved": 0, "is_disabled": 0, "type": "electric_scooter", "bike_id": "ae65cd942b72b1aba93c3989c2c2fbcf"}, {"lon": -77.03187533333333, "lat": 38.91178983333333, "name": "e6b780ad21d9b85522733f86f05250f5", "fusion_lat": 0.0, "fusion_lon": 0.0, "rental_uris": {"android": "https://dc.lft.to/lastmile_qr_scan", "ios": "https://dc.lft.to/lastmile_qr_scan"}, "is_reserved": 0, "is_disabled": 0, "type": "electric_scooter", "bike_id": "e6b780ad21d9b85522733f86f05250f5"}, {"lon": -77.01120533333334, "lat": 38.895065333333335, "name": "11c2690adfda8a4ff7fc6ff9776b92d5", "fusion_lat": 0.0, "fusion_lon": 0.0, "rental_uris": {"android": "https://dc.lft.to/lastmile_qr_scan", "ios": "https://dc.lft.to/lastmile_qr_scan"}, "is_reserved": 0, "is_disabled": 0, "type": "electric_scooter", "bike_id": "11c2690adfda8a4ff7fc6ff9776b92d5"}, {"lon": -77.02721883333334, "lat": 38.97202516666667, "name": "a3d92770e854e4c452653b033240e127", "fusion_lat": 0.0, "fusion_lon": 0.0, "rental_uris": {"android": "https://dc.lft.to/lastmile_qr_scan", "ios": "https://dc.lft.to/lastmile_qr_scan"}, "is_reserved": 0, "is_disabled": 0, "type": "electric_bike", "bike_id": "a3d92770e854e4c452653b033240e127"}, {"lon": -77.041574, "lat": 38.91421966666667, "name": "0f543fcda2a42890ed1f54f4947040b9", "fusion_lat": 0.0, "fusion_lon": 0.0, "rental_uris": {"android": "https://dc.lft.to/lastmile_qr_scan", "ios": "https://dc.lft.to/lastmile_qr_scan"}, "is_reserved": 0, "is_disabled": 0, "type": "electric_scooter", "bike_id": "0f543fcda2a42890ed1f54f4947040b9"}, {"lon": -77.02563566666667, "lat": 38.925373666666665, "name": "e10775a0a8a58decfd8b2a744c05c26b", "fusion_lat": 0.0, "fusion_lon": 0.0, "rental_uris": {"android": "https://dc.lft.to/lastmile_qr_scan", "ios": "https://dc.lft.to/lastmile_qr_scan"}, "is_reserved": 0, "is_disabled": 0, "type": "electric_scooter", "bike_id": "e10775a0a8a58decfd8b2a744c05c26b"}, {"lon": -77.0784475, "lat": 38.93143516666667, "name": "52f27513557ecd934198453dd3581fe1", "fusion_lat": 0.0, "fusion_lon": 0.0, "rental_uris": {"android": "https://dc.lft.to/lastmile_qr_scan", "ios": "https://dc.lft.to/lastmile_qr_scan"}, "is_reserved": 0, "is_disabled": 0, "type": "electric_scooter", "bike_id": "52f27513557ecd934198453dd3581fe1"}, {"lon": -77.02183333333333, "lat": 38.9098055, "name": "d7fcc59980fcb44576623e0a4a215eb0", "fusion_lat": 0.0, "fusion_lon": 0.0, "rental_uris": {"android": "https://dc.lft.to/lastmile_qr_scan", "ios": "https://dc.lft.to/lastmile_qr_scan"}, "is_reserved": 0, "is_disabled": 0, "type": "electric_scooter", "bike_id": "d7fcc59980fcb44576623e0a4a215eb0"}, {"lon": -77.00264266666667, "lat": 38.87757, "name": "973e572a1a45bb19d9be11ec27edcd56", "fusion_lat": 0.0, "fusion_lon": 0.0, "rental_uris": {"android": "https://dc.lft.to/lastmile_qr_scan", "ios": "https://dc.lft.to/lastmile_qr_scan"}, "is_reserved": 0, "is_disabled": 0, "type": "electric_scooter", "bike_id": "973e572a1a45bb19d9be11ec27edcd56"}, {"lon": -77.00212633333334, "lat": 38.9047575, "name": "4d5ada9ce98762b1c5881f17d50e32a4", "fusion_lat": 0.0, "fusion_lon": 0.0, "rental_uris": {"android": "https://dc.lft.to/lastmile_qr_scan", "ios": "https://dc.lft.to/lastmile_qr_scan"}, "is_reserved": 0, "is_disabled": 0, "type": "electric_scooter", "bike_id": "4d5ada9ce98762b1c5881f17d50e32a4"}, {"lon": -77.03353916666667, "lat": 38.911110666666666, "name": "7fa1cbcdca7d7c146b20280caa6e5e7e", "fusion_lat": 0.0, "fusion_lon": 0.0, "rental_uris": {"android": "https://dc.lft.to/lastmile_qr_scan", "ios": "https://dc.lft.to/lastmile_qr_scan"}, "is_reserved": 0, "is_disabled": 0, "type": "electric_scooter", "bike_id": "7fa1cbcdca7d7c146b20280caa6e5e7e"}, {"lon": -77.01224133333334, "lat": 38.90037, "name": "a03de1593b27e37239fa3a8742abde77", "fusion_lat": 0.0, "fusion_lon": 0.0, "rental_uris": {"android": "https://dc.lft.to/lastmile_qr_scan", "ios": "https://dc.lft.to/lastmile_qr_scan"}, "is_reserved": 0, "is_disabled": 0, "type": "electric_scooter", "bike_id": "a03de1593b27e37239fa3a8742abde77"}, {"lon": -77.04038966666667, "lat": 38.91706116666667, "name": "296136f3e87805ce3c29c599a8c3c638", "fusion_lat": 0.0, "fusion_lon": 0.0, "rental_uris": {"android": "https://dc.lft.to/lastmile_qr_scan", "ios": "https://dc.lft.to/lastmile_qr_scan"}, "is_reserved": 0, "is_disabled": 0, "type": "electric_scooter", "bike_id": "296136f3e87805ce3c29c599a8c3c638"}, {"lon": -76.96551433333333, "lat": 38.9510185, "name": "f351ed51a30af3037b15b5571c8ae06e", "fusion_lat": 0.0, "fusion_lon": 0.0, "rental_uris": {"android": "https://dc.lft.to/lastmile_qr_scan", "ios": "https://dc.lft.to/lastmile_qr_scan"}, "is_reserved": 0, "is_disabled": 0, "type": "electric_bike", "bike_id": "f351ed51a30af3037b15b5571c8ae06e"}, {"lon": -77.0138055, "lat": 38.928526, "name": "34335e4da43687a218555aa477aec7e3", "fusion_lat": 0.0, "fusion_lon": 0.0, "rental_uris": {"android": "https://dc.lft.to/lastmile_qr_scan", "ios": "https://dc.lft.to/lastmile_qr_scan"}, "is_reserved": 0, "is_disabled": 0, "type": "electric_scooter", "bike_id": "34335e4da43687a218555aa477aec7e3"}, {"lon": -77.17845133333333, "lat": 39.088558, "name": "6a42140e784a5df8165460062f78f043", "fusion_lat": 0.0, "fusion_lon": 0.0, "rental_uris": {"android": "https://dc.lft.to/lastmile_qr_scan", "ios": "https://dc.lft.to/lastmile_qr_scan"}, "is_reserved": 0, "is_disabled": 0, "type": "electric_bike", "bike_id": "6a42140e784a5df8165460062f78f043"}, {"lon": -77.01887483333333, "lat": 38.902332, "name": "96477793cc48b80127644feedd34f666", "fusion_lat": 0.0, "fusion_lon": 0.0, "rental_uris": {"android": "https://dc.lft.to/lastmile_qr_scan", "ios": "https://dc.lft.to/lastmile_qr_scan"}, "is_reserved": 0, "is_disabled": 0, "type": "electric_scooter", "bike_id": "96477793cc48b80127644feedd34f666"}, {"lon": -77.029545, "lat": 38.91720983333333, "name": "bb1c061d9a5bf15142d0c737d22934c6", "fusion_lat": 0.0, "fusion_lon": 0.0, "rental_uris": {"android": "https://dc.lft.to/lastmile_qr_scan", "ios": "https://dc.lft.to/lastmile_qr_scan"}, "is_reserved": 0, "is_disabled": 0, "type": "electric_scooter", "bike_id": "bb1c061d9a5bf15142d0c737d22934c6"}, {"lon": -77.027054, "lat": 38.94998, "name": "628906c77a921b91d0f3a249012a408b", "fusion_lat": 0.0, "fusion_lon": 0.0, "rental_uris": {"android": "https://dc.lft.to/lastmile_qr_scan", "ios": "https://dc.lft.to/lastmile_qr_scan"}, "is_reserved": 0, "is_disabled": 0, "type": "electric_scooter", "bike_id": "628906c77a921b91d0f3a249012a408b"}, {"lon": -76.997786, "lat": 38.885542, "name": "a7e210e314cd7b32fc25292c4468a336", "fusion_lat": 0.0, "fusion_lon": 0.0, "rental_uris": {"android": "https://dc.lft.to/lastmile_qr_scan", "ios": "https://dc.lft.to/lastmile_qr_scan"}, "is_reserved": 0, "is_disabled": 0, "type": "electric_scooter", "bike_id": "a7e210e314cd7b32fc25292c4468a336"}, {"lon": -77.044198, "lat": 38.922307, "name": "43ea6af1369e56237b7d42c859b215d2", "fusion_lat": 0.0, "fusion_lon": 0.0, "rental_uris": {"android": "https://dc.lft.to/lastmile_qr_scan", "ios": "https://dc.lft.to/lastmile_qr_scan"}, "is_reserved": 0, "is_disabled": 0, "type": "electric_scooter", "bike_id": "43ea6af1369e56237b7d42c859b215d2"}, {"lon": -77.0367105, "lat": 38.90276216666667, "name": "0058622bccb926c00b97024c94e47d35", "fusion_lat": 0.0, "fusion_lon": 0.0, "rental_uris": {"android": "https://dc.lft.to/lastmile_qr_scan", "ios": "https://dc.lft.to/lastmile_qr_scan"}, "is_reserved": 0, "is_disabled": 0, "type": "electric_scooter", "bike_id": "0058622bccb926c00b97024c94e47d35"}, {"lon": -76.98902766666667, "lat": 38.8669215, "name": "7465d5a830849364ae3145ab234778fc", "fusion_lat": 0.0, "fusion_lon": 0.0, "rental_uris": {"android": "https://dc.lft.to/lastmile_qr_scan", "ios": "https://dc.lft.to/lastmile_qr_scan"}, "is_reserved": 0, "is_disabled": 0, "type": "electric_scooter", "bike_id": "7465d5a830849364ae3145ab234778fc"}, {"lon": -77.0430815, "lat": 39.05448366666667, "name": "a05ec3bb96282e137ae80d9c1c96fcce", "fusion_lat": 0.0, "fusion_lon": 0.0, "rental_uris": {"android": "https://dc.lft.to/lastmile_qr_scan", "ios": "https://dc.lft.to/lastmile_qr_scan"}, "is_reserved": 0, "is_disabled": 0, "type": "electric_bike", "bike_id": "a05ec3bb96282e137ae80d9c1c96fcce"}, {"lon": -77.02391533333333, "lat": 38.909849666666666, "name": "a3bab6598888764f17288f1113010493", "fusion_lat": 0.0, "fusion_lon": 0.0, "rental_uris": {"android": "https://dc.lft.to/lastmile_qr_scan", "ios": "https://dc.lft.to/lastmile_qr_scan"}, "is_reserved": 0, "is_disabled": 0, "type": "electric_scooter", "bike_id": "a3bab6598888764f17288f1113010493"}, {"lon": -77.02463583333333, "lat": 38.91713766666667, "name": "330ae428dfdab99ff5d3afe5a3bb62ad", "fusion_lat": 0.0, "fusion_lon": 0.0, "rental_uris": {"android": "https://dc.lft.to/lastmile_qr_scan", "ios": "https://dc.lft.to/lastmile_qr_scan"}, "is_reserved": 0, "is_disabled": 0, "type": "electric_scooter", "bike_id": "330ae428dfdab99ff5d3afe5a3bb62ad"}, {"lon": -77.04812183333334, "lat": 38.89743766666667, "name": "14b1529595e075a7f0725871e1f532d8", "fusion_lat": 0.0, "fusion_lon": 0.0, "rental_uris": {"android": "https://dc.lft.to/lastmile_qr_scan", "ios": "https://dc.lft.to/lastmile_qr_scan"}, "is_reserved": 0, "is_disabled": 0, "type": "electric_scooter", "bike_id": "14b1529595e075a7f0725871e1f532d8"}, {"lon": -77.02344583333333, "lat": 38.9620795, "name": "e790c2a337a3bfe4a735e9410c058697", "fusion_lat": 0.0, "fusion_lon": 0.0, "rental_uris": {"android": "https://dc.lft.to/lastmile_qr_scan", "ios": "https://dc.lft.to/lastmile_qr_scan"}, "is_reserved": 0, "is_disabled": 0, "type": "electric_scooter", "bike_id": "e790c2a337a3bfe4a735e9410c058697"}, {"lon": -76.9954805, "lat": 38.884205333333334, "name": "bd32d4b7d8ab19ad1bb5483c11d2039a", "fusion_lat": 0.0, "fusion_lon": 0.0, "rental_uris": {"android": "https://dc.lft.to/lastmile_qr_scan", "ios": "https://dc.lft.to/lastmile_qr_scan"}, "is_reserved": 0, "is_disabled": 0, "type": "electric_scooter", "bike_id": "bd32d4b7d8ab19ad1bb5483c11d2039a"}, {"lon": -77.00531716666667, "lat": 38.929071, "name": "fce652d5f8194c23f4ae02aff7db1c55", "fusion_lat": 0.0, "fusion_lon": 0.0, "rental_uris": {"android": "https://dc.lft.to/lastmile_qr_scan", "ios": "https://dc.lft.to/lastmile_qr_scan"}, "is_reserved": 0, "is_disabled": 0, "type": "electric_scooter", "bike_id": "fce652d5f8194c23f4ae02aff7db1c55"}, {"lon": -77.015889, "lat": 38.88495266666666, "name": "cb12d1bcad6b51a403c5a798945d8c60", "fusion_lat": 0.0, "fusion_lon": 0.0, "rental_uris": {"android": "https://dc.lft.to/lastmile_qr_scan", "ios": "https://dc.lft.to/lastmile_qr_scan"}, "is_reserved": 0, "is_disabled": 0, "type": "electric_bike", "bike_id": "cb12d1bcad6b51a403c5a798945d8c60"}, {"lon": -77.05316133333334, "lat": 38.92350483333333, "name": "549b6e080e10b2c6815d58e2e638001b", "fusion_lat": 0.0, "fusion_lon": 0.0, "rental_uris": {"android": "https://dc.lft.to/lastmile_qr_scan", "ios": "https://dc.lft.to/lastmile_qr_scan"}, "is_reserved": 0, "is_disabled": 0, "type": "electric_scooter", "bike_id": "549b6e080e10b2c6815d58e2e638001b"}, {"lon": -77.038724, "lat": 38.90821183333333, "name": "8373cbaf9a7999085da8515464e0f827", "fusion_lat": 0.0, "fusion_lon": 0.0, "rental_uris": {"android": "https://dc.lft.to/lastmile_qr_scan", "ios": "https://dc.lft.to/lastmile_qr_scan"}, "is_reserved": 0, "is_disabled": 0, "type": "electric_scooter", "bike_id": "8373cbaf9a7999085da8515464e0f827"}, {"lon": -77.02971616666666, "lat": 38.916822, "name": "8bdbe76025776f7cacb30481188ac63b", "fusion_lat": 0.0, "fusion_lon": 0.0, "rental_uris": {"android": "https://dc.lft.to/lastmile_qr_scan", "ios": "https://dc.lft.to/lastmile_qr_scan"}, "is_reserved": 0, "is_disabled": 0, "type": "electric_scooter", "bike_id": "8bdbe76025776f7cacb30481188ac63b"}, {"lon": -77.0573385, "lat": 38.93366833333333, "name": "ac80c767d7bcd2e895e38740ca061146", "fusion_lat": 0.0, "fusion_lon": 0.0, "rental_uris": {"android": "https://dc.lft.to/lastmile_qr_scan", "ios": "https://dc.lft.to/lastmile_qr_scan"}, "is_reserved": 0, "is_disabled": 0, "type": "electric_scooter", "bike_id": "ac80c767d7bcd2e895e38740ca061146"}, {"lon": -77.01185583333333, "lat": 38.90029066666666, "name": "f7daf1b880c213b0e7ef9dc1e25ff81d", "fusion_lat": 0.0, "fusion_lon": 0.0, "rental_uris": {"android": "https://dc.lft.to/lastmile_qr_scan", "ios": "https://dc.lft.to/lastmile_qr_scan"}, "is_reserved": 0, "is_disabled": 0, "type": "electric_scooter", "bike_id": "f7daf1b880c213b0e7ef9dc1e25ff81d"}, {"lon": -77.0219885, "lat": 38.89635533333333, "name": "85200bf3f66794c5e7bc6f466c373c13", "fusion_lat": 0.0, "fusion_lon": 0.0, "rental_uris": {"android": "https://dc.lft.to/lastmile_qr_scan", "ios": "https://dc.lft.to/lastmile_qr_scan"}, "is_reserved": 0, "is_disabled": 0, "type": "electric_scooter", "bike_id": "85200bf3f66794c5e7bc6f466c373c13"}, {"lon": -77.00566383333333, "lat": 38.92720533333333, "name": "a587d4f0efe841f5aeaee13b7aaed1d4", "fusion_lat": 0.0, "fusion_lon": 0.0, "rental_uris": {"android": "https://dc.lft.to/lastmile_qr_scan", "ios": "https://dc.lft.to/lastmile_qr_scan"}, "is_reserved": 0, "is_disabled": 0, "type": "electric_scooter", "bike_id": "a587d4f0efe841f5aeaee13b7aaed1d4"}, {"lon": -77.014279, "lat": 38.94232016666667, "name": "cb77d6492054c630a91b2c832dddebc7", "fusion_lat": 0.0, "fusion_lon": 0.0, "rental_uris": {"android": "https://dc.lft.to/lastmile_qr_scan", "ios": "https://dc.lft.to/lastmile_qr_scan"}, "is_reserved": 0, "is_disabled": 0, "type": "electric_scooter", "bike_id": "cb77d6492054c630a91b2c832dddebc7"}, {"lon": -77.01873333333333, "lat": 38.948925, "name": "27b6bf84a248430c18faac8a71708bc7", "fusion_lat": 0.0, "fusion_lon": 0.0, "rental_uris": {"android": "https://dc.lft.to/lastmile_qr_scan", "ios": "https://dc.lft.to/lastmile_qr_scan"}, "is_reserved": 0, "is_disabled": 0, "type": "electric_scooter", "bike_id": "27b6bf84a248430c18faac8a71708bc7"}, {"lon": -77.06645366666666, "lat": 38.9137995, "name": "0896d8c16e17078dbe6feeb67e148518", "fusion_lat": 0.0, "fusion_lon": 0.0, "rental_uris": {"android": "https://dc.lft.to/lastmile_qr_scan", "ios": "https://dc.lft.to/lastmile_qr_scan"}, "is_reserved": 0, "is_disabled": 0, "type": "electric_scooter", "bike_id": "0896d8c16e17078dbe6feeb67e148518"}, {"lon": -77.02929066666667, "lat": 38.8821995, "name": "6c94c3dc998c8b02ca48dab62da01609", "fusion_lat": 0.0, "fusion_lon": 0.0, "rental_uris": {"android": "https://dc.lft.to/lastmile_qr_scan", "ios": "https://dc.lft.to/lastmile_qr_scan"}, "is_reserved": 0, "is_disabled": 0, "type": "electric_scooter", "bike_id": "6c94c3dc998c8b02ca48dab62da01609"}, {"lon": -77.05571766666667, "lat": 38.899864, "name": "1a47ba6d78c2f148dd87d527d3b186f5", "fusion_lat": 0.0, "fusion_lon": 0.0, "rental_uris": {"android": "https://dc.lft.to/lastmile_qr_scan", "ios": "https://dc.lft.to/lastmile_qr_scan"}, "is_reserved": 0, "is_disabled": 0, "type": "electric_scooter", "bike_id": "1a47ba6d78c2f148dd87d527d3b186f5"}, {"lon": -77.03499366666667, "lat": 38.917046666666664, "name": "dc706e018aa06343f915728bd3d7a77e", "fusion_lat": 0.0, "fusion_lon": 0.0, "rental_uris": {"android": "https://dc.lft.to/lastmile_qr_scan", "ios": "https://dc.lft.to/lastmile_qr_scan"}, "is_reserved": 0, "is_disabled": 0, "type": "electric_scooter", "bike_id": "dc706e018aa06343f915728bd3d7a77e"}, {"lon": -76.991656, "lat": 38.89212783333333, "name": "80ba8243edccc98e9eceadbe32e8d6e6", "fusion_lat": 0.0, "fusion_lon": 0.0, "rental_uris": {"android": "https://dc.lft.to/lastmile_qr_scan", "ios": "https://dc.lft.to/lastmile_qr_scan"}, "is_reserved": 0, "is_disabled": 0, "type": "electric_scooter", "bike_id": "80ba8243edccc98e9eceadbe32e8d6e6"}, {"lon": -77.03322983333334, "lat": 38.89877716666667, "name": "8f3558aceef9a8199c326653d7825554", "fusion_lat": 0.0, "fusion_lon": 0.0, "rental_uris": {"android": "https://dc.lft.to/lastmile_qr_scan", "ios": "https://dc.lft.to/lastmile_qr_scan"}, "is_reserved": 0, "is_disabled": 0, "type": "electric_scooter", "bike_id": "8f3558aceef9a8199c326653d7825554"}, {"lon": -76.96525883333334, "lat": 38.87629416666667, "name": "488e206920bd1f41a25df831b2f10046", "fusion_lat": 0.0, "fusion_lon": 0.0, "rental_uris": {"android": "https://dc.lft.to/lastmile_qr_scan", "ios": "https://dc.lft.to/lastmile_qr_scan"}, "is_reserved": 0, "is_disabled": 0, "type": "electric_scooter", "bike_id": "488e206920bd1f41a25df831b2f10046"}, {"lon": -77.04617033333334, "lat": 38.902626, "name": "0ae99dbc3ee5261c16d41fc0d36113aa", "fusion_lat": 0.0, "fusion_lon": 0.0, "rental_uris": {"android": "https://dc.lft.to/lastmile_qr_scan", "ios": "https://dc.lft.to/lastmile_qr_scan"}, "is_reserved": 0, "is_disabled": 0, "type": "electric_scooter", "bike_id": "0ae99dbc3ee5261c16d41fc0d36113aa"}, {"lon": -77.02379866666666, "lat": 38.93389, "name": "cf1b2a7db65a6fdab6479b7e1b8ad1bf", "fusion_lat": 0.0, "fusion_lon": 0.0, "rental_uris": {"android": "https://dc.lft.to/lastmile_qr_scan", "ios": "https://dc.lft.to/lastmile_qr_scan"}, "is_reserved": 0, "is_disabled": 0, "type": "electric_bike", "bike_id": "cf1b2a7db65a6fdab6479b7e1b8ad1bf"}, {"lon": -77.02379016666667, "lat": 38.902042333333334, "name": "0da5e91245c294bb6d234d7d380e0824", "fusion_lat": 0.0, "fusion_lon": 0.0, "rental_uris": {"android": "https://dc.lft.to/lastmile_qr_scan", "ios": "https://dc.lft.to/lastmile_qr_scan"}, "is_reserved": 0, "is_disabled": 0, "type": "electric_scooter", "bike_id": "0da5e91245c294bb6d234d7d380e0824"}, {"lon": -77.031772, "lat": 38.90839416666667, "name": "f1bb586ea62bbb33fc8bee291afdc464", "fusion_lat": 0.0, "fusion_lon": 0.0, "rental_uris": {"android": "https://dc.lft.to/lastmile_qr_scan", "ios": "https://dc.lft.to/lastmile_qr_scan"}, "is_reserved": 0, "is_disabled": 0, "type": "electric_scooter", "bike_id": "f1bb586ea62bbb33fc8bee291afdc464"}, {"lon": -76.99335, "lat": 38.96193733333333, "name": "1a5123d63389ef802bbcbc540e57f113", "fusion_lat": 0.0, "fusion_lon": 0.0, "rental_uris": {"android": "https://dc.lft.to/lastmile_qr_scan", "ios": "https://dc.lft.to/lastmile_qr_scan"}, "is_reserved": 0, "is_disabled": 0, "type": "electric_bike", "bike_id": "1a5123d63389ef802bbcbc540e57f113"}, {"lon": -77.0420865, "lat": 38.92312583333333, "name": "a3dc9be2d6e46afa26149e0dbf8b81ec", "fusion_lat": 0.0, "fusion_lon": 0.0, "rental_uris": {"android": "https://dc.lft.to/lastmile_qr_scan", "ios": "https://dc.lft.to/lastmile_qr_scan"}, "is_reserved": 0, "is_disabled": 0, "type": "electric_scooter", "bike_id": "a3dc9be2d6e46afa26149e0dbf8b81ec"}, {"lon": -77.0258655, "lat": 38.892501, "name": "fd93aa9e560a16a2af7325ca04f15bf8", "fusion_lat": 0.0, "fusion_lon": 0.0, "rental_uris": {"android": "https://dc.lft.to/lastmile_qr_scan", "ios": "https://dc.lft.to/lastmile_qr_scan"}, "is_reserved": 0, "is_disabled": 0, "type": "electric_scooter", "bike_id": "fd93aa9e560a16a2af7325ca04f15bf8"}, {"lon": -77.0346435, "lat": 38.908912, "name": "3421caddee18913e5b2807fecfb60133", "fusion_lat": 0.0, "fusion_lon": 0.0, "rental_uris": {"android": "https://dc.lft.to/lastmile_qr_scan", "ios": "https://dc.lft.to/lastmile_qr_scan"}, "is_reserved": 0, "is_disabled": 0, "type": "electric_scooter", "bike_id": "3421caddee18913e5b2807fecfb60133"}, {"lon": -77.019497, "lat": 38.92415466666667, "name": "18ff90e56aed2c5b05f63cf93672fe87", "fusion_lat": 0.0, "fusion_lon": 0.0, "rental_uris": {"android": "https://dc.lft.to/lastmile_qr_scan", "ios": "https://dc.lft.to/lastmile_qr_scan"}, "is_reserved": 0, "is_disabled": 0, "type": "electric_scooter", "bike_id": "18ff90e56aed2c5b05f63cf93672fe87"}, {"lon": -77.0472, "lat": 38.92240616666667, "name": "2f41831b3c1d4ea664717638099515b6", "fusion_lat": 0.0, "fusion_lon": 0.0, "rental_uris": {"android": "https://dc.lft.to/lastmile_qr_scan", "ios": "https://dc.lft.to/lastmile_qr_scan"}, "is_reserved": 0, "is_disabled": 0, "type": "electric_scooter", "bike_id": "2f41831b3c1d4ea664717638099515b6"}, {"lon": -77.00749316666666, "lat": 38.9073765, "name": "2a037f0534fc4d713aef500473642e84", "fusion_lat": 0.0, "fusion_lon": 0.0, "rental_uris": {"android": "https://dc.lft.to/lastmile_qr_scan", "ios": "https://dc.lft.to/lastmile_qr_scan"}, "is_reserved": 0, "is_disabled": 0, "type": "electric_scooter", "bike_id": "2a037f0534fc4d713aef500473642e84"}, {"lon": -77.03853433333333, "lat": 38.909941, "name": "729a10ef73c39e92a1349a006a402e1f", "fusion_lat": 0.0, "fusion_lon": 0.0, "rental_uris": {"android": "https://dc.lft.to/lastmile_qr_scan", "ios": "https://dc.lft.to/lastmile_qr_scan"}, "is_reserved": 0, "is_disabled": 0, "type": "electric_scooter", "bike_id": "729a10ef73c39e92a1349a006a402e1f"}, {"lon": -77.06167916666666, "lat": 38.943175333333336, "name": "8f9977cf2bd532bfa758eacbe0742a7c", "fusion_lat": 0.0, "fusion_lon": 0.0, "rental_uris": {"android": "https://dc.lft.to/lastmile_qr_scan", "ios": "https://dc.lft.to/lastmile_qr_scan"}, "is_reserved": 0, "is_disabled": 0, "type": "electric_scooter", "bike_id": "8f9977cf2bd532bfa758eacbe0742a7c"}, {"lon": -77.0726845, "lat": 38.934777833333335, "name": "9f368652b32f4f148861e043e7048ff2", "fusion_lat": 0.0, "fusion_lon": 0.0, "rental_uris": {"android": "https://dc.lft.to/lastmile_qr_scan", "ios": "https://dc.lft.to/lastmile_qr_scan"}, "is_reserved": 0, "is_disabled": 0, "type": "electric_scooter", "bike_id": "9f368652b32f4f148861e043e7048ff2"}, {"lon": -77.02592916666667, "lat": 38.903576666666666, "name": "b3627eb80144b5c06f6146abcd2acf7b", "fusion_lat": 0.0, "fusion_lon": 0.0, "rental_uris": {"android": "https://dc.lft.to/lastmile_qr_scan", "ios": "https://dc.lft.to/lastmile_qr_scan"}, "is_reserved": 0, "is_disabled": 0, "type": "electric_scooter", "bike_id": "b3627eb80144b5c06f6146abcd2acf7b"}, {"lon": -77.02400866666666, "lat": 38.93369033333333, "name": "00ce1cf2a370dd9b35e1ab240cee73ad", "fusion_lat": 0.0, "fusion_lon": 0.0, "rental_uris": {"android": "https://dc.lft.to/lastmile_qr_scan", "ios": "https://dc.lft.to/lastmile_qr_scan"}, "is_reserved": 0, "is_disabled": 0, "type": "electric_scooter", "bike_id": "00ce1cf2a370dd9b35e1ab240cee73ad"}, {"lon": -77.02238783333334, "lat": 38.89970916666667, "name": "18afc08cfa3e014e6aefbc6e9624e039", "fusion_lat": 0.0, "fusion_lon": 0.0, "rental_uris": {"android": "https://dc.lft.to/lastmile_qr_scan", "ios": "https://dc.lft.to/lastmile_qr_scan"}, "is_reserved": 0, "is_disabled": 0, "type": "electric_scooter", "bike_id": "18afc08cfa3e014e6aefbc6e9624e039"}, {"lon": -76.98677833333333, "lat": 38.88211966666667, "name": "1f3cbc7eb4dfd72c5f6ff04be34e36a9", "fusion_lat": 0.0, "fusion_lon": 0.0, "rental_uris": {"android": "https://dc.lft.to/lastmile_qr_scan", "ios": "https://dc.lft.to/lastmile_qr_scan"}, "is_reserved": 0, "is_disabled": 0, "type": "electric_scooter", "bike_id": "1f3cbc7eb4dfd72c5f6ff04be34e36a9"}, {"lon": -77.04492266666666, "lat": 38.9195425, "name": "ce7578d2b3c71bd154fcf1f068e2b005", "fusion_lat": 0.0, "fusion_lon": 0.0, "rental_uris": {"android": "https://dc.lft.to/lastmile_qr_scan", "ios": "https://dc.lft.to/lastmile_qr_scan"}, "is_reserved": 0, "is_disabled": 0, "type": "electric_scooter", "bike_id": "ce7578d2b3c71bd154fcf1f068e2b005"}, {"lon": -77.00866066666667, "lat": 38.82730816666667, "name": "d57d2c8a88442319f31ff80e6a4666ea", "fusion_lat": 0.0, "fusion_lon": 0.0, "rental_uris": {"android": "https://dc.lft.to/lastmile_qr_scan", "ios": "https://dc.lft.to/lastmile_qr_scan"}, "is_reserved": 0, "is_disabled": 0, "type": "electric_bike", "bike_id": "d57d2c8a88442319f31ff80e6a4666ea"}, {"lon": -76.98555216666666, "lat": 38.8559355, "name": "e58053933a6fc79090f7b68fcc1cd053", "fusion_lat": 0.0, "fusion_lon": 0.0, "rental_uris": {"android": "https://dc.lft.to/lastmile_qr_scan", "ios": "https://dc.lft.to/lastmile_qr_scan"}, "is_reserved": 0, "is_disabled": 0, "type": "electric_scooter", "bike_id": "e58053933a6fc79090f7b68fcc1cd053"}, {"lon": -77.02721616666666, "lat": 38.906753, "name": "70a978574c6fed1af9267c3a19a5f957", "fusion_lat": 0.0, "fusion_lon": 0.0, "rental_uris": {"android": "https://dc.lft.to/lastmile_qr_scan", "ios": "https://dc.lft.to/lastmile_qr_scan"}, "is_reserved": 0, "is_disabled": 0, "type": "electric_scooter", "bike_id": "70a978574c6fed1af9267c3a19a5f957"}, {"lon": -77.04901566666666, "lat": 38.90534383333333, "name": "f8b74d2d3daaaf2ac146e28722c71072", "fusion_lat": 0.0, "fusion_lon": 0.0, "rental_uris": {"android": "https://dc.lft.to/lastmile_qr_scan", "ios": "https://dc.lft.to/lastmile_qr_scan"}, "is_reserved": 0, "is_disabled": 0, "type": "electric_scooter", "bike_id": "f8b74d2d3daaaf2ac146e28722c71072"},