{"data": {"bikes": [{"name": "ce5da69b06c976fc885fe172e4e2ee7c", "lon": -76.99480433333333, "lat": 38.90299316666667, "type": "electric_scooter", "fusion_lon": 0.0, "is_reserved": 0, "bike_id": "ce5da69b06c976fc885fe172e4e2ee7c", "fusion_lat": 0.0, "is_disabled": 0, "rental_uris": {"ios": "https://dc.lft.to/lastmile_qr_scan", "android": "https://dc.lft.to/lastmile_qr_scan"}}, {"name": "5a9a8d936792cf3ed0aa53ee7521af39", "lon": -77.0415525, "lat": 38.919560833333335, "type": "electric_scooter", "fusion_lon": 0.0, "is_reserved": 0, "bike_id": "5a9a8d936792cf3ed0aa53ee7521af39", "fusion_lat": 0.0, "is_disabled": 0, "rental_uris": {"ios": "https://dc.lft.to/lastmile_qr_scan", "android": "https://dc.lft.to/lastmile_qr_scan"}}, {"name": "c4b0931e0728a971d3897cfe4234d9a5", "lon": -76.98499633333333, "lat": 38.866702, "type": "electric_scooter", "fusion_lon": 0.0, "is_reserved": 0, "bike_id": "c4b0931e0728a971d3897cfe4234d9a5", "fusion_lat": 0.0, "is_disabled": 0, "rental_uris": {"ios": "https://dc.lft.to/lastmile_qr_scan", "android": "https://dc.lft.to/lastmile_qr_scan"}}, {"name": "b93746cec670e8d9a5a5bd4984992d35", "lon": -77.04906883333334, "lat": 38.88839316666667, "type": "electric_scooter", "fusion_lon": 0.0, "is_reserved": 0, "bike_id": "b93746cec670e8d9a5a5bd4984992d35", "fusion_lat": 0.0, "is_disabled": 0, "rental_uris": {"ios": "https://dc.lft.to/lastmile_qr_scan", "android": "https://dc.lft.to/lastmile_qr_scan"}}, {"name": "c043497ea6eb95bfc179566b844622ee", "lon": -77.0223345, "lat": 38.9022565, "type": "electric_scooter", "fusion_lon": 0.0, "is_reserved": 0, "bike_id": "c043497ea6eb95bfc179566b844622ee", "fusion_lat": 0.0, "is_disabled": 0, "rental_uris": {"ios": "https://dc.lft.to/lastmile_qr_scan", "android": "https://dc.lft.to/lastmile_qr_scan"}}, {"name": "84cedc162d96463f2ce481bdcfc6ca1e", "lon": -77.04477266666666, "lat": 38.91864483333333, "type": "electric_scooter", "fusion_lon": 0.0, "is_reserved": 0, "bike_id": "84cedc162d96463f2ce481bdcfc6ca1e", "fusion_lat": 0.0, "is_disabled": 0, "rental_uris": {"ios": "https://dc.lft.to/lastmile_qr_scan", "android": "https://dc.lft.to/lastmile_qr_scan"}}, {"name": "7b71f6009c221187d8da2f1f63993195", "lon": -77.04924333333334, "lat": 38.889145666666664, "type": "electric_bike", "fusion_lon": 0.0, "is_reserved": 0, "bike_id": "7b71f6009c221187d8da2f1f63993195", "fusion_lat": 0.0, "is_disabled": 0, "rental_uris": {"ios": "https://dc.lft.to/lastmile_qr_scan", "android": "https://dc.lft.to/lastmile_qr_scan"}}, {"name": "11a2eef821c12dc8a4b7fafc911cbdac", "lon": -77.044994, "lat": 38.9001205, "type": "electric_scooter", "fusion_lon": 0.0, "is_reserved": 0, "bike_id": "11a2eef821c12dc8a4b7fafc911cbdac", "fusion_lat": 0.0, "is_disabled": 0, "rental_uris": {"ios": "https://dc.lft.to/lastmile_qr_scan", "android": "https://dc.lft.to/lastmile_qr_scan"}}, {"name": "6754eb59e37b92b0b7a72bf3744e2819", "lon": -77.019086, "lat": 38.90249033333333, "type": "electric_scooter", "fusion_lon": 0.0, "is_reserved": 0, "bike_id": "6754eb59e37b92b0b7a72bf3744e2819", "fusion_lat": 0.0, "is_disabled": 0, "rental_uris": {"ios": "https://dc.lft.to/lastmile_qr_scan", "android": "https://dc.lft.to/lastmile_qr_scan"}}, {"name": "285f2659328ce56315ee31a6740f5930", "lon": -77.05132883333333, "lat": 38.905410833333335, "type": "electric_scooter", "fusion_lon": 0.0, "is_reserved": 0, "bike_id": "285f2659328ce56315ee31a6740f5930", "fusion_lat": 0.0, "is_disabled": 0, "rental_uris": {"ios": "https://dc.lft.to/lastmile_qr_scan", "android": "https://dc.lft.to/lastmile_qr_scan"}}, {"name": "15e82f3013fd501b2e7b1e8490b2d81d", "lon": -76.93194283333334, "lat": 38.8987895, "type": "electric_scooter", "fusion_lon": 0.0, "is_reserved": 0, "bike_id": "15e82f3013fd501b2e7b1e8490b2d81d", "fusion_lat": 0.0, "is_disabled": 0, "rental_uris": {"ios": "https://dc.lft.to/lastmile_qr_scan", "android": "https://dc.lft.to/lastmile_qr_scan"}}, {"name": "526c27f7e4053094550fbace71f683ca", "lon": -77.041771, "lat": 38.89974983333333, "type": "electric_scooter", "fusion_lon": 0.0, "is_reserved": 0, "bike_id": "526c27f7e4053094550fbace71f683ca", "fusion_lat": 0.0, "is_disabled": 0, "rental_uris": {"ios": "https://dc.lft.to/lastmile_qr_scan", "android": "https://dc.lft.to/lastmile_qr_scan"}}, {"name": "bcf4f2b9505518edb65d4e12e1b60834", "lon": -77.044802, "lat": 38.92248716666667, "type": "electric_scooter", "fusion_lon": 0.0, "is_reserved": 0, "bike_id": "bcf4f2b9505518edb65d4e12e1b60834", "fusion_lat": 0.0, "is_disabled": 0, "rental_uris": {"ios": "https://dc.lft.to/lastmile_qr_scan", "android": "https://dc.lft.to/lastmile_qr_scan"}}, {"name": "876d0ff865329afcb1c6f1b01c9c9c39", "lon": -76.93542266666667, "lat": 38.95562316666667, "type": "electric_bike", "fusion_lon": 0.0, "is_reserved": 0, "bike_id": "876d0ff865329afcb1c6f1b01c9c9c39", "fusion_lat": 0.0, "is_disabled": 0, "rental_uris": {"ios": "https://dc.lft.to/lastmile_qr_scan", "android": "https://dc.lft.to/lastmile_qr_scan"}}, {"name": "29a9d7dd05c32b3a5a0dd20cf34cbf3f", "lon": -77.03088716666667, "lat": 38.922441, "type": "electric_scooter", "fusion_lon": 0.0, "is_reserved": 0, "bike_id": "29a9d7dd05c32b3a5a0dd20cf34cbf3f", "fusion_lat": 0.0, "is_disabled": 0, "rental_uris": {"ios": "https://dc.lft.to/lastmile_qr_scan", "android": "https://dc.lft.to/lastmile_qr_scan"}}, {"name": "5a12ec1cdf4267cc9a9fb80d800bfa67", "lon": -77.03675566666666, "lat": 38.90838516666667, "type": "electric_scooter", "fusion_lon": 0.0, "is_reserved": 0, "bike_id": "5a12ec1cdf4267cc9a9fb80d800bfa67", "fusion_lat": 0.0, "is_disabled": 0, "rental_uris": {"ios": "https://dc.lft.to/lastmile_qr_scan", "android": "https://dc.lft.to/lastmile_qr_scan"}}, {"name": "701b49931c2abbd7f22897af0182deab", "lon": -77.04182883333333, "lat": 38.916706833333336, "type": "electric_scooter", "fusion_lon": 0.0, "is_reserved": 0, "bike_id": "701b49931c2abbd7f22897af0182deab", "fusion_lat": 0.0, "is_disabled": 0, "rental_uris": {"ios": "https://dc.lft.to/lastmile_qr_scan", "android": "https://dc.lft.to/lastmile_qr_scan"}}, {"name": "4a4d526ca9210cd9540ff41f17dfaedd", "lon": -77.04998716666667, "lat": 38.8923325, "type": "electric_scooter", "fusion_lon": 0.0, "is_reserved": 0, "bike_id": "4a4d526ca9210cd9540ff41f17dfaedd", "fusion_lat": 0.0, "is_disabled": 0, "rental_uris": {"ios": "https://dc.lft.to/lastmile_qr_scan", "android": "https://dc.lft.to/lastmile_qr_scan"}}, {"name": "9065975a3903745b7d791f45220ec80f", "lon": -77.05121966666667, "lat": 38.92348, "type": "electric_scooter", "fusion_lon": 0.0, "is_reserved": 0, "bike_id": "9065975a3903745b7d791f45220ec80f", "fusion_lat": 0.0, "is_disabled": 0, "rental_uris": {"ios": "https://dc.lft.to/lastmile_qr_scan", "android": "https://dc.lft.to/lastmile_qr_scan"}}, {"name": "5276975a884ecc364d32c1a8c7709904", "lon": -76.977066, "lat": 38.9025725, "type": "electric_scooter", "fusion_lon": 0.0, "is_reserved": 0, "bike_id": "5276975a884ecc364d32c1a8c7709904", "fusion_lat": 0.0, "is_disabled": 0, "rental_uris": {"ios": "https://dc.lft.to/lastmile_qr_scan", "android": "https://dc.lft.to/lastmile_qr_scan"}}, {"name": "d256935d7fae7edf529a957837683ce1", "lon": -77.036664, "lat": 38.9272605, "type": "electric_scooter", "fusion_lon": 0.0, "is_reserved": 0, "bike_id": "d256935d7fae7edf529a957837683ce1", "fusion_lat": 0.0, "is_disabled": 0, "rental_uris": {"ios": "https://dc.lft.to/lastmile_qr_scan", "android": "https://dc.lft.to/lastmile_qr_scan"}}, {"name": "de22800b5bab11605c6337592fb012bb", "lon": -77.03264033333333, "lat": 38.9353995, "type": "electric_scooter", "fusion_lon": 0.0, "is_reserved": 0, "bike_id": "de22800b5bab11605c6337592fb012bb", "fusion_lat": 0.0, "is_disabled": 0, "rental_uris": {"ios": "https://dc.lft.to/lastmile_qr_scan", "android": "https://dc.lft.to/lastmile_qr_scan"}}, {"name": "de1c73c0a680701307612db37b6fbaa1", "lon": -77.04898916666667, "lat": 38.900795333333335, "type": "electric_scooter", "fusion_lon": 0.0, "is_reserved": 0, "bike_id": "de1c73c0a680701307612db37b6fbaa1", "fusion_lat": 0.0, "is_disabled": 0, "rental_uris": {"ios": "https://dc.lft.to/lastmile_qr_scan", "android": "https://dc.lft.to/lastmile_qr_scan"}}, {"name": "29ea693a9dac8b83e373f3c21b2a0c91", "lon": -77.00868216666667, "lat": 38.88172483333334, "type": "electric_scooter", "fusion_lon": 0.0, "is_reserved": 0, "bike_id": "29ea693a9dac8b83e373f3c21b2a0c91", "fusion_lat": 0.0, "is_disabled": 0, "rental_uris": {"ios": "https://dc.lft.to/lastmile_qr_scan", "android": "https://dc.lft.to/lastmile_qr_scan"}}, {"name": "1b2faf30b0b655255e441f35c6d6ca08", "lon": -77.0338485, "lat": 38.93213566666667, "type": "electric_scooter", "fusion_lon": 0.0, "is_reserved": 0, "bike_id": "1b2faf30b0b655255e441f35c6d6ca08", "fusion_lat": 0.0, "is_disabled": 0, "rental_uris": {"ios": "https://dc.lft.to/lastmile_qr_scan", "android": "https://dc.lft.to/lastmile_qr_scan"}}, {"name": "c0bad012274b8a444c8cf531237b0861", "lon": -77.0432185, "lat": 38.90895366666667, "type": "electric_scooter", "fusion_lon": 0.0, "is_reserved": 0, "bike_id": "c0bad012274b8a444c8cf531237b0861", "fusion_lat": 0.0, "is_disabled": 0, "rental_uris": {"ios": "https://dc.lft.to/lastmile_qr_scan", "android": "https://dc.lft.to/lastmile_qr_scan"}}, {"name": "7267d804ffdb9612119a63113ddfdc72", "lon": -77.02684216666667, "lat": 38.8961495, "type": "electric_scooter", "fusion_lon": 0.0, "is_reserved": 0, "bike_id": "7267d804ffdb9612119a63113ddfdc72", "fusion_lat": 0.0, "is_disabled": 0, "rental_uris": {"ios": "https://dc.lft.to/lastmile_qr_scan", "android": "https://dc.lft.to/lastmile_qr_scan"}}, {"name": "23254b9aabb155a4e1e7d1e51a37a11a", "lon": -76.9853575, "lat": 38.866527, "type": "electric_scooter", "fusion_lon": 0.0, "is_reserved": 0, "bike_id": "23254b9aabb155a4e1e7d1e51a37a11a", "fusion_lat": 0.0, "is_disabled": 0, "rental_uris": {"ios": "https://dc.lft.to/lastmile_qr_scan", "android": "https://dc.lft.to/lastmile_qr_scan"}}, {"name": "e1cf5dc821896a0ba9f9a36a12dc90ab", "lon": -77.027239, "lat": 38.9496155, "type": "electric_scooter", "fusion_lon": 0.0, "is_reserved": 0, "bike_id": "e1cf5dc821896a0ba9f9a36a12dc90ab", "fusion_lat": 0.0, "is_disabled": 0, "rental_uris": {"ios": "https://dc.lft.to/lastmile_qr_scan", "android": "https://dc.lft.to/lastmile_qr_scan"}}, {"name": "5a43ad4d100137555cd9d4640a91febd", "lon": -77.0267145, "lat": 38.897263333333335, "type": "electric_scooter", "fusion_lon": 0.0, "is_reserved": 0, "bike_id": "5a43ad4d100137555cd9d4640a91febd", "fusion_lat": 0.0, "is_disabled": 0, "rental_uris": {"ios": "https://dc.lft.to/lastmile_qr_scan", "android": "https://dc.lft.to/lastmile_qr_scan"}}, {"name": "e193c5f4edbcaa147d163c97d62da0e9", "lon": -77.0213035, "lat": 38.89949416666666, "type": "electric_scooter", "fusion_lon": 0.0, "is_reserved": 0, "bike_id": "e193c5f4edbcaa147d163c97d62da0e9", "fusion_lat": 0.0, "is_disabled": 0, "rental_uris": {"ios": "https://dc.lft.to/lastmile_qr_scan", "android": "https://dc.lft.to/lastmile_qr_scan"}}, {"name": "72c8cf522ad8becd628e926b1a17d3fd", "lon": -77.02202766666667, "lat": 38.91618483333333, "type": "electric_scooter", "fusion_lon": 0.0, "is_reserved": 0, "bike_id": "72c8cf522ad8becd628e926b1a17d3fd", "fusion_lat": 0.0, "is_disabled": 0, "rental_uris": {"ios": "https://dc.lft.to/lastmile_qr_scan", "android": "https://dc.lft.to/lastmile_qr_scan"}}, {"name": "e2aa27a2c62ff711332d4097542d48b1", "lon": -77.04854983333334, "lat": 38.906454833333335, "type": "electric_scooter", "fusion_lon": 0.0, "is_reserved": 0, "bike_id": "e2aa27a2c62ff711332d4097542d48b1", "fusion_lat": 0.0, "is_disabled": 0, "rental_uris": {"ios": "https://dc.lft.to/lastmile_qr_scan", "android": "https://dc.lft.to/lastmile_qr_scan"}}, {"name": "b29f34e6afd463b35483941d56635359", "lon": -77.04854066666667, "lat": 38.90642283333333, "type": "electric_scooter", "fusion_lon": 0.0, "is_reserved": 0, "bike_id": "b29f34e6afd463b35483941d56635359", "fusion_lat": 0.0, "is_disabled": 0, "rental_uris": {"ios": "https://dc.lft.to/lastmile_qr_scan", "android": "https://dc.lft.to/lastmile_qr_scan"}}, {"name": "4dc97ce081c53cdd5611ff71fe77c633", "lon": -77.03522183333334, "lat": 38.936007333333336, "type": "electric_scooter", "fusion_lon": 0.0, "is_reserved": 0, "bike_id": "4dc97ce081c53cdd5611ff71fe77c633", "fusion_lat": 0.0, "is_disabled": 0, "rental_uris": {"ios": "https://dc.lft.to/lastmile_qr_scan", "android": "https://dc.lft.to/lastmile_qr_scan"}}, {"name": "ca116f2e8623b46bb2a3541663ef2901", "lon": -77.04440866666667, "lat": 38.90562416666667, "type": "electric_scooter", "fusion_lon": 0.0, "is_reserved": 0, "bike_id": "ca116f2e8623b46bb2a3541663ef2901", "fusion_lat": 0.0, "is_disabled": 0, "rental_uris": {"ios": "https://dc.lft.to/lastmile_qr_scan", "android": "https://dc.lft.to/lastmile_qr_scan"}}, {"name": "2426143f846ac9cb36913e9e0628c1ef", "lon": -77.04326166666667, "lat": 38.8922335, "type": "electric_scooter", "fusion_lon": 0.0, "is_reserved": 0, "bike_id": "2426143f846ac9cb36913e9e0628c1ef", "fusion_lat": 0.0, "is_disabled": 0, "rental_uris": {"ios": "https://dc.lft.to/lastmile_qr_scan", "android": "https://dc.lft.to/lastmile_qr_scan"}}, {"name": "02401ad9083e8ec3a245145600ed6e78", "lon": -77.002063, "lat": 38.924561833333335, "type": "electric_scooter", "fusion_lon": 0.0, "is_reserved": 0, "bike_id": "02401ad9083e8ec3a245145600ed6e78", "fusion_lat": 0.0, "is_disabled": 0, "rental_uris": {"ios": "https://dc.lft.to/lastmile_qr_scan", "android": "https://dc.lft.to/lastmile_qr_scan"}}, {"name": "95777f5f24c1ec063126b0ec85566212", "lon": -77.023584, "lat": 38.92066616666666, "type": "electric_scooter", "fusion_lon": 0.0, "is_reserved": 0, "bike_id": "95777f5f24c1ec063126b0ec85566212", "fusion_lat": 0.0, "is_disabled": 0, "rental_uris": {"ios": "https://dc.lft.to/lastmile_qr_scan", "android": "https://dc.lft.to/lastmile_qr_scan"}}, {"name": "df16f043b2d0fc5b518eca684ea8e515", "lon": -76.9759265, "lat": 38.88415916666667, "type": "electric_scooter", "fusion_lon": 0.0, "is_reserved": 0, "bike_id": "df16f043b2d0fc5b518eca684ea8e515", "fusion_lat": 0.0, "is_disabled": 0, "rental_uris": {"ios": "https://dc.lft.to/lastmile_qr_scan", "android": "https://dc.lft.to/lastmile_qr_scan"}}, {"name": "b5979c3407bdd91f9e897ae0f571b9a2", "lon": -77.00588566666667, "lat": 38.8857785, "type": "electric_scooter", "fusion_lon": 0.0, "is_reserved": 0, "bike_id": "b5979c3407bdd91f9e897ae0f571b9a2", "fusion_lat": 0.0, "is_disabled": 0, "rental_uris": {"ios": "https://dc.lft.to/lastmile_qr_scan", "android": "https://dc.lft.to/lastmile_qr_scan"}}, {"name": "7ce03613dc6fdeb184c2501bff877a25", "lon": -77.04767216666667, "lat": 38.91770116666667, "type": "electric_scooter", "fusion_lon": 0.0, "is_reserved": 0, "bike_id": "7ce03613dc6fdeb184c2501bff877a25", "fusion_lat": 0.0, "is_disabled": 0, "rental_uris": {"ios": "https://dc.lft.to/lastmile_qr_scan", "android": "https://dc.lft.to/lastmile_qr_scan"}}, {"name": "918b0fa4daae0d5ff6e2cf3315a6f3d6", "lon": -77.043707, "lat": 38.898472166666664, "type": "electric_scooter", "fusion_lon": 0.0, "is_reserved": 0, "bike_id": "918b0fa4daae0d5ff6e2cf3315a6f3d6", "fusion_lat": 0.0, "is_disabled": 0, "rental_uris": {"ios": "https://dc.lft.to/lastmile_qr_scan", "android": "https://dc.lft.to/lastmile_qr_scan"}}, {"name": "b42eb728e6eb946595665e90eec520fe", "lon": -77.02896766666667, "lat": 38.91716516666666, "type": "electric_scooter", "fusion_lon": 0.0, "is_reserved": 0, "bike_id": "b42eb728e6eb946595665e90eec520fe", "fusion_lat": 0.0, "is_disabled": 0, "rental_uris": {"ios": "https://dc.lft.to/lastmile_qr_scan", "android": "https://dc.lft.to/lastmile_qr_scan"}}, {"name": "6f93a50556a1ca92baf37bd160bf10a0", "lon": -77.00758133333333, "lat": 38.82597233333333, "type": "electric_scooter", "fusion_lon": 0.0, "is_reserved": 0, "bike_id": "6f93a50556a1ca92baf37bd160bf10a0", "fusion_lat": 0.0, "is_disabled": 0, "rental_uris": {"ios": "https://dc.lft.to/lastmile_qr_scan", "android": "https://dc.lft.to/lastmile_qr_scan"}}, {"name": "06e9d03d485313528cc68dc9be3a472f", "lon": -77.02600466666667, "lat": 38.91840366666667, "type": "electric_scooter", "fusion_lon": 0.0, "is_reserved": 0, "bike_id": "06e9d03d485313528cc68dc9be3a472f", "fusion_lat": 0.0, "is_disabled": 0, "rental_uris": {"ios": "https://dc.lft.to/lastmile_qr_scan", "android": "https://dc.lft.to/lastmile_qr_scan"}}, {"name": "43086f5cd7b3c3d3fb5849cd5a0396a0", "lon": -77.12485683333334, "lat": 38.8539615, "type": "electric_bike", "fusion_lon": 0.0, "is_reserved": 0, "bike_id": "43086f5cd7b3c3d3fb5849cd5a0396a0", "fusion_lat": 0.0, "is_disabled": 0, "rental_uris": {"ios": "https://dc.lft.to/lastmile_qr_scan", "android": "https://dc.lft.to/lastmile_qr_scan"}}, {"name": "e110bb7de95202279d18b632356e6d5c", "lon": -77.07428933333334, "lat": 38.999504, "type": "electric_bike", "fusion_lon": 0.0, "is_reserved": 0, "bike_id": "e110bb7de95202279d18b632356e6d5c", "fusion_lat": 0.0, "is_disabled": 0, "rental_uris": {"ios": "https://dc.lft.to/lastmile_qr_scan", "android": "https://dc.lft.to/lastmile_qr_scan"}}, {"name": "7061fb2e57a0dba6d8fae243333a5162", "lon": -77.02386433333334, "lat": 38.934272, "type": "electric_scooter", "fusion_lon": 0.0, "is_reserved": 0, "bike_id": "7061fb2e57a0dba6d8fae243333a5162", "fusion_lat": 0.0, "is_disabled": 0, "rental_uris": {"ios": "https://dc.lft.to/lastmile_qr_scan", "android": "https://dc.lft.to/lastmile_qr_scan"}}, {"name": "234b1e683004b7273956e1d997a6c6de", "lon": -76.97535116666667, "lat": 38.84014366666667, "type": "electric_bike", "fusion_lon": 0.0, "is_reserved": 0, "bike_id": "234b1e683004b7273956e1d997a6c6de", "fusion_lat": 0.0, "is_disabled": 0, "rental_uris": {"ios": "https://dc.lft.to/lastmile_qr_scan", "android": "https://dc.lft.to/lastmile_qr_scan"}}, {"name": "806c682dc38d353e8c98d06d10543d99", "lon": -77.04000216666667, "lat": 38.90333066666667, "type": "electric_scooter", "fusion_lon": 0.0, "is_reserved": 0, "bike_id": "806c682dc38d353e8c98d06d10543d99", "fusion_lat": 0.0, "is_disabled": 0, "rental_uris": {"ios": "https://dc.lft.to/lastmile_qr_scan", "android": "https://dc.lft.to/lastmile_qr_scan"}}, {"name": "ea34ea863be45a3f5cba710cd94cc78d", "lon": -77.033732, "lat": 38.90380316666667, "type": "electric_scooter", "fusion_lon": 0.0, "is_reserved": 0, "bike_id": "ea34ea863be45a3f5cba710cd94cc78d", "fusion_lat": 0.0, "is_disabled": 0, "rental_uris": {"ios": "https://dc.lft.to/lastmile_qr_scan", "android": "https://dc.lft.to/lastmile_qr_scan"}}, {"name": "d6c75f869da569ad055e81031da7c0bd", "lon": -77.03690066666667, "lat": 38.930633666666665, "type": "electric_scooter", "fusion_lon": 0.0, "is_reserved": 0, "bike_id": "d6c75f869da569ad055e81031da7c0bd", "fusion_lat": 0.0, "is_disabled": 0, "rental_uris": {"ios": "https://dc.lft.to/lastmile_qr_scan", "android": "https://dc.lft.to/lastmile_qr_scan"}}, {"name": "e676e6bc225641af70c7942a58a7317d", "lon": -77.03040883333334, "lat": 38.91330416666667, "type": "electric_scooter", "fusion_lon": 0.0, "is_reserved": 0, "bike_id": "e676e6bc225641af70c7942a58a7317d", "fusion_lat": 0.0, "is_disabled": 0, "rental_uris": {"ios": "https://dc.lft.to/lastmile_qr_scan", "android": "https://dc.lft.to/lastmile_qr_scan"}}, {"name": "448a3bbd2e72a81547b815d5467bd955", "lon": -77.0208085, "lat": 38.91123233333333, "type": "electric_scooter", "fusion_lon": 0.0, "is_reserved": 0, "bike_id": "448a3bbd2e72a81547b815d5467bd955", "fusion_lat": 0.0, "is_disabled": 0, "rental_uris": {"ios": "https://dc.lft.to/lastmile_qr_scan", "android": "https://dc.lft.to/lastmile_qr_scan"}}, {"name": "a83bc9742323552a4ba6aa7374f56910", "lon": -77.0269405, "lat": 38.908919, "type": "electric_scooter", "fusion_lon": 0.0, "is_reserved": 0, "bike_id": "a83bc9742323552a4ba6aa7374f56910", "fusion_lat": 0.0, "is_disabled": 0, "rental_uris": {"ios": "https://dc.lft.to/lastmile_qr_scan", "android": "https://dc.lft.to/lastmile_qr_scan"}}, {"name": "d37f6d112651b40661a2428d3b29abfa", "lon": -77.02575016666667, "lat": 38.9160275, "type": "electric_scooter", "fusion_lon": 0.0, "is_reserved": 0, "bike_id": "d37f6d112651b40661a2428d3b29abfa", "fusion_lat": 0.0, "is_disabled": 0, "rental_uris": {"ios": "https://dc.lft.to/lastmile_qr_scan", "android": "https://dc.lft.to/lastmile_qr_scan"}}, {"name": "1ed604c43b8d1a0fde6c358bd6cd013c", "lon": -76.98470166666667, "lat": 38.910924, "type": "electric_bike", "fusion_lon": 0.0, "is_reserved": 0, "bike_id": "1ed604c43b8d1a0fde6c358bd6cd013c", "fusion_lat": 0.0, "is_disabled": 0, "rental_uris": {"ios": "https://dc.lft.to/lastmile_qr_scan", "android": "https://dc.lft.to/lastmile_qr_scan"}}, {"name": "653089fc618a870dbac29b0b8532b561", "lon": -76.98608383333334, "lat": 38.906174166666666, "type": "electric_bike", "fusion_lon": 0.0, "is_reserved": 0, "bike_id": "653089fc618a870dbac29b0b8532b561", "fusion_lat": 0.0, "is_disabled": 0, "rental_uris": {"ios": "https://dc.lft.to/lastmile_qr_scan", "android": "https://dc.lft.to/lastmile_qr_scan"}}, {"name": "99c0a051cb27ca9dcf9c8165bd1666e3", "lon": -76.99836016666667, "lat": 38.890888333333336, "type": "electric_scooter", "fusion_lon": 0.0, "is_reserved": 0, "bike_id": "99c0a051cb27ca9dcf9c8165bd1666e3", "fusion_lat": 0.0, "is_disabled": 0, "rental_uris": {"ios": "https://dc.lft.to/lastmile_qr_scan", "android": "https://dc.lft.to/lastmile_qr_scan"}}, {"name": "053262900bdba8b7a944ed1c3f028a04", "lon": -77.03222916666667, "lat": 38.917231, "type": "electric_scooter", "fusion_lon": 0.0, "is_reserved": 0, "bike_id": "053262900bdba8b7a944ed1c3f028a04", "fusion_lat": 0.0, "is_disabled": 0, "rental_uris": {"ios": "https://dc.lft.to/lastmile_qr_scan", "android": "https://dc.lft.to/lastmile_qr_scan"}}, {"name": "b403a607d9d4bb8434fabfbc2f99051f", "lon": -77.0277255, "lat": 38.93963183333334, "type": "electric_scooter", "fusion_lon": 0.0, "is_reserved": 0, "bike_id": "b403a607d9d4bb8434fabfbc2f99051f", "fusion_lat": 0.0, "is_disabled": 0, "rental_uris": {"ios": "https://dc.lft.to/lastmile_qr_scan", "android": "https://dc.lft.to/lastmile_qr_scan"}}, {"name": "d1112bec236ceb6cfe2ebfe1305bbb56", "lon": -77.023349, "lat": 38.92612366666667, "type": "electric_scooter", "fusion_lon": 0.0, "is_reserved": 0, "bike_id": "d1112bec236ceb6cfe2ebfe1305bbb56", "fusion_lat": 0.0, "is_disabled": 0, "rental_uris": {"ios": "https://dc.lft.to/lastmile_qr_scan", "android": "https://dc.lft.to/lastmile_qr_scan"}}, {"name": "6065a7e8cc002f73af5477e10b7b2a31", "lon": -77.04270266666667, "lat": 38.905624833333334, "type": "electric_scooter", "fusion_lon": 0.0, "is_reserved": 0, "bike_id": "6065a7e8cc002f73af5477e10b7b2a31", "fusion_lat": 0.0, "is_disabled": 0, "rental_uris": {"ios": "https://dc.lft.to/lastmile_qr_scan", "android": "https://dc.lft.to/lastmile_qr_scan"}}, {"name": "16ed409391050fa3f4db6447912a84db", "lon": -77.07942616666666, "lat": 38.947643666666664, "type": "electric_scooter", "fusion_lon": 0.0, "is_reserved": 0, "bike_id": "16ed409391050fa3f4db6447912a84db", "fusion_lat": 0.0, "is_disabled": 0, "rental_uris": {"ios": "https://dc.lft.to/lastmile_qr_scan", "android": "https://dc.lft.to/lastmile_qr_scan"}}, {"name": "dee9135bc3b8627d948d5284cbd502bf", "lon": -77.0462215, "lat": 38.9193245, "type": "electric_scooter", "fusion_lon": 0.0, "is_reserved": 0, "bike_id": "dee9135bc3b8627d948d5284cbd502bf", "fusion_lat": 0.0, "is_disabled": 0, "rental_uris": {"ios": "https://dc.lft.to/lastmile_qr_scan", "android": "https://dc.lft.to/lastmile_qr_scan"}}, {"name": "9e4d27d27d4dc5d355e7aec57f32f532", "lon": -76.9883865, "lat": 38.90199283333333, "type": "electric_scooter", "fusion_lon": 0.0, "is_reserved": 0, "bike_id": "9e4d27d27d4dc5d355e7aec57f32f532", "fusion_lat": 0.0, "is_disabled": 0, "rental_uris": {"ios": "https://dc.lft.to/lastmile_qr_scan", "android": "https://dc.lft.to/lastmile_qr_scan"}}, {"name": "62c58d009627016fdf543a808cce2481", "lon": -77.02635583333333, "lat": 38.881114833333335, "type": "electric_scooter", "fusion_lon": 0.0, "is_reserved": 0, "bike_id": "62c58d009627016fdf543a808cce2481", "fusion_lat": 0.0, "is_disabled": 0, "rental_uris": {"ios": "https://dc.lft.to/lastmile_qr_scan", "android": "https://dc.lft.to/lastmile_qr_scan"}}, {"name": "f23b82f6779e81b9448cff0309854035", "lon": -77.04352233333333, "lat": 38.921578333333336, "type": "electric_scooter", "fusion_lon": 0.0, "is_reserved": 0, "bike_id": "f23b82f6779e81b9448cff0309854035", "fusion_lat": 0.0, "is_disabled": 0, "rental_uris": {"ios": "https://dc.lft.to/lastmile_qr_scan", "android": "https://dc.lft.to/lastmile_qr_scan"}}, {"name": "11974de873825574dfce5d5e1c294b5b", "lon": -77.05019166666666, "lat": 38.9062365, "type": "electric_scooter", "fusion_lon": 0.0, "is_reserved": 0, "bike_id": "11974de873825574dfce5d5e1c294b5b", "fusion_lat": 0.0, "is_disabled": 0, "rental_uris": {"ios": "https://dc.lft.to/lastmile_qr_scan", "android": "https://dc.lft.to/lastmile_qr_scan"}}, {"name": "e456a33d631b5909c4ccb769bde00419", "lon": -77.03286583333333, "lat": 38.92054666666667, "type": "electric_scooter", "fusion_lon": 0.0, "is_reserved": 0, "bike_id": "e456a33d631b5909c4ccb769bde00419", "fusion_lat": 0.0, "is_disabled": 0, "rental_uris": {"ios": "https://dc.lft.to/lastmile_qr_scan", "android": "https://dc.lft.to/lastmile_qr_scan"}}, {"name": "d527cf6dc84e4be8b3837a11e227b8e3", "lon": -77.04477416666667, "lat": 38.92393966666667, "type": "electric_scooter", "fusion_lon": 0.0, "is_reserved": 0, "bike_id": "d527cf6dc84e4be8b3837a11e227b8e3", "fusion_lat": 0.0, "is_disabled": 0, "rental_uris": {"ios": "https://dc.lft.to/lastmile_qr_scan", "android": "https://dc.lft.to/lastmile_qr_scan"}}, {"name": "5ff11080070cc4a67ff2ce8639e00019", "lon": -77.00129716666666, "lat": 38.905168333333336, "type": "electric_scooter", "fusion_lon": 0.0, "is_reserved": 0, "bike_id": "5ff11080070cc4a67ff2ce8639e00019", "fusion_lat": 0.0, "is_disabled": 0, "rental_uris": {"ios": "https://dc.lft.to/lastmile_qr_scan", "android": "https://dc.lft.to/lastmile_qr_scan"}}, {"name": "30f611c311e89e2aefd0fbed5f2a7ca7", "lon": -77.01779883333333, "lat": 38.9078615, "type": "electric_scooter", "fusion_lon": 0.0, "is_reserved": 0, "bike_id": "30f611c311e89e2aefd0fbed5f2a7ca7", "fusion_lat": 0.0, "is_disabled": 0, "rental_uris": {"ios": "https://dc.lft.to/lastmile_qr_scan", "android": "https://dc.lft.to/lastmile_qr_scan"}}, {"name": "eab36052eb5f38db9a8f520adaae26f5", "lon": -77.04397266666666, "lat": 38.920607833333335, "type": "electric_scooter", "fusion_lon": 0.0, "is_reserved": 0, "bike_id": "eab36052eb5f38db9a8f520adaae26f5", "fusion_lat": 0.0, "is_disabled": 0, "rental_uris": {"ios": "https://dc.lft.to/lastmile_qr_scan", "android": "https://dc.lft.to/lastmile_qr_scan"}}, {"name": "2d7ccb5fa45b5a96b356d0ae247a74f9", "lon": -77.04325333333334, "lat": 38.9035895, "type": "electric_scooter", "fusion_lon": 0.0, "is_reserved": 0, "bike_id": "2d7ccb5fa45b5a96b356d0ae247a74f9", "fusion_lat": 0.0, "is_disabled": 0, "rental_uris": {"ios": "https://dc.lft.to/lastmile_qr_scan", "android": "https://dc.lft.to/lastmile_qr_scan"}}, {"name": "e0f72f90728b39e15184bfec32310271", "lon": -77.08189083333333, "lat": 38.85567833333333, "type": "electric_bike", "fusion_lon": 0.0, "is_reserved": 0, "bike_id": "e0f72f90728b39e15184bfec32310271", "fusion_lat": 0.0, "is_disabled": 0, "rental_uris": {"ios": "https://dc.lft.to/lastmile_qr_scan", "android": "https://dc.lft.to/lastmile_qr_scan"}}, {"name": "447e573b22114adda971f43863265914", "lon": -77.04185216666667, "lat": 38.905531333333336, "type": "electric_scooter", "fusion_lon": 0.0, "is_reserved": 0, "bike_id": "447e573b22114adda971f43863265914", "fusion_lat": 0.0, "is_disabled": 0, "rental_uris": {"ios": "https://dc.lft.to/lastmile_qr_scan", "android": "https://dc.lft.to/lastmile_qr_scan"}}, {"name": "79821299a0a4874f6249e44403d62365", "lon": -76.95184016666667, "lat": 38.907428333333336, "type": "electric_scooter", "fusion_lon": 0.0, "is_reserved": 0, "bike_id": "79821299a0a4874f6249e44403d62365", "fusion_lat": 0.0, "is_disabled": 0, "rental_uris": {"ios": "https://dc.lft.to/lastmile_qr_scan", "android": "https://dc.lft.to/lastmile_qr_scan"}}, {"name": "54fd6b763a7299d756d133dbbd65a780", "lon": -76.98978333333334, "lat": 38.8651505, "type": "electric_scooter", "fusion_lon": 0.0, "is_reserved": 0, "bike_id": "54fd6b763a7299d756d133dbbd65a780", "fusion_lat": 0.0, "is_disabled": 0, "rental_uris": {"ios": "https://dc.lft.to/lastmile_qr_scan", "android": "https://dc.lft.to/lastmile_qr_scan"}}, {"name": "ebaad1b8cb64a87299d7fab72b80edef", "lon": -77.00343816666667, "lat": 38.88707683333333, "type": "electric_scooter", "fusion_lon": 0.0, "is_reserved": 0, "bike_id": "ebaad1b8cb64a87299d7fab72b80edef", "fusion_lat": 0.0, "is_disabled": 0, "rental_uris": {"ios": "https://dc.lft.to/lastmile_qr_scan", "android": "https://dc.lft.to/lastmile_qr_scan"}}, {"name": "24b08684bbe2bb4dba91bcbd7e032f74", "lon": -77.035862, "lat": 38.91276416666667, "type": "electric_scooter", "fusion_lon": 0.0, "is_reserved": 0, "bike_id": "24b08684bbe2bb4dba91bcbd7e032f74", "fusion_lat": 0.0, "is_disabled": 0, "rental_uris": {"ios": "https://dc.lft.to/lastmile_qr_scan", "android": "https://dc.lft.to/lastmile_qr_scan"}}, {"name": "beebe5557e8547666aa90c9d2ec0295a", "lon": -77.00533416666667, "lat": 38.87546916666667, "type": "electric_scooter", "fusion_lon": 0.0, "is_reserved": 0, "bike_id": "beebe5557e8547666aa90c9d2ec0295a", "fusion_lat": 0.0, "is_disabled": 0, "rental_uris": {"ios": "https://dc.lft.to/lastmile_qr_scan", "android": "https://dc.lft.to/lastmile_qr_scan"}}, {"name": "461c565d492a5c182c06970f6b8c2179", "lon": -77.02359966666667, "lat": 38.925166, "type": "electric_scooter", "fusion_lon": 0.0, "is_reserved": 0, "bike_id": "461c565d492a5c182c06970f6b8c2179", "fusion_lat": 0.0, "is_disabled": 0, "rental_uris": {"ios": "https://dc.lft.to/lastmile_qr_scan", "android": "https://dc.lft.to/lastmile_qr_scan"}}, {"name": "3431be939d05f0198042def17f164ea3", "lon": -77.02476083333333, "lat": 38.91819683333333, "type": "electric_scooter", "fusion_lon": 0.0, "is_reserved": 0, "bike_id": "3431be939d05f0198042def17f164ea3", "fusion_lat": 0.0, "is_disabled": 0, "rental_uris": {"ios": "https://dc.lft.to/lastmile_qr_scan", "android": "https://dc.lft.to/lastmile_qr_scan"}}, {"name": "e906ef3d4e42c82e0afdba4dbfb3c0b0", "lon": -77.02681633333333, "lat": 38.88136316666667, "type": "electric_scooter", "fusion_lon": 0.0, "is_reserved": 0, "bike_id": "e906ef3d4e42c82e0afdba4dbfb3c0b0", "fusion_lat": 0.0, "is_disabled": 0, "rental_uris": {"ios": "https://dc.lft.to/lastmile_qr_scan", "android": "https://dc.lft.to/lastmile_qr_scan"}}, {"name": "ae21f83ff472929421e04676285ccf99", "lon": -77.03998983333334, "lat": 38.9040205, "type": "electric_scooter", "fusion_lon": 0.0, "is_reserved": 0, "bike_id": "ae21f83ff472929421e04676285ccf99", "fusion_lat": 0.0, "is_disabled": 0, "rental_uris": {"ios": "https://dc.lft.to/lastmile_qr_scan", "android": "https://dc.lft.to/lastmile_qr_scan"}}, {"name": "89fdf0744e7b6ac7c03694d328fcd4d8", "lon": -77.033375, "lat": 38.9288495, "type": "electric_scooter", "fusion_lon": 0.0, "is_reserved": 0, "bike_id": "89fdf0744e7b6ac7c03694d328fcd4d8", "fusion_lat": 0.0, "is_disabled": 0, "rental_uris": {"ios": "https://dc.lft.to/lastmile_qr_scan", "android": "https://dc.lft.to/lastmile_qr_scan"}}, {"name": "54892071f1df1bb17da641260bb90133", "lon": -77.04184616666667, "lat": 38.901521, "type": "electric_scooter", "fusion_lon": 0.0, "is_reserved": 0, "bike_id": "54892071f1df1bb17da641260bb90133", "fusion_lat": 0.0, "is_disabled": 0, "rental_uris": {"ios": "https://dc.lft.to/lastmile_qr_scan", "android": "https://dc.lft.to/lastmile_qr_scan"}}, {"name": "f8a1b04a9ae0250a12c1423e1871f3db", "lon": -76.98094883333333, "lat": 38.9210745, "type": "electric_bike", "fusion_lon": 0.0, "is_reserved": 0, "bike_id": "f8a1b04a9ae0250a12c1423e1871f3db", "fusion_lat": 0.0, "is_disabled": 0, "rental_uris": {"ios": "https://dc.lft.to/lastmile_qr_scan", "android": "https://dc.lft.to/lastmile_qr_scan"}}, {"name": "c2842cbf96adc7cfb87ecd64e527fa57", "lon": -77.02643466666666, "lat": 38.984528166666664, "type": "electric_scooter", "fusion_lon": 0.0, "is_reserved": 0, "bike_id": "c2842cbf96adc7cfb87ecd64e527fa57", "fusion_lat": 0.0, "is_disabled": 0, "rental_uris": {"ios": "https://dc.lft.to/lastmile_qr_scan", "android": "https://dc.lft.to/lastmile_qr_scan"}}, {"name": "12fa86dd8da02186bd4bd30b13f2da74", "lon": -77.0281005, "lat": 38.91042766666666, "type": "electric_scooter", "fusion_lon": 0.0, "is_reserved": 0, "bike_id": "12fa86dd8da02186bd4bd30b13f2da74", "fusion_lat": 0.0, "is_disabled": 0, "rental_uris": {"ios": "https://dc.lft.to/lastmile_qr_scan", "android": "https://dc.lft.to/lastmile_qr_scan"}}, {"name": "05ff08f337b18a275e762a4eeef3b169", "lon": -76.909731, "lat": 38.85435833333333, "type": "electric_bike", "fusion_lon": 0.0, "is_reserved": 0, "bike_id": "05ff08f337b18a275e762a4eeef3b169", "fusion_lat": 0.0, "is_disabled": 0, "rental_uris": {"ios": "https://dc.lft.to/lastmile_qr_scan", "android": "https://dc.lft.to/lastmile_qr_scan"}}, {"name": "acb7d9a9e04b1dec3ef0c300992a86cd", "lon": -77.004852, "lat": 38.874772, "type": "electric_scooter", "fusion_lon": 0.0, "is_reserved": 0, "bike_id": "acb7d9a9e04b1dec3ef0c300992a86cd", "fusion_lat": 0.0, "is_disabled": 0, "rental_uris": {"ios": "https://dc.lft.to/lastmile_qr_scan", "android": "https://dc.lft.to/lastmile_qr_scan"}}, {"name": "5006f9ef8e273cb78f8c93943426ed67", "lon": -77.028129, "lat": 38.91696, "type": "electric_scooter", "fusion_lon": 0.0, "is_reserved": 0, "bike_id": "5006f9ef8e273cb78f8c93943426ed67", "fusion_lat": 0.0, "is_disabled": 0, "rental_uris": {"ios": "https://dc.lft.to/lastmile_qr_scan", "android": "https://dc.lft.to/lastmile_qr_scan"}}, {"name": "51a5a9e761ff648ddf74fe4cc4a2c108", "lon": -76.96527266666666, "lat": 38.87630083333333, "type": "electric_scooter", "fusion_lon": 0.0, "is_reserved": 0, "bike_id": "51a5a9e761ff648ddf74fe4cc4a2c108", "fusion_lat": 0.0, "is_disabled": 0, "rental_uris": {"ios": "https://dc.lft.to/lastmile_qr_scan", "android": "https://dc.lft.to/lastmile_qr_scan"}}, {"name": "469af17f32f686182d1814724e2856aa", "lon": -77.02311483333334, "lat": 38.917883833333335, "type": "electric_scooter", "fusion_lon": 0.0, "is_reserved": 0, "bike_id": "469af17f32f686182d1814724e2856aa", "fusion_lat": 0.0, "is_disabled": 0, "rental_uris": {"ios": "https://dc.lft.to/lastmile_qr_scan", "android": "https://dc.lft.to/lastmile_qr_scan"}}, {"name": "4014b96c8b48656f297b5c60a008f674", "lon": -77.0409365, "lat": 38.917777, "type": "electric_scooter", "fusion_lon": 0.0, "is_reserved": 0, "bike_id": "4014b96c8b48656f297b5c60a008f674", "fusion_lat": 0.0, "is_disabled": 0, "rental_uris": {"ios": "https://dc.lft.to/lastmile_qr_scan", "android": "https://dc.lft.to/lastmile_qr_scan"}}, {"name": "38d1b61359ffed700d7da412a2287c3f", "lon": -77.04330116666667, "lat": 38.8921895, "type": "electric_scooter", "fusion_lon": 0.0, "is_reserved": 0, "bike_id": "38d1b61359ffed700d7da412a2287c3f", "fusion_lat": 0.0, "is_disabled": 0, "rental_uris": {"ios": "https://dc.lft.to/lastmile_qr_scan", "android": "https://dc.lft.to/lastmile_qr_scan"}}, {"name": "be2ed3aaf7f3ec63418f13fccddcfc2c", "lon": -77.032107, "lat": 38.92019966666667, "type": "electric_scooter", "fusion_lon": 0.0, "is_reserved": 0, "bike_id": "be2ed3aaf7f3ec63418f13fccddcfc2c", "fusion_lat": 0.0, "is_disabled": 0, "rental_uris": {"ios": "https://dc.lft.to/lastmile_qr_scan", "android": "https://dc.lft.to/lastmile_qr_scan"}}, {"name": "9185fe66edcb752bc847133db98f578a", "lon": -77.03258983333333, "lat": 38.9462895, "type": "electric_scooter", "fusion_lon": 0.0, "is_reserved": 0, "bike_id": "9185fe66edcb752bc847133db98f578a", "fusion_lat": 0.0, "is_disabled": 0, "rental_uris": {"ios": "https://dc.lft.to/lastmile_qr_scan", "android": "https://dc.lft.to/lastmile_qr_scan"}}, {"name": "9201e95eed5e040cac55c71709e0cbed", "lon": -76.987798, "lat": 38.8659785, "type": "electric_bike", "fusion_lon": 0.0, "is_reserved": 0, "bike_id": "9201e95eed5e040cac55c71709e0cbed", "fusion_lat": 0.0, "is_disabled": 0, "rental_uris": {"ios": "https://dc.lft.to/lastmile_qr_scan", "android": "https://dc.lft.to/lastmile_qr_scan"}}, {"name": "b643386fd061d7095c81e0b4e83cd4c6", "lon": -77.002637, "lat": 38.9224935, "type": "electric_scooter", "fusion_lon": 0.0, "is_reserved": 0, "bike_id": "b643386fd061d7095c81e0b4e83cd4c6", "fusion_lat": 0.0, "is_disabled": 0, "rental_uris": {"ios": "https://dc.lft.to/lastmile_qr_scan", "android": "https://dc.lft.to/lastmile_qr_scan"}}, {"name": "3b8ade838b118494390abe2e100c1844", "lon": -77.01663166666667, "lat": 38.88134383333333, "type": "electric_scooter", "fusion_lon": 0.0, "is_reserved": 0, "bike_id": "3b8ade838b118494390abe2e100c1844", "fusion_lat": 0.0, "is_disabled": 0, "rental_uris": {"ios": "https://dc.lft.to/lastmile_qr_scan", "android": "https://dc.lft.to/lastmile_qr_scan"}}, {"name": "51ac626bf82c25c2246fc0bec09e55f2", "lon": -76.98562083333333, "lat": 38.8996125, "type": "electric_bike", "fusion_lon": 0.0, "is_reserved": 0, "bike_id": "51ac626bf82c25c2246fc0bec09e55f2", "fusion_lat": 0.0, "is_disabled": 0, "rental_uris": {"ios": "https://dc.lft.to/lastmile_qr_scan", "android": "https://dc.lft.to/lastmile_qr_scan"}}, {"name": "bab9c55411813bc95bd3c1da8c45e7b9", "lon": -77.00890633333333, "lat": 38.92491416666667, "type": "electric_scooter", "fusion_lon": 0.0, "is_reserved": 0, "bike_id": "bab9c55411813bc95bd3c1da8c45e7b9", "fusion_lat": 0.0, "is_disabled": 0, "rental_uris": {"ios": "https://dc.lft.to/lastmile_qr_scan", "android": "https://dc.lft.to/lastmile_qr_scan"}}, {"name": "35466ec3f0213927f9ee058262e1aa18", "lon": -77.03853816666667, "lat": 38.9169695, "type": "electric_scooter", "fusion_lon": 0.0, "is_reserved": 0, "bike_id": "35466ec3f0213927f9ee058262e1aa18", "fusion_lat": 0.0, "is_disabled": 0, "rental_uris": {"ios": "https://dc.lft.to/lastmile_qr_scan", "android": "https://dc.lft.to/lastmile_qr_scan"}}, {"name": "f55d4ca04d7d8f9d0e13d30f577c9226", "lon": -77.07142116666667, "lat": 38.920437166666666, "type": "electric_scooter", "fusion_lon": 0.0, "is_reserved": 0, "bike_id": "f55d4ca04d7d8f9d0e13d30f577c9226", "fusion_lat": 0.0, "is_disabled": 0, "rental_uris": {"ios": "https://dc.lft.to/lastmile_qr_scan", "android": "https://dc.lft.to/lastmile_qr_scan"}}, {"name": "6df7debb451de07dab654ffb17b5dd1a", "lon": -77.02813916666666, "lat": 38.91774783333334, "type": "electric_scooter", "fusion_lon": 0.0, "is_reserved": 0, "bike_id": "6df7debb451de07dab654ffb17b5dd1a", "fusion_lat": 0.0, "is_disabled": 0, "rental_uris": {"ios": "https://dc.lft.to/lastmile_qr_scan", "android": "https://dc.lft.to/lastmile_qr_scan"}}, {"name": "ebd949d85a3d0f6a2f0161a0fdf45142", "lon": -76.9662545, "lat": 38.87105066666667, "type": "electric_scooter", "fusion_lon": 0.0, "is_reserved": 0, "bike_id": "ebd949d85a3d0f6a2f0161a0fdf45142", "fusion_lat": 0.0, "is_disabled": 0, "rental_uris": {"ios": "https://dc.lft.to/lastmile_qr_scan", "android": "https://dc.lft.to/lastmile_qr_scan"}}, {"name": "8bf2468a455c93d6e2f30b81f639e314", "lon": -77.0302335, "lat": 38.8983585, "type": "electric_scooter", "fusion_lon": 0.0, "is_reserved": 0, "bike_id": "8bf2468a455c93d6e2f30b81f639e314", "fusion_lat": 0.0, "is_disabled": 0, "rental_uris": {"ios": "https://dc.lft.to/lastmile_qr_scan", "android": "https://dc.lft.to/lastmile_qr_scan"}}, {"name": "1bcfc16219391e27e25880f74b867483", "lon": -77.03211033333334, "lat": 38.89536866666667, "type": "electric_scooter", "fusion_lon": 0.0, "is_reserved": 0, "bike_id": "1bcfc16219391e27e25880f74b867483", "fusion_lat": 0.0, "is_disabled": 0, "rental_uris": {"ios": "https://dc.lft.to/lastmile_qr_scan", "android": "https://dc.lft.to/lastmile_qr_scan"}}, {"name": "69b33569a3da6c64d3a3560103c5af3a", "lon": -77.031952, "lat": 38.91815583333333, "type": "electric_scooter", "fusion_lon": 0.0, "is_reserved": 0, "bike_id": "69b33569a3da6c64d3a3560103c5af3a", "fusion_lat": 0.0, "is_disabled": 0, "rental_uris": {"ios": "https://dc.lft.to/lastmile_qr_scan", "android": "https://dc.lft.to/lastmile_qr_scan"}}, {"name": "eae936a1462e03038ac40793a3f326e8", "lon": -76.945363, "lat": 38.8645935, "type": "electric_bike", "fusion_lon": 0.0, "is_reserved": 0, "bike_id": "eae936a1462e03038ac40793a3f326e8", "fusion_lat": 0.0, "is_disabled": 0, "rental_uris": {"ios": "https://dc.lft.to/lastmile_qr_scan", "android": "https://dc.lft.to/lastmile_qr_scan"}}, {"name": "fb0921ea4fd9226d6dfff6770d52c1bd", "lon": -77.03295333333334, "lat": 38.95632533333333, "type": "electric_scooter", "fusion_lon": 0.0, "is_reserved": 0, "bike_id": "fb0921ea4fd9226d6dfff6770d52c1bd", "fusion_lat": 0.0, "is_disabled": 0, "rental_uris": {"ios": "https://dc.lft.to/lastmile_qr_scan", "android": "https://dc.lft.to/lastmile_qr_scan"}}, {"name": "5695fb3b308b586aac84239f0b3949d3", "lon": -77.04328733333334, "lat": 38.89225183333333, "type": "electric_scooter", "fusion_lon": 0.0, "is_reserved": 0, "bike_id": "5695fb3b308b586aac84239f0b3949d3", "fusion_lat": 0.0, "is_disabled": 0, "rental_uris": {"ios": "https://dc.lft.to/lastmile_qr_scan", "android": "https://dc.lft.to/lastmile_qr_scan"}}, {"name": "40ed33684d1da86278df1dc0c4d89341", "lon": -77.049796, "lat": 39.0629935, "type": "electric_bike", "fusion_lon": 0.0, "is_reserved": 0, "bike_id": "40ed33684d1da86278df1dc0c4d89341", "fusion_lat": 0.0, "is_disabled": 0, "rental_uris": {"ios": "https://dc.lft.to/lastmile_qr_scan", "android": "https://dc.lft.to/lastmile_qr_scan"}}, {"name": "e2bd8653a22db2a0d6d214c435426d1e", "lon": -77.03200416666667, "lat": 38.91053483333334, "type": "electric_scooter", "fusion_lon": 0.0, "is_reserved": 0, "bike_id": "e2bd8653a22db2a0d6d214c435426d1e", "fusion_lat": 0.0, "is_disabled": 0, "rental_uris": {"ios": "https://dc.lft.to/lastmile_qr_scan", "android": "https://dc.lft.to/lastmile_qr_scan"}}, {"name": "dc8fc45095f6dbe1f1f5d0bfbab6a270", "lon": -77.0575145, "lat": 38.92497766666666, "type": "electric_scooter", "fusion_lon": 0.0, "is_reserved": 0, "bike_id": "dc8fc45095f6dbe1f1f5d0bfbab6a270", "fusion_lat": 0.0, "is_disabled": 0, "rental_uris": {"ios": "https://dc.lft.to/lastmile_qr_scan", "android": "https://dc.lft.to/lastmile_qr_scan"}}, {"name": "236b1d65c048f777f5cb588b88bb3369", "lon": -77.00743016666667, "lat": 38.90360783333333, "type": "electric_scooter", "fusion_lon": 0.0, "is_reserved": 0, "bike_id": "236b1d65c048f777f5cb588b88bb3369", "fusion_lat": 0.0, "is_disabled": 0, "rental_uris": {"ios": "https://dc.lft.to/lastmile_qr_scan", "android": "https://dc.lft.to/lastmile_qr_scan"}}, {"name": "711f72a6b6a7909b1615a50e6f54d9f8", "lon": -77.00089583333333, "lat": 38.90847383333333, "type": "electric_scooter", "fusion_lon": 0.0, "is_reserved": 0, "bike_id": "711f72a6b6a7909b1615a50e6f54d9f8", "fusion_lat": 0.0, "is_disabled": 0, "rental_uris": {"ios": "https://dc.lft.to/lastmile_qr_scan", "android": "https://dc.lft.to/lastmile_qr_scan"}}, {"name": "308e886c08abb9b560acad01f5d35c11", "lon": -77.0088765, "lat": 38.924848, "type": "electric_scooter", "fusion_lon": 0.0, "is_reserved": 0, "bike_id": "308e886c08abb9b560acad01f5d35c11", "fusion_lat": 0.0, "is_disabled": 0, "rental_uris": {"ios": "https://dc.lft.to/lastmile_qr_scan", "android": "https://dc.lft.to/lastmile_qr_scan"}}, {"name": "f08d74b3a757380e58a9f0b0df7679e3", "lon": -77.03367016666667, "lat": 38.920551, "type": "electric_scooter", "fusion_lon": 0.0, "is_reserved": 0, "bike_id": "f08d74b3a757380e58a9f0b0df7679e3", "fusion_lat": 0.0, "is_disabled": 0, "rental_uris": {"ios": "https://dc.lft.to/lastmile_qr_scan", "android": "https://dc.lft.to/lastmile_qr_scan"}}, {"name": "ac1ef6cb2d8f38c2dc8e98f3088f97a1", "lon": -77.03014416666667, "lat": 38.991480833333334, "type": "electric_bike", "fusion_lon": 0.0, "is_reserved": 0, "bike_id": "ac1ef6cb2d8f38c2dc8e98f3088f97a1", "fusion_lat": 0.0, "is_disabled": 0, "rental_uris": {"ios": "https://dc.lft.to/lastmile_qr_scan", "android": "https://dc.lft.to/lastmile_qr_scan"}}, {"name": "0960325b96d69585e57a250dc6de37ce", "lon": -77.0552415, "lat": 38.929857166666665, "type": "electric_scooter", "fusion_lon": 0.0, "is_reserved": 0, "bike_id": "0960325b96d69585e57a250dc6de37ce", "fusion_lat": 0.0, "is_disabled": 0, "rental_uris": {"ios": "https://dc.lft.to/lastmile_qr_scan", "android": "https://dc.lft.to/lastmile_qr_scan"}}, {"name": "cbdd4ededd22c12e0fc347670b3973da", "lon": -76.99351116666666, "lat": 38.845083333333335, "type": "electric_bike", "fusion_lon": 0.0, "is_reserved": 0, "bike_id": "cbdd4ededd22c12e0fc347670b3973da", "fusion_lat": 0.0, "is_disabled": 0, "rental_uris": {"ios": "https://dc.lft.to/lastmile_qr_scan", "android": "https://dc.lft.to/lastmile_qr_scan"}}, {"name": "7b61360e107eeea6dec974dda86517cc", "lon": -77.01877483333334, "lat": 38.90081683333333, "type": "electric_scooter", "fusion_lon": 0.0, "is_reserved": 0, "bike_id": "7b61360e107eeea6dec974dda86517cc", "fusion_lat": 0.0, "is_disabled": 0, "rental_uris": {"ios": "https://dc.lft.to/lastmile_qr_scan", "android": "https://dc.lft.to/lastmile_qr_scan"}}, {"name": "160edab9788df4b25709a4f0dd08e678", "lon": -77.001295, "lat": 38.877951833333334, "type": "electric_scooter", "fusion_lon": 0.0, "is_reserved": 0, "bike_id": "160edab9788df4b25709a4f0dd08e678", "fusion_lat": 0.0, "is_disabled": 0, "rental_uris": {"ios": "https://dc.lft.to/lastmile_qr_scan", "android": "https://dc.lft.to/lastmile_qr_scan"}}, {"name": "a94bf28a4f16edb3aece5e02b5a37be5", "lon": -77.0400165, "lat": 38.88869716666667, "type": "electric_scooter", "fusion_lon": 0.0, "is_reserved": 0, "bike_id": "a94bf28a4f16edb3aece5e02b5a37be5", "fusion_lat": 0.0, "is_disabled": 0, "rental_uris": {"ios": "https://dc.lft.to/lastmile_qr_scan", "android": "https://dc.lft.to/lastmile_qr_scan"}}, {"name": "af7f09c6c97c8c33b3cf534598807fda", "lon": -77.02188583333333, "lat": 38.920731333333336, "type": "electric_scooter", "fusion_lon": 0.0, "is_reserved": 0, "bike_id": "af7f09c6c97c8c33b3cf534598807fda", "fusion_lat": 0.0, "is_disabled": 0, "rental_uris": {"ios": "https://dc.lft.to/lastmile_qr_scan", "android": "https://dc.lft.to/lastmile_qr_scan"}}, {"name": "c4414b43985f3df6f7ec05b150d990fb", "lon": -77.02692916666666, "lat": 38.906744333333336, "type": "electric_scooter", "fusion_lon": 0.0, "is_reserved": 0, "bike_id": "c4414b43985f3df6f7ec05b150d990fb", "fusion_lat": 0.0, "is_disabled": 0, "rental_uris": {"ios": "https://dc.lft.to/lastmile_qr_scan", "android": "https://dc.lft.to/lastmile_qr_scan"}}, {"name": "999b401f5e5e6834eb9b6e00c3c94198", "lon": -77.02227316666666, "lat": 38.87877, "type": "electric_scooter", "fusion_lon": 0.0, "is_reserved": 0, "bike_id": "999b401f5e5e6834eb9b6e00c3c94198", "fusion_lat": 0.0, "is_disabled": 0, "rental_uris": {"ios": "https://dc.lft.to/lastmile_qr_scan", "android": "https://dc.lft.to/lastmile_qr_scan"}}, {"name": "d66d0f348b5d09793af8779f1d0e5563", "lon": -77.02671566666666, "lat": 38.8973405, "type": "electric_scooter", "fusion_lon": 0.0, "is_reserved": 0, "bike_id": "d66d0f348b5d09793af8779f1d0e5563", "fusion_lat": 0.0, "is_disabled": 0, "rental_uris": {"ios": "https://dc.lft.to/lastmile_qr_scan", "android": "https://dc.lft.to/lastmile_qr_scan"}}, {"name": "d88a79df1bdd153a08f49bbe852d8a28", "lon": -77.03028366666666, "lat": 38.897338, "type": "electric_scooter", "fusion_lon": 0.0, "is_reserved": 0, "bike_id": "d88a79df1bdd153a08f49bbe852d8a28", "fusion_lat": 0.0, "is_disabled": 0, "rental_uris": {"ios": "https://dc.lft.to/lastmile_qr_scan", "android": "https://dc.lft.to/lastmile_qr_scan"}}, {"name": "f3be65a282b4cba24d64680debcc5ed3", "lon": -76.98883766666667, "lat": 38.90456183333333, "type": "electric_scooter", "fusion_lon": 0.0, "is_reserved": 0, "bike_id": "f3be65a282b4cba24d64680debcc5ed3", "fusion_lat": 0.0, "is_disabled": 0, "rental_uris": {"ios": "https://dc.lft.to/lastmile_qr_scan", "android": "https://dc.lft.to/lastmile_qr_scan"}}, {"name": "d7ef869863720516829c5b3229e93979", "lon": -77.03208333333333, "lat": 38.89590916666667, "type": "electric_scooter", "fusion_lon": 0.0, "is_reserved": 0, "bike_id": "d7ef869863720516829c5b3229e93979", "fusion_lat": 0.0, "is_disabled": 0, "rental_uris": {"ios": "https://dc.lft.to/lastmile_qr_scan", "android": "https://dc.lft.to/lastmile_qr_scan"}}, {"name": "7d0245def7f0b451987076922ce146fb", "lon": -77.024181, "lat": 38.907347666666666, "type": "electric_scooter", "fusion_lon": 0.0, "is_reserved": 0, "bike_id": "7d0245def7f0b451987076922ce146fb", "fusion_lat": 0.0, "is_disabled": 0, "rental_uris": {"ios": "https://dc.lft.to/lastmile_qr_scan", "android": "https://dc.lft.to/lastmile_qr_scan"}}, {"name": "6a3d244484e06d7fb434c63a517e11f3", "lon": -76.981048, "lat": 38.8773205, "type": "electric_bike", "fusion_lon": 0.0, "is_reserved": 0, "bike_id": "6a3d244484e06d7fb434c63a517e11f3", "fusion_lat": 0.0, "is_disabled": 0, "rental_uris": {"ios": "https://dc.lft.to/lastmile_qr_scan", "android": "https://dc.lft.to/lastmile_qr_scan"}}, {"name": "893140a4c998ea35ab5bdef62fb19864", "lon": -77.041211, "lat": 38.91632216666667, "type": "electric_scooter", "fusion_lon": 0.0, "is_reserved": 0, "bike_id": "893140a4c998ea35ab5bdef62fb19864", "fusion_lat": 0.0, "is_disabled": 0, "rental_uris": {"ios": "https://dc.lft.to/lastmile_qr_scan", "android": "https://dc.lft.to/lastmile_qr_scan"}}, {"name": "755282350ccc4db8071033e350d46200", "lon": -77.03546533333333, "lat": 38.90669233333333, "type": "electric_scooter", "fusion_lon": 0.0, "is_reserved": 0, "bike_id": "755282350ccc4db8071033e350d46200", "fusion_lat": 0.0, "is_disabled": 0, "rental_uris": {"ios": "https://dc.lft.to/lastmile_qr_scan", "android": "https://dc.lft.to/lastmile_qr_scan"}}, {"name": "80274473921dff63520c2adbc8c16fd4", "lon": -76.99349333333333, "lat": 38.91483216666666, "type": "electric_scooter", "fusion_lon": 0.0, "is_reserved": 0, "bike_id": "80274473921dff63520c2adbc8c16fd4", "fusion_lat": 0.0, "is_disabled": 0, "rental_uris": {"ios": "https://dc.lft.to/lastmile_qr_scan", "android": "https://dc.lft.to/lastmile_qr_scan"}}, {"name": "3433f298b0667feeb3a293cad9ae4d35", "lon": -77.02391, "lat": 38.9085825, "type": "electric_scooter", "fusion_lon": 0.0, "is_reserved": 0, "bike_id": "3433f298b0667feeb3a293cad9ae4d35", "fusion_lat": 0.0, "is_disabled": 0, "rental_uris": {"ios": "https://dc.lft.to/lastmile_qr_scan", "android": "https://dc.lft.to/lastmile_qr_scan"}}, {"name": "0868eff3c5872ecc96e958481e996298", "lon": -77.01592883333333, "lat": 38.949380166666664, "type": "electric_scooter", "fusion_lon": 0.0, "is_reserved": 0, "bike_id": "0868eff3c5872ecc96e958481e996298", "fusion_lat": 0.0, "is_disabled": 0, "rental_uris": {"ios": "https://dc.lft.to/lastmile_qr_scan", "android": "https://dc.lft.to/lastmile_qr_scan"}}, {"name": "96807da84d773d39839492540a65869f", "lon": -77.02720466666666, "lat": 38.9495785, "type": "electric_scooter", "fusion_lon": 0.0, "is_reserved": 0, "bike_id": "96807da84d773d39839492540a65869f", "fusion_lat": 0.0, "is_disabled": 0, "rental_uris": {"ios": "https://dc.lft.to/lastmile_qr_scan", "android": "https://dc.lft.to/lastmile_qr_scan"}}, {"name": "a488c60bed9653fbd17aa924bb9d9f91", "lon": -77.03304616666667, "lat": 38.909662, "type": "electric_scooter", "fusion_lon": 0.0, "is_reserved": 0, "bike_id": "a488c60bed9653fbd17aa924bb9d9f91", "fusion_lat": 0.0, "is_disabled": 0, "rental_uris": {"ios": "https://dc.lft.to/lastmile_qr_scan", "android": "https://dc.lft.to/lastmile_qr_scan"}}, {"name": "d42735ebcd53b50f452f16e9ce9bd50c", "lon": -77.07577483333333, "lat": 38.938701333333334, "type": "electric_scooter", "fusion_lon": 0.0, "is_reserved": 0, "bike_id": "d42735ebcd53b50f452f16e9ce9bd50c", "fusion_lat": 0.0, "is_disabled": 0, "rental_uris": {"ios": "https://dc.lft.to/lastmile_qr_scan", "android": "https://dc.lft.to/lastmile_qr_scan"}}, {"name": "072255a2b9665c935d672d2e70500cdf", "lon": -77.02431316666667, "lat": 38.9028295, "type": "electric_scooter", "fusion_lon": 0.0, "is_reserved": 0, "bike_id": "072255a2b9665c935d672d2e70500cdf", "fusion_lat": 0.0, "is_disabled": 0, "rental_uris": {"ios": "https://dc.lft.to/lastmile_qr_scan", "android": "https://dc.lft.to/lastmile_qr_scan"}}, {"name": "d015fc766fe4db8763ee8cfc72b0084d", "lon": -77.058543, "lat": 38.93611516666667, "type": "electric_scooter", "fusion_lon": 0.0, "is_reserved": 0, "bike_id": "d015fc766fe4db8763ee8cfc72b0084d", "fusion_lat": 0.0, "is_disabled": 0, "rental_uris": {"ios": "https://dc.lft.to/lastmile_qr_scan", "android": "https://dc.lft.to/lastmile_qr_scan"}}, {"name": "9a7eefdfbcabee35b0c7e82ba222dbdb", "lon": -77.03641383333333, "lat": 38.91735883333333, "type": "electric_scooter", "fusion_lon": 0.0, "is_reserved": 0, "bike_id": "9a7eefdfbcabee35b0c7e82ba222dbdb", "fusion_lat": 0.0, "is_disabled": 0, "rental_uris": {"ios": "https://dc.lft.to/lastmile_qr_scan", "android": "https://dc.lft.to/lastmile_qr_scan"}}, {"name": "3be8358909f9e7e9a8b2dfe2a661a290", "lon": -77.0459655, "lat": 38.91921516666667, "type": "electric_scooter", "fusion_lon": 0.0, "is_reserved": 0, "bike_id": "3be8358909f9e7e9a8b2dfe2a661a290", "fusion_lat": 0.0, "is_disabled": 0, "rental_uris": {"ios": "https://dc.lft.to/lastmile_qr_scan", "android": "https://dc.lft.to/lastmile_qr_scan"}}, {"name": "2eff792516270d441df15e311800bcef", "lon": -77.04339866666666, "lat": 38.90356383333334, "type": "electric_scooter", "fusion_lon": 0.0, "is_reserved": 0, "bike_id": "2eff792516270d441df15e311800bcef", "fusion_lat": 0.0, "is_disabled": 0, "rental_uris": {"ios": "https://dc.lft.to/lastmile_qr_scan", "android": "https://dc.lft.to/lastmile_qr_scan"}}, {"name": "59c030e388b3fb09b19af69facda9e8d", "lon": -77.00134316666667, "lat": 38.894714, "type": "electric_scooter", "fusion_lon": 0.0, "is_reserved": 0, "bike_id": "59c030e388b3fb09b19af69facda9e8d", "fusion_lat": 0.0, "is_disabled": 0, "rental_uris": {"ios": "https://dc.lft.to/lastmile_qr_scan", "android": "https://dc.lft.to/lastmile_qr_scan"}}, {"name": "f516b4ca041b7239b99761885f8d3f9a", "lon": -77.03463566666667, "lat": 38.9025825, "type": "electric_scooter", "fusion_lon": 0.0, "is_reserved": 0, "bike_id": "f516b4ca041b7239b99761885f8d3f9a", "fusion_lat": 0.0, "is_disabled": 0, "rental_uris": {"ios": "https://dc.lft.to/lastmile_qr_scan", "android": "https://dc.lft.to/lastmile_qr_scan"}}, {"name": "415a268987d6ed6100e6cc879547d015", "lon": -77.0568875, "lat": 38.906067166666666, "type": "electric_scooter", "fusion_lon": 0.0, "is_reserved": 0, "bike_id": "415a268987d6ed6100e6cc879547d015", "fusion_lat": 0.0, "is_disabled": 0, "rental_uris": {"ios": "https://dc.lft.to/lastmile_qr_scan", "android": "https://dc.lft.to/lastmile_qr_scan"}}, {"name": "88f1ecfffab782064e04558b52acab3f", "lon": -76.99728966666666, "lat": 38.90795266666667, "type": "electric_scooter", "fusion_lon": 0.0, "is_reserved": 0, "bike_id": "88f1ecfffab782064e04558b52acab3f", "fusion_lat": 0.0, "is_disabled": 0, "rental_uris": {"ios": "https://dc.lft.to/lastmile_qr_scan", "android": "https://dc.lft.to/lastmile_qr_scan"}}, {"name": "30e0f208bc5fe8da60c90a530fb4ec91", "lon": -76.98607266666667, "lat": 38.8652735, "type": "electric_scooter", "fusion_lon": 0.0, "is_reserved": 0, "bike_id": "30e0f208bc5fe8da60c90a530fb4ec91", "fusion_lat": 0.0, "is_disabled": 0, "rental_uris": {"ios": "https://dc.lft.to/lastmile_qr_scan", "android": "https://dc.lft.to/lastmile_qr_scan"}}, {"name": "f1b24505d034a01099a2054303c41dae", "lon": -77.03634016666666, "lat": 38.93678166666667, "type": "electric_scooter", "fusion_lon": 0.0, "is_reserved": 0, "bike_id": "f1b24505d034a01099a2054303c41dae", "fusion_lat": 0.0, "is_disabled": 0, "rental_uris": {"ios": "https://dc.lft.to/lastmile_qr_scan", "android": "https://dc.lft.to/lastmile_qr_scan"}}, {"name": "01f66641790e635fa252a95baf22b47a", "lon": -77.04356416666667, "lat": 38.923478, "type": "electric_scooter", "fusion_lon": 0.0, "is_reserved": 0, "bike_id": "01f66641790e635fa252a95baf22b47a", "fusion_lat": 0.0, "is_disabled": 0, "rental_uris": {"ios": "https://dc.lft.to/lastmile_qr_scan", "android": "https://dc.lft.to/lastmile_qr_scan"}}, {"name": "828c95170b2f0a37826ddf6df4590907", "lon": -77.125241, "lat": 39.056344, "type": "electric_bike", "fusion_lon": 0.0, "is_reserved": 0, "bike_id": "828c95170b2f0a37826ddf6df4590907", "fusion_lat": 0.0, "is_disabled": 0, "rental_uris": {"ios": "https://dc.lft.to/lastmile_qr_scan", "android": "https://dc.lft.to/lastmile_qr_scan"}}, {"name": "ff603726647c8a44da03406990eb2bb9", "lon": -77.02391233333333, "lat": 38.91992183333333, "type": "electric_scooter", "fusion_lon": 0.0, "is_reserved": 0, "bike_id": "ff603726647c8a44da03406990eb2bb9", "fusion_lat": 0.0, "is_disabled": 0, "rental_uris": {"ios": "https://dc.lft.to/lastmile_qr_scan", "android": "https://dc.lft.to/lastmile_qr_scan"}}, {"name": "428c7c3685b37517e51e44f1a363ea1c", "lon": -76.9463725, "lat": 38.89846033333333, "type": "electric_scooter", "fusion_lon": 0.0, "is_reserved": 0, "bike_id": "428c7c3685b37517e51e44f1a363ea1c", "fusion_lat": 0.0, "is_disabled": 0, "rental_uris": {"ios": "https://dc.lft.to/lastmile_qr_scan", "android": "https://dc.lft.to/lastmile_qr_scan"}}, {"name": "06a2a52ba26214869548ead871d7b7bd", "lon": -77.0074465, "lat": 38.898502, "type": "electric_scooter", "fusion_lon": 0.0, "is_reserved": 0, "bike_id": "06a2a52ba26214869548ead871d7b7bd", "fusion_lat": 0.0, "is_disabled": 0, "rental_uris": {"ios": "https://dc.lft.to/lastmile_qr_scan", "android": "https://dc.lft.to/lastmile_qr_scan"}}, {"name": "5713b16c8f9ee92f2a782a12d35bef87", "lon": -77.02102183333334, "lat": 38.92703433333333, "type": "electric_scooter", "fusion_lon": 0.0, "is_reserved": 0, "bike_id": "5713b16c8f9ee92f2a782a12d35bef87", "fusion_lat": 0.0, "is_disabled": 0, "rental_uris": {"ios": "https://dc.lft.to/lastmile_qr_scan", "android": "https://dc.lft.to/lastmile_qr_scan"}}, {"name": "ea463cfe2bf12ea322e7f32fc7b00552", "lon": -77.0112815, "lat": 38.9169905, "type": "electric_scooter", "fusion_lon": 0.0, "is_reserved": 0, "bike_id": "ea463cfe2bf12ea322e7f32fc7b00552", "fusion_lat": 0.0, "is_disabled": 0, "rental_uris": {"ios": "https://dc.lft.to/lastmile_qr_scan", "android": "https://dc.lft.to/lastmile_qr_scan"}}, {"name": "1300aea31c6a546303f221c6b0cb8ca3", "lon": -77.023459, "lat": 38.93034766666667, "type": "electric_scooter", "fusion_lon": 0.0, "is_reserved": 0, "bike_id": "1300aea31c6a546303f221c6b0cb8ca3", "fusion_lat": 0.0, "is_disabled": 0, "rental_uris": {"ios": "https://dc.lft.to/lastmile_qr_scan", "android": "https://dc.lft.to/lastmile_qr_scan"}}, {"name": "1eb33fc23630c1ffa503a1ea25f0a41f", "lon": -77.04183516666667, "lat": 38.9198885, "type": "electric_scooter", "fusion_lon": 0.0, "is_reserved": 0, "bike_id": "1eb33fc23630c1ffa503a1ea25f0a41f", "fusion_lat": 0.0, "is_disabled": 0, "rental_uris": {"ios": "https://dc.lft.to/lastmile_qr_scan", "android": "https://dc.lft.to/lastmile_qr_scan"}}, {"name": "547981030ec3989a4181b1db25c5fdf6", "lon": -76.951399, "lat": 38.8904205, "type": "electric_scooter", "fusion_lon": 0.0, "is_reserved": 0, "bike_id": "547981030ec3989a4181b1db25c5fdf6", "fusion_lat": 0.0, "is_disabled": 0, "rental_uris": {"ios": "https://dc.lft.to/lastmile_qr_scan", "android": "https://dc.lft.to/lastmile_qr_scan"}}, {"name": "8da93a2f91b5d159bfc2d763b5448bac", "lon": -76.9770115, "lat": 38.949166166666664, "type": "electric_bike", "fusion_lon": 0.0, "is_reserved": 0, "bike_id": "8da93a2f91b5d159bfc2d763b5448bac", "fusion_lat": 0.0, "is_disabled": 0, "rental_uris": {"ios": "https://dc.lft.to/lastmile_qr_scan", "android": "https://dc.lft.to/lastmile_qr_scan"}}, {"name": "eb9b9a2bfe2e59d66b6e4ee7cbafa70f", "lon": -77.03275666666667, "lat": 38.90003166666666, "type": "electric_scooter", "fusion_lon": 0.0, "is_reserved": 0, "bike_id": "eb9b9a2bfe2e59d66b6e4ee7cbafa70f", "fusion_lat": 0.0, "is_disabled": 0, "rental_uris": {"ios": "https://dc.lft.to/lastmile_qr_scan", "android": "https://dc.lft.to/lastmile_qr_scan"}}, {"name": "7d16f46444777c73d3c179fd7d7bd254", "lon": -77.03973333333333, "lat": 38.91193066666666, "type": "electric_scooter", "fusion_lon": 0.0, "is_reserved": 0, "bike_id": "7d16f46444777c73d3c179fd7d7bd254", "fusion_lat": 0.0, "is_disabled": 0, "rental_uris": {"ios": "https://dc.lft.to/lastmile_qr_scan", "android": "https://dc.lft.to/lastmile_qr_scan"}}, {"name": "edd0d8802038cfdd4c71a7d53ed04133", "lon": -77.032364, "lat": 38.91715033333333, "type": "electric_scooter", "fusion_lon": 0.0, "is_reserved": 0, "bike_id": "edd0d8802038cfdd4c71a7d53ed04133", "fusion_lat": 0.0, "is_disabled": 0, "rental_uris": {"ios": "https://dc.lft.to/lastmile_qr_scan", "android": "https://dc.lft.to/lastmile_qr_scan"}}, {"name": "b88433114856e3ff92c763a113c321b8", "lon": -77.360883, "lat": 38.939736, "type": "electric_bike", "fusion_lon": 0.0, "is_reserved": 0, "bike_id": "b88433114856e3ff92c763a113c321b8", "fusion_lat": 0.0, "is_disabled": 0, "rental_uris": {"ios": "https://dc.lft.to/lastmile_qr_scan", "android": "https://dc.lft.to/lastmile_qr_scan"}}, {"name": "6351446b8c3b1e3716acf98beb828841", "lon": -77.02625816666666, "lat": 38.96223633333334, "type": "electric_bike", "fusion_lon": 0.0, "is_reserved": 0, "bike_id": "6351446b8c3b1e3716acf98beb828841", "fusion_lat": 0.0, "is_disabled": 0, "rental_uris": {"ios": "https://dc.lft.to/lastmile_qr_scan", "android": "https://dc.lft.to/lastmile_qr_scan"}}, {"name": "ebf1dcfffd4fb27feb8f01ecf20a4689", "lon": -77.03846683333333, "lat": 38.902742333333336, "type": "electric_scooter", "fusion_lon": 0.0, "is_reserved": 0, "bike_id": "ebf1dcfffd4fb27feb8f01ecf20a4689", "fusion_lat": 0.0, "is_disabled": 0, "rental_uris": {"ios": "https://dc.lft.to/lastmile_qr_scan", "android": "https://dc.lft.to/lastmile_qr_scan"}}, {"name": "884f2fab103f54ba116dfb2073ac40e2", "lon": -77.02265233333334, "lat": 38.92491, "type": "electric_scooter", "fusion_lon": 0.0, "is_reserved": 0, "bike_id": "884f2fab103f54ba116dfb2073ac40e2", "fusion_lat": 0.0, "is_disabled": 0, "rental_uris": {"ios": "https://dc.lft.to/lastmile_qr_scan", "android": "https://dc.lft.to/lastmile_qr_scan"}}, {"name": "aa02d5f2f0e4493965ce70d50d82ada5", "lon": -77.03657616666666, "lat": 38.922884833333335, "type": "electric_scooter", "fusion_lon": 0.0, "is_reserved": 0, "bike_id": "aa02d5f2f0e4493965ce70d50d82ada5", "fusion_lat": 0.0, "is_disabled": 0, "rental_uris": {"ios": "https://dc.lft.to/lastmile_qr_scan", "android": "https://dc.lft.to/lastmile_qr_scan"}}, {"name": "407461127ea5607930376cbaa56dbfb2", "lon": -77.02996416666667, "lat": 38.895287333333336, "type": "electric_scooter", "fusion_lon": 0.0, "is_reserved": 0, "bike_id": "407461127ea5607930376cbaa56dbfb2", "fusion_lat": 0.0, "is_disabled": 0, "rental_uris": {"ios": "https://dc.lft.to/lastmile_qr_scan", "android": "https://dc.lft.to/lastmile_qr_scan"}}, {"name": "f97f8660178b2b9f9fd2df5bb110b349", "lon": -76.8837265, "lat": 38.998370333333334, "type": "electric_bike", "fusion_lon": 0.0, "is_reserved": 0, "bike_id": "f97f8660178b2b9f9fd2df5bb110b349", "fusion_lat": 0.0, "is_disabled": 0, "rental_uris": {"ios": "https://dc.lft.to/lastmile_qr_scan", "android": "https://dc.lft.to/lastmile_qr_scan"}}, {"name": "d35344af537faccf8ad7f3f8ab667d79", "lon": -77.04328366666667, "lat": 38.90898133333334, "type": "electric_scooter", "fusion_lon": 0.0, "is_reserved": 0, "bike_id": "d35344af537faccf8ad7f3f8ab667d79", "fusion_lat": 0.0, "is_disabled": 0, "rental_uris": {"ios": "https://dc.lft.to/lastmile_qr_scan", "android": "https://dc.lft.to/lastmile_qr_scan"}}, {"name": "6b9a58cc403e7db308989f32e1650684", "lon": -77.03288633333334, "lat": 38.93665416666666, "type": "electric_scooter", "fusion_lon": 0.0, "is_reserved": 0, "bike_id": "6b9a58cc403e7db308989f32e1650684", "fusion_lat": 0.0, "is_disabled": 0, "rental_uris": {"ios": "https://dc.lft.to/lastmile_qr_scan", "android": "https://dc.lft.to/lastmile_qr_scan"}}, {"name": "a6f2f261df777dc7ca5b47e8c81028a8", "lon": -77.03129566666667, "lat": 38.92382116666667, "type": "electric_scooter", "fusion_lon": 0.0, "is_reserved": 0, "bike_id": "a6f2f261df777dc7ca5b47e8c81028a8", "fusion_lat": 0.0, "is_disabled": 0, "rental_uris": {"ios": "https://dc.lft.to/lastmile_qr_scan", "android": "https://dc.lft.to/lastmile_qr_scan"}}, {"name": "437cb037491157a231a17db24cd72efc", "lon": -76.995017, "lat": 38.882562166666666, "type": "electric_scooter", "fusion_lon": 0.0, "is_reserved": 0, "bike_id": "437cb037491157a231a17db24cd72efc", "fusion_lat": 0.0, "is_disabled": 0, "rental_uris": {"ios": "https://dc.lft.to/lastmile_qr_scan", "android": "https://dc.lft.to/lastmile_qr_scan"}}, {"name": "b3eb19e593ca2a919ffbcd05e70ffcae", "lon": -77.0534745, "lat": 38.923541666666665, "type": "electric_scooter", "fusion_lon": 0.0, "is_reserved": 0, "bike_id": "b3eb19e593ca2a919ffbcd05e70ffcae", "fusion_lat": 0.0, "is_disabled": 0, "rental_uris": {"ios": "https://dc.lft.to/lastmile_qr_scan", "android": "https://dc.lft.to/lastmile_qr_scan"}}, {"name": "0df381d34ad180927339afe38712c13a", "lon": -76.99729616666667, "lat": 38.9012945, "type": "electric_scooter", "fusion_lon": 0.0, "is_reserved": 0, "bike_id": "0df381d34ad180927339afe38712c13a", "fusion_lat": 0.0, "is_disabled": 0, "rental_uris": {"ios": "https://dc.lft.to/lastmile_qr_scan", "android": "https://dc.lft.to/lastmile_qr_scan"}}, {"name": "4a84c988072fe54eff925b641efa3d3d", "lon": -77.03132133333334, "lat": 38.92374933333333, "type": "electric_scooter", "fusion_lon": 0.0, "is_reserved": 0, "bike_id": "4a84c988072fe54eff925b641efa3d3d", "fusion_lat": 0.0, "is_disabled": 0, "rental_uris": {"ios": "https://dc.lft.to/lastmile_qr_scan", "android": "https://dc.lft.to/lastmile_qr_scan"}}, {"name": "f787120f1ab9fcab1918c6719a27df12", "lon": -77.04023683333334, "lat": 38.924206166666664, "type": "electric_scooter", "fusion_lon": 0.0, "is_reserved": 0, "bike_id": "f787120f1ab9fcab1918c6719a27df12", "fusion_lat": 0.0, "is_disabled": 0, "rental_uris": {"ios": "https://dc.lft.to/lastmile_qr_scan", "android": "https://dc.lft.to/lastmile_qr_scan"}}, {"name": "94ae7a9fcc3627ef9a9563bcc4b9439d", "lon": -77.0064535, "lat": 38.900977166666664, "type": "electric_scooter", "fusion_lon": 0.0, "is_reserved": 0, "bike_id": "94ae7a9fcc3627ef9a9563bcc4b9439d", "fusion_lat": 0.0, "is_disabled": 0, "rental_uris": {"ios": "https://dc.lft.to/lastmile_qr_scan", "android": "https://dc.lft.to/lastmile_qr_scan"}}, {"name": "dedd00dd9bbde652b0b78c49efb68800", "lon": -77.0502685, "lat": 38.903721166666664, "type": "electric_scooter", "fusion_lon": 0.0, "is_reserved": 0, "bike_id": "dedd00dd9bbde652b0b78c49efb68800", "fusion_lat": 0.0, "is_disabled": 0, "rental_uris": {"ios": "https://dc.lft.to/lastmile_qr_scan", "android": "https://dc.lft.to/lastmile_qr_scan"}}, {"name": "5cb2b41b16e959d59be5d5c1bd9cc9b2", "lon": -77.02405966666667, "lat": 38.956813833333335, "type": "electric_scooter", "fusion_lon": 0.0, "is_reserved": 0, "bike_id": "5cb2b41b16e959d59be5d5c1bd9cc9b2", "fusion_lat": 0.0, "is_disabled": 0, "rental_uris": {"ios": "https://dc.lft.to/lastmile_qr_scan", "android": "https://dc.lft.to/lastmile_qr_scan"}}, {"name": "1a24842138fbd265bd7ebe320b213dca", "lon": -77.01615233333334, "lat": 38.9181235, "type": "electric_scooter", "fusion_lon": 0.0, "is_reserved": 0, "bike_id": "1a24842138fbd265bd7ebe320b213dca", "fusion_lat": 0.0, "is_disabled": 0, "rental_uris": {"ios": "https://dc.lft.to/lastmile_qr_scan", "android": "https://dc.lft.to/lastmile_qr_scan"}}, {"name": "b626e5db1c7da714ef7e2e65b7deb57e", "lon": -76.986888, "lat": 38.862674, "type": "electric_scooter", "fusion_lon": 0.0, "is_reserved": 0, "bike_id": "b626e5db1c7da714ef7e2e65b7deb57e", "fusion_lat": 0.0, "is_disabled": 0, "rental_uris": {"ios": "https://dc.lft.to/lastmile_qr_scan", "android": "https://dc.lft.to/lastmile_qr_scan"}}, {"name": "950b4792dc0afd5f74aaf092e7e43e40", "lon": -77.01873516666667, "lat": 38.90060666666667, "type": "electric_scooter", "fusion_lon": 0.0, "is_reserved": 0, "bike_id": "950b4792dc0afd5f74aaf092e7e43e40", "fusion_lat": 0.0, "is_disabled": 0, "rental_uris": {"ios": "https://dc.lft.to/lastmile_qr_scan", "android": "https://dc.lft.to/lastmile_qr_scan"}}, {"name": "807ea333b4a660e21b811643ab380b34", "lon": -77.0264365, "lat": 38.891955833333334, "type": "electric_scooter", "fusion_lon": 0.0, "is_reserved": 0, "bike_id": "807ea333b4a660e21b811643ab380b34", "fusion_lat": 0.0, "is_disabled": 0, "rental_uris": {"ios": "https://dc.lft.to/lastmile_qr_scan", "android": "https://dc.lft.to/lastmile_qr_scan"}}, {"name": "8c41b52cdf43aaba3216e39d7b54d3c7", "lon": -77.06326766666666, "lat": 38.90768116666667, "type": "electric_scooter", "fusion_lon": 0.0, "is_reserved": 0, "bike_id": "8c41b52cdf43aaba3216e39d7b54d3c7", "fusion_lat": 0.0, "is_disabled": 0, "rental_uris": {"ios": "https://dc.lft.to/lastmile_qr_scan", "android": "https://dc.lft.to/lastmile_qr_scan"}}, {"name": "60853f5b88e15b3f51f603d8882297fc", "lon": -77.01438233333333, "lat": 38.9196805, "type": "electric_scooter", "fusion_lon": 0.0, "is_reserved": 0, "bike_id": "60853f5b88e15b3f51f603d8882297fc", "fusion_lat": 0.0, "is_disabled": 0, "rental_uris": {"ios": "https://dc.lft.to/lastmile_qr_scan", "android": "https://dc.lft.to/lastmile_qr_scan"}}, {"name": "01982ad52ae13eabfc882d08d4cc5555", "lon": -77.0276965, "lat": 38.95422716666667, "type": "electric_scooter", "fusion_lon": 0.0, "is_reserved": 0, "bike_id": "01982ad52ae13eabfc882d08d4cc5555", "fusion_lat": 0.0, "is_disabled": 0, "rental_uris": {"ios": "https://dc.lft.to/lastmile_qr_scan", "android": "https://dc.lft.to/lastmile_qr_scan"}}, {"name": "bc65e7656f60ae04d78cca71d2346ef7", "lon": -76.9955825, "lat": 38.86260333333333, "type": "electric_scooter", "fusion_lon": 0.0, "is_reserved": 0, "bike_id": "bc65e7656f60ae04d78cca71d2346ef7", "fusion_lat": 0.0, "is_disabled": 0, "rental_uris": {"ios": "https://dc.lft.to/lastmile_qr_scan", "android": "https://dc.lft.to/lastmile_qr_scan"}}, {"name": "777a85ae552875dda03db0ada8af4568", "lon": -77.03838383333333, "lat": 38.9117745, "type": "electric_scooter", "fusion_lon": 0.0, "is_reserved": 0, "bike_id": "777a85ae552875dda03db0ada8af4568", "fusion_lat": 0.0, "is_disabled": 0, "rental_uris": {"ios": "https://dc.lft.to/lastmile_qr_scan", "android": "https://dc.lft.to/lastmile_qr_scan"}}, {"name": "2a50779b8b5ae7fa8f0f7b22db3eee8a", "lon": -77.03908283333334, "lat": 38.91830133333333, "type": "electric_scooter", "fusion_lon": 0.0, "is_reserved": 0, "bike_id": "2a50779b8b5ae7fa8f0f7b22db3eee8a", "fusion_lat": 0.0, "is_disabled": 0, "rental_uris": {"ios": "https://dc.lft.to/lastmile_qr_scan", "android": "https://dc.lft.to/lastmile_qr_scan"}}, {"name": "7ff9f8053a6ff48fcaf8735f2c4aad9b", "lon": -77.0469135, "lat": 38.921654833333335, "type": "electric_scooter", "fusion_lon": 0.0, "is_reserved": 0, "bike_id": "7ff9f8053a6ff48fcaf8735f2c4aad9b", "fusion_lat": 0.0, "is_disabled": 0, "rental_uris": {"ios": "https://dc.lft.to/lastmile_qr_scan", "android": "https://dc.lft.to/lastmile_qr_scan"}}, {"name": "d2e4f2e53f12dbeac83e024e312dfb2a", "lon": -77.02258533333334, "lat": 38.92308466666667, "type": "electric_scooter", "fusion_lon": 0.0, "is_reserved": 0, "bike_id": "d2e4f2e53f12dbeac83e024e312dfb2a", "fusion_lat": 0.0, "is_disabled": 0, "rental_uris": {"ios": "https://dc.lft.to/lastmile_qr_scan", "android": "https://dc.lft.to/lastmile_qr_scan"}}, {"name": "8eff91e8af8c7253134a5e7b052f889a", "lon": -76.99778216666667, "lat": 38.844318333333334, "type": "electric_scooter", "fusion_lon": 0.0, "is_reserved": 0, "bike_id": "8eff91e8af8c7253134a5e7b052f889a", "fusion_lat": 0.0, "is_disabled": 0, "rental_uris": {"ios": "https://dc.lft.to/lastmile_qr_scan", "android": "https://dc.lft.to/lastmile_qr_scan"}}, {"name": "4bbcfe946ae3b80525c2570d4e4e280e", "lon": -76.98309083333334, "lat": 38.86895283333333, "type": "electric_scooter", "fusion_lon": 0.0, "is_reserved": 0, "bike_id": "4bbcfe946ae3b80525c2570d4e4e280e", "fusion_lat": 0.0, "is_disabled": 0, "rental_uris": {"ios": "https://dc.lft.to/lastmile_qr_scan", "android": "https://dc.lft.to/lastmile_qr_scan"}}, {"name": "b6e94887decc2d4b53c736a9a017798b", "lon": -77.02800283333333, "lat": 38.96083983333333, "type": "electric_scooter", "fusion_lon": 0.0, "is_reserved": 0, "bike_id": "b6e94887decc2d4b53c736a9a017798b", "fusion_lat": 0.0, "is_disabled": 0, "rental_uris": {"ios": "https://dc.lft.to/lastmile_qr_scan", "android": "https://dc.lft.to/lastmile_qr_scan"}}, {"name": "58766f08f5e52d0fbc434ea6c2af4361", "lon": -77.01166983333333, "lat": 38.9169615, "type": "electric_scooter", "fusion_lon": 0.0, "is_reserved": 0, "bike_id": "58766f08f5e52d0fbc434ea6c2af4361", "fusion_lat": 0.0, "is_disabled": 0, "rental_uris": {"ios": "https://dc.lft.to/lastmile_qr_scan", "android": "https://dc.lft.to/lastmile_qr_scan"}}, {"name": "a443c2ef15f7f2f2cd6d7592d3e83105", "lon": -77.02900683333333, "lat": 38.917137, "type": "electric_scooter", "fusion_lon": 0.0, "is_reserved": 0, "bike_id": "a443c2ef15f7f2f2cd6d7592d3e83105", "fusion_lat": 0.0, "is_disabled": 0, "rental_uris": {"ios": "https://dc.lft.to/lastmile_qr_scan", "android": "https://dc.lft.to/lastmile_qr_scan"}}, {"name": "a685c5a46a0af36c8472292887cacc2b", "lon": -77.0304905, "lat": 38.88410666666667, "type": "electric_scooter", "fusion_lon": 0.0, "is_reserved": 0, "bike_id": "a685c5a46a0af36c8472292887cacc2b", "fusion_lat": 0.0, "is_disabled": 0, "rental_uris": {"ios": "https://dc.lft.to/lastmile_qr_scan", "android": "https://dc.lft.to/lastmile_qr_scan"}}, {"name": "1b40f8116f9773a1b74a1d37d8488ba2", "lon": -77.02404233333333, "lat": 38.896485, "type": "electric_scooter", "fusion_lon": 0.0, "is_reserved": 0, "bike_id": "1b40f8116f9773a1b74a1d37d8488ba2", "fusion_lat": 0.0, "is_disabled": 0, "rental_uris": {"ios": "https://dc.lft.to/lastmile_qr_scan", "android": "https://dc.lft.to/lastmile_qr_scan"}}, {"name": "1190716d04822e9473d0cdfa1781082f", "lon": -77.04116466666666, "lat": 38.9059445, "type": "electric_scooter", "fusion_lon": 0.0, "is_reserved": 0, "bike_id": "1190716d04822e9473d0cdfa1781082f", "fusion_lat": 0.0, "is_disabled": 0, "rental_uris": {"ios": "https://dc.lft.to/lastmile_qr_scan", "android": "https://dc.lft.to/lastmile_qr_scan"}}, {"name": "657ba6e6219014cf7e4019d9ac505fed", "lon": -77.04168016666667, "lat": 38.920125166666665, "type": "electric_scooter", "fusion_lon": 0.0, "is_reserved": 0, "bike_id": "657ba6e6219014cf7e4019d9ac505fed", "fusion_lat": 0.0, "is_disabled": 0, "rental_uris": {"ios": "https://dc.lft.to/lastmile_qr_scan", "android": "https://dc.lft.to/lastmile_qr_scan"}}, {"name": "67d5c172956c5d7c18cae3ca39a5efd1", "lon": -77.03103766666666, "lat": 38.94646483333333, "type": "electric_scooter", "fusion_lon": 0.0, "is_reserved": 0, "bike_id": "67d5c172956c5d7c18cae3ca39a5efd1", "fusion_lat": 0.0, "is_disabled": 0, "rental_uris": {"ios": "https://dc.lft.to/lastmile_qr_scan", "android": "https://dc.lft.to/lastmile_qr_scan"}}, {"name": "e41fdbcebdb38ac49066a9e73ca376a4", "lon": -77.03890833333334, "lat": 38.91256933333333, "type": "electric_scooter", "fusion_lon": 0.0, "is_reserved": 0, "bike_id": "e41fdbcebdb38ac49066a9e73ca376a4", "fusion_lat": 0.0, "is_disabled": 0, "rental_uris": {"ios": "https://dc.lft.to/lastmile_qr_scan", "android": "https://dc.lft.to/lastmile_qr_scan"}}, {"name": "bfb12cacdb946f8c80b211c0e380edd5", "lon": -77.050767, "lat": 38.900986833333334, "type": "electric_scooter", "fusion_lon": 0.0, "is_reserved": 0, "bike_id": "bfb12cacdb946f8c80b211c0e380edd5", "fusion_lat": 0.0, "is_disabled": 0, "rental_uris": {"ios": "https://dc.lft.to/lastmile_qr_scan", "android": "https://dc.lft.to/lastmile_qr_scan"}}, {"name": "494331b69492592b8c9caf8d680aa11d", "lon": -77.03713466666666, "lat": 38.90368133333333, "type": "electric_scooter", "fusion_lon": 0.0, "is_reserved": 0, "bike_id": "494331b69492592b8c9caf8d680aa11d", "fusion_lat": 0.0, "is_disabled": 0, "rental_uris": {"ios": "https://dc.lft.to/lastmile_qr_scan", "android": "https://dc.lft.to/lastmile_qr_scan"}}, {"name": "2afbc334ec1dc4746eb3453649be0fb4", "lon": -77.117063, "lat": 38.867485, "type": "electric_bike", "fusion_lon": 0.0, "is_reserved": 0, "bike_id": "2afbc334ec1dc4746eb3453649be0fb4", "fusion_lat": 0.0, "is_disabled": 0, "rental_uris": {"ios": "https://dc.lft.to/lastmile_qr_scan", "android": "https://dc.lft.to/lastmile_qr_scan"}}, {"name": "e1d62da9287ad690cf3ea43f2ebd1329", "lon": -77.031913, "lat": 38.90457033333333, "type": "electric_scooter", "fusion_lon": 0.0, "is_reserved": 0, "bike_id": "e1d62da9287ad690cf3ea43f2ebd1329", "fusion_lat": 0.0, "is_disabled": 0, "rental_uris": {"ios": "https://dc.lft.to/lastmile_qr_scan", "android": "https://dc.lft.to/lastmile_qr_scan"}}, {"name": "3e6fb1e9a72dc75a77779ac0501c5046", "lon": -77.00369466666666, "lat": 38.882693833333335, "type": "electric_scooter", "fusion_lon": 0.0, "is_reserved": 0, "bike_id": "3e6fb1e9a72dc75a77779ac0501c5046", "fusion_lat": 0.0, "is_disabled": 0, "rental_uris": {"ios": "https://dc.lft.to/lastmile_qr_scan", "android": "https://dc.lft.to/lastmile_qr_scan"}}, {"name": "e7175e7baf6ebfb534cd50260b22908a", "lon": -77.00205683333333, "lat": 38.819437, "type": "electric_bike", "fusion_lon": 0.0, "is_reserved": 0, "bike_id": "e7175e7baf6ebfb534cd50260b22908a", "fusion_lat": 0.0, "is_disabled": 0, "rental_uris": {"ios": "https://dc.lft.to/lastmile_qr_scan", "android": "https://dc.lft.to/lastmile_qr_scan"}}, {"name": "f72eac50cf74d6085adda55cf37e2d31", "lon": -77.063254, "lat": 38.944285666666666, "type": "electric_scooter", "fusion_lon": 0.0, "is_reserved": 0, "bike_id": "f72eac50cf74d6085adda55cf37e2d31", "fusion_lat": 0.0, "is_disabled": 0, "rental_uris": {"ios": "https://dc.lft.to/lastmile_qr_scan", "android": "https://dc.lft.to/lastmile_qr_scan"}}, {"name": "b8278c85f0cceb719389e1af10f10302", "lon": -77.02719816666666, "lat": 38.94958416666667, "type": "electric_scooter", "fusion_lon": 0.0, "is_reserved": 0, "bike_id": "b8278c85f0cceb719389e1af10f10302", "fusion_lat": 0.0, "is_disabled": 0, "rental_uris": {"ios": "https://dc.lft.to/lastmile_qr_scan", "android": "https://dc.lft.to/lastmile_qr_scan"}}, {"name": "2984f0ab01f3694a9a2304a1e1228db3", "lon": -76.98631366666666, "lat": 38.880457, "type": "electric_bike", "fusion_lon": 0.0, "is_reserved": 0, "bike_id": "2984f0ab01f3694a9a2304a1e1228db3", "fusion_lat": 0.0, "is_disabled": 0, "rental_uris": {"ios": "https://dc.lft.to/lastmile_qr_scan", "android": "https://dc.lft.to/lastmile_qr_scan"}}, {"name": "489694efab08f687bd5d5c7164ba7643", "lon": -77.00351666666667, "lat": 38.90736583333333, "type": "electric_scooter", "fusion_lon": 0.0, "is_reserved": 0, "bike_id": "489694efab08f687bd5d5c7164ba7643", "fusion_lat": 0.0, "is_disabled": 0, "rental_uris": {"ios": "https://dc.lft.to/lastmile_qr_scan", "android": "https://dc.lft.to/lastmile_qr_scan"}}, {"name": "5444d27c9675bd13e2976addee4fdf8d", "lon": -77.006562, "lat": 38.9446815, "type": "electric_scooter", "fusion_lon": 0.0, "is_reserved": 0, "bike_id": "5444d27c9675bd13e2976addee4fdf8d", "fusion_lat": 0.0, "is_disabled": 0, "rental_uris": {"ios": "https://dc.lft.to/lastmile_qr_scan", "android": "https://dc.lft.to/lastmile_qr_scan"}}, {"name": "fa6b380fafd21d87191fa043ce671f46", "lon": -77.032922, "lat": 38.90968316666667, "type": "electric_scooter", "fusion_lon": 0.0, "is_reserved": 0, "bike_id": "fa6b380fafd21d87191fa043ce671f46", "fusion_lat": 0.0, "is_disabled": 0, "rental_uris": {"ios": "https://dc.lft.to/lastmile_qr_scan", "android": "https://dc.lft.to/lastmile_qr_scan"}}, {"name": "4d18bdc4adf10fb6fa88f8e463a5df7a", "lon": -77.02167016666667, "lat": 38.89723716666666, "type": "electric_scooter", "fusion_lon": 0.0, "is_reserved": 0, "bike_id": "4d18bdc4adf10fb6fa88f8e463a5df7a", "fusion_lat": 0.0, "is_disabled": 0, "rental_uris": {"ios": "https://dc.lft.to/lastmile_qr_scan", "android": "https://dc.lft.to/lastmile_qr_scan"}}, {"name": "795aaa7812f55094a9ae457aa05eb441", "lon": -77.06928766666667, "lat": 38.9078395, "type": "electric_scooter", "fusion_lon": 0.0, "is_reserved": 0, "bike_id": "795aaa7812f55094a9ae457aa05eb441", "fusion_lat": 0.0, "is_disabled": 0, "rental_uris": {"ios": "https://dc.lft.to/lastmile_qr_scan", "android": "https://dc.lft.to/lastmile_qr_scan"}}, {"name": "fbeb949c74f3cc896a7a0be100984b5c", "lon": -77.03217516666666, "lat": 38.92032283333333, "type": "electric_scooter", "fusion_lon": 0.0, "is_reserved": 0, "bike_id": "fbeb949c74f3cc896a7a0be100984b5c", "fusion_lat": 0.0, "is_disabled": 0, "rental_uris": {"ios": "https://dc.lft.to/lastmile_qr_scan", "android": "https://dc.lft.to/lastmile_qr_scan"}}, {"name": "8c9ca0b168a8087d05e8b9b99861f9e6", "lon": -77.04625683333333, "lat": 38.915987333333334, "type": "electric_scooter", "fusion_lon": 0.0, "is_reserved": 0, "bike_id": "8c9ca0b168a8087d05e8b9b99861f9e6", "fusion_lat": 0.0, "is_disabled": 0, "rental_uris": {"ios": "https://dc.lft.to/lastmile_qr_scan", "android": "https://dc.lft.to/lastmile_qr_scan"}}, {"name": "320d5356a7d5d0579d17c64f205d28d6", "lon": -77.041019, "lat": 38.917716166666665, "type": "electric_scooter", "fusion_lon": 0.0, "is_reserved": 0, "bike_id": "320d5356a7d5d0579d17c64f205d28d6", "fusion_lat": 0.0, "is_disabled": 0, "rental_uris": {"ios": "https://dc.lft.to/lastmile_qr_scan", "android": "https://dc.lft.to/lastmile_qr_scan"}}, {"name": "b7c16b54d02bc87b89fec4fe16961c9f", "lon": -77.04996, "lat": 38.90529516666667, "type": "electric_scooter", "fusion_lon": 0.0, "is_reserved": 0, "bike_id": "b7c16b54d02bc87b89fec4fe16961c9f", "fusion_lat": 0.0, "is_disabled": 0, "rental_uris": {"ios": "https://dc.lft.to/lastmile_qr_scan", "android": "https://dc.lft.to/lastmile_qr_scan"}}, {"name": "a1d4ce4217aa3fe612cf0ae8d9ca7ed9", "lon": -77.0308495, "lat": 38.931642333333336, "type": "electric_scooter", "fusion_lon": 0.0, "is_reserved": 0, "bike_id": "a1d4ce4217aa3fe612cf0ae8d9ca7ed9", "fusion_lat": 0.0, "is_disabled": 0, "rental_uris": {"ios": "https://dc.lft.to/lastmile_qr_scan", "android": "https://dc.lft.to/lastmile_qr_scan"}}, {"name": "12ba41ae8dab128c909793cd5c3c5ae1", "lon": -77.025179, "lat": 38.938664333333335, "type": "electric_scooter", "fusion_lon": 0.0, "is_reserved": 0, "bike_id": "12ba41ae8dab128c909793cd5c3c5ae1", "fusion_lat": 0.0, "is_disabled": 0, "rental_uris": {"ios": "https://dc.lft.to/lastmile_qr_scan", "android": "https://dc.lft.to/lastmile_qr_scan"}}, {"name": "7e56214cc7c183b437c891565a17a8a4", "lon": -77.02810916666667, "lat": 38.881744166666664, "type": "electric_scooter", "fusion_lon": 0.0, "is_reserved": 0, "bike_id": "7e56214cc7c183b437c891565a17a8a4", "fusion_lat": 0.0, "is_disabled": 0, "rental_uris": {"ios": "https://dc.lft.to/lastmile_qr_scan", "android": "https://dc.lft.to/lastmile_qr_scan"}}, {"name": "c8e7b31e4c5a6281b8c27e82929cde0e", "lon": -77.00078833333333, "lat": 38.91630333333333, "type": "electric_scooter", "fusion_lon": 0.0, "is_reserved": 0, "bike_id": "c8e7b31e4c5a6281b8c27e82929cde0e", "fusion_lat": 0.0, "is_disabled": 0, "rental_uris": {"ios": "https://dc.lft.to/lastmile_qr_scan", "android": "https://dc.lft.to/lastmile_qr_scan"}}, {"name": "5b4518f2b033eafece3a60de9dfd8487", "lon": -77.025865, "lat": 38.92043316666667, "type": "electric_scooter", "fusion_lon": 0.0, "is_reserved": 0, "bike_id": "5b4518f2b033eafece3a60de9dfd8487", "fusion_lat": 0.0, "is_disabled": 0, "rental_uris": {"ios": "https://dc.lft.to/lastmile_qr_scan", "android": "https://dc.lft.to/lastmile_qr_scan"}}, {"name": "83cc568d6549d6d89fe1ec899e8e0b2b", "lon": -77.03503416666666, "lat": 38.926381166666665, "type": "electric_scooter", "fusion_lon": 0.0, "is_reserved": 0, "bike_id": "83cc568d6549d6d89fe1ec899e8e0b2b", "fusion_lat": 0.0, "is_disabled": 0, "rental_uris": {"ios": "https://dc.lft.to/lastmile_qr_scan", "android": "https://dc.lft.to/lastmile_qr_scan"}}, {"name": "0f29bf433457c2c2d4ff5c0f83a6b751", "lon": -77.0175585, "lat": 38.90130883333333, "type": "electric_scooter", "fusion_lon": 0.0, "is_reserved": 0, "bike_id": "0f29bf433457c2c2d4ff5c0f83a6b751", "fusion_lat": 0.0, "is_disabled": 0, "rental_uris": {"ios": "https://dc.lft.to/lastmile_qr_scan", "android": "https://dc.lft.to/lastmile_qr_scan"}}, {"name": "b0e29a254301952ed5014af4efa2fd01", "lon": -76.99637016666667, "lat": 38.925637, "type": "electric_scooter", "fusion_lon": 0.0, "is_reserved": 0, "bike_id": "b0e29a254301952ed5014af4efa2fd01", "fusion_lat": 0.0, "is_disabled": 0, "rental_uris": {"ios": "https://dc.lft.to/lastmile_qr_scan", "android": "https://dc.lft.to/lastmile_qr_scan"}}, {"name": "f934927338163c7546011af8061bd0b7", "lon": -77.0346205, "lat": 38.90752916666667, "type": "electric_scooter", "fusion_lon": 0.0, "is_reserved": 0, "bike_id": "f934927338163c7546011af8061bd0b7", "fusion_lat": 0.0, "is_disabled": 0, "rental_uris": {"ios": "https://dc.lft.to/lastmile_qr_scan", "android": "https://dc.lft.to/lastmile_qr_scan"}}, {"name": "c0d7af0531d20e8be23a2f3910f7549a", "lon": -77.02596766666667, "lat": 38.8833745, "type": "electric_scooter", "fusion_lon": 0.0, "is_reserved": 0, "bike_id": "c0d7af0531d20e8be23a2f3910f7549a", "fusion_lat": 0.0, "is_disabled": 0, "rental_uris": {"ios": "https://dc.lft.to/lastmile_qr_scan", "android": "https://dc.lft.to/lastmile_qr_scan"}}, {"name": "ff1e0491cc0715a16ab21b932fd8a50e", "lon": -77.03700316666666, "lat": 38.926495, "type": "electric_scooter", "fusion_lon": 0.0, "is_reserved": 0, "bike_id": "ff1e0491cc0715a16ab21b932fd8a50e", "fusion_lat": 0.0, "is_disabled": 0, "rental_uris": {"ios": "https://dc.lft.to/lastmile_qr_scan", "android": "https://dc.lft.to/lastmile_qr_scan"}}, {"name": "f2596760b5655143f13228ba2ac79d55", "lon": -77.0396075, "lat": 38.90618416666667, "type": "electric_scooter", "fusion_lon": 0.0, "is_reserved": 0, "bike_id": "f2596760b5655143f13228ba2ac79d55", "fusion_lat": 0.0, "is_disabled": 0, "rental_uris": {"ios": "https://dc.lft.to/lastmile_qr_scan", "android": "https://dc.lft.to/lastmile_qr_scan"}}, {"name": "0504dc0f9c7adf0a78b75a50561a4165", "lon": -77.032479, "lat": 38.91567083333333, "type": "electric_scooter", "fusion_lon": 0.0, "is_reserved": 0, "bike_id": "0504dc0f9c7adf0a78b75a50561a4165", "fusion_lat": 0.0, "is_disabled": 0, "rental_uris": {"ios": "https://dc.lft.to/lastmile_qr_scan", "android": "https://dc.lft.to/lastmile_qr_scan"}}, {"name": "4bea39917f4bc3c3fe7d68581606c6f2", "lon": -77.0118115, "lat": 38.87697416666666, "type": "electric_bike", "fusion_lon": 0.0, "is_reserved": 0, "bike_id": "4bea39917f4bc3c3fe7d68581606c6f2", "fusion_lat": 0.0, "is_disabled": 0, "rental_uris": {"ios": "https://dc.lft.to/lastmile_qr_scan", "android": "https://dc.lft.to/lastmile_qr_scan"}}, {"name": "555a618f2d2bdfabf2093eaf2c7df181", "lon": -77.00463916666666, "lat": 38.9113535, "type": "electric_scooter", "fusion_lon": 0.0, "is_reserved": 0, "bike_id": "555a618f2d2bdfabf2093eaf2c7df181", "fusion_lat": 0.0, "is_disabled": 0, "rental_uris": {"ios": "https://dc.lft.to/lastmile_qr_scan", "android": "https://dc.lft.to/lastmile_qr_scan"}}, {"name": "1c442979cf4718a10e778530f62b5f8e", "lon": -76.99758583333333, "lat": 38.887649, "type": "electric_scooter", "fusion_lon": 0.0, "is_reserved": 0, "bike_id": "1c442979cf4718a10e778530f62b5f8e", "fusion_lat": 0.0, "is_disabled": 0, "rental_uris": {"ios": "https://dc.lft.to/lastmile_qr_scan", "android": "https://dc.lft.to/lastmile_qr_scan"}}, {"name": "e66007b6c24b168450a06341f11194e6", "lon": -77.04096733333333, "lat": 38.917790833333335, "type": "electric_scooter", "fusion_lon": 0.0, "is_reserved": 0, "bike_id": "e66007b6c24b168450a06341f11194e6", "fusion_lat": 0.0, "is_disabled": 0, "rental_uris": {"ios": "https://dc.lft.to/lastmile_qr_scan", "android": "https://dc.lft.to/lastmile_qr_scan"}}, {"name": "c7147961c822452c6f9c1900838bfe5c", "lon": -77.01774066666667, "lat": 38.982712, "type": "electric_bike", "fusion_lon": 0.0, "is_reserved": 0, "bike_id": "c7147961c822452c6f9c1900838bfe5c", "fusion_lat": 0.0, "is_disabled": 0, "rental_uris": {"ios": "https://dc.lft.to/lastmile_qr_scan", "android": "https://dc.lft.to/lastmile_qr_scan"}}, {"name": "345324d330a65ac4550e1a67d5803fac", "lon": -76.9780845, "lat": 38.89456966666667, "type": "electric_scooter", "fusion_lon": 0.0, "is_reserved": 0, "bike_id": "345324d330a65ac4550e1a67d5803fac", "fusion_lat": 0.0, "is_disabled": 0, "rental_uris": {"ios": "https://dc.lft.to/lastmile_qr_scan", "android": "https://dc.lft.to/lastmile_qr_scan"}}, {"name": "e07573790c835ca816fa0496ff8107e2", "lon": -77.03149283333333, "lat": 38.927927833333335, "type": "electric_scooter", "fusion_lon": 0.0, "is_reserved": 0, "bike_id": "e07573790c835ca816fa0496ff8107e2", "fusion_lat": 0.0, "is_disabled": 0, "rental_uris": {"ios": "https://dc.lft.to/lastmile_qr_scan", "android": "https://dc.lft.to/lastmile_qr_scan"}}, {"name": "4ccf1e55de21ed9b61bae278ca976c2c", "lon": -77.04626883333333, "lat": 38.923319666666664, "type": "electric_scooter", "fusion_lon": 0.0, "is_reserved": 0, "bike_id": "4ccf1e55de21ed9b61bae278ca976c2c", "fusion_lat": 0.0, "is_disabled": 0, "rental_uris": {"ios": "https://dc.lft.to/lastmile_qr_scan", "android": "https://dc.lft.to/lastmile_qr_scan"}}, {"name": "790e1773055449d4b559df268b34007e", "lon": -77.041838, "lat": 38.89225916666667, "type": "electric_scooter", "fusion_lon": 0.0, "is_reserved": 0, "bike_id": "790e1773055449d4b559df268b34007e", "fusion_lat": 0.0, "is_disabled": 0, "rental_uris": {"ios": "https://dc.lft.to/lastmile_qr_scan", "android": "https://dc.lft.to/lastmile_qr_scan"}}, {"name": "b3a3e20376aaa1c5116dbaf45e5b376a", "lon": -77.03287416666667, "lat": 38.92873083333333, "type": "electric_scooter", "fusion_lon": 0.0, "is_reserved": 0, "bike_id": "b3a3e20376aaa1c5116dbaf45e5b376a", "fusion_lat": 0.0, "is_disabled": 0, "rental_uris": {"ios": "https://dc.lft.to/lastmile_qr_scan", "android": "https://dc.lft.to/lastmile_qr_scan"}}, {"name": "cf3605b69791be81e6b8ffd031375138", "lon": -77.02323133333333, "lat": 38.89738216666667, "type": "electric_scooter", "fusion_lon": 0.0, "is_reserved": 0, "bike_id": "cf3605b69791be81e6b8ffd031375138", "fusion_lat": 0.0, "is_disabled": 0, "rental_uris": {"ios": "https://dc.lft.to/lastmile_qr_scan", "android": "https://dc.lft.to/lastmile_qr_scan"}}, {"name": "ec841e39cf72efea6b67ccd43ac7b5c1", "lon": -76.98197016666667, "lat": 38.985102, "type": "electric_bike", "fusion_lon": 0.0, "is_reserved": 0, "bike_id": "ec841e39cf72efea6b67ccd43ac7b5c1", "fusion_lat": 0.0, "is_disabled": 0, "rental_uris": {"ios": "https://dc.lft.to/lastmile_qr_scan", "android": "https://dc.lft.to/lastmile_qr_scan"}}, {"name": "20bb70b4a30f4afb4047a77525c6b968", "lon": -76.946815, "lat": 38.8862915, "type": "electric_scooter", "fusion_lon": 0.0, "is_reserved": 0, "bike_id": "20bb70b4a30f4afb4047a77525c6b968", "fusion_lat": 0.0, "is_disabled": 0, "rental_uris": {"ios": "https://dc.lft.to/lastmile_qr_scan", "android": "https://dc.lft.to/lastmile_qr_scan"}}, {"name": "8ab72e5adf98361e86fff7be21d72aa1", "lon": -77.03246066666667, "lat": 38.929973, "type": "electric_scooter", "fusion_lon": 0.0, "is_reserved": 0, "bike_id": "8ab72e5adf98361e86fff7be21d72aa1", "fusion_lat": 0.0, "is_disabled": 0, "rental_uris": {"ios": "https://dc.lft.to/lastmile_qr_scan", "android": "https://dc.lft.to/lastmile_qr_scan"}}, {"name": "18feed9391b1bb4aa38550b706084c71", "lon": -77.02372183333334, "lat": 38.920002833333335, "type": "electric_scooter", "fusion_lon": 0.0, "is_reserved": 0, "bike_id": "18feed9391b1bb4aa38550b706084c71", "fusion_lat": 0.0, "is_disabled": 0, "rental_uris": {"ios": "https://dc.lft.to/lastmile_qr_scan", "android": "https://dc.lft.to/lastmile_qr_scan"}}, {"name": "fe29ba7e04a0a922455297ca258fd01a", "lon": -77.01216183333334, "lat": 38.91698983333333, "type": "electric_scooter", "fusion_lon": 0.0, "is_reserved": 0, "bike_id": "fe29ba7e04a0a922455297ca258fd01a", "fusion_lat": 0.0, "is_disabled": 0, "rental_uris": {"ios": "https://dc.lft.to/lastmile_qr_scan", "android": "https://dc.lft.to/lastmile_qr_scan"}}, {"name": "ff9a275cadb4df5acb5f96e313d44fbd", "lon": -77.03499133333334, "lat": 38.96384333333334, "type": "electric_scooter", "fusion_lon": 0.0, "is_reserved": 0, "bike_id": "ff9a275cadb4df5acb5f96e313d44fbd", "fusion_lat": 0.0, "is_disabled": 0, "rental_uris": {"ios": "https://dc.lft.to/lastmile_qr_scan", "android": "https://dc.lft.to/lastmile_qr_scan"}}, {"name": "6af0d975c4671f74434555b92b443401", "lon": -76.94942, "lat": 38.894979666666664, "type": "electric_scooter", "fusion_lon": 0.0, "is_reserved": 0, "bike_id": "6af0d975c4671f74434555b92b443401", "fusion_lat": 0.0, "is_disabled": 0, "rental_uris": {"ios": "https://dc.lft.to/lastmile_qr_scan", "android": "https://dc.lft.to/lastmile_qr_scan"}}, {"name": "7007b2c4f99ee5fac474a6412998b7a1", "lon": -77.03175783333333, "lat": 38.898308, "type": "electric_scooter", "fusion_lon": 0.0, "is_reserved": 0, "bike_id": "7007b2c4f99ee5fac474a6412998b7a1", "fusion_lat": 0.0, "is_disabled": 0, "rental_uris": {"ios": "https://dc.lft.to/lastmile_qr_scan", "android": "https://dc.lft.to/lastmile_qr_scan"}}, {"name": "ecd27269b3917ab82ef0ba97c19cdffd", "lon": -77.02301, "lat": 38.920882, "type": "electric_scooter", "fusion_lon": 0.0, "is_reserved": 0, "bike_id": "ecd27269b3917ab82ef0ba97c19cdffd", "fusion_lat": 0.0, "is_disabled": 0, "rental_uris": {"ios": "https://dc.lft.to/lastmile_qr_scan", "android": "https://dc.lft.to/lastmile_qr_scan"}}, {"name": "6c5d782e5646e92acfebece37f7bda6f", "lon": -76.99702733333334, "lat": 38.84429133333333, "type": "electric_scooter", "fusion_lon": 0.0, "is_reserved": 0, "bike_id": "6c5d782e5646e92acfebece37f7bda6f", "fusion_lat": 0.0, "is_disabled": 0, "rental_uris": {"ios": "https://dc.lft.to/lastmile_qr_scan", "android": "https://dc.lft.to/lastmile_qr_scan"}}, {"name": "9bed312f506702a443dc8faf1a89feec", "lon": -77.02884366666666, "lat": 38.90047716666667, "type": "electric_scooter", "fusion_lon": 0.0, "is_reserved": 0, "bike_id": "9bed312f506702a443dc8faf1a89feec", "fusion_lat": 0.0, "is_disabled": 0, "rental_uris": {"ios": "https://dc.lft.to/lastmile_qr_scan", "android": "https://dc.lft.to/lastmile_qr_scan"}}, {"name": "f52d637e76e5af0dacd05ec041f69586", "lon": -77.04852216666667, "lat": 38.9196445, "type": "electric_scooter", "fusion_lon": 0.0, "is_reserved": 0, "bike_id": "f52d637e76e5af0dacd05ec041f69586", "fusion_lat": 0.0, "is_disabled": 0, "rental_uris": {"ios": "https://dc.lft.to/lastmile_qr_scan", "android": "https://dc.lft.to/lastmile_qr_scan"}}, {"name": "4ccd9de4368d532b125204533e04caa3", "lon": -77.023771, "lat": 38.933561, "type": "electric_scooter", "fusion_lon": 0.0, "is_reserved": 0, "bike_id": "4ccd9de4368d532b125204533e04caa3", "fusion_lat": 0.0, "is_disabled": 0, "rental_uris": {"ios": "https://dc.lft.to/lastmile_qr_scan", "android": "https://dc.lft.to/lastmile_qr_scan"}}, {"name": "fde40eab579ca585d34b607e0fad121a", "lon": -77.0363955, "lat": 38.90381333333333, "type": "electric_scooter", "fusion_lon": 0.0, "is_reserved": 0, "bike_id": "fde40eab579ca585d34b607e0fad121a", "fusion_lat": 0.0, "is_disabled": 0, "rental_uris": {"ios": "https://dc.lft.to/lastmile_qr_scan", "android": "https://dc.lft.to/lastmile_qr_scan"}}, {"name": "4d9eab6c7e89c56182ef2ed62486b924", "lon": -77.03817633333334, "lat": 38.91492383333333, "type": "electric_scooter", "fusion_lon": 0.0, "is_reserved": 0, "bike_id": "4d9eab6c7e89c56182ef2ed62486b924", "fusion_lat": 0.0, "is_disabled": 0, "rental_uris": {"ios": "https://dc.lft.to/lastmile_qr_scan", "android": "https://dc.lft.to/lastmile_qr_scan"}}, {"name": "710a972600aa598a17023f67c25f86f5", "lon": -77.051157, "lat": 38.92345783333333, "type": "electric_scooter", "fusion_lon": 0.0, "is_reserved": 0, "bike_id": "710a972600aa598a17023f67c25f86f5", "fusion_lat": 0.0, "is_disabled": 0, "rental_uris": {"ios": "https://dc.lft.to/lastmile_qr_scan", "android": "https://dc.lft.to/lastmile_qr_scan"}}, {"name": "38804264819afc2d5b17b92da3d47827", "lon": -77.02692033333334, "lat": 38.91124933333333, "type": "electric_scooter", "fusion_lon": 0.0, "is_reserved": 0, "bike_id": "38804264819afc2d5b17b92da3d47827", "fusion_lat": 0.0, "is_disabled": 0, "rental_uris": {"ios": "https://dc.lft.to/lastmile_qr_scan", "android": "https://dc.lft.to/lastmile_qr_scan"}}, {"name": "bca0b4e8d162190e690ed90d021db7bd", "lon": -76.99808683333333, "lat": 38.885639166666664, "type": "electric_scooter", "fusion_lon": 0.0, "is_reserved": 0, "bike_id": "bca0b4e8d162190e690ed90d021db7bd", "fusion_lat": 0.0, "is_disabled": 0, "rental_uris": {"ios": "https://dc.lft.to/lastmile_qr_scan", "android": "https://dc.lft.to/lastmile_qr_scan"}}, {"name": "056ef21e753ff12d53bbba54b48a5b0d", "lon": -77.04807116666667, "lat": 38.910269166666666, "type": "electric_scooter", "fusion_lon": 0.0, "is_reserved": 0, "bike_id": "056ef21e753ff12d53bbba54b48a5b0d", "fusion_lat": 0.0, "is_disabled": 0, "rental_uris": {"ios": "https://dc.lft.to/lastmile_qr_scan", "android": "https://dc.lft.to/lastmile_qr_scan"}}, {"name": "eadf57e1dd229c5be6f038e0ddbc9523", "lon": -77.00195583333333, "lat": 38.902426166666665, "type": "electric_scooter", "fusion_lon": 0.0, "is_reserved": 0, "bike_id": "eadf57e1dd229c5be6f038e0ddbc9523", "fusion_lat": 0.0, "is_disabled": 0, "rental_uris": {"ios": "https://dc.lft.to/lastmile_qr_scan", "android": "https://dc.lft.to/lastmile_qr_scan"}}, {"name": "bb972370a7a19673dd627ee982d365b5", "lon": -77.00069066666667, "lat": 38.900285833333335, "type": "electric_scooter", "fusion_lon": 0.0, "is_reserved": 0, "bike_id": "bb972370a7a19673dd627ee982d365b5", "fusion_lat": 0.0, "is_disabled": 0, "rental_uris": {"ios": "https://dc.lft.to/lastmile_qr_scan", "android": "https://dc.lft.to/lastmile_qr_scan"}}, {"name": "63258d348e65308e015d7224ef79a121", "lon": -77.01833633333334, "lat": 38.94205016666667, "type": "electric_scooter", "fusion_lon": 0.0, "is_reserved": 0, "bike_id": "63258d348e65308e015d7224ef79a121", "fusion_lat": 0.0, "is_disabled": 0, "rental_uris": {"ios": "https://dc.lft.to/lastmile_qr_scan", "android": "https://dc.lft.to/lastmile_qr_scan"}}, {"name": "645dc02a88fbdc8d8e9fd584bc155f7f", "lon": -77.03204083333334, "lat": 38.918034, "type": "electric_scooter", "fusion_lon": 0.0, "is_reserved": 0, "bike_id": "645dc02a88fbdc8d8e9fd584bc155f7f", "fusion_lat": 0.0, "is_disabled": 0, "rental_uris": {"ios": "https://dc.lft.to/lastmile_qr_scan", "android": "https://dc.lft.to/lastmile_qr_scan"}}, {"name": "7433d8697ab2c485a46f2e023828c109", "lon": -77.05766016666666, "lat": 38.933841, "type": "electric_scooter", "fusion_lon": 0.0, "is_reserved": 0, "bike_id": "7433d8697ab2c485a46f2e023828c109", "fusion_lat": 0.0, "is_disabled": 0, "rental_uris": {"ios": "https://dc.lft.to/lastmile_qr_scan", "android": "https://dc.lft.to/lastmile_qr_scan"}}, {"name": "c3b15a369b7cb4a57b776423d7264558", "lon": -77.05100466666667, "lat": 38.902640166666664, "type": "electric_scooter", "fusion_lon": 0.0, "is_reserved": 0, "bike_id": "c3b15a369b7cb4a57b776423d7264558", "fusion_lat": 0.0, "is_disabled": 0, "rental_uris": {"ios": "https://dc.lft.to/lastmile_qr_scan", "android": "https://dc.lft.to/lastmile_qr_scan"}}, {"name": "5593742eeed38e1514313265af513c03", "lon": -77.039072, "lat": 38.918331333333334, "type": "electric_scooter", "fusion_lon": 0.0, "is_reserved": 0, "bike_id": "5593742eeed38e1514313265af513c03", "fusion_lat": 0.0, "is_disabled": 0, "rental_uris": {"ios": "https://dc.lft.to/lastmile_qr_scan", "android": "https://dc.lft.to/lastmile_qr_scan"}}, {"name": "27cc0facb453c738e5d324c3bebf7551", "lon": -76.98709616666666, "lat": 38.89670983333333, "type": "electric_scooter", "fusion_lon": 0.0, "is_reserved": 0, "bike_id": "27cc0facb453c738e5d324c3bebf7551", "fusion_lat": 0.0, "is_disabled": 0, "rental_uris": {"ios": "https://dc.lft.to/lastmile_qr_scan", "android": "https://dc.lft.to/lastmile_qr_scan"}}, {"name": "590f8f540f91bcfae63851aacf37a334", "lon": -77.03735516666667, "lat": 38.926935, "type": "electric_scooter", "fusion_lon": 0.0, "is_reserved": 0, "bike_id": "590f8f540f91bcfae63851aacf37a334", "fusion_lat": 0.0, "is_disabled": 0, "rental_uris": {"ios": "https://dc.lft.to/lastmile_qr_scan", "android": "https://dc.lft.to/lastmile_qr_scan"}},