{"data": {"bikes": [{"is_disabled": 0, "fusion_lon": 0.0, "fusion_lat": 0.0, "lat": 38.90550566666667, "type": "electric_scooter", "lon": -77.007036, "bike_id": "0849a019ea67a963871815b220445300", "rental_uris": {"android": "https://dc.lft.to/lastmile_qr_scan", "ios": "https://dc.lft.to/lastmile_qr_scan"}, "name": "0849a019ea67a963871815b220445300", "is_reserved": 0}, {"is_disabled": 0, "fusion_lon": 0.0, "fusion_lat": 0.0, "lat": 38.9520115, "type": "electric_bike", "lon": -77.02372816666667, "bike_id": "343f2472390494b69f3c16190977c13a", "rental_uris": {"android": "https://dc.lft.to/lastmile_qr_scan", "ios": "https://dc.lft.to/lastmile_qr_scan"}, "name": "343f2472390494b69f3c16190977c13a", "is_reserved": 0}, {"is_disabled": 0, "fusion_lon": 0.0, "fusion_lat": 0.0, "lat": 38.896011333333334, "type": "electric_scooter", "lon": -77.01118016666666, "bike_id": "5bf8bf62095572bc7ee4323309d5c63e", "rental_uris": {"android": "https://dc.lft.to/lastmile_qr_scan", "ios": "https://dc.lft.to/lastmile_qr_scan"}, "name": "5bf8bf62095572bc7ee4323309d5c63e", "is_reserved": 0}, {"is_disabled": 0, "fusion_lon": 0.0, "fusion_lat": 0.0, "lat": 38.90133383333333, "type": "electric_scooter", "lon": -77.0176195, "bike_id": "b1fd27ca3fcd17db3273ff7fe8ca0c5b", "rental_uris": {"android": "https://dc.lft.to/lastmile_qr_scan", "ios": "https://dc.lft.to/lastmile_qr_scan"}, "name": "b1fd27ca3fcd17db3273ff7fe8ca0c5b", "is_reserved": 0}, {"is_disabled": 0, "fusion_lon": 0.0, "fusion_lat": 0.0, "lat": 38.921199, "type": "electric_scooter", "lon": -77.0366035, "bike_id": "eaa06d9a9fe961b778a1f92aae06f99b", "rental_uris": {"android": "https://dc.lft.to/lastmile_qr_scan", "ios": "https://dc.lft.to/lastmile_qr_scan"}, "name": "eaa06d9a9fe961b778a1f92aae06f99b", "is_reserved": 0}, {"is_disabled": 0, "fusion_lon": 0.0, "fusion_lat": 0.0, "lat": 38.85063983333333, "type": "electric_bike", "lon": -76.9732795, "bike_id": "b6b434e2d228487e9b5ad14bda8c91a3", "rental_uris": {"android": "https://dc.lft.to/lastmile_qr_scan", "ios": "https://dc.lft.to/lastmile_qr_scan"}, "name": "b6b434e2d228487e9b5ad14bda8c91a3", "is_reserved": 0}, {"is_disabled": 0, "fusion_lon": 0.0, "fusion_lat": 0.0, "lat": 38.95249733333333, "type": "electric_bike", "lon": -77.0697745, "bike_id": "839a5e6c14b662bc9ee7e6a52529ef2b", "rental_uris": {"android": "https://dc.lft.to/lastmile_qr_scan", "ios": "https://dc.lft.to/lastmile_qr_scan"}, "name": "839a5e6c14b662bc9ee7e6a52529ef2b", "is_reserved": 0}, {"is_disabled": 0, "fusion_lon": 0.0, "fusion_lat": 0.0, "lat": 38.9036555, "type": "electric_scooter", "lon": -77.03506633333333, "bike_id": "15260ba6516ee99ab4e31009e65008c6", "rental_uris": {"android": "https://dc.lft.to/lastmile_qr_scan", "ios": "https://dc.lft.to/lastmile_qr_scan"}, "name": "15260ba6516ee99ab4e31009e65008c6", "is_reserved": 0}, {"is_disabled": 0, "fusion_lon": 0.0, "fusion_lat": 0.0, "lat": 38.90947116666667, "type": "electric_scooter", "lon": -77.04652583333333, "bike_id": "3c732131263e4137faec433b4fdd91d1", "rental_uris": {"android": "https://dc.lft.to/lastmile_qr_scan", "ios": "https://dc.lft.to/lastmile_qr_scan"}, "name": "3c732131263e4137faec433b4fdd91d1", "is_reserved": 0}, {"is_disabled": 0, "fusion_lon": 0.0, "fusion_lat": 0.0, "lat": 38.91388233333333, "type": "electric_scooter", "lon": -77.0385485, "bike_id": "cea6d0479e53144c427d1d344c451302", "rental_uris": {"android": "https://dc.lft.to/lastmile_qr_scan", "ios": "https://dc.lft.to/lastmile_qr_scan"}, "name": "cea6d0479e53144c427d1d344c451302", "is_reserved": 0}, {"is_disabled": 0, "fusion_lon": 0.0, "fusion_lat": 0.0, "lat": 38.95629816666667, "type": "electric_scooter", "lon": -77.02978133333333, "bike_id": "c3659dd82b265b5b06a107e276eac20e", "rental_uris": {"android": "https://dc.lft.to/lastmile_qr_scan", "ios": "https://dc.lft.to/lastmile_qr_scan"}, "name": "c3659dd82b265b5b06a107e276eac20e", "is_reserved": 0}, {"is_disabled": 0, "fusion_lon": 0.0, "fusion_lat": 0.0, "lat": 38.890371333333334, "type": "electric_scooter", "lon": -76.93754366666667, "bike_id": "1da37c842d25c3c87999004ec0b16297", "rental_uris": {"android": "https://dc.lft.to/lastmile_qr_scan", "ios": "https://dc.lft.to/lastmile_qr_scan"}, "name": "1da37c842d25c3c87999004ec0b16297", "is_reserved": 0}, {"is_disabled": 0, "fusion_lon": 0.0, "fusion_lat": 0.0, "lat": 38.988229, "type": "electric_bike", "lon": -76.98751133333333, "bike_id": "eea8da29e81c6cf5ec5ead630960cf49", "rental_uris": {"android": "https://dc.lft.to/lastmile_qr_scan", "ios": "https://dc.lft.to/lastmile_qr_scan"}, "name": "eea8da29e81c6cf5ec5ead630960cf49", "is_reserved": 0}, {"is_disabled": 0, "fusion_lon": 0.0, "fusion_lat": 0.0, "lat": 38.95216033333333, "type": "electric_scooter", "lon": -77.036303, "bike_id": "23f55a073e59dbddca2187f46817695a", "rental_uris": {"android": "https://dc.lft.to/lastmile_qr_scan", "ios": "https://dc.lft.to/lastmile_qr_scan"}, "name": "23f55a073e59dbddca2187f46817695a", "is_reserved": 0}, {"is_disabled": 0, "fusion_lon": 0.0, "fusion_lat": 0.0, "lat": 38.92032716666667, "type": "electric_scooter", "lon": -77.02580416666666, "bike_id": "282eab378dd310bc602b43899345c74a", "rental_uris": {"android": "https://dc.lft.to/lastmile_qr_scan", "ios": "https://dc.lft.to/lastmile_qr_scan"}, "name": "282eab378dd310bc602b43899345c74a", "is_reserved": 0}, {"is_disabled": 0, "fusion_lon": 0.0, "fusion_lat": 0.0, "lat": 38.89605533333334, "type": "electric_scooter", "lon": -77.02151716666667, "bike_id": "0852faec19dea0ab0c1ca43af7525466", "rental_uris": {"android": "https://dc.lft.to/lastmile_qr_scan", "ios": "https://dc.lft.to/lastmile_qr_scan"}, "name": "0852faec19dea0ab0c1ca43af7525466", "is_reserved": 0}, {"is_disabled": 0, "fusion_lon": 0.0, "fusion_lat": 0.0, "lat": 38.89521716666667, "type": "electric_scooter", "lon": -77.02845983333333, "bike_id": "c4997940c44ba92e2813d2a87cae4c5d", "rental_uris": {"android": "https://dc.lft.to/lastmile_qr_scan", "ios": "https://dc.lft.to/lastmile_qr_scan"}, "name": "c4997940c44ba92e2813d2a87cae4c5d", "is_reserved": 0}, {"is_disabled": 0, "fusion_lon": 0.0, "fusion_lat": 0.0, "lat": 38.887201166666664, "type": "electric_scooter", "lon": -76.996356, "bike_id": "9b1133b3c80041fd7937bd6e55f01b78", "rental_uris": {"android": "https://dc.lft.to/lastmile_qr_scan", "ios": "https://dc.lft.to/lastmile_qr_scan"}, "name": "9b1133b3c80041fd7937bd6e55f01b78", "is_reserved": 0}, {"is_disabled": 0, "fusion_lon": 0.0, "fusion_lat": 0.0, "lat": 38.885112, "type": "electric_scooter", "lon": -76.99847, "bike_id": "995b733efbe371d9928181cf597d6b55", "rental_uris": {"android": "https://dc.lft.to/lastmile_qr_scan", "ios": "https://dc.lft.to/lastmile_qr_scan"}, "name": "995b733efbe371d9928181cf597d6b55", "is_reserved": 0}, {"is_disabled": 0, "fusion_lon": 0.0, "fusion_lat": 0.0, "lat": 38.915352166666665, "type": "electric_scooter", "lon": -77.03203983333333, "bike_id": "e7719ebedfef950593c011012458f1b3", "rental_uris": {"android": "https://dc.lft.to/lastmile_qr_scan", "ios": "https://dc.lft.to/lastmile_qr_scan"}, "name": "e7719ebedfef950593c011012458f1b3", "is_reserved": 0}, {"is_disabled": 0, "fusion_lon": 0.0, "fusion_lat": 0.0, "lat": 38.931895, "type": "electric_scooter", "lon": -77.02829666666666, "bike_id": "8ec303740fb5972ca54b3aaa650a5e5f", "rental_uris": {"android": "https://dc.lft.to/lastmile_qr_scan", "ios": "https://dc.lft.to/lastmile_qr_scan"}, "name": "8ec303740fb5972ca54b3aaa650a5e5f", "is_reserved": 0}, {"is_disabled": 0, "fusion_lon": 0.0, "fusion_lat": 0.0, "lat": 38.901754333333336, "type": "electric_scooter", "lon": -76.92824766666666, "bike_id": "21c3598789ae671ff64dd90efe46f173", "rental_uris": {"android": "https://dc.lft.to/lastmile_qr_scan", "ios": "https://dc.lft.to/lastmile_qr_scan"}, "name": "21c3598789ae671ff64dd90efe46f173", "is_reserved": 0}, {"is_disabled": 0, "fusion_lon": 0.0, "fusion_lat": 0.0, "lat": 38.910886166666664, "type": "electric_scooter", "lon": -77.03850966666667, "bike_id": "c75a80cf22cbedc4609ee422a4912784", "rental_uris": {"android": "https://dc.lft.to/lastmile_qr_scan", "ios": "https://dc.lft.to/lastmile_qr_scan"}, "name": "c75a80cf22cbedc4609ee422a4912784", "is_reserved": 0}, {"is_disabled": 0, "fusion_lon": 0.0, "fusion_lat": 0.0, "lat": 38.94788416666667, "type": "electric_scooter", "lon": -77.09274733333334, "bike_id": "63fa6ab25268534affdd9c5322f06c18", "rental_uris": {"android": "https://dc.lft.to/lastmile_qr_scan", "ios": "https://dc.lft.to/lastmile_qr_scan"}, "name": "63fa6ab25268534affdd9c5322f06c18", "is_reserved": 0}, {"is_disabled": 0, "fusion_lon": 0.0, "fusion_lat": 0.0, "lat": 38.865734833333335, "type": "electric_scooter", "lon": -76.99040083333334, "bike_id": "eebc4e13d11b9428fefc167fe6bacfdd", "rental_uris": {"android": "https://dc.lft.to/lastmile_qr_scan", "ios": "https://dc.lft.to/lastmile_qr_scan"}, "name": "eebc4e13d11b9428fefc167fe6bacfdd", "is_reserved": 0}, {"is_disabled": 0, "fusion_lon": 0.0, "fusion_lat": 0.0, "lat": 38.90528283333333, "type": "electric_scooter", "lon": -77.02976733333334, "bike_id": "03a5be8cc5e7881cc81129018ec27c8e", "rental_uris": {"android": "https://dc.lft.to/lastmile_qr_scan", "ios": "https://dc.lft.to/lastmile_qr_scan"}, "name": "03a5be8cc5e7881cc81129018ec27c8e", "is_reserved": 0}, {"is_disabled": 0, "fusion_lon": 0.0, "fusion_lat": 0.0, "lat": 38.9187105, "type": "electric_bike", "lon": -76.96125833333333, "bike_id": "e555e1658ff1ae48eab2fe200c19e956", "rental_uris": {"android": "https://dc.lft.to/lastmile_qr_scan", "ios": "https://dc.lft.to/lastmile_qr_scan"}, "name": "e555e1658ff1ae48eab2fe200c19e956", "is_reserved": 0}, {"is_disabled": 0, "fusion_lon": 0.0, "fusion_lat": 0.0, "lat": 38.91561816666667, "type": "electric_scooter", "lon": -77.0327925, "bike_id": "b834efbeabd77be6234bc9e14175d751", "rental_uris": {"android": "https://dc.lft.to/lastmile_qr_scan", "ios": "https://dc.lft.to/lastmile_qr_scan"}, "name": "b834efbeabd77be6234bc9e14175d751", "is_reserved": 0}, {"is_disabled": 0, "fusion_lon": 0.0, "fusion_lat": 0.0, "lat": 38.8961535, "type": "electric_scooter", "lon": -76.99637783333333, "bike_id": "005ee04bca522e48fad946eb064cc34f", "rental_uris": {"android": "https://dc.lft.to/lastmile_qr_scan", "ios": "https://dc.lft.to/lastmile_qr_scan"}, "name": "005ee04bca522e48fad946eb064cc34f", "is_reserved": 0}, {"is_disabled": 0, "fusion_lon": 0.0, "fusion_lat": 0.0, "lat": 38.9125725, "type": "electric_scooter", "lon": -77.03266916666666, "bike_id": "ebd15c96c3d328466e299e65b5db314b", "rental_uris": {"android": "https://dc.lft.to/lastmile_qr_scan", "ios": "https://dc.lft.to/lastmile_qr_scan"}, "name": "ebd15c96c3d328466e299e65b5db314b", "is_reserved": 0}, {"is_disabled": 0, "fusion_lon": 0.0, "fusion_lat": 0.0, "lat": 38.9169175, "type": "electric_scooter", "lon": -77.02719533333334, "bike_id": "3c422532f7428457325989d4c68ec72d", "rental_uris": {"android": "https://dc.lft.to/lastmile_qr_scan", "ios": "https://dc.lft.to/lastmile_qr_scan"}, "name": "3c422532f7428457325989d4c68ec72d", "is_reserved": 0}, {"is_disabled": 0, "fusion_lon": 0.0, "fusion_lat": 0.0, "lat": 38.8428935, "type": "electric_scooter", "lon": -76.99945733333334, "bike_id": "88d095549e5cc5eea7320a3991dd43ae", "rental_uris": {"android": "https://dc.lft.to/lastmile_qr_scan", "ios": "https://dc.lft.to/lastmile_qr_scan"}, "name": "88d095549e5cc5eea7320a3991dd43ae", "is_reserved": 0}, {"is_disabled": 0, "fusion_lon": 0.0, "fusion_lat": 0.0, "lat": 38.94036116666667, "type": "electric_scooter", "lon": -77.02507133333333, "bike_id": "e6731b20df84eb3956f064fac1dd0c82", "rental_uris": {"android": "https://dc.lft.to/lastmile_qr_scan", "ios": "https://dc.lft.to/lastmile_qr_scan"}, "name": "e6731b20df84eb3956f064fac1dd0c82", "is_reserved": 0}, {"is_disabled": 0, "fusion_lon": 0.0, "fusion_lat": 0.0, "lat": 39.030011333333334, "type": "electric_bike", "lon": -77.10650766666667, "bike_id": "ac532709f16e83d42352f1b430af9886", "rental_uris": {"android": "https://dc.lft.to/lastmile_qr_scan", "ios": "https://dc.lft.to/lastmile_qr_scan"}, "name": "ac532709f16e83d42352f1b430af9886", "is_reserved": 0}, {"is_disabled": 0, "fusion_lon": 0.0, "fusion_lat": 0.0, "lat": 38.91184116666667, "type": "electric_scooter", "lon": -77.01873533333334, "bike_id": "babdf286d37a03aebe0730c96eb2943c", "rental_uris": {"android": "https://dc.lft.to/lastmile_qr_scan", "ios": "https://dc.lft.to/lastmile_qr_scan"}, "name": "babdf286d37a03aebe0730c96eb2943c", "is_reserved": 0}, {"is_disabled": 0, "fusion_lon": 0.0, "fusion_lat": 0.0, "lat": 38.899520833333334, "type": "electric_scooter", "lon": -77.05222016666667, "bike_id": "6b7b8ab411959664ad6ade1c7f427c50", "rental_uris": {"android": "https://dc.lft.to/lastmile_qr_scan", "ios": "https://dc.lft.to/lastmile_qr_scan"}, "name": "6b7b8ab411959664ad6ade1c7f427c50", "is_reserved": 0}, {"is_disabled": 0, "fusion_lon": 0.0, "fusion_lat": 0.0, "lat": 38.925526833333336, "type": "electric_scooter", "lon": -77.05297416666667, "bike_id": "7ae62d41bb92db73ef5cacff4c253a19", "rental_uris": {"android": "https://dc.lft.to/lastmile_qr_scan", "ios": "https://dc.lft.to/lastmile_qr_scan"}, "name": "7ae62d41bb92db73ef5cacff4c253a19", "is_reserved": 0}, {"is_disabled": 0, "fusion_lon": 0.0, "fusion_lat": 0.0, "lat": 38.908318333333334, "type": "electric_scooter", "lon": -76.99702716666667, "bike_id": "cd40aae1b299b8d91e6aebc2f72128c9", "rental_uris": {"android": "https://dc.lft.to/lastmile_qr_scan", "ios": "https://dc.lft.to/lastmile_qr_scan"}, "name": "cd40aae1b299b8d91e6aebc2f72128c9", "is_reserved": 0}, {"is_disabled": 0, "fusion_lon": 0.0, "fusion_lat": 0.0, "lat": 38.90391566666667, "type": "electric_bike", "lon": -77.0485085, "bike_id": "7ea674236cc9a911282a55b269738941", "rental_uris": {"android": "https://dc.lft.to/lastmile_qr_scan", "ios": "https://dc.lft.to/lastmile_qr_scan"}, "name": "7ea674236cc9a911282a55b269738941", "is_reserved": 0}, {"is_disabled": 0, "fusion_lon": 0.0, "fusion_lat": 0.0, "lat": 38.905386666666665, "type": "electric_scooter", "lon": -77.05001716666666, "bike_id": "ec77146e284b20fe59fa1196f2971f01", "rental_uris": {"android": "https://dc.lft.to/lastmile_qr_scan", "ios": "https://dc.lft.to/lastmile_qr_scan"}, "name": "ec77146e284b20fe59fa1196f2971f01", "is_reserved": 0}, {"is_disabled": 0, "fusion_lon": 0.0, "fusion_lat": 0.0, "lat": 38.94295416666667, "type": "electric_scooter", "lon": -77.03349616666667, "bike_id": "c825f545beeb654365c2411a21400a26", "rental_uris": {"android": "https://dc.lft.to/lastmile_qr_scan", "ios": "https://dc.lft.to/lastmile_qr_scan"}, "name": "c825f545beeb654365c2411a21400a26", "is_reserved": 0}, {"is_disabled": 0, "fusion_lon": 0.0, "fusion_lat": 0.0, "lat": 38.935282666666666, "type": "electric_scooter", "lon": -77.020698, "bike_id": "c4091899980bf35a473db365256ee108", "rental_uris": {"android": "https://dc.lft.to/lastmile_qr_scan", "ios": "https://dc.lft.to/lastmile_qr_scan"}, "name": "c4091899980bf35a473db365256ee108", "is_reserved": 0}, {"is_disabled": 0, "fusion_lon": 0.0, "fusion_lat": 0.0, "lat": 38.93319266666666, "type": "electric_scooter", "lon": -77.029331, "bike_id": "153c93bf4b76e322d806e899c944434a", "rental_uris": {"android": "https://dc.lft.to/lastmile_qr_scan", "ios": "https://dc.lft.to/lastmile_qr_scan"}, "name": "153c93bf4b76e322d806e899c944434a", "is_reserved": 0}, {"is_disabled": 0, "fusion_lon": 0.0, "fusion_lat": 0.0, "lat": 38.89219116666666, "type": "electric_scooter", "lon": -77.01710033333333, "bike_id": "2bb5e46988ca42bcbd781cfe05b77e15", "rental_uris": {"android": "https://dc.lft.to/lastmile_qr_scan", "ios": "https://dc.lft.to/lastmile_qr_scan"}, "name": "2bb5e46988ca42bcbd781cfe05b77e15", "is_reserved": 0}, {"is_disabled": 0, "fusion_lon": 0.0, "fusion_lat": 0.0, "lat": 38.9052575, "type": "electric_scooter", "lon": -77.04901033333333, "bike_id": "637eda4cfe371c7cbde2323db54d20c4", "rental_uris": {"android": "https://dc.lft.to/lastmile_qr_scan", "ios": "https://dc.lft.to/lastmile_qr_scan"}, "name": "637eda4cfe371c7cbde2323db54d20c4", "is_reserved": 0}, {"is_disabled": 0, "fusion_lon": 0.0, "fusion_lat": 0.0, "lat": 38.90474733333333, "type": "electric_scooter", "lon": -77.04857683333333, "bike_id": "da765e808e0361725fce81527d0fb964", "rental_uris": {"android": "https://dc.lft.to/lastmile_qr_scan", "ios": "https://dc.lft.to/lastmile_qr_scan"}, "name": "da765e808e0361725fce81527d0fb964", "is_reserved": 0}, {"is_disabled": 0, "fusion_lon": 0.0, "fusion_lat": 0.0, "lat": 38.911139666666664, "type": "electric_scooter", "lon": -77.0223605, "bike_id": "c4f0fe213cd17f29fbf130306520fad0", "rental_uris": {"android": "https://dc.lft.to/lastmile_qr_scan", "ios": "https://dc.lft.to/lastmile_qr_scan"}, "name": "c4f0fe213cd17f29fbf130306520fad0", "is_reserved": 0}, {"is_disabled": 0, "fusion_lon": 0.0, "fusion_lat": 0.0, "lat": 38.91677333333333, "type": "electric_scooter", "lon": -77.0368625, "bike_id": "e886bb8613fd55093237727b4976019c", "rental_uris": {"android": "https://dc.lft.to/lastmile_qr_scan", "ios": "https://dc.lft.to/lastmile_qr_scan"}, "name": "e886bb8613fd55093237727b4976019c", "is_reserved": 0}, {"is_disabled": 0, "fusion_lon": 0.0, "fusion_lat": 0.0, "lat": 38.9419875, "type": "electric_scooter", "lon": -77.02573683333334, "bike_id": "48b35b62d4ed7864317ae5f6a28f2bc3", "rental_uris": {"android": "https://dc.lft.to/lastmile_qr_scan", "ios": "https://dc.lft.to/lastmile_qr_scan"}, "name": "48b35b62d4ed7864317ae5f6a28f2bc3", "is_reserved": 0}, {"is_disabled": 0, "fusion_lon": 0.0, "fusion_lat": 0.0, "lat": 38.949742, "type": "electric_scooter", "lon": -77.06766716666667, "bike_id": "6d231364bb066895b5f0b3df95d68cdc", "rental_uris": {"android": "https://dc.lft.to/lastmile_qr_scan", "ios": "https://dc.lft.to/lastmile_qr_scan"}, "name": "6d231364bb066895b5f0b3df95d68cdc", "is_reserved": 0}, {"is_disabled": 0, "fusion_lon": 0.0, "fusion_lat": 0.0, "lat": 39.00000333333333, "type": "electric_bike", "lon": -76.918006, "bike_id": "75f8e5245089f9dda19f0288f8822212", "rental_uris": {"android": "https://dc.lft.to/lastmile_qr_scan", "ios": "https://dc.lft.to/lastmile_qr_scan"}, "name": "75f8e5245089f9dda19f0288f8822212", "is_reserved": 0}, {"is_disabled": 0, "fusion_lon": 0.0, "fusion_lat": 0.0, "lat": 38.91979033333333, "type": "electric_scooter", "lon": -76.9731555, "bike_id": "ca1b7c26de073e69383a4e06a093da80", "rental_uris": {"android": "https://dc.lft.to/lastmile_qr_scan", "ios": "https://dc.lft.to/lastmile_qr_scan"}, "name": "ca1b7c26de073e69383a4e06a093da80", "is_reserved": 0}, {"is_disabled": 0, "fusion_lon": 0.0, "fusion_lat": 0.0, "lat": 38.910486, "type": "electric_scooter", "lon": -77.02292783333333, "bike_id": "80d255c29f7c48e8402def15141a45fe", "rental_uris": {"android": "https://dc.lft.to/lastmile_qr_scan", "ios": "https://dc.lft.to/lastmile_qr_scan"}, "name": "80d255c29f7c48e8402def15141a45fe", "is_reserved": 0}, {"is_disabled": 0, "fusion_lon": 0.0, "fusion_lat": 0.0, "lat": 38.923089833333336, "type": "electric_scooter", "lon": -77.04036366666666, "bike_id": "865af5043df381e870ef6166bda9d37c", "rental_uris": {"android": "https://dc.lft.to/lastmile_qr_scan", "ios": "https://dc.lft.to/lastmile_qr_scan"}, "name": "865af5043df381e870ef6166bda9d37c", "is_reserved": 0}, {"is_disabled": 0, "fusion_lon": 0.0, "fusion_lat": 0.0, "lat": 38.90386083333333, "type": "electric_scooter", "lon": -76.990035, "bike_id": "1041c7f3d8f12611549d5db1ef0a7baf", "rental_uris": {"android": "https://dc.lft.to/lastmile_qr_scan", "ios": "https://dc.lft.to/lastmile_qr_scan"}, "name": "1041c7f3d8f12611549d5db1ef0a7baf", "is_reserved": 0}, {"is_disabled": 0, "fusion_lon": 0.0, "fusion_lat": 0.0, "lat": 38.9331205, "type": "electric_scooter", "lon": -77.03259216666666, "bike_id": "75f98be899a9cee403b4e9bd6dfccdef", "rental_uris": {"android": "https://dc.lft.to/lastmile_qr_scan", "ios": "https://dc.lft.to/lastmile_qr_scan"}, "name": "75f98be899a9cee403b4e9bd6dfccdef", "is_reserved": 0}, {"is_disabled": 0, "fusion_lon": 0.0, "fusion_lat": 0.0, "lat": 38.87630766666667, "type": "electric_scooter", "lon": -77.01258533333333, "bike_id": "783e861d54ed6428aff89499bc731e4b", "rental_uris": {"android": "https://dc.lft.to/lastmile_qr_scan", "ios": "https://dc.lft.to/lastmile_qr_scan"}, "name": "783e861d54ed6428aff89499bc731e4b", "is_reserved": 0}, {"is_disabled": 0, "fusion_lon": 0.0, "fusion_lat": 0.0, "lat": 38.902535666666665, "type": "electric_scooter", "lon": -77.02419066666667, "bike_id": "d854e005d60ad6ab48c98ff93c27e613", "rental_uris": {"android": "https://dc.lft.to/lastmile_qr_scan", "ios": "https://dc.lft.to/lastmile_qr_scan"}, "name": "d854e005d60ad6ab48c98ff93c27e613", "is_reserved": 0}, {"is_disabled": 0, "fusion_lon": 0.0, "fusion_lat": 0.0, "lat": 38.924590333333335, "type": "electric_scooter", "lon": -77.02963383333334, "bike_id": "c224c15f0055838d074087f9d777a4e0", "rental_uris": {"android": "https://dc.lft.to/lastmile_qr_scan", "ios": "https://dc.lft.to/lastmile_qr_scan"}, "name": "c224c15f0055838d074087f9d777a4e0", "is_reserved": 0}, {"is_disabled": 0, "fusion_lon": 0.0, "fusion_lat": 0.0, "lat": 38.9462515, "type": "electric_bike", "lon": -76.934133, "bike_id": "ab67ac4ded3c0d78201f9826fef8ca4d", "rental_uris": {"android": "https://dc.lft.to/lastmile_qr_scan", "ios": "https://dc.lft.to/lastmile_qr_scan"}, "name": "ab67ac4ded3c0d78201f9826fef8ca4d", "is_reserved": 0}, {"is_disabled": 0, "fusion_lon": 0.0, "fusion_lat": 0.0, "lat": 38.91705316666667, "type": "electric_scooter", "lon": -77.0250415, "bike_id": "bc3a954647d8d22c8793335d6414c26c", "rental_uris": {"android": "https://dc.lft.to/lastmile_qr_scan", "ios": "https://dc.lft.to/lastmile_qr_scan"}, "name": "bc3a954647d8d22c8793335d6414c26c", "is_reserved": 0}, {"is_disabled": 0, "fusion_lon": 0.0, "fusion_lat": 0.0, "lat": 38.93712466666667, "type": "electric_scooter", "lon": -77.02428816666666, "bike_id": "ce5b604505c667b42a8c505e3b346956", "rental_uris": {"android": "https://dc.lft.to/lastmile_qr_scan", "ios": "https://dc.lft.to/lastmile_qr_scan"}, "name": "ce5b604505c667b42a8c505e3b346956", "is_reserved": 0}, {"is_disabled": 0, "fusion_lon": 0.0, "fusion_lat": 0.0, "lat": 38.892548833333336, "type": "electric_scooter", "lon": -76.9415145, "bike_id": "5634c473283c975e3ee88b76d63bfa3e", "rental_uris": {"android": "https://dc.lft.to/lastmile_qr_scan", "ios": "https://dc.lft.to/lastmile_qr_scan"}, "name": "5634c473283c975e3ee88b76d63bfa3e", "is_reserved": 0}, {"is_disabled": 0, "fusion_lon": 0.0, "fusion_lat": 0.0, "lat": 38.9187455, "type": "electric_scooter", "lon": -77.04180916666667, "bike_id": "ec04f3a57bed450d05d0f5c83aa60ec1", "rental_uris": {"android": "https://dc.lft.to/lastmile_qr_scan", "ios": "https://dc.lft.to/lastmile_qr_scan"}, "name": "ec04f3a57bed450d05d0f5c83aa60ec1", "is_reserved": 0}, {"is_disabled": 0, "fusion_lon": 0.0, "fusion_lat": 0.0, "lat": 38.907937, "type": "electric_scooter", "lon": -77.04333366666667, "bike_id": "d0d185e76289b2fc98d7cff3b11d1ff7", "rental_uris": {"android": "https://dc.lft.to/lastmile_qr_scan", "ios": "https://dc.lft.to/lastmile_qr_scan"}, "name": "d0d185e76289b2fc98d7cff3b11d1ff7", "is_reserved": 0}, {"is_disabled": 0, "fusion_lon": 0.0, "fusion_lat": 0.0, "lat": 38.9094755, "type": "electric_scooter", "lon": -77.01526433333333, "bike_id": "dde241a9202b2a6d2f35ca6e8ec5b08d", "rental_uris": {"android": "https://dc.lft.to/lastmile_qr_scan", "ios": "https://dc.lft.to/lastmile_qr_scan"}, "name": "dde241a9202b2a6d2f35ca6e8ec5b08d", "is_reserved": 0}, {"is_disabled": 0, "fusion_lon": 0.0, "fusion_lat": 0.0, "lat": 38.916896333333334, "type": "electric_scooter", "lon": -77.028734, "bike_id": "d5628fbfca48af0deefa51fd445b5931", "rental_uris": {"android": "https://dc.lft.to/lastmile_qr_scan", "ios": "https://dc.lft.to/lastmile_qr_scan"}, "name": "d5628fbfca48af0deefa51fd445b5931", "is_reserved": 0}, {"is_disabled": 0, "fusion_lon": 0.0, "fusion_lat": 0.0, "lat": 38.89388016666667, "type": "electric_scooter", "lon": -77.031389, "bike_id": "7ce314ea3294c260b3759c292d6d2ea2", "rental_uris": {"android": "https://dc.lft.to/lastmile_qr_scan", "ios": "https://dc.lft.to/lastmile_qr_scan"}, "name": "7ce314ea3294c260b3759c292d6d2ea2", "is_reserved": 0}, {"is_disabled": 0, "fusion_lon": 0.0, "fusion_lat": 0.0, "lat": 38.886402833333335, "type": "electric_scooter", "lon": -77.02249766666667, "bike_id": "ce55695671af108c64a2751dc12f5ffc", "rental_uris": {"android": "https://dc.lft.to/lastmile_qr_scan", "ios": "https://dc.lft.to/lastmile_qr_scan"}, "name": "ce55695671af108c64a2751dc12f5ffc", "is_reserved": 0}, {"is_disabled": 0, "fusion_lon": 0.0, "fusion_lat": 0.0, "lat": 38.990587166666664, "type": "electric_bike", "lon": -77.100239, "bike_id": "8a5c75dc7629772b1bc67401b7630284", "rental_uris": {"android": "https://dc.lft.to/lastmile_qr_scan", "ios": "https://dc.lft.to/lastmile_qr_scan"}, "name": "8a5c75dc7629772b1bc67401b7630284", "is_reserved": 0}, {"is_disabled": 0, "fusion_lon": 0.0, "fusion_lat": 0.0, "lat": 38.94570216666666, "type": "electric_bike", "lon": -76.9603065, "bike_id": "bb5c22042aff746a13d7c0eac299b677", "rental_uris": {"android": "https://dc.lft.to/lastmile_qr_scan", "ios": "https://dc.lft.to/lastmile_qr_scan"}, "name": "bb5c22042aff746a13d7c0eac299b677", "is_reserved": 0}, {"is_disabled": 0, "fusion_lon": 0.0, "fusion_lat": 0.0, "lat": 38.990924, "type": "electric_bike", "lon": -76.874953, "bike_id": "5f6462aa2881ae91be7e500b69eb192a", "rental_uris": {"android": "https://dc.lft.to/lastmile_qr_scan", "ios": "https://dc.lft.to/lastmile_qr_scan"}, "name": "5f6462aa2881ae91be7e500b69eb192a", "is_reserved": 0}, {"is_disabled": 0, "fusion_lon": 0.0, "fusion_lat": 0.0, "lat": 38.907216, "type": "electric_scooter", "lon": -77.04079083333333, "bike_id": "478ef858a64893ee036b0bf131e8143d", "rental_uris": {"android": "https://dc.lft.to/lastmile_qr_scan", "ios": "https://dc.lft.to/lastmile_qr_scan"}, "name": "478ef858a64893ee036b0bf131e8143d", "is_reserved": 0}, {"is_disabled": 0, "fusion_lon": 0.0, "fusion_lat": 0.0, "lat": 38.905391333333334, "type": "electric_scooter", "lon": -77.065267, "bike_id": "c4a59e7f39229c1a2b91c5a5338106ac", "rental_uris": {"android": "https://dc.lft.to/lastmile_qr_scan", "ios": "https://dc.lft.to/lastmile_qr_scan"}, "name": "c4a59e7f39229c1a2b91c5a5338106ac", "is_reserved": 0}, {"is_disabled": 0, "fusion_lon": 0.0, "fusion_lat": 0.0, "lat": 38.9560105, "type": "electric_scooter", "lon": -77.00980116666666, "bike_id": "00c3b5647074364bab371ea47944653c", "rental_uris": {"android": "https://dc.lft.to/lastmile_qr_scan", "ios": "https://dc.lft.to/lastmile_qr_scan"}, "name": "00c3b5647074364bab371ea47944653c", "is_reserved": 0}, {"is_disabled": 0, "fusion_lon": 0.0, "fusion_lat": 0.0, "lat": 38.93300416666666, "type": "electric_scooter", "lon": -77.02140933333334, "bike_id": "374adb2920b37be4ac68499308c7bec7", "rental_uris": {"android": "https://dc.lft.to/lastmile_qr_scan", "ios": "https://dc.lft.to/lastmile_qr_scan"}, "name": "374adb2920b37be4ac68499308c7bec7", "is_reserved": 0}, {"is_disabled": 0, "fusion_lon": 0.0, "fusion_lat": 0.0, "lat": 38.874919, "type": "electric_bike", "lon": -77.0489975, "bike_id": "157c5bf867d523161f617c217ed5c76e", "rental_uris": {"android": "https://dc.lft.to/lastmile_qr_scan", "ios": "https://dc.lft.to/lastmile_qr_scan"}, "name": "157c5bf867d523161f617c217ed5c76e", "is_reserved": 0}, {"is_disabled": 0, "fusion_lon": 0.0, "fusion_lat": 0.0, "lat": 38.962112833333336, "type": "electric_scooter", "lon": -77.02802583333333, "bike_id": "be2e1d9fb674efb4c2408d49ee777b40", "rental_uris": {"android": "https://dc.lft.to/lastmile_qr_scan", "ios": "https://dc.lft.to/lastmile_qr_scan"}, "name": "be2e1d9fb674efb4c2408d49ee777b40", "is_reserved": 0}, {"is_disabled": 0, "fusion_lon": 0.0, "fusion_lat": 0.0, "lat": 38.928489666666664, "type": "electric_scooter", "lon": -77.01438916666666, "bike_id": "db869d27118f3f3c6c818120e355ecd5", "rental_uris": {"android": "https://dc.lft.to/lastmile_qr_scan", "ios": "https://dc.lft.to/lastmile_qr_scan"}, "name": "db869d27118f3f3c6c818120e355ecd5", "is_reserved": 0}, {"is_disabled": 0, "fusion_lon": 0.0, "fusion_lat": 0.0, "lat": 38.8634975, "type": "electric_scooter", "lon": -76.9906735, "bike_id": "99869055356f7178e8b19afd2d5989cf", "rental_uris": {"android": "https://dc.lft.to/lastmile_qr_scan", "ios": "https://dc.lft.to/lastmile_qr_scan"}, "name": "99869055356f7178e8b19afd2d5989cf", "is_reserved": 0}, {"is_disabled": 0, "fusion_lon": 0.0, "fusion_lat": 0.0, "lat": 38.895952, "type": "electric_scooter", "lon": -77.026768, "bike_id": "0608d3c1288defff83871cd2ec5cf393", "rental_uris": {"android": "https://dc.lft.to/lastmile_qr_scan", "ios": "https://dc.lft.to/lastmile_qr_scan"}, "name": "0608d3c1288defff83871cd2ec5cf393", "is_reserved": 0}, {"is_disabled": 0, "fusion_lon": 0.0, "fusion_lat": 0.0, "lat": 38.9024865, "type": "electric_scooter", "lon": -77.02014116666666, "bike_id": "5db52c0eb3d4d9bc043471c2822ca6d6", "rental_uris": {"android": "https://dc.lft.to/lastmile_qr_scan", "ios": "https://dc.lft.to/lastmile_qr_scan"}, "name": "5db52c0eb3d4d9bc043471c2822ca6d6", "is_reserved": 0}, {"is_disabled": 0, "fusion_lon": 0.0, "fusion_lat": 0.0, "lat": 39.05262583333333, "type": "electric_bike", "lon": -77.04387716666666, "bike_id": "01bc267203bbeb2f9cb69d51c7e89bc3", "rental_uris": {"android": "https://dc.lft.to/lastmile_qr_scan", "ios": "https://dc.lft.to/lastmile_qr_scan"}, "name": "01bc267203bbeb2f9cb69d51c7e89bc3", "is_reserved": 0}, {"is_disabled": 0, "fusion_lon": 0.0, "fusion_lat": 0.0, "lat": 38.948987, "type": "electric_bike", "lon": -76.96368216666667, "bike_id": "34455b72bf187713332c2486a1056734", "rental_uris": {"android": "https://dc.lft.to/lastmile_qr_scan", "ios": "https://dc.lft.to/lastmile_qr_scan"}, "name": "34455b72bf187713332c2486a1056734", "is_reserved": 0}, {"is_disabled": 0, "fusion_lon": 0.0, "fusion_lat": 0.0, "lat": 38.92810266666667, "type": "electric_scooter", "lon": -77.0234555, "bike_id": "bdefe2bcb962df08737a8b6ba13d8388", "rental_uris": {"android": "https://dc.lft.to/lastmile_qr_scan", "ios": "https://dc.lft.to/lastmile_qr_scan"}, "name": "bdefe2bcb962df08737a8b6ba13d8388", "is_reserved": 0}, {"is_disabled": 0, "fusion_lon": 0.0, "fusion_lat": 0.0, "lat": 38.909662833333336, "type": "electric_scooter", "lon": -77.03955, "bike_id": "79dff524cc7e5938c5a3ff89cc6e1bb5", "rental_uris": {"android": "https://dc.lft.to/lastmile_qr_scan", "ios": "https://dc.lft.to/lastmile_qr_scan"}, "name": "79dff524cc7e5938c5a3ff89cc6e1bb5", "is_reserved": 0}, {"is_disabled": 0, "fusion_lon": 0.0, "fusion_lat": 0.0, "lat": 38.91701483333333, "type": "electric_scooter", "lon": -77.00110983333333, "bike_id": "7083a529b7925ca37ca2268a5d575af3", "rental_uris": {"android": "https://dc.lft.to/lastmile_qr_scan", "ios": "https://dc.lft.to/lastmile_qr_scan"}, "name": "7083a529b7925ca37ca2268a5d575af3", "is_reserved": 0}, {"is_disabled": 0, "fusion_lon": 0.0, "fusion_lat": 0.0, "lat": 38.922290833333335, "type": "electric_scooter", "lon": -77.043406, "bike_id": "548c07834c15ebfdcc376b923ee1b486", "rental_uris": {"android": "https://dc.lft.to/lastmile_qr_scan", "ios": "https://dc.lft.to/lastmile_qr_scan"}, "name": "548c07834c15ebfdcc376b923ee1b486", "is_reserved": 0}, {"is_disabled": 0, "fusion_lon": 0.0, "fusion_lat": 0.0, "lat": 38.91702433333333, "type": "electric_bike", "lon": -77.09563033333333, "bike_id": "4e13e5716064f458c2560cd81194a1cf", "rental_uris": {"android": "https://dc.lft.to/lastmile_qr_scan", "ios": "https://dc.lft.to/lastmile_qr_scan"}, "name": "4e13e5716064f458c2560cd81194a1cf", "is_reserved": 0}, {"is_disabled": 0, "fusion_lon": 0.0, "fusion_lat": 0.0, "lat": 38.916332, "type": "electric_scooter", "lon": -77.0228225, "bike_id": "3b13cdd4c51ea6a064f2fa5ca7bd4228", "rental_uris": {"android": "https://dc.lft.to/lastmile_qr_scan", "ios": "https://dc.lft.to/lastmile_qr_scan"}, "name": "3b13cdd4c51ea6a064f2fa5ca7bd4228", "is_reserved": 0}, {"is_disabled": 0, "fusion_lon": 0.0, "fusion_lat": 0.0, "lat": 38.894793666666665, "type": "electric_scooter", "lon": -76.99523083333334, "bike_id": "6e335352c5ab900f0c72b192ee969c33", "rental_uris": {"android": "https://dc.lft.to/lastmile_qr_scan", "ios": "https://dc.lft.to/lastmile_qr_scan"}, "name": "6e335352c5ab900f0c72b192ee969c33", "is_reserved": 0}, {"is_disabled": 0, "fusion_lon": 0.0, "fusion_lat": 0.0, "lat": 38.91688366666666, "type": "electric_scooter", "lon": -77.02846883333333, "bike_id": "69cded87c85472e9cdc6d75d15a87867", "rental_uris": {"android": "https://dc.lft.to/lastmile_qr_scan", "ios": "https://dc.lft.to/lastmile_qr_scan"}, "name": "69cded87c85472e9cdc6d75d15a87867", "is_reserved": 0}, {"is_disabled": 0, "fusion_lon": 0.0, "fusion_lat": 0.0, "lat": 38.9212185, "type": "electric_scooter", "lon": -77.02534883333334, "bike_id": "f733e4034ab7ce7da24f9cb5e3d6d661", "rental_uris": {"android": "https://dc.lft.to/lastmile_qr_scan", "ios": "https://dc.lft.to/lastmile_qr_scan"}, "name": "f733e4034ab7ce7da24f9cb5e3d6d661", "is_reserved": 0}, {"is_disabled": 0, "fusion_lon": 0.0, "fusion_lat": 0.0, "lat": 38.96212966666667, "type": "electric_scooter", "lon": -77.0280225, "bike_id": "0dd8163c15be17c9bdd48e2633bca0c8", "rental_uris": {"android": "https://dc.lft.to/lastmile_qr_scan", "ios": "https://dc.lft.to/lastmile_qr_scan"}, "name": "0dd8163c15be17c9bdd48e2633bca0c8", "is_reserved": 0}, {"is_disabled": 0, "fusion_lon": 0.0, "fusion_lat": 0.0, "lat": 38.92110866666667, "type": "electric_scooter", "lon": -77.01765483333334, "bike_id": "d20ebb5e16ceaabc64862d11352c70c9", "rental_uris": {"android": "https://dc.lft.to/lastmile_qr_scan", "ios": "https://dc.lft.to/lastmile_qr_scan"}, "name": "d20ebb5e16ceaabc64862d11352c70c9", "is_reserved": 0}, {"is_disabled": 0, "fusion_lon": 0.0, "fusion_lat": 0.0, "lat": 38.88743616666667, "type": "electric_scooter", "lon": -77.0173545, "bike_id": "ea939b4b76c8c5dd31731b2895a8e20f", "rental_uris": {"android": "https://dc.lft.to/lastmile_qr_scan", "ios": "https://dc.lft.to/lastmile_qr_scan"}, "name": "ea939b4b76c8c5dd31731b2895a8e20f", "is_reserved": 0}, {"is_disabled": 0, "fusion_lon": 0.0, "fusion_lat": 0.0, "lat": 38.89315416666667, "type": "electric_scooter", "lon": -77.0212135, "bike_id": "590ef73fdc6de6f343fed6e7a99a2f02", "rental_uris": {"android": "https://dc.lft.to/lastmile_qr_scan", "ios": "https://dc.lft.to/lastmile_qr_scan"}, "name": "590ef73fdc6de6f343fed6e7a99a2f02", "is_reserved": 0}, {"is_disabled": 0, "fusion_lon": 0.0, "fusion_lat": 0.0, "lat": 38.858083666666666, "type": "electric_scooter", "lon": -76.989654, "bike_id": "573c4cfa7e3b3ee44f204f984f1abadc", "rental_uris": {"android": "https://dc.lft.to/lastmile_qr_scan", "ios": "https://dc.lft.to/lastmile_qr_scan"}, "name": "573c4cfa7e3b3ee44f204f984f1abadc", "is_reserved": 0}, {"is_disabled": 0, "fusion_lon": 0.0, "fusion_lat": 0.0, "lat": 38.949805166666664, "type": "electric_scooter", "lon": -77.02702816666667, "bike_id": "3424cc24eb4ae821e2b39a9d3174d45f", "rental_uris": {"android": "https://dc.lft.to/lastmile_qr_scan", "ios": "https://dc.lft.to/lastmile_qr_scan"}, "name": "3424cc24eb4ae821e2b39a9d3174d45f", "is_reserved": 0}, {"is_disabled": 0, "fusion_lon": 0.0, "fusion_lat": 0.0, "lat": 38.865192666666665, "type": "electric_scooter", "lon": -76.973345, "bike_id": "3df66269f42b7bf6392594fa66058bcd", "rental_uris": {"android": "https://dc.lft.to/lastmile_qr_scan", "ios": "https://dc.lft.to/lastmile_qr_scan"}, "name": "3df66269f42b7bf6392594fa66058bcd", "is_reserved": 0}, {"is_disabled": 0, "fusion_lon": 0.0, "fusion_lat": 0.0, "lat": 38.942766, "type": "electric_scooter", "lon": -77.03629483333333, "bike_id": "8c2cee1cfc17e03a7362dfbf821269e4", "rental_uris": {"android": "https://dc.lft.to/lastmile_qr_scan", "ios": "https://dc.lft.to/lastmile_qr_scan"}, "name": "8c2cee1cfc17e03a7362dfbf821269e4", "is_reserved": 0}, {"is_disabled": 0, "fusion_lon": 0.0, "fusion_lat": 0.0, "lat": 38.956161, "type": "electric_scooter", "lon": -77.027621, "bike_id": "23c284d2238987d3260c831198d8b44e", "rental_uris": {"android": "https://dc.lft.to/lastmile_qr_scan", "ios": "https://dc.lft.to/lastmile_qr_scan"}, "name": "23c284d2238987d3260c831198d8b44e", "is_reserved": 0}, {"is_disabled": 0, "fusion_lon": 0.0, "fusion_lat": 0.0, "lat": 38.938554333333336, "type": "electric_scooter", "lon": -77.02468916666666, "bike_id": "ce0b681d5cd2efaf756076474ae68978", "rental_uris": {"android": "https://dc.lft.to/lastmile_qr_scan", "ios": "https://dc.lft.to/lastmile_qr_scan"}, "name": "ce0b681d5cd2efaf756076474ae68978", "is_reserved": 0}, {"is_disabled": 0, "fusion_lon": 0.0, "fusion_lat": 0.0, "lat": 38.914641333333336, "type": "electric_scooter", "lon": -77.02802266666667, "bike_id": "3159682d7175931d3a91aa5d2ebd0813", "rental_uris": {"android": "https://dc.lft.to/lastmile_qr_scan", "ios": "https://dc.lft.to/lastmile_qr_scan"}, "name": "3159682d7175931d3a91aa5d2ebd0813", "is_reserved": 0}, {"is_disabled": 0, "fusion_lon": 0.0, "fusion_lat": 0.0, "lat": 38.923848166666666, "type": "electric_scooter", "lon": -77.0408095, "bike_id": "564d8ecfb75c2f35955b6b719dc1ab75", "rental_uris": {"android": "https://dc.lft.to/lastmile_qr_scan", "ios": "https://dc.lft.to/lastmile_qr_scan"}, "name": "564d8ecfb75c2f35955b6b719dc1ab75", "is_reserved": 0}, {"is_disabled": 0, "fusion_lon": 0.0, "fusion_lat": 0.0, "lat": 38.901939, "type": "electric_scooter", "lon": -77.02413083333333, "bike_id": "2b7f155dd020816cc629eabadb7286a5", "rental_uris": {"android": "https://dc.lft.to/lastmile_qr_scan", "ios": "https://dc.lft.to/lastmile_qr_scan"}, "name": "2b7f155dd020816cc629eabadb7286a5", "is_reserved": 0}, {"is_disabled": 0, "fusion_lon": 0.0, "fusion_lat": 0.0, "lat": 38.868896166666666, "type": "electric_scooter", "lon": -76.98316983333333, "bike_id": "851c677298c3e8424bf48e1f3b6ee542", "rental_uris": {"android": "https://dc.lft.to/lastmile_qr_scan", "ios": "https://dc.lft.to/lastmile_qr_scan"}, "name": "851c677298c3e8424bf48e1f3b6ee542", "is_reserved": 0}, {"is_disabled": 0, "fusion_lon": 0.0, "fusion_lat": 0.0, "lat": 38.890327666666664, "type": "electric_scooter", "lon": -76.93748366666667, "bike_id": "29b2fe57908651972d72a754851bc1b4", "rental_uris": {"android": "https://dc.lft.to/lastmile_qr_scan", "ios": "https://dc.lft.to/lastmile_qr_scan"}, "name": "29b2fe57908651972d72a754851bc1b4", "is_reserved": 0}, {"is_disabled": 0, "fusion_lon": 0.0, "fusion_lat": 0.0, "lat": 38.85986116666667, "type": "electric_bike", "lon": -76.97053683333333, "bike_id": "57163d9db4a205f55a308ded7032aeb8", "rental_uris": {"android": "https://dc.lft.to/lastmile_qr_scan", "ios": "https://dc.lft.to/lastmile_qr_scan"}, "name": "57163d9db4a205f55a308ded7032aeb8", "is_reserved": 0}, {"is_disabled": 0, "fusion_lon": 0.0, "fusion_lat": 0.0, "lat": 38.8904185, "type": "electric_scooter", "lon": -77.02572466666666, "bike_id": "497950d4af0a27f458bf44485db99be3", "rental_uris": {"android": "https://dc.lft.to/lastmile_qr_scan", "ios": "https://dc.lft.to/lastmile_qr_scan"}, "name": "497950d4af0a27f458bf44485db99be3", "is_reserved": 0}, {"is_disabled": 0, "fusion_lon": 0.0, "fusion_lat": 0.0, "lat": 38.99452216666667, "type": "electric_bike", "lon": -76.90816316666667, "bike_id": "58890853b7b2f232a6388abb8bd63617", "rental_uris": {"android": "https://dc.lft.to/lastmile_qr_scan", "ios": "https://dc.lft.to/lastmile_qr_scan"}, "name": "58890853b7b2f232a6388abb8bd63617", "is_reserved": 0}, {"is_disabled": 0, "fusion_lon": 0.0, "fusion_lat": 0.0, "lat": 38.88591783333333, "type": "electric_scooter", "lon": -77.00588133333333, "bike_id": "43ee45ba0d18306d20805ee30077d03a", "rental_uris": {"android": "https://dc.lft.to/lastmile_qr_scan", "ios": "https://dc.lft.to/lastmile_qr_scan"}, "name": "43ee45ba0d18306d20805ee30077d03a", "is_reserved": 0}, {"is_disabled": 0, "fusion_lon": 0.0, "fusion_lat": 0.0, "lat": 38.88010766666667, "type": "electric_bike", "lon": -76.91593883333333, "bike_id": "f222a8b7ded1d8d025638c39b87db0dc", "rental_uris": {"android": "https://dc.lft.to/lastmile_qr_scan", "ios": "https://dc.lft.to/lastmile_qr_scan"}, "name": "f222a8b7ded1d8d025638c39b87db0dc", "is_reserved": 0}, {"is_disabled": 0, "fusion_lon": 0.0, "fusion_lat": 0.0, "lat": 38.951714, "type": "electric_scooter", "lon": -77.05647933333333, "bike_id": "245a25ac28a200365282485267e60ead", "rental_uris": {"android": "https://dc.lft.to/lastmile_qr_scan", "ios": "https://dc.lft.to/lastmile_qr_scan"}, "name": "245a25ac28a200365282485267e60ead", "is_reserved": 0}, {"is_disabled": 0, "fusion_lon": 0.0, "fusion_lat": 0.0, "lat": 38.82873216666667, "type": "electric_bike", "lon": -77.11224916666667, "bike_id": "ee549cce64f8da209517e25e5da527e4", "rental_uris": {"android": "https://dc.lft.to/lastmile_qr_scan", "ios": "https://dc.lft.to/lastmile_qr_scan"}, "name": "ee549cce64f8da209517e25e5da527e4", "is_reserved": 0}, {"is_disabled": 0, "fusion_lon": 0.0, "fusion_lat": 0.0, "lat": 38.87477366666667, "type": "electric_scooter", "lon": -77.01067883333333, "bike_id": "3894f00c3cdfcebab421eb6d22efc220", "rental_uris": {"android": "https://dc.lft.to/lastmile_qr_scan", "ios": "https://dc.lft.to/lastmile_qr_scan"}, "name": "3894f00c3cdfcebab421eb6d22efc220", "is_reserved": 0}, {"is_disabled": 0, "fusion_lon": 0.0, "fusion_lat": 0.0, "lat": 38.91335866666667, "type": "electric_scooter", "lon": -77.04862216666666, "bike_id": "9d802beefba2be9438df97ff3f0700b8", "rental_uris": {"android": "https://dc.lft.to/lastmile_qr_scan", "ios": "https://dc.lft.to/lastmile_qr_scan"}, "name": "9d802beefba2be9438df97ff3f0700b8", "is_reserved": 0}, {"is_disabled": 0, "fusion_lon": 0.0, "fusion_lat": 0.0, "lat": 38.83317133333333, "type": "electric_scooter", "lon": -77.0000315, "bike_id": "cf14126784ea2d76865a4670b708036c", "rental_uris": {"android": "https://dc.lft.to/lastmile_qr_scan", "ios": "https://dc.lft.to/lastmile_qr_scan"}, "name": "cf14126784ea2d76865a4670b708036c", "is_reserved": 0}, {"is_disabled": 0, "fusion_lon": 0.0, "fusion_lat": 0.0, "lat": 38.92819, "type": "electric_scooter", "lon": -77.0370935, "bike_id": "4ee07dba53d547b9cc6adeebd44a0ac1", "rental_uris": {"android": "https://dc.lft.to/lastmile_qr_scan", "ios": "https://dc.lft.to/lastmile_qr_scan"}, "name": "4ee07dba53d547b9cc6adeebd44a0ac1", "is_reserved": 0}, {"is_disabled": 0, "fusion_lon": 0.0, "fusion_lat": 0.0, "lat": 38.91705366666667, "type": "electric_scooter", "lon": -77.024409, "bike_id": "d157169f098c99e20cd7be1b4526bcde", "rental_uris": {"android": "https://dc.lft.to/lastmile_qr_scan", "ios": "https://dc.lft.to/lastmile_qr_scan"}, "name": "d157169f098c99e20cd7be1b4526bcde", "is_reserved": 0}, {"is_disabled": 0, "fusion_lon": 0.0, "fusion_lat": 0.0, "lat": 38.955489166666666, "type": "electric_bike", "lon": -76.935403, "bike_id": "fc69aaced5a7d496c857edb5859e3203", "rental_uris": {"android": "https://dc.lft.to/lastmile_qr_scan", "ios": "https://dc.lft.to/lastmile_qr_scan"}, "name": "fc69aaced5a7d496c857edb5859e3203", "is_reserved": 0}, {"is_disabled": 0, "fusion_lon": 0.0, "fusion_lat": 0.0, "lat": 38.9258765, "type": "electric_scooter", "lon": -77.0552825, "bike_id": "7fb4d904a4b4a2dc2ef049a91f190474", "rental_uris": {"android": "https://dc.lft.to/lastmile_qr_scan", "ios": "https://dc.lft.to/lastmile_qr_scan"}, "name": "7fb4d904a4b4a2dc2ef049a91f190474", "is_reserved": 0}, {"is_disabled": 0, "fusion_lon": 0.0, "fusion_lat": 0.0, "lat": 38.83191383333333, "type": "electric_bike", "lon": -77.07682766666667, "bike_id": "3a0bc5e64db01909268c11f696ad0430", "rental_uris": {"android": "https://dc.lft.to/lastmile_qr_scan", "ios": "https://dc.lft.to/lastmile_qr_scan"}, "name": "3a0bc5e64db01909268c11f696ad0430", "is_reserved": 0}, {"is_disabled": 0, "fusion_lon": 0.0, "fusion_lat": 0.0, "lat": 38.94472533333333, "type": "electric_bike", "lon": -77.00648, "bike_id": "2ba8f2e03e656e8251ae143620f5a691", "rental_uris": {"android": "https://dc.lft.to/lastmile_qr_scan", "ios": "https://dc.lft.to/lastmile_qr_scan"}, "name": "2ba8f2e03e656e8251ae143620f5a691", "is_reserved": 0}, {"is_disabled": 0, "fusion_lon": 0.0, "fusion_lat": 0.0, "lat": 38.908280166666664, "type": "electric_scooter", "lon": -77.04324566666666, "bike_id": "1c9abbc5d99f68e83d9a705aa03573c0", "rental_uris": {"android": "https://dc.lft.to/lastmile_qr_scan", "ios": "https://dc.lft.to/lastmile_qr_scan"}, "name": "1c9abbc5d99f68e83d9a705aa03573c0", "is_reserved": 0}, {"is_disabled": 0, "fusion_lon": 0.0, "fusion_lat": 0.0, "lat": 38.92478716666667, "type": "electric_scooter", "lon": -77.03730633333333, "bike_id": "94f95953c3afe3527ccda1f3adc02575", "rental_uris": {"android": "https://dc.lft.to/lastmile_qr_scan", "ios": "https://dc.lft.to/lastmile_qr_scan"}, "name": "94f95953c3afe3527ccda1f3adc02575", "is_reserved": 0}, {"is_disabled": 0, "fusion_lon": 0.0, "fusion_lat": 0.0, "lat": 38.886836333333335, "type": "electric_scooter", "lon": -76.95476816666667, "bike_id": "7d87aa154d9ebd074366da4d24aa8cad", "rental_uris": {"android": "https://dc.lft.to/lastmile_qr_scan", "ios": "https://dc.lft.to/lastmile_qr_scan"}, "name": "7d87aa154d9ebd074366da4d24aa8cad", "is_reserved": 0}, {"is_disabled": 0, "fusion_lon": 0.0, "fusion_lat": 0.0, "lat": 38.92085866666667, "type": "electric_scooter", "lon": -77.0348835, "bike_id": "68646a3e23446464b9cef9c3181b2839", "rental_uris": {"android": "https://dc.lft.to/lastmile_qr_scan", "ios": "https://dc.lft.to/lastmile_qr_scan"}, "name": "68646a3e23446464b9cef9c3181b2839", "is_reserved": 0}, {"is_disabled": 0, "fusion_lon": 0.0, "fusion_lat": 0.0, "lat": 38.94550866666667, "type": "electric_bike", "lon": -77.05127466666667, "bike_id": "f79875a3314013c7d778ed2b7f9c6992", "rental_uris": {"android": "https://dc.lft.to/lastmile_qr_scan", "ios": "https://dc.lft.to/lastmile_qr_scan"}, "name": "f79875a3314013c7d778ed2b7f9c6992", "is_reserved": 0}, {"is_disabled": 0, "fusion_lon": 0.0, "fusion_lat": 0.0, "lat": 38.90524083333333, "type": "electric_scooter", "lon": -77.05040316666667, "bike_id": "6a354113bf05b04cee15a2db7cff4f06", "rental_uris": {"android": "https://dc.lft.to/lastmile_qr_scan", "ios": "https://dc.lft.to/lastmile_qr_scan"}, "name": "6a354113bf05b04cee15a2db7cff4f06", "is_reserved": 0}, {"is_disabled": 0, "fusion_lon": 0.0, "fusion_lat": 0.0, "lat": 38.90016133333334, "type": "electric_scooter", "lon": -77.05250966666667, "bike_id": "dbd6e393f69a4f0c2191f0cdc6bd186b", "rental_uris": {"android": "https://dc.lft.to/lastmile_qr_scan", "ios": "https://dc.lft.to/lastmile_qr_scan"}, "name": "dbd6e393f69a4f0c2191f0cdc6bd186b", "is_reserved": 0}, {"is_disabled": 0, "fusion_lon": 0.0, "fusion_lat": 0.0, "lat": 38.9281215, "type": "electric_scooter", "lon": -77.02349233333334, "bike_id": "822731f8952ff5d018ea26910c30b0fd", "rental_uris": {"android": "https://dc.lft.to/lastmile_qr_scan", "ios": "https://dc.lft.to/lastmile_qr_scan"}, "name": "822731f8952ff5d018ea26910c30b0fd", "is_reserved": 0}, {"is_disabled": 0, "fusion_lon": 0.0, "fusion_lat": 0.0, "lat": 38.9068475, "type": "electric_scooter", "lon": -77.07543983333333, "bike_id": "9d863fb8e066c8f40a302ef690284500", "rental_uris": {"android": "https://dc.lft.to/lastmile_qr_scan", "ios": "https://dc.lft.to/lastmile_qr_scan"}, "name": "9d863fb8e066c8f40a302ef690284500", "is_reserved": 0}, {"is_disabled": 0, "fusion_lon": 0.0, "fusion_lat": 0.0, "lat": 38.90000666666667, "type": "electric_scooter", "lon": -77.03949266666666, "bike_id": "d0aea44d3b41841f17246bd4c45fb3ae", "rental_uris": {"android": "https://dc.lft.to/lastmile_qr_scan", "ios": "https://dc.lft.to/lastmile_qr_scan"}, "name": "d0aea44d3b41841f17246bd4c45fb3ae", "is_reserved": 0}, {"is_disabled": 0, "fusion_lon": 0.0, "fusion_lat": 0.0, "lat": 38.91595016666667, "type": "electric_scooter", "lon": -77.02130133333333, "bike_id": "b0c215dfb0e013af55886e1c3c44043c", "rental_uris": {"android": "https://dc.lft.to/lastmile_qr_scan", "ios": "https://dc.lft.to/lastmile_qr_scan"}, "name": "b0c215dfb0e013af55886e1c3c44043c", "is_reserved": 0}, {"is_disabled": 0, "fusion_lon": 0.0, "fusion_lat": 0.0, "lat": 38.90467433333333, "type": "electric_scooter", "lon": -77.02735716666666, "bike_id": "c58458921dc827539f85d80eae5102be", "rental_uris": {"android": "https://dc.lft.to/lastmile_qr_scan", "ios": "https://dc.lft.to/lastmile_qr_scan"}, "name": "c58458921dc827539f85d80eae5102be", "is_reserved": 0}, {"is_disabled": 0, "fusion_lon": 0.0, "fusion_lat": 0.0, "lat": 38.9560875, "type": "electric_scooter", "lon": -77.02786983333333, "bike_id": "1474fc148c585f9c7dcd02b5c4efa222", "rental_uris": {"android": "https://dc.lft.to/lastmile_qr_scan", "ios": "https://dc.lft.to/lastmile_qr_scan"}, "name": "1474fc148c585f9c7dcd02b5c4efa222", "is_reserved": 0}, {"is_disabled": 0, "fusion_lon": 0.0, "fusion_lat": 0.0, "lat": 38.878755166666664, "type": "electric_scooter", "lon": -77.02315416666667, "bike_id": "6d6c4f8b46abb76fe329cfe3dc20d70e", "rental_uris": {"android": "https://dc.lft.to/lastmile_qr_scan", "ios": "https://dc.lft.to/lastmile_qr_scan"}, "name": "6d6c4f8b46abb76fe329cfe3dc20d70e", "is_reserved": 0}, {"is_disabled": 0, "fusion_lon": 0.0, "fusion_lat": 0.0, "lat": 39.0388095, "type": "electric_bike", "lon": -77.1091105, "bike_id": "6a8eac5bcb710bd1048cc18c48d7cb13", "rental_uris": {"android": "https://dc.lft.to/lastmile_qr_scan", "ios": "https://dc.lft.to/lastmile_qr_scan"}, "name": "6a8eac5bcb710bd1048cc18c48d7cb13", "is_reserved": 0}, {"is_disabled": 0, "fusion_lon": 0.0, "fusion_lat": 0.0, "lat": 38.95323116666667, "type": "electric_scooter", "lon": -77.06854533333333, "bike_id": "eaf31b1a1af651f6a1a9c0bcc709931c", "rental_uris": {"android": "https://dc.lft.to/lastmile_qr_scan", "ios": "https://dc.lft.to/lastmile_qr_scan"}, "name": "eaf31b1a1af651f6a1a9c0bcc709931c", "is_reserved": 0}, {"is_disabled": 0, "fusion_lon": 0.0, "fusion_lat": 0.0, "lat": 38.922194833333336, "type": "electric_scooter", "lon": -77.043316, "bike_id": "e0f927aef728c8bf376bb8299d86a0c1", "rental_uris": {"android": "https://dc.lft.to/lastmile_qr_scan", "ios": "https://dc.lft.to/lastmile_qr_scan"}, "name": "e0f927aef728c8bf376bb8299d86a0c1", "is_reserved": 0}, {"is_disabled": 0, "fusion_lon": 0.0, "fusion_lat": 0.0, "lat": 38.892102, "type": "electric_bike", "lon": -76.985562, "bike_id": "c653e64dcaf82a8a2a28873b23b15a3d", "rental_uris": {"android": "https://dc.lft.to/lastmile_qr_scan", "ios": "https://dc.lft.to/lastmile_qr_scan"}, "name": "c653e64dcaf82a8a2a28873b23b15a3d", "is_reserved": 0}, {"is_disabled": 0, "fusion_lon": 0.0, "fusion_lat": 0.0, "lat": 38.887389666666664, "type": "electric_scooter", "lon": -77.01532, "bike_id": "753027194eaae635da4f73914bc27ddf", "rental_uris": {"android": "https://dc.lft.to/lastmile_qr_scan", "ios": "https://dc.lft.to/lastmile_qr_scan"}, "name": "753027194eaae635da4f73914bc27ddf", "is_reserved": 0}, {"is_disabled": 0, "fusion_lon": 0.0, "fusion_lat": 0.0, "lat": 38.88575383333333, "type": "electric_scooter", "lon": -76.91905783333333, "bike_id": "111396847511b7ab786c2db183f59c04", "rental_uris": {"android": "https://dc.lft.to/lastmile_qr_scan", "ios": "https://dc.lft.to/lastmile_qr_scan"}, "name": "111396847511b7ab786c2db183f59c04", "is_reserved": 0}, {"is_disabled": 0, "fusion_lon": 0.0, "fusion_lat": 0.0, "lat": 38.8983955, "type": "electric_scooter", "lon": -77.02927133333333, "bike_id": "dfb28e96b3159b296f3d9fde5b9c3385", "rental_uris": {"android": "https://dc.lft.to/lastmile_qr_scan", "ios": "https://dc.lft.to/lastmile_qr_scan"}, "name": "dfb28e96b3159b296f3d9fde5b9c3385", "is_reserved": 0}, {"is_disabled": 0, "fusion_lon": 0.0, "fusion_lat": 0.0, "lat": 38.93669283333333, "type": "electric_bike", "lon": -76.95205216666666, "bike_id": "0a920842da842283225db50b1c98f327", "rental_uris": {"android": "https://dc.lft.to/lastmile_qr_scan", "ios": "https://dc.lft.to/lastmile_qr_scan"}, "name": "0a920842da842283225db50b1c98f327", "is_reserved": 0}, {"is_disabled": 0, "fusion_lon": 0.0, "fusion_lat": 0.0, "lat": 38.93352616666667, "type": "electric_scooter", "lon": -77.07350216666667, "bike_id": "4907c2616821118eff07296b487af787", "rental_uris": {"android": "https://dc.lft.to/lastmile_qr_scan", "ios": "https://dc.lft.to/lastmile_qr_scan"}, "name": "4907c2616821118eff07296b487af787", "is_reserved": 0}, {"is_disabled": 0, "fusion_lon": 0.0, "fusion_lat": 0.0, "lat": 38.903578833333334, "type": "electric_scooter", "lon": -77.0110855, "bike_id": "c76493c0d172ea48d3883371b91cf3e4", "rental_uris": {"android": "https://dc.lft.to/lastmile_qr_scan", "ios": "https://dc.lft.to/lastmile_qr_scan"}, "name": "c76493c0d172ea48d3883371b91cf3e4", "is_reserved": 0}, {"is_disabled": 0, "fusion_lon": 0.0, "fusion_lat": 0.0, "lat": 38.944574333333335, "type": "electric_scooter", "lon": -77.06018133333333, "bike_id": "71a0c483f097fd77ebe5bcfe76592ca9", "rental_uris": {"android": "https://dc.lft.to/lastmile_qr_scan", "ios": "https://dc.lft.to/lastmile_qr_scan"}, "name": "71a0c483f097fd77ebe5bcfe76592ca9", "is_reserved": 0}, {"is_disabled": 0, "fusion_lon": 0.0, "fusion_lat": 0.0, "lat": 38.99669316666667, "type": "electric_bike", "lon": -76.991419, "bike_id": "2e76057211defaf6fc5dab031c519899", "rental_uris": {"android": "https://dc.lft.to/lastmile_qr_scan", "ios": "https://dc.lft.to/lastmile_qr_scan"}, "name": "2e76057211defaf6fc5dab031c519899", "is_reserved": 0}, {"is_disabled": 0, "fusion_lon": 0.0, "fusion_lat": 0.0, "lat": 38.9288285, "type": "electric_scooter", "lon": -77.033369, "bike_id": "416d814e5d5a2a519a4ed120a8d11136", "rental_uris": {"android": "https://dc.lft.to/lastmile_qr_scan", "ios": "https://dc.lft.to/lastmile_qr_scan"}, "name": "416d814e5d5a2a519a4ed120a8d11136", "is_reserved": 0}, {"is_disabled": 0, "fusion_lon": 0.0, "fusion_lat": 0.0, "lat": 38.9018605, "type": "electric_scooter", "lon": -77.04808483333333, "bike_id": "0adccfdcfc4e9b346cd3fd6d364afed1", "rental_uris": {"android": "https://dc.lft.to/lastmile_qr_scan", "ios": "https://dc.lft.to/lastmile_qr_scan"}, "name": "0adccfdcfc4e9b346cd3fd6d364afed1", "is_reserved": 0}, {"is_disabled": 0, "fusion_lon": 0.0, "fusion_lat": 0.0, "lat": 38.9265625, "type": "electric_scooter", "lon": -77.02279266666666, "bike_id": "ed6afb027a073dbbacaa6f7740dcfe25", "rental_uris": {"android": "https://dc.lft.to/lastmile_qr_scan", "ios": "https://dc.lft.to/lastmile_qr_scan"}, "name": "ed6afb027a073dbbacaa6f7740dcfe25", "is_reserved": 0}, {"is_disabled": 0, "fusion_lon": 0.0, "fusion_lat": 0.0, "lat": 38.875755166666664, "type": "electric_scooter", "lon": -77.02068766666666, "bike_id": "99b4efd6d8805c55d49a29247695e3a9", "rental_uris": {"android": "https://dc.lft.to/lastmile_qr_scan", "ios": "https://dc.lft.to/lastmile_qr_scan"}, "name": "99b4efd6d8805c55d49a29247695e3a9", "is_reserved": 0}, {"is_disabled": 0, "fusion_lon": 0.0, "fusion_lat": 0.0, "lat": 38.91565633333333, "type": "electric_scooter", "lon": -77.02080933333333, "bike_id": "a6229de8520e0edc473f6ad5ad6eae1d", "rental_uris": {"android": "https://dc.lft.to/lastmile_qr_scan", "ios": "https://dc.lft.to/lastmile_qr_scan"}, "name": "a6229de8520e0edc473f6ad5ad6eae1d", "is_reserved": 0}, {"is_disabled": 0, "fusion_lon": 0.0, "fusion_lat": 0.0, "lat": 38.92249566666667, "type": "electric_scooter", "lon": -77.04143316666666, "bike_id": "5de39fa6cd9938a0f43a28e1094e2482", "rental_uris": {"android": "https://dc.lft.to/lastmile_qr_scan", "ios": "https://dc.lft.to/lastmile_qr_scan"}, "name": "5de39fa6cd9938a0f43a28e1094e2482", "is_reserved": 0}, {"is_disabled": 0, "fusion_lon": 0.0, "fusion_lat": 0.0, "lat": 38.915630666666665, "type": "electric_scooter", "lon": -77.01171133333334, "bike_id": "1945e5aab045139a6f20e51f558336f6", "rental_uris": {"android": "https://dc.lft.to/lastmile_qr_scan", "ios": "https://dc.lft.to/lastmile_qr_scan"}, "name": "1945e5aab045139a6f20e51f558336f6", "is_reserved": 0}, {"is_disabled": 0, "fusion_lon": 0.0, "fusion_lat": 0.0, "lat": 38.922185999999996, "type": "electric_scooter", "lon": -77.032941, "bike_id": "9371d4f46c9d9fc3ad869cdbfff6ec65", "rental_uris": {"android": "https://dc.lft.to/lastmile_qr_scan", "ios": "https://dc.lft.to/lastmile_qr_scan"}, "name": "9371d4f46c9d9fc3ad869cdbfff6ec65", "is_reserved": 0}, {"is_disabled": 0, "fusion_lon": 0.0, "fusion_lat": 0.0, "lat": 38.92576616666667, "type": "electric_scooter", "lon": -76.9949385, "bike_id": "d6e5b956310eb7127733788089131107", "rental_uris": {"android": "https://dc.lft.to/lastmile_qr_scan", "ios": "https://dc.lft.to/lastmile_qr_scan"}, "name": "d6e5b956310eb7127733788089131107", "is_reserved": 0}, {"is_disabled": 0, "fusion_lon": 0.0, "fusion_lat": 0.0, "lat": 38.91998433333333, "type": "electric_scooter", "lon": -77.02509383333333, "bike_id": "bacbd5c41d00a13a42cae69d5f2ffd2b", "rental_uris": {"android": "https://dc.lft.to/lastmile_qr_scan", "ios": "https://dc.lft.to/lastmile_qr_scan"}, "name": "bacbd5c41d00a13a42cae69d5f2ffd2b", "is_reserved": 0}, {"is_disabled": 0, "fusion_lon": 0.0, "fusion_lat": 0.0, "lat": 38.887428166666666, "type": "electric_scooter", "lon": -77.01538533333333, "bike_id": "3ac9d4fff8ec1088b738af4e9518b60e", "rental_uris": {"android": "https://dc.lft.to/lastmile_qr_scan", "ios": "https://dc.lft.to/lastmile_qr_scan"}, "name": "3ac9d4fff8ec1088b738af4e9518b60e", "is_reserved": 0}, {"is_disabled": 0, "fusion_lon": 0.0, "fusion_lat": 0.0, "lat": 38.895652166666665, "type": "electric_bike", "lon": -77.12740116666667, "bike_id": "ec50ce66485e0c2d4b7d8229d86ed4fc", "rental_uris": {"android": "https://dc.lft.to/lastmile_qr_scan", "ios": "https://dc.lft.to/lastmile_qr_scan"}, "name": "ec50ce66485e0c2d4b7d8229d86ed4fc", "is_reserved": 0}, {"is_disabled": 0, "fusion_lon": 0.0, "fusion_lat": 0.0, "lat": 38.896454, "type": "electric_scooter", "lon": -77.01191866666667, "bike_id": "c334d07b35d28ce7cf5874167b3ce4ec", "rental_uris": {"android": "https://dc.lft.to/lastmile_qr_scan", "ios": "https://dc.lft.to/lastmile_qr_scan"}, "name": "c334d07b35d28ce7cf5874167b3ce4ec", "is_reserved": 0}, {"is_disabled": 0, "fusion_lon": 0.0, "fusion_lat": 0.0, "lat": 38.91620533333333, "type": "electric_scooter", "lon": -77.048576, "bike_id": "89f746cc25b2ead5cc9ec7b278246d51", "rental_uris": {"android": "https://dc.lft.to/lastmile_qr_scan", "ios": "https://dc.lft.to/lastmile_qr_scan"}, "name": "89f746cc25b2ead5cc9ec7b278246d51", "is_reserved": 0}, {"is_disabled": 0, "fusion_lon": 0.0, "fusion_lat": 0.0, "lat": 38.90865383333333, "type": "electric_scooter", "lon": -77.03466433333334, "bike_id": "b9e14b46110339302a034a9dd2c78156", "rental_uris": {"android": "https://dc.lft.to/lastmile_qr_scan", "ios": "https://dc.lft.to/lastmile_qr_scan"}, "name": "b9e14b46110339302a034a9dd2c78156", "is_reserved": 0}, {"is_disabled": 0, "fusion_lon": 0.0, "fusion_lat": 0.0, "lat": 38.905574333333334, "type": "electric_scooter", "lon": -77.036332, "bike_id": "68a76394701dcacf21aa823bfcab3c2c", "rental_uris": {"android": "https://dc.lft.to/lastmile_qr_scan", "ios": "https://dc.lft.to/lastmile_qr_scan"}, "name": "68a76394701dcacf21aa823bfcab3c2c", "is_reserved": 0}, {"is_disabled": 0, "fusion_lon": 0.0, "fusion_lat": 0.0, "lat": 38.892292833333336, "type": "electric_scooter", "lon": -77.02592866666667, "bike_id": "6fe631db3a07ec64410fefe6b4aa6988", "rental_uris": {"android": "https://dc.lft.to/lastmile_qr_scan", "ios": "https://dc.lft.to/lastmile_qr_scan"}, "name": "6fe631db3a07ec64410fefe6b4aa6988", "is_reserved": 0}, {"is_disabled": 0, "fusion_lon": 0.0, "fusion_lat": 0.0, "lat": 38.9378155, "type": "electric_scooter", "lon": -77.01881033333333, "bike_id": "0fe4bee887a230cb8be525aef16bacc7", "rental_uris": {"android": "https://dc.lft.to/lastmile_qr_scan", "ios": "https://dc.lft.to/lastmile_qr_scan"}, "name": "0fe4bee887a230cb8be525aef16bacc7", "is_reserved": 0}, {"is_disabled": 0, "fusion_lon": 0.0, "fusion_lat": 0.0, "lat": 38.93703983333333, "type": "electric_scooter", "lon": -77.061005, "bike_id": "b675af3ad55bf89c5548715a34a47518", "rental_uris": {"android": "https://dc.lft.to/lastmile_qr_scan", "ios": "https://dc.lft.to/lastmile_qr_scan"}, "name": "b675af3ad55bf89c5548715a34a47518", "is_reserved": 0}, {"is_disabled": 0, "fusion_lon": 0.0, "fusion_lat": 0.0, "lat": 38.98135033333333, "type": "electric_bike", "lon": -77.00768333333333, "bike_id": "e31e69fd07dbca98d8086e2b3f629a56", "rental_uris": {"android": "https://dc.lft.to/lastmile_qr_scan", "ios": "https://dc.lft.to/lastmile_qr_scan"}, "name": "e31e69fd07dbca98d8086e2b3f629a56", "is_reserved": 0}, {"is_disabled": 0, "fusion_lon": 0.0, "fusion_lat": 0.0, "lat": 38.9062385, "type": "electric_scooter", "lon": -77.02412366666667, "bike_id": "36a0be718cefbc06ac7aeafa4d6302a0", "rental_uris": {"android": "https://dc.lft.to/lastmile_qr_scan", "ios": "https://dc.lft.to/lastmile_qr_scan"}, "name": "36a0be718cefbc06ac7aeafa4d6302a0", "is_reserved": 0}, {"is_disabled": 0, "fusion_lon": 0.0, "fusion_lat": 0.0, "lat": 38.90576183333334, "type": "electric_scooter", "lon": -77.05117883333334, "bike_id": "cd8d17e7136c1b456ace348c3225bf72", "rental_uris": {"android": "https://dc.lft.to/lastmile_qr_scan", "ios": "https://dc.lft.to/lastmile_qr_scan"}, "name": "cd8d17e7136c1b456ace348c3225bf72", "is_reserved": 0}, {"is_disabled": 0, "fusion_lon": 0.0, "fusion_lat": 0.0, "lat": 38.900515, "type": "electric_scooter", "lon": -77.0077045, "bike_id": "cd56ce360e5e534c2aa2e872794b70cd", "rental_uris": {"android": "https://dc.lft.to/lastmile_qr_scan", "ios": "https://dc.lft.to/lastmile_qr_scan"}, "name": "cd56ce360e5e534c2aa2e872794b70cd", "is_reserved": 0}, {"is_disabled": 0, "fusion_lon": 0.0, "fusion_lat": 0.0, "lat": 38.87779783333333, "type": "electric_scooter", "lon": -77.01435083333334, "bike_id": "744372e410cbae4f54a9b6400a6a565d", "rental_uris": {"android": "https://dc.lft.to/lastmile_qr_scan", "ios": "https://dc.lft.to/lastmile_qr_scan"}, "name": "744372e410cbae4f54a9b6400a6a565d", "is_reserved": 0}, {"is_disabled": 0, "fusion_lon": 0.0, "fusion_lat": 0.0, "lat": 38.91184616666666, "type": "electric_scooter", "lon": -77.04177416666667, "bike_id": "b4aa11f99dda8a40ce9555ce4d64b6ac", "rental_uris": {"android": "https://dc.lft.to/lastmile_qr_scan", "ios": "https://dc.lft.to/lastmile_qr_scan"}, "name": "b4aa11f99dda8a40ce9555ce4d64b6ac", "is_reserved": 0}, {"is_disabled": 0, "fusion_lon": 0.0, "fusion_lat": 0.0, "lat": 38.95649216666666, "type": "electric_scooter", "lon": -77.01495766666666, "bike_id": "c19122d84a7179342c4d22b6fe4d3de3", "rental_uris": {"android": "https://dc.lft.to/lastmile_qr_scan", "ios": "https://dc.lft.to/lastmile_qr_scan"}, "name": "c19122d84a7179342c4d22b6fe4d3de3", "is_reserved": 0}, {"is_disabled": 0, "fusion_lon": 0.0, "fusion_lat": 0.0, "lat": 38.90196016666667, "type": "electric_scooter", "lon": -77.04817733333333, "bike_id": "ab4b604d08b6f86eca477dabc55bceea", "rental_uris": {"android": "https://dc.lft.to/lastmile_qr_scan", "ios": "https://dc.lft.to/lastmile_qr_scan"}, "name": "ab4b604d08b6f86eca477dabc55bceea", "is_reserved": 0}, {"is_disabled": 0, "fusion_lon": 0.0, "fusion_lat": 0.0, "lat": 38.9214845, "type": "electric_scooter", "lon": -77.03387316666667, "bike_id": "3055c5dd60de4cb22b2b5ca3c18607d9", "rental_uris": {"android": "https://dc.lft.to/lastmile_qr_scan", "ios": "https://dc.lft.to/lastmile_qr_scan"}, "name": "3055c5dd60de4cb22b2b5ca3c18607d9", "is_reserved": 0}, {"is_disabled": 0, "fusion_lon": 0.0, "fusion_lat": 0.0, "lat": 38.925697166666666, "type": "electric_scooter", "lon": -77.02266366666667, "bike_id": "6f6d55abe50bff2939107bd8092ac9b9", "rental_uris": {"android": "https://dc.lft.to/lastmile_qr_scan", "ios": "https://dc.lft.to/lastmile_qr_scan"}, "name": "6f6d55abe50bff2939107bd8092ac9b9", "is_reserved": 0}, {"is_disabled": 0, "fusion_lon": 0.0, "fusion_lat": 0.0, "lat": 38.92905833333333, "type": "electric_scooter", "lon": -77.031949, "bike_id": "a083f2ed864c2c34a69f72d9df034605", "rental_uris": {"android": "https://dc.lft.to/lastmile_qr_scan", "ios": "https://dc.lft.to/lastmile_qr_scan"}, "name": "a083f2ed864c2c34a69f72d9df034605", "is_reserved": 0}, {"is_disabled": 0, "fusion_lon": 0.0, "fusion_lat": 0.0, "lat": 38.91815533333333, "type": "electric_scooter", "lon": -77.04002016666666, "bike_id": "5cfd70ba365920eb3f2eb57ad18c65c2", "rental_uris": {"android": "https://dc.lft.to/lastmile_qr_scan", "ios": "https://dc.lft.to/lastmile_qr_scan"}, "name": "5cfd70ba365920eb3f2eb57ad18c65c2", "is_reserved": 0}, {"is_disabled": 0, "fusion_lon": 0.0, "fusion_lat": 0.0, "lat": 38.941773, "type": "electric_scooter", "lon": -77.03655516666667, "bike_id": "627cbf1c9891b66aa4e4b82183bcec4e", "rental_uris": {"android": "https://dc.lft.to/lastmile_qr_scan", "ios": "https://dc.lft.to/lastmile_qr_scan"}, "name": "627cbf1c9891b66aa4e4b82183bcec4e", "is_reserved": 0}, {"is_disabled": 0, "fusion_lon": 0.0, "fusion_lat": 0.0, "lat": 38.89775066666667, "type": "electric_scooter", "lon": -77.02490616666667, "bike_id": "0730cc29931cc941dc3985e3f2b575c2", "rental_uris": {"android": "https://dc.lft.to/lastmile_qr_scan", "ios": "https://dc.lft.to/lastmile_qr_scan"}, "name": "0730cc29931cc941dc3985e3f2b575c2", "is_reserved": 0}, {"is_disabled": 0, "fusion_lon": 0.0, "fusion_lat": 0.0, "lat": 38.91799183333333, "type": "electric_scooter", "lon": -77.0343985, "bike_id": "cb284a63aac55f38e39850814ceae43b", "rental_uris": {"android": "https://dc.lft.to/lastmile_qr_scan", "ios": "https://dc.lft.to/lastmile_qr_scan"}, "name": "cb284a63aac55f38e39850814ceae43b", "is_reserved": 0}, {"is_disabled": 0, "fusion_lon": 0.0, "fusion_lat": 0.0, "lat": 38.84289916666667, "type": "electric_scooter", "lon": -76.9994885, "bike_id": "fba7b0f5dc669a85782f6309cf072ded", "rental_uris": {"android": "https://dc.lft.to/lastmile_qr_scan", "ios": "https://dc.lft.to/lastmile_qr_scan"}, "name": "fba7b0f5dc669a85782f6309cf072ded", "is_reserved": 0}, {"is_disabled": 0, "fusion_lon": 0.0, "fusion_lat": 0.0, "lat": 38.9083335, "type": "electric_scooter", "lon": -76.99697816666666, "bike_id": "c78dfee1d32ae48d6e6c202593f6bbdc", "rental_uris": {"android": "https://dc.lft.to/lastmile_qr_scan", "ios": "https://dc.lft.to/lastmile_qr_scan"}, "name": "c78dfee1d32ae48d6e6c202593f6bbdc", "is_reserved": 0}, {"is_disabled": 0, "fusion_lon": 0.0, "fusion_lat": 0.0, "lat": 38.89731233333333, "type": "electric_scooter", "lon": -77.007488, "bike_id": "65ba42624d06841a65e141024c5b6fe5", "rental_uris": {"android": "https://dc.lft.to/lastmile_qr_scan", "ios": "https://dc.lft.to/lastmile_qr_scan"}, "name": "65ba42624d06841a65e141024c5b6fe5", "is_reserved": 0}, {"is_disabled": 0, "fusion_lon": 0.0, "fusion_lat": 0.0, "lat": 38.887035833333336, "type": "electric_scooter", "lon": -76.95356966666667, "bike_id": "d1939093be732631f423a2eb070aa969", "rental_uris": {"android": "https://dc.lft.to/lastmile_qr_scan", "ios": "https://dc.lft.to/lastmile_qr_scan"}, "name": "d1939093be732631f423a2eb070aa969", "is_reserved": 0}, {"is_disabled": 0, "fusion_lon": 0.0, "fusion_lat": 0.0, "lat": 38.9172935, "type": "electric_scooter", "lon": -77.02282316666667, "bike_id": "4694da627753d0507f4ae5ef813ed226", "rental_uris": {"android": "https://dc.lft.to/lastmile_qr_scan", "ios": "https://dc.lft.to/lastmile_qr_scan"}, "name": "4694da627753d0507f4ae5ef813ed226", "is_reserved": 0}, {"is_disabled": 0, "fusion_lon": 0.0, "fusion_lat": 0.0, "lat": 38.91949966666667, "type": "electric_scooter", "lon": -77.0138615, "bike_id": "3e1cb418b900aa3149ac46c7496829ee", "rental_uris": {"android": "https://dc.lft.to/lastmile_qr_scan", "ios": "https://dc.lft.to/lastmile_qr_scan"}, "name": "3e1cb418b900aa3149ac46c7496829ee", "is_reserved": 0}, {"is_disabled": 0, "fusion_lon": 0.0, "fusion_lat": 0.0, "lat": 38.91698266666667, "type": "electric_scooter", "lon": -77.028883, "bike_id": "ecc8fc8251045b9e7ef1716d576bbae9", "rental_uris": {"android": "https://dc.lft.to/lastmile_qr_scan", "ios": "https://dc.lft.to/lastmile_qr_scan"}, "name": "ecc8fc8251045b9e7ef1716d576bbae9", "is_reserved": 0}, {"is_disabled": 0, "fusion_lon": 0.0, "fusion_lat": 0.0, "lat": 38.936000666666665, "type": "electric_scooter", "lon": -77.05595766666667, "bike_id": "74345ef6a5ae714a1552f6c476afcaa2", "rental_uris": {"android": "https://dc.lft.to/lastmile_qr_scan", "ios": "https://dc.lft.to/lastmile_qr_scan"}, "name": "74345ef6a5ae714a1552f6c476afcaa2", "is_reserved": 0}, {"is_disabled": 0, "fusion_lon": 0.0, "fusion_lat": 0.0, "lat": 38.920297, "type": "electric_scooter", "lon": -77.01907466666667, "bike_id": "8c3d0f083aecea61a5fb651d569edef3", "rental_uris": {"android": "https://dc.lft.to/lastmile_qr_scan", "ios": "https://dc.lft.to/lastmile_qr_scan"}, "name": "8c3d0f083aecea61a5fb651d569edef3", "is_reserved": 0}, {"is_disabled": 0, "fusion_lon": 0.0, "fusion_lat": 0.0, "lat": 38.93484516666667, "type": "electric_scooter", "lon": -77.02400316666666, "bike_id": "eca37d31c1b8acbc99eb6756b65dd54f", "rental_uris": {"android": "https://dc.lft.to/lastmile_qr_scan", "ios": "https://dc.lft.to/lastmile_qr_scan"}, "name": "eca37d31c1b8acbc99eb6756b65dd54f", "is_reserved": 0}, {"is_disabled": 0, "fusion_lon": 0.0, "fusion_lat": 0.0, "lat": 38.887401833333335, "type": "electric_scooter", "lon": -77.01531033333333, "bike_id": "1e3280f6c5a79ab87133b5aa3abace1c", "rental_uris": {"android": "https://dc.lft.to/lastmile_qr_scan", "ios": "https://dc.lft.to/lastmile_qr_scan"}, "name": "1e3280f6c5a79ab87133b5aa3abace1c", "is_reserved": 0}, {"is_disabled": 0, "fusion_lon": 0.0, "fusion_lat": 0.0, "lat": 38.80297083333333, "type": "electric_bike", "lon": -77.03984466666667, "bike_id": "c95dc784d887ad3b10b30772fcc37c03", "rental_uris": {"android": "https://dc.lft.to/lastmile_qr_scan", "ios": "https://dc.lft.to/lastmile_qr_scan"}, "name": "c95dc784d887ad3b10b30772fcc37c03", "is_reserved": 0}, {"is_disabled": 0, "fusion_lon": 0.0, "fusion_lat": 0.0, "lat": 38.91216633333333, "type": "electric_scooter", "lon": -77.03179716666666, "bike_id": "59fe6fcd668a0efbbf7561e9f57b6c71", "rental_uris": {"android": "https://dc.lft.to/lastmile_qr_scan", "ios": "https://dc.lft.to/lastmile_qr_scan"}, "name": "59fe6fcd668a0efbbf7561e9f57b6c71", "is_reserved": 0}, {"is_disabled": 0, "fusion_lon": 0.0, "fusion_lat": 0.0, "lat": 38.9226545, "type": "electric_scooter", "lon": -77.0340445, "bike_id": "151548cc387f793cbcaf3a99231bae23", "rental_uris": {"android": "https://dc.lft.to/lastmile_qr_scan", "ios": "https://dc.lft.to/lastmile_qr_scan"}, "name": "151548cc387f793cbcaf3a99231bae23", "is_reserved": 0}, {"is_disabled": 0, "fusion_lon": 0.0, "fusion_lat": 0.0, "lat": 38.92609183333333, "type": "electric_scooter", "lon": -77.024335, "bike_id": "1bac95e6e1f5476326214c85e3f87b2b", "rental_uris": {"android": "https://dc.lft.to/lastmile_qr_scan", "ios": "https://dc.lft.to/lastmile_qr_scan"}, "name": "1bac95e6e1f5476326214c85e3f87b2b", "is_reserved": 0}, {"is_disabled": 0, "fusion_lon": 0.0, "fusion_lat": 0.0, "lat": 38.9006185, "type": "electric_scooter", "lon": -76.93386383333333, "bike_id": "f44900b29ea517ca8a6290e137af3c5a", "rental_uris": {"android": "https://dc.lft.to/lastmile_qr_scan", "ios": "https://dc.lft.to/lastmile_qr_scan"}, "name": "f44900b29ea517ca8a6290e137af3c5a", "is_reserved": 0}, {"is_disabled": 0, "fusion_lon": 0.0, "fusion_lat": 0.0, "lat": 38.93130133333333, "type": "electric_scooter", "lon": -77.057225, "bike_id": "33065399d2d83ded17367ac0dd5a8515", "rental_uris": {"android": "https://dc.lft.to/lastmile_qr_scan", "ios": "https://dc.lft.to/lastmile_qr_scan"}, "name": "33065399d2d83ded17367ac0dd5a8515", "is_reserved": 0}, {"is_disabled": 0, "fusion_lon": 0.0, "fusion_lat": 0.0, "lat": 38.90357216666666, "type": "electric_scooter", "lon": -77.0173455, "bike_id": "68f921d3ee9b0ff9c102a9f3161797f3", "rental_uris": {"android": "https://dc.lft.to/lastmile_qr_scan", "ios": "https://dc.lft.to/lastmile_qr_scan"}, "name": "68f921d3ee9b0ff9c102a9f3161797f3", "is_reserved": 0}, {"is_disabled": 0, "fusion_lon": 0.0, "fusion_lat": 0.0, "lat": 38.87894133333333, "type": "electric_scooter", "lon": -76.93523983333333, "bike_id": "9fba67157dfc9222fc28f3e26ff9092b", "rental_uris": {"android": "https://dc.lft.to/lastmile_qr_scan", "ios": "https://dc.lft.to/lastmile_qr_scan"}, "name": "9fba67157dfc9222fc28f3e26ff9092b", "is_reserved": 0}, {"is_disabled": 0, "fusion_lon": 0.0, "fusion_lat": 0.0, "lat": 38.90682416666667, "type": "electric_scooter", "lon": -77.0269305, "bike_id": "7093e5d6f288a7c73112cdb7dbb72574", "rental_uris": {"android": "https://dc.lft.to/lastmile_qr_scan", "ios": "https://dc.lft.to/lastmile_qr_scan"}, "name": "7093e5d6f288a7c73112cdb7dbb72574", "is_reserved": 0}, {"is_disabled": 0, "fusion_lon": 0.0, "fusion_lat": 0.0, "lat": 38.97401116666666, "type": "electric_bike", "lon": -77.0250165, "bike_id": "3b6ccf26f3657554fb5b5eb644a56a50", "rental_uris": {"android": "https://dc.lft.to/lastmile_qr_scan", "ios": "https://dc.lft.to/lastmile_qr_scan"}, "name": "3b6ccf26f3657554fb5b5eb644a56a50", "is_reserved": 0}, {"is_disabled": 0, "fusion_lon": 0.0, "fusion_lat": 0.0, "lat": 38.902459, "type": "electric_scooter", "lon": -77.02726366666667, "bike_id": "904ca50d737053d8eb005e1cebdcda70", "rental_uris": {"android": "https://dc.lft.to/lastmile_qr_scan", "ios": "https://dc.lft.to/lastmile_qr_scan"}, "name": "904ca50d737053d8eb005e1cebdcda70", "is_reserved": 0}, {"is_disabled": 0, "fusion_lon": 0.0, "fusion_lat": 0.0, "lat": 38.91175333333333, "type": "electric_scooter", "lon": -77.02697866666666, "bike_id": "cea8e0446772c1774532fbcfadd3349d", "rental_uris": {"android": "https://dc.lft.to/lastmile_qr_scan", "ios": "https://dc.lft.to/lastmile_qr_scan"}, "name": "cea8e0446772c1774532fbcfadd3349d", "is_reserved": 0}, {"is_disabled": 0, "fusion_lon": 0.0, "fusion_lat": 0.0, "lat": 38.892174, "type": "electric_scooter", "lon": -77.04795016666667, "bike_id": "7db220bc40fe2c795ac31e5f28c8b78c", "rental_uris": {"android": "https://dc.lft.to/lastmile_qr_scan", "ios": "https://dc.lft.to/lastmile_qr_scan"}, "name": "7db220bc40fe2c795ac31e5f28c8b78c", "is_reserved": 0}, {"is_disabled": 0, "fusion_lon": 0.0, "fusion_lat": 0.0, "lat": 38.909334666666666, "type": "electric_scooter", "lon": -77.0317735, "bike_id": "a311e11b1c887783bf285eb979fdd411", "rental_uris": {"android": "https://dc.lft.to/lastmile_qr_scan", "ios": "https://dc.lft.to/lastmile_qr_scan"}, "name": "a311e11b1c887783bf285eb979fdd411", "is_reserved": 0}, {"is_disabled": 0, "fusion_lon": 0.0, "fusion_lat": 0.0, "lat": 38.9142575, "type": "electric_scooter", "lon": -77.03185533333334, "bike_id": "9c1d6430ecae49253dc497f493d693e5", "rental_uris": {"android": "https://dc.lft.to/lastmile_qr_scan", "ios": "https://dc.lft.to/lastmile_qr_scan"}, "name": "9c1d6430ecae49253dc497f493d693e5", "is_reserved": 0}, {"is_disabled": 0, "fusion_lon": 0.0, "fusion_lat": 0.0, "lat": 38.942004833333336, "type": "electric_scooter", "lon": -77.01826916666667, "bike_id": "671104d4e7852503d13a79e8bf14de4d", "rental_uris": {"android": "https://dc.lft.to/lastmile_qr_scan", "ios": "https://dc.lft.to/lastmile_qr_scan"}, "name": "671104d4e7852503d13a79e8bf14de4d", "is_reserved": 0}, {"is_disabled": 0, "fusion_lon": 0.0, "fusion_lat": 0.0, "lat": 38.897457833333334, "type": "electric_scooter", "lon": -77.0481685, "bike_id": "02ed8307d7d41ffb99be48b860941c1c", "rental_uris": {"android": "https://dc.lft.to/lastmile_qr_scan", "ios": "https://dc.lft.to/lastmile_qr_scan"}, "name": "02ed8307d7d41ffb99be48b860941c1c", "is_reserved": 0}, {"is_disabled": 0, "fusion_lon": 0.0, "fusion_lat": 0.0, "lat": 38.916500166666665, "type": "electric_scooter", "lon": -77.02243, "bike_id": "75d8326caacd999477abb49ef25202ea", "rental_uris": {"android": "https://dc.lft.to/lastmile_qr_scan", "ios": "https://dc.lft.to/lastmile_qr_scan"}, "name": "75d8326caacd999477abb49ef25202ea", "is_reserved": 0}, {"is_disabled": 0, "fusion_lon": 0.0, "fusion_lat": 0.0, "lat": 38.911900833333334, "type": "electric_scooter", "lon": -77.03643083333333, "bike_id": "7d93878a7f306cb498ec8ae363237533", "rental_uris": {"android": "https://dc.lft.to/lastmile_qr_scan", "ios": "https://dc.lft.to/lastmile_qr_scan"}, "name": "7d93878a7f306cb498ec8ae363237533", "is_reserved": 0}, {"is_disabled": 0, "fusion_lon": 0.0, "fusion_lat": 0.0, "lat": 38.894991833333336, "type": "electric_scooter", "lon": -76.94876816666667, "bike_id": "526de64df57b92ef21162422b16ca7f6", "rental_uris": {"android": "https://dc.lft.to/lastmile_qr_scan", "ios": "https://dc.lft.to/lastmile_qr_scan"}, "name": "526de64df57b92ef21162422b16ca7f6", "is_reserved": 0}, {"is_disabled": 0, "fusion_lon": 0.0, "fusion_lat": 0.0, "lat": 38.9207465, "type": "electric_scooter", "lon": -77.0419245, "bike_id": "82c6963c018464583cc3bdc075a6b696", "rental_uris": {"android": "https://dc.lft.to/lastmile_qr_scan", "ios": "https://dc.lft.to/lastmile_qr_scan"}, "name": "82c6963c018464583cc3bdc075a6b696", "is_reserved": 0}, {"is_disabled": 0, "fusion_lon": 0.0, "fusion_lat": 0.0, "lat": 38.9865365, "type": "electric_scooter", "lon": -77.02643966666666, "bike_id": "b206595e0ad6861134ffa477c8852cac", "rental_uris": {"android": "https://dc.lft.to/lastmile_qr_scan", "ios": "https://dc.lft.to/lastmile_qr_scan"}, "name": "b206595e0ad6861134ffa477c8852cac", "is_reserved": 0}, {"is_disabled": 0, "fusion_lon": 0.0, "fusion_lat": 0.0, "lat": 38.918616666666665, "type": "electric_bike", "lon": -76.961746, "bike_id": "90ad6f58b56d882a067c289ab45a6c41", "rental_uris": {"android": "https://dc.lft.to/lastmile_qr_scan", "ios": "https://dc.lft.to/lastmile_qr_scan"}, "name": "90ad6f58b56d882a067c289ab45a6c41", "is_reserved": 0}, {"is_disabled": 0, "fusion_lon": 0.0, "fusion_lat": 0.0, "lat": 38.914776833333335, "type": "electric_scooter", "lon": -77.04390633333334, "bike_id": "11c9d00fcc9c00e70360eb4de7d68d41", "rental_uris": {"android": "https://dc.lft.to/lastmile_qr_scan", "ios": "https://dc.lft.to/lastmile_qr_scan"}, "name": "11c9d00fcc9c00e70360eb4de7d68d41", "is_reserved": 0}, {"is_disabled": 0, "fusion_lon": 0.0, "fusion_lat": 0.0, "lat": 38.918522, "type": "electric_scooter", "lon": -77.02955583333333, "bike_id": "df15712dd861c384a2e4c9d961214793", "rental_uris": {"android": "https://dc.lft.to/lastmile_qr_scan", "ios": "https://dc.lft.to/lastmile_qr_scan"}, "name": "df15712dd861c384a2e4c9d961214793", "is_reserved": 0}, {"is_disabled": 0, "fusion_lon": 0.0, "fusion_lat": 0.0, "lat": 38.9169175, "type": "electric_scooter", "lon": -77.03215033333333, "bike_id": "c5a101cb578f73b52c1f18223f5b41a1", "rental_uris": {"android": "https://dc.lft.to/lastmile_qr_scan", "ios": "https://dc.lft.to/lastmile_qr_scan"}, "name": "c5a101cb578f73b52c1f18223f5b41a1", "is_reserved": 0}, {"is_disabled": 0, "fusion_lon": 0.0, "fusion_lat": 0.0, "lat": 38.91491416666667, "type": "electric_scooter", "lon": -77.01983733333333, "bike_id": "1289d4fec7e5a352e8804b0af7b8df4a", "rental_uris": {"android": "https://dc.lft.to/lastmile_qr_scan", "ios": "https://dc.lft.to/lastmile_qr_scan"}, "name": "1289d4fec7e5a352e8804b0af7b8df4a", "is_reserved": 0}, {"is_disabled": 0, "fusion_lon": 0.0, "fusion_lat": 0.0, "lat": 38.93273583333333, "type": "electric_scooter", "lon": -76.99684416666666, "bike_id": "1c4945ee051e5184e52a36e62ceb3115", "rental_uris": {"android": "https://dc.lft.to/lastmile_qr_scan", "ios": "https://dc.lft.to/lastmile_qr_scan"}, "name": "1c4945ee051e5184e52a36e62ceb3115", "is_reserved": 0}, {"is_disabled": 0, "fusion_lon": 0.0, "fusion_lat": 0.0, "lat": 38.899748833333334, "type": "electric_scooter", "lon": -77.02699583333333, "bike_id": "069f532974ef4fbc52d245d4175b0ccf", "rental_uris": {"android": "https://dc.lft.to/lastmile_qr_scan", "ios": "https://dc.lft.to/lastmile_qr_scan"}, "name": "069f532974ef4fbc52d245d4175b0ccf", "is_reserved": 0}, {"is_disabled": 0, "fusion_lon": 0.0, "fusion_lat": 0.0, "lat": 38.899061833333334, "type": "electric_scooter", "lon": -76.93382, "bike_id": "b9aed66280a8d9dd6277f0d72641a9df", "rental_uris": {"android": "https://dc.lft.to/lastmile_qr_scan", "ios": "https://dc.lft.to/lastmile_qr_scan"}, "name": "b9aed66280a8d9dd6277f0d72641a9df", "is_reserved": 0}, {"is_disabled": 0, "fusion_lon": 0.0, "fusion_lat": 0.0, "lat": 38.8875325, "type": "electric_scooter", "lon": -76.996175, "bike_id": "b827965794d38f5a316254eaa4a2cacc", "rental_uris": {"android": "https://dc.lft.to/lastmile_qr_scan", "ios": "https://dc.lft.to/lastmile_qr_scan"}, "name": "b827965794d38f5a316254eaa4a2cacc", "is_reserved": 0}, {"is_disabled": 0, "fusion_lon": 0.0, "fusion_lat": 0.0, "lat": 38.8920015, "type": "electric_scooter", "lon": -76.9881045, "bike_id": "593852eb3150e715387c44c110c276cb", "rental_uris": {"android": "https://dc.lft.to/lastmile_qr_scan", "ios": "https://dc.lft.to/lastmile_qr_scan"}, "name": "593852eb3150e715387c44c110c276cb", "is_reserved": 0}, {"is_disabled": 0, "fusion_lon": 0.0, "fusion_lat": 0.0, "lat": 38.880418, "type": "electric_scooter", "lon": -77.00541033333333, "bike_id": "9a9c888c8987c0ffe0ed89521146fa73", "rental_uris": {"android": "https://dc.lft.to/lastmile_qr_scan", "ios": "https://dc.lft.to/lastmile_qr_scan"}, "name": "9a9c888c8987c0ffe0ed89521146fa73", "is_reserved": 0}, {"is_disabled": 0, "fusion_lon": 0.0, "fusion_lat": 0.0, "lat": 38.88734983333333, "type": "electric_scooter", "lon": -77.01530383333333, "bike_id": "f2ed1c1951c2e430581279d4ed9e66d4", "rental_uris": {"android": "https://dc.lft.to/lastmile_qr_scan", "ios": "https://dc.lft.to/lastmile_qr_scan"}, "name": "f2ed1c1951c2e430581279d4ed9e66d4", "is_reserved": 0}, {"is_disabled": 0, "fusion_lon": 0.0, "fusion_lat": 0.0, "lat": 38.924034666666664, "type": "electric_scooter", "lon": -77.0565005, "bike_id": "76849fb02e00784e2629296d66bfdee7", "rental_uris": {"android": "https://dc.lft.to/lastmile_qr_scan", "ios": "https://dc.lft.to/lastmile_qr_scan"}, "name": "76849fb02e00784e2629296d66bfdee7", "is_reserved": 0}, {"is_disabled": 0, "fusion_lon": 0.0, "fusion_lat": 0.0, "lat": 38.969094, "type": "electric_bike", "lon": -77.02599066666667, "bike_id": "aa5d1b5875869a5ffb45a060d83a07f7", "rental_uris": {"android": "https://dc.lft.to/lastmile_qr_scan", "ios": "https://dc.lft.to/lastmile_qr_scan"}, "name": "aa5d1b5875869a5ffb45a060d83a07f7", "is_reserved": 0}, {"is_disabled": 0, "fusion_lon": 0.0, "fusion_lat": 0.0, "lat": 38.92479633333333, "type": "electric_scooter", "lon": -77.02711083333334, "bike_id": "635456ee880074a6f6def524f2f92d49", "rental_uris": {"android": "https://dc.lft.to/lastmile_qr_scan", "ios": "https://dc.lft.to/lastmile_qr_scan"}, "name": "635456ee880074a6f6def524f2f92d49", "is_reserved": 0}, {"is_disabled": 0, "fusion_lon": 0.0, "fusion_lat": 0.0, "lat": 38.967545, "type": "electric_bike", "lon": -77.09161883333333, "bike_id": "3c8969e4c578436d95c97838e903b8ef", "rental_uris": {"android": "https://dc.lft.to/lastmile_qr_scan", "ios": "https://dc.lft.to/lastmile_qr_scan"}, "name": "3c8969e4c578436d95c97838e903b8ef", "is_reserved": 0}, {"is_disabled": 0, "fusion_lon": 0.0, "fusion_lat": 0.0, "lat": 38.88832633333333, "type": "electric_scooter", "lon": -77.04908566666667, "bike_id": "81ddc9577f7463d71d08dd027f16c31d", "rental_uris": {"android": "https://dc.lft.to/lastmile_qr_scan", "ios": "https://dc.lft.to/lastmile_qr_scan"}, "name": "81ddc9577f7463d71d08dd027f16c31d", "is_reserved": 0}, {"is_disabled": 0, "fusion_lon": 0.0, "fusion_lat": 0.0, "lat": 38.99884183333333, "type": "electric_bike", "lon": -77.02874633333333, "bike_id": "0b07b2a4d1ee84aa530a92f1384bd357", "rental_uris": {"android": "https://dc.lft.to/lastmile_qr_scan", "ios": "https://dc.lft.to/lastmile_qr_scan"}, "name": "0b07b2a4d1ee84aa530a92f1384bd357", "is_reserved": 0}, {"is_disabled": 0, "fusion_lon": 0.0, "fusion_lat": 0.0, "lat": 38.9286965, "type": "electric_scooter", "lon": -77.0142055, "bike_id": "626fbf8043592e0fbf80b141892e3ba7", "rental_uris": {"android": "https://dc.lft.to/lastmile_qr_scan", "ios": "https://dc.lft.to/lastmile_qr_scan"}, "name": "626fbf8043592e0fbf80b141892e3ba7", "is_reserved": 0}, {"is_disabled": 0, "fusion_lon": 0.0, "fusion_lat": 0.0, "lat": 38.89721766666667, "type": "electric_scooter", "lon": -77.02613466666666, "bike_id": "676858c406243093899994b514313a8d", "rental_uris": {"android": "https://dc.lft.to/lastmile_qr_scan", "ios": "https://dc.lft.to/lastmile_qr_scan"}, "name": "676858c406243093899994b514313a8d", "is_reserved": 0}, {"is_disabled": 0, "fusion_lon": 0.0, "fusion_lat": 0.0, "lat": 38.89612366666667, "type": "electric_bike", "lon": -77.02984233333333, "bike_id": "e1be282d9565b0b71defb08360cc3d65", "rental_uris": {"android": "https://dc.lft.to/lastmile_qr_scan", "ios": "https://dc.lft.to/lastmile_qr_scan"}, "name": "e1be282d9565b0b71defb08360cc3d65", "is_reserved": 0}, {"is_disabled": 0, "fusion_lon": 0.0, "fusion_lat": 0.0, "lat": 38.858056833333336, "type": "electric_scooter", "lon": -76.98653216666666, "bike_id": "56367c4d2c20824a3be94f6a4a95bbf6", "rental_uris": {"android": "https://dc.lft.to/lastmile_qr_scan", "ios": "https://dc.lft.to/lastmile_qr_scan"}, "name": "56367c4d2c20824a3be94f6a4a95bbf6", "is_reserved": 0}, {"is_disabled": 0, "fusion_lon": 0.0, "fusion_lat": 0.0, "lat": 38.84196216666667, "type": "electric_bike", "lon": -77.10685683333334, "bike_id": "bafd6b44a43fe45c7e112f3cb4609d2e", "rental_uris": {"android": "https://dc.lft.to/lastmile_qr_scan", "ios": "https://dc.lft.to/lastmile_qr_scan"}, "name": "bafd6b44a43fe45c7e112f3cb4609d2e", "is_reserved": 0}, {"is_disabled": 0, "fusion_lon": 0.0, "fusion_lat": 0.0, "lat": 38.9013335, "type": "electric_scooter", "lon": -77.01197733333333, "bike_id": "d51dec8eb4c95bc4788df228b308f9fc", "rental_uris": {"android": "https://dc.lft.to/lastmile_qr_scan", "ios": "https://dc.lft.to/lastmile_qr_scan"}, "name": "d51dec8eb4c95bc4788df228b308f9fc", "is_reserved": 0}, {"is_disabled": 0, "fusion_lon": 0.0, "fusion_lat": 0.0, "lat": 38.92326766666667, "type": "electric_scooter", "lon": -77.035798, "bike_id": "305d45dc3d233e2ee537492bcdab54bc", "rental_uris": {"android": "https://dc.lft.to/lastmile_qr_scan", "ios": "https://dc.lft.to/lastmile_qr_scan"}, "name": "305d45dc3d233e2ee537492bcdab54bc", "is_reserved": 0}, {"is_disabled": 0, "fusion_lon": 0.0, "fusion_lat": 0.0, "lat": 38.91261033333333, "type": "electric_scooter", "lon": -77.01697333333334, "bike_id": "d74d0983e8faa8f9e3f8f729c3b75873", "rental_uris": {"android": "https://dc.lft.to/lastmile_qr_scan", "ios": "https://dc.lft.to/lastmile_qr_scan"}, "name": "d74d0983e8faa8f9e3f8f729c3b75873", "is_reserved": 0}, {"is_disabled": 0, "fusion_lon": 0.0, "fusion_lat": 0.0, "lat": 38.895393, "type": "electric_scooter", "lon": -77.029376, "bike_id": "449947abfa1eba37ebc4cecaf8165171", "rental_uris": {"android": "https://dc.lft.to/lastmile_qr_scan", "ios": "https://dc.lft.to/lastmile_qr_scan"}, "name": "449947abfa1eba37ebc4cecaf8165171", "is_reserved": 0}, {"is_disabled": 0, "fusion_lon": 0.0, "fusion_lat": 0.0, "lat": 38.9196805, "type": "electric_scooter", "lon": -77.04170533333334, "bike_id": "f941a7a7484831571bea6a7c1c5cc171", "rental_uris": {"android": "https://dc.lft.to/lastmile_qr_scan", "ios": "https://dc.lft.to/lastmile_qr_scan"}, "name": "f941a7a7484831571bea6a7c1c5cc171", "is_reserved": 0}, {"is_disabled": 0, "fusion_lon": 0.0, "fusion_lat": 0.0, "lat": 38.887324166666666, "type": "electric_scooter", "lon": -77.0151165, "bike_id": "4390d844fcd4b0a5d4bb5e15c2af5c68", "rental_uris": {"android": "https://dc.lft.to/lastmile_qr_scan", "ios": "https://dc.lft.to/lastmile_qr_scan"}, "name": "4390d844fcd4b0a5d4bb5e15c2af5c68", "is_reserved": 0}, {"is_disabled": 0, "fusion_lon": 0.0, "fusion_lat": 0.0, "lat": 38.885839833333335, "type": "electric_scooter", "lon": -77.01224116666667, "bike_id": "d518364cf5ede4017510ed8f95371b7f", "rental_uris": {"android": "https://dc.lft.to/lastmile_qr_scan", "ios": "https://dc.lft.to/lastmile_qr_scan"}, "name": "d518364cf5ede4017510ed8f95371b7f", "is_reserved": 0}, {"is_disabled": 0, "fusion_lon": 0.0, "fusion_lat": 0.0, "lat": 38.8646095, "type": "electric_scooter", "lon": -76.99608083333334, "bike_id": "87df3dcc87a48dc0691f7016fcf094df", "rental_uris": {"android": "https://dc.lft.to/lastmile_qr_scan", "ios": "https://dc.lft.to/lastmile_qr_scan"}, "name": "87df3dcc87a48dc0691f7016fcf094df", "is_reserved": 0}, {"is_disabled": 0, "fusion_lon": 0.0, "fusion_lat": 0.0, "lat": 38.93711066666667, "type": "electric_scooter", "lon": -77.03636916666666, "bike_id": "96449d296ee7c6ccf7d503c5b1ee1a55", "rental_uris": {"android": "https://dc.lft.to/lastmile_qr_scan", "ios": "https://dc.lft.to/lastmile_qr_scan"}, "name": "96449d296ee7c6ccf7d503c5b1ee1a55", "is_reserved": 0}, {"is_disabled": 0, "fusion_lon": 0.0, "fusion_lat": 0.0, "lat": 38.951707166666665, "type": "electric_scooter", "lon": -77.03330933333334, "bike_id": "423bf803bbbf7de39feff5c6f9213b64", "rental_uris": {"android": "https://dc.lft.to/lastmile_qr_scan", "ios": "https://dc.lft.to/lastmile_qr_scan"}, "name": "423bf803bbbf7de39feff5c6f9213b64", "is_reserved": 0}, {"is_disabled": 0, "fusion_lon": 0.0, "fusion_lat": 0.0, "lat": 38.94082733333333, "type": "electric_scooter", "lon": -77.06141683333334, "bike_id": "d13217c75d0672e057ec80ff7db006a6", "rental_uris": {"android": "https://dc.lft.to/lastmile_qr_scan", "ios": "https://dc.lft.to/lastmile_qr_scan"}, "name": "d13217c75d0672e057ec80ff7db006a6", "is_reserved": 0}, {"is_disabled": 0, "fusion_lon": 0.0, "fusion_lat": 0.0, "lat": 38.90173466666667, "type": "electric_scooter", "lon": -77.022179, "bike_id": "8a15263155ef657d83ad4af7f022012c", "rental_uris": {"android": "https://dc.lft.to/lastmile_qr_scan", "ios": "https://dc.lft.to/lastmile_qr_scan"}, "name": "8a15263155ef657d83ad4af7f022012c", "is_reserved": 0}, {"is_disabled": 0, "fusion_lon": 0.0, "fusion_lat": 0.0, "lat": 38.918197666666664, "type": "electric_scooter", "lon": -77.03660633333334, "bike_id": "e3db53959cd0a69c6ac75873cec17216", "rental_uris": {"android": "https://dc.lft.to/lastmile_qr_scan", "ios": "https://dc.lft.to/lastmile_qr_scan"}, "name": "e3db53959cd0a69c6ac75873cec17216", "is_reserved": 0}, {"is_disabled": 0, "fusion_lon": 0.0, "fusion_lat": 0.0, "lat": 38.88982416666666, "type": "electric_scooter", "lon": -77.00342616666667, "bike_id": "a1571dc1700009a5ca7ec4f9424652ec", "rental_uris": {"android": "https://dc.lft.to/lastmile_qr_scan", "ios": "https://dc.lft.to/lastmile_qr_scan"}, "name": "a1571dc1700009a5ca7ec4f9424652ec", "is_reserved": 0}, {"is_disabled": 0, "fusion_lon": 0.0, "fusion_lat": 0.0, "lat": 38.93131966666667, "type": "electric_scooter", "lon": -77.07849316666666, "bike_id": "569c6aed628b4ebf32bc46faa1773278", "rental_uris": {"android": "https://dc.lft.to/lastmile_qr_scan", "ios": "https://dc.lft.to/lastmile_qr_scan"}, "name": "569c6aed628b4ebf32bc46faa1773278", "is_reserved": 0}, {"is_disabled": 0, "fusion_lon": 0.0, "fusion_lat": 0.0, "lat": 38.90926916666667, "type": "electric_scooter", "lon": -77.057161, "bike_id": "366915705f002a9d2ff39eb1e1556614", "rental_uris": {"android": "https://dc.lft.to/lastmile_qr_scan", "ios": "https://dc.lft.to/lastmile_qr_scan"}, "name": "366915705f002a9d2ff39eb1e1556614", "is_reserved": 0}, {"is_disabled": 0, "fusion_lon": 0.0, "fusion_lat": 0.0, "lat": 38.91380933333333, "type": "electric_scooter", "lon": -77.01704, "bike_id": "cd4ffe8aed88f12a44da095196837827", "rental_uris": {"android": "https://dc.lft.to/lastmile_qr_scan", "ios": "https://dc.lft.to/lastmile_qr_scan"}, "name": "cd4ffe8aed88f12a44da095196837827", "is_reserved": 0}, {"is_disabled": 0, "fusion_lon": 0.0, "fusion_lat": 0.0, "lat": 38.900029333333336, "type": "electric_scooter", "lon": -77.03291, "bike_id": "04ff7595632cb08be7de27f785aa6571", "rental_uris": {"android": "https://dc.lft.to/lastmile_qr_scan", "ios": "https://dc.lft.to/lastmile_qr_scan"}, "name": "04ff7595632cb08be7de27f785aa6571", "is_reserved": 0}, {"is_disabled": 0, "fusion_lon": 0.0, "fusion_lat": 0.0, "lat": 38.94511583333333, "type": "electric_bike", "lon": -77.00673033333334, "bike_id": "ecfb3839a56eba732ac189238411ca55", "rental_uris": {"android": "https://dc.lft.to/lastmile_qr_scan", "ios": "https://dc.lft.to/lastmile_qr_scan"}, "name": "ecfb3839a56eba732ac189238411ca55", "is_reserved": 0}, {"is_disabled": 0, "fusion_lon": 0.0, "fusion_lat": 0.0, "lat": 38.91087383333333, "type": "electric_scooter", "lon": -77.02209833333333, "bike_id": "b1f2356358b84e05bd2c3252672f2190", "rental_uris": {"android": "https://dc.lft.to/lastmile_qr_scan", "ios": "https://dc.lft.to/lastmile_qr_scan"}, "name": "b1f2356358b84e05bd2c3252672f2190", "is_reserved": 0}, {"is_disabled": 0, "fusion_lon": 0.0, "fusion_lat": 0.0, "lat": 38.90374666666666, "type": "electric_bike", "lon": -76.99551916666667, "bike_id": "ce26ad4f32b3f5f582cc52c62a4a23da", "rental_uris": {"android": "https://dc.lft.to/lastmile_qr_scan", "ios": "https://dc.lft.to/lastmile_qr_scan"}, "name": "ce26ad4f32b3f5f582cc52c62a4a23da", "is_reserved": 0}, {"is_disabled": 0, "fusion_lon": 0.0, "fusion_lat": 0.0, "lat": 38.89601016666667, "type": "electric_scooter", "lon": -77.0091285, "bike_id": "2aed635100d3270e414466c22c53d610", "rental_uris": {"android": "https://dc.lft.to/lastmile_qr_scan", "ios": "https://dc.lft.to/lastmile_qr_scan"}, "name": "2aed635100d3270e414466c22c53d610", "is_reserved": 0}, {"is_disabled": 0, "fusion_lon": 0.0, "fusion_lat": 0.0, "lat": 38.87523366666667, "type": "electric_scooter", "lon": -77.00071883333334, "bike_id": "4f43d69395289386593be247a6d09705", "rental_uris": {"android": "https://dc.lft.to/lastmile_qr_scan", "ios": "https://dc.lft.to/lastmile_qr_scan"}, "name": "4f43d69395289386593be247a6d09705", "is_reserved": 0}, {"is_disabled": 0, "fusion_lon": 0.0, "fusion_lat": 0.0, "lat": 38.915167333333336, "type": "electric_scooter", "lon": -77.019823, "bike_id": "f8b693e0af96590958668e71428b5e8e", "rental_uris": {"android": "https://dc.lft.to/lastmile_qr_scan", "ios": "https://dc.lft.to/lastmile_qr_scan"}, "name": "f8b693e0af96590958668e71428b5e8e", "is_reserved": 0}, {"is_disabled": 0, "fusion_lon": 0.0, "fusion_lat": 0.0, "lat": 38.9033415, "type": "electric_bike", "lon": -76.97526116666667, "bike_id": "860bc48f5fbcbca4c8c60c04bb4dd4d2", "rental_uris": {"android": "https://dc.lft.to/lastmile_qr_scan", "ios": "https://dc.lft.to/lastmile_qr_scan"}, "name": "860bc48f5fbcbca4c8c60c04bb4dd4d2", "is_reserved": 0}, {"is_disabled": 0, "fusion_lon": 0.0, "fusion_lat": 0.0, "lat": 38.93493733333333, "type": "electric_scooter", "lon": -77.02714116666667, "bike_id": "21da46f96c9241ca8c172775f3b609ee", "rental_uris": {"android": "https://dc.lft.to/lastmile_qr_scan", "ios": "https://dc.lft.to/lastmile_qr_scan"}, "name": "21da46f96c9241ca8c172775f3b609ee", "is_reserved": 0}, {"is_disabled": 0, "fusion_lon": 0.0, "fusion_lat": 0.0, "lat": 38.924028166666666, "type": "electric_scooter", "lon": -77.02543983333334, "bike_id": "33b4e676c21128542bbe4099d0f38542", "rental_uris": {"android": "https://dc.lft.to/lastmile_qr_scan", "ios": "https://dc.lft.to/lastmile_qr_scan"}, "name": "33b4e676c21128542bbe4099d0f38542", "is_reserved": 0}, {"is_disabled": 0, "fusion_lon": 0.0, "fusion_lat": 0.0, "lat": 38.91596716666667, "type": "electric_scooter", "lon": -77.02343483333334, "bike_id": "11626ae19b395cca01a2e9365c7a4d37", "rental_uris": {"android": "https://dc.lft.to/lastmile_qr_scan", "ios": "https://dc.lft.to/lastmile_qr_scan"}, "name": "11626ae19b395cca01a2e9365c7a4d37", "is_reserved": 0}, {"is_disabled": 0, "fusion_lon": 0.0, "fusion_lat": 0.0, "lat": 38.88581416666667, "type": "electric_scooter", "lon": -77.01224833333333, "bike_id": "9e0e305f4cbec234d5aec77a0b92a15c", "rental_uris": {"android": "https://dc.lft.to/lastmile_qr_scan", "ios": "https://dc.lft.to/lastmile_qr_scan"}, "name": "9e0e305f4cbec234d5aec77a0b92a15c", "is_reserved": 0}, {"is_disabled": 0, "fusion_lon": 0.0, "fusion_lat": 0.0, "lat": 38.903723, "type": "electric_scooter", "lon": -77.007334, "bike_id": "3fc67bbb329416be4eeaba4d1a24266b", "rental_uris": {"android": "https://dc.lft.to/lastmile_qr_scan", "ios": "https://dc.lft.to/lastmile_qr_scan"}, "name": "3fc67bbb329416be4eeaba4d1a24266b", "is_reserved": 0}, {"is_disabled": 0, "fusion_lon": 0.0, "fusion_lat": 0.0, "lat": 38.91570516666667, "type": "electric_scooter", "lon": -77.039373, "bike_id": "e7bddaf67617bb6feeda0781e12f8880", "rental_uris": {"android": "https://dc.lft.to/lastmile_qr_scan", "ios": "https://dc.lft.to/lastmile_qr_scan"}, "name": "e7bddaf67617bb6feeda0781e12f8880", "is_reserved": 0}, {"is_disabled": 0, "fusion_lon": 0.0, "fusion_lat": 0.0, "lat": 38.9705085, "type": "electric_scooter", "lon": -77.0323655, "bike_id": "9887b644cb6a5a333bcf8be4af38fd8a", "rental_uris": {"android": "https://dc.lft.to/lastmile_qr_scan", "ios": "https://dc.lft.to/lastmile_qr_scan"}, "name": "9887b644cb6a5a333bcf8be4af38fd8a", "is_reserved": 0}, {"is_disabled": 0, "fusion_lon": 0.0, "fusion_lat": 0.0, "lat": 38.9285435, "type": "electric_scooter", "lon": -77.03328933333333, "bike_id": "97b751ab326837f0a4aa813adafa3ac2", "rental_uris": {"android": "https://dc.lft.to/lastmile_qr_scan", "ios": "https://dc.lft.to/lastmile_qr_scan"}, "name": "97b751ab326837f0a4aa813adafa3ac2", "is_reserved": 0}, {"is_disabled": 0, "fusion_lon": 0.0, "fusion_lat": 0.0, "lat": 38.91043716666667, "type": "electric_scooter", "lon": -77.03861833333333, "bike_id": "b84237a07a675508bcb121bd569ff0d4", "rental_uris": {"android": "https://dc.lft.to/lastmile_qr_scan", "ios": "https://dc.lft.to/lastmile_qr_scan"}, "name": "b84237a07a675508bcb121bd569ff0d4", "is_reserved": 0}, {"is_disabled": 0, "fusion_lon": 0.0, "fusion_lat": 0.0, "lat": 38.903839833333336, "type": "electric_scooter", "lon": -77.03444816666666, "bike_id": "5ad41cf78686aa0d7151b0c105723ae7", "rental_uris": {"android": "https://dc.lft.to/lastmile_qr_scan", "ios": "https://dc.lft.to/lastmile_qr_scan"}, "name": "5ad41cf78686aa0d7151b0c105723ae7", "is_reserved": 0}, {"is_disabled": 0, "fusion_lon": 0.0, "fusion_lat": 0.0, "lat": 38.908011333333334, "type": "electric_scooter", "lon": -77.04092883333334, "bike_id": "122c75eae6541e644fe65015bc2966c9", "rental_uris": {"android": "https://dc.lft.to/lastmile_qr_scan", "ios": "https://dc.lft.to/lastmile_qr_scan"}, "name": "122c75eae6541e644fe65015bc2966c9", "is_reserved": 0}, {"is_disabled": 0, "fusion_lon": 0.0, "fusion_lat": 0.0, "lat": 38.903106, "type": "electric_scooter", "lon": -76.98254566666667, "bike_id": "940cb543c484467d4b5a83dcc2823943", "rental_uris": {"android": "https://dc.lft.to/lastmile_qr_scan", "ios": "https://dc.lft.to/lastmile_qr_scan"}, "name": "940cb543c484467d4b5a83dcc2823943", "is_reserved": 0}, {"is_disabled": 0, "fusion_lon": 0.0, "fusion_lat": 0.0, "lat": 38.912534666666666, "type": "electric_scooter", "lon": -77.00929833333333, "bike_id": "9c43906c2c2fbbe461ab9b60d68cecac", "rental_uris": {"android": "https://dc.lft.to/lastmile_qr_scan", "ios": "https://dc.lft.to/lastmile_qr_scan"}, "name": "9c43906c2c2fbbe461ab9b60d68cecac", "is_reserved": 0}, {"is_disabled": 0, "fusion_lon": 0.0, "fusion_lat": 0.0, "lat": 38.89358583333333, "type": "electric_scooter", "lon": -76.93991533333333, "bike_id": "c87fc4cc8ccf277889941a59946c64d6", "rental_uris": {"android": "https://dc.lft.to/lastmile_qr_scan", "ios": "https://dc.lft.to/lastmile_qr_scan"}, "name": "c87fc4cc8ccf277889941a59946c64d6", "is_reserved": 0}, {"is_disabled": 0, "fusion_lon": 0.0, "fusion_lat": 0.0, "lat": 38.950871666666664, "type": "electric_bike", "lon": -76.96561683333333, "bike_id": "1aa2267f5e72c03877a83bee98520940", "rental_uris": {"android": "https://dc.lft.to/lastmile_qr_scan", "ios": "https://dc.lft.to/lastmile_qr_scan"}, "name": "1aa2267f5e72c03877a83bee98520940", "is_reserved": 0}, {"is_disabled": 0, "fusion_lon": 0.0, "fusion_lat": 0.0, "lat": 38.911753833333336, "type": "electric_scooter", "lon": -77.00455133333334, "bike_id": "26651bd388c8e5704928b12378695100", "rental_uris": {"android": "https://dc.lft.to/lastmile_qr_scan", "ios": "https://dc.lft.to/lastmile_qr_scan"}, "name": "26651bd388c8e5704928b12378695100", "is_reserved": 0}, {"is_disabled": 0, "fusion_lon": 0.0, "fusion_lat": 0.0, "lat": 38.88342766666667, "type": "electric_scooter", "lon": -76.94180583333333, "bike_id": "991e34ddc956653de5e6ae4e634d855e", "rental_uris": {"android": "https://dc.lft.to/lastmile_qr_scan", "ios": "https://dc.lft.to/lastmile_qr_scan"}, "name": "991e34ddc956653de5e6ae4e634d855e", "is_reserved": 0},