{"data": {"bikes": [{"fusion_lon": 0.0, "name": "b62a5512e8a909ba4e1d0306ce152a0f", "rental_uris": {"android": "https://dc.lft.to/lastmile_qr_scan", "ios": "https://dc.lft.to/lastmile_qr_scan"}, "lat": 38.926122166666666, "bike_id": "b62a5512e8a909ba4e1d0306ce152a0f", "is_disabled": 0, "lon": -77.021621, "is_reserved": 0, "fusion_lat": 0.0, "type": "electric_scooter"}, {"fusion_lon": 0.0, "name": "35cac0dd128a98dc8722f45c0f1b783a", "rental_uris": {"android": "https://dc.lft.to/lastmile_qr_scan", "ios": "https://dc.lft.to/lastmile_qr_scan"}, "lat": 38.9199285, "bike_id": "35cac0dd128a98dc8722f45c0f1b783a", "is_disabled": 0, "lon": -77.03887166666667, "is_reserved": 0, "fusion_lat": 0.0, "type": "electric_scooter"}, {"fusion_lon": 0.0, "name": "12b50e09bb9cdf22a5e3380b0f2356b4", "rental_uris": {"android": "https://dc.lft.to/lastmile_qr_scan", "ios": "https://dc.lft.to/lastmile_qr_scan"}, "lat": 38.95390783333333, "bike_id": "12b50e09bb9cdf22a5e3380b0f2356b4", "is_disabled": 0, "lon": -76.99878683333333, "is_reserved": 0, "fusion_lat": 0.0, "type": "electric_bike"}, {"fusion_lon": 0.0, "name": "7a5a5ba426d6beacb8058d2053f9f509", "rental_uris": {"android": "https://dc.lft.to/lastmile_qr_scan", "ios": "https://dc.lft.to/lastmile_qr_scan"}, "lat": 38.892218166666666, "bike_id": "7a5a5ba426d6beacb8058d2053f9f509", "is_disabled": 0, "lon": -77.04193483333333, "is_reserved": 0, "fusion_lat": 0.0, "type": "electric_scooter"}, {"fusion_lon": 0.0, "name": "ed3797cdb4e7c1192115d38e58f7eb0a", "rental_uris": {"android": "https://dc.lft.to/lastmile_qr_scan", "ios": "https://dc.lft.to/lastmile_qr_scan"}, "lat": 38.903042166666665, "bike_id": "ed3797cdb4e7c1192115d38e58f7eb0a", "is_disabled": 0, "lon": -77.0239645, "is_reserved": 0, "fusion_lat": 0.0, "type": "electric_scooter"}, {"fusion_lon": 0.0, "name": "1165983116479155504df868d1e2b4e6", "rental_uris": {"android": "https://dc.lft.to/lastmile_qr_scan", "ios": "https://dc.lft.to/lastmile_qr_scan"}, "lat": 38.904078, "bike_id": "1165983116479155504df868d1e2b4e6", "is_disabled": 0, "lon": -77.02483116666667, "is_reserved": 0, "fusion_lat": 0.0, "type": "electric_scooter"}, {"fusion_lon": 0.0, "name": "0213644040b458fd5370bab2e51cd443", "rental_uris": {"android": "https://dc.lft.to/lastmile_qr_scan", "ios": "https://dc.lft.to/lastmile_qr_scan"}, "lat": 38.92974316666667, "bike_id": "0213644040b458fd5370bab2e51cd443", "is_disabled": 0, "lon": -77.038236, "is_reserved": 0, "fusion_lat": 0.0, "type": "electric_bike"}, {"fusion_lon": 0.0, "name": "5b8817001cb114ab78faed8bdc3560da", "rental_uris": {"android": "https://dc.lft.to/lastmile_qr_scan", "ios": "https://dc.lft.to/lastmile_qr_scan"}, "lat": 38.887403666666664, "bike_id": "5b8817001cb114ab78faed8bdc3560da", "is_disabled": 0, "lon": -77.02834316666667, "is_reserved": 0, "fusion_lat": 0.0, "type": "electric_scooter"}, {"fusion_lon": 0.0, "name": "92be0a405678c0a8da78fd6f89d112c4", "rental_uris": {"android": "https://dc.lft.to/lastmile_qr_scan", "ios": "https://dc.lft.to/lastmile_qr_scan"}, "lat": 38.8962865, "bike_id": "92be0a405678c0a8da78fd6f89d112c4", "is_disabled": 0, "lon": -76.929667, "is_reserved": 0, "fusion_lat": 0.0, "type": "electric_scooter"}, {"fusion_lon": 0.0, "name": "ab3182895ca1b35c56dbd29b1fb2245d", "rental_uris": {"android": "https://dc.lft.to/lastmile_qr_scan", "ios": "https://dc.lft.to/lastmile_qr_scan"}, "lat": 38.92498766666667, "bike_id": "ab3182895ca1b35c56dbd29b1fb2245d", "is_disabled": 0, "lon": -77.02154283333333, "is_reserved": 0, "fusion_lat": 0.0, "type": "electric_scooter"}, {"fusion_lon": 0.0, "name": "66def3670fcc9283af462836737f4690", "rental_uris": {"android": "https://dc.lft.to/lastmile_qr_scan", "ios": "https://dc.lft.to/lastmile_qr_scan"}, "lat": 38.902014, "bike_id": "66def3670fcc9283af462836737f4690", "is_disabled": 0, "lon": -77.0611795, "is_reserved": 0, "fusion_lat": 0.0, "type": "electric_scooter"}, {"fusion_lon": 0.0, "name": "6d617f5826240aaf8f24cdaf05c7cc69", "rental_uris": {"android": "https://dc.lft.to/lastmile_qr_scan", "ios": "https://dc.lft.to/lastmile_qr_scan"}, "lat": 38.902296, "bike_id": "6d617f5826240aaf8f24cdaf05c7cc69", "is_disabled": 0, "lon": -77.03475433333334, "is_reserved": 0, "fusion_lat": 0.0, "type": "electric_scooter"}, {"fusion_lon": 0.0, "name": "190cb22940bfc4ab9abfa1ae8a517f53", "rental_uris": {"android": "https://dc.lft.to/lastmile_qr_scan", "ios": "https://dc.lft.to/lastmile_qr_scan"}, "lat": 38.9100305, "bike_id": "190cb22940bfc4ab9abfa1ae8a517f53", "is_disabled": 0, "lon": -77.03999933333333, "is_reserved": 0, "fusion_lat": 0.0, "type": "electric_scooter"}, {"fusion_lon": 0.0, "name": "230c4d26ad20291f0668ac66cd5e1763", "rental_uris": {"android": "https://dc.lft.to/lastmile_qr_scan", "ios": "https://dc.lft.to/lastmile_qr_scan"}, "lat": 38.91576966666667, "bike_id": "230c4d26ad20291f0668ac66cd5e1763", "is_disabled": 0, "lon": -77.03654283333333, "is_reserved": 0, "fusion_lat": 0.0, "type": "electric_scooter"}, {"fusion_lon": 0.0, "name": "3f83a7e595691a8fe877f82b562b6865", "rental_uris": {"android": "https://dc.lft.to/lastmile_qr_scan", "ios": "https://dc.lft.to/lastmile_qr_scan"}, "lat": 38.95181433333333, "bike_id": "3f83a7e595691a8fe877f82b562b6865", "is_disabled": 0, "lon": -77.01257566666666, "is_reserved": 0, "fusion_lat": 0.0, "type": "electric_scooter"}, {"fusion_lon": 0.0, "name": "db49b8ce8676579d8a44b71d50e4dbea", "rental_uris": {"android": "https://dc.lft.to/lastmile_qr_scan", "ios": "https://dc.lft.to/lastmile_qr_scan"}, "lat": 38.950844333333336, "bike_id": "db49b8ce8676579d8a44b71d50e4dbea", "is_disabled": 0, "lon": -77.01226016666666, "is_reserved": 0, "fusion_lat": 0.0, "type": "electric_bike"}, {"fusion_lon": 0.0, "name": "d38da0106995026fe1f639ee0935f6c0", "rental_uris": {"android": "https://dc.lft.to/lastmile_qr_scan", "ios": "https://dc.lft.to/lastmile_qr_scan"}, "lat": 38.913664, "bike_id": "d38da0106995026fe1f639ee0935f6c0", "is_disabled": 0, "lon": -77.091923, "is_reserved": 0, "fusion_lat": 0.0, "type": "electric_scooter"}, {"fusion_lon": 0.0, "name": "9019b48f5122fed8221ee69d904882cc", "rental_uris": {"android": "https://dc.lft.to/lastmile_qr_scan", "ios": "https://dc.lft.to/lastmile_qr_scan"}, "lat": 38.922353, "bike_id": "9019b48f5122fed8221ee69d904882cc", "is_disabled": 0, "lon": -77.04241983333333, "is_reserved": 0, "fusion_lat": 0.0, "type": "electric_scooter"}, {"fusion_lon": 0.0, "name": "b956f6cd18b1eb488dcce2099b6bb9e3", "rental_uris": {"android": "https://dc.lft.to/lastmile_qr_scan", "ios": "https://dc.lft.to/lastmile_qr_scan"}, "lat": 38.884392, "bike_id": "b956f6cd18b1eb488dcce2099b6bb9e3", "is_disabled": 0, "lon": -76.95763866666667, "is_reserved": 0, "fusion_lat": 0.0, "type": "electric_scooter"}, {"fusion_lon": 0.0, "name": "856e30a5c250023f4fefeff5522b0ec6", "rental_uris": {"android": "https://dc.lft.to/lastmile_qr_scan", "ios": "https://dc.lft.to/lastmile_qr_scan"}, "lat": 38.884345833333334, "bike_id": "856e30a5c250023f4fefeff5522b0ec6", "is_disabled": 0, "lon": -76.9972475, "is_reserved": 0, "fusion_lat": 0.0, "type": "electric_scooter"}, {"fusion_lon": 0.0, "name": "21d4746473ab802a48e8d324a6351cc4", "rental_uris": {"android": "https://dc.lft.to/lastmile_qr_scan", "ios": "https://dc.lft.to/lastmile_qr_scan"}, "lat": 38.92413666666667, "bike_id": "21d4746473ab802a48e8d324a6351cc4", "is_disabled": 0, "lon": -77.0212575, "is_reserved": 0, "fusion_lat": 0.0, "type": "electric_scooter"}, {"fusion_lon": 0.0, "name": "dbdb6756d87c6d9f9bdd676a486bd716", "rental_uris": {"android": "https://dc.lft.to/lastmile_qr_scan", "ios": "https://dc.lft.to/lastmile_qr_scan"}, "lat": 38.91578483333333, "bike_id": "dbdb6756d87c6d9f9bdd676a486bd716", "is_disabled": 0, "lon": -77.03756683333333, "is_reserved": 0, "fusion_lat": 0.0, "type": "electric_scooter"}, {"fusion_lon": 0.0, "name": "33455e4f1ced7da2335043fa869eed56", "rental_uris": {"android": "https://dc.lft.to/lastmile_qr_scan", "ios": "https://dc.lft.to/lastmile_qr_scan"}, "lat": 38.90310433333333, "bike_id": "33455e4f1ced7da2335043fa869eed56", "is_disabled": 0, "lon": -76.97502016666667, "is_reserved": 0, "fusion_lat": 0.0, "type": "electric_scooter"}, {"fusion_lon": 0.0, "name": "054601d15d162e904f4f2cc72842a7dc", "rental_uris": {"android": "https://dc.lft.to/lastmile_qr_scan", "ios": "https://dc.lft.to/lastmile_qr_scan"}, "lat": 38.9073365, "bike_id": "054601d15d162e904f4f2cc72842a7dc", "is_disabled": 0, "lon": -77.05023033333333, "is_reserved": 0, "fusion_lat": 0.0, "type": "electric_scooter"}, {"fusion_lon": 0.0, "name": "0874afcd8b8f22af53c38f50e3b486bb", "rental_uris": {"android": "https://dc.lft.to/lastmile_qr_scan", "ios": "https://dc.lft.to/lastmile_qr_scan"}, "lat": 38.865250833333334, "bike_id": "0874afcd8b8f22af53c38f50e3b486bb", "is_disabled": 0, "lon": -76.96897433333334, "is_reserved": 0, "fusion_lat": 0.0, "type": "electric_scooter"}, {"fusion_lon": 0.0, "name": "d5789fd04bc95a92da099afd4766d90b", "rental_uris": {"android": "https://dc.lft.to/lastmile_qr_scan", "ios": "https://dc.lft.to/lastmile_qr_scan"}, "lat": 38.923017, "bike_id": "d5789fd04bc95a92da099afd4766d90b", "is_disabled": 0, "lon": -77.02346483333334, "is_reserved": 0, "fusion_lat": 0.0, "type": "electric_bike"}, {"fusion_lon": 0.0, "name": "aa7bb471274960a713c149bd4c9bf463", "rental_uris": {"android": "https://dc.lft.to/lastmile_qr_scan", "ios": "https://dc.lft.to/lastmile_qr_scan"}, "lat": 38.922400333333336, "bike_id": "aa7bb471274960a713c149bd4c9bf463", "is_disabled": 0, "lon": -77.03173533333333, "is_reserved": 0, "fusion_lat": 0.0, "type": "electric_scooter"}, {"fusion_lon": 0.0, "name": "fe7891f61baecfbb60a21751e304ca5b", "rental_uris": {"android": "https://dc.lft.to/lastmile_qr_scan", "ios": "https://dc.lft.to/lastmile_qr_scan"}, "lat": 38.9328475, "bike_id": "fe7891f61baecfbb60a21751e304ca5b", "is_disabled": 0, "lon": -77.03534433333333, "is_reserved": 0, "fusion_lat": 0.0, "type": "electric_scooter"}, {"fusion_lon": 0.0, "name": "bc636587ef0237d05f98ada294ee6941", "rental_uris": {"android": "https://dc.lft.to/lastmile_qr_scan", "ios": "https://dc.lft.to/lastmile_qr_scan"}, "lat": 38.898323166666664, "bike_id": "bc636587ef0237d05f98ada294ee6941", "is_disabled": 0, "lon": -77.02373733333333, "is_reserved": 0, "fusion_lat": 0.0, "type": "electric_scooter"}, {"fusion_lon": 0.0, "name": "a93b8b2f1c2c2550ac4f2fc5f4f5d16f", "rental_uris": {"android": "https://dc.lft.to/lastmile_qr_scan", "ios": "https://dc.lft.to/lastmile_qr_scan"}, "lat": 38.923581, "bike_id": "a93b8b2f1c2c2550ac4f2fc5f4f5d16f", "is_disabled": 0, "lon": -77.028177, "is_reserved": 0, "fusion_lat": 0.0, "type": "electric_scooter"}, {"fusion_lon": 0.0, "name": "2515b9900b48108987a6a7e4d8d4f2c1", "rental_uris": {"android": "https://dc.lft.to/lastmile_qr_scan", "ios": "https://dc.lft.to/lastmile_qr_scan"}, "lat": 38.88653516666667, "bike_id": "2515b9900b48108987a6a7e4d8d4f2c1", "is_disabled": 0, "lon": -77.033872, "is_reserved": 0, "fusion_lat": 0.0, "type": "electric_scooter"}, {"fusion_lon": 0.0, "name": "587d469c34133092a0db7842c8c161a1", "rental_uris": {"android": "https://dc.lft.to/lastmile_qr_scan", "ios": "https://dc.lft.to/lastmile_qr_scan"}, "lat": 38.908321, "bike_id": "587d469c34133092a0db7842c8c161a1", "is_disabled": 0, "lon": -77.073032, "is_reserved": 0, "fusion_lat": 0.0, "type": "electric_scooter"}, {"fusion_lon": 0.0, "name": "c50ac24b46ac29abfa30070b8b2adbbe", "rental_uris": {"android": "https://dc.lft.to/lastmile_qr_scan", "ios": "https://dc.lft.to/lastmile_qr_scan"}, "lat": 38.91986133333333, "bike_id": "c50ac24b46ac29abfa30070b8b2adbbe", "is_disabled": 0, "lon": -77.03260133333333, "is_reserved": 0, "fusion_lat": 0.0, "type": "electric_scooter"}, {"fusion_lon": 0.0, "name": "c64188316e8bbc32f69800662dcba5c4", "rental_uris": {"android": "https://dc.lft.to/lastmile_qr_scan", "ios": "https://dc.lft.to/lastmile_qr_scan"}, "lat": 38.900132666666664, "bike_id": "c64188316e8bbc32f69800662dcba5c4", "is_disabled": 0, "lon": -76.9783465, "is_reserved": 0, "fusion_lat": 0.0, "type": "electric_scooter"}, {"fusion_lon": 0.0, "name": "3ec86a3810dd8194cdf82e7e35ec0fa2", "rental_uris": {"android": "https://dc.lft.to/lastmile_qr_scan", "ios": "https://dc.lft.to/lastmile_qr_scan"}, "lat": 38.91402466666667, "bike_id": "3ec86a3810dd8194cdf82e7e35ec0fa2", "is_disabled": 0, "lon": -77.04567183333333, "is_reserved": 0, "fusion_lat": 0.0, "type": "electric_scooter"}, {"fusion_lon": 0.0, "name": "4c955ce4a794779b298f632393da32e6", "rental_uris": {"android": "https://dc.lft.to/lastmile_qr_scan", "ios": "https://dc.lft.to/lastmile_qr_scan"}, "lat": 38.921364833333335, "bike_id": "4c955ce4a794779b298f632393da32e6", "is_disabled": 0, "lon": -77.045073, "is_reserved": 0, "fusion_lat": 0.0, "type": "electric_scooter"}, {"fusion_lon": 0.0, "name": "784f45bd642334285b00b5df520174d5", "rental_uris": {"android": "https://dc.lft.to/lastmile_qr_scan", "ios": "https://dc.lft.to/lastmile_qr_scan"}, "lat": 38.89195483333334, "bike_id": "784f45bd642334285b00b5df520174d5", "is_disabled": 0, "lon": -76.958104, "is_reserved": 0, "fusion_lat": 0.0, "type": "electric_scooter"}, {"fusion_lon": 0.0, "name": "57baaf1832b4212d8d6c7acaf4f2484c", "rental_uris": {"android": "https://dc.lft.to/lastmile_qr_scan", "ios": "https://dc.lft.to/lastmile_qr_scan"}, "lat": 38.923628, "bike_id": "57baaf1832b4212d8d6c7acaf4f2484c", "is_disabled": 0, "lon": -77.0205815, "is_reserved": 0, "fusion_lat": 0.0, "type": "electric_scooter"}, {"fusion_lon": 0.0, "name": "e3e4acc031e9b82b1780fe51828ec8eb", "rental_uris": {"android": "https://dc.lft.to/lastmile_qr_scan", "ios": "https://dc.lft.to/lastmile_qr_scan"}, "lat": 38.889586666666666, "bike_id": "e3e4acc031e9b82b1780fe51828ec8eb", "is_disabled": 0, "lon": -76.98814633333333, "is_reserved": 0, "fusion_lat": 0.0, "type": "electric_scooter"}, {"fusion_lon": 0.0, "name": "4324bdb3bcee037b613ca5fa95dadd40", "rental_uris": {"android": "https://dc.lft.to/lastmile_qr_scan", "ios": "https://dc.lft.to/lastmile_qr_scan"}, "lat": 38.924277833333335, "bike_id": "4324bdb3bcee037b613ca5fa95dadd40", "is_disabled": 0, "lon": -77.04054066666667, "is_reserved": 0, "fusion_lat": 0.0, "type": "electric_scooter"}, {"fusion_lon": 0.0, "name": "02c44237ff0cd5f9117dd84fbfd1bf20", "rental_uris": {"android": "https://dc.lft.to/lastmile_qr_scan", "ios": "https://dc.lft.to/lastmile_qr_scan"}, "lat": 38.90948733333333, "bike_id": "02c44237ff0cd5f9117dd84fbfd1bf20", "is_disabled": 0, "lon": -77.03179133333333, "is_reserved": 0, "fusion_lat": 0.0, "type": "electric_scooter"}, {"fusion_lon": 0.0, "name": "4fc0957bd95b89bcbf7d51e83b7c6ba3", "rental_uris": {"android": "https://dc.lft.to/lastmile_qr_scan", "ios": "https://dc.lft.to/lastmile_qr_scan"}, "lat": 38.938787166666664, "bike_id": "4fc0957bd95b89bcbf7d51e83b7c6ba3", "is_disabled": 0, "lon": -77.02476233333333, "is_reserved": 0, "fusion_lat": 0.0, "type": "electric_scooter"}, {"fusion_lon": 0.0, "name": "bc5d30daae5465981e22fa1afe7496bf", "rental_uris": {"android": "https://dc.lft.to/lastmile_qr_scan", "ios": "https://dc.lft.to/lastmile_qr_scan"}, "lat": 38.92837733333333, "bike_id": "bc5d30daae5465981e22fa1afe7496bf", "is_disabled": 0, "lon": -77.073047, "is_reserved": 0, "fusion_lat": 0.0, "type": "electric_bike"}, {"fusion_lon": 0.0, "name": "a645e557c01c0598736047a0707a1b2b", "rental_uris": {"android": "https://dc.lft.to/lastmile_qr_scan", "ios": "https://dc.lft.to/lastmile_qr_scan"}, "lat": 38.953123166666664, "bike_id": "a645e557c01c0598736047a0707a1b2b", "is_disabled": 0, "lon": -77.06980533333333, "is_reserved": 0, "fusion_lat": 0.0, "type": "electric_scooter"}, {"fusion_lon": 0.0, "name": "1d80167908d904e0663c64d2576e30f4", "rental_uris": {"android": "https://dc.lft.to/lastmile_qr_scan", "ios": "https://dc.lft.to/lastmile_qr_scan"}, "lat": 38.911865, "bike_id": "1d80167908d904e0663c64d2576e30f4", "is_disabled": 0, "lon": -77.06084833333334, "is_reserved": 0, "fusion_lat": 0.0, "type": "electric_scooter"}, {"fusion_lon": 0.0, "name": "b386fbfe6f75618b8a8b62079f1a86c1", "rental_uris": {"android": "https://dc.lft.to/lastmile_qr_scan", "ios": "https://dc.lft.to/lastmile_qr_scan"}, "lat": 38.924781833333334, "bike_id": "b386fbfe6f75618b8a8b62079f1a86c1", "is_disabled": 0, "lon": -77.05101166666667, "is_reserved": 0, "fusion_lat": 0.0, "type": "electric_scooter"}, {"fusion_lon": 0.0, "name": "0a016571e7548d19e39cb98ebd1387fb", "rental_uris": {"android": "https://dc.lft.to/lastmile_qr_scan", "ios": "https://dc.lft.to/lastmile_qr_scan"}, "lat": 38.8804875, "bike_id": "0a016571e7548d19e39cb98ebd1387fb", "is_disabled": 0, "lon": -77.00350016666667, "is_reserved": 0, "fusion_lat": 0.0, "type": "electric_scooter"}, {"fusion_lon": 0.0, "name": "7f3f923001f46a48b763f8a38645c987", "rental_uris": {"android": "https://dc.lft.to/lastmile_qr_scan", "ios": "https://dc.lft.to/lastmile_qr_scan"}, "lat": 38.905304666666666, "bike_id": "7f3f923001f46a48b763f8a38645c987", "is_disabled": 0, "lon": -77.057114, "is_reserved": 0, "fusion_lat": 0.0, "type": "electric_scooter"}, {"fusion_lon": 0.0, "name": "2d8e6acc3657f73fcab7f374cf2f1ec6", "rental_uris": {"android": "https://dc.lft.to/lastmile_qr_scan", "ios": "https://dc.lft.to/lastmile_qr_scan"}, "lat": 38.89543616666667, "bike_id": "2d8e6acc3657f73fcab7f374cf2f1ec6", "is_disabled": 0, "lon": -76.98336566666667, "is_reserved": 0, "fusion_lat": 0.0, "type": "electric_scooter"}, {"fusion_lon": 0.0, "name": "8a7e1160a72fd48481ddb3ec407a2cc3", "rental_uris": {"android": "https://dc.lft.to/lastmile_qr_scan", "ios": "https://dc.lft.to/lastmile_qr_scan"}, "lat": 38.92475916666667, "bike_id": "8a7e1160a72fd48481ddb3ec407a2cc3", "is_disabled": 0, "lon": -77.03825633333334, "is_reserved": 0, "fusion_lat": 0.0, "type": "electric_scooter"}, {"fusion_lon": 0.0, "name": "9a13f308fb0fc1f0492557da21ae56ef", "rental_uris": {"android": "https://dc.lft.to/lastmile_qr_scan", "ios": "https://dc.lft.to/lastmile_qr_scan"}, "lat": 38.92341666666667, "bike_id": "9a13f308fb0fc1f0492557da21ae56ef", "is_disabled": 0, "lon": -77.05080133333334, "is_reserved": 0, "fusion_lat": 0.0, "type": "electric_scooter"}, {"fusion_lon": 0.0, "name": "faf202d1d818a5256bd50093d64047d4", "rental_uris": {"android": "https://dc.lft.to/lastmile_qr_scan", "ios": "https://dc.lft.to/lastmile_qr_scan"}, "lat": 38.92319833333333, "bike_id": "faf202d1d818a5256bd50093d64047d4", "is_disabled": 0, "lon": -77.04037833333334, "is_reserved": 0, "fusion_lat": 0.0, "type": "electric_scooter"}, {"fusion_lon": 0.0, "name": "02e8b89eec5643a18d2305be560d7b10", "rental_uris": {"android": "https://dc.lft.to/lastmile_qr_scan", "ios": "https://dc.lft.to/lastmile_qr_scan"}, "lat": 38.898845, "bike_id": "02e8b89eec5643a18d2305be560d7b10", "is_disabled": 0, "lon": -76.98831366666667, "is_reserved": 0, "fusion_lat": 0.0, "type": "electric_scooter"}, {"fusion_lon": 0.0, "name": "6bfc569d99f13291f3e750ac33a3f7f2", "rental_uris": {"android": "https://dc.lft.to/lastmile_qr_scan", "ios": "https://dc.lft.to/lastmile_qr_scan"}, "lat": 38.938443166666666, "bike_id": "6bfc569d99f13291f3e750ac33a3f7f2", "is_disabled": 0, "lon": -77.02451533333333, "is_reserved": 0, "fusion_lat": 0.0, "type": "electric_scooter"}, {"fusion_lon": 0.0, "name": "5dc4fc8b4e21b1b0caacdb139caf5ea9", "rental_uris": {"android": "https://dc.lft.to/lastmile_qr_scan", "ios": "https://dc.lft.to/lastmile_qr_scan"}, "lat": 38.9205385, "bike_id": "5dc4fc8b4e21b1b0caacdb139caf5ea9", "is_disabled": 0, "lon": -77.02510016666666, "is_reserved": 0, "fusion_lat": 0.0, "type": "electric_scooter"}, {"fusion_lon": 0.0, "name": "2db3b20e7d5694b6bba60a79803bd5c1", "rental_uris": {"android": "https://dc.lft.to/lastmile_qr_scan", "ios": "https://dc.lft.to/lastmile_qr_scan"}, "lat": 38.916111, "bike_id": "2db3b20e7d5694b6bba60a79803bd5c1", "is_disabled": 0, "lon": -77.03206633333333, "is_reserved": 0, "fusion_lat": 0.0, "type": "electric_scooter"}, {"fusion_lon": 0.0, "name": "995e480e2436178badb6086c9157db1d", "rental_uris": {"android": "https://dc.lft.to/lastmile_qr_scan", "ios": "https://dc.lft.to/lastmile_qr_scan"}, "lat": 38.94165666666667, "bike_id": "995e480e2436178badb6086c9157db1d", "is_disabled": 0, "lon": -77.0255815, "is_reserved": 0, "fusion_lat": 0.0, "type": "electric_scooter"}, {"fusion_lon": 0.0, "name": "edc3fd004c2f63a8472b6be2dba9ae03", "rental_uris": {"android": "https://dc.lft.to/lastmile_qr_scan", "ios": "https://dc.lft.to/lastmile_qr_scan"}, "lat": 38.9067055, "bike_id": "edc3fd004c2f63a8472b6be2dba9ae03", "is_disabled": 0, "lon": -76.98372033333334, "is_reserved": 0, "fusion_lat": 0.0, "type": "electric_scooter"}, {"fusion_lon": 0.0, "name": "7c901b39a715f45b30e2e032c6669bfc", "rental_uris": {"android": "https://dc.lft.to/lastmile_qr_scan", "ios": "https://dc.lft.to/lastmile_qr_scan"}, "lat": 38.875722833333334, "bike_id": "7c901b39a715f45b30e2e032c6669bfc", "is_disabled": 0, "lon": -77.00574916666666, "is_reserved": 0, "fusion_lat": 0.0, "type": "electric_scooter"}, {"fusion_lon": 0.0, "name": "b92ffc80c23ec5b9e76caddb3a72532e", "rental_uris": {"android": "https://dc.lft.to/lastmile_qr_scan", "ios": "https://dc.lft.to/lastmile_qr_scan"}, "lat": 38.9745165, "bike_id": "b92ffc80c23ec5b9e76caddb3a72532e", "is_disabled": 0, "lon": -77.01810466666667, "is_reserved": 0, "fusion_lat": 0.0, "type": "electric_scooter"}, {"fusion_lon": 0.0, "name": "04070b4e2ee420f3cabd8848cf0aeb3c", "rental_uris": {"android": "https://dc.lft.to/lastmile_qr_scan", "ios": "https://dc.lft.to/lastmile_qr_scan"}, "lat": 38.808671333333336, "bike_id": "04070b4e2ee420f3cabd8848cf0aeb3c", "is_disabled": 0, "lon": -77.11251066666667, "is_reserved": 0, "fusion_lat": 0.0, "type": "electric_bike"}, {"fusion_lon": 0.0, "name": "4987836fe91407e4fe54ace9669fecee", "rental_uris": {"android": "https://dc.lft.to/lastmile_qr_scan", "ios": "https://dc.lft.to/lastmile_qr_scan"}, "lat": 38.9078285, "bike_id": "4987836fe91407e4fe54ace9669fecee", "is_disabled": 0, "lon": -76.99858066666667, "is_reserved": 0, "fusion_lat": 0.0, "type": "electric_scooter"}, {"fusion_lon": 0.0, "name": "4d5ad55d3f39309c6c18f3b27c87f703", "rental_uris": {"android": "https://dc.lft.to/lastmile_qr_scan", "ios": "https://dc.lft.to/lastmile_qr_scan"}, "lat": 38.8717885, "bike_id": "4d5ad55d3f39309c6c18f3b27c87f703", "is_disabled": 0, "lon": -77.233874, "is_reserved": 0, "fusion_lat": 0.0, "type": "electric_bike"}, {"fusion_lon": 0.0, "name": "7b29b4e3a9b63d1f06707addb6d557b9", "rental_uris": {"android": "https://dc.lft.to/lastmile_qr_scan", "ios": "https://dc.lft.to/lastmile_qr_scan"}, "lat": 38.90867216666667, "bike_id": "7b29b4e3a9b63d1f06707addb6d557b9", "is_disabled": 0, "lon": -77.07164766666666, "is_reserved": 0, "fusion_lat": 0.0, "type": "electric_scooter"}, {"fusion_lon": 0.0, "name": "b91338b1d90c2939242e12385da22a9f", "rental_uris": {"android": "https://dc.lft.to/lastmile_qr_scan", "ios": "https://dc.lft.to/lastmile_qr_scan"}, "lat": 38.871980666666666, "bike_id": "b91338b1d90c2939242e12385da22a9f", "is_disabled": 0, "lon": -77.00928616666667, "is_reserved": 0, "fusion_lat": 0.0, "type": "electric_scooter"}, {"fusion_lon": 0.0, "name": "4ae7206a732473cb9bf651cd89a73683", "rental_uris": {"android": "https://dc.lft.to/lastmile_qr_scan", "ios": "https://dc.lft.to/lastmile_qr_scan"}, "lat": 38.917587833333336, "bike_id": "4ae7206a732473cb9bf651cd89a73683", "is_disabled": 0, "lon": -77.00913033333333, "is_reserved": 0, "fusion_lat": 0.0, "type": "electric_scooter"}, {"fusion_lon": 0.0, "name": "e621db44c980cc551b13c01b6e8137fa", "rental_uris": {"android": "https://dc.lft.to/lastmile_qr_scan", "ios": "https://dc.lft.to/lastmile_qr_scan"}, "lat": 38.88079166666667, "bike_id": "e621db44c980cc551b13c01b6e8137fa", "is_disabled": 0, "lon": -76.9853055, "is_reserved": 0, "fusion_lat": 0.0, "type": "electric_scooter"}, {"fusion_lon": 0.0, "name": "4bb06473821c1fbb71f83a3577bbc109", "rental_uris": {"android": "https://dc.lft.to/lastmile_qr_scan", "ios": "https://dc.lft.to/lastmile_qr_scan"}, "lat": 38.9222385, "bike_id": "4bb06473821c1fbb71f83a3577bbc109", "is_disabled": 0, "lon": -77.04332816666667, "is_reserved": 0, "fusion_lat": 0.0, "type": "electric_scooter"}, {"fusion_lon": 0.0, "name": "a940e960cd9dbfc5867d54c664a3c159", "rental_uris": {"android": "https://dc.lft.to/lastmile_qr_scan", "ios": "https://dc.lft.to/lastmile_qr_scan"}, "lat": 38.91473116666667, "bike_id": "a940e960cd9dbfc5867d54c664a3c159", "is_disabled": 0, "lon": -77.040061, "is_reserved": 0, "fusion_lat": 0.0, "type": "electric_scooter"}, {"fusion_lon": 0.0, "name": "e0a9bdb65333309f384f20197b5e404b", "rental_uris": {"android": "https://dc.lft.to/lastmile_qr_scan", "ios": "https://dc.lft.to/lastmile_qr_scan"}, "lat": 38.905311, "bike_id": "e0a9bdb65333309f384f20197b5e404b", "is_disabled": 0, "lon": -77.06239083333334, "is_reserved": 0, "fusion_lat": 0.0, "type": "electric_scooter"}, {"fusion_lon": 0.0, "name": "a4d1cb11361848d0387b2aa52f56e6b8", "rental_uris": {"android": "https://dc.lft.to/lastmile_qr_scan", "ios": "https://dc.lft.to/lastmile_qr_scan"}, "lat": 38.8987085, "bike_id": "a4d1cb11361848d0387b2aa52f56e6b8", "is_disabled": 0, "lon": -77.02150283333333, "is_reserved": 0, "fusion_lat": 0.0, "type": "electric_scooter"}, {"fusion_lon": 0.0, "name": "4142eaecc03a3866aeb59dcf9730ad2a", "rental_uris": {"android": "https://dc.lft.to/lastmile_qr_scan", "ios": "https://dc.lft.to/lastmile_qr_scan"}, "lat": 38.9518655, "bike_id": "4142eaecc03a3866aeb59dcf9730ad2a", "is_disabled": 0, "lon": -76.99171116666666, "is_reserved": 0, "fusion_lat": 0.0, "type": "electric_scooter"}, {"fusion_lon": 0.0, "name": "ec49b4f2d6dde90e0c3918d434028ede", "rental_uris": {"android": "https://dc.lft.to/lastmile_qr_scan", "ios": "https://dc.lft.to/lastmile_qr_scan"}, "lat": 38.92057616666666, "bike_id": "ec49b4f2d6dde90e0c3918d434028ede", "is_disabled": 0, "lon": -77.0230415, "is_reserved": 0, "fusion_lat": 0.0, "type": "electric_scooter"}, {"fusion_lon": 0.0, "name": "9457054d0659849193ed18a04738c51e", "rental_uris": {"android": "https://dc.lft.to/lastmile_qr_scan", "ios": "https://dc.lft.to/lastmile_qr_scan"}, "lat": 38.91643, "bike_id": "9457054d0659849193ed18a04738c51e", "is_disabled": 0, "lon": -77.06943916666667, "is_reserved": 0, "fusion_lat": 0.0, "type": "electric_scooter"}, {"fusion_lon": 0.0, "name": "e8f15f0ced62dd4c72685ce659f0396c", "rental_uris": {"android": "https://dc.lft.to/lastmile_qr_scan", "ios": "https://dc.lft.to/lastmile_qr_scan"}, "lat": 38.91554266666667, "bike_id": "e8f15f0ced62dd4c72685ce659f0396c", "is_disabled": 0, "lon": -77.01209533333333, "is_reserved": 0, "fusion_lat": 0.0, "type": "electric_scooter"}, {"fusion_lon": 0.0, "name": "fa29bf0571351ddab57c4e170269bbac", "rental_uris": {"android": "https://dc.lft.to/lastmile_qr_scan", "ios": "https://dc.lft.to/lastmile_qr_scan"}, "lat": 38.9431175, "bike_id": "fa29bf0571351ddab57c4e170269bbac", "is_disabled": 0, "lon": -77.06147283333334, "is_reserved": 0, "fusion_lat": 0.0, "type": "electric_scooter"}, {"fusion_lon": 0.0, "name": "8307b6b6264ad6dc427d6d0801063ceb", "rental_uris": {"android": "https://dc.lft.to/lastmile_qr_scan", "ios": "https://dc.lft.to/lastmile_qr_scan"}, "lat": 38.92284166666666, "bike_id": "8307b6b6264ad6dc427d6d0801063ceb", "is_disabled": 0, "lon": -76.99769683333334, "is_reserved": 0, "fusion_lat": 0.0, "type": "electric_scooter"}, {"fusion_lon": 0.0, "name": "71da8abf5fa08178b307fcf40a23610d", "rental_uris": {"android": "https://dc.lft.to/lastmile_qr_scan", "ios": "https://dc.lft.to/lastmile_qr_scan"}, "lat": 38.8990155, "bike_id": "71da8abf5fa08178b307fcf40a23610d", "is_disabled": 0, "lon": -76.97985916666667, "is_reserved": 0, "fusion_lat": 0.0, "type": "electric_scooter"}, {"fusion_lon": 0.0, "name": "5409fd9ac2602ea494b81051525bf204", "rental_uris": {"android": "https://dc.lft.to/lastmile_qr_scan", "ios": "https://dc.lft.to/lastmile_qr_scan"}, "lat": 38.926708833333336, "bike_id": "5409fd9ac2602ea494b81051525bf204", "is_disabled": 0, "lon": -77.0544, "is_reserved": 0, "fusion_lat": 0.0, "type": "electric_scooter"}, {"fusion_lon": 0.0, "name": "fce8ef0a8b894d3d961797b33af5ba53", "rental_uris": {"android": "https://dc.lft.to/lastmile_qr_scan", "ios": "https://dc.lft.to/lastmile_qr_scan"}, "lat": 38.8984795, "bike_id": "fce8ef0a8b894d3d961797b33af5ba53", "is_disabled": 0, "lon": -77.02812616666667, "is_reserved": 0, "fusion_lat": 0.0, "type": "electric_scooter"}, {"fusion_lon": 0.0, "name": "5babb50335eb95df857aa8978c04596b", "rental_uris": {"android": "https://dc.lft.to/lastmile_qr_scan", "ios": "https://dc.lft.to/lastmile_qr_scan"}, "lat": 38.9070285, "bike_id": "5babb50335eb95df857aa8978c04596b", "is_disabled": 0, "lon": -76.98694066666667, "is_reserved": 0, "fusion_lat": 0.0, "type": "electric_scooter"}, {"fusion_lon": 0.0, "name": "da11683038d7341732ac0c85b1330406", "rental_uris": {"android": "https://dc.lft.to/lastmile_qr_scan", "ios": "https://dc.lft.to/lastmile_qr_scan"}, "lat": 38.9348765, "bike_id": "da11683038d7341732ac0c85b1330406", "is_disabled": 0, "lon": -77.07268066666667, "is_reserved": 0, "fusion_lat": 0.0, "type": "electric_scooter"}, {"fusion_lon": 0.0, "name": "5a36f3991cfdfca435e206dcb772ab70", "rental_uris": {"android": "https://dc.lft.to/lastmile_qr_scan", "ios": "https://dc.lft.to/lastmile_qr_scan"}, "lat": 38.92439366666667, "bike_id": "5a36f3991cfdfca435e206dcb772ab70", "is_disabled": 0, "lon": -77.02127716666666, "is_reserved": 0, "fusion_lat": 0.0, "type": "electric_scooter"}, {"fusion_lon": 0.0, "name": "f3f73ee34c8f81de788defb9ab5cbc4e", "rental_uris": {"android": "https://dc.lft.to/lastmile_qr_scan", "ios": "https://dc.lft.to/lastmile_qr_scan"}, "lat": 38.9376485, "bike_id": "f3f73ee34c8f81de788defb9ab5cbc4e", "is_disabled": 0, "lon": -77.03241933333334, "is_reserved": 0, "fusion_lat": 0.0, "type": "electric_scooter"}, {"fusion_lon": 0.0, "name": "9c4244bd703a6c8078fbc8eeeff2b93f", "rental_uris": {"android": "https://dc.lft.to/lastmile_qr_scan", "ios": "https://dc.lft.to/lastmile_qr_scan"}, "lat": 38.86482733333333, "bike_id": "9c4244bd703a6c8078fbc8eeeff2b93f", "is_disabled": 0, "lon": -76.97742433333333, "is_reserved": 0, "fusion_lat": 0.0, "type": "electric_bike"}, {"fusion_lon": 0.0, "name": "443addaf57b81f6cab5e38c4084dd78a", "rental_uris": {"android": "https://dc.lft.to/lastmile_qr_scan", "ios": "https://dc.lft.to/lastmile_qr_scan"}, "lat": 38.904381, "bike_id": "443addaf57b81f6cab5e38c4084dd78a", "is_disabled": 0, "lon": -77.04354866666667, "is_reserved": 0, "fusion_lat": 0.0, "type": "electric_scooter"}, {"fusion_lon": 0.0, "name": "afb8a3d461b293d0f5a0b71156ba3a45", "rental_uris": {"android": "https://dc.lft.to/lastmile_qr_scan", "ios": "https://dc.lft.to/lastmile_qr_scan"}, "lat": 38.921530833333335, "bike_id": "afb8a3d461b293d0f5a0b71156ba3a45", "is_disabled": 0, "lon": -77.02094366666667, "is_reserved": 0, "fusion_lat": 0.0, "type": "electric_scooter"}, {"fusion_lon": 0.0, "name": "baa773dc79ccced69fc4b1a2fca1218d", "rental_uris": {"android": "https://dc.lft.to/lastmile_qr_scan", "ios": "https://dc.lft.to/lastmile_qr_scan"}, "lat": 38.944214333333335, "bike_id": "baa773dc79ccced69fc4b1a2fca1218d", "is_disabled": 0, "lon": -77.05514566666666, "is_reserved": 0, "fusion_lat": 0.0, "type": "electric_scooter"}, {"fusion_lon": 0.0, "name": "6f99791d51fbc765a14cc6393ee952a6", "rental_uris": {"android": "https://dc.lft.to/lastmile_qr_scan", "ios": "https://dc.lft.to/lastmile_qr_scan"}, "lat": 38.902031666666666, "bike_id": "6f99791d51fbc765a14cc6393ee952a6", "is_disabled": 0, "lon": -77.0590445, "is_reserved": 0, "fusion_lat": 0.0, "type": "electric_scooter"}, {"fusion_lon": 0.0, "name": "885311b64f235eddbea0a9f7ac4c0cf5", "rental_uris": {"android": "https://dc.lft.to/lastmile_qr_scan", "ios": "https://dc.lft.to/lastmile_qr_scan"}, "lat": 38.90068683333333, "bike_id": "885311b64f235eddbea0a9f7ac4c0cf5", "is_disabled": 0, "lon": -77.03197216666666, "is_reserved": 0, "fusion_lat": 0.0, "type": "electric_scooter"}, {"fusion_lon": 0.0, "name": "6d758051b4ca4dd2028cfa7d078b6e4b", "rental_uris": {"android": "https://dc.lft.to/lastmile_qr_scan", "ios": "https://dc.lft.to/lastmile_qr_scan"}, "lat": 38.920564666666664, "bike_id": "6d758051b4ca4dd2028cfa7d078b6e4b", "is_disabled": 0, "lon": -77.024162, "is_reserved": 0, "fusion_lat": 0.0, "type": "electric_scooter"}, {"fusion_lon": 0.0, "name": "289cf4441255d61ed75b08737fbc31c6", "rental_uris": {"android": "https://dc.lft.to/lastmile_qr_scan", "ios": "https://dc.lft.to/lastmile_qr_scan"}, "lat": 38.919498833333336, "bike_id": "289cf4441255d61ed75b08737fbc31c6", "is_disabled": 0, "lon": -77.04861416666667, "is_reserved": 0, "fusion_lat": 0.0, "type": "electric_scooter"}, {"fusion_lon": 0.0, "name": "998a71ad55596a2bb070f259f505eee2", "rental_uris": {"android": "https://dc.lft.to/lastmile_qr_scan", "ios": "https://dc.lft.to/lastmile_qr_scan"}, "lat": 38.91704566666667, "bike_id": "998a71ad55596a2bb070f259f505eee2", "is_disabled": 0, "lon": -77.00108666666667, "is_reserved": 0, "fusion_lat": 0.0, "type": "electric_scooter"}, {"fusion_lon": 0.0, "name": "695897b1b85d3f61a4e3f4b3b793beaa", "rental_uris": {"android": "https://dc.lft.to/lastmile_qr_scan", "ios": "https://dc.lft.to/lastmile_qr_scan"}, "lat": 38.9017705, "bike_id": "695897b1b85d3f61a4e3f4b3b793beaa", "is_disabled": 0, "lon": -77.05089133333334, "is_reserved": 0, "fusion_lat": 0.0, "type": "electric_scooter"}, {"fusion_lon": 0.0, "name": "b6e59320b8ecc290138583f4d02feebe", "rental_uris": {"android": "https://dc.lft.to/lastmile_qr_scan", "ios": "https://dc.lft.to/lastmile_qr_scan"}, "lat": 39.084929, "bike_id": "b6e59320b8ecc290138583f4d02feebe", "is_disabled": 0, "lon": -76.95046816666667, "is_reserved": 0, "fusion_lat": 0.0, "type": "electric_bike"}, {"fusion_lon": 0.0, "name": "06d272edd595d2eb0811f5a5ef7d4921", "rental_uris": {"android": "https://dc.lft.to/lastmile_qr_scan", "ios": "https://dc.lft.to/lastmile_qr_scan"}, "lat": 38.90977633333333, "bike_id": "06d272edd595d2eb0811f5a5ef7d4921", "is_disabled": 0, "lon": -77.033644, "is_reserved": 0, "fusion_lat": 0.0, "type": "electric_scooter"}, {"fusion_lon": 0.0, "name": "158189b8a80953da218341820ee33949", "rental_uris": {"android": "https://dc.lft.to/lastmile_qr_scan", "ios": "https://dc.lft.to/lastmile_qr_scan"}, "lat": 38.912998, "bike_id": "158189b8a80953da218341820ee33949", "is_disabled": 0, "lon": -77.045202, "is_reserved": 0, "fusion_lat": 0.0, "type": "electric_scooter"}, {"fusion_lon": 0.0, "name": "e4eed9c5322ed9b7657ad402a027a728", "rental_uris": {"android": "https://dc.lft.to/lastmile_qr_scan", "ios": "https://dc.lft.to/lastmile_qr_scan"}, "lat": 38.89346833333333, "bike_id": "e4eed9c5322ed9b7657ad402a027a728", "is_disabled": 0, "lon": -77.02875233333333, "is_reserved": 0, "fusion_lat": 0.0, "type": "electric_scooter"}, {"fusion_lon": 0.0, "name": "903f48db3106986cf2840c9d8e1dc273", "rental_uris": {"android": "https://dc.lft.to/lastmile_qr_scan", "ios": "https://dc.lft.to/lastmile_qr_scan"}, "lat": 38.9125105, "bike_id": "903f48db3106986cf2840c9d8e1dc273", "is_disabled": 0, "lon": -77.0321875, "is_reserved": 0, "fusion_lat": 0.0, "type": "electric_scooter"}, {"fusion_lon": 0.0, "name": "56177725bdb5ce238a3ba6848819cad2", "rental_uris": {"android": "https://dc.lft.to/lastmile_qr_scan", "ios": "https://dc.lft.to/lastmile_qr_scan"}, "lat": 38.886138833333334, "bike_id": "56177725bdb5ce238a3ba6848819cad2", "is_disabled": 0, "lon": -77.00276833333334, "is_reserved": 0, "fusion_lat": 0.0, "type": "electric_scooter"}, {"fusion_lon": 0.0, "name": "7bbf1aef8ed9eb375c0f67ad1bdee1fc", "rental_uris": {"android": "https://dc.lft.to/lastmile_qr_scan", "ios": "https://dc.lft.to/lastmile_qr_scan"}, "lat": 38.93434883333333, "bike_id": "7bbf1aef8ed9eb375c0f67ad1bdee1fc", "is_disabled": 0, "lon": -77.03440133333334, "is_reserved": 0, "fusion_lat": 0.0, "type": "electric_scooter"}, {"fusion_lon": 0.0, "name": "239e366bbd7af1380abb0f5cb46d660e", "rental_uris": {"android": "https://dc.lft.to/lastmile_qr_scan", "ios": "https://dc.lft.to/lastmile_qr_scan"}, "lat": 38.922617333333335, "bike_id": "239e366bbd7af1380abb0f5cb46d660e", "is_disabled": 0, "lon": -77.036845, "is_reserved": 0, "fusion_lat": 0.0, "type": "electric_scooter"}, {"fusion_lon": 0.0, "name": "c9bd5615c141c83ab9798c906fd98c7c", "rental_uris": {"android": "https://dc.lft.to/lastmile_qr_scan", "ios": "https://dc.lft.to/lastmile_qr_scan"}, "lat": 38.9752075, "bike_id": "c9bd5615c141c83ab9798c906fd98c7c", "is_disabled": 0, "lon": -77.016885, "is_reserved": 0, "fusion_lat": 0.0, "type": "electric_scooter"}, {"fusion_lon": 0.0, "name": "d4f54e55ad5e2ad46287d0f14078b5ac", "rental_uris": {"android": "https://dc.lft.to/lastmile_qr_scan", "ios": "https://dc.lft.to/lastmile_qr_scan"}, "lat": 38.896263833333336, "bike_id": "d4f54e55ad5e2ad46287d0f14078b5ac", "is_disabled": 0, "lon": -77.03173566666666, "is_reserved": 0, "fusion_lat": 0.0, "type": "electric_scooter"}, {"fusion_lon": 0.0, "name": "1d6615e1b5967bec00071fc1906d30c0", "rental_uris": {"android": "https://dc.lft.to/lastmile_qr_scan", "ios": "https://dc.lft.to/lastmile_qr_scan"}, "lat": 38.92177, "bike_id": "1d6615e1b5967bec00071fc1906d30c0", "is_disabled": 0, "lon": -77.04229516666666, "is_reserved": 0, "fusion_lat": 0.0, "type": "electric_scooter"}, {"fusion_lon": 0.0, "name": "4706939140a94cf54ad8010459d01dfb", "rental_uris": {"android": "https://dc.lft.to/lastmile_qr_scan", "ios": "https://dc.lft.to/lastmile_qr_scan"}, "lat": 38.862391, "bike_id": "4706939140a94cf54ad8010459d01dfb", "is_disabled": 0, "lon": -76.9955175, "is_reserved": 0, "fusion_lat": 0.0, "type": "electric_scooter"}, {"fusion_lon": 0.0, "name": "431481492c2d412b228668d115a3e774", "rental_uris": {"android": "https://dc.lft.to/lastmile_qr_scan", "ios": "https://dc.lft.to/lastmile_qr_scan"}, "lat": 38.91931133333333, "bike_id": "431481492c2d412b228668d115a3e774", "is_disabled": 0, "lon": -77.034747, "is_reserved": 0, "fusion_lat": 0.0, "type": "electric_scooter"}, {"fusion_lon": 0.0, "name": "49dc0a4305209ca2da1c23e8cf520311", "rental_uris": {"android": "https://dc.lft.to/lastmile_qr_scan", "ios": "https://dc.lft.to/lastmile_qr_scan"}, "lat": 38.91883266666667, "bike_id": "49dc0a4305209ca2da1c23e8cf520311", "is_disabled": 0, "lon": -77.022107, "is_reserved": 0, "fusion_lat": 0.0, "type": "electric_scooter"}, {"fusion_lon": 0.0, "name": "82ab69e5c185f84770688010f9fdbf78", "rental_uris": {"android": "https://dc.lft.to/lastmile_qr_scan", "ios": "https://dc.lft.to/lastmile_qr_scan"}, "lat": 39.09436433333333, "bike_id": "82ab69e5c185f84770688010f9fdbf78", "is_disabled": 0, "lon": -77.13460066666667, "is_reserved": 0, "fusion_lat": 0.0, "type": "electric_bike"}, {"fusion_lon": 0.0, "name": "f28666184ccd25baccc978414cf53e57", "rental_uris": {"android": "https://dc.lft.to/lastmile_qr_scan", "ios": "https://dc.lft.to/lastmile_qr_scan"}, "lat": 38.897075, "bike_id": "f28666184ccd25baccc978414cf53e57", "is_disabled": 0, "lon": -76.99116333333333, "is_reserved": 0, "fusion_lat": 0.0, "type": "electric_scooter"}, {"fusion_lon": 0.0, "name": "135ecc05d4e3d2e628b87aaca68d6038", "rental_uris": {"android": "https://dc.lft.to/lastmile_qr_scan", "ios": "https://dc.lft.to/lastmile_qr_scan"}, "lat": 38.9224965, "bike_id": "135ecc05d4e3d2e628b87aaca68d6038", "is_disabled": 0, "lon": -77.03010766666667, "is_reserved": 0, "fusion_lat": 0.0, "type": "electric_scooter"}, {"fusion_lon": 0.0, "name": "47349c950383ec243b53f370692b0145", "rental_uris": {"android": "https://dc.lft.to/lastmile_qr_scan", "ios": "https://dc.lft.to/lastmile_qr_scan"}, "lat": 38.89884283333333, "bike_id": "47349c950383ec243b53f370692b0145", "is_disabled": 0, "lon": -77.03295916666667, "is_reserved": 0, "fusion_lat": 0.0, "type": "electric_scooter"}, {"fusion_lon": 0.0, "name": "d4e24279df3a8a853a9a3163fec5317b", "rental_uris": {"android": "https://dc.lft.to/lastmile_qr_scan", "ios": "https://dc.lft.to/lastmile_qr_scan"}, "lat": 38.942586666666664, "bike_id": "d4e24279df3a8a853a9a3163fec5317b", "is_disabled": 0, "lon": -77.0283945, "is_reserved": 0, "fusion_lat": 0.0, "type": "electric_scooter"}, {"fusion_lon": 0.0, "name": "7879bf395333413dea001c57136ba79a", "rental_uris": {"android": "https://dc.lft.to/lastmile_qr_scan", "ios": "https://dc.lft.to/lastmile_qr_scan"}, "lat": 38.895746, "bike_id": "7879bf395333413dea001c57136ba79a", "is_disabled": 0, "lon": -77.031829, "is_reserved": 0, "fusion_lat": 0.0, "type": "electric_scooter"}, {"fusion_lon": 0.0, "name": "9a92d6789caaa00dac1f87d8046d6acc", "rental_uris": {"android": "https://dc.lft.to/lastmile_qr_scan", "ios": "https://dc.lft.to/lastmile_qr_scan"}, "lat": 38.915598833333334, "bike_id": "9a92d6789caaa00dac1f87d8046d6acc", "is_disabled": 0, "lon": -77.04414216666666, "is_reserved": 0, "fusion_lat": 0.0, "type": "electric_scooter"}, {"fusion_lon": 0.0, "name": "8f84926bd9672171daf3b1a1f0c79c4f", "rental_uris": {"android": "https://dc.lft.to/lastmile_qr_scan", "ios": "https://dc.lft.to/lastmile_qr_scan"}, "lat": 38.975215, "bike_id": "8f84926bd9672171daf3b1a1f0c79c4f", "is_disabled": 0, "lon": -77.0168785, "is_reserved": 0, "fusion_lat": 0.0, "type": "electric_scooter"}, {"fusion_lon": 0.0, "name": "d73aef7dc512409820e55c66e2e45bf7", "rental_uris": {"android": "https://dc.lft.to/lastmile_qr_scan", "ios": "https://dc.lft.to/lastmile_qr_scan"}, "lat": 38.89741633333333, "bike_id": "d73aef7dc512409820e55c66e2e45bf7", "is_disabled": 0, "lon": -77.0458625, "is_reserved": 0, "fusion_lat": 0.0, "type": "electric_scooter"}, {"fusion_lon": 0.0, "name": "04f724ac1110af4789e792fa39617cf3", "rental_uris": {"android": "https://dc.lft.to/lastmile_qr_scan", "ios": "https://dc.lft.to/lastmile_qr_scan"}, "lat": 38.936259166666666, "bike_id": "04f724ac1110af4789e792fa39617cf3", "is_disabled": 0, "lon": -77.06422533333334, "is_reserved": 0, "fusion_lat": 0.0, "type": "electric_scooter"}, {"fusion_lon": 0.0, "name": "261d245bf1233bd28f667c95284fc969", "rental_uris": {"android": "https://dc.lft.to/lastmile_qr_scan", "ios": "https://dc.lft.to/lastmile_qr_scan"}, "lat": 38.91405233333333, "bike_id": "261d245bf1233bd28f667c95284fc969", "is_disabled": 0, "lon": -77.01844016666666, "is_reserved": 0, "fusion_lat": 0.0, "type": "electric_scooter"}, {"fusion_lon": 0.0, "name": "36187513a08ce1d70878bf56333e05fa", "rental_uris": {"android": "https://dc.lft.to/lastmile_qr_scan", "ios": "https://dc.lft.to/lastmile_qr_scan"}, "lat": 38.8996695, "bike_id": "36187513a08ce1d70878bf56333e05fa", "is_disabled": 0, "lon": -77.04530266666667, "is_reserved": 0, "fusion_lat": 0.0, "type": "electric_scooter"}, {"fusion_lon": 0.0, "name": "da7195f9eb45ab9fd5e8b47d4b37f263", "rental_uris": {"android": "https://dc.lft.to/lastmile_qr_scan", "ios": "https://dc.lft.to/lastmile_qr_scan"}, "lat": 38.98915783333333, "bike_id": "da7195f9eb45ab9fd5e8b47d4b37f263", "is_disabled": 0, "lon": -77.09794016666666, "is_reserved": 0, "fusion_lat": 0.0, "type": "electric_bike"}, {"fusion_lon": 0.0, "name": "b4fe9be85b72157896c16e4a5365c311", "rental_uris": {"android": "https://dc.lft.to/lastmile_qr_scan", "ios": "https://dc.lft.to/lastmile_qr_scan"}, "lat": 38.9236455, "bike_id": "b4fe9be85b72157896c16e4a5365c311", "is_disabled": 0, "lon": -77.01903766666666, "is_reserved": 0, "fusion_lat": 0.0, "type": "electric_scooter"}, {"fusion_lon": 0.0, "name": "099c0a7d289e2a963b4feb5b81e70a60", "rental_uris": {"android": "https://dc.lft.to/lastmile_qr_scan", "ios": "https://dc.lft.to/lastmile_qr_scan"}, "lat": 38.9034425, "bike_id": "099c0a7d289e2a963b4feb5b81e70a60", "is_disabled": 0, "lon": -77.06198833333333, "is_reserved": 0, "fusion_lat": 0.0, "type": "electric_scooter"}, {"fusion_lon": 0.0, "name": "d64a7631bc173ea2345818bdcb8007d1", "rental_uris": {"android": "https://dc.lft.to/lastmile_qr_scan", "ios": "https://dc.lft.to/lastmile_qr_scan"}, "lat": 38.9076255, "bike_id": "d64a7631bc173ea2345818bdcb8007d1", "is_disabled": 0, "lon": -77.03723683333334, "is_reserved": 0, "fusion_lat": 0.0, "type": "electric_scooter"}, {"fusion_lon": 0.0, "name": "bceed8c2e7ec46aa557da947555d8add", "rental_uris": {"android": "https://dc.lft.to/lastmile_qr_scan", "ios": "https://dc.lft.to/lastmile_qr_scan"}, "lat": 38.914793, "bike_id": "bceed8c2e7ec46aa557da947555d8add", "is_disabled": 0, "lon": -77.01827933333334, "is_reserved": 0, "fusion_lat": 0.0, "type": "electric_scooter"}, {"fusion_lon": 0.0, "name": "08613e0ea81571862311c6e297012f31", "rental_uris": {"android": "https://dc.lft.to/lastmile_qr_scan", "ios": "https://dc.lft.to/lastmile_qr_scan"}, "lat": 38.920558666666665, "bike_id": "08613e0ea81571862311c6e297012f31", "is_disabled": 0, "lon": -76.98427333333333, "is_reserved": 0, "fusion_lat": 0.0, "type": "electric_scooter"}, {"fusion_lon": 0.0, "name": "71cda1d627180fadc66be1a9b5f55772", "rental_uris": {"android": "https://dc.lft.to/lastmile_qr_scan", "ios": "https://dc.lft.to/lastmile_qr_scan"}, "lat": 38.9004705, "bike_id": "71cda1d627180fadc66be1a9b5f55772", "is_disabled": 0, "lon": -77.05016566666667, "is_reserved": 0, "fusion_lat": 0.0, "type": "electric_scooter"}, {"fusion_lon": 0.0, "name": "11dc33c1db11720ed75d43e3a8f4decb", "rental_uris": {"android": "https://dc.lft.to/lastmile_qr_scan", "ios": "https://dc.lft.to/lastmile_qr_scan"}, "lat": 38.913284, "bike_id": "11dc33c1db11720ed75d43e3a8f4decb", "is_disabled": 0, "lon": -77.0453165, "is_reserved": 0, "fusion_lat": 0.0, "type": "electric_scooter"}, {"fusion_lon": 0.0, "name": "28eac88fdd6616f067c7d0f060ec9804", "rental_uris": {"android": "https://dc.lft.to/lastmile_qr_scan", "ios": "https://dc.lft.to/lastmile_qr_scan"}, "lat": 38.897300333333334, "bike_id": "28eac88fdd6616f067c7d0f060ec9804", "is_disabled": 0, "lon": -77.05452466666667, "is_reserved": 0, "fusion_lat": 0.0, "type": "electric_scooter"}, {"fusion_lon": 0.0, "name": "753af929c08180a60947017655bda9bb", "rental_uris": {"android": "https://dc.lft.to/lastmile_qr_scan", "ios": "https://dc.lft.to/lastmile_qr_scan"}, "lat": 38.8982145, "bike_id": "753af929c08180a60947017655bda9bb", "is_disabled": 0, "lon": -77.02491483333333, "is_reserved": 0, "fusion_lat": 0.0, "type": "electric_scooter"}, {"fusion_lon": 0.0, "name": "70e656b76442c9268e0985795ee585f1", "rental_uris": {"android": "https://dc.lft.to/lastmile_qr_scan", "ios": "https://dc.lft.to/lastmile_qr_scan"}, "lat": 38.90974633333333, "bike_id": "70e656b76442c9268e0985795ee585f1", "is_disabled": 0, "lon": -77.0420805, "is_reserved": 0, "fusion_lat": 0.0, "type": "electric_bike"}, {"fusion_lon": 0.0, "name": "869b7529fa531645b1d103b8a151f3d0", "rental_uris": {"android": "https://dc.lft.to/lastmile_qr_scan", "ios": "https://dc.lft.to/lastmile_qr_scan"}, "lat": 38.90907583333333, "bike_id": "869b7529fa531645b1d103b8a151f3d0", "is_disabled": 0, "lon": -77.02300816666667, "is_reserved": 0, "fusion_lat": 0.0, "type": "electric_scooter"}, {"fusion_lon": 0.0, "name": "8261499fb3c5110a7490abbda28f42fa", "rental_uris": {"android": "https://dc.lft.to/lastmile_qr_scan", "ios": "https://dc.lft.to/lastmile_qr_scan"}, "lat": 39.04240383333333, "bike_id": "8261499fb3c5110a7490abbda28f42fa", "is_disabled": 0, "lon": -76.997296, "is_reserved": 0, "fusion_lat": 0.0, "type": "electric_bike"}, {"fusion_lon": 0.0, "name": "930f31243462596112c26e3d19497908", "rental_uris": {"android": "https://dc.lft.to/lastmile_qr_scan", "ios": "https://dc.lft.to/lastmile_qr_scan"}, "lat": 38.9068, "bike_id": "930f31243462596112c26e3d19497908", "is_disabled": 0, "lon": -77.0355145, "is_reserved": 0, "fusion_lat": 0.0, "type": "electric_scooter"}, {"fusion_lon": 0.0, "name": "cf9b957d85bd4ab97542f6fb8b1355f3", "rental_uris": {"android": "https://dc.lft.to/lastmile_qr_scan", "ios": "https://dc.lft.to/lastmile_qr_scan"}, "lat": 38.97333366666667, "bike_id": "cf9b957d85bd4ab97542f6fb8b1355f3", "is_disabled": 0, "lon": -76.99578883333334, "is_reserved": 0, "fusion_lat": 0.0, "type": "electric_bike"}, {"fusion_lon": 0.0, "name": "cfc46f63944456d16a240a06c33a9c03", "rental_uris": {"android": "https://dc.lft.to/lastmile_qr_scan", "ios": "https://dc.lft.to/lastmile_qr_scan"}, "lat": 38.903692, "bike_id": "cfc46f63944456d16a240a06c33a9c03", "is_disabled": 0, "lon": -77.01920033333333, "is_reserved": 0, "fusion_lat": 0.0, "type": "electric_scooter"}, {"fusion_lon": 0.0, "name": "2c7e28a59f8bef1c60a05422897f3b65", "rental_uris": {"android": "https://dc.lft.to/lastmile_qr_scan", "ios": "https://dc.lft.to/lastmile_qr_scan"}, "lat": 38.9013925, "bike_id": "2c7e28a59f8bef1c60a05422897f3b65", "is_disabled": 0, "lon": -77.046414, "is_reserved": 0, "fusion_lat": 0.0, "type": "electric_scooter"}, {"fusion_lon": 0.0, "name": "9ae7c185fe1eb152abe19c65edc392e6", "rental_uris": {"android": "https://dc.lft.to/lastmile_qr_scan", "ios": "https://dc.lft.to/lastmile_qr_scan"}, "lat": 38.900548, "bike_id": "9ae7c185fe1eb152abe19c65edc392e6", "is_disabled": 0, "lon": -76.98482966666667, "is_reserved": 0, "fusion_lat": 0.0, "type": "electric_scooter"}, {"fusion_lon": 0.0, "name": "6f6c1587a1cf7363f53f97611e9f96f1", "rental_uris": {"android": "https://dc.lft.to/lastmile_qr_scan", "ios": "https://dc.lft.to/lastmile_qr_scan"}, "lat": 38.8994015, "bike_id": "6f6c1587a1cf7363f53f97611e9f96f1", "is_disabled": 0, "lon": -77.04499216666666, "is_reserved": 0, "fusion_lat": 0.0, "type": "electric_scooter"}, {"fusion_lon": 0.0, "name": "7b88a49bf6d7676ef9e6536c83c0630c", "rental_uris": {"android": "https://dc.lft.to/lastmile_qr_scan", "ios": "https://dc.lft.to/lastmile_qr_scan"}, "lat": 38.90511983333333, "bike_id": "7b88a49bf6d7676ef9e6536c83c0630c", "is_disabled": 0, "lon": -77.06376833333333, "is_reserved": 0, "fusion_lat": 0.0, "type": "electric_scooter"}, {"fusion_lon": 0.0, "name": "0922d5ee6e5214c74bf6cb135ae47a02", "rental_uris": {"android": "https://dc.lft.to/lastmile_qr_scan", "ios": "https://dc.lft.to/lastmile_qr_scan"}, "lat": 38.896272333333336, "bike_id": "0922d5ee6e5214c74bf6cb135ae47a02", "is_disabled": 0, "lon": -77.0117555, "is_reserved": 0, "fusion_lat": 0.0, "type": "electric_scooter"}, {"fusion_lon": 0.0, "name": "f982cc797c7d0d0c2027d6599b190d64", "rental_uris": {"android": "https://dc.lft.to/lastmile_qr_scan", "ios": "https://dc.lft.to/lastmile_qr_scan"}, "lat": 38.91159583333334, "bike_id": "f982cc797c7d0d0c2027d6599b190d64", "is_disabled": 0, "lon": -77.00444116666667, "is_reserved": 0, "fusion_lat": 0.0, "type": "electric_scooter"}, {"fusion_lon": 0.0, "name": "2654872bbb9fc0c0fd7cf87dde0da76a", "rental_uris": {"android": "https://dc.lft.to/lastmile_qr_scan", "ios": "https://dc.lft.to/lastmile_qr_scan"}, "lat": 38.853716, "bike_id": "2654872bbb9fc0c0fd7cf87dde0da76a", "is_disabled": 0, "lon": -77.05450316666666, "is_reserved": 0, "fusion_lat": 0.0, "type": "electric_bike"}, {"fusion_lon": 0.0, "name": "102f1d62716f5c7776ae35ee92c17fc8", "rental_uris": {"android": "https://dc.lft.to/lastmile_qr_scan", "ios": "https://dc.lft.to/lastmile_qr_scan"}, "lat": 38.928376666666665, "bike_id": "102f1d62716f5c7776ae35ee92c17fc8", "is_disabled": 0, "lon": -76.99587666666666, "is_reserved": 0, "fusion_lat": 0.0, "type": "electric_scooter"}, {"fusion_lon": 0.0, "name": "6b0dd244d13584abd4db9d93f6ee5520", "rental_uris": {"android": "https://dc.lft.to/lastmile_qr_scan", "ios": "https://dc.lft.to/lastmile_qr_scan"}, "lat": 38.89261466666667, "bike_id": "6b0dd244d13584abd4db9d93f6ee5520", "is_disabled": 0, "lon": -77.00212783333333, "is_reserved": 0, "fusion_lat": 0.0, "type": "electric_scooter"}, {"fusion_lon": 0.0, "name": "56fbdd7748438fb6c5e09c96d0efe15b", "rental_uris": {"android": "https://dc.lft.to/lastmile_qr_scan", "ios": "https://dc.lft.to/lastmile_qr_scan"}, "lat": 38.898904, "bike_id": "56fbdd7748438fb6c5e09c96d0efe15b", "is_disabled": 0, "lon": -77.03280016666666, "is_reserved": 0, "fusion_lat": 0.0, "type": "electric_scooter"}, {"fusion_lon": 0.0, "name": "3d065184c477867e664a49c4d680d4ea", "rental_uris": {"android": "https://dc.lft.to/lastmile_qr_scan", "ios": "https://dc.lft.to/lastmile_qr_scan"}, "lat": 38.90063933333333, "bike_id": "3d065184c477867e664a49c4d680d4ea", "is_disabled": 0, "lon": -76.92741066666666, "is_reserved": 0, "fusion_lat": 0.0, "type": "electric_scooter"}, {"fusion_lon": 0.0, "name": "40ce60245b32509cd2e93e82a21cae16", "rental_uris": {"android": "https://dc.lft.to/lastmile_qr_scan", "ios": "https://dc.lft.to/lastmile_qr_scan"}, "lat": 38.878603, "bike_id": "40ce60245b32509cd2e93e82a21cae16", "is_disabled": 0, "lon": -76.991612, "is_reserved": 0, "fusion_lat": 0.0, "type": "electric_scooter"}, {"fusion_lon": 0.0, "name": "cc612a223a0dc64b6d04bc665c8cdefc", "rental_uris": {"android": "https://dc.lft.to/lastmile_qr_scan", "ios": "https://dc.lft.to/lastmile_qr_scan"}, "lat": 38.88124833333333, "bike_id": "cc612a223a0dc64b6d04bc665c8cdefc", "is_disabled": 0, "lon": -76.9928705, "is_reserved": 0, "fusion_lat": 0.0, "type": "electric_scooter"}, {"fusion_lon": 0.0, "name": "1f472bcca694001a313b5d97df182bcf", "rental_uris": {"android": "https://dc.lft.to/lastmile_qr_scan", "ios": "https://dc.lft.to/lastmile_qr_scan"}, "lat": 38.876592, "bike_id": "1f472bcca694001a313b5d97df182bcf", "is_disabled": 0, "lon": -77.00581466666667, "is_reserved": 0, "fusion_lat": 0.0, "type": "electric_scooter"}, {"fusion_lon": 0.0, "name": "fb0cf9ba4be45d384fe0cee4ec5fcf66", "rental_uris": {"android": "https://dc.lft.to/lastmile_qr_scan", "ios": "https://dc.lft.to/lastmile_qr_scan"}, "lat": 38.897584333333334, "bike_id": "fb0cf9ba4be45d384fe0cee4ec5fcf66", "is_disabled": 0, "lon": -77.02616383333333, "is_reserved": 0, "fusion_lat": 0.0, "type": "electric_scooter"}, {"fusion_lon": 0.0, "name": "970abdc8417904f2c7a236f16711a8c5", "rental_uris": {"android": "https://dc.lft.to/lastmile_qr_scan", "ios": "https://dc.lft.to/lastmile_qr_scan"}, "lat": 38.888171, "bike_id": "970abdc8417904f2c7a236f16711a8c5", "is_disabled": 0, "lon": -76.9397195, "is_reserved": 0, "fusion_lat": 0.0, "type": "electric_scooter"}, {"fusion_lon": 0.0, "name": "e864fbf05554d8340645b403c4cdd6f7", "rental_uris": {"android": "https://dc.lft.to/lastmile_qr_scan", "ios": "https://dc.lft.to/lastmile_qr_scan"}, "lat": 38.9136305, "bike_id": "e864fbf05554d8340645b403c4cdd6f7", "is_disabled": 0, "lon": -77.01992183333333, "is_reserved": 0, "fusion_lat": 0.0, "type": "electric_scooter"}, {"fusion_lon": 0.0, "name": "afff63401d6cc96dce575c884623c4db", "rental_uris": {"android": "https://dc.lft.to/lastmile_qr_scan", "ios": "https://dc.lft.to/lastmile_qr_scan"}, "lat": 38.9000975, "bike_id": "afff63401d6cc96dce575c884623c4db", "is_disabled": 0, "lon": -77.04351033333333, "is_reserved": 0, "fusion_lat": 0.0, "type": "electric_scooter"}, {"fusion_lon": 0.0, "name": "c98422e7ca077a0f3665995d7bfe2d1d", "rental_uris": {"android": "https://dc.lft.to/lastmile_qr_scan", "ios": "https://dc.lft.to/lastmile_qr_scan"}, "lat": 38.92615716666667, "bike_id": "c98422e7ca077a0f3665995d7bfe2d1d", "is_disabled": 0, "lon": -77.02230733333333, "is_reserved": 0, "fusion_lat": 0.0, "type": "electric_scooter"}, {"fusion_lon": 0.0, "name": "6c1787d519a1ed0ad6364688d5fa7e46", "rental_uris": {"android": "https://dc.lft.to/lastmile_qr_scan", "ios": "https://dc.lft.to/lastmile_qr_scan"}, "lat": 38.90617616666667, "bike_id": "6c1787d519a1ed0ad6364688d5fa7e46", "is_disabled": 0, "lon": -77.0435835, "is_reserved": 0, "fusion_lat": 0.0, "type": "electric_scooter"}, {"fusion_lon": 0.0, "name": "998e40cb5e7e04edee5509f06f70d701", "rental_uris": {"android": "https://dc.lft.to/lastmile_qr_scan", "ios": "https://dc.lft.to/lastmile_qr_scan"}, "lat": 38.91284, "bike_id": "998e40cb5e7e04edee5509f06f70d701", "is_disabled": 0, "lon": -77.032045, "is_reserved": 0, "fusion_lat": 0.0, "type": "electric_scooter"}, {"fusion_lon": 0.0, "name": "5ab546c3cb7aa5d28ebf147c2ad0fb2a", "rental_uris": {"android": "https://dc.lft.to/lastmile_qr_scan", "ios": "https://dc.lft.to/lastmile_qr_scan"}, "lat": 38.91018483333333, "bike_id": "5ab546c3cb7aa5d28ebf147c2ad0fb2a", "is_disabled": 0, "lon": -77.04449183333334, "is_reserved": 0, "fusion_lat": 0.0, "type": "electric_scooter"}, {"fusion_lon": 0.0, "name": "0914b523be8b55b73d69301277aa6623", "rental_uris": {"android": "https://dc.lft.to/lastmile_qr_scan", "ios": "https://dc.lft.to/lastmile_qr_scan"}, "lat": 38.9095865, "bike_id": "0914b523be8b55b73d69301277aa6623", "is_disabled": 0, "lon": -77.03273633333333, "is_reserved": 0, "fusion_lat": 0.0, "type": "electric_scooter"}, {"fusion_lon": 0.0, "name": "93473c4e3bc4dc04e1ccf7050352d2c4", "rental_uris": {"android": "https://dc.lft.to/lastmile_qr_scan", "ios": "https://dc.lft.to/lastmile_qr_scan"}, "lat": 38.9217355, "bike_id": "93473c4e3bc4dc04e1ccf7050352d2c4", "is_disabled": 0, "lon": -77.0422545, "is_reserved": 0, "fusion_lat": 0.0, "type": "electric_scooter"}, {"fusion_lon": 0.0, "name": "b2f3ac706d13befa8ecc90a90d25751b", "rental_uris": {"android": "https://dc.lft.to/lastmile_qr_scan", "ios": "https://dc.lft.to/lastmile_qr_scan"}, "lat": 38.92474833333333, "bike_id": "b2f3ac706d13befa8ecc90a90d25751b", "is_disabled": 0, "lon": -77.022042, "is_reserved": 0, "fusion_lat": 0.0, "type": "electric_scooter"}, {"fusion_lon": 0.0, "name": "7f7681c4fdc66e36cba79a0d1c7c5bab", "rental_uris": {"android": "https://dc.lft.to/lastmile_qr_scan", "ios": "https://dc.lft.to/lastmile_qr_scan"}, "lat": 38.9691515, "bike_id": "7f7681c4fdc66e36cba79a0d1c7c5bab", "is_disabled": 0, "lon": -76.9949375, "is_reserved": 0, "fusion_lat": 0.0, "type": "electric_bike"}, {"fusion_lon": 0.0, "name": "44934eed0ff5379ca33a218b054d5088", "rental_uris": {"android": "https://dc.lft.to/lastmile_qr_scan", "ios": "https://dc.lft.to/lastmile_qr_scan"}, "lat": 38.871839333333334, "bike_id": "44934eed0ff5379ca33a218b054d5088", "is_disabled": 0, "lon": -77.00639283333334, "is_reserved": 0, "fusion_lat": 0.0, "type": "electric_scooter"}, {"fusion_lon": 0.0, "name": "8e3e5e8757b559af742d235ce50e0b66", "rental_uris": {"android": "https://dc.lft.to/lastmile_qr_scan", "ios": "https://dc.lft.to/lastmile_qr_scan"}, "lat": 38.926546, "bike_id": "8e3e5e8757b559af742d235ce50e0b66", "is_disabled": 0, "lon": -77.02416383333333, "is_reserved": 0, "fusion_lat": 0.0, "type": "electric_scooter"}, {"fusion_lon": 0.0, "name": "e43f54f0e3ec39c5e4435ba1896b0e6d", "rental_uris": {"android": "https://dc.lft.to/lastmile_qr_scan", "ios": "https://dc.lft.to/lastmile_qr_scan"}, "lat": 38.938849166666664, "bike_id": "e43f54f0e3ec39c5e4435ba1896b0e6d", "is_disabled": 0, "lon": -77.03230283333333, "is_reserved": 0, "fusion_lat": 0.0, "type": "electric_scooter"}, {"fusion_lon": 0.0, "name": "adfbfc19b04cad047b98554a50f8ab92", "rental_uris": {"android": "https://dc.lft.to/lastmile_qr_scan", "ios": "https://dc.lft.to/lastmile_qr_scan"}, "lat": 38.90327333333333, "bike_id": "adfbfc19b04cad047b98554a50f8ab92", "is_disabled": 0, "lon": -77.02471716666666, "is_reserved": 0, "fusion_lat": 0.0, "type": "electric_scooter"}, {"fusion_lon": 0.0, "name": "5e8bd67eaa32abee99a0024eaeed9e21", "rental_uris": {"android": "https://dc.lft.to/lastmile_qr_scan", "ios": "https://dc.lft.to/lastmile_qr_scan"}, "lat": 38.892197, "bike_id": "5e8bd67eaa32abee99a0024eaeed9e21", "is_disabled": 0, "lon": -77.02163083333333, "is_reserved": 0, "fusion_lat": 0.0, "type": "electric_scooter"}, {"fusion_lon": 0.0, "name": "6c856c5c4beb06aa371e5b721bb42f31", "rental_uris": {"android": "https://dc.lft.to/lastmile_qr_scan", "ios": "https://dc.lft.to/lastmile_qr_scan"}, "lat": 38.912669, "bike_id": "6c856c5c4beb06aa371e5b721bb42f31", "is_disabled": 0, "lon": -77.0731525, "is_reserved": 0, "fusion_lat": 0.0, "type": "electric_scooter"}, {"fusion_lon": 0.0, "name": "19430ab582b46c68dbcc6988d8ffad9c", "rental_uris": {"android": "https://dc.lft.to/lastmile_qr_scan", "ios": "https://dc.lft.to/lastmile_qr_scan"}, "lat": 38.938789, "bike_id": "19430ab582b46c68dbcc6988d8ffad9c", "is_disabled": 0, "lon": -77.0247925, "is_reserved": 0, "fusion_lat": 0.0, "type": "electric_scooter"}, {"fusion_lon": 0.0, "name": "11a8d59241548220ad232a2eb7cbaf84", "rental_uris": {"android": "https://dc.lft.to/lastmile_qr_scan", "ios": "https://dc.lft.to/lastmile_qr_scan"}, "lat": 38.914855333333335, "bike_id": "11a8d59241548220ad232a2eb7cbaf84", "is_disabled": 0, "lon": -77.04132833333334, "is_reserved": 0, "fusion_lat": 0.0, "type": "electric_scooter"}, {"fusion_lon": 0.0, "name": "cd1ba8dd5093af882cc2d4a1463a8d6d", "rental_uris": {"android": "https://dc.lft.to/lastmile_qr_scan", "ios": "https://dc.lft.to/lastmile_qr_scan"}, "lat": 38.924697333333334, "bike_id": "cd1ba8dd5093af882cc2d4a1463a8d6d", "is_disabled": 0, "lon": -77.02191466666666, "is_reserved": 0, "fusion_lat": 0.0, "type": "electric_scooter"}, {"fusion_lon": 0.0, "name": "26fd37196ff26685dcaa492461721a94", "rental_uris": {"android": "https://dc.lft.to/lastmile_qr_scan", "ios": "https://dc.lft.to/lastmile_qr_scan"}, "lat": 38.912712666666664, "bike_id": "26fd37196ff26685dcaa492461721a94", "is_disabled": 0, "lon": -77.03861633333334, "is_reserved": 0, "fusion_lat": 0.0, "type": "electric_scooter"}, {"fusion_lon": 0.0, "name": "bc1b1c7319df17a6b35ef0a63bc0014e", "rental_uris": {"android": "https://dc.lft.to/lastmile_qr_scan", "ios": "https://dc.lft.to/lastmile_qr_scan"}, "lat": 38.90369233333333, "bike_id": "bc1b1c7319df17a6b35ef0a63bc0014e", "is_disabled": 0, "lon": -76.98487083333333, "is_reserved": 0, "fusion_lat": 0.0, "type": "electric_scooter"}, {"fusion_lon": 0.0, "name": "f4f448971bd868b211b050def5caca66", "rental_uris": {"android": "https://dc.lft.to/lastmile_qr_scan", "ios": "https://dc.lft.to/lastmile_qr_scan"}, "lat": 38.90272816666667, "bike_id": "f4f448971bd868b211b050def5caca66", "is_disabled": 0, "lon": -77.03970366666667, "is_reserved": 0, "fusion_lat": 0.0, "type": "electric_scooter"}, {"fusion_lon": 0.0, "name": "2a8f52ff58e16b3b2241cadb6119deb9", "rental_uris": {"android": "https://dc.lft.to/lastmile_qr_scan", "ios": "https://dc.lft.to/lastmile_qr_scan"}, "lat": 38.929261333333336, "bike_id": "2a8f52ff58e16b3b2241cadb6119deb9", "is_disabled": 0, "lon": -76.99805233333333, "is_reserved": 0, "fusion_lat": 0.0, "type": "electric_scooter"}, {"fusion_lon": 0.0, "name": "2a2ca991fb39470cd4acc90454bf3f77", "rental_uris": {"android": "https://dc.lft.to/lastmile_qr_scan", "ios": "https://dc.lft.to/lastmile_qr_scan"}, "lat": 38.924213333333334, "bike_id": "2a2ca991fb39470cd4acc90454bf3f77", "is_disabled": 0, "lon": -77.01948383333334, "is_reserved": 0, "fusion_lat": 0.0, "type": "electric_scooter"}, {"fusion_lon": 0.0, "name": "958e4a476729d39c8c42afb3b5c37b77", "rental_uris": {"android": "https://dc.lft.to/lastmile_qr_scan", "ios": "https://dc.lft.to/lastmile_qr_scan"}, "lat": 38.935012666666665, "bike_id": "958e4a476729d39c8c42afb3b5c37b77", "is_disabled": 0, "lon": -77.02003166666667, "is_reserved": 0, "fusion_lat": 0.0, "type": "electric_scooter"}, {"fusion_lon": 0.0, "name": "4ed21858a1c85ff1dab6ea2baac9b49b", "rental_uris": {"android": "https://dc.lft.to/lastmile_qr_scan", "ios": "https://dc.lft.to/lastmile_qr_scan"}, "lat": 38.928589333333335, "bike_id": "4ed21858a1c85ff1dab6ea2baac9b49b", "is_disabled": 0, "lon": -77.03039066666666, "is_reserved": 0, "fusion_lat": 0.0, "type": "electric_scooter"}, {"fusion_lon": 0.0, "name": "87e0eec92797e670b73c860642f43fcf", "rental_uris": {"android": "https://dc.lft.to/lastmile_qr_scan", "ios": "https://dc.lft.to/lastmile_qr_scan"}, "lat": 38.92240416666667, "bike_id": "87e0eec92797e670b73c860642f43fcf", "is_disabled": 0, "lon": -77.04359483333333, "is_reserved": 0, "fusion_lat": 0.0, "type": "electric_scooter"}, {"fusion_lon": 0.0, "name": "15da5c70f26f66df9a5326c6799106b6", "rental_uris": {"android": "https://dc.lft.to/lastmile_qr_scan", "ios": "https://dc.lft.to/lastmile_qr_scan"}, "lat": 38.90825666666667, "bike_id": "15da5c70f26f66df9a5326c6799106b6", "is_disabled": 0, "lon": -77.02189616666666, "is_reserved": 0, "fusion_lat": 0.0, "type": "electric_scooter"}, {"fusion_lon": 0.0, "name": "69caaca3cd80424450955cdf66137e74", "rental_uris": {"android": "https://dc.lft.to/lastmile_qr_scan", "ios": "https://dc.lft.to/lastmile_qr_scan"}, "lat": 38.89689033333333, "bike_id": "69caaca3cd80424450955cdf66137e74", "is_disabled": 0, "lon": -77.043235, "is_reserved": 0, "fusion_lat": 0.0, "type": "electric_scooter"}, {"fusion_lon": 0.0, "name": "c8de02598b66a622804c861169e960c4", "rental_uris": {"android": "https://dc.lft.to/lastmile_qr_scan", "ios": "https://dc.lft.to/lastmile_qr_scan"}, "lat": 38.896686, "bike_id": "c8de02598b66a622804c861169e960c4", "is_disabled": 0, "lon": -77.05464816666667, "is_reserved": 0, "fusion_lat": 0.0, "type": "electric_scooter"}, {"fusion_lon": 0.0, "name": "0cae54f923e39cc952ddce95f862bb61", "rental_uris": {"android": "https://dc.lft.to/lastmile_qr_scan", "ios": "https://dc.lft.to/lastmile_qr_scan"}, "lat": 38.91757583333333, "bike_id": "0cae54f923e39cc952ddce95f862bb61", "is_disabled": 0, "lon": -77.01497716666667, "is_reserved": 0, "fusion_lat": 0.0, "type": "electric_scooter"}, {"fusion_lon": 0.0, "name": "af4e31459ec42cd69363383538e9931b", "rental_uris": {"android": "https://dc.lft.to/lastmile_qr_scan", "ios": "https://dc.lft.to/lastmile_qr_scan"}, "lat": 38.91933183333333, "bike_id": "af4e31459ec42cd69363383538e9931b", "is_disabled": 0, "lon": -77.02480916666667, "is_reserved": 0, "fusion_lat": 0.0, "type": "electric_scooter"}, {"fusion_lon": 0.0, "name": "dc049c45ed4c398577c9c5392fa746be", "rental_uris": {"android": "https://dc.lft.to/lastmile_qr_scan", "ios": "https://dc.lft.to/lastmile_qr_scan"}, "lat": 38.9040975, "bike_id": "dc049c45ed4c398577c9c5392fa746be", "is_disabled": 0, "lon": -76.97328816666666, "is_reserved": 0, "fusion_lat": 0.0, "type": "electric_scooter"}, {"fusion_lon": 0.0, "name": "dad16f6c5b45ef32b891c22ffb4e0420", "rental_uris": {"android": "https://dc.lft.to/lastmile_qr_scan", "ios": "https://dc.lft.to/lastmile_qr_scan"}, "lat": 38.93457183333334, "bike_id": "dad16f6c5b45ef32b891c22ffb4e0420", "is_disabled": 0, "lon": -76.96444716666667, "is_reserved": 0, "fusion_lat": 0.0, "type": "electric_scooter"}, {"fusion_lon": 0.0, "name": "46e83987d7397611afb7fcfb8d79fa0c", "rental_uris": {"android": "https://dc.lft.to/lastmile_qr_scan", "ios": "https://dc.lft.to/lastmile_qr_scan"}, "lat": 38.92403816666667, "bike_id": "46e83987d7397611afb7fcfb8d79fa0c", "is_disabled": 0, "lon": -77.02695166666666, "is_reserved": 0, "fusion_lat": 0.0, "type": "electric_scooter"}, {"fusion_lon": 0.0, "name": "38a425262d83375a769f41cd379616c1", "rental_uris": {"android": "https://dc.lft.to/lastmile_qr_scan", "ios": "https://dc.lft.to/lastmile_qr_scan"}, "lat": 38.845855666666665, "bike_id": "38a425262d83375a769f41cd379616c1", "is_disabled": 0, "lon": -76.9697565, "is_reserved": 0, "fusion_lat": 0.0, "type": "electric_bike"}, {"fusion_lon": 0.0, "name": "3c6634dc6d35801447f7c81b7f765ccb", "rental_uris": {"android": "https://dc.lft.to/lastmile_qr_scan", "ios": "https://dc.lft.to/lastmile_qr_scan"}, "lat": 38.90400016666667, "bike_id": "3c6634dc6d35801447f7c81b7f765ccb", "is_disabled": 0, "lon": -76.97361616666667, "is_reserved": 0, "fusion_lat": 0.0, "type": "electric_scooter"}, {"fusion_lon": 0.0, "name": "7ff7aba92ea99bea59c8f4ca1086bd82", "rental_uris": {"android": "https://dc.lft.to/lastmile_qr_scan", "ios": "https://dc.lft.to/lastmile_qr_scan"}, "lat": 38.919577833333335, "bike_id": "7ff7aba92ea99bea59c8f4ca1086bd82", "is_disabled": 0, "lon": -77.01391383333333, "is_reserved": 0, "fusion_lat": 0.0, "type": "electric_scooter"}, {"fusion_lon": 0.0, "name": "b4b26183cbc2a37a9f7c8f18e4f2ff4e", "rental_uris": {"android": "https://dc.lft.to/lastmile_qr_scan", "ios": "https://dc.lft.to/lastmile_qr_scan"}, "lat": 38.8842495, "bike_id": "b4b26183cbc2a37a9f7c8f18e4f2ff4e", "is_disabled": 0, "lon": -77.02333483333334, "is_reserved": 0, "fusion_lat": 0.0, "type": "electric_scooter"}, {"fusion_lon": 0.0, "name": "b9dd86ee576d8ad90dcc0726c578fd4d", "rental_uris": {"android": "https://dc.lft.to/lastmile_qr_scan", "ios": "https://dc.lft.to/lastmile_qr_scan"}, "lat": 38.92382216666667, "bike_id": "b9dd86ee576d8ad90dcc0726c578fd4d", "is_disabled": 0, "lon": -77.03544683333334, "is_reserved": 0, "fusion_lat": 0.0, "type": "electric_scooter"}, {"fusion_lon": 0.0, "name": "0ea605083bfc403d86d9b24a3eed8a3a", "rental_uris": {"android": "https://dc.lft.to/lastmile_qr_scan", "ios": "https://dc.lft.to/lastmile_qr_scan"}, "lat": 38.89447366666667, "bike_id": "0ea605083bfc403d86d9b24a3eed8a3a", "is_disabled": 0, "lon": -77.02662983333333, "is_reserved": 0, "fusion_lat": 0.0, "type": "electric_scooter"}, {"fusion_lon": 0.0, "name": "66de33c7271d60071c0d878a94468be8", "rental_uris": {"android": "https://dc.lft.to/lastmile_qr_scan", "ios": "https://dc.lft.to/lastmile_qr_scan"}, "lat": 38.85445983333334, "bike_id": "66de33c7271d60071c0d878a94468be8", "is_disabled": 0, "lon": -76.9860835, "is_reserved": 0, "fusion_lat": 0.0, "type": "electric_bike"}, {"fusion_lon": 0.0, "name": "d17c87723f26d5af57b0e4831f33df5a", "rental_uris": {"android": "https://dc.lft.to/lastmile_qr_scan", "ios": "https://dc.lft.to/lastmile_qr_scan"}, "lat": 38.9315015, "bike_id": "d17c87723f26d5af57b0e4831f33df5a", "is_disabled": 0, "lon": -77.02913733333334, "is_reserved": 0, "fusion_lat": 0.0, "type": "electric_scooter"}, {"fusion_lon": 0.0, "name": "6ca2a74ef2b48c385f057f320f303cf8", "rental_uris": {"android": "https://dc.lft.to/lastmile_qr_scan", "ios": "https://dc.lft.to/lastmile_qr_scan"}, "lat": 38.94362183333333, "bike_id": "6ca2a74ef2b48c385f057f320f303cf8", "is_disabled": 0, "lon": -77.06144983333333, "is_reserved": 0, "fusion_lat": 0.0, "type": "electric_scooter"}, {"fusion_lon": 0.0, "name": "7efb8aad0dd0bf0a9f1ba6d4e06534d6", "rental_uris": {"android": "https://dc.lft.to/lastmile_qr_scan", "ios": "https://dc.lft.to/lastmile_qr_scan"}, "lat": 38.87866283333334, "bike_id": "7efb8aad0dd0bf0a9f1ba6d4e06534d6", "is_disabled": 0, "lon": -76.99659583333333, "is_reserved": 0, "fusion_lat": 0.0, "type": "electric_scooter"}, {"fusion_lon": 0.0, "name": "d33b7d295fa0249eb468ac6ce853da8e", "rental_uris": {"android": "https://dc.lft.to/lastmile_qr_scan", "ios": "https://dc.lft.to/lastmile_qr_scan"}, "lat": 38.8896425, "bike_id": "d33b7d295fa0249eb468ac6ce853da8e", "is_disabled": 0, "lon": -76.92737283333334, "is_reserved": 0, "fusion_lat": 0.0, "type": "electric_scooter"}, {"fusion_lon": 0.0, "name": "4596621d513b5dc93f5dd915f500adbb", "rental_uris": {"android": "https://dc.lft.to/lastmile_qr_scan", "ios": "https://dc.lft.to/lastmile_qr_scan"}, "lat": 38.919170333333334, "bike_id": "4596621d513b5dc93f5dd915f500adbb", "is_disabled": 0, "lon": -77.03331516666667, "is_reserved": 0, "fusion_lat": 0.0, "type": "electric_scooter"}, {"fusion_lon": 0.0, "name": "6c44a613d81971bded3def05cd9c55e4", "rental_uris": {"android": "https://dc.lft.to/lastmile_qr_scan", "ios": "https://dc.lft.to/lastmile_qr_scan"}, "lat": 38.915569833333336, "bike_id": "6c44a613d81971bded3def05cd9c55e4", "is_disabled": 0, "lon": -77.06784766666667, "is_reserved": 0, "fusion_lat": 0.0, "type": "electric_scooter"}, {"fusion_lon": 0.0, "name": "abfaba3fa699733bce33c364f3397fff", "rental_uris": {"android": "https://dc.lft.to/lastmile_qr_scan", "ios": "https://dc.lft.to/lastmile_qr_scan"}, "lat": 38.917911333333336, "bike_id": "abfaba3fa699733bce33c364f3397fff", "is_disabled": 0, "lon": -77.02702216666667, "is_reserved": 0, "fusion_lat": 0.0, "type": "electric_scooter"}, {"fusion_lon": 0.0, "name": "086d4e5483f2f3daef2baebcf242ef7d", "rental_uris": {"android": "https://dc.lft.to/lastmile_qr_scan", "ios": "https://dc.lft.to/lastmile_qr_scan"}, "lat": 38.9062455, "bike_id": "086d4e5483f2f3daef2baebcf242ef7d", "is_disabled": 0, "lon": -77.0700825, "is_reserved": 0, "fusion_lat": 0.0, "type": "electric_scooter"}, {"fusion_lon": 0.0, "name": "e8dd39192fed96352c042e4ce0b7e562", "rental_uris": {"android": "https://dc.lft.to/lastmile_qr_scan", "ios": "https://dc.lft.to/lastmile_qr_scan"}, "lat": 38.9185565, "bike_id": "e8dd39192fed96352c042e4ce0b7e562", "is_disabled": 0, "lon": -77.0447605, "is_reserved": 0, "fusion_lat": 0.0, "type": "electric_scooter"}, {"fusion_lon": 0.0, "name": "06084b9c20bda3ef4cafeac6ac0aa09e", "rental_uris": {"android": "https://dc.lft.to/lastmile_qr_scan", "ios": "https://dc.lft.to/lastmile_qr_scan"}, "lat": 38.91853183333333, "bike_id": "06084b9c20bda3ef4cafeac6ac0aa09e", "is_disabled": 0, "lon": -77.0319335, "is_reserved": 0, "fusion_lat": 0.0, "type": "electric_scooter"}, {"fusion_lon": 0.0, "name": "2b42e5ba8916c0c009679836595e8a52", "rental_uris": {"android": "https://dc.lft.to/lastmile_qr_scan", "ios": "https://dc.lft.to/lastmile_qr_scan"}, "lat": 38.90966566666667, "bike_id": "2b42e5ba8916c0c009679836595e8a52", "is_disabled": 0, "lon": -77.03955233333333, "is_reserved": 0, "fusion_lat": 0.0, "type": "electric_scooter"}, {"fusion_lon": 0.0, "name": "5734463a912977cc0d4d049cc869aafb", "rental_uris": {"android": "https://dc.lft.to/lastmile_qr_scan", "ios": "https://dc.lft.to/lastmile_qr_scan"}, "lat": 38.93321, "bike_id": "5734463a912977cc0d4d049cc869aafb", "is_disabled": 0, "lon": -77.02925933333333, "is_reserved": 0, "fusion_lat": 0.0, "type": "electric_scooter"}, {"fusion_lon": 0.0, "name": "362990d02aa0122bbe09061a4ca66288", "rental_uris": {"android": "https://dc.lft.to/lastmile_qr_scan", "ios": "https://dc.lft.to/lastmile_qr_scan"}, "lat": 38.852562666666664, "bike_id": "362990d02aa0122bbe09061a4ca66288", "is_disabled": 0, "lon": -77.05309783333334, "is_reserved": 0, "fusion_lat": 0.0, "type": "electric_bike"}, {"fusion_lon": 0.0, "name": "6004697f3214abf0026c07caf77e526e", "rental_uris": {"android": "https://dc.lft.to/lastmile_qr_scan", "ios": "https://dc.lft.to/lastmile_qr_scan"}, "lat": 38.93125966666667, "bike_id": "6004697f3214abf0026c07caf77e526e", "is_disabled": 0, "lon": -77.078487, "is_reserved": 0, "fusion_lat": 0.0, "type": "electric_scooter"}, {"fusion_lon": 0.0, "name": "35abc50447bfeabfbb8835b8dc9de694", "rental_uris": {"android": "https://dc.lft.to/lastmile_qr_scan", "ios": "https://dc.lft.to/lastmile_qr_scan"}, "lat": 38.9058465, "bike_id": "35abc50447bfeabfbb8835b8dc9de694", "is_disabled": 0, "lon": -77.04697883333333, "is_reserved": 0, "fusion_lat": 0.0, "type": "electric_bike"}, {"fusion_lon": 0.0, "name": "572b2c099c43a69377555b89c83877b2", "rental_uris": {"android": "https://dc.lft.to/lastmile_qr_scan", "ios": "https://dc.lft.to/lastmile_qr_scan"}, "lat": 38.894717666666665, "bike_id": "572b2c099c43a69377555b89c83877b2", "is_disabled": 0, "lon": -76.9971095, "is_reserved": 0, "fusion_lat": 0.0, "type": "electric_scooter"}, {"fusion_lon": 0.0, "name": "f7287427623cd656cf5b90b1eaf6e508", "rental_uris": {"android": "https://dc.lft.to/lastmile_qr_scan", "ios": "https://dc.lft.to/lastmile_qr_scan"}, "lat": 38.90082616666667, "bike_id": "f7287427623cd656cf5b90b1eaf6e508", "is_disabled": 0, "lon": -77.04746033333333, "is_reserved": 0, "fusion_lat": 0.0, "type": "electric_scooter"}, {"fusion_lon": 0.0, "name": "d5afa46ed80236d2cfde55af230ceb19", "rental_uris": {"android": "https://dc.lft.to/lastmile_qr_scan", "ios": "https://dc.lft.to/lastmile_qr_scan"}, "lat": 38.90496233333333, "bike_id": "d5afa46ed80236d2cfde55af230ceb19", "is_disabled": 0, "lon": -76.97735566666667, "is_reserved": 0, "fusion_lat": 0.0, "type": "electric_scooter"}, {"fusion_lon": 0.0, "name": "c8c5c01b189e99aa829ccbe0316c4673", "rental_uris": {"android": "https://dc.lft.to/lastmile_qr_scan", "ios": "https://dc.lft.to/lastmile_qr_scan"}, "lat": 38.898871166666666, "bike_id": "c8c5c01b189e99aa829ccbe0316c4673", "is_disabled": 0, "lon": -76.98675583333333, "is_reserved": 0, "fusion_lat": 0.0, "type": "electric_scooter"}, {"fusion_lon": 0.0, "name": "00ebdeb2da5356b0d18de7600e0de086", "rental_uris": {"android": "https://dc.lft.to/lastmile_qr_scan", "ios": "https://dc.lft.to/lastmile_qr_scan"}, "lat": 38.944487333333335, "bike_id": "00ebdeb2da5356b0d18de7600e0de086", "is_disabled": 0, "lon": -77.01163616666666, "is_reserved": 0, "fusion_lat": 0.0, "type": "electric_scooter"}, {"fusion_lon": 0.0, "name": "609e89ca5d3879494dcba2e008991491", "rental_uris": {"android": "https://dc.lft.to/lastmile_qr_scan", "ios": "https://dc.lft.to/lastmile_qr_scan"}, "lat": 38.896276666666665, "bike_id": "609e89ca5d3879494dcba2e008991491", "is_disabled": 0, "lon": -77.04039916666666, "is_reserved": 0, "fusion_lat": 0.0, "type": "electric_scooter"}, {"fusion_lon": 0.0, "name": "d9afc8eb72ce9d7ad95ef1938821456c", "rental_uris": {"android": "https://dc.lft.to/lastmile_qr_scan", "ios": "https://dc.lft.to/lastmile_qr_scan"}, "lat": 38.95897383333333, "bike_id": "d9afc8eb72ce9d7ad95ef1938821456c", "is_disabled": 0, "lon": -77.00027816666666, "is_reserved": 0, "fusion_lat": 0.0, "type": "electric_scooter"}, {"fusion_lon": 0.0, "name": "e4b9a20c3ecb918037928a0e44695b32", "rental_uris": {"android": "https://dc.lft.to/lastmile_qr_scan", "ios": "https://dc.lft.to/lastmile_qr_scan"}, "lat": 38.89233983333333, "bike_id": "e4b9a20c3ecb918037928a0e44695b32", "is_disabled": 0, "lon": -77.050012, "is_reserved": 0, "fusion_lat": 0.0, "type": "electric_scooter"}, {"fusion_lon": 0.0, "name": "94b83db33aa90fee683bddfc272d77d9", "rental_uris": {"android": "https://dc.lft.to/lastmile_qr_scan", "ios": "https://dc.lft.to/lastmile_qr_scan"}, "lat": 38.924337666666666, "bike_id": "94b83db33aa90fee683bddfc272d77d9", "is_disabled": 0, "lon": -77.0031895, "is_reserved": 0, "fusion_lat": 0.0, "type": "electric_scooter"}, {"fusion_lon": 0.0, "name": "53c7ce7737905e34c0d220b0b42ecf2f", "rental_uris": {"android": "https://dc.lft.to/lastmile_qr_scan", "ios": "https://dc.lft.to/lastmile_qr_scan"}, "lat": 38.905285666666664, "bike_id": "53c7ce7737905e34c0d220b0b42ecf2f", "is_disabled": 0, "lon": -77.06095716666667, "is_reserved": 0, "fusion_lat": 0.0, "type": "electric_scooter"}, {"fusion_lon": 0.0, "name": "66b4934ac47587ffd4c3f878b031e59b", "rental_uris": {"android": "https://dc.lft.to/lastmile_qr_scan", "ios": "https://dc.lft.to/lastmile_qr_scan"}, "lat": 38.8743645, "bike_id": "66b4934ac47587ffd4c3f878b031e59b", "is_disabled": 0, "lon": -77.00057483333333, "is_reserved": 0, "fusion_lat": 0.0, "type": "electric_scooter"}, {"fusion_lon": 0.0, "name": "081240bbfd48f997f7d1d3a87919130a", "rental_uris": {"android": "https://dc.lft.to/lastmile_qr_scan", "ios": "https://dc.lft.to/lastmile_qr_scan"}, "lat": 38.956013166666665, "bike_id": "081240bbfd48f997f7d1d3a87919130a", "is_disabled": 0, "lon": -76.9647575, "is_reserved": 0, "fusion_lat": 0.0, "type": "electric_bike"}, {"fusion_lon": 0.0, "name": "270db258d661f73fd7b1fa1fdb7a5e23", "rental_uris": {"android": "https://dc.lft.to/lastmile_qr_scan", "ios": "https://dc.lft.to/lastmile_qr_scan"}, "lat": 38.91130033333334, "bike_id": "270db258d661f73fd7b1fa1fdb7a5e23", "is_disabled": 0, "lon": -77.0441775, "is_reserved": 0, "fusion_lat": 0.0, "type": "electric_scooter"}, {"fusion_lon": 0.0, "name": "605d67d53eca17bfe60ba16903e734ae", "rental_uris": {"android": "https://dc.lft.to/lastmile_qr_scan", "ios": "https://dc.lft.to/lastmile_qr_scan"}, "lat": 38.901311, "bike_id": "605d67d53eca17bfe60ba16903e734ae", "is_disabled": 0, "lon": -76.98962133333333, "is_reserved": 0, "fusion_lat": 0.0, "type": "electric_scooter"}, {"fusion_lon": 0.0, "name": "3055c1bc889f0733999e1436f9449157", "rental_uris": {"android": "https://dc.lft.to/lastmile_qr_scan", "ios": "https://dc.lft.to/lastmile_qr_scan"}, "lat": 38.90391116666667, "bike_id": "3055c1bc889f0733999e1436f9449157", "is_disabled": 0, "lon": -76.98099716666667, "is_reserved": 0, "fusion_lat": 0.0, "type": "electric_scooter"}, {"fusion_lon": 0.0, "name": "143db5c5e10d18706c5bf742adb18fb1", "rental_uris": {"android": "https://dc.lft.to/lastmile_qr_scan", "ios": "https://dc.lft.to/lastmile_qr_scan"}, "lat": 38.8994795, "bike_id": "143db5c5e10d18706c5bf742adb18fb1", "is_disabled": 0, "lon": -77.02950166666666, "is_reserved": 0, "fusion_lat": 0.0, "type": "electric_scooter"}, {"fusion_lon": 0.0, "name": "b79916c345ef3fc5ebc16704706512fc", "rental_uris": {"android": "https://dc.lft.to/lastmile_qr_scan", "ios": "https://dc.lft.to/lastmile_qr_scan"}, "lat": 38.88622083333333, "bike_id": "b79916c345ef3fc5ebc16704706512fc", "is_disabled": 0, "lon": -77.03210716666666, "is_reserved": 0, "fusion_lat": 0.0, "type": "electric_scooter"}, {"fusion_lon": 0.0, "name": "21e8fee06b946c56e94f0e4930ea7357", "rental_uris": {"android": "https://dc.lft.to/lastmile_qr_scan", "ios": "https://dc.lft.to/lastmile_qr_scan"}, "lat": 38.92442483333333, "bike_id": "21e8fee06b946c56e94f0e4930ea7357", "is_disabled": 0, "lon": -77.0402615, "is_reserved": 0, "fusion_lat": 0.0, "type": "electric_scooter"}, {"fusion_lon": 0.0, "name": "159b658e238bfdce8c3405588e97c0dd", "rental_uris": {"android": "https://dc.lft.to/lastmile_qr_scan", "ios": "https://dc.lft.to/lastmile_qr_scan"}, "lat": 38.919242, "bike_id": "159b658e238bfdce8c3405588e97c0dd", "is_disabled": 0, "lon": -77.02472966666667, "is_reserved": 0, "fusion_lat": 0.0, "type": "electric_scooter"}, {"fusion_lon": 0.0, "name": "800766c888675a2c791a556bc2908b8d", "rental_uris": {"android": "https://dc.lft.to/lastmile_qr_scan", "ios": "https://dc.lft.to/lastmile_qr_scan"}, "lat": 38.935412, "bike_id": "800766c888675a2c791a556bc2908b8d", "is_disabled": 0, "lon": -77.07294466666667, "is_reserved": 0, "fusion_lat": 0.0, "type": "electric_scooter"}, {"fusion_lon": 0.0, "name": "0abcc86dc97891ebcba17b7f5e0d4496", "rental_uris": {"android": "https://dc.lft.to/lastmile_qr_scan", "ios": "https://dc.lft.to/lastmile_qr_scan"}, "lat": 38.89736333333333, "bike_id": "0abcc86dc97891ebcba17b7f5e0d4496", "is_disabled": 0, "lon": -77.02495833333333, "is_reserved": 0, "fusion_lat": 0.0, "type": "electric_scooter"}, {"fusion_lon": 0.0, "name": "9ec1b90b4f34901a43c629e1502336e5", "rental_uris": {"android": "https://dc.lft.to/lastmile_qr_scan", "ios": "https://dc.lft.to/lastmile_qr_scan"}, "lat": 38.889027666666664, "bike_id": "9ec1b90b4f34901a43c629e1502336e5", "is_disabled": 0, "lon": -76.952171, "is_reserved": 0, "fusion_lat": 0.0, "type": "electric_scooter"}, {"fusion_lon": 0.0, "name": "98b63f7966ef7ce0a7be1b8d06e65ca8", "rental_uris": {"android": "https://dc.lft.to/lastmile_qr_scan", "ios": "https://dc.lft.to/lastmile_qr_scan"}, "lat": 38.91553016666667, "bike_id": "98b63f7966ef7ce0a7be1b8d06e65ca8", "is_disabled": 0, "lon": -77.02118883333333, "is_reserved": 0, "fusion_lat": 0.0, "type": "electric_scooter"}, {"fusion_lon": 0.0, "name": "1ab2297d104f9521521b185104de8d3c", "rental_uris": {"android": "https://dc.lft.to/lastmile_qr_scan", "ios": "https://dc.lft.to/lastmile_qr_scan"}, "lat": 38.89737733333333, "bike_id": "1ab2297d104f9521521b185104de8d3c", "is_disabled": 0, "lon": -77.046873, "is_reserved": 0, "fusion_lat": 0.0, "type": "electric_scooter"}, {"fusion_lon": 0.0, "name": "ead0c88f7648c4c04f97d0cf475e1367", "rental_uris": {"android": "https://dc.lft.to/lastmile_qr_scan", "ios": "https://dc.lft.to/lastmile_qr_scan"}, "lat": 38.9060495, "bike_id": "ead0c88f7648c4c04f97d0cf475e1367", "is_disabled": 0, "lon": -77.12882266666666, "is_reserved": 0, "fusion_lat": 0.0, "type": "electric_bike"}, {"fusion_lon": 0.0, "name": "b4a5544a3230fcc1c98ac2c6850f0f18", "rental_uris": {"android": "https://dc.lft.to/lastmile_qr_scan", "ios": "https://dc.lft.to/lastmile_qr_scan"}, "lat": 38.90163, "bike_id": "b4a5544a3230fcc1c98ac2c6850f0f18", "is_disabled": 0, "lon": -77.05933783333333, "is_reserved": 0, "fusion_lat": 0.0, "type": "electric_scooter"}, {"fusion_lon": 0.0, "name": "b13cf47a8a4f99d2554b7d517aa268e5", "rental_uris": {"android": "https://dc.lft.to/lastmile_qr_scan", "ios": "https://dc.lft.to/lastmile_qr_scan"}, "lat": 38.88071766666667, "bike_id": "b13cf47a8a4f99d2554b7d517aa268e5", "is_disabled": 0, "lon": -77.011766, "is_reserved": 0, "fusion_lat": 0.0, "type": "electric_scooter"}, {"fusion_lon": 0.0, "name": "9d77271c9158d1d67cef4d2369faf7b6", "rental_uris": {"android": "https://dc.lft.to/lastmile_qr_scan", "ios": "https://dc.lft.to/lastmile_qr_scan"}, "lat": 38.896375, "bike_id": "9d77271c9158d1d67cef4d2369faf7b6", "is_disabled": 0, "lon": -77.03226433333333, "is_reserved": 0, "fusion_lat": 0.0, "type": "electric_scooter"}, {"fusion_lon": 0.0, "name": "284e4a16de20214554d6ed07e71f5a00", "rental_uris": {"android": "https://dc.lft.to/lastmile_qr_scan", "ios": "https://dc.lft.to/lastmile_qr_scan"}, "lat": 38.9006275, "bike_id": "284e4a16de20214554d6ed07e71f5a00", "is_disabled": 0, "lon": -76.9870075, "is_reserved": 0, "fusion_lat": 0.0, "type": "electric_scooter"}, {"fusion_lon": 0.0, "name": "42cd8b0d997e046416f98599ff47769e", "rental_uris": {"android": "https://dc.lft.to/lastmile_qr_scan", "ios": "https://dc.lft.to/lastmile_qr_scan"}, "lat": 38.923818, "bike_id": "42cd8b0d997e046416f98599ff47769e", "is_disabled": 0, "lon": -77.030551, "is_reserved": 0, "fusion_lat": 0.0, "type": "electric_scooter"}, {"fusion_lon": 0.0, "name": "306aea28d9de7febc9412b43ccb02793", "rental_uris": {"android": "https://dc.lft.to/lastmile_qr_scan", "ios": "https://dc.lft.to/lastmile_qr_scan"}, "lat": 38.925673333333336, "bike_id": "306aea28d9de7febc9412b43ccb02793", "is_disabled": 0, "lon": -76.9995755, "is_reserved": 0, "fusion_lat": 0.0, "type": "electric_scooter"}, {"fusion_lon": 0.0, "name": "162e3730e5431d74f3ca8964f34159f1", "rental_uris": {"android": "https://dc.lft.to/lastmile_qr_scan", "ios": "https://dc.lft.to/lastmile_qr_scan"}, "lat": 38.92434216666667, "bike_id": "162e3730e5431d74f3ca8964f34159f1", "is_disabled": 0, "lon": -77.03787866666667, "is_reserved": 0, "fusion_lat": 0.0, "type": "electric_scooter"}, {"fusion_lon": 0.0, "name": "bf5d328895868e19211cd0e8bc52cc09", "rental_uris": {"android": "https://dc.lft.to/lastmile_qr_scan", "ios": "https://dc.lft.to/lastmile_qr_scan"}, "lat": 38.88299166666667, "bike_id": "bf5d328895868e19211cd0e8bc52cc09", "is_disabled": 0, "lon": -77.02579283333333, "is_reserved": 0, "fusion_lat": 0.0, "type": "electric_scooter"}, {"fusion_lon": 0.0, "name": "ad7653a7e88b8245bf2aa2b95dfbe775", "rental_uris": {"android": "https://dc.lft.to/lastmile_qr_scan", "ios": "https://dc.lft.to/lastmile_qr_scan"}, "lat": 38.92472816666667, "bike_id": "ad7653a7e88b8245bf2aa2b95dfbe775", "is_disabled": 0, "lon": -77.02109966666667, "is_reserved": 0, "fusion_lat": 0.0, "type": "electric_scooter"}, {"fusion_lon": 0.0, "name": "a16d0aff396ddec7231c05d6c90a9453", "rental_uris": {"android": "https://dc.lft.to/lastmile_qr_scan", "ios": "https://dc.lft.to/lastmile_qr_scan"}, "lat": 38.93969416666667, "bike_id": "a16d0aff396ddec7231c05d6c90a9453", "is_disabled": 0, "lon": -76.9861415, "is_reserved": 0, "fusion_lat": 0.0, "type": "electric_bike"}, {"fusion_lon": 0.0, "name": "35ef84ab1d69fe7c65861cc47e7baca9", "rental_uris": {"android": "https://dc.lft.to/lastmile_qr_scan", "ios": "https://dc.lft.to/lastmile_qr_scan"}, "lat": 38.902472833333334, "bike_id": "35ef84ab1d69fe7c65861cc47e7baca9", "is_disabled": 0, "lon": -77.017257, "is_reserved": 0, "fusion_lat": 0.0, "type": "electric_scooter"}, {"fusion_lon": 0.0, "name": "a0b81996e1867be8d57c0f4cba9efa70", "rental_uris": {"android": "https://dc.lft.to/lastmile_qr_scan", "ios": "https://dc.lft.to/lastmile_qr_scan"}, "lat": 38.824261666666665, "bike_id": "a0b81996e1867be8d57c0f4cba9efa70", "is_disabled": 0, "lon": -77.12038983333333, "is_reserved": 0, "fusion_lat": 0.0, "type": "electric_bike"}, {"fusion_lon": 0.0, "name": "ac573489a2b3c48f6d22e4390a136235", "rental_uris": {"android": "https://dc.lft.to/lastmile_qr_scan", "ios": "https://dc.lft.to/lastmile_qr_scan"}, "lat": 38.857814, "bike_id": "ac573489a2b3c48f6d22e4390a136235", "is_disabled": 0, "lon": -76.98755, "is_reserved": 0, "fusion_lat": 0.0, "type": "electric_bike"}, {"fusion_lon": 0.0, "name": "876c952c9923441fe1b1d14208958563", "rental_uris": {"android": "https://dc.lft.to/lastmile_qr_scan", "ios": "https://dc.lft.to/lastmile_qr_scan"}, "lat": 38.870653833333336, "bike_id": "876c952c9923441fe1b1d14208958563", "is_disabled": 0, "lon": -76.97999133333333, "is_reserved": 0, "fusion_lat": 0.0, "type": "electric_scooter"}, {"fusion_lon": 0.0, "name": "4a6e3aded71fd58fb666b192a2227242", "rental_uris": {"android": "https://dc.lft.to/lastmile_qr_scan", "ios": "https://dc.lft.to/lastmile_qr_scan"}, "lat": 38.87199866666667, "bike_id": "4a6e3aded71fd58fb666b192a2227242", "is_disabled": 0, "lon": -77.00927783333333, "is_reserved": 0, "fusion_lat": 0.0, "type": "electric_scooter"}, {"fusion_lon": 0.0, "name": "aaaf02c581c273984b69fed8c556f400", "rental_uris": {"android": "https://dc.lft.to/lastmile_qr_scan", "ios": "https://dc.lft.to/lastmile_qr_scan"}, "lat": 38.90077633333333, "bike_id": "aaaf02c581c273984b69fed8c556f400", "is_disabled": 0, "lon": -77.04467066666666, "is_reserved": 0, "fusion_lat": 0.0, "type": "electric_scooter"}, {"fusion_lon": 0.0, "name": "6392834fcdff3c82271c1d97abf723a1", "rental_uris": {"android": "https://dc.lft.to/lastmile_qr_scan", "ios": "https://dc.lft.to/lastmile_qr_scan"}, "lat": 38.908711, "bike_id": "6392834fcdff3c82271c1d97abf723a1", "is_disabled": 0, "lon": -77.08588266666666, "is_reserved": 0, "fusion_lat": 0.0, "type": "electric_scooter"}, {"fusion_lon": 0.0, "name": "d436ce20ec6be730372c707ffaa49f2f", "rental_uris": {"android": "https://dc.lft.to/lastmile_qr_scan", "ios": "https://dc.lft.to/lastmile_qr_scan"}, "lat": 38.9246695, "bike_id": "d436ce20ec6be730372c707ffaa49f2f", "is_disabled": 0, "lon": -77.0227, "is_reserved": 0, "fusion_lat": 0.0, "type": "electric_scooter"}, {"fusion_lon": 0.0, "name": "e4ba0389961f54611941121ab9e915ce", "rental_uris": {"android": "https://dc.lft.to/lastmile_qr_scan", "ios": "https://dc.lft.to/lastmile_qr_scan"}, "lat": 38.92442483333333, "bike_id": "e4ba0389961f54611941121ab9e915ce", "is_disabled": 0, "lon": -77.02149433333334, "is_reserved": 0, "fusion_lat": 0.0, "type": "electric_scooter"}, {"fusion_lon": 0.0, "name": "5bf76f42ee079100e1a7680fb3594567", "rental_uris": {"android": "https://dc.lft.to/lastmile_qr_scan", "ios": "https://dc.lft.to/lastmile_qr_scan"}, "lat": 38.903216, "bike_id": "5bf76f42ee079100e1a7680fb3594567", "is_disabled": 0, "lon": -76.98154116666667, "is_reserved": 0, "fusion_lat": 0.0, "type": "electric_scooter"}, {"fusion_lon": 0.0, "name": "c3ffc175ecfa7e2a061d298242c67bc5", "rental_uris": {"android": "https://dc.lft.to/lastmile_qr_scan", "ios": "https://dc.lft.to/lastmile_qr_scan"}, "lat": 38.896195, "bike_id": "c3ffc175ecfa7e2a061d298242c67bc5", "is_disabled": 0, "lon": -76.90752216666667, "is_reserved": 0, "fusion_lat": 0.0, "type": "electric_bike"}, {"fusion_lon": 0.0, "name": "671e794a6dfa68e1bf48bf0dc707318e", "rental_uris": {"android": "https://dc.lft.to/lastmile_qr_scan", "ios": "https://dc.lft.to/lastmile_qr_scan"}, "lat": 38.91713683333333, "bike_id": "671e794a6dfa68e1bf48bf0dc707318e", "is_disabled": 0, "lon": -77.04152833333333, "is_reserved": 0, "fusion_lat": 0.0, "type": "electric_scooter"}, {"fusion_lon": 0.0, "name": "8e4002d9b19b92e7db124b526942f3a3", "rental_uris": {"android": "https://dc.lft.to/lastmile_qr_scan", "ios": "https://dc.lft.to/lastmile_qr_scan"}, "lat": 38.92027233333334, "bike_id": "8e4002d9b19b92e7db124b526942f3a3", "is_disabled": 0, "lon": -77.01116733333333, "is_reserved": 0, "fusion_lat": 0.0, "type": "electric_scooter"}, {"fusion_lon": 0.0, "name": "88ab6580e95566e9f07eddf1547aaa83", "rental_uris": {"android": "https://dc.lft.to/lastmile_qr_scan", "ios": "https://dc.lft.to/lastmile_qr_scan"}, "lat": 38.886054666666666, "bike_id": "88ab6580e95566e9f07eddf1547aaa83", "is_disabled": 0, "lon": -77.04509066666667, "is_reserved": 0, "fusion_lat": 0.0, "type": "electric_scooter"}, {"fusion_lon": 0.0, "name": "43b8c2dfa5f9c582ebd389e02dc9724e", "rental_uris": {"android": "https://dc.lft.to/lastmile_qr_scan", "ios": "https://dc.lft.to/lastmile_qr_scan"}, "lat": 38.91498466666667, "bike_id": "43b8c2dfa5f9c582ebd389e02dc9724e", "is_disabled": 0, "lon": -77.03209366666667, "is_reserved": 0, "fusion_lat": 0.0, "type": "electric_scooter"}, {"fusion_lon": 0.0, "name": "88771e647fdcab480110a68330769890", "rental_uris": {"android": "https://dc.lft.to/lastmile_qr_scan", "ios": "https://dc.lft.to/lastmile_qr_scan"}, "lat": 38.92115366666667, "bike_id": "88771e647fdcab480110a68330769890", "is_disabled": 0, "lon": -76.985727, "is_reserved": 0, "fusion_lat": 0.0, "type": "electric_scooter"}, {"fusion_lon": 0.0, "name": "969ede5a7935ed85635419179ba46a5f", "rental_uris": {"android": "https://dc.lft.to/lastmile_qr_scan", "ios": "https://dc.lft.to/lastmile_qr_scan"}, "lat": 38.873413166666666, "bike_id": "969ede5a7935ed85635419179ba46a5f", "is_disabled": 0, "lon": -76.9916805, "is_reserved": 0, "fusion_lat": 0.0, "type": "electric_scooter"}, {"fusion_lon": 0.0, "name": "1fffc700835da6a11d4fee7809f535c0", "rental_uris": {"android": "https://dc.lft.to/lastmile_qr_scan", "ios": "https://dc.lft.to/lastmile_qr_scan"}, "lat": 38.90607716666667, "bike_id": "1fffc700835da6a11d4fee7809f535c0", "is_disabled": 0, "lon": -77.02397216666667, "is_reserved": 0, "fusion_lat": 0.0, "type": "electric_scooter"}, {"fusion_lon": 0.0, "name": "5580acc95013e4cb79c0be71805fccfe", "rental_uris": {"android": "https://dc.lft.to/lastmile_qr_scan", "ios": "https://dc.lft.to/lastmile_qr_scan"}, "lat": 38.8972555, "bike_id": "5580acc95013e4cb79c0be71805fccfe", "is_disabled": 0, "lon": -77.02554383333333, "is_reserved": 0, "fusion_lat": 0.0, "type": "electric_scooter"}, {"fusion_lon": 0.0, "name": "96e7bf753588a1bc06ef64a514a2dabc", "rental_uris": {"android": "https://dc.lft.to/lastmile_qr_scan", "ios": "https://dc.lft.to/lastmile_qr_scan"}, "lat": 38.88061866666666, "bike_id": "96e7bf753588a1bc06ef64a514a2dabc", "is_disabled": 0, "lon": -77.005302, "is_reserved": 0, "fusion_lat": 0.0, "type": "electric_scooter"}, {"fusion_lon": 0.0, "name": "1dbf74dd29d4e2a6a246ec2ba66d8534", "rental_uris": {"android": "https://dc.lft.to/lastmile_qr_scan", "ios": "https://dc.lft.to/lastmile_qr_scan"}, "lat": 38.921972333333336, "bike_id": "1dbf74dd29d4e2a6a246ec2ba66d8534", "is_disabled": 0, "lon": -76.9836345, "is_reserved": 0, "fusion_lat": 0.0, "type": "electric_scooter"}, {"fusion_lon": 0.0, "name": "ab3d8118978722a2a6c2ea38fa61625b", "rental_uris": {"android": "https://dc.lft.to/lastmile_qr_scan", "ios": "https://dc.lft.to/lastmile_qr_scan"}, "lat": 38.899443166666664, "bike_id": "ab3d8118978722a2a6c2ea38fa61625b", "is_disabled": 0, "lon": -77.04493733333334, "is_reserved": 0, "fusion_lat": 0.0, "type": "electric_scooter"}, {"fusion_lon": 0.0, "name": "0a994242d01e6e56ecc1b85280b690ab", "rental_uris": {"android": "https://dc.lft.to/lastmile_qr_scan", "ios": "https://dc.lft.to/lastmile_qr_scan"}, "lat": 38.9027765, "bike_id": "0a994242d01e6e56ecc1b85280b690ab", "is_disabled": 0, "lon": -77.03130633333333, "is_reserved": 0, "fusion_lat": 0.0, "type": "electric_scooter"}, {"fusion_lon": 0.0, "name": "d606495454dacaaa52af8709400561bf", "rental_uris": {"android": "https://dc.lft.to/lastmile_qr_scan", "ios": "https://dc.lft.to/lastmile_qr_scan"}, "lat": 38.89219766666667, "bike_id": "d606495454dacaaa52af8709400561bf", "is_disabled": 0, "lon": -77.04365233333333, "is_reserved": 0, "fusion_lat": 0.0, "type": "electric_scooter"}, {"fusion_lon": 0.0, "name": "1bfaa1768df4269deb06a5fe6ce5b8ce", "rental_uris": {"android": "https://dc.lft.to/lastmile_qr_scan", "ios": "https://dc.lft.to/lastmile_qr_scan"}, "lat": 38.8922265, "bike_id": "1bfaa1768df4269deb06a5fe6ce5b8ce", "is_disabled": 0, "lon": -77.042724, "is_reserved": 0, "fusion_lat": 0.0, "type": "electric_scooter"}, {"fusion_lon": 0.0, "name": "9da10778f9d4a06126b6a348639f9711", "rental_uris": {"android": "https://dc.lft.to/lastmile_qr_scan", "ios": "https://dc.lft.to/lastmile_qr_scan"}, "lat": 38.950861333333336, "bike_id": "9da10778f9d4a06126b6a348639f9711", "is_disabled": 0, "lon": -76.9979265, "is_reserved": 0, "fusion_lat": 0.0, "type": "electric_scooter"}, {"fusion_lon": 0.0, "name": "ec6adb5cfc9e5bee347a3d3e8e6c319d", "rental_uris": {"android": "https://dc.lft.to/lastmile_qr_scan", "ios": "https://dc.lft.to/lastmile_qr_scan"}, "lat": 38.91650633333333, "bike_id": "ec6adb5cfc9e5bee347a3d3e8e6c319d", "is_disabled": 0, "lon": -77.03194016666667, "is_reserved": 0, "fusion_lat": 0.0, "type": "electric_scooter"}, {"fusion_lon": 0.0, "name": "016d8e433703c1363d976eaf6faae8ed", "rental_uris": {"android": "https://dc.lft.to/lastmile_qr_scan", "ios": "https://dc.lft.to/lastmile_qr_scan"}, "lat": 38.80732866666666, "bike_id": "016d8e433703c1363d976eaf6faae8ed", "is_disabled": 0, "lon": -76.9925875, "is_reserved": 0, "fusion_lat": 0.0, "type": "electric_bike"}, {"fusion_lon": 0.0, "name": "5bb85ba890b0c2051c5738c1ccae0c14", "rental_uris": {"android": "https://dc.lft.to/lastmile_qr_scan", "ios": "https://dc.lft.to/lastmile_qr_scan"}, "lat": 38.916213666666664, "bike_id": "5bb85ba890b0c2051c5738c1ccae0c14", "is_disabled": 0, "lon": -77.0318585, "is_reserved": 0, "fusion_lat": 0.0, "type": "electric_scooter"}, {"fusion_lon": 0.0, "name": "5f5bf9f9d64dce616827bf7059e8a67c", "rental_uris": {"android": "https://dc.lft.to/lastmile_qr_scan", "ios": "https://dc.lft.to/lastmile_qr_scan"}, "lat": 38.916993833333336, "bike_id": "5f5bf9f9d64dce616827bf7059e8a67c", "is_disabled": 0, "lon": -77.042118, "is_reserved": 0, "fusion_lat": 0.0, "type": "electric_scooter"}, {"fusion_lon": 0.0, "name": "d10ec64ca412bbbf94897029184bd818", "rental_uris": {"android": "https://dc.lft.to/lastmile_qr_scan", "ios": "https://dc.lft.to/lastmile_qr_scan"}, "lat": 38.8843345, "bike_id": "d10ec64ca412bbbf94897029184bd818", "is_disabled": 0, "lon": -76.95745533333333, "is_reserved": 0, "fusion_lat": 0.0, "type": "electric_scooter"}, {"fusion_lon": 0.0, "name": "29c53bc89fe912e462c09d5021d0fd18", "rental_uris": {"android": "https://dc.lft.to/lastmile_qr_scan", "ios": "https://dc.lft.to/lastmile_qr_scan"}, "lat": 38.938914, "bike_id": "29c53bc89fe912e462c09d5021d0fd18", "is_disabled": 0, "lon": -77.03264333333334, "is_reserved": 0, "fusion_lat": 0.0, "type": "electric_scooter"}, {"fusion_lon": 0.0, "name": "85d1e38a397608e938c0791f662f5c98", "rental_uris": {"android": "https://dc.lft.to/lastmile_qr_scan", "ios": "https://dc.lft.to/lastmile_qr_scan"}, "lat": 38.899080166666664, "bike_id": "85d1e38a397608e938c0791f662f5c98", "is_disabled": 0, "lon": -76.93386166666667, "is_reserved": 0, "fusion_lat": 0.0, "type": "electric_scooter"}, {"fusion_lon": 0.0, "name": "68085e06f5d0f9475f2da7b91ae7db7f", "rental_uris": {"android": "https://dc.lft.to/lastmile_qr_scan", "ios": "https://dc.lft.to/lastmile_qr_scan"}, "lat": 38.92412083333333, "bike_id": "68085e06f5d0f9475f2da7b91ae7db7f", "is_disabled": 0, "lon": -77.021334, "is_reserved": 0, "fusion_lat": 0.0, "type": "electric_scooter"}, {"fusion_lon": 0.0, "name": "8237b1983e22dbf8ae29ebe3640ef368", "rental_uris": {"android": "https://dc.lft.to/lastmile_qr_scan", "ios": "https://dc.lft.to/lastmile_qr_scan"}, "lat": 38.917133, "bike_id": "8237b1983e22dbf8ae29ebe3640ef368", "is_disabled": 0, "lon": -77.0273085, "is_reserved": 0, "fusion_lat": 0.0, "type": "electric_scooter"}, {"fusion_lon": 0.0, "name": "7233350e01f25eda84d7c037f3f9933d", "rental_uris": {"android": "https://dc.lft.to/lastmile_qr_scan", "ios": "https://dc.lft.to/lastmile_qr_scan"}, "lat": 38.92685983333333, "bike_id": "7233350e01f25eda84d7c037f3f9933d", "is_disabled": 0, "lon": -77.0296265, "is_reserved": 0, "fusion_lat": 0.0, "type": "electric_scooter"}, {"fusion_lon": 0.0, "name": "22cbc2420a464ee49c815ac2347fc576", "rental_uris": {"android": "https://dc.lft.to/lastmile_qr_scan", "ios": "https://dc.lft.to/lastmile_qr_scan"}, "lat": 38.8996155, "bike_id": "22cbc2420a464ee49c815ac2347fc576", "is_disabled": 0, "lon": -77.04713866666667, "is_reserved": 0, "fusion_lat": 0.0, "type": "electric_scooter"}, {"fusion_lon": 0.0, "name": "ea8ebc2204a01ed30afe72e031198255", "rental_uris": {"android": "https://dc.lft.to/lastmile_qr_scan", "ios": "https://dc.lft.to/lastmile_qr_scan"}, "lat": 38.91680316666667, "bike_id": "ea8ebc2204a01ed30afe72e031198255", "is_disabled": 0, "lon": -77.02817716666667, "is_reserved": 0, "fusion_lat": 0.0, "type": "electric_scooter"}, {"fusion_lon": 0.0, "name": "aa5f38a4d20efca22d74c28e094f033d", "rental_uris": {"android": "https://dc.lft.to/lastmile_qr_scan", "ios": "https://dc.lft.to/lastmile_qr_scan"},