{"data": {"bikes": [{"lat": 38.90565866666667, "is_disabled": 0, "type": "electric_scooter", "lon": -77.024876, "bike_id": "276796d241a804f8d478654364ef0545", "fusion_lat": 0.0, "name": "276796d241a804f8d478654364ef0545", "is_reserved": 0, "rental_uris": {"android": "https://dc.lft.to/lastmile_qr_scan", "ios": "https://dc.lft.to/lastmile_qr_scan"}, "fusion_lon": 0.0}, {"lat": 38.94202966666667, "is_disabled": 0, "type": "electric_scooter", "lon": -77.0182855, "bike_id": "7d76ff372b1feaa49e27e4d9bee609e1", "fusion_lat": 0.0, "name": "7d76ff372b1feaa49e27e4d9bee609e1", "is_reserved": 0, "rental_uris": {"android": "https://dc.lft.to/lastmile_qr_scan", "ios": "https://dc.lft.to/lastmile_qr_scan"}, "fusion_lon": 0.0}, {"lat": 38.914160333333335, "is_disabled": 0, "type": "electric_scooter", "lon": -77.02230466666667, "bike_id": "44780ac5d8b24a5db16a4468d660f9de", "fusion_lat": 0.0, "name": "44780ac5d8b24a5db16a4468d660f9de", "is_reserved": 0, "rental_uris": {"android": "https://dc.lft.to/lastmile_qr_scan", "ios": "https://dc.lft.to/lastmile_qr_scan"}, "fusion_lon": 0.0}, {"lat": 38.915048, "is_disabled": 0, "type": "electric_scooter", "lon": -77.0219235, "bike_id": "ad1a935f5b44a2ad52b967086cb90ef5", "fusion_lat": 0.0, "name": "ad1a935f5b44a2ad52b967086cb90ef5", "is_reserved": 0, "rental_uris": {"android": "https://dc.lft.to/lastmile_qr_scan", "ios": "https://dc.lft.to/lastmile_qr_scan"}, "fusion_lon": 0.0}, {"lat": 38.8872875, "is_disabled": 0, "type": "electric_scooter", "lon": -77.01385616666667, "bike_id": "f1129e5acd719516cb51d0ca99b17ec7", "fusion_lat": 0.0, "name": "f1129e5acd719516cb51d0ca99b17ec7", "is_reserved": 0, "rental_uris": {"android": "https://dc.lft.to/lastmile_qr_scan", "ios": "https://dc.lft.to/lastmile_qr_scan"}, "fusion_lon": 0.0}, {"lat": 38.920455, "is_disabled": 0, "type": "electric_scooter", "lon": -77.03290916666667, "bike_id": "49c22f3b34618b783daab1a3b1bbc234", "fusion_lat": 0.0, "name": "49c22f3b34618b783daab1a3b1bbc234", "is_reserved": 0, "rental_uris": {"android": "https://dc.lft.to/lastmile_qr_scan", "ios": "https://dc.lft.to/lastmile_qr_scan"}, "fusion_lon": 0.0}, {"lat": 38.889270333333336, "is_disabled": 0, "type": "electric_scooter", "lon": -76.9737585, "bike_id": "4c302bc800ff804d7e741e112ea498f3", "fusion_lat": 0.0, "name": "4c302bc800ff804d7e741e112ea498f3", "is_reserved": 0, "rental_uris": {"android": "https://dc.lft.to/lastmile_qr_scan", "ios": "https://dc.lft.to/lastmile_qr_scan"}, "fusion_lon": 0.0}, {"lat": 38.92101666666667, "is_disabled": 0, "type": "electric_scooter", "lon": -77.03923066666667, "bike_id": "260c7f0bf0d892192156c786b638353d", "fusion_lat": 0.0, "name": "260c7f0bf0d892192156c786b638353d", "is_reserved": 0, "rental_uris": {"android": "https://dc.lft.to/lastmile_qr_scan", "ios": "https://dc.lft.to/lastmile_qr_scan"}, "fusion_lon": 0.0}, {"lat": 38.906332666666664, "is_disabled": 0, "type": "electric_scooter", "lon": -77.06285316666667, "bike_id": "e094ca732fc200c69af90d5bfd28f62a", "fusion_lat": 0.0, "name": "e094ca732fc200c69af90d5bfd28f62a", "is_reserved": 0, "rental_uris": {"android": "https://dc.lft.to/lastmile_qr_scan", "ios": "https://dc.lft.to/lastmile_qr_scan"}, "fusion_lon": 0.0}, {"lat": 38.91452183333333, "is_disabled": 0, "type": "electric_scooter", "lon": -77.04586966666666, "bike_id": "0281f791d8b37bd470dde406f15064a6", "fusion_lat": 0.0, "name": "0281f791d8b37bd470dde406f15064a6", "is_reserved": 0, "rental_uris": {"android": "https://dc.lft.to/lastmile_qr_scan", "ios": "https://dc.lft.to/lastmile_qr_scan"}, "fusion_lon": 0.0}, {"lat": 38.967043833333335, "is_disabled": 0, "type": "electric_bike", "lon": -77.102217, "bike_id": "ceef69ac374cebecaa241ee85fe45c4e", "fusion_lat": 0.0, "name": "ceef69ac374cebecaa241ee85fe45c4e", "is_reserved": 0, "rental_uris": {"android": "https://dc.lft.to/lastmile_qr_scan", "ios": "https://dc.lft.to/lastmile_qr_scan"}, "fusion_lon": 0.0}, {"lat": 38.93265316666667, "is_disabled": 0, "type": "electric_scooter", "lon": -77.03265116666667, "bike_id": "d402e132e54852b61131a40476feea1a", "fusion_lat": 0.0, "name": "d402e132e54852b61131a40476feea1a", "is_reserved": 0, "rental_uris": {"android": "https://dc.lft.to/lastmile_qr_scan", "ios": "https://dc.lft.to/lastmile_qr_scan"}, "fusion_lon": 0.0}, {"lat": 38.86165066666667, "is_disabled": 0, "type": "electric_bike", "lon": -77.13094533333333, "bike_id": "2ee7d8bc0f1e9af5905abaeed5f25320", "fusion_lat": 0.0, "name": "2ee7d8bc0f1e9af5905abaeed5f25320", "is_reserved": 0, "rental_uris": {"android": "https://dc.lft.to/lastmile_qr_scan", "ios": "https://dc.lft.to/lastmile_qr_scan"}, "fusion_lon": 0.0}, {"lat": 38.90003683333333, "is_disabled": 0, "type": "electric_scooter", "lon": -76.99845766666667, "bike_id": "1fdff9459b873a19507d56376ccf86bd", "fusion_lat": 0.0, "name": "1fdff9459b873a19507d56376ccf86bd", "is_reserved": 0, "rental_uris": {"android": "https://dc.lft.to/lastmile_qr_scan", "ios": "https://dc.lft.to/lastmile_qr_scan"}, "fusion_lon": 0.0}, {"lat": 38.90848116666667, "is_disabled": 0, "type": "electric_scooter", "lon": -77.0235185, "bike_id": "2d3ded701d440913357c4dd5afae6a18", "fusion_lat": 0.0, "name": "2d3ded701d440913357c4dd5afae6a18", "is_reserved": 0, "rental_uris": {"android": "https://dc.lft.to/lastmile_qr_scan", "ios": "https://dc.lft.to/lastmile_qr_scan"}, "fusion_lon": 0.0}, {"lat": 38.89632133333333, "is_disabled": 0, "type": "electric_scooter", "lon": -77.045054, "bike_id": "ed3a273ddf11dc575ad4269cc3b25f34", "fusion_lat": 0.0, "name": "ed3a273ddf11dc575ad4269cc3b25f34", "is_reserved": 0, "rental_uris": {"android": "https://dc.lft.to/lastmile_qr_scan", "ios": "https://dc.lft.to/lastmile_qr_scan"}, "fusion_lon": 0.0}, {"lat": 38.92151833333333, "is_disabled": 0, "type": "electric_scooter", "lon": -77.03382733333333, "bike_id": "f1686c370e8c799a4bb904d7a77513d6", "fusion_lat": 0.0, "name": "f1686c370e8c799a4bb904d7a77513d6", "is_reserved": 0, "rental_uris": {"android": "https://dc.lft.to/lastmile_qr_scan", "ios": "https://dc.lft.to/lastmile_qr_scan"}, "fusion_lon": 0.0}, {"lat": 38.913787666666664, "is_disabled": 0, "type": "electric_scooter", "lon": -77.0045125, "bike_id": "83036925a02eab09c90adb714ea2892d", "fusion_lat": 0.0, "name": "83036925a02eab09c90adb714ea2892d", "is_reserved": 0, "rental_uris": {"android": "https://dc.lft.to/lastmile_qr_scan", "ios": "https://dc.lft.to/lastmile_qr_scan"}, "fusion_lon": 0.0}, {"lat": 38.9009205, "is_disabled": 0, "type": "electric_scooter", "lon": -77.00352933333333, "bike_id": "0e12619326efd4f8d63cc7c0258f6c0f", "fusion_lat": 0.0, "name": "0e12619326efd4f8d63cc7c0258f6c0f", "is_reserved": 0, "rental_uris": {"android": "https://dc.lft.to/lastmile_qr_scan", "ios": "https://dc.lft.to/lastmile_qr_scan"}, "fusion_lon": 0.0}, {"lat": 38.90316, "is_disabled": 0, "type": "electric_scooter", "lon": -76.9780415, "bike_id": "797b766af5838a0b1404da69c4b88490", "fusion_lat": 0.0, "name": "797b766af5838a0b1404da69c4b88490", "is_reserved": 0, "rental_uris": {"android": "https://dc.lft.to/lastmile_qr_scan", "ios": "https://dc.lft.to/lastmile_qr_scan"}, "fusion_lon": 0.0}, {"lat": 38.950964666666664, "is_disabled": 0, "type": "electric_scooter", "lon": -77.02340566666666, "bike_id": "1174bb72f99d2bbb417487c6e5d62d3d", "fusion_lat": 0.0, "name": "1174bb72f99d2bbb417487c6e5d62d3d", "is_reserved": 0, "rental_uris": {"android": "https://dc.lft.to/lastmile_qr_scan", "ios": "https://dc.lft.to/lastmile_qr_scan"}, "fusion_lon": 0.0}, {"lat": 38.9101565, "is_disabled": 0, "type": "electric_scooter", "lon": -77.088955, "bike_id": "f0d807efe3257c2d3b7207b05bf5f4d8", "fusion_lat": 0.0, "name": "f0d807efe3257c2d3b7207b05bf5f4d8", "is_reserved": 0, "rental_uris": {"android": "https://dc.lft.to/lastmile_qr_scan", "ios": "https://dc.lft.to/lastmile_qr_scan"}, "fusion_lon": 0.0}, {"lat": 38.9246005, "is_disabled": 0, "type": "electric_bike", "lon": -76.97559683333333, "bike_id": "d5fcbaf999c94ad673384bab5c7a6493", "fusion_lat": 0.0, "name": "d5fcbaf999c94ad673384bab5c7a6493", "is_reserved": 0, "rental_uris": {"android": "https://dc.lft.to/lastmile_qr_scan", "ios": "https://dc.lft.to/lastmile_qr_scan"}, "fusion_lon": 0.0}, {"lat": 38.872387333333336, "is_disabled": 0, "type": "electric_bike", "lon": -77.01184916666666, "bike_id": "d24e7956bee2b34a538f72da2a0a09ef", "fusion_lat": 0.0, "name": "d24e7956bee2b34a538f72da2a0a09ef", "is_reserved": 0, "rental_uris": {"android": "https://dc.lft.to/lastmile_qr_scan", "ios": "https://dc.lft.to/lastmile_qr_scan"}, "fusion_lon": 0.0}, {"lat": 38.86172, "is_disabled": 0, "type": "electric_bike", "lon": -77.13145966666667, "bike_id": "4b226be4198a675176f7771a46fc634e", "fusion_lat": 0.0, "name": "4b226be4198a675176f7771a46fc634e", "is_reserved": 0, "rental_uris": {"android": "https://dc.lft.to/lastmile_qr_scan", "ios": "https://dc.lft.to/lastmile_qr_scan"}, "fusion_lon": 0.0}, {"lat": 38.89689466666667, "is_disabled": 0, "type": "electric_scooter", "lon": -77.024093, "bike_id": "859e8d6417faf64a71deb8273dfd1125", "fusion_lat": 0.0, "name": "859e8d6417faf64a71deb8273dfd1125", "is_reserved": 0, "rental_uris": {"android": "https://dc.lft.to/lastmile_qr_scan", "ios": "https://dc.lft.to/lastmile_qr_scan"}, "fusion_lon": 0.0}, {"lat": 38.949504833333336, "is_disabled": 0, "type": "electric_scooter", "lon": -77.01610466666666, "bike_id": "b8e7a026f4665d9995c95b11aaf9b4c3", "fusion_lat": 0.0, "name": "b8e7a026f4665d9995c95b11aaf9b4c3", "is_reserved": 0, "rental_uris": {"android": "https://dc.lft.to/lastmile_qr_scan", "ios": "https://dc.lft.to/lastmile_qr_scan"}, "fusion_lon": 0.0}, {"lat": 38.907728166666665, "is_disabled": 0, "type": "electric_scooter", "lon": -77.04354783333334, "bike_id": "e4a55ac91bacca53afa33eb507a861d4", "fusion_lat": 0.0, "name": "e4a55ac91bacca53afa33eb507a861d4", "is_reserved": 0, "rental_uris": {"android": "https://dc.lft.to/lastmile_qr_scan", "ios": "https://dc.lft.to/lastmile_qr_scan"}, "fusion_lon": 0.0}, {"lat": 38.919618166666666, "is_disabled": 0, "type": "electric_bike", "lon": -76.97270133333333, "bike_id": "5d42f2b4e32c8d8f82a3e2c9e31e0e69", "fusion_lat": 0.0, "name": "5d42f2b4e32c8d8f82a3e2c9e31e0e69", "is_reserved": 0, "rental_uris": {"android": "https://dc.lft.to/lastmile_qr_scan", "ios": "https://dc.lft.to/lastmile_qr_scan"}, "fusion_lon": 0.0}, {"lat": 38.8985505, "is_disabled": 0, "type": "electric_scooter", "lon": -76.99033133333333, "bike_id": "ed41de64513c687f1c852a13af1444b1", "fusion_lat": 0.0, "name": "ed41de64513c687f1c852a13af1444b1", "is_reserved": 0, "rental_uris": {"android": "https://dc.lft.to/lastmile_qr_scan", "ios": "https://dc.lft.to/lastmile_qr_scan"}, "fusion_lon": 0.0}, {"lat": 38.91574466666667, "is_disabled": 0, "type": "electric_scooter", "lon": -77.04668783333334, "bike_id": "1231a172df2b3470856dae7c69db98e0", "fusion_lat": 0.0, "name": "1231a172df2b3470856dae7c69db98e0", "is_reserved": 0, "rental_uris": {"android": "https://dc.lft.to/lastmile_qr_scan", "ios": "https://dc.lft.to/lastmile_qr_scan"}, "fusion_lon": 0.0}, {"lat": 38.902145833333336, "is_disabled": 0, "type": "electric_scooter", "lon": -76.94589166666667, "bike_id": "712a871c658042766c2b127a922273da", "fusion_lat": 0.0, "name": "712a871c658042766c2b127a922273da", "is_reserved": 0, "rental_uris": {"android": "https://dc.lft.to/lastmile_qr_scan", "ios": "https://dc.lft.to/lastmile_qr_scan"}, "fusion_lon": 0.0}, {"lat": 38.955398333333335, "is_disabled": 0, "type": "electric_bike", "lon": -77.01780466666666, "bike_id": "12bbea8bcef3766948e3664bf7ebbb66", "fusion_lat": 0.0, "name": "12bbea8bcef3766948e3664bf7ebbb66", "is_reserved": 0, "rental_uris": {"android": "https://dc.lft.to/lastmile_qr_scan", "ios": "https://dc.lft.to/lastmile_qr_scan"}, "fusion_lon": 0.0}, {"lat": 38.91781666666667, "is_disabled": 0, "type": "electric_scooter", "lon": -77.0231145, "bike_id": "5b97362f7e3635d0ce948bd7f73746e3", "fusion_lat": 0.0, "name": "5b97362f7e3635d0ce948bd7f73746e3", "is_reserved": 0, "rental_uris": {"android": "https://dc.lft.to/lastmile_qr_scan", "ios": "https://dc.lft.to/lastmile_qr_scan"}, "fusion_lon": 0.0}, {"lat": 38.89782816666666, "is_disabled": 0, "type": "electric_scooter", "lon": -77.0436715, "bike_id": "f3fdcb2a02b05f17754b512dc7c9ba1d", "fusion_lat": 0.0, "name": "f3fdcb2a02b05f17754b512dc7c9ba1d", "is_reserved": 0, "rental_uris": {"android": "https://dc.lft.to/lastmile_qr_scan", "ios": "https://dc.lft.to/lastmile_qr_scan"}, "fusion_lon": 0.0}, {"lat": 38.92328466666667, "is_disabled": 0, "type": "electric_bike", "lon": -77.056837, "bike_id": "9bf9cbdd15a40cf247fd431c2e2d6dba", "fusion_lat": 0.0, "name": "9bf9cbdd15a40cf247fd431c2e2d6dba", "is_reserved": 0, "rental_uris": {"android": "https://dc.lft.to/lastmile_qr_scan", "ios": "https://dc.lft.to/lastmile_qr_scan"}, "fusion_lon": 0.0}, {"lat": 38.930117333333335, "is_disabled": 0, "type": "electric_bike", "lon": -77.21649183333334, "bike_id": "af700e83b28fb03da8e1d7d3a88794ae", "fusion_lat": 0.0, "name": "af700e83b28fb03da8e1d7d3a88794ae", "is_reserved": 0, "rental_uris": {"android": "https://dc.lft.to/lastmile_qr_scan", "ios": "https://dc.lft.to/lastmile_qr_scan"}, "fusion_lon": 0.0}, {"lat": 38.91103666666667, "is_disabled": 0, "type": "electric_scooter", "lon": -77.03554333333334, "bike_id": "4569464bc9800e950c2ae7a4436ce3aa", "fusion_lat": 0.0, "name": "4569464bc9800e950c2ae7a4436ce3aa", "is_reserved": 0, "rental_uris": {"android": "https://dc.lft.to/lastmile_qr_scan", "ios": "https://dc.lft.to/lastmile_qr_scan"}, "fusion_lon": 0.0}, {"lat": 38.913216166666665, "is_disabled": 0, "type": "electric_scooter", "lon": -77.03662466666667, "bike_id": "99271a7b3f99fe9669a833126c77046a", "fusion_lat": 0.0, "name": "99271a7b3f99fe9669a833126c77046a", "is_reserved": 0, "rental_uris": {"android": "https://dc.lft.to/lastmile_qr_scan", "ios": "https://dc.lft.to/lastmile_qr_scan"}, "fusion_lon": 0.0}, {"lat": 38.96282866666667, "is_disabled": 0, "type": "electric_bike", "lon": -77.03253183333334, "bike_id": "0aaf7f2836b9af06af62850ee171354c", "fusion_lat": 0.0, "name": "0aaf7f2836b9af06af62850ee171354c", "is_reserved": 0, "rental_uris": {"android": "https://dc.lft.to/lastmile_qr_scan", "ios": "https://dc.lft.to/lastmile_qr_scan"}, "fusion_lon": 0.0}, {"lat": 38.89842383333333, "is_disabled": 0, "type": "electric_scooter", "lon": -77.0075095, "bike_id": "123c730038021b94e0d1a41501d88be5", "fusion_lat": 0.0, "name": "123c730038021b94e0d1a41501d88be5", "is_reserved": 0, "rental_uris": {"android": "https://dc.lft.to/lastmile_qr_scan", "ios": "https://dc.lft.to/lastmile_qr_scan"}, "fusion_lon": 0.0}, {"lat": 38.924752833333336, "is_disabled": 0, "type": "electric_scooter", "lon": -77.0263, "bike_id": "e7dcd6e9a5e6591e1e1eed6c92797593", "fusion_lat": 0.0, "name": "e7dcd6e9a5e6591e1e1eed6c92797593", "is_reserved": 0, "rental_uris": {"android": "https://dc.lft.to/lastmile_qr_scan", "ios": "https://dc.lft.to/lastmile_qr_scan"}, "fusion_lon": 0.0}, {"lat": 38.909616166666666, "is_disabled": 0, "type": "electric_scooter", "lon": -77.0227275, "bike_id": "df86cb51932a4f7c63fe3624b016df26", "fusion_lat": 0.0, "name": "df86cb51932a4f7c63fe3624b016df26", "is_reserved": 0, "rental_uris": {"android": "https://dc.lft.to/lastmile_qr_scan", "ios": "https://dc.lft.to/lastmile_qr_scan"}, "fusion_lon": 0.0}, {"lat": 38.90964816666666, "is_disabled": 0, "type": "electric_scooter", "lon": -76.984412, "bike_id": "2b7864fbf76d4fec988dbe5c4efa1c72", "fusion_lat": 0.0, "name": "2b7864fbf76d4fec988dbe5c4efa1c72", "is_reserved": 0, "rental_uris": {"android": "https://dc.lft.to/lastmile_qr_scan", "ios": "https://dc.lft.to/lastmile_qr_scan"}, "fusion_lon": 0.0}, {"lat": 38.931109666666664, "is_disabled": 0, "type": "electric_scooter", "lon": -77.03817683333334, "bike_id": "88b2f427e79d5ed574eae8b7116304ee", "fusion_lat": 0.0, "name": "88b2f427e79d5ed574eae8b7116304ee", "is_reserved": 0, "rental_uris": {"android": "https://dc.lft.to/lastmile_qr_scan", "ios": "https://dc.lft.to/lastmile_qr_scan"}, "fusion_lon": 0.0}, {"lat": 38.91857616666667, "is_disabled": 0, "type": "electric_scooter", "lon": -77.0165215, "bike_id": "c59a438de43c85d33beccc18f5e2bbc8", "fusion_lat": 0.0, "name": "c59a438de43c85d33beccc18f5e2bbc8", "is_reserved": 0, "rental_uris": {"android": "https://dc.lft.to/lastmile_qr_scan", "ios": "https://dc.lft.to/lastmile_qr_scan"}, "fusion_lon": 0.0}, {"lat": 38.8662615, "is_disabled": 0, "type": "electric_scooter", "lon": -76.9869625, "bike_id": "62c2c7abac484213811c8a034697379b", "fusion_lat": 0.0, "name": "62c2c7abac484213811c8a034697379b", "is_reserved": 0, "rental_uris": {"android": "https://dc.lft.to/lastmile_qr_scan", "ios": "https://dc.lft.to/lastmile_qr_scan"}, "fusion_lon": 0.0}, {"lat": 38.924096666666664, "is_disabled": 0, "type": "electric_scooter", "lon": -77.02562533333334, "bike_id": "d527cac4c1ba6bdbed6c407f0e25809f", "fusion_lat": 0.0, "name": "d527cac4c1ba6bdbed6c407f0e25809f", "is_reserved": 0, "rental_uris": {"android": "https://dc.lft.to/lastmile_qr_scan", "ios": "https://dc.lft.to/lastmile_qr_scan"}, "fusion_lon": 0.0}, {"lat": 38.88494266666667, "is_disabled": 0, "type": "electric_scooter", "lon": -77.00710183333334, "bike_id": "8453fce447ec87a7b62441d7c25905a4", "fusion_lat": 0.0, "name": "8453fce447ec87a7b62441d7c25905a4", "is_reserved": 0, "rental_uris": {"android": "https://dc.lft.to/lastmile_qr_scan", "ios": "https://dc.lft.to/lastmile_qr_scan"}, "fusion_lon": 0.0}, {"lat": 38.893733833333336, "is_disabled": 0, "type": "electric_scooter", "lon": -76.9499615, "bike_id": "70eae585c240476b507820aef024521a", "fusion_lat": 0.0, "name": "70eae585c240476b507820aef024521a", "is_reserved": 0, "rental_uris": {"android": "https://dc.lft.to/lastmile_qr_scan", "ios": "https://dc.lft.to/lastmile_qr_scan"}, "fusion_lon": 0.0}, {"lat": 38.90958966666667, "is_disabled": 0, "type": "electric_scooter", "lon": -77.04806716666667, "bike_id": "db74647bb8fb8c0967e9fae85f737ae2", "fusion_lat": 0.0, "name": "db74647bb8fb8c0967e9fae85f737ae2", "is_reserved": 0, "rental_uris": {"android": "https://dc.lft.to/lastmile_qr_scan", "ios": "https://dc.lft.to/lastmile_qr_scan"}, "fusion_lon": 0.0}, {"lat": 38.918249833333334, "is_disabled": 0, "type": "electric_scooter", "lon": -77.03200716666667, "bike_id": "3054102b0ddd8629c93e7fecebaf04fa", "fusion_lat": 0.0, "name": "3054102b0ddd8629c93e7fecebaf04fa", "is_reserved": 0, "rental_uris": {"android": "https://dc.lft.to/lastmile_qr_scan", "ios": "https://dc.lft.to/lastmile_qr_scan"}, "fusion_lon": 0.0}, {"lat": 38.932655833333335, "is_disabled": 0, "type": "electric_scooter", "lon": -77.038927, "bike_id": "0e4a885e362f0dd997693ab6856de42d", "fusion_lat": 0.0, "name": "0e4a885e362f0dd997693ab6856de42d", "is_reserved": 0, "rental_uris": {"android": "https://dc.lft.to/lastmile_qr_scan", "ios": "https://dc.lft.to/lastmile_qr_scan"}, "fusion_lon": 0.0}, {"lat": 38.84277133333333, "is_disabled": 0, "type": "electric_bike", "lon": -76.988428, "bike_id": "68d63f38263a9bb77e8fb88ea22beb07", "fusion_lat": 0.0, "name": "68d63f38263a9bb77e8fb88ea22beb07", "is_reserved": 0, "rental_uris": {"android": "https://dc.lft.to/lastmile_qr_scan", "ios": "https://dc.lft.to/lastmile_qr_scan"}, "fusion_lon": 0.0}, {"lat": 38.84292583333333, "is_disabled": 0, "type": "electric_scooter", "lon": -76.99943433333334, "bike_id": "491dda68572a73d4cb156cf58375c917", "fusion_lat": 0.0, "name": "491dda68572a73d4cb156cf58375c917", "is_reserved": 0, "rental_uris": {"android": "https://dc.lft.to/lastmile_qr_scan", "ios": "https://dc.lft.to/lastmile_qr_scan"}, "fusion_lon": 0.0}, {"lat": 38.907768833333336, "is_disabled": 0, "type": "electric_scooter", "lon": -77.00227383333333, "bike_id": "b9af8c734470b75a25f3acdcb9c63a36", "fusion_lat": 0.0, "name": "b9af8c734470b75a25f3acdcb9c63a36", "is_reserved": 0, "rental_uris": {"android": "https://dc.lft.to/lastmile_qr_scan", "ios": "https://dc.lft.to/lastmile_qr_scan"}, "fusion_lon": 0.0}, {"lat": 38.849341, "is_disabled": 0, "type": "electric_bike", "lon": -77.10016916666666, "bike_id": "2034fa6ae96a592957878db3c59d8d34", "fusion_lat": 0.0, "name": "2034fa6ae96a592957878db3c59d8d34", "is_reserved": 0, "rental_uris": {"android": "https://dc.lft.to/lastmile_qr_scan", "ios": "https://dc.lft.to/lastmile_qr_scan"}, "fusion_lon": 0.0}, {"lat": 38.951396833333334, "is_disabled": 0, "type": "electric_scooter", "lon": -77.01335483333334, "bike_id": "6bdf160f2497ac5c0332e506b8b8af5e", "fusion_lat": 0.0, "name": "6bdf160f2497ac5c0332e506b8b8af5e", "is_reserved": 0, "rental_uris": {"android": "https://dc.lft.to/lastmile_qr_scan", "ios": "https://dc.lft.to/lastmile_qr_scan"}, "fusion_lon": 0.0}, {"lat": 38.894726166666665, "is_disabled": 0, "type": "electric_scooter", "lon": -77.02143766666667, "bike_id": "1b5a26cf221c259199102f93fee3e216", "fusion_lat": 0.0, "name": "1b5a26cf221c259199102f93fee3e216", "is_reserved": 0, "rental_uris": {"android": "https://dc.lft.to/lastmile_qr_scan", "ios": "https://dc.lft.to/lastmile_qr_scan"}, "fusion_lon": 0.0}, {"lat": 38.92551366666667, "is_disabled": 0, "type": "electric_scooter", "lon": -77.03304816666666, "bike_id": "d9736d229ac3cb99308349aac3bc4da2", "fusion_lat": 0.0, "name": "d9736d229ac3cb99308349aac3bc4da2", "is_reserved": 0, "rental_uris": {"android": "https://dc.lft.to/lastmile_qr_scan", "ios": "https://dc.lft.to/lastmile_qr_scan"}, "fusion_lon": 0.0}, {"lat": 38.970946, "is_disabled": 0, "type": "electric_bike", "lon": -77.06964116666667, "bike_id": "f734e86d1132b76f51b830122ddeef16", "fusion_lat": 0.0, "name": "f734e86d1132b76f51b830122ddeef16", "is_reserved": 0, "rental_uris": {"android": "https://dc.lft.to/lastmile_qr_scan", "ios": "https://dc.lft.to/lastmile_qr_scan"}, "fusion_lon": 0.0}, {"lat": 38.91878466666667, "is_disabled": 0, "type": "electric_scooter", "lon": -77.04727716666666, "bike_id": "ad631506b07a7356e09ecfdce2568b07", "fusion_lat": 0.0, "name": "ad631506b07a7356e09ecfdce2568b07", "is_reserved": 0, "rental_uris": {"android": "https://dc.lft.to/lastmile_qr_scan", "ios": "https://dc.lft.to/lastmile_qr_scan"}, "fusion_lon": 0.0}, {"lat": 38.925869666666664, "is_disabled": 0, "type": "electric_scooter", "lon": -77.00480466666667, "bike_id": "255c59b0e8609d292dfb0f6983f0c39d", "fusion_lat": 0.0, "name": "255c59b0e8609d292dfb0f6983f0c39d", "is_reserved": 0, "rental_uris": {"android": "https://dc.lft.to/lastmile_qr_scan", "ios": "https://dc.lft.to/lastmile_qr_scan"}, "fusion_lon": 0.0}, {"lat": 38.90132083333334, "is_disabled": 0, "type": "electric_scooter", "lon": -76.99745016666667, "bike_id": "0294b50a94a4886db97349d060cbd61f", "fusion_lat": 0.0, "name": "0294b50a94a4886db97349d060cbd61f", "is_reserved": 0, "rental_uris": {"android": "https://dc.lft.to/lastmile_qr_scan", "ios": "https://dc.lft.to/lastmile_qr_scan"}, "fusion_lon": 0.0}, {"lat": 38.91560833333333, "is_disabled": 0, "type": "electric_scooter", "lon": -77.04872, "bike_id": "b9defb7d91fcd3ef12f4dd83970acbf3", "fusion_lat": 0.0, "name": "b9defb7d91fcd3ef12f4dd83970acbf3", "is_reserved": 0, "rental_uris": {"android": "https://dc.lft.to/lastmile_qr_scan", "ios": "https://dc.lft.to/lastmile_qr_scan"}, "fusion_lon": 0.0}, {"lat": 38.90654383333333, "is_disabled": 0, "type": "electric_scooter", "lon": -77.025011, "bike_id": "708717cd9b913a3583c4675e68f431d9", "fusion_lat": 0.0, "name": "708717cd9b913a3583c4675e68f431d9", "is_reserved": 0, "rental_uris": {"android": "https://dc.lft.to/lastmile_qr_scan", "ios": "https://dc.lft.to/lastmile_qr_scan"}, "fusion_lon": 0.0}, {"lat": 38.90715133333333, "is_disabled": 0, "type": "electric_scooter", "lon": -77.0475225, "bike_id": "e96a9eaf923a4be7f1228186f2497b20", "fusion_lat": 0.0, "name": "e96a9eaf923a4be7f1228186f2497b20", "is_reserved": 0, "rental_uris": {"android": "https://dc.lft.to/lastmile_qr_scan", "ios": "https://dc.lft.to/lastmile_qr_scan"}, "fusion_lon": 0.0}, {"lat": 38.9031665, "is_disabled": 0, "type": "electric_scooter", "lon": -76.97803216666667, "bike_id": "db311b4485e71f379ed38104d1c2aa04", "fusion_lat": 0.0, "name": "db311b4485e71f379ed38104d1c2aa04", "is_reserved": 0, "rental_uris": {"android": "https://dc.lft.to/lastmile_qr_scan", "ios": "https://dc.lft.to/lastmile_qr_scan"}, "fusion_lon": 0.0}, {"lat": 38.9224095, "is_disabled": 0, "type": "electric_scooter", "lon": -77.02984133333334, "bike_id": "2626808f8d48dcab2fa2c965af879bc7", "fusion_lat": 0.0, "name": "2626808f8d48dcab2fa2c965af879bc7", "is_reserved": 0, "rental_uris": {"android": "https://dc.lft.to/lastmile_qr_scan", "ios": "https://dc.lft.to/lastmile_qr_scan"}, "fusion_lon": 0.0}, {"lat": 38.902049833333336, "is_disabled": 0, "type": "electric_scooter", "lon": -77.02174, "bike_id": "5749056d16ad8362000ede51e7a8f49d", "fusion_lat": 0.0, "name": "5749056d16ad8362000ede51e7a8f49d", "is_reserved": 0, "rental_uris": {"android": "https://dc.lft.to/lastmile_qr_scan", "ios": "https://dc.lft.to/lastmile_qr_scan"}, "fusion_lon": 0.0}, {"lat": 38.88504016666667, "is_disabled": 0, "type": "electric_scooter", "lon": -77.0155305, "bike_id": "a9957e1979e6f3862ed7db3f845b1e1b", "fusion_lat": 0.0, "name": "a9957e1979e6f3862ed7db3f845b1e1b", "is_reserved": 0, "rental_uris": {"android": "https://dc.lft.to/lastmile_qr_scan", "ios": "https://dc.lft.to/lastmile_qr_scan"}, "fusion_lon": 0.0}, {"lat": 38.9132875, "is_disabled": 0, "type": "electric_scooter", "lon": -77.031218, "bike_id": "e902e2c2d4e227df6c0a6ee22968dd50", "fusion_lat": 0.0, "name": "e902e2c2d4e227df6c0a6ee22968dd50", "is_reserved": 0, "rental_uris": {"android": "https://dc.lft.to/lastmile_qr_scan", "ios": "https://dc.lft.to/lastmile_qr_scan"}, "fusion_lon": 0.0}, {"lat": 38.89876816666667, "is_disabled": 0, "type": "electric_scooter", "lon": -76.93185333333334, "bike_id": "518554b804d9752f4baee4317b66eb27", "fusion_lat": 0.0, "name": "518554b804d9752f4baee4317b66eb27", "is_reserved": 0, "rental_uris": {"android": "https://dc.lft.to/lastmile_qr_scan", "ios": "https://dc.lft.to/lastmile_qr_scan"}, "fusion_lon": 0.0}, {"lat": 38.923278333333336, "is_disabled": 0, "type": "electric_scooter", "lon": -77.04471566666666, "bike_id": "4a8b159047c15dad89f00834b1a10e57", "fusion_lat": 0.0, "name": "4a8b159047c15dad89f00834b1a10e57", "is_reserved": 0, "rental_uris": {"android": "https://dc.lft.to/lastmile_qr_scan", "ios": "https://dc.lft.to/lastmile_qr_scan"}, "fusion_lon": 0.0}, {"lat": 38.911190500000004, "is_disabled": 0, "type": "electric_bike", "lon": -76.98568466666667, "bike_id": "9ff6c6ef34ff91854dbb0600e8716957", "fusion_lat": 0.0, "name": "9ff6c6ef34ff91854dbb0600e8716957", "is_reserved": 0, "rental_uris": {"android": "https://dc.lft.to/lastmile_qr_scan", "ios": "https://dc.lft.to/lastmile_qr_scan"}, "fusion_lon": 0.0}, {"lat": 38.865942833333335, "is_disabled": 0, "type": "electric_bike", "lon": -76.93230566666666, "bike_id": "fa9caf913097e1a8d3046c35032edfd5", "fusion_lat": 0.0, "name": "fa9caf913097e1a8d3046c35032edfd5", "is_reserved": 0, "rental_uris": {"android": "https://dc.lft.to/lastmile_qr_scan", "ios": "https://dc.lft.to/lastmile_qr_scan"}, "fusion_lon": 0.0}, {"lat": 38.9166075, "is_disabled": 0, "type": "electric_scooter", "lon": -77.0429, "bike_id": "d5298978191beed8b36e5f807b87ac44", "fusion_lat": 0.0, "name": "d5298978191beed8b36e5f807b87ac44", "is_reserved": 0, "rental_uris": {"android": "https://dc.lft.to/lastmile_qr_scan", "ios": "https://dc.lft.to/lastmile_qr_scan"}, "fusion_lon": 0.0}, {"lat": 38.906487, "is_disabled": 0, "type": "electric_scooter", "lon": -77.0120495, "bike_id": "3b8fb5b0081f9e3760f6de3e626489b2", "fusion_lat": 0.0, "name": "3b8fb5b0081f9e3760f6de3e626489b2", "is_reserved": 0, "rental_uris": {"android": "https://dc.lft.to/lastmile_qr_scan", "ios": "https://dc.lft.to/lastmile_qr_scan"}, "fusion_lon": 0.0}, {"lat": 38.910761666666666, "is_disabled": 0, "type": "electric_scooter", "lon": -77.01642066666666, "bike_id": "e171889eaa01977a600110437216315c", "fusion_lat": 0.0, "name": "e171889eaa01977a600110437216315c", "is_reserved": 0, "rental_uris": {"android": "https://dc.lft.to/lastmile_qr_scan", "ios": "https://dc.lft.to/lastmile_qr_scan"}, "fusion_lon": 0.0}, {"lat": 38.900568666666665, "is_disabled": 0, "type": "electric_scooter", "lon": -77.007555, "bike_id": "2e07eb171ee1d192d1b8d8fdad839f64", "fusion_lat": 0.0, "name": "2e07eb171ee1d192d1b8d8fdad839f64", "is_reserved": 0, "rental_uris": {"android": "https://dc.lft.to/lastmile_qr_scan", "ios": "https://dc.lft.to/lastmile_qr_scan"}, "fusion_lon": 0.0}, {"lat": 38.952514, "is_disabled": 0, "type": "electric_bike", "lon": -76.98233633333334, "bike_id": "32d03813dbc1f8273bea7e61c2293512", "fusion_lat": 0.0, "name": "32d03813dbc1f8273bea7e61c2293512", "is_reserved": 0, "rental_uris": {"android": "https://dc.lft.to/lastmile_qr_scan", "ios": "https://dc.lft.to/lastmile_qr_scan"}, "fusion_lon": 0.0}, {"lat": 38.920322666666664, "is_disabled": 0, "type": "electric_scooter", "lon": -77.04395183333334, "bike_id": "0cfa70a58a8e3b05f1c2cf1c02b6b243", "fusion_lat": 0.0, "name": "0cfa70a58a8e3b05f1c2cf1c02b6b243", "is_reserved": 0, "rental_uris": {"android": "https://dc.lft.to/lastmile_qr_scan", "ios": "https://dc.lft.to/lastmile_qr_scan"}, "fusion_lon": 0.0}, {"lat": 38.896384, "is_disabled": 0, "type": "electric_scooter", "lon": -77.032167, "bike_id": "e0c410ba37dacd2fcf7c3aa2c467839f", "fusion_lat": 0.0, "name": "e0c410ba37dacd2fcf7c3aa2c467839f", "is_reserved": 0, "rental_uris": {"android": "https://dc.lft.to/lastmile_qr_scan", "ios": "https://dc.lft.to/lastmile_qr_scan"}, "fusion_lon": 0.0}, {"lat": 38.93231516666667, "is_disabled": 0, "type": "electric_scooter", "lon": -77.04408133333334, "bike_id": "41c083206c909fa64933d136d40ccf7b", "fusion_lat": 0.0, "name": "41c083206c909fa64933d136d40ccf7b", "is_reserved": 0, "rental_uris": {"android": "https://dc.lft.to/lastmile_qr_scan", "ios": "https://dc.lft.to/lastmile_qr_scan"}, "fusion_lon": 0.0}, {"lat": 38.92792416666666, "is_disabled": 0, "type": "electric_scooter", "lon": -77.031492, "bike_id": "ae2cac99c35c9829b5d472e5d10cbc4c", "fusion_lat": 0.0, "name": "ae2cac99c35c9829b5d472e5d10cbc4c", "is_reserved": 0, "rental_uris": {"android": "https://dc.lft.to/lastmile_qr_scan", "ios": "https://dc.lft.to/lastmile_qr_scan"}, "fusion_lon": 0.0}, {"lat": 38.8521965, "is_disabled": 0, "type": "electric_bike", "lon": -77.12958466666667, "bike_id": "ec63dc43e813de6f2fba26a66934d6c7", "fusion_lat": 0.0, "name": "ec63dc43e813de6f2fba26a66934d6c7", "is_reserved": 0, "rental_uris": {"android": "https://dc.lft.to/lastmile_qr_scan", "ios": "https://dc.lft.to/lastmile_qr_scan"}, "fusion_lon": 0.0}, {"lat": 38.902618, "is_disabled": 0, "type": "electric_scooter", "lon": -77.01850316666666, "bike_id": "c24bd09167a65b2c6f61ca076dabb11d", "fusion_lat": 0.0, "name": "c24bd09167a65b2c6f61ca076dabb11d", "is_reserved": 0, "rental_uris": {"android": "https://dc.lft.to/lastmile_qr_scan", "ios": "https://dc.lft.to/lastmile_qr_scan"}, "fusion_lon": 0.0}, {"lat": 38.9621805, "is_disabled": 0, "type": "electric_bike", "lon": -77.02783366666667, "bike_id": "578be7648f7596241fa5a3871ce47b5b", "fusion_lat": 0.0, "name": "578be7648f7596241fa5a3871ce47b5b", "is_reserved": 0, "rental_uris": {"android": "https://dc.lft.to/lastmile_qr_scan", "ios": "https://dc.lft.to/lastmile_qr_scan"}, "fusion_lon": 0.0}, {"lat": 38.92171183333333, "is_disabled": 0, "type": "electric_scooter", "lon": -77.05138066666666, "bike_id": "ac7a90d52dcaa587a715eb3ec9734024", "fusion_lat": 0.0, "name": "ac7a90d52dcaa587a715eb3ec9734024", "is_reserved": 0, "rental_uris": {"android": "https://dc.lft.to/lastmile_qr_scan", "ios": "https://dc.lft.to/lastmile_qr_scan"}, "fusion_lon": 0.0}, {"lat": 38.934511666666666, "is_disabled": 0, "type": "electric_scooter", "lon": -77.0323705, "bike_id": "5e1eb95523ccfb59c4f66759311a1ec0", "fusion_lat": 0.0, "name": "5e1eb95523ccfb59c4f66759311a1ec0", "is_reserved": 0, "rental_uris": {"android": "https://dc.lft.to/lastmile_qr_scan", "ios": "https://dc.lft.to/lastmile_qr_scan"}, "fusion_lon": 0.0}, {"lat": 38.89909016666667, "is_disabled": 0, "type": "electric_scooter", "lon": -77.00357266666667, "bike_id": "160c6c33135e09a292bf4e115ac77c2d", "fusion_lat": 0.0, "name": "160c6c33135e09a292bf4e115ac77c2d", "is_reserved": 0, "rental_uris": {"android": "https://dc.lft.to/lastmile_qr_scan", "ios": "https://dc.lft.to/lastmile_qr_scan"}, "fusion_lon": 0.0}, {"lat": 38.985933, "is_disabled": 0, "type": "electric_bike", "lon": -77.03752083333333, "bike_id": "4f474167fc3bb505e5e8be73e504476d", "fusion_lat": 0.0, "name": "4f474167fc3bb505e5e8be73e504476d", "is_reserved": 0, "rental_uris": {"android": "https://dc.lft.to/lastmile_qr_scan", "ios": "https://dc.lft.to/lastmile_qr_scan"}, "fusion_lon": 0.0}, {"lat": 38.8709555, "is_disabled": 0, "type": "electric_scooter", "lon": -77.01207483333333, "bike_id": "ff38afe2335c45bf3fdae35dedccac54", "fusion_lat": 0.0, "name": "ff38afe2335c45bf3fdae35dedccac54", "is_reserved": 0, "rental_uris": {"android": "https://dc.lft.to/lastmile_qr_scan", "ios": "https://dc.lft.to/lastmile_qr_scan"}, "fusion_lon": 0.0}, {"lat": 38.92741616666667, "is_disabled": 0, "type": "electric_scooter", "lon": -77.02266266666666, "bike_id": "d3dbe1d80aa544d3d0a4b19487c6db51", "fusion_lat": 0.0, "name": "d3dbe1d80aa544d3d0a4b19487c6db51", "is_reserved": 0, "rental_uris": {"android": "https://dc.lft.to/lastmile_qr_scan", "ios": "https://dc.lft.to/lastmile_qr_scan"}, "fusion_lon": 0.0}, {"lat": 38.93346016666667, "is_disabled": 0, "type": "electric_scooter", "lon": -77.02369466666667, "bike_id": "96b8bbdf2600e924f2c7010495a02ddc", "fusion_lat": 0.0, "name": "96b8bbdf2600e924f2c7010495a02ddc", "is_reserved": 0, "rental_uris": {"android": "https://dc.lft.to/lastmile_qr_scan", "ios": "https://dc.lft.to/lastmile_qr_scan"}, "fusion_lon": 0.0}, {"lat": 38.9000555, "is_disabled": 0, "type": "electric_scooter", "lon": -77.04046333333334, "bike_id": "315ece8857d5ad3a1f90588518c5b850", "fusion_lat": 0.0, "name": "315ece8857d5ad3a1f90588518c5b850", "is_reserved": 0, "rental_uris": {"android": "https://dc.lft.to/lastmile_qr_scan", "ios": "https://dc.lft.to/lastmile_qr_scan"}, "fusion_lon": 0.0}, {"lat": 38.913998, "is_disabled": 0, "type": "electric_scooter", "lon": -77.015023, "bike_id": "8cd74b4d4e1f68bcba8627547350533a", "fusion_lat": 0.0, "name": "8cd74b4d4e1f68bcba8627547350533a", "is_reserved": 0, "rental_uris": {"android": "https://dc.lft.to/lastmile_qr_scan", "ios": "https://dc.lft.to/lastmile_qr_scan"}, "fusion_lon": 0.0}, {"lat": 38.88612083333334, "is_disabled": 0, "type": "electric_scooter", "lon": -77.021659, "bike_id": "b8cdaedb40df25f6cc8ccff7377403fb", "fusion_lat": 0.0, "name": "b8cdaedb40df25f6cc8ccff7377403fb", "is_reserved": 0, "rental_uris": {"android": "https://dc.lft.to/lastmile_qr_scan", "ios": "https://dc.lft.to/lastmile_qr_scan"}, "fusion_lon": 0.0}, {"lat": 38.9207035, "is_disabled": 0, "type": "electric_scooter", "lon": -77.04274666666667, "bike_id": "69126bc1c9e4b091dcc771cd073cbb07", "fusion_lat": 0.0, "name": "69126bc1c9e4b091dcc771cd073cbb07", "is_reserved": 0, "rental_uris": {"android": "https://dc.lft.to/lastmile_qr_scan", "ios": "https://dc.lft.to/lastmile_qr_scan"}, "fusion_lon": 0.0}, {"lat": 38.92150633333333, "is_disabled": 0, "type": "electric_scooter", "lon": -77.04235566666667, "bike_id": "1680201490931722c92494c43fcbf775", "fusion_lat": 0.0, "name": "1680201490931722c92494c43fcbf775", "is_reserved": 0, "rental_uris": {"android": "https://dc.lft.to/lastmile_qr_scan", "ios": "https://dc.lft.to/lastmile_qr_scan"}, "fusion_lon": 0.0}, {"lat": 38.93465883333333, "is_disabled": 0, "type": "electric_scooter", "lon": -77.03701166666667, "bike_id": "4ecf7a1ec11c7b2fc7d6c090f14e35ac", "fusion_lat": 0.0, "name": "4ecf7a1ec11c7b2fc7d6c090f14e35ac", "is_reserved": 0, "rental_uris": {"android": "https://dc.lft.to/lastmile_qr_scan", "ios": "https://dc.lft.to/lastmile_qr_scan"}, "fusion_lon": 0.0}, {"lat": 38.8925325, "is_disabled": 0, "type": "electric_bike", "lon": -76.9950415, "bike_id": "988faf63cfe6ad951e5838a47cdbf0a8", "fusion_lat": 0.0, "name": "988faf63cfe6ad951e5838a47cdbf0a8", "is_reserved": 0, "rental_uris": {"android": "https://dc.lft.to/lastmile_qr_scan", "ios": "https://dc.lft.to/lastmile_qr_scan"}, "fusion_lon": 0.0}, {"lat": 38.946350333333335, "is_disabled": 0, "type": "electric_scooter", "lon": -77.02523883333333, "bike_id": "e60deea2090699f528bf20702599d443", "fusion_lat": 0.0, "name": "e60deea2090699f528bf20702599d443", "is_reserved": 0, "rental_uris": {"android": "https://dc.lft.to/lastmile_qr_scan", "ios": "https://dc.lft.to/lastmile_qr_scan"}, "fusion_lon": 0.0}, {"lat": 38.92202733333333, "is_disabled": 0, "type": "electric_scooter", "lon": -77.04249433333334, "bike_id": "4b151cdc673d0b0b8018cd92f3e38ab6", "fusion_lat": 0.0, "name": "4b151cdc673d0b0b8018cd92f3e38ab6", "is_reserved": 0, "rental_uris": {"android": "https://dc.lft.to/lastmile_qr_scan", "ios": "https://dc.lft.to/lastmile_qr_scan"}, "fusion_lon": 0.0}, {"lat": 38.90401116666666, "is_disabled": 0, "type": "electric_scooter", "lon": -77.043223, "bike_id": "7af81702667019c2117eab58a88edf75", "fusion_lat": 0.0, "name": "7af81702667019c2117eab58a88edf75", "is_reserved": 0, "rental_uris": {"android": "https://dc.lft.to/lastmile_qr_scan", "ios": "https://dc.lft.to/lastmile_qr_scan"}, "fusion_lon": 0.0}, {"lat": 38.8801485, "is_disabled": 0, "type": "electric_bike", "lon": -77.005776, "bike_id": "39ff4f9a0f99bb135f3cb435419b63da", "fusion_lat": 0.0, "name": "39ff4f9a0f99bb135f3cb435419b63da", "is_reserved": 0, "rental_uris": {"android": "https://dc.lft.to/lastmile_qr_scan", "ios": "https://dc.lft.to/lastmile_qr_scan"}, "fusion_lon": 0.0}, {"lat": 38.93647383333333, "is_disabled": 0, "type": "electric_scooter", "lon": -77.0208855, "bike_id": "24fc26faa79078e57133c8151f23f4bf", "fusion_lat": 0.0, "name": "24fc26faa79078e57133c8151f23f4bf", "is_reserved": 0, "rental_uris": {"android": "https://dc.lft.to/lastmile_qr_scan", "ios": "https://dc.lft.to/lastmile_qr_scan"}, "fusion_lon": 0.0}, {"lat": 38.9042705, "is_disabled": 0, "type": "electric_scooter", "lon": -77.026397, "bike_id": "f735fe6a7211cbd7cbb9511857866977", "fusion_lat": 0.0, "name": "f735fe6a7211cbd7cbb9511857866977", "is_reserved": 0, "rental_uris": {"android": "https://dc.lft.to/lastmile_qr_scan", "ios": "https://dc.lft.to/lastmile_qr_scan"}, "fusion_lon": 0.0}, {"lat": 38.92574616666667, "is_disabled": 0, "type": "electric_scooter", "lon": -77.0379275, "bike_id": "98706e2304e79f6b317f961cbdc47d5c", "fusion_lat": 0.0, "name": "98706e2304e79f6b317f961cbdc47d5c", "is_reserved": 0, "rental_uris": {"android": "https://dc.lft.to/lastmile_qr_scan", "ios": "https://dc.lft.to/lastmile_qr_scan"}, "fusion_lon": 0.0}, {"lat": 38.922646666666665, "is_disabled": 0, "type": "electric_scooter", "lon": -77.042582, "bike_id": "70006a3a8fbf3a53a5b5edce954c4236", "fusion_lat": 0.0, "name": "70006a3a8fbf3a53a5b5edce954c4236", "is_reserved": 0, "rental_uris": {"android": "https://dc.lft.to/lastmile_qr_scan", "ios": "https://dc.lft.to/lastmile_qr_scan"}, "fusion_lon": 0.0}, {"lat": 38.90815816666667, "is_disabled": 0, "type": "electric_scooter", "lon": -76.98564633333334, "bike_id": "8f5bcc63e33bbeff86a36a3e56d7c0a8", "fusion_lat": 0.0, "name": "8f5bcc63e33bbeff86a36a3e56d7c0a8", "is_reserved": 0, "rental_uris": {"android": "https://dc.lft.to/lastmile_qr_scan", "ios": "https://dc.lft.to/lastmile_qr_scan"}, "fusion_lon": 0.0}, {"lat": 38.94603866666667, "is_disabled": 0, "type": "electric_scooter", "lon": -77.0298085, "bike_id": "17ed96c40abf7a13c101d4a3a5b43457", "fusion_lat": 0.0, "name": "17ed96c40abf7a13c101d4a3a5b43457", "is_reserved": 0, "rental_uris": {"android": "https://dc.lft.to/lastmile_qr_scan", "ios": "https://dc.lft.to/lastmile_qr_scan"}, "fusion_lon": 0.0}, {"lat": 38.86512416666667, "is_disabled": 0, "type": "electric_scooter", "lon": -76.97432966666666, "bike_id": "705c3a15696a9ac9098529e9ac7e675c", "fusion_lat": 0.0, "name": "705c3a15696a9ac9098529e9ac7e675c", "is_reserved": 0, "rental_uris": {"android": "https://dc.lft.to/lastmile_qr_scan", "ios": "https://dc.lft.to/lastmile_qr_scan"}, "fusion_lon": 0.0}, {"lat": 38.899661, "is_disabled": 0, "type": "electric_scooter", "lon": -77.0509555, "bike_id": "32cc52c49c0584621dc96ab13c9c2532", "fusion_lat": 0.0, "name": "32cc52c49c0584621dc96ab13c9c2532", "is_reserved": 0, "rental_uris": {"android": "https://dc.lft.to/lastmile_qr_scan", "ios": "https://dc.lft.to/lastmile_qr_scan"}, "fusion_lon": 0.0}, {"lat": 38.87476783333334, "is_disabled": 0, "type": "electric_scooter", "lon": -77.01072166666667, "bike_id": "9bf4f80c8937c737e73a2049b1782434", "fusion_lat": 0.0, "name": "9bf4f80c8937c737e73a2049b1782434", "is_reserved": 0, "rental_uris": {"android": "https://dc.lft.to/lastmile_qr_scan", "ios": "https://dc.lft.to/lastmile_qr_scan"}, "fusion_lon": 0.0}, {"lat": 38.89227666666667, "is_disabled": 0, "type": "electric_scooter", "lon": -77.02649583333333, "bike_id": "e836c97dd2ed088b5665a78b37256dc3", "fusion_lat": 0.0, "name": "e836c97dd2ed088b5665a78b37256dc3", "is_reserved": 0, "rental_uris": {"android": "https://dc.lft.to/lastmile_qr_scan", "ios": "https://dc.lft.to/lastmile_qr_scan"}, "fusion_lon": 0.0}, {"lat": 38.876789, "is_disabled": 0, "type": "electric_scooter", "lon": -77.0178895, "bike_id": "d6128124ff20657cc0f7e0a5e577cfdc", "fusion_lat": 0.0, "name": "d6128124ff20657cc0f7e0a5e577cfdc", "is_reserved": 0, "rental_uris": {"android": "https://dc.lft.to/lastmile_qr_scan", "ios": "https://dc.lft.to/lastmile_qr_scan"}, "fusion_lon": 0.0}, {"lat": 38.926294666666664, "is_disabled": 0, "type": "electric_scooter", "lon": -77.03791933333333, "bike_id": "def20a695a7900f5679c1dbbcb234c73", "fusion_lat": 0.0, "name": "def20a695a7900f5679c1dbbcb234c73", "is_reserved": 0, "rental_uris": {"android": "https://dc.lft.to/lastmile_qr_scan", "ios": "https://dc.lft.to/lastmile_qr_scan"}, "fusion_lon": 0.0}, {"lat": 38.902918, "is_disabled": 0, "type": "electric_scooter", "lon": -77.05337433333334, "bike_id": "8bf8bb0f01037239e0aac9a4a762bea8", "fusion_lat": 0.0, "name": "8bf8bb0f01037239e0aac9a4a762bea8", "is_reserved": 0, "rental_uris": {"android": "https://dc.lft.to/lastmile_qr_scan", "ios": "https://dc.lft.to/lastmile_qr_scan"}, "fusion_lon": 0.0}, {"lat": 38.902542, "is_disabled": 0, "type": "electric_scooter", "lon": -77.02831766666667, "bike_id": "25c310c7b527e34764ba4c598c198aa0", "fusion_lat": 0.0, "name": "25c310c7b527e34764ba4c598c198aa0", "is_reserved": 0, "rental_uris": {"android": "https://dc.lft.to/lastmile_qr_scan", "ios": "https://dc.lft.to/lastmile_qr_scan"}, "fusion_lon": 0.0}, {"lat": 38.910528, "is_disabled": 0, "type": "electric_scooter", "lon": -77.0152685, "bike_id": "341532561ca882e7a1c43a01ff289a90", "fusion_lat": 0.0, "name": "341532561ca882e7a1c43a01ff289a90", "is_reserved": 0, "rental_uris": {"android": "https://dc.lft.to/lastmile_qr_scan", "ios": "https://dc.lft.to/lastmile_qr_scan"}, "fusion_lon": 0.0}, {"lat": 38.899501, "is_disabled": 0, "type": "electric_scooter", "lon": -77.05169616666667, "bike_id": "3e0686b6ada46d24f71a758014130e2d", "fusion_lat": 0.0, "name": "3e0686b6ada46d24f71a758014130e2d", "is_reserved": 0, "rental_uris": {"android": "https://dc.lft.to/lastmile_qr_scan", "ios": "https://dc.lft.to/lastmile_qr_scan"}, "fusion_lon": 0.0}, {"lat": 38.89744616666667, "is_disabled": 0, "type": "electric_scooter", "lon": -77.046868, "bike_id": "3ffcea431fab0451b894186eba9f9637", "fusion_lat": 0.0, "name": "3ffcea431fab0451b894186eba9f9637", "is_reserved": 0, "rental_uris": {"android": "https://dc.lft.to/lastmile_qr_scan", "ios": "https://dc.lft.to/lastmile_qr_scan"}, "fusion_lon": 0.0}, {"lat": 38.924261666666666, "is_disabled": 0, "type": "electric_scooter", "lon": -77.04452533333334, "bike_id": "6e63e190212d0bdd76cd5ffda0a88725", "fusion_lat": 0.0, "name": "6e63e190212d0bdd76cd5ffda0a88725", "is_reserved": 0, "rental_uris": {"android": "https://dc.lft.to/lastmile_qr_scan", "ios": "https://dc.lft.to/lastmile_qr_scan"}, "fusion_lon": 0.0}, {"lat": 38.900224333333334, "is_disabled": 0, "type": "electric_scooter", "lon": -77.04056683333333, "bike_id": "33cc99591e991be39e821c45f6f5fab3", "fusion_lat": 0.0, "name": "33cc99591e991be39e821c45f6f5fab3", "is_reserved": 0, "rental_uris": {"android": "https://dc.lft.to/lastmile_qr_scan", "ios": "https://dc.lft.to/lastmile_qr_scan"}, "fusion_lon": 0.0}, {"lat": 38.92398583333333, "is_disabled": 0, "type": "electric_scooter", "lon": -77.02453516666667, "bike_id": "6aa1eba61c625bf10ce3567b1294bbec", "fusion_lat": 0.0, "name": "6aa1eba61c625bf10ce3567b1294bbec", "is_reserved": 0, "rental_uris": {"android": "https://dc.lft.to/lastmile_qr_scan", "ios": "https://dc.lft.to/lastmile_qr_scan"}, "fusion_lon": 0.0}, {"lat": 38.90265566666667, "is_disabled": 0, "type": "electric_scooter", "lon": -77.00329366666666, "bike_id": "759439bb5bad3f41a4ce60f792c8eb09", "fusion_lat": 0.0, "name": "759439bb5bad3f41a4ce60f792c8eb09", "is_reserved": 0, "rental_uris": {"android": "https://dc.lft.to/lastmile_qr_scan", "ios": "https://dc.lft.to/lastmile_qr_scan"}, "fusion_lon": 0.0}, {"lat": 38.896161, "is_disabled": 0, "type": "electric_scooter", "lon": -76.99295266666667, "bike_id": "3261825f98b9d4d09b8dc3c64887430d", "fusion_lat": 0.0, "name": "3261825f98b9d4d09b8dc3c64887430d", "is_reserved": 0, "rental_uris": {"android": "https://dc.lft.to/lastmile_qr_scan", "ios": "https://dc.lft.to/lastmile_qr_scan"}, "fusion_lon": 0.0}, {"lat": 38.861170333333334, "is_disabled": 0, "type": "electric_scooter", "lon": -76.983798, "bike_id": "f7ac04530b22d0c9c52dc5e736c228b8", "fusion_lat": 0.0, "name": "f7ac04530b22d0c9c52dc5e736c228b8", "is_reserved": 0, "rental_uris": {"android": "https://dc.lft.to/lastmile_qr_scan", "ios": "https://dc.lft.to/lastmile_qr_scan"}, "fusion_lon": 0.0}, {"lat": 39.058128, "is_disabled": 0, "type": "electric_bike", "lon": -77.12626733333333, "bike_id": "39119f86d31170cd778d086afd828d57", "fusion_lat": 0.0, "name": "39119f86d31170cd778d086afd828d57", "is_reserved": 0, "rental_uris": {"android": "https://dc.lft.to/lastmile_qr_scan", "ios": "https://dc.lft.to/lastmile_qr_scan"}, "fusion_lon": 0.0}, {"lat": 38.8403395, "is_disabled": 0, "type": "electric_bike", "lon": -76.97588133333333, "bike_id": "0f0f3a3b5ef31819da6aff60bb02049e", "fusion_lat": 0.0, "name": "0f0f3a3b5ef31819da6aff60bb02049e", "is_reserved": 0, "rental_uris": {"android": "https://dc.lft.to/lastmile_qr_scan", "ios": "https://dc.lft.to/lastmile_qr_scan"}, "fusion_lon": 0.0}, {"lat": 38.90275533333333, "is_disabled": 0, "type": "electric_scooter", "lon": -77.02893233333333, "bike_id": "f672b4013e2a83c8b99e6419f78022f2", "fusion_lat": 0.0, "name": "f672b4013e2a83c8b99e6419f78022f2", "is_reserved": 0, "rental_uris": {"android": "https://dc.lft.to/lastmile_qr_scan", "ios": "https://dc.lft.to/lastmile_qr_scan"}, "fusion_lon": 0.0}, {"lat": 38.9353875, "is_disabled": 0, "type": "electric_scooter", "lon": -77.03402566666666, "bike_id": "f0f3951fd5e0684a32cfdea30bf4817a", "fusion_lat": 0.0, "name": "f0f3951fd5e0684a32cfdea30bf4817a", "is_reserved": 0, "rental_uris": {"android": "https://dc.lft.to/lastmile_qr_scan", "ios": "https://dc.lft.to/lastmile_qr_scan"}, "fusion_lon": 0.0}, {"lat": 38.891836833333336, "is_disabled": 0, "type": "electric_scooter", "lon": -76.99623416666667, "bike_id": "7499a791bf729cfff1d36986e05009a1", "fusion_lat": 0.0, "name": "7499a791bf729cfff1d36986e05009a1", "is_reserved": 0, "rental_uris": {"android": "https://dc.lft.to/lastmile_qr_scan", "ios": "https://dc.lft.to/lastmile_qr_scan"}, "fusion_lon": 0.0}, {"lat": 38.92540783333333, "is_disabled": 0, "type": "electric_scooter", "lon": -77.03450533333333, "bike_id": "93630b1f16b3f079a7eb4097a42ca92c", "fusion_lat": 0.0, "name": "93630b1f16b3f079a7eb4097a42ca92c", "is_reserved": 0, "rental_uris": {"android": "https://dc.lft.to/lastmile_qr_scan", "ios": "https://dc.lft.to/lastmile_qr_scan"}, "fusion_lon": 0.0}, {"lat": 38.892027666666664, "is_disabled": 0, "type": "electric_bike", "lon": -76.97050666666667, "bike_id": "fafb938ebee5bc27836f4941c6269e87", "fusion_lat": 0.0, "name": "fafb938ebee5bc27836f4941c6269e87", "is_reserved": 0, "rental_uris": {"android": "https://dc.lft.to/lastmile_qr_scan", "ios": "https://dc.lft.to/lastmile_qr_scan"}, "fusion_lon": 0.0}, {"lat": 38.88425433333333, "is_disabled": 0, "type": "electric_bike", "lon": -76.98086, "bike_id": "f5b91ea7e9ceb5c9998d9f655a51b05a", "fusion_lat": 0.0, "name": "f5b91ea7e9ceb5c9998d9f655a51b05a", "is_reserved": 0, "rental_uris": {"android": "https://dc.lft.to/lastmile_qr_scan", "ios": "https://dc.lft.to/lastmile_qr_scan"}, "fusion_lon": 0.0}, {"lat": 38.90314733333334, "is_disabled": 0, "type": "electric_scooter", "lon": -77.03305416666667, "bike_id": "40d383f28f0581543b8999ce86ce86ae", "fusion_lat": 0.0, "name": "40d383f28f0581543b8999ce86ce86ae", "is_reserved": 0, "rental_uris": {"android": "https://dc.lft.to/lastmile_qr_scan", "ios": "https://dc.lft.to/lastmile_qr_scan"}, "fusion_lon": 0.0}, {"lat": 38.909015, "is_disabled": 0, "type": "electric_scooter", "lon": -77.086203, "bike_id": "e2e102c6dc2f0f81ba3fe3e0acb3c103", "fusion_lat": 0.0, "name": "e2e102c6dc2f0f81ba3fe3e0acb3c103", "is_reserved": 0, "rental_uris": {"android": "https://dc.lft.to/lastmile_qr_scan", "ios": "https://dc.lft.to/lastmile_qr_scan"}, "fusion_lon": 0.0}, {"lat": 38.8953505, "is_disabled": 0, "type": "electric_scooter", "lon": -77.01123933333334, "bike_id": "08c4dd47d20606f4bd3f1a1dee2850bc", "fusion_lat": 0.0, "name": "08c4dd47d20606f4bd3f1a1dee2850bc", "is_reserved": 0, "rental_uris": {"android": "https://dc.lft.to/lastmile_qr_scan", "ios": "https://dc.lft.to/lastmile_qr_scan"}, "fusion_lon": 0.0}, {"lat": 38.9186165, "is_disabled": 0, "type": "electric_scooter", "lon": -77.074241, "bike_id": "ac4f582a2bda3127d268ee2885fc359a", "fusion_lat": 0.0, "name": "ac4f582a2bda3127d268ee2885fc359a", "is_reserved": 0, "rental_uris": {"android": "https://dc.lft.to/lastmile_qr_scan", "ios": "https://dc.lft.to/lastmile_qr_scan"}, "fusion_lon": 0.0}, {"lat": 38.8793175, "is_disabled": 0, "type": "electric_scooter", "lon": -77.0074725, "bike_id": "a19df317088694b4c88ed8c071b50785", "fusion_lat": 0.0, "name": "a19df317088694b4c88ed8c071b50785", "is_reserved": 0, "rental_uris": {"android": "https://dc.lft.to/lastmile_qr_scan", "ios": "https://dc.lft.to/lastmile_qr_scan"}, "fusion_lon": 0.0}, {"lat": 38.92368716666667, "is_disabled": 0, "type": "electric_scooter", "lon": -77.07681083333334, "bike_id": "97929f2d95a6cc3f5dd375a36f3c9da7", "fusion_lat": 0.0, "name": "97929f2d95a6cc3f5dd375a36f3c9da7", "is_reserved": 0, "rental_uris": {"android": "https://dc.lft.to/lastmile_qr_scan", "ios": "https://dc.lft.to/lastmile_qr_scan"}, "fusion_lon": 0.0}, {"lat": 38.929959333333336, "is_disabled": 0, "type": "electric_bike", "lon": -77.02316616666667, "bike_id": "246ebf26dc5d9b03b83a4cdffada7dba", "fusion_lat": 0.0, "name": "246ebf26dc5d9b03b83a4cdffada7dba", "is_reserved": 0, "rental_uris": {"android": "https://dc.lft.to/lastmile_qr_scan", "ios": "https://dc.lft.to/lastmile_qr_scan"}, "fusion_lon": 0.0}, {"lat": 38.934828, "is_disabled": 0, "type": "electric_scooter", "lon": -77.03660233333333, "bike_id": "69d2b580a7ced60b638d3d7da3a0d8f4", "fusion_lat": 0.0, "name": "69d2b580a7ced60b638d3d7da3a0d8f4", "is_reserved": 0, "rental_uris": {"android": "https://dc.lft.to/lastmile_qr_scan", "ios": "https://dc.lft.to/lastmile_qr_scan"}, "fusion_lon": 0.0}, {"lat": 38.92269366666667, "is_disabled": 0, "type": "electric_scooter", "lon": -77.042474, "bike_id": "f1199f24ffbf9d65bd985ae635176aa9", "fusion_lat": 0.0, "name": "f1199f24ffbf9d65bd985ae635176aa9", "is_reserved": 0, "rental_uris": {"android": "https://dc.lft.to/lastmile_qr_scan", "ios": "https://dc.lft.to/lastmile_qr_scan"}, "fusion_lon": 0.0}, {"lat": 38.90603733333333, "is_disabled": 0, "type": "electric_scooter", "lon": -77.0585475, "bike_id": "4987782f9a094b10702d0c189e3ca791", "fusion_lat": 0.0, "name": "4987782f9a094b10702d0c189e3ca791", "is_reserved": 0, "rental_uris": {"android": "https://dc.lft.to/lastmile_qr_scan", "ios": "https://dc.lft.to/lastmile_qr_scan"}, "fusion_lon": 0.0}, {"lat": 38.90721883333333, "is_disabled": 0, "type": "electric_scooter", "lon": -77.04398316666666, "bike_id": "246edddfaf6d448bdfb4b8a0335aaeb9", "fusion_lat": 0.0, "name": "246edddfaf6d448bdfb4b8a0335aaeb9", "is_reserved": 0, "rental_uris": {"android": "https://dc.lft.to/lastmile_qr_scan", "ios": "https://dc.lft.to/lastmile_qr_scan"}, "fusion_lon": 0.0}, {"lat": 38.892909, "is_disabled": 0, "type": "electric_bike", "lon": -77.00143983333334, "bike_id": "8131f34d5825874dfd1cf8ea813471b7", "fusion_lat": 0.0, "name": "8131f34d5825874dfd1cf8ea813471b7", "is_reserved": 0, "rental_uris": {"android": "https://dc.lft.to/lastmile_qr_scan", "ios": "https://dc.lft.to/lastmile_qr_scan"}, "fusion_lon": 0.0}, {"lat": 38.9182305, "is_disabled": 0, "type": "electric_scooter", "lon": -77.0452965, "bike_id": "2110a007c965ad82ca8be59594f21718", "fusion_lat": 0.0, "name": "2110a007c965ad82ca8be59594f21718", "is_reserved": 0, "rental_uris": {"android": "https://dc.lft.to/lastmile_qr_scan", "ios": "https://dc.lft.to/lastmile_qr_scan"}, "fusion_lon": 0.0}, {"lat": 38.91816266666667, "is_disabled": 0, "type": "electric_scooter", "lon": -77.02612316666666, "bike_id": "998a882e3c8ed41ad29a2a00d64f2834", "fusion_lat": 0.0, "name": "998a882e3c8ed41ad29a2a00d64f2834", "is_reserved": 0, "rental_uris": {"android": "https://dc.lft.to/lastmile_qr_scan", "ios": "https://dc.lft.to/lastmile_qr_scan"}, "fusion_lon": 0.0}, {"lat": 38.91416133333333, "is_disabled": 0, "type": "electric_scooter", "lon": -77.02231633333334, "bike_id": "578a3de8d74406d22ef71bc9817eeadd", "fusion_lat": 0.0, "name": "578a3de8d74406d22ef71bc9817eeadd", "is_reserved": 0, "rental_uris": {"android": "https://dc.lft.to/lastmile_qr_scan", "ios": "https://dc.lft.to/lastmile_qr_scan"}, "fusion_lon": 0.0}, {"lat": 38.930932166666665, "is_disabled": 0, "type": "electric_scooter", "lon": -77.02353566666666, "bike_id": "543cd5308008010b8df8ad0b82368f1e", "fusion_lat": 0.0, "name": "543cd5308008010b8df8ad0b82368f1e", "is_reserved": 0, "rental_uris": {"android": "https://dc.lft.to/lastmile_qr_scan", "ios": "https://dc.lft.to/lastmile_qr_scan"}, "fusion_lon": 0.0}, {"lat": 38.909671833333334, "is_disabled": 0, "type": "electric_scooter", "lon": -77.0405295, "bike_id": "004bc5494c43d727fbc8525d0b63bab9", "fusion_lat": 0.0, "name": "004bc5494c43d727fbc8525d0b63bab9", "is_reserved": 0, "rental_uris": {"android": "https://dc.lft.to/lastmile_qr_scan", "ios": "https://dc.lft.to/lastmile_qr_scan"}, "fusion_lon": 0.0}, {"lat": 38.954052833333336, "is_disabled": 0, "type": "electric_scooter", "lon": -77.027469, "bike_id": "92c02182b2280e9527664ef542b32285", "fusion_lat": 0.0, "name": "92c02182b2280e9527664ef542b32285", "is_reserved": 0, "rental_uris": {"android": "https://dc.lft.to/lastmile_qr_scan", "ios": "https://dc.lft.to/lastmile_qr_scan"}, "fusion_lon": 0.0}, {"lat": 38.8027015, "is_disabled": 0, "type": "electric_bike", "lon": -77.08114216666667, "bike_id": "12716bf4f10baaed051b0d0c8174698e", "fusion_lat": 0.0, "name": "12716bf4f10baaed051b0d0c8174698e", "is_reserved": 0, "rental_uris": {"android": "https://dc.lft.to/lastmile_qr_scan", "ios": "https://dc.lft.to/lastmile_qr_scan"}, "fusion_lon": 0.0}, {"lat": 38.91712066666667, "is_disabled": 0, "type": "electric_scooter", "lon": -77.030906, "bike_id": "57e760fbb20951b8cdb199da2fbb999d", "fusion_lat": 0.0, "name": "57e760fbb20951b8cdb199da2fbb999d", "is_reserved": 0, "rental_uris": {"android": "https://dc.lft.to/lastmile_qr_scan", "ios": "https://dc.lft.to/lastmile_qr_scan"}, "fusion_lon": 0.0}, {"lat": 38.937553333333334, "is_disabled": 0, "type": "electric_bike", "lon": -77.03283166666667, "bike_id": "2b321b2914f150484014c98904494564", "fusion_lat": 0.0, "name": "2b321b2914f150484014c98904494564", "is_reserved": 0, "rental_uris": {"android": "https://dc.lft.to/lastmile_qr_scan", "ios": "https://dc.lft.to/lastmile_qr_scan"}, "fusion_lon": 0.0}, {"lat": 38.90555066666667, "is_disabled": 0, "type": "electric_scooter", "lon": -77.05689316666667, "bike_id": "88990353b844bf0b7bfc77c61725396c", "fusion_lat": 0.0, "name": "88990353b844bf0b7bfc77c61725396c", "is_reserved": 0, "rental_uris": {"android": "https://dc.lft.to/lastmile_qr_scan", "ios": "https://dc.lft.to/lastmile_qr_scan"}, "fusion_lon": 0.0}, {"lat": 38.939841333333334, "is_disabled": 0, "type": "electric_scooter", "lon": -77.03264933333334, "bike_id": "74d593bf072e59454439f5331be1000f", "fusion_lat": 0.0, "name": "74d593bf072e59454439f5331be1000f", "is_reserved": 0, "rental_uris": {"android": "https://dc.lft.to/lastmile_qr_scan", "ios": "https://dc.lft.to/lastmile_qr_scan"}, "fusion_lon": 0.0}, {"lat": 38.8722635, "is_disabled": 0, "type": "electric_scooter", "lon": -77.01184666666667, "bike_id": "477e6f33862a9d37b719270c07f8e376", "fusion_lat": 0.0, "name": "477e6f33862a9d37b719270c07f8e376", "is_reserved": 0, "rental_uris": {"android": "https://dc.lft.to/lastmile_qr_scan", "ios": "https://dc.lft.to/lastmile_qr_scan"}, "fusion_lon": 0.0}, {"lat": 38.93475016666667, "is_disabled": 0, "type": "electric_scooter", "lon": -77.033965, "bike_id": "49b79f753ff067f6c4080ede57766535", "fusion_lat": 0.0, "name": "49b79f753ff067f6c4080ede57766535", "is_reserved": 0, "rental_uris": {"android": "https://dc.lft.to/lastmile_qr_scan", "ios": "https://dc.lft.to/lastmile_qr_scan"}, "fusion_lon": 0.0}, {"lat": 38.88735466666667, "is_disabled": 0, "type": "electric_scooter", "lon": -77.0206995, "bike_id": "576c0bbecee0df6e6c0887a5ef64ccc8", "fusion_lat": 0.0, "name": "576c0bbecee0df6e6c0887a5ef64ccc8", "is_reserved": 0, "rental_uris": {"android": "https://dc.lft.to/lastmile_qr_scan", "ios": "https://dc.lft.to/lastmile_qr_scan"}, "fusion_lon": 0.0}, {"lat": 38.9036685, "is_disabled": 0, "type": "electric_scooter", "lon": -77.046669, "bike_id": "bc7bcd3ca6060eab5eb409650571ea31", "fusion_lat": 0.0, "name": "bc7bcd3ca6060eab5eb409650571ea31", "is_reserved": 0, "rental_uris": {"android": "https://dc.lft.to/lastmile_qr_scan", "ios": "https://dc.lft.to/lastmile_qr_scan"}, "fusion_lon": 0.0}, {"lat": 38.9014005, "is_disabled": 0, "type": "electric_scooter", "lon": -77.003436, "bike_id": "97cf3e29aabe4d920c4bca0c66e46858", "fusion_lat": 0.0, "name": "97cf3e29aabe4d920c4bca0c66e46858", "is_reserved": 0, "rental_uris": {"android": "https://dc.lft.to/lastmile_qr_scan", "ios": "https://dc.lft.to/lastmile_qr_scan"}, "fusion_lon": 0.0}, {"lat": 38.853211, "is_disabled": 0, "type": "electric_scooter", "lon": -76.9802705, "bike_id": "60c9ee0390f2c11d4291a91672c8faa9", "fusion_lat": 0.0, "name": "60c9ee0390f2c11d4291a91672c8faa9", "is_reserved": 0, "rental_uris": {"android": "https://dc.lft.to/lastmile_qr_scan", "ios": "https://dc.lft.to/lastmile_qr_scan"}, "fusion_lon": 0.0}, {"lat": 38.937418666666666, "is_disabled": 0, "type": "electric_scooter", "lon": -77.0350035, "bike_id": "32ee9f228a39db20a251ce9590ff77d8", "fusion_lat": 0.0, "name": "32ee9f228a39db20a251ce9590ff77d8", "is_reserved": 0, "rental_uris": {"android": "https://dc.lft.to/lastmile_qr_scan", "ios": "https://dc.lft.to/lastmile_qr_scan"}, "fusion_lon": 0.0}, {"lat": 38.87405716666667, "is_disabled": 0, "type": "electric_scooter", "lon": -77.01453583333333, "bike_id": "d7f4a2b2a6c0b09658eeccf1cc6c8609", "fusion_lat": 0.0, "name": "d7f4a2b2a6c0b09658eeccf1cc6c8609", "is_reserved": 0, "rental_uris": {"android": "https://dc.lft.to/lastmile_qr_scan", "ios": "https://dc.lft.to/lastmile_qr_scan"}, "fusion_lon": 0.0}, {"lat": 38.88128, "is_disabled": 0, "type": "electric_scooter", "lon": -77.01972283333333, "bike_id": "06a756c0fbae2663c198974167f1d536", "fusion_lat": 0.0, "name": "06a756c0fbae2663c198974167f1d536", "is_reserved": 0, "rental_uris": {"android": "https://dc.lft.to/lastmile_qr_scan", "ios": "https://dc.lft.to/lastmile_qr_scan"}, "fusion_lon": 0.0}, {"lat": 38.907397333333336, "is_disabled": 0, "type": "electric_scooter", "lon": -77.02990233333334, "bike_id": "48c279c5c854f759d098f701c2a9186f", "fusion_lat": 0.0, "name": "48c279c5c854f759d098f701c2a9186f", "is_reserved": 0, "rental_uris": {"android": "https://dc.lft.to/lastmile_qr_scan", "ios": "https://dc.lft.to/lastmile_qr_scan"}, "fusion_lon": 0.0}, {"lat": 38.926199, "is_disabled": 0, "type": "electric_scooter", "lon": -77.04414733333333, "bike_id": "ace13052c7a3efab560b01cf188edbfb", "fusion_lat": 0.0, "name": "ace13052c7a3efab560b01cf188edbfb", "is_reserved": 0, "rental_uris": {"android": "https://dc.lft.to/lastmile_qr_scan", "ios": "https://dc.lft.to/lastmile_qr_scan"}, "fusion_lon": 0.0}, {"lat": 38.896133166666665, "is_disabled": 0, "type": "electric_scooter", "lon": -76.956603, "bike_id": "cd1767924691466e3736d07c45926d9d", "fusion_lat": 0.0, "name": "cd1767924691466e3736d07c45926d9d", "is_reserved": 0, "rental_uris": {"android": "https://dc.lft.to/lastmile_qr_scan", "ios": "https://dc.lft.to/lastmile_qr_scan"}, "fusion_lon": 0.0}, {"lat": 38.914207833333336, "is_disabled": 0, "type": "electric_scooter", "lon": -77.0326055, "bike_id": "36fb81c895c98a8dda66843a2e0de0a7", "fusion_lat": 0.0, "name": "36fb81c895c98a8dda66843a2e0de0a7", "is_reserved": 0, "rental_uris": {"android": "https://dc.lft.to/lastmile_qr_scan", "ios": "https://dc.lft.to/lastmile_qr_scan"}, "fusion_lon": 0.0}, {"lat": 38.916133333333335, "is_disabled": 0, "type": "electric_scooter", "lon": -77.02122383333334, "bike_id": "425aec5e3a0b19db7fa0a5f62c72a461", "fusion_lat": 0.0, "name": "425aec5e3a0b19db7fa0a5f62c72a461", "is_reserved": 0, "rental_uris": {"android": "https://dc.lft.to/lastmile_qr_scan", "ios": "https://dc.lft.to/lastmile_qr_scan"}, "fusion_lon": 0.0}, {"lat": 38.89375966666667, "is_disabled": 0, "type": "electric_scooter", "lon": -76.94991066666667, "bike_id": "f066d7fae0e61ec148d4bdc39ed17dce", "fusion_lat": 0.0, "name": "f066d7fae0e61ec148d4bdc39ed17dce", "is_reserved": 0, "rental_uris": {"android": "https://dc.lft.to/lastmile_qr_scan", "ios": "https://dc.lft.to/lastmile_qr_scan"}, "fusion_lon": 0.0}, {"lat": 38.90238866666667, "is_disabled": 0, "type": "electric_scooter", "lon": -77.001996, "bike_id": "edff5ed768218617a588aa9d166f3fa0", "fusion_lat": 0.0, "name": "edff5ed768218617a588aa9d166f3fa0", "is_reserved": 0, "rental_uris": {"android": "https://dc.lft.to/lastmile_qr_scan", "ios": "https://dc.lft.to/lastmile_qr_scan"}, "fusion_lon": 0.0}, {"lat": 38.88079116666667, "is_disabled": 0, "type": "electric_scooter", "lon": -76.9271915, "bike_id": "c4dd71077f7e80eb980d8426ad1c1faf", "fusion_lat": 0.0, "name": "c4dd71077f7e80eb980d8426ad1c1faf", "is_reserved": 0, "rental_uris": {"android": "https://dc.lft.to/lastmile_qr_scan", "ios": "https://dc.lft.to/lastmile_qr_scan"}, "fusion_lon": 0.0}, {"lat": 38.92500116666667, "is_disabled": 0, "type": "electric_scooter", "lon": -77.00889633333334, "bike_id": "d025f821f7ff1bc45aeaaa72b77998a4", "fusion_lat": 0.0, "name": "d025f821f7ff1bc45aeaaa72b77998a4", "is_reserved": 0, "rental_uris": {"android": "https://dc.lft.to/lastmile_qr_scan", "ios": "https://dc.lft.to/lastmile_qr_scan"}, "fusion_lon": 0.0}, {"lat": 38.83933616666667, "is_disabled": 0, "type": "electric_bike", "lon": -77.079011, "bike_id": "cf488694595e87c07fe34dc905e75b3e", "fusion_lat": 0.0, "name": "cf488694595e87c07fe34dc905e75b3e", "is_reserved": 0, "rental_uris": {"android": "https://dc.lft.to/lastmile_qr_scan", "ios": "https://dc.lft.to/lastmile_qr_scan"}, "fusion_lon": 0.0}, {"lat": 38.9279015, "is_disabled": 0, "type": "electric_scooter", "lon": -77.02584266666666, "bike_id": "501fdcffcf63ab939ddeae21ef03ae1a", "fusion_lat": 0.0, "name": "501fdcffcf63ab939ddeae21ef03ae1a", "is_reserved": 0, "rental_uris": {"android": "https://dc.lft.to/lastmile_qr_scan", "ios": "https://dc.lft.to/lastmile_qr_scan"}, "fusion_lon": 0.0}, {"lat": 38.917068666666665, "is_disabled": 0, "type": "electric_scooter", "lon": -77.04148, "bike_id": "8028fe7a8069c74ac3b9efdb9fab9854", "fusion_lat": 0.0, "name": "8028fe7a8069c74ac3b9efdb9fab9854", "is_reserved": 0, "rental_uris": {"android": "https://dc.lft.to/lastmile_qr_scan", "ios": "https://dc.lft.to/lastmile_qr_scan"}, "fusion_lon": 0.0}, {"lat": 38.958942666666665, "is_disabled": 0, "type": "electric_bike", "lon": -76.92500783333334, "bike_id": "6510908d9c94ed546c2c82736051506f", "fusion_lat": 0.0, "name": "6510908d9c94ed546c2c82736051506f", "is_reserved": 0, "rental_uris": {"android": "https://dc.lft.to/lastmile_qr_scan", "ios": "https://dc.lft.to/lastmile_qr_scan"}, "fusion_lon": 0.0}, {"lat": 38.918169, "is_disabled": 0, "type": "electric_scooter", "lon": -77.041692, "bike_id": "a7830190da4fe6db478aad86691398e0", "fusion_lat": 0.0, "name": "a7830190da4fe6db478aad86691398e0", "is_reserved": 0, "rental_uris": {"android": "https://dc.lft.to/lastmile_qr_scan", "ios": "https://dc.lft.to/lastmile_qr_scan"}, "fusion_lon": 0.0}, {"lat": 38.8874445, "is_disabled": 0, "type": "electric_scooter", "lon": -77.0217025, "bike_id": "4ae5bb06e643907e2a5d1c8b978593f1", "fusion_lat": 0.0, "name": "4ae5bb06e643907e2a5d1c8b978593f1", "is_reserved": 0, "rental_uris": {"android": "https://dc.lft.to/lastmile_qr_scan", "ios": "https://dc.lft.to/lastmile_qr_scan"}, "fusion_lon": 0.0}, {"lat": 38.883657666666664, "is_disabled": 0, "type": "electric_scooter", "lon": -76.94155583333334, "bike_id": "a7d7120884d51396b0c5720694d2cc99", "fusion_lat": 0.0, "name": "a7d7120884d51396b0c5720694d2cc99", "is_reserved": 0, "rental_uris": {"android": "https://dc.lft.to/lastmile_qr_scan", "ios": "https://dc.lft.to/lastmile_qr_scan"}, "fusion_lon": 0.0}, {"lat": 38.9234255, "is_disabled": 0, "type": "electric_scooter", "lon": -77.05116033333333, "bike_id": "ccfde39b0c036950ad622c9babb3d3ee", "fusion_lat": 0.0, "name": "ccfde39b0c036950ad622c9babb3d3ee", "is_reserved": 0, "rental_uris": {"android": "https://dc.lft.to/lastmile_qr_scan", "ios": "https://dc.lft.to/lastmile_qr_scan"}, "fusion_lon": 0.0}, {"lat": 38.95745433333333, "is_disabled": 0, "type": "electric_scooter", "lon": -77.02072333333334, "bike_id": "0f2c6846e001be544d2abe4ed0e8a0f7", "fusion_lat": 0.0, "name": "0f2c6846e001be544d2abe4ed0e8a0f7", "is_reserved": 0, "rental_uris": {"android": "https://dc.lft.to/lastmile_qr_scan", "ios": "https://dc.lft.to/lastmile_qr_scan"}, "fusion_lon": 0.0}, {"lat": 38.9168475, "is_disabled": 0, "type": "electric_scooter", "lon": -77.0019705, "bike_id": "c5d97cb5e2ff62fde616189a08a7a9e8", "fusion_lat": 0.0, "name": "c5d97cb5e2ff62fde616189a08a7a9e8", "is_reserved": 0, "rental_uris": {"android": "https://dc.lft.to/lastmile_qr_scan", "ios": "https://dc.lft.to/lastmile_qr_scan"}, "fusion_lon": 0.0}, {"lat": 38.927427, "is_disabled": 0, "type": "electric_scooter", "lon": -77.04284116666666, "bike_id": "39965ed47511c445cde11c78b7a5bbc5", "fusion_lat": 0.0, "name": "39965ed47511c445cde11c78b7a5bbc5", "is_reserved": 0, "rental_uris": {"android": "https://dc.lft.to/lastmile_qr_scan", "ios": "https://dc.lft.to/lastmile_qr_scan"}, "fusion_lon": 0.0}, {"lat": 38.9220065, "is_disabled": 0, "type": "electric_scooter", "lon": -76.983674, "bike_id": "3a1f160b5327148ce9062e73ca294658", "fusion_lat": 0.0, "name": "3a1f160b5327148ce9062e73ca294658", "is_reserved": 0, "rental_uris": {"android": "https://dc.lft.to/lastmile_qr_scan", "ios": "https://dc.lft.to/lastmile_qr_scan"}, "fusion_lon": 0.0}, {"lat": 38.926224500000004, "is_disabled": 0, "type": "electric_scooter", "lon": -77.037865, "bike_id": "053196bdd76426a8e36fae403ccd2c05", "fusion_lat": 0.0, "name": "053196bdd76426a8e36fae403ccd2c05", "is_reserved": 0, "rental_uris": {"android": "https://dc.lft.to/lastmile_qr_scan", "ios": "https://dc.lft.to/lastmile_qr_scan"}, "fusion_lon": 0.0}, {"lat": 38.973245166666665, "is_disabled": 0, "type": "electric_bike", "lon": -77.02151016666667, "bike_id": "7b80406a5346967ceafe12f3a3ee9a72", "fusion_lat": 0.0, "name": "7b80406a5346967ceafe12f3a3ee9a72", "is_reserved": 0, "rental_uris": {"android": "https://dc.lft.to/lastmile_qr_scan", "ios": "https://dc.lft.to/lastmile_qr_scan"}, "fusion_lon": 0.0}, {"lat": 38.88309783333333, "is_disabled": 0, "type": "electric_bike", "lon": -77.03155516666666, "bike_id": "ea1cefde2076c7015a3eeaf9b6f24e81", "fusion_lat": 0.0, "name": "ea1cefde2076c7015a3eeaf9b6f24e81", "is_reserved": 0, "rental_uris": {"android": "https://dc.lft.to/lastmile_qr_scan", "ios": "https://dc.lft.to/lastmile_qr_scan"}, "fusion_lon": 0.0}, {"lat": 38.94499483333333, "is_disabled": 0, "type": "electric_scooter", "lon": -77.01550483333334, "bike_id": "a16a2201cf291c59b6083dfef6aefee2", "fusion_lat": 0.0, "name": "a16a2201cf291c59b6083dfef6aefee2", "is_reserved": 0, "rental_uris": {"android": "https://dc.lft.to/lastmile_qr_scan", "ios": "https://dc.lft.to/lastmile_qr_scan"}, "fusion_lon": 0.0}, {"lat": 38.920710166666666, "is_disabled": 0, "type": "electric_scooter", "lon": -77.0242765, "bike_id": "9b45389a64f82d2e142ecf3f41ea3408", "fusion_lat": 0.0, "name": "9b45389a64f82d2e142ecf3f41ea3408", "is_reserved": 0, "rental_uris": {"android": "https://dc.lft.to/lastmile_qr_scan", "ios": "https://dc.lft.to/lastmile_qr_scan"}, "fusion_lon": 0.0}, {"lat": 38.90961216666667, "is_disabled": 0, "type": "electric_scooter", "lon": -77.02683583333334, "bike_id": "a86aa57f11c45164d5ccaf945d27fe7b", "fusion_lat": 0.0, "name": "a86aa57f11c45164d5ccaf945d27fe7b", "is_reserved": 0, "rental_uris": {"android": "https://dc.lft.to/lastmile_qr_scan", "ios": "https://dc.lft.to/lastmile_qr_scan"}, "fusion_lon": 0.0}, {"lat": 38.89868333333333, "is_disabled": 0, "type": "electric_scooter", "lon": -77.01898783333333, "bike_id": "ccd0a68b949d0b97288f1a06adbe035c", "fusion_lat": 0.0, "name": "ccd0a68b949d0b97288f1a06adbe035c", "is_reserved": 0, "rental_uris": {"android": "https://dc.lft.to/lastmile_qr_scan", "ios": "https://dc.lft.to/lastmile_qr_scan"}, "fusion_lon": 0.0}, {"lat": 38.90404083333333, "is_disabled": 0, "type": "electric_scooter", "lon": -77.0176085, "bike_id": "7fce0b001aff445b7dd9c7e590987cbd", "fusion_lat": 0.0, "name": "7fce0b001aff445b7dd9c7e590987cbd", "is_reserved": 0, "rental_uris": {"android": "https://dc.lft.to/lastmile_qr_scan", "ios": "https://dc.lft.to/lastmile_qr_scan"}, "fusion_lon": 0.0}, {"lat": 38.92187633333333, "is_disabled": 0, "type": "electric_scooter", "lon": -77.02984166666667, "bike_id": "ae002cf591825e8f5dba97018bc1e640", "fusion_lat": 0.0, "name": "ae002cf591825e8f5dba97018bc1e640", "is_reserved": 0, "rental_uris": {"android": "https://dc.lft.to/lastmile_qr_scan", "ios": "https://dc.lft.to/lastmile_qr_scan"}, "fusion_lon": 0.0}, {"lat": 38.90080416666667, "is_disabled": 0, "type": "electric_scooter", "lon": -77.05033916666666, "bike_id": "9b75eb144ef119e4d865363cb815ec2b", "fusion_lat": 0.0, "name": "9b75eb144ef119e4d865363cb815ec2b", "is_reserved": 0, "rental_uris": {"android": "https://dc.lft.to/lastmile_qr_scan", "ios": "https://dc.lft.to/lastmile_qr_scan"}, "fusion_lon": 0.0}, {"lat": 38.924834, "is_disabled": 0, "type": "electric_scooter", "lon": -77.05213116666667, "bike_id": "086cf086e5d3682d9c8ab651dfd53982", "fusion_lat": 0.0, "name": "086cf086e5d3682d9c8ab651dfd53982", "is_reserved": 0, "rental_uris": {"android": "https://dc.lft.to/lastmile_qr_scan", "ios": "https://dc.lft.to/lastmile_qr_scan"}, "fusion_lon": 0.0}, {"lat": 38.90886733333333, "is_disabled": 0, "type": "electric_scooter", "lon": -77.043309, "bike_id": "4fd179db9db1454b4359331d03a12e34", "fusion_lat": 0.0, "name": "4fd179db9db1454b4359331d03a12e34", "is_reserved": 0, "rental_uris": {"android": "https://dc.lft.to/lastmile_qr_scan", "ios": "https://dc.lft.to/lastmile_qr_scan"}, "fusion_lon": 0.0}, {"lat": 38.923247833333335, "is_disabled": 0, "type": "electric_scooter", "lon": -77.03897883333333, "bike_id": "a9bbfc88dad6ddd58a7dc47c6dd2ad08", "fusion_lat": 0.0, "name": "a9bbfc88dad6ddd58a7dc47c6dd2ad08", "is_reserved": 0, "rental_uris": {"android": "https://dc.lft.to/lastmile_qr_scan", "ios": "https://dc.lft.to/lastmile_qr_scan"}, "fusion_lon": 0.0}, {"lat": 38.887216, "is_disabled": 0, "type": "electric_scooter", "lon": -76.95476116666667, "bike_id": "8edd02d0578b482084ae90adac0d08c8", "fusion_lat": 0.0, "name": "8edd02d0578b482084ae90adac0d08c8", "is_reserved": 0, "rental_uris": {"android": "https://dc.lft.to/lastmile_qr_scan", "ios": "https://dc.lft.to/lastmile_qr_scan"}, "fusion_lon": 0.0}, {"lat": 38.90700833333333, "is_disabled": 0, "type": "electric_scooter", "lon": -77.03474716666666, "bike_id": "6303f8919ab395c9097641494929f9a3", "fusion_lat": 0.0, "name": "6303f8919ab395c9097641494929f9a3", "is_reserved": 0, "rental_uris": {"android": "https://dc.lft.to/lastmile_qr_scan", "ios": "https://dc.lft.to/lastmile_qr_scan"}, "fusion_lon": 0.0}, {"lat": 38.916107, "is_disabled": 0, "type": "electric_scooter", "lon": -77.03227416666667, "bike_id": "fbefe9c5808a257e4703e5e037ed2e02", "fusion_lat": 0.0, "name": "fbefe9c5808a257e4703e5e037ed2e02", "is_reserved": 0, "rental_uris": {"android": "https://dc.lft.to/lastmile_qr_scan", "ios": "https://dc.lft.to/lastmile_qr_scan"}, "fusion_lon": 0.0}, {"lat": 38.92579883333333, "is_disabled": 0, "type": "electric_scooter", "lon": -77.02757183333334, "bike_id": "dc0a830c4ec004cf324195feb0757469", "fusion_lat": 0.0, "name": "dc0a830c4ec004cf324195feb0757469", "is_reserved": 0, "rental_uris": {"android": "https://dc.lft.to/lastmile_qr_scan", "ios": "https://dc.lft.to/lastmile_qr_scan"}, "fusion_lon": 0.0}, {"lat": 38.91818683333333, "is_disabled": 0, "type": "electric_scooter", "lon": -77.03450216666667, "bike_id": "d2c606461ef7d0ac95516c9b98ad9997", "fusion_lat": 0.0, "name": "d2c606461ef7d0ac95516c9b98ad9997", "is_reserved": 0, "rental_uris": {"android": "https://dc.lft.to/lastmile_qr_scan", "ios": "https://dc.lft.to/lastmile_qr_scan"}, "fusion_lon": 0.0}, {"lat": 38.922333, "is_disabled": 0, "type": "electric_scooter", "lon": -77.0425105, "bike_id": "6258944db16bba12a8ddfe23d218c465", "fusion_lat": 0.0, "name": "6258944db16bba12a8ddfe23d218c465", "is_reserved": 0, "rental_uris": {"android": "https://dc.lft.to/lastmile_qr_scan", "ios": "https://dc.lft.to/lastmile_qr_scan"}, "fusion_lon": 0.0}, {"lat": 38.8532745, "is_disabled": 0, "type": "electric_bike", "lon": -76.9801905, "bike_id": "1d41ac04d1dee0c360eec708e8ee3870", "fusion_lat": 0.0, "name": "1d41ac04d1dee0c360eec708e8ee3870", "is_reserved": 0, "rental_uris": {"android": "https://dc.lft.to/lastmile_qr_scan", "ios": "https://dc.lft.to/lastmile_qr_scan"}, "fusion_lon": 0.0}, {"lat": 38.895009333333334, "is_disabled": 0, "type": "electric_scooter", "lon": -77.02293683333333, "bike_id": "f430748dea02475803aeb810e443865e", "fusion_lat": 0.0, "name": "f430748dea02475803aeb810e443865e", "is_reserved": 0, "rental_uris": {"android": "https://dc.lft.to/lastmile_qr_scan", "ios": "https://dc.lft.to/lastmile_qr_scan"}, "fusion_lon": 0.0}, {"lat": 38.930768666666665, "is_disabled": 0, "type": "electric_scooter", "lon": -77.01662533333334, "bike_id": "f026f71da18b8ffaf4dbb78d800c75a0", "fusion_lat": 0.0, "name": "f026f71da18b8ffaf4dbb78d800c75a0", "is_reserved": 0, "rental_uris": {"android": "https://dc.lft.to/lastmile_qr_scan", "ios": "https://dc.lft.to/lastmile_qr_scan"}, "fusion_lon": 0.0}, {"lat": 38.8968115, "is_disabled": 0, "type": "electric_scooter", "lon": -76.9360685, "bike_id": "1874914ef54053c05dfb1a88e4b5fee2", "fusion_lat": 0.0, "name": "1874914ef54053c05dfb1a88e4b5fee2", "is_reserved": 0, "rental_uris": {"android": "https://dc.lft.to/lastmile_qr_scan", "ios": "https://dc.lft.to/lastmile_qr_scan"}, "fusion_lon": 0.0}, {"lat": 38.895691, "is_disabled": 0, "type": "electric_scooter", "lon": -77.021986, "bike_id": "ca249953fd15e9df9b5c1bf96e1b0eb0", "fusion_lat": 0.0, "name": "ca249953fd15e9df9b5c1bf96e1b0eb0", "is_reserved": 0, "rental_uris": {"android": "https://dc.lft.to/lastmile_qr_scan", "ios": "https://dc.lft.to/lastmile_qr_scan"}, "fusion_lon": 0.0}, {"lat": 38.8941125, "is_disabled": 0, "type": "electric_scooter", "lon": -76.95664216666667, "bike_id": "474753e45a6e4c896bb962076b0832e4", "fusion_lat": 0.0, "name": "474753e45a6e4c896bb962076b0832e4", "is_reserved": 0, "rental_uris": {"android": "https://dc.lft.to/lastmile_qr_scan", "ios": "https://dc.lft.to/lastmile_qr_scan"}, "fusion_lon": 0.0}, {"lat": 38.9084065, "is_disabled": 0, "type": "electric_scooter", "lon": -76.9997415, "bike_id": "109e52f28e70fcb498dc4e22a3ca8ac6", "fusion_lat": 0.0, "name": "109e52f28e70fcb498dc4e22a3ca8ac6", "is_reserved": 0, "rental_uris": {"android": "https://dc.lft.to/lastmile_qr_scan", "ios": "https://dc.lft.to/lastmile_qr_scan"}, "fusion_lon": 0.0}, {"lat": 38.902468999999996, "is_disabled": 0, "type": "electric_scooter", "lon": -77.0459855, "bike_id": "a4633e1038e0a5f8943f699af8e5a06d", "fusion_lat": 0.0, "name": "a4633e1038e0a5f8943f699af8e5a06d", "is_reserved": 0, "rental_uris": {"android": "https://dc.lft.to/lastmile_qr_scan", "ios": "https://dc.lft.to/lastmile_qr_scan"}, "fusion_lon": 0.0}, {"lat": 38.90705766666667, "is_disabled": 0, "type": "electric_scooter", "lon": -76.99863233333333, "bike_id": "349c526695bc64fb5d2dc9920f504b2c", "fusion_lat": 0.0, "name": "349c526695bc64fb5d2dc9920f504b2c", "is_reserved": 0, "rental_uris": {"android": "https://dc.lft.to/lastmile_qr_scan", "ios": "https://dc.lft.to/lastmile_qr_scan"}, "fusion_lon": 0.0}, {"lat": 38.91354583333333, "is_disabled": 0, "type": "electric_scooter", "lon": -77.0218695, "bike_id": "d575e12dc1933b641ad9972859a133cf", "fusion_lat": 0.0, "name": "d575e12dc1933b641ad9972859a133cf", "is_reserved": 0, "rental_uris": {"android": "https://dc.lft.to/lastmile_qr_scan", "ios": "https://dc.lft.to/lastmile_qr_scan"}, "fusion_lon": 0.0}, {"lat": 38.93302666666666, "is_disabled": 0, "type": "electric_scooter", "lon": -77.03434666666666, "bike_id": "07bb92bd32c67a42b32085bbff960b2d", "fusion_lat": 0.0, "name": "07bb92bd32c67a42b32085bbff960b2d", "is_reserved": 0, "rental_uris": {"android": "https://dc.lft.to/lastmile_qr_scan", "ios": "https://dc.lft.to/lastmile_qr_scan"}, "fusion_lon": 0.0}, {"lat": 38.99615466666667, "is_disabled": 0, "type": "electric_scooter", "lon": -77.03213016666666, "bike_id": "ec3ff552d403a68c3b9423ffb5282fc0", "fusion_lat": 0.0, "name": "ec3ff552d403a68c3b9423ffb5282fc0", "is_reserved": 0, "rental_uris": {"android": "https://dc.lft.to/lastmile_qr_scan", "ios": "https://dc.lft.to/lastmile_qr_scan"}, "fusion_lon": 0.0}, {"lat": 38.864141833333335, "is_disabled": 0, "type": "electric_bike", "lon": -76.97435216666666, "bike_id": "19051b949c8173b72650c33b489bd9be", "fusion_lat": 0.0, "name": "19051b949c8173b72650c33b489bd9be", "is_reserved": 0, "rental_uris": {"android": "https://dc.lft.to/lastmile_qr_scan", "ios": "https://dc.lft.to/lastmile_qr_scan"}, "fusion_lon": 0.0}, {"lat": 38.909716833333334, "is_disabled": 0, "type": "electric_scooter", "lon": -77.04518866666666, "bike_id": "37f8132cbb6f147753c409f3516d100d", "fusion_lat": 0.0, "name": "37f8132cbb6f147753c409f3516d100d", "is_reserved": 0, "rental_uris": {"android": "https://dc.lft.to/lastmile_qr_scan", "ios": "https://dc.lft.to/lastmile_qr_scan"}, "fusion_lon": 0.0}, {"lat": 38.913350333333334, "is_disabled": 0, "type": "electric_scooter", "lon": -77.04820183333334, "bike_id": "a1c3be252e73b24cee401f02e88e4081", "fusion_lat": 0.0, "name": "a1c3be252e73b24cee401f02e88e4081", "is_reserved": 0, "rental_uris": {"android": "https://dc.lft.to/lastmile_qr_scan", "ios": "https://dc.lft.to/lastmile_qr_scan"}, "fusion_lon": 0.0}, {"lat": 38.91255983333333, "is_disabled": 0, "type": "electric_scooter", "lon": -77.035002, "bike_id": "f22d66e7f0c71f8e360bb4c91aad8904", "fusion_lat": 0.0, "name": "f22d66e7f0c71f8e360bb4c91aad8904", "is_reserved": 0, "rental_uris": {"android": "https://dc.lft.to/lastmile_qr_scan", "ios": "https://dc.lft.to/lastmile_qr_scan"}, "fusion_lon": 0.0}, {"lat": 38.922411, "is_disabled": 0, "type": "electric_scooter", "lon": -77.029092, "bike_id": "e96b4d6765d3385d34e6493200c8167a", "fusion_lat": 0.0, "name": "e96b4d6765d3385d34e6493200c8167a", "is_reserved": 0, "rental_uris": {"android": "https://dc.lft.to/lastmile_qr_scan", "ios": "https://dc.lft.to/lastmile_qr_scan"}, "fusion_lon": 0.0}, {"lat": 38.908836666666666, "is_disabled": 0, "type": "electric_scooter", "lon": -77.03665633333334, "bike_id": "89f41a5e1c062578321e8d92fb2b3fd1", "fusion_lat": 0.0, "name": "89f41a5e1c062578321e8d92fb2b3fd1", "is_reserved": 0, "rental_uris": {"android": "https://dc.lft.to/lastmile_qr_scan", "ios": "https://dc.lft.to/lastmile_qr_scan"}, "fusion_lon": 0.0}, {"lat": 38.905613, "is_disabled": 0, "type": "electric_scooter", "lon": -77.05704116666666, "bike_id": "1b247ceecb1770f07fa037a82d2c7bf2", "fusion_lat": 0.0, "name": "1b247ceecb1770f07fa037a82d2c7bf2", "is_reserved": 0, "rental_uris": {"android": "https://dc.lft.to/lastmile_qr_scan", "ios": "https://dc.lft.to/lastmile_qr_scan"}, "fusion_lon": 0.0}, {"lat": 38.862267333333335, "is_disabled": 0, "type": "electric_scooter", "lon": -76.98361183333333, "bike_id": "7902df3b1fb84b063485bc78009c3ae6", "fusion_lat": 0.0, "name": "7902df3b1fb84b063485bc78009c3ae6", "is_reserved": 0, "rental_uris": {"android": "https://dc.lft.to/lastmile_qr_scan", "ios": "https://dc.lft.to/lastmile_qr_scan"}, "fusion_lon": 0.0}, {"lat": 38.88276, "is_disabled": 0, "type": "electric_bike", "lon": -76.93236066666667, "bike_id": "2962bb6c31f56f6f169c4f7cdbd30dd3", "fusion_lat": 0.0, "name": "2962bb6c31f56f6f169c4f7cdbd30dd3", "is_reserved": 0, "rental_uris": {"android": "https://dc.lft.to/lastmile_qr_scan", "ios": "https://dc.lft.to/lastmile_qr_scan"}, "fusion_lon": 0.0}, {"lat": 38.9170075, "is_disabled": 0, "type": "electric_scooter", "lon": -77.029912, "bike_id": "3767a878c7b4d6c7fdedde43d9b3c613", "fusion_lat": 0.0, "name": "3767a878c7b4d6c7fdedde43d9b3c613", "is_reserved": 0, "rental_uris": {"android": "https://dc.lft.to/lastmile_qr_scan", "ios": "https://dc.lft.to/lastmile_qr_scan"}, "fusion_lon": 0.0}, {"lat": 38.866195166666664, "is_disabled": 0, "type": "electric_scooter", "lon": -76.98663266666667, "bike_id": "baa747f70848b1b1ee6f9369ee7fb3b2", "fusion_lat": 0.0, "name": "baa747f70848b1b1ee6f9369ee7fb3b2", "is_reserved": 0, "rental_uris": {"android": "https://dc.lft.to/lastmile_qr_scan", "ios": "https://dc.lft.to/lastmile_qr_scan"}, "fusion_lon": 0.0}, {"lat": 38.935692833333334, "is_disabled": 0, "type": "electric_scooter", "lon": -77.03733716666666, "bike_id": "e342c56f9f769238f1badb06cf378697", "fusion_lat": 0.0, "name": "e342c56f9f769238f1badb06cf378697", "is_reserved": 0, "rental_uris": {"android": "https://dc.lft.to/lastmile_qr_scan", "ios": "https://dc.lft.to/lastmile_qr_scan"}, "fusion_lon": 0.0}, {"lat": 38.88741683333333, "is_disabled": 0, "type": "electric_scooter", "lon": -77.01531783333333, "bike_id": "886f7f09ee5f8c5ffbf3862380dc6dfe", "fusion_lat": 0.0, "name": "886f7f09ee5f8c5ffbf3862380dc6dfe", "is_reserved": 0, "rental_uris": {"android": "https://dc.lft.to/lastmile_qr_scan", "ios": "https://dc.lft.to/lastmile_qr_scan"}, "fusion_lon": 0.0}, {"lat": 38.8948425, "is_disabled": 0, "type": "electric_scooter", "lon": -76.94954933333334, "bike_id": "e46c00d60ab3c5b27a367756ea5d3135", "fusion_lat": 0.0, "name": "e46c00d60ab3c5b27a367756ea5d3135", "is_reserved": 0, "rental_uris": {"android": "https://dc.lft.to/lastmile_qr_scan", "ios": "https://dc.lft.to/lastmile_qr_scan"}, "fusion_lon": 0.0}, {"lat": 38.910127333333335, "is_disabled": 0, "type": "electric_scooter", "lon": -76.993883, "bike_id": "652a26df6d110e4bcf1e4781d9f80825", "fusion_lat": 0.0, "name": "652a26df6d110e4bcf1e4781d9f80825", "is_reserved": 0, "rental_uris": {"android": "https://dc.lft.to/lastmile_qr_scan", "ios": "https://dc.lft.to/lastmile_qr_scan"}, "fusion_lon": 0.0}, {"lat": 38.89223283333333, "is_disabled": 0, "type": "electric_scooter", "lon": -77.04870616666666, "bike_id": "f8ad2895d3353c092cd9bada4795bffd", "fusion_lat": 0.0, "name": "f8ad2895d3353c092cd9bada4795bffd", "is_reserved": 0, "rental_uris": {"android": "https://dc.lft.to/lastmile_qr_scan", "ios": "https://dc.lft.to/lastmile_qr_scan"}, "fusion_lon": 0.0}, {"lat": 38.879243, "is_disabled": 0, "type": "electric_scooter", "lon": -77.00742283333334, "bike_id": "88745ba382720eaa084592cafc41fd9e", "fusion_lat": 0.0, "name": "88745ba382720eaa084592cafc41fd9e", "is_reserved": 0, "rental_uris": {"android": "https://dc.lft.to/lastmile_qr_scan", "ios": "https://dc.lft.to/lastmile_qr_scan"}, "fusion_lon": 0.0}, {"lat": 38.96143716666667, "is_disabled": 0, "type": "electric_bike", "lon": -77.03232416666667, "bike_id": "3e43033642ed9af8140b223b34245dca", "fusion_lat": 0.0, "name": "3e43033642ed9af8140b223b34245dca", "is_reserved": 0, "rental_uris": {"android": "https://dc.lft.to/lastmile_qr_scan", "ios": "https://dc.lft.to/lastmile_qr_scan"}, "fusion_lon": 0.0}, {"lat": 38.91987683333333, "is_disabled": 0, "type": "electric_scooter", "lon": -77.0239445, "bike_id": "5b06268bf546f80d8d92f8c2aba885b3", "fusion_lat": 0.0, "name": "5b06268bf546f80d8d92f8c2aba885b3", "is_reserved": 0, "rental_uris": {"android": "https://dc.lft.to/lastmile_qr_scan", "ios": "https://dc.lft.to/lastmile_qr_scan"}, "fusion_lon": 0.0}, {"lat": 38.90335533333333, "is_disabled": 0, "type": "electric_scooter", "lon": -76.97058616666666, "bike_id": "8cd96383c0e31374588adf809bfd8d80", "fusion_lat": 0.0, "name": "8cd96383c0e31374588adf809bfd8d80", "is_reserved": 0, "rental_uris": {"android": "https://dc.lft.to/lastmile_qr_scan", "ios": "https://dc.lft.to/lastmile_qr_scan"}, "fusion_lon": 0.0}, {"lat": 38.915681166666666, "is_disabled": 0, "type": "electric_scooter", "lon": -77.00975316666667, "bike_id": "65fc6fcf430fb833e4ebe2f3aae4c789", "fusion_lat": 0.0, "name": "65fc6fcf430fb833e4ebe2f3aae4c789", "is_reserved": 0, "rental_uris": {"android": "https://dc.lft.to/lastmile_qr_scan", "ios": "https://dc.lft.to/lastmile_qr_scan"}, "fusion_lon": 0.0}, {"lat": 38.898724333333334, "is_disabled": 0, "type": "electric_scooter", "lon": -77.0293965, "bike_id": "8fe2500b52a5bd0866bb66ca820c4416", "fusion_lat": 0.0, "name": "8fe2500b52a5bd0866bb66ca820c4416", "is_reserved": 0, "rental_uris": {"android": "https://dc.lft.to/lastmile_qr_scan", "ios": "https://dc.lft.to/lastmile_qr_scan"}, "fusion_lon": 0.0}, {"lat": 38.91650766666667, "is_disabled": 0, "type": "electric_scooter", "lon": -77.0218835, "bike_id": "9c13f969ced34ff52a3cb33c97d1a419", "fusion_lat": 0.0, "name": "9c13f969ced34ff52a3cb33c97d1a419", "is_reserved": 0, "rental_uris": {"android": "https://dc.lft.to/lastmile_qr_scan", "ios": "https://dc.lft.to/lastmile_qr_scan"}, "fusion_lon": 0.0}, {"lat": 38.92122033333333, "is_disabled": 0, "type": "electric_scooter", "lon": -77.03657916666667, "bike_id": "cdd4166bb7746659b8699887a813e036", "fusion_lat": 0.0, "name": "cdd4166bb7746659b8699887a813e036", "is_reserved": 0, "rental_uris": {"android": "https://dc.lft.to/lastmile_qr_scan", "ios": "https://dc.lft.to/lastmile_qr_scan"}, "fusion_lon": 0.0}, {"lat": 38.92622983333333, "is_disabled": 0, "type": "electric_bike", "lon": -77.032878, "bike_id": "b589b618a8b04b497a1f8273bc96fbec", "fusion_lat": 0.0, "name": "b589b618a8b04b497a1f8273bc96fbec", "is_reserved": 0, "rental_uris": {"android": "https://dc.lft.to/lastmile_qr_scan", "ios": "https://dc.lft.to/lastmile_qr_scan"}, "fusion_lon": 0.0}, {"lat": 38.920597, "is_disabled": 0, "type": "electric_scooter", "lon": -77.03392333333333, "bike_id": "0f53fa9a7b6946d57d699b36f2497d33", "fusion_lat": 0.0, "name": "0f53fa9a7b6946d57d699b36f2497d33", "is_reserved": 0, "rental_uris": {"android": "https://dc.lft.to/lastmile_qr_scan", "ios": "https://dc.lft.to/lastmile_qr_scan"}, "fusion_lon": 0.0}, {"lat": 38.909816666666664, "is_disabled": 0, "type": "electric_scooter", "lon": -77.03447433333334, "bike_id": "a8cf128a7b636c8b81584ab309ebb558", "fusion_lat": 0.0, "name": "a8cf128a7b636c8b81584ab309ebb558", "is_reserved": 0, "rental_uris": {"android": "https://dc.lft.to/lastmile_qr_scan", "ios": "https://dc.lft.to/lastmile_qr_scan"}, "fusion_lon": 0.0}, {"lat": 38.898953166666665, "is_disabled": 0, "type": "electric_scooter", "lon": -76.98423616666666, "bike_id": "e4291132fa996c67e9c9d82862d68c19", "fusion_lat": 0.0, "name": "e4291132fa996c67e9c9d82862d68c19", "is_reserved": 0, "rental_uris": {"android": "https://dc.lft.to/lastmile_qr_scan", "ios": "https://dc.lft.to/lastmile_qr_scan"}, "fusion_lon": 0.0}, {"lat": 38.92075783333333, "is_disabled": 0, "type": "electric_scooter", "lon": -77.0454905, "bike_id": "c29327c0581db274000debbd7fdc2c39", "fusion_lat": 0.0, "name": "c29327c0581db274000debbd7fdc2c39", "is_reserved": 0, "rental_uris": {"android": "https://dc.lft.to/lastmile_qr_scan", "ios": "https://dc.lft.to/lastmile_qr_scan"}, "fusion_lon": 0.0}, {"lat": 38.89736533333333, "is_disabled": 0, "type": "electric_scooter", "lon": -76.94718066666667, "bike_id": "87a9dac213963afbf8fb741bd182ccf9", "fusion_lat": 0.0, "name": "87a9dac213963afbf8fb741bd182ccf9", "is_reserved": 0, "rental_uris": {"android": "https://dc.lft.to/lastmile_qr_scan", "ios": "https://dc.lft.to/lastmile_qr_scan"}, "fusion_lon": 0.0}, {"lat": 38.915563666666664, "is_disabled": 0, "type": "electric_scooter", "lon": -77.03162016666667, "bike_id": "095357f4d0a368b78efbb95b669b4199", "fusion_lat": 0.0, "name": "095357f4d0a368b78efbb95b669b4199", "is_reserved": 0, "rental_uris": {"android": "https://dc.lft.to/lastmile_qr_scan", "ios": "https://dc.lft.to/lastmile_qr_scan"}, "fusion_lon": 0.0}, {"lat": 38.927138666666664, "is_disabled": 0, "type": "electric_scooter", "lon": -77.0240935, "bike_id": "7b141ceba57b8e90d5cb8e6371448aca", "fusion_lat": 0.0, "name": "7b141ceba57b8e90d5cb8e6371448aca", "is_reserved": 0, "rental_uris": {"android": "https://dc.lft.to/lastmile_qr_scan", "ios": "https://dc.lft.to/lastmile_qr_scan"}, "fusion_lon": 0.0}, {"lat": 38.903702833333334, "is_disabled": 0, "type": "electric_scooter", "lon": -77.0579285, "bike_id": "9547631e944eab5a03b96210a896fba6", "fusion_lat": 0.0, "name": "9547631e944eab5a03b96210a896fba6", "is_reserved": 0, "rental_uris": {"android": "https://dc.lft.to/lastmile_qr_scan", "ios": "https://dc.lft.to/lastmile_qr_scan"}, "fusion_lon": 0.0}, {"lat": 38.9535705, "is_disabled": 0, "type": "electric_bike", "lon": -76.9809415, "bike_id": "ecb3471e1f38f4c41dfe6cec939dbe4a", "fusion_lat": 0.0, "name": "ecb3471e1f38f4c41dfe6cec939dbe4a", "is_reserved": 0, "rental_uris": {"android": "https://dc.lft.to/lastmile_qr_scan", "ios": "https://dc.lft.to/lastmile_qr_scan"}, "fusion_lon": 0.0}, {"lat": 38.903006, "is_disabled": 0, "type": "electric_scooter", "lon": -77.051423, "bike_id": "fa0d97f184d6f3414e4c9a085b320564", "fusion_lat": 0.0, "name": "fa0d97f184d6f3414e4c9a085b320564", "is_reserved": 0, "rental_uris": {"android": "https://dc.lft.to/lastmile_qr_scan", "ios": "https://dc.lft.to/lastmile_qr_scan"}, "fusion_lon": 0.0}, {"lat": 38.91413283333333, "is_disabled": 0, "type": "electric_scooter", "lon": -77.03522466666666, "bike_id": "eff2044704b9c2cda7a8ee28adb0f869", "fusion_lat": 0.0, "name": "eff2044704b9c2cda7a8ee28adb0f869", "is_reserved": 0, "rental_uris": {"android": "https://dc.lft.to/lastmile_qr_scan", "ios": "https://dc.lft.to/lastmile_qr_scan"}, "fusion_lon": 0.0}, {"lat": 38.92183166666667, "is_disabled": 0, "type": "electric_scooter", "lon": -77.03805183333333, "bike_id": "2a4e79e6cf622352e14696055baacb33", "fusion_lat": 0.0, "name": "2a4e79e6cf622352e14696055baacb33", "is_reserved": 0, "rental_uris": {"android": "https://dc.lft.to/lastmile_qr_scan", "ios": "https://dc.lft.to/lastmile_qr_scan"}, "fusion_lon": 0.0}, {"lat": 38.89325316666667, "is_disabled": 0, "type": "electric_bike", "lon": -76.92116966666667, "bike_id": "e32064962d526c6897d7d9789480f774", "fusion_lat": 0.0, "name": "e32064962d526c6897d7d9789480f774", "is_reserved": 0, "rental_uris": {"android": "https://dc.lft.to/lastmile_qr_scan", "ios": "https://dc.lft.to/lastmile_qr_scan"}, "fusion_lon": 0.0}, {"lat": 38.91678533333334, "is_disabled": 0, "type": "electric_scooter", "lon": -77.023934, "bike_id": "9dd029f8b84cd09e0bac008e565af1bd", "fusion_lat": 0.0, "name": "9dd029f8b84cd09e0bac008e565af1bd", "is_reserved": 0, "rental_uris": {"android": "https://dc.lft.to/lastmile_qr_scan", "ios": "https://dc.lft.to/lastmile_qr_scan"}, "fusion_lon": 0.0}, {"lat": 38.9058905, "is_disabled": 0, "type": "electric_scooter", "lon": -76.98638283333334, "bike_id": "30d291438a1ba678d01aab9055481a17", "fusion_lat": 0.0, "name": "30d291438a1ba678d01aab9055481a17", "is_reserved": 0, "rental_uris": {"android": "https://dc.lft.to/lastmile_qr_scan", "ios": "https://dc.lft.to/lastmile_qr_scan"}, "fusion_lon": 0.0}, {"lat": 38.952784333333334, "is_disabled": 0, "type": "electric_scooter", "lon": -77.03658216666666, "bike_id": "0ce2a185dd6a916b8a2df17d2cb0e5c8", "fusion_lat": 0.0, "name": "0ce2a185dd6a916b8a2df17d2cb0e5c8", "is_reserved": 0, "rental_uris": {"android": "https://dc.lft.to/lastmile_qr_scan", "ios": "https://dc.lft.to/lastmile_qr_scan"}, "fusion_lon": 0.0}, {"lat": 38.858092666666664, "is_disabled": 0, "type": "electric_scooter", "lon": -76.98655133333334, "bike_id": "d1b901ab4b1d0f5606a208f05fdec8e5", "fusion_lat": 0.0, "name": "d1b901ab4b1d0f5606a208f05fdec8e5", "is_reserved": 0, "rental_uris": {"android": "https://dc.lft.to/lastmile_qr_scan", "ios": "https://dc.lft.to/lastmile_qr_scan"}, "fusion_lon": 0.0}, {"lat": 38.87452916666667, "is_disabled": 0, "type": "electric_bike", "lon": -77.1082075, "bike_id": "a7862f4a5cc0d5b689a6c362e2738e69", "fusion_lat": 0.0, "name": "a7862f4a5cc0d5b689a6c362e2738e69", "is_reserved": 0, "rental_uris": {"android": "https://dc.lft.to/lastmile_qr_scan", "ios": "https://dc.lft.to/lastmile_qr_scan"}, "fusion_lon": 0.0}, {"lat": 38.944514166666664, "is_disabled": 0, "type": "electric_scooter", "lon": -77.032823, "bike_id": "3574659260081e457e1ac478ab1ed2b4", "fusion_lat": 0.0, "name": "3574659260081e457e1ac478ab1ed2b4", "is_reserved": 0, "rental_uris": {"android": "https://dc.lft.to/lastmile_qr_scan", "ios": "https://dc.lft.to/lastmile_qr_scan"}, "fusion_lon": 0.0}, {"lat": 38.91693316666667, "is_disabled": 0, "type": "electric_scooter", "lon": -77.04331883333333, "bike_id": "e9e19a31973c41b2d43967332567b8ae", "fusion_lat": 0.0, "name": "e9e19a31973c41b2d43967332567b8ae", "is_reserved": 0, "rental_uris": {"android": "https://dc.lft.to/lastmile_qr_scan", "ios": "https://dc.lft.to/lastmile_qr_scan"}, "fusion_lon": 0.0}, {"lat": 38.8909845, "is_disabled": 0, "type": "electric_scooter", "lon": -76.94298116666667, "bike_id": "b0ea76796f35affda886a624be96e7e7", "fusion_lat": 0.0, "name": "b0ea76796f35affda886a624be96e7e7", "is_reserved": 0, "rental_uris": {"android": "https://dc.lft.to/lastmile_qr_scan", "ios": "https://dc.lft.to/lastmile_qr_scan"}, "fusion_lon": 0.0}, {"lat": 38.9639455, "is_disabled": 0, "type": "electric_scooter", "lon": -77.02590233333333, "bike_id": "9ea66cf3292a6ccf7b5c2075a7b5d387", "fusion_lat": 0.0, "name": "9ea66cf3292a6ccf7b5c2075a7b5d387", "is_reserved": 0, "rental_uris": {"android": "https://dc.lft.to/lastmile_qr_scan", "ios": "https://dc.lft.to/lastmile_qr_scan"}, "fusion_lon": 0.0}, {"lat": 38.91720083333333, "is_disabled": 0, "type": "electric_scooter", "lon": -77.02971433333333, "bike_id": "9eccbfbca37893f0a1b59ee3734706f6", "fusion_lat": 0.0, "name": "9eccbfbca37893f0a1b59ee3734706f6", "is_reserved": 0, "rental_uris": {"android": "https://dc.lft.to/lastmile_qr_scan", "ios": "https://dc.lft.to/lastmile_qr_scan"}, "fusion_lon": 0.0}, {"lat": 38.907973166666665, "is_disabled": 0, "type": "electric_scooter", "lon": -77.03480716666667, "bike_id": "caf4fa8c27a56caa8f3686b90233ce00", "fusion_lat": 0.0, "name": "caf4fa8c27a56caa8f3686b90233ce00", "is_reserved": 0, "rental_uris": {"android": "https://dc.lft.to/lastmile_qr_scan", "ios": "https://dc.lft.to/lastmile_qr_scan"}, "fusion_lon": 0.0}, {"lat": 38.92414, "is_disabled": 0, "type": "electric_bike", "lon": -77.0504205, "bike_id": "337a895b411f611498f7ef26b1be319d", "fusion_lat": 0.0, "name": "337a895b411f611498f7ef26b1be319d", "is_reserved": 0, "rental_uris": {"android": "https://dc.lft.to/lastmile_qr_scan", "ios": "https://dc.lft.to/lastmile_qr_scan"}, "fusion_lon": 0.0}, {"lat": 38.924620833333336, "is_disabled": 0, "type": "electric_bike", "lon": -77.20834966666666, "bike_id": "d6846d2a73eef3e4899f252aa288848d", "fusion_lat": 0.0, "name": "d6846d2a73eef3e4899f252aa288848d", "is_reserved": 0, "rental_uris": {"android": "https://dc.lft.to/lastmile_qr_scan", "ios": "https://dc.lft.to/lastmile_qr_scan"}, "fusion_lon": 0.0}, {"lat": 38.90036533333333, "is_disabled": 0, "type": "electric_scooter", "lon": -77.0057815, "bike_id": "900066afd0a2d6e7118d8d3a868607a3", "fusion_lat": 0.0, "name": "900066afd0a2d6e7118d8d3a868607a3", "is_reserved": 0, "rental_uris": {"android": "https://dc.lft.to/lastmile_qr_scan", "ios": "https://dc.lft.to/lastmile_qr_scan"}, "fusion_lon": 0.0}, {"lat": 38.927179, "is_disabled": 0, "type": "electric_scooter", "lon": -77.02083766666667, "bike_id": "aa28d767232e4f5311f8d4c87b1246c6", "fusion_lat": 0.0, "name": "aa28d767232e4f5311f8d4c87b1246c6", "is_reserved": 0, "rental_uris": {"android": "https://dc.lft.to/lastmile_qr_scan", "ios": "https://dc.lft.to/lastmile_qr_scan"}, "fusion_lon": 0.0}, {"lat": 38.91564316666667, "is_disabled": 0, "type": "electric_scooter", "lon": -77.03168066666667, "bike_id": "9c324b51603a4862ec9e53dae69e561d", "fusion_lat": 0.0, "name": "9c324b51603a4862ec9e53dae69e561d", "is_reserved": 0, "rental_uris": {"android": "https://dc.lft.to/lastmile_qr_scan", "ios": "https://dc.lft.to/lastmile_qr_scan"}, "fusion_lon": 0.0}, {"lat": 38.893738, "is_disabled": 0, "type": "electric_scooter", "lon": -77.04794266666667, "bike_id": "1bf6d2d2495d92e0ffa8c98c8d4dbfdc", "fusion_lat": 0.0, "name": "1bf6d2d2495d92e0ffa8c98c8d4dbfdc", "is_reserved": 0, "rental_uris": {"android": "https://dc.lft.to/lastmile_qr_scan", "ios": "https://dc.lft.to/lastmile_qr_scan"}, "fusion_lon": 0.0}, {"lat": 38.94459333333333, "is_disabled": 0, "type": "electric_scooter", "lon": -77.060337, "bike_id": "59c923e2ee072d69218f2d6486f50336", "fusion_lat": 0.0, "name": "59c923e2ee072d69218f2d6486f50336", "is_reserved": 0, "rental_uris": {"android": "https://dc.lft.to/lastmile_qr_scan", "ios": "https://dc.lft.to/lastmile_qr_scan"}, "fusion_lon": 0.0}, {"lat": 38.92072783333333, "is_disabled": 0, "type": "electric_scooter", "lon": -77.04213016666667, "bike_id": "922c6843d682b9d079fc4c11ba74c7e2", "fusion_lat": 0.0, "name": "922c6843d682b9d079fc4c11ba74c7e2", "is_reserved": 0, "rental_uris": {"android": "https://dc.lft.to/lastmile_qr_scan", "ios": "https://dc.lft.to/lastmile_qr_scan"}, "fusion_lon": 0.0}, {"lat": 38.90496566666667, "is_disabled": 0, "type": "electric_scooter", "lon": -77.06829816666666, "bike_id": "dd0d648f34f824663526e16a21e32b29", "fusion_lat": 0.0, "name": "dd0d648f34f824663526e16a21e32b29", "is_reserved": 0, "rental_uris": {"android": "https://dc.lft.to/lastmile_qr_scan", "ios": "https://dc.lft.to/lastmile_qr_scan"}, "fusion_lon": 0.0}, {"lat": 38.94439916666666, "is_disabled": 0, "type": "electric_scooter", "lon": -77.06348283333334, "bike_id": "e124a56b241d2b874ef4f644e1fa4b26", "fusion_lat": 0.0, "name": "e124a56b241d2b874ef4f644e1fa4b26", "is_reserved": 0, "rental_uris": {"android": "https://dc.lft.to/lastmile_qr_scan", "ios": "https://dc.lft.to/lastmile_qr_scan"}, "fusion_lon": 0.0}, {"lat": 38.904966, "is_disabled": 0, "type": "electric_scooter", "lon": -76.9871045, "bike_id": "e8257d379fbfff422ab726db130bcef6", "fusion_lat": 0.0, "name": "e8257d379fbfff422ab726db130bcef6", "is_reserved": 0, "rental_uris": {"android": "https://dc.lft.to/lastmile_qr_scan", "ios": "https://dc.lft.to/lastmile_qr_scan"}, "fusion_lon": 0.0}, {"lat": 38.87342433333333, "is_disabled": 0, "type": "electric_scooter", "lon": -76.991636, "bike_id": "3b212233e1d962d71c58510c9b53dd7d", "fusion_lat": 0.0, "name": "3b212233e1d962d71c58510c9b53dd7d", "is_reserved": 0, "rental_uris": {"android": "https://dc.lft.to/lastmile_qr_scan", "ios": "https://dc.lft.to/lastmile_qr_scan"}, "fusion_lon": 0.0},