{"data": {"bikes": [{"type": "electric_scooter", "fusion_lon": 0.0, "fusion_lat": 0.0, "rental_uris": {"android": "https://dc.lft.to/lastmile_qr_scan", "ios": "https://dc.lft.to/lastmile_qr_scan"}, "bike_id": "00ee8509022490b8fb8f1b069b5b8f8c", "is_reserved": 0, "lon": -77.01914983333333, "name": "00ee8509022490b8fb8f1b069b5b8f8c", "is_disabled": 0, "lat": 38.923668166666666}, {"type": "electric_scooter", "fusion_lon": 0.0, "fusion_lat": 0.0, "rental_uris": {"android": "https://dc.lft.to/lastmile_qr_scan", "ios": "https://dc.lft.to/lastmile_qr_scan"}, "bike_id": "5f9c4cbb2edb6a1b24de6abcda56c878", "is_reserved": 0, "lon": -77.04486916666667, "name": "5f9c4cbb2edb6a1b24de6abcda56c878", "is_disabled": 0, "lat": 38.903622666666664}, {"type": "electric_scooter", "fusion_lon": 0.0, "fusion_lat": 0.0, "rental_uris": {"android": "https://dc.lft.to/lastmile_qr_scan", "ios": "https://dc.lft.to/lastmile_qr_scan"}, "bike_id": "61f9be7e0df599debcdbb1e7938b4585", "is_reserved": 0, "lon": -77.03301583333334, "name": "61f9be7e0df599debcdbb1e7938b4585", "is_disabled": 0, "lat": 38.956381666666665}, {"type": "electric_scooter", "fusion_lon": 0.0, "fusion_lat": 0.0, "rental_uris": {"android": "https://dc.lft.to/lastmile_qr_scan", "ios": "https://dc.lft.to/lastmile_qr_scan"}, "bike_id": "54fb6ff79b15dbd6a3a41ad09a906ee1", "is_reserved": 0, "lon": -77.00031066666666, "name": "54fb6ff79b15dbd6a3a41ad09a906ee1", "is_disabled": 0, "lat": 38.87396833333333}, {"type": "electric_scooter", "fusion_lon": 0.0, "fusion_lat": 0.0, "rental_uris": {"android": "https://dc.lft.to/lastmile_qr_scan", "ios": "https://dc.lft.to/lastmile_qr_scan"}, "bike_id": "416731e61d49e1bd955e59d13e1c6ef1", "is_reserved": 0, "lon": -77.00707033333333, "name": "416731e61d49e1bd955e59d13e1c6ef1", "is_disabled": 0, "lat": 38.91708333333333}, {"type": "electric_scooter", "fusion_lon": 0.0, "fusion_lat": 0.0, "rental_uris": {"android": "https://dc.lft.to/lastmile_qr_scan", "ios": "https://dc.lft.to/lastmile_qr_scan"}, "bike_id": "417be74f8872529f6d966258b39cf698", "is_reserved": 0, "lon": -77.00195883333333, "name": "417be74f8872529f6d966258b39cf698", "is_disabled": 0, "lat": 38.902384}, {"type": "electric_bike", "fusion_lon": 0.0, "fusion_lat": 0.0, "rental_uris": {"android": "https://dc.lft.to/lastmile_qr_scan", "ios": "https://dc.lft.to/lastmile_qr_scan"}, "bike_id": "6df981d826e944f1128c8541364a41e7", "is_reserved": 0, "lon": -76.94545833333333, "name": "6df981d826e944f1128c8541364a41e7", "is_disabled": 0, "lat": 38.864545}, {"type": "electric_bike", "fusion_lon": 0.0, "fusion_lat": 0.0, "rental_uris": {"android": "https://dc.lft.to/lastmile_qr_scan", "ios": "https://dc.lft.to/lastmile_qr_scan"}, "bike_id": "62b463e87811f5dc7bdda9a6f50bbeeb", "is_reserved": 0, "lon": -76.93700266666667, "name": "62b463e87811f5dc7bdda9a6f50bbeeb", "is_disabled": 0, "lat": 38.871482666666665}, {"type": "electric_scooter", "fusion_lon": 0.0, "fusion_lat": 0.0, "rental_uris": {"android": "https://dc.lft.to/lastmile_qr_scan", "ios": "https://dc.lft.to/lastmile_qr_scan"}, "bike_id": "696a72c624db6a374eafd8d1be1be047", "is_reserved": 0, "lon": -77.03964733333333, "name": "696a72c624db6a374eafd8d1be1be047", "is_disabled": 0, "lat": 38.8984345}, {"type": "electric_scooter", "fusion_lon": 0.0, "fusion_lat": 0.0, "rental_uris": {"android": "https://dc.lft.to/lastmile_qr_scan", "ios": "https://dc.lft.to/lastmile_qr_scan"}, "bike_id": "b72d4e89d31de4ff4ea6feded2619ad3", "is_reserved": 0, "lon": -77.03167916666666, "name": "b72d4e89d31de4ff4ea6feded2619ad3", "is_disabled": 0, "lat": 38.916275}, {"type": "electric_scooter", "fusion_lon": 0.0, "fusion_lat": 0.0, "rental_uris": {"android": "https://dc.lft.to/lastmile_qr_scan", "ios": "https://dc.lft.to/lastmile_qr_scan"}, "bike_id": "320bde9f4a213c86e5adb4ec2024890d", "is_reserved": 0, "lon": -77.02310966666667, "name": "320bde9f4a213c86e5adb4ec2024890d", "is_disabled": 0, "lat": 38.92075066666666}, {"type": "electric_scooter", "fusion_lon": 0.0, "fusion_lat": 0.0, "rental_uris": {"android": "https://dc.lft.to/lastmile_qr_scan", "ios": "https://dc.lft.to/lastmile_qr_scan"}, "bike_id": "5ff7da5be27449c0017bb23b5c007359", "is_reserved": 0, "lon": -77.0489045, "name": "5ff7da5be27449c0017bb23b5c007359", "is_disabled": 0, "lat": 38.897350833333334}, {"type": "electric_scooter", "fusion_lon": 0.0, "fusion_lat": 0.0, "rental_uris": {"android": "https://dc.lft.to/lastmile_qr_scan", "ios": "https://dc.lft.to/lastmile_qr_scan"}, "bike_id": "bc08de2c78bd0b5fcb506666bc3d981e", "is_reserved": 0, "lon": -77.022024, "name": "bc08de2c78bd0b5fcb506666bc3d981e", "is_disabled": 0, "lat": 38.911289833333335}, {"type": "electric_scooter", "fusion_lon": 0.0, "fusion_lat": 0.0, "rental_uris": {"android": "https://dc.lft.to/lastmile_qr_scan", "ios": "https://dc.lft.to/lastmile_qr_scan"}, "bike_id": "b6a26ab29e4c7f3a668acba2744de78c", "is_reserved": 0, "lon": -77.0435275, "name": "b6a26ab29e4c7f3a668acba2744de78c", "is_disabled": 0, "lat": 38.906192}, {"type": "electric_scooter", "fusion_lon": 0.0, "fusion_lat": 0.0, "rental_uris": {"android": "https://dc.lft.to/lastmile_qr_scan", "ios": "https://dc.lft.to/lastmile_qr_scan"}, "bike_id": "05f475dc5397621bf9d97dc95fbf0bf0", "is_reserved": 0, "lon": -77.044987, "name": "05f475dc5397621bf9d97dc95fbf0bf0", "is_disabled": 0, "lat": 38.911061333333336}, {"type": "electric_scooter", "fusion_lon": 0.0, "fusion_lat": 0.0, "rental_uris": {"android": "https://dc.lft.to/lastmile_qr_scan", "ios": "https://dc.lft.to/lastmile_qr_scan"}, "bike_id": "6e7c3cf5f21917d364ce142f1e4f6f1b", "is_reserved": 0, "lon": -77.03291066666667, "name": "6e7c3cf5f21917d364ce142f1e4f6f1b", "is_disabled": 0, "lat": 38.92272}, {"type": "electric_bike", "fusion_lon": 0.0, "fusion_lat": 0.0, "rental_uris": {"android": "https://dc.lft.to/lastmile_qr_scan", "ios": "https://dc.lft.to/lastmile_qr_scan"}, "bike_id": "617b0d743bd3822001b90f676f521481", "is_reserved": 0, "lon": -77.11306283333333, "name": "617b0d743bd3822001b90f676f521481", "is_disabled": 0, "lat": 38.8914775}, {"type": "electric_scooter", "fusion_lon": 0.0, "fusion_lat": 0.0, "rental_uris": {"android": "https://dc.lft.to/lastmile_qr_scan", "ios": "https://dc.lft.to/lastmile_qr_scan"}, "bike_id": "1f698b8a088cb8f90cee1c9c031b566e", "is_reserved": 0, "lon": -77.00535683333334, "name": "1f698b8a088cb8f90cee1c9c031b566e", "is_disabled": 0, "lat": 38.900361333333336}, {"type": "electric_scooter", "fusion_lon": 0.0, "fusion_lat": 0.0, "rental_uris": {"android": "https://dc.lft.to/lastmile_qr_scan", "ios": "https://dc.lft.to/lastmile_qr_scan"}, "bike_id": "0972177a745c62b3349e9c7aff073adc", "is_reserved": 0, "lon": -77.024619, "name": "0972177a745c62b3349e9c7aff073adc", "is_disabled": 0, "lat": 38.90433183333333}, {"type": "electric_scooter", "fusion_lon": 0.0, "fusion_lat": 0.0, "rental_uris": {"android": "https://dc.lft.to/lastmile_qr_scan", "ios": "https://dc.lft.to/lastmile_qr_scan"}, "bike_id": "d0b067b8292a1095c9bb143676f9d24e", "is_reserved": 0, "lon": -77.01234116666667, "name": "d0b067b8292a1095c9bb143676f9d24e", "is_disabled": 0, "lat": 38.915527166666664}, {"type": "electric_scooter", "fusion_lon": 0.0, "fusion_lat": 0.0, "rental_uris": {"android": "https://dc.lft.to/lastmile_qr_scan", "ios": "https://dc.lft.to/lastmile_qr_scan"}, "bike_id": "99ae32a512787eed16b702b79a4479a6", "is_reserved": 0, "lon": -77.028494, "name": "99ae32a512787eed16b702b79a4479a6", "is_disabled": 0, "lat": 38.9086755}, {"type": "electric_scooter", "fusion_lon": 0.0, "fusion_lat": 0.0, "rental_uris": {"android": "https://dc.lft.to/lastmile_qr_scan", "ios": "https://dc.lft.to/lastmile_qr_scan"}, "bike_id": "8cc68beac662b94863bec8f08d7d1318", "is_reserved": 0, "lon": -77.024868, "name": "8cc68beac662b94863bec8f08d7d1318", "is_disabled": 0, "lat": 38.9418465}, {"type": "electric_scooter", "fusion_lon": 0.0, "fusion_lat": 0.0, "rental_uris": {"android": "https://dc.lft.to/lastmile_qr_scan", "ios": "https://dc.lft.to/lastmile_qr_scan"}, "bike_id": "f0f8637c16f1a3abcd1cb6d28ca9602f", "is_reserved": 0, "lon": -77.02131333333334, "name": "f0f8637c16f1a3abcd1cb6d28ca9602f", "is_disabled": 0, "lat": 38.892157833333336}, {"type": "electric_bike", "fusion_lon": 0.0, "fusion_lat": 0.0, "rental_uris": {"android": "https://dc.lft.to/lastmile_qr_scan", "ios": "https://dc.lft.to/lastmile_qr_scan"}, "bike_id": "ad863685c64ed0f2f487c0cfa27ff14d", "is_reserved": 0, "lon": -77.10777583333333, "name": "ad863685c64ed0f2f487c0cfa27ff14d", "is_disabled": 0, "lat": 38.892245833333334}, {"type": "electric_scooter", "fusion_lon": 0.0, "fusion_lat": 0.0, "rental_uris": {"android": "https://dc.lft.to/lastmile_qr_scan", "ios": "https://dc.lft.to/lastmile_qr_scan"}, "bike_id": "333a6f1bc76cc5898398a491b2348141", "is_reserved": 0, "lon": -77.01538716666667, "name": "333a6f1bc76cc5898398a491b2348141", "is_disabled": 0, "lat": 38.88460366666666}, {"type": "electric_scooter", "fusion_lon": 0.0, "fusion_lat": 0.0, "rental_uris": {"android": "https://dc.lft.to/lastmile_qr_scan", "ios": "https://dc.lft.to/lastmile_qr_scan"}, "bike_id": "9b9ea8c2dc69de5520e951831baf456b", "is_reserved": 0, "lon": -77.01535166666666, "name": "9b9ea8c2dc69de5520e951831baf456b", "is_disabled": 0, "lat": 38.88741783333333}, {"type": "electric_scooter", "fusion_lon": 0.0, "fusion_lat": 0.0, "rental_uris": {"android": "https://dc.lft.to/lastmile_qr_scan", "ios": "https://dc.lft.to/lastmile_qr_scan"}, "bike_id": "bf73edccab8e7910393b6b0dee40cb80", "is_reserved": 0, "lon": -77.032149, "name": "bf73edccab8e7910393b6b0dee40cb80", "is_disabled": 0, "lat": 38.93621816666667}, {"type": "electric_scooter", "fusion_lon": 0.0, "fusion_lat": 0.0, "rental_uris": {"android": "https://dc.lft.to/lastmile_qr_scan", "ios": "https://dc.lft.to/lastmile_qr_scan"}, "bike_id": "9572fe0baaad5d0538a733e38780664a", "is_reserved": 0, "lon": -77.04862383333334, "name": "9572fe0baaad5d0538a733e38780664a", "is_disabled": 0, "lat": 38.90252916666667}, {"type": "electric_scooter", "fusion_lon": 0.0, "fusion_lat": 0.0, "rental_uris": {"android": "https://dc.lft.to/lastmile_qr_scan", "ios": "https://dc.lft.to/lastmile_qr_scan"}, "bike_id": "a9c5338da6e6f58ff77ae6eef69c07e4", "is_reserved": 0, "lon": -77.040868, "name": "a9c5338da6e6f58ff77ae6eef69c07e4", "is_disabled": 0, "lat": 38.910398666666666}, {"type": "electric_bike", "fusion_lon": 0.0, "fusion_lat": 0.0, "rental_uris": {"android": "https://dc.lft.to/lastmile_qr_scan", "ios": "https://dc.lft.to/lastmile_qr_scan"}, "bike_id": "1330b5dfe2a17a2fbd976f5847a32adf", "is_reserved": 0, "lon": -77.13103233333334, "name": "1330b5dfe2a17a2fbd976f5847a32adf", "is_disabled": 0, "lat": 39.02431283333333}, {"type": "electric_scooter", "fusion_lon": 0.0, "fusion_lat": 0.0, "rental_uris": {"android": "https://dc.lft.to/lastmile_qr_scan", "ios": "https://dc.lft.to/lastmile_qr_scan"}, "bike_id": "f2745e781b6c92906b79cc3f7a4e41be", "is_reserved": 0, "lon": -77.01224916666666, "name": "f2745e781b6c92906b79cc3f7a4e41be", "is_disabled": 0, "lat": 38.8858525}, {"type": "electric_scooter", "fusion_lon": 0.0, "fusion_lat": 0.0, "rental_uris": {"android": "https://dc.lft.to/lastmile_qr_scan", "ios": "https://dc.lft.to/lastmile_qr_scan"}, "bike_id": "2b9e520eac13b0643dbbbdbed57a45fd", "is_reserved": 0, "lon": -77.0384145, "name": "2b9e520eac13b0643dbbbdbed57a45fd", "is_disabled": 0, "lat": 38.9182665}, {"type": "electric_scooter", "fusion_lon": 0.0, "fusion_lat": 0.0, "rental_uris": {"android": "https://dc.lft.to/lastmile_qr_scan", "ios": "https://dc.lft.to/lastmile_qr_scan"}, "bike_id": "9244b4502126b3470a35bc2a977747ee", "is_reserved": 0, "lon": -77.0225755, "name": "9244b4502126b3470a35bc2a977747ee", "is_disabled": 0, "lat": 38.928229}, {"type": "electric_scooter", "fusion_lon": 0.0, "fusion_lat": 0.0, "rental_uris": {"android": "https://dc.lft.to/lastmile_qr_scan", "ios": "https://dc.lft.to/lastmile_qr_scan"}, "bike_id": "a87d652657371073fd03d14d11771159", "is_reserved": 0, "lon": -77.041753, "name": "a87d652657371073fd03d14d11771159", "is_disabled": 0, "lat": 38.91729616666667}, {"type": "electric_bike", "fusion_lon": 0.0, "fusion_lat": 0.0, "rental_uris": {"android": "https://dc.lft.to/lastmile_qr_scan", "ios": "https://dc.lft.to/lastmile_qr_scan"}, "bike_id": "ae983741b47198eef86a5b333d7a279b", "is_reserved": 0, "lon": -77.09484416666666, "name": "ae983741b47198eef86a5b333d7a279b", "is_disabled": 0, "lat": 39.030486833333335}, {"type": "electric_scooter", "fusion_lon": 0.0, "fusion_lat": 0.0, "rental_uris": {"android": "https://dc.lft.to/lastmile_qr_scan", "ios": "https://dc.lft.to/lastmile_qr_scan"}, "bike_id": "2b69f2cea4d1d82d3092e6a18d835539", "is_reserved": 0, "lon": -76.9671745, "name": "2b69f2cea4d1d82d3092e6a18d835539", "is_disabled": 0, "lat": 38.930864666666665}, {"type": "electric_scooter", "fusion_lon": 0.0, "fusion_lat": 0.0, "rental_uris": {"android": "https://dc.lft.to/lastmile_qr_scan", "ios": "https://dc.lft.to/lastmile_qr_scan"}, "bike_id": "c6ec0221959ec22e71b0a0b3775d0261", "is_reserved": 0, "lon": -77.06914516666667, "name": "c6ec0221959ec22e71b0a0b3775d0261", "is_disabled": 0, "lat": 38.907695333333336}, {"type": "electric_bike", "fusion_lon": 0.0, "fusion_lat": 0.0, "rental_uris": {"android": "https://dc.lft.to/lastmile_qr_scan", "ios": "https://dc.lft.to/lastmile_qr_scan"}, "bike_id": "b905b0e9b24ece9ac24a3a529532026f", "is_reserved": 0, "lon": -76.93839733333333, "name": "b905b0e9b24ece9ac24a3a529532026f", "is_disabled": 0, "lat": 38.96499166666667}, {"type": "electric_scooter", "fusion_lon": 0.0, "fusion_lat": 0.0, "rental_uris": {"android": "https://dc.lft.to/lastmile_qr_scan", "ios": "https://dc.lft.to/lastmile_qr_scan"}, "bike_id": "11ad8354eaf5d805be88dbd47b6d2570", "is_reserved": 0, "lon": -77.00605216666666, "name": "11ad8354eaf5d805be88dbd47b6d2570", "is_disabled": 0, "lat": 38.87201316666667}, {"type": "electric_scooter", "fusion_lon": 0.0, "fusion_lat": 0.0, "rental_uris": {"android": "https://dc.lft.to/lastmile_qr_scan", "ios": "https://dc.lft.to/lastmile_qr_scan"}, "bike_id": "861908686ac5ff82e068cfd7abbd9549", "is_reserved": 0, "lon": -77.01580383333334, "name": "861908686ac5ff82e068cfd7abbd9549", "is_disabled": 0, "lat": 38.92846933333333}, {"type": "electric_scooter", "fusion_lon": 0.0, "fusion_lat": 0.0, "rental_uris": {"android": "https://dc.lft.to/lastmile_qr_scan", "ios": "https://dc.lft.to/lastmile_qr_scan"}, "bike_id": "7c9b7263457c0cf547069f9980530d2c", "is_reserved": 0, "lon": -77.04189866666667, "name": "7c9b7263457c0cf547069f9980530d2c", "is_disabled": 0, "lat": 38.90562}, {"type": "electric_scooter", "fusion_lon": 0.0, "fusion_lat": 0.0, "rental_uris": {"android": "https://dc.lft.to/lastmile_qr_scan", "ios": "https://dc.lft.to/lastmile_qr_scan"}, "bike_id": "16633aa2f4585859d1370517fa0891c5", "is_reserved": 0, "lon": -77.03629783333334, "name": "16633aa2f4585859d1370517fa0891c5", "is_disabled": 0, "lat": 38.928473833333335}, {"type": "electric_scooter", "fusion_lon": 0.0, "fusion_lat": 0.0, "rental_uris": {"android": "https://dc.lft.to/lastmile_qr_scan", "ios": "https://dc.lft.to/lastmile_qr_scan"}, "bike_id": "9f1275659f6e5c2d47f9a84184d8d617", "is_reserved": 0, "lon": -77.03864766666666, "name": "9f1275659f6e5c2d47f9a84184d8d617", "is_disabled": 0, "lat": 38.915616666666665}, {"type": "electric_bike", "fusion_lon": 0.0, "fusion_lat": 0.0, "rental_uris": {"android": "https://dc.lft.to/lastmile_qr_scan", "ios": "https://dc.lft.to/lastmile_qr_scan"}, "bike_id": "b924b307712295c79f93657ffac5d8c3", "is_reserved": 0, "lon": -77.1330255, "name": "b924b307712295c79f93657ffac5d8c3", "is_disabled": 0, "lat": 38.887184}, {"type": "electric_bike", "fusion_lon": 0.0, "fusion_lat": 0.0, "rental_uris": {"android": "https://dc.lft.to/lastmile_qr_scan", "ios": "https://dc.lft.to/lastmile_qr_scan"}, "bike_id": "b5f961e21da5bf1bc3e6dee7ba16c694", "is_reserved": 0, "lon": -77.1178555, "name": "b5f961e21da5bf1bc3e6dee7ba16c694", "is_disabled": 0, "lat": 38.885488}, {"type": "electric_scooter", "fusion_lon": 0.0, "fusion_lat": 0.0, "rental_uris": {"android": "https://dc.lft.to/lastmile_qr_scan", "ios": "https://dc.lft.to/lastmile_qr_scan"}, "bike_id": "916dd40e416a79b5b8dc73515d635cef", "is_reserved": 0, "lon": -76.93220166666667, "name": "916dd40e416a79b5b8dc73515d635cef", "is_disabled": 0, "lat": 38.880537}, {"type": "electric_scooter", "fusion_lon": 0.0, "fusion_lat": 0.0, "rental_uris": {"android": "https://dc.lft.to/lastmile_qr_scan", "ios": "https://dc.lft.to/lastmile_qr_scan"}, "bike_id": "eff32f6f57c1e8a37db1fe6e0c23e6e5", "is_reserved": 0, "lon": -77.03329183333334, "name": "eff32f6f57c1e8a37db1fe6e0c23e6e5", "is_disabled": 0, "lat": 38.89830716666667}, {"type": "electric_scooter", "fusion_lon": 0.0, "fusion_lat": 0.0, "rental_uris": {"android": "https://dc.lft.to/lastmile_qr_scan", "ios": "https://dc.lft.to/lastmile_qr_scan"}, "bike_id": "7df60e3a13fed2b0d9245670792da0a0", "is_reserved": 0, "lon": -77.02713566666667, "name": "7df60e3a13fed2b0d9245670792da0a0", "is_disabled": 0, "lat": 38.9181905}, {"type": "electric_scooter", "fusion_lon": 0.0, "fusion_lat": 0.0, "rental_uris": {"android": "https://dc.lft.to/lastmile_qr_scan", "ios": "https://dc.lft.to/lastmile_qr_scan"}, "bike_id": "e9959adc1f2f522009c52c243889c370", "is_reserved": 0, "lon": -76.96507366666667, "name": "e9959adc1f2f522009c52c243889c370", "is_disabled": 0, "lat": 38.934304833333336}, {"type": "electric_bike", "fusion_lon": 0.0, "fusion_lat": 0.0, "rental_uris": {"android": "https://dc.lft.to/lastmile_qr_scan", "ios": "https://dc.lft.to/lastmile_qr_scan"}, "bike_id": "1ade0d7d4b7f72f5b2392c7e2f93d031", "is_reserved": 0, "lon": -77.02908616666667, "name": "1ade0d7d4b7f72f5b2392c7e2f93d031", "is_disabled": 0, "lat": 38.998408166666664}, {"type": "electric_scooter", "fusion_lon": 0.0, "fusion_lat": 0.0, "rental_uris": {"android": "https://dc.lft.to/lastmile_qr_scan", "ios": "https://dc.lft.to/lastmile_qr_scan"}, "bike_id": "5c303f52fe98f5ca98cbf2e6c15b3224", "is_reserved": 0, "lon": -77.053138, "name": "5c303f52fe98f5ca98cbf2e6c15b3224", "is_disabled": 0, "lat": 38.902665999999996}, {"type": "electric_scooter", "fusion_lon": 0.0, "fusion_lat": 0.0, "rental_uris": {"android": "https://dc.lft.to/lastmile_qr_scan", "ios": "https://dc.lft.to/lastmile_qr_scan"}, "bike_id": "b823881421f2c6262f2fd76f283652fa", "is_reserved": 0, "lon": -77.04636066666667, "name": "b823881421f2c6262f2fd76f283652fa", "is_disabled": 0, "lat": 38.90969966666667}, {"type": "electric_bike", "fusion_lon": 0.0, "fusion_lat": 0.0, "rental_uris": {"android": "https://dc.lft.to/lastmile_qr_scan", "ios": "https://dc.lft.to/lastmile_qr_scan"}, "bike_id": "0b1ac838f46e7ac42aa5a744435002ee", "is_reserved": 0, "lon": -77.03230033333334, "name": "0b1ac838f46e7ac42aa5a744435002ee", "is_disabled": 0, "lat": 38.961433166666666}, {"type": "electric_scooter", "fusion_lon": 0.0, "fusion_lat": 0.0, "rental_uris": {"android": "https://dc.lft.to/lastmile_qr_scan", "ios": "https://dc.lft.to/lastmile_qr_scan"}, "bike_id": "7d6985e63c2d0f50e4828e0e0b4b1d26", "is_reserved": 0, "lon": -77.04801416666666, "name": "7d6985e63c2d0f50e4828e0e0b4b1d26", "is_disabled": 0, "lat": 38.89223416666667}, {"type": "electric_scooter", "fusion_lon": 0.0, "fusion_lat": 0.0, "rental_uris": {"android": "https://dc.lft.to/lastmile_qr_scan", "ios": "https://dc.lft.to/lastmile_qr_scan"}, "bike_id": "291231d0fcdb6bc852ff421c0bc433ba", "is_reserved": 0, "lon": -77.0238995, "name": "291231d0fcdb6bc852ff421c0bc433ba", "is_disabled": 0, "lat": 38.91984166666667}, {"type": "electric_scooter", "fusion_lon": 0.0, "fusion_lat": 0.0, "rental_uris": {"android": "https://dc.lft.to/lastmile_qr_scan", "ios": "https://dc.lft.to/lastmile_qr_scan"}, "bike_id": "056018eb744c1ccfe53e558e0dbcb6ea", "is_reserved": 0, "lon": -77.000675, "name": "056018eb744c1ccfe53e558e0dbcb6ea", "is_disabled": 0, "lat": 38.8858975}, {"type": "electric_scooter", "fusion_lon": 0.0, "fusion_lat": 0.0, "rental_uris": {"android": "https://dc.lft.to/lastmile_qr_scan", "ios": "https://dc.lft.to/lastmile_qr_scan"}, "bike_id": "958d3a5e1c8bbf4e7a33a43e5df124e3", "is_reserved": 0, "lon": -76.94948783333334, "name": "958d3a5e1c8bbf4e7a33a43e5df124e3", "is_disabled": 0, "lat": 38.89487616666667}, {"type": "electric_scooter", "fusion_lon": 0.0, "fusion_lat": 0.0, "rental_uris": {"android": "https://dc.lft.to/lastmile_qr_scan", "ios": "https://dc.lft.to/lastmile_qr_scan"}, "bike_id": "309cca7baafd5b79ff745a0dc1c89d3e", "is_reserved": 0, "lon": -77.029135, "name": "309cca7baafd5b79ff745a0dc1c89d3e", "is_disabled": 0, "lat": 38.922458166666665}, {"type": "electric_scooter", "fusion_lon": 0.0, "fusion_lat": 0.0, "rental_uris": {"android": "https://dc.lft.to/lastmile_qr_scan", "ios": "https://dc.lft.to/lastmile_qr_scan"}, "bike_id": "ecf97f30847e33a66724cf8a1b14a545", "is_reserved": 0, "lon": -76.97242016666667, "name": "ecf97f30847e33a66724cf8a1b14a545", "is_disabled": 0, "lat": 38.903432}, {"type": "electric_scooter", "fusion_lon": 0.0, "fusion_lat": 0.0, "rental_uris": {"android": "https://dc.lft.to/lastmile_qr_scan", "ios": "https://dc.lft.to/lastmile_qr_scan"}, "bike_id": "a239f890c7d72463256cb8a4c5c611f4", "is_reserved": 0, "lon": -77.05920516666667, "name": "a239f890c7d72463256cb8a4c5c611f4", "is_disabled": 0, "lat": 38.904536666666665}, {"type": "electric_scooter", "fusion_lon": 0.0, "fusion_lat": 0.0, "rental_uris": {"android": "https://dc.lft.to/lastmile_qr_scan", "ios": "https://dc.lft.to/lastmile_qr_scan"}, "bike_id": "2c09e3ce875e046ae5c3101dc075ef6d", "is_reserved": 0, "lon": -76.99386316666667, "name": "2c09e3ce875e046ae5c3101dc075ef6d", "is_disabled": 0, "lat": 38.91011666666667}, {"type": "electric_scooter", "fusion_lon": 0.0, "fusion_lat": 0.0, "rental_uris": {"android": "https://dc.lft.to/lastmile_qr_scan", "ios": "https://dc.lft.to/lastmile_qr_scan"}, "bike_id": "b46940c1b4c135859feb675aa9050445", "is_reserved": 0, "lon": -77.034979, "name": "b46940c1b4c135859feb675aa9050445", "is_disabled": 0, "lat": 38.91253966666667}, {"type": "electric_scooter", "fusion_lon": 0.0, "fusion_lat": 0.0, "rental_uris": {"android": "https://dc.lft.to/lastmile_qr_scan", "ios": "https://dc.lft.to/lastmile_qr_scan"}, "bike_id": "94c1d040620cd6551f67d30610b7c472", "is_reserved": 0, "lon": -77.02982833333333, "name": "94c1d040620cd6551f67d30610b7c472", "is_disabled": 0, "lat": 38.9167675}, {"type": "electric_scooter", "fusion_lon": 0.0, "fusion_lat": 0.0, "rental_uris": {"android": "https://dc.lft.to/lastmile_qr_scan", "ios": "https://dc.lft.to/lastmile_qr_scan"}, "bike_id": "2dc9538dc978f4f7ba78508a664be65b", "is_reserved": 0, "lon": -77.04373983333333, "name": "2dc9538dc978f4f7ba78508a664be65b", "is_disabled": 0, "lat": 38.89217433333334}, {"type": "electric_scooter", "fusion_lon": 0.0, "fusion_lat": 0.0, "rental_uris": {"android": "https://dc.lft.to/lastmile_qr_scan", "ios": "https://dc.lft.to/lastmile_qr_scan"}, "bike_id": "8dd66294e8e860ac4ef090120b2e9ef0", "is_reserved": 0, "lon": -76.98661799999999, "name": "8dd66294e8e860ac4ef090120b2e9ef0", "is_disabled": 0, "lat": 38.8662145}, {"type": "electric_scooter", "fusion_lon": 0.0, "fusion_lat": 0.0, "rental_uris": {"android": "https://dc.lft.to/lastmile_qr_scan", "ios": "https://dc.lft.to/lastmile_qr_scan"}, "bike_id": "6798ea0aa07c6296eb2628a6e470f240", "is_reserved": 0, "lon": -76.9414945, "name": "6798ea0aa07c6296eb2628a6e470f240", "is_disabled": 0, "lat": 38.901422333333336}, {"type": "electric_scooter", "fusion_lon": 0.0, "fusion_lat": 0.0, "rental_uris": {"android": "https://dc.lft.to/lastmile_qr_scan", "ios": "https://dc.lft.to/lastmile_qr_scan"}, "bike_id": "a2c8fdcf105031e82ade2e4678ef2c03", "is_reserved": 0, "lon": -77.0293405, "name": "a2c8fdcf105031e82ade2e4678ef2c03", "is_disabled": 0, "lat": 38.895601166666665}, {"type": "electric_scooter", "fusion_lon": 0.0, "fusion_lat": 0.0, "rental_uris": {"android": "https://dc.lft.to/lastmile_qr_scan", "ios": "https://dc.lft.to/lastmile_qr_scan"}, "bike_id": "dcfa23425b8b05099f43475b28ebaa8f", "is_reserved": 0, "lon": -77.048487, "name": "dcfa23425b8b05099f43475b28ebaa8f", "is_disabled": 0, "lat": 38.9003835}, {"type": "electric_scooter", "fusion_lon": 0.0, "fusion_lat": 0.0, "rental_uris": {"android": "https://dc.lft.to/lastmile_qr_scan", "ios": "https://dc.lft.to/lastmile_qr_scan"}, "bike_id": "4fa21332b53ff3db40a3569b21718e70", "is_reserved": 0, "lon": -77.03687516666666, "name": "4fa21332b53ff3db40a3569b21718e70", "is_disabled": 0, "lat": 38.927894}, {"type": "electric_scooter", "fusion_lon": 0.0, "fusion_lat": 0.0, "rental_uris": {"android": "https://dc.lft.to/lastmile_qr_scan", "ios": "https://dc.lft.to/lastmile_qr_scan"}, "bike_id": "63c2239548974b376405b4468870be60", "is_reserved": 0, "lon": -77.0390055, "name": "63c2239548974b376405b4468870be60", "is_disabled": 0, "lat": 38.92323016666667}, {"type": "electric_scooter", "fusion_lon": 0.0, "fusion_lat": 0.0, "rental_uris": {"android": "https://dc.lft.to/lastmile_qr_scan", "ios": "https://dc.lft.to/lastmile_qr_scan"}, "bike_id": "4c15e870f08cfcafd567db378f731fe0", "is_reserved": 0, "lon": -77.03203933333333, "name": "4c15e870f08cfcafd567db378f731fe0", "is_disabled": 0, "lat": 38.9076725}, {"type": "electric_scooter", "fusion_lon": 0.0, "fusion_lat": 0.0, "rental_uris": {"android": "https://dc.lft.to/lastmile_qr_scan", "ios": "https://dc.lft.to/lastmile_qr_scan"}, "bike_id": "6d2af624c4492c78581c734355af5e91", "is_reserved": 0, "lon": -76.986525, "name": "6d2af624c4492c78581c734355af5e91", "is_disabled": 0, "lat": 38.85809166666667}, {"type": "electric_scooter", "fusion_lon": 0.0, "fusion_lat": 0.0, "rental_uris": {"android": "https://dc.lft.to/lastmile_qr_scan", "ios": "https://dc.lft.to/lastmile_qr_scan"}, "bike_id": "0939a9ff75c38c7573d27b8ab0c1ea98", "is_reserved": 0, "lon": -77.02284866666666, "name": "0939a9ff75c38c7573d27b8ab0c1ea98", "is_disabled": 0, "lat": 38.90750416666667}, {"type": "electric_scooter", "fusion_lon": 0.0, "fusion_lat": 0.0, "rental_uris": {"android": "https://dc.lft.to/lastmile_qr_scan", "ios": "https://dc.lft.to/lastmile_qr_scan"}, "bike_id": "34b35418bbe07e188856f82a5b0643ed", "is_reserved": 0, "lon": -77.0322665, "name": "34b35418bbe07e188856f82a5b0643ed", "is_disabled": 0, "lat": 38.93051633333333}, {"type": "electric_scooter", "fusion_lon": 0.0, "fusion_lat": 0.0, "rental_uris": {"android": "https://dc.lft.to/lastmile_qr_scan", "ios": "https://dc.lft.to/lastmile_qr_scan"}, "bike_id": "c120650279353a2c2ebbd67951959663", "is_reserved": 0, "lon": -76.93748933333333, "name": "c120650279353a2c2ebbd67951959663", "is_disabled": 0, "lat": 38.89056266666667}, {"type": "electric_scooter", "fusion_lon": 0.0, "fusion_lat": 0.0, "rental_uris": {"android": "https://dc.lft.to/lastmile_qr_scan", "ios": "https://dc.lft.to/lastmile_qr_scan"}, "bike_id": "72b9421e28a29322515d9b53dfb0036e", "is_reserved": 0, "lon": -77.08593816666666, "name": "72b9421e28a29322515d9b53dfb0036e", "is_disabled": 0, "lat": 38.908707166666666}, {"type": "electric_scooter", "fusion_lon": 0.0, "fusion_lat": 0.0, "rental_uris": {"android": "https://dc.lft.to/lastmile_qr_scan", "ios": "https://dc.lft.to/lastmile_qr_scan"}, "bike_id": "8761d3fc7a94a6906f9a7a5e13e9f951", "is_reserved": 0, "lon": -77.03373066666667, "name": "8761d3fc7a94a6906f9a7a5e13e9f951", "is_disabled": 0, "lat": 38.920513}, {"type": "electric_scooter", "fusion_lon": 0.0, "fusion_lat": 0.0, "rental_uris": {"android": "https://dc.lft.to/lastmile_qr_scan", "ios": "https://dc.lft.to/lastmile_qr_scan"}, "bike_id": "aa4ea8459773847ce857dedb27a056bd", "is_reserved": 0, "lon": -77.031011, "name": "aa4ea8459773847ce857dedb27a056bd", "is_disabled": 0, "lat": 38.916932833333334}, {"type": "electric_scooter", "fusion_lon": 0.0, "fusion_lat": 0.0, "rental_uris": {"android": "https://dc.lft.to/lastmile_qr_scan", "ios": "https://dc.lft.to/lastmile_qr_scan"}, "bike_id": "de05e278413d0ca00a4d1c14afea1c03", "is_reserved": 0, "lon": -77.02419383333333, "name": "de05e278413d0ca00a4d1c14afea1c03", "is_disabled": 0, "lat": 38.919178}, {"type": "electric_scooter", "fusion_lon": 0.0, "fusion_lat": 0.0, "rental_uris": {"android": "https://dc.lft.to/lastmile_qr_scan", "ios": "https://dc.lft.to/lastmile_qr_scan"}, "bike_id": "146a2a8ec540b754cd816db9f40203c7", "is_reserved": 0, "lon": -77.0479775, "name": "146a2a8ec540b754cd816db9f40203c7", "is_disabled": 0, "lat": 38.903704166666664}, {"type": "electric_scooter", "fusion_lon": 0.0, "fusion_lat": 0.0, "rental_uris": {"android": "https://dc.lft.to/lastmile_qr_scan", "ios": "https://dc.lft.to/lastmile_qr_scan"}, "bike_id": "d1f8524188219cf4de0da8dd68c2d7bb", "is_reserved": 0, "lon": -77.04182883333333, "name": "d1f8524188219cf4de0da8dd68c2d7bb", "is_disabled": 0, "lat": 38.930606}, {"type": "electric_scooter", "fusion_lon": 0.0, "fusion_lat": 0.0, "rental_uris": {"android": "https://dc.lft.to/lastmile_qr_scan", "ios": "https://dc.lft.to/lastmile_qr_scan"}, "bike_id": "5b9839e54d3b70878c4bb0b01cb4c6f0", "is_reserved": 0, "lon": -76.94631716666666, "name": "5b9839e54d3b70878c4bb0b01cb4c6f0", "is_disabled": 0, "lat": 38.898360833333335}, {"type": "electric_scooter", "fusion_lon": 0.0, "fusion_lat": 0.0, "rental_uris": {"android": "https://dc.lft.to/lastmile_qr_scan", "ios": "https://dc.lft.to/lastmile_qr_scan"}, "bike_id": "c4739435ee7e273a036e522d2054f81b", "is_reserved": 0, "lon": -77.009265, "name": "c4739435ee7e273a036e522d2054f81b", "is_disabled": 0, "lat": 38.874678833333334}, {"type": "electric_scooter", "fusion_lon": 0.0, "fusion_lat": 0.0, "rental_uris": {"android": "https://dc.lft.to/lastmile_qr_scan", "ios": "https://dc.lft.to/lastmile_qr_scan"}, "bike_id": "62df3e42de1f427991d02bfafe49ef65", "is_reserved": 0, "lon": -77.04176066666666, "name": "62df3e42de1f427991d02bfafe49ef65", "is_disabled": 0, "lat": 38.92043683333333}, {"type": "electric_scooter", "fusion_lon": 0.0, "fusion_lat": 0.0, "rental_uris": {"android": "https://dc.lft.to/lastmile_qr_scan", "ios": "https://dc.lft.to/lastmile_qr_scan"}, "bike_id": "ad7683e401e9eadc4ad8b861688d5f6e", "is_reserved": 0, "lon": -77.04784183333334, "name": "ad7683e401e9eadc4ad8b861688d5f6e", "is_disabled": 0, "lat": 38.899522833333336}, {"type": "electric_scooter", "fusion_lon": 0.0, "fusion_lat": 0.0, "rental_uris": {"android": "https://dc.lft.to/lastmile_qr_scan", "ios": "https://dc.lft.to/lastmile_qr_scan"}, "bike_id": "0724cd1cbc61c528895a5028733c1101", "is_reserved": 0, "lon": -76.93343233333333, "name": "0724cd1cbc61c528895a5028733c1101", "is_disabled": 0, "lat": 38.89906883333333}, {"type": "electric_scooter", "fusion_lon": 0.0, "fusion_lat": 0.0, "rental_uris": {"android": "https://dc.lft.to/lastmile_qr_scan", "ios": "https://dc.lft.to/lastmile_qr_scan"}, "bike_id": "6c62d13e4d84b0bdac6891d8c1c6d9c2", "is_reserved": 0, "lon": -77.04354616666667, "name": "6c62d13e4d84b0bdac6891d8c1c6d9c2", "is_disabled": 0, "lat": 38.90487}, {"type": "electric_scooter", "fusion_lon": 0.0, "fusion_lat": 0.0, "rental_uris": {"android": "https://dc.lft.to/lastmile_qr_scan", "ios": "https://dc.lft.to/lastmile_qr_scan"}, "bike_id": "02fab0a89bdc29c45605cf59228256de", "is_reserved": 0, "lon": -77.058774, "name": "02fab0a89bdc29c45605cf59228256de", "is_disabled": 0, "lat": 38.936328333333336}, {"type": "electric_scooter", "fusion_lon": 0.0, "fusion_lat": 0.0, "rental_uris": {"android": "https://dc.lft.to/lastmile_qr_scan", "ios": "https://dc.lft.to/lastmile_qr_scan"}, "bike_id": "f1f154256bfd240a41e9af0634316a97", "is_reserved": 0, "lon": -77.05929233333333, "name": "f1f154256bfd240a41e9af0634316a97", "is_disabled": 0, "lat": 38.943062}, {"type": "electric_scooter", "fusion_lon": 0.0, "fusion_lat": 0.0, "rental_uris": {"android": "https://dc.lft.to/lastmile_qr_scan", "ios": "https://dc.lft.to/lastmile_qr_scan"}, "bike_id": "a38a47294e6059a7d5596a0946585b27", "is_reserved": 0, "lon": -77.03254183333334, "name": "a38a47294e6059a7d5596a0946585b27", "is_disabled": 0, "lat": 38.929184666666664}, {"type": "electric_scooter", "fusion_lon": 0.0, "fusion_lat": 0.0, "rental_uris": {"android": "https://dc.lft.to/lastmile_qr_scan", "ios": "https://dc.lft.to/lastmile_qr_scan"}, "bike_id": "d96ef16dd306a8cc36859a1240365db5", "is_reserved": 0, "lon": -77.02977433333334, "name": "d96ef16dd306a8cc36859a1240365db5", "is_disabled": 0, "lat": 38.9008215}, {"type": "electric_bike", "fusion_lon": 0.0, "fusion_lat": 0.0, "rental_uris": {"android": "https://dc.lft.to/lastmile_qr_scan", "ios": "https://dc.lft.to/lastmile_qr_scan"}, "bike_id": "020a4803cd1df3c7fcc015d8e7765ffe", "is_reserved": 0, "lon": -76.94625566666667, "name": "020a4803cd1df3c7fcc015d8e7765ffe", "is_disabled": 0, "lat": 38.83239616666667}, {"type": "electric_scooter", "fusion_lon": 0.0, "fusion_lat": 0.0, "rental_uris": {"android": "https://dc.lft.to/lastmile_qr_scan", "ios": "https://dc.lft.to/lastmile_qr_scan"}, "bike_id": "58088df3641a01d33677734de6981649", "is_reserved": 0, "lon": -77.0203435, "name": "58088df3641a01d33677734de6981649", "is_disabled": 0, "lat": 38.924505833333335}, {"type": "electric_bike", "fusion_lon": 0.0, "fusion_lat": 0.0, "rental_uris": {"android": "https://dc.lft.to/lastmile_qr_scan", "ios": "https://dc.lft.to/lastmile_qr_scan"}, "bike_id": "b0eed9f1e8faea58831aad6e2dc8edc1", "is_reserved": 0, "lon": -77.01710316666667, "name": "b0eed9f1e8faea58831aad6e2dc8edc1", "is_disabled": 0, "lat": 38.914144666666665}, {"type": "electric_scooter", "fusion_lon": 0.0, "fusion_lat": 0.0, "rental_uris": {"android": "https://dc.lft.to/lastmile_qr_scan", "ios": "https://dc.lft.to/lastmile_qr_scan"}, "bike_id": "5d920c2ed12583a6282544b6a61a60bc", "is_reserved": 0, "lon": -77.0217375, "name": "5d920c2ed12583a6282544b6a61a60bc", "is_disabled": 0, "lat": 38.91566233333333}, {"type": "electric_scooter", "fusion_lon": 0.0, "fusion_lat": 0.0, "rental_uris": {"android": "https://dc.lft.to/lastmile_qr_scan", "ios": "https://dc.lft.to/lastmile_qr_scan"}, "bike_id": "a517c0deacb13934189c3e283754fd16", "is_reserved": 0, "lon": -76.99247116666666, "name": "a517c0deacb13934189c3e283754fd16", "is_disabled": 0, "lat": 38.863845}, {"type": "electric_scooter", "fusion_lon": 0.0, "fusion_lat": 0.0, "rental_uris": {"android": "https://dc.lft.to/lastmile_qr_scan", "ios": "https://dc.lft.to/lastmile_qr_scan"}, "bike_id": "dbf0d668b9520b0742834b81636075f3", "is_reserved": 0, "lon": -77.03556816666666, "name": "dbf0d668b9520b0742834b81636075f3", "is_disabled": 0, "lat": 38.927405}, {"type": "electric_scooter", "fusion_lon": 0.0, "fusion_lat": 0.0, "rental_uris": {"android": "https://dc.lft.to/lastmile_qr_scan", "ios": "https://dc.lft.to/lastmile_qr_scan"}, "bike_id": "3bc4d0c9dbc6efabc33a1b3b20a1111f", "is_reserved": 0, "lon": -77.04507533333333, "name": "3bc4d0c9dbc6efabc33a1b3b20a1111f", "is_disabled": 0, "lat": 38.912763}, {"type": "electric_scooter", "fusion_lon": 0.0, "fusion_lat": 0.0, "rental_uris": {"android": "https://dc.lft.to/lastmile_qr_scan", "ios": "https://dc.lft.to/lastmile_qr_scan"}, "bike_id": "4282e8b7aaeed632f29fa0d52aa62c00", "is_reserved": 0, "lon": -77.04497866666667, "name": "4282e8b7aaeed632f29fa0d52aa62c00", "is_disabled": 0, "lat": 38.91106516666667}, {"type": "electric_scooter", "fusion_lon": 0.0, "fusion_lat": 0.0, "rental_uris": {"android": "https://dc.lft.to/lastmile_qr_scan", "ios": "https://dc.lft.to/lastmile_qr_scan"}, "bike_id": "26e7de6d4bb30b1cabf7000bab3da295", "is_reserved": 0, "lon": -77.04694466666666, "name": "26e7de6d4bb30b1cabf7000bab3da295", "is_disabled": 0, "lat": 38.9158095}, {"type": "electric_scooter", "fusion_lon": 0.0, "fusion_lat": 0.0, "rental_uris": {"android": "https://dc.lft.to/lastmile_qr_scan", "ios": "https://dc.lft.to/lastmile_qr_scan"}, "bike_id": "c5c4b019797aea33f5074455dedc6cf8", "is_reserved": 0, "lon": -76.94704716666666, "name": "c5c4b019797aea33f5074455dedc6cf8", "is_disabled": 0, "lat": 38.890020666666665}, {"type": "electric_scooter", "fusion_lon": 0.0, "fusion_lat": 0.0, "rental_uris": {"android": "https://dc.lft.to/lastmile_qr_scan", "ios": "https://dc.lft.to/lastmile_qr_scan"}, "bike_id": "61a4a07159baf794d0f61e98810f00e0", "is_reserved": 0, "lon": -77.025508, "name": "61a4a07159baf794d0f61e98810f00e0", "is_disabled": 0, "lat": 38.97880583333333}, {"type": "electric_scooter", "fusion_lon": 0.0, "fusion_lat": 0.0, "rental_uris": {"android": "https://dc.lft.to/lastmile_qr_scan", "ios": "https://dc.lft.to/lastmile_qr_scan"}, "bike_id": "857d2ab92b2cf970ae6582c16109d46f", "is_reserved": 0, "lon": -76.96527816666666, "name": "857d2ab92b2cf970ae6582c16109d46f", "is_disabled": 0, "lat": 38.87633016666667}, {"type": "electric_scooter", "fusion_lon": 0.0, "fusion_lat": 0.0, "rental_uris": {"android": "https://dc.lft.to/lastmile_qr_scan", "ios": "https://dc.lft.to/lastmile_qr_scan"}, "bike_id": "41f715afcd7a0e143a3c23752fcb983e", "is_reserved": 0, "lon": -77.04350133333334, "name": "41f715afcd7a0e143a3c23752fcb983e", "is_disabled": 0, "lat": 38.90862883333333}, {"type": "electric_scooter", "fusion_lon": 0.0, "fusion_lat": 0.0, "rental_uris": {"android": "https://dc.lft.to/lastmile_qr_scan", "ios": "https://dc.lft.to/lastmile_qr_scan"}, "bike_id": "939531586017433c315baa7ce4c2a63a", "is_reserved": 0, "lon": -77.01846133333333, "name": "939531586017433c315baa7ce4c2a63a", "is_disabled": 0, "lat": 38.94633833333333}, {"type": "electric_bike", "fusion_lon": 0.0, "fusion_lat": 0.0, "rental_uris": {"android": "https://dc.lft.to/lastmile_qr_scan", "ios": "https://dc.lft.to/lastmile_qr_scan"}, "bike_id": "882dca401464d3a4963ee42611d65922", "is_reserved": 0, "lon": -76.98756383333334, "name": "882dca401464d3a4963ee42611d65922", "is_disabled": 0, "lat": 38.84464416666667}, {"type": "electric_scooter", "fusion_lon": 0.0, "fusion_lat": 0.0, "rental_uris": {"android": "https://dc.lft.to/lastmile_qr_scan", "ios": "https://dc.lft.to/lastmile_qr_scan"}, "bike_id": "62501ae141d224c97b48ed8e2bf4dafc", "is_reserved": 0, "lon": -77.05673116666667, "name": "62501ae141d224c97b48ed8e2bf4dafc", "is_disabled": 0, "lat": 38.93007466666667}, {"type": "electric_scooter", "fusion_lon": 0.0, "fusion_lat": 0.0, "rental_uris": {"android": "https://dc.lft.to/lastmile_qr_scan", "ios": "https://dc.lft.to/lastmile_qr_scan"}, "bike_id": "739199325a2f4f5d7617b4e216bc80b5", "is_reserved": 0, "lon": -77.04604683333334, "name": "739199325a2f4f5d7617b4e216bc80b5", "is_disabled": 0, "lat": 38.915549}, {"type": "electric_scooter", "fusion_lon": 0.0, "fusion_lat": 0.0, "rental_uris": {"android": "https://dc.lft.to/lastmile_qr_scan", "ios": "https://dc.lft.to/lastmile_qr_scan"}, "bike_id": "c5aa501eb95ed4c72b5cbc78128bec82", "is_reserved": 0, "lon": -77.02712633333333, "name": "c5aa501eb95ed4c72b5cbc78128bec82", "is_disabled": 0, "lat": 38.919601666666665}, {"type": "electric_scooter", "fusion_lon": 0.0, "fusion_lat": 0.0, "rental_uris": {"android": "https://dc.lft.to/lastmile_qr_scan", "ios": "https://dc.lft.to/lastmile_qr_scan"}, "bike_id": "47841c1cc0e5ef833be4aa5a2bf50d12", "is_reserved": 0, "lon": -76.98905833333333, "name": "47841c1cc0e5ef833be4aa5a2bf50d12", "is_disabled": 0, "lat": 38.866669}, {"type": "electric_scooter", "fusion_lon": 0.0, "fusion_lat": 0.0, "rental_uris": {"android": "https://dc.lft.to/lastmile_qr_scan", "ios": "https://dc.lft.to/lastmile_qr_scan"}, "bike_id": "f6ddf22e7932c10fa96181263e63f4bf", "is_reserved": 0, "lon": -76.99026766666667, "name": "f6ddf22e7932c10fa96181263e63f4bf", "is_disabled": 0, "lat": 38.865254}, {"type": "electric_scooter", "fusion_lon": 0.0, "fusion_lat": 0.0, "rental_uris": {"android": "https://dc.lft.to/lastmile_qr_scan", "ios": "https://dc.lft.to/lastmile_qr_scan"}, "bike_id": "91e6221c13bd745e9741d0b254b93a42", "is_reserved": 0, "lon": -76.93753816666667, "name": "91e6221c13bd745e9741d0b254b93a42", "is_disabled": 0, "lat": 38.89052066666667}, {"type": "electric_scooter", "fusion_lon": 0.0, "fusion_lat": 0.0, "rental_uris": {"android": "https://dc.lft.to/lastmile_qr_scan", "ios": "https://dc.lft.to/lastmile_qr_scan"}, "bike_id": "781107b5a59b84fa02bb6f6667c62c7c", "is_reserved": 0, "lon": -77.03173266666667, "name": "781107b5a59b84fa02bb6f6667c62c7c", "is_disabled": 0, "lat": 38.915545}, {"type": "electric_scooter", "fusion_lon": 0.0, "fusion_lat": 0.0, "rental_uris": {"android": "https://dc.lft.to/lastmile_qr_scan", "ios": "https://dc.lft.to/lastmile_qr_scan"}, "bike_id": "f47f4a2b29d45d4130805396b103ac04", "is_reserved": 0, "lon": -77.00747466666667, "name": "f47f4a2b29d45d4130805396b103ac04", "is_disabled": 0, "lat": 38.898404166666666}, {"type": "electric_scooter", "fusion_lon": 0.0, "fusion_lat": 0.0, "rental_uris": {"android": "https://dc.lft.to/lastmile_qr_scan", "ios": "https://dc.lft.to/lastmile_qr_scan"}, "bike_id": "18cd0382505b780a5e20cf345a47c89e", "is_reserved": 0, "lon": -77.02889433333333, "name": "18cd0382505b780a5e20cf345a47c89e", "is_disabled": 0, "lat": 38.907252166666666}, {"type": "electric_scooter", "fusion_lon": 0.0, "fusion_lat": 0.0, "rental_uris": {"android": "https://dc.lft.to/lastmile_qr_scan", "ios": "https://dc.lft.to/lastmile_qr_scan"}, "bike_id": "cdc7467eae1ea2cadce525c7326b2536", "is_reserved": 0, "lon": -77.00489266666666, "name": "cdc7467eae1ea2cadce525c7326b2536", "is_disabled": 0, "lat": 38.89688983333333}, {"type": "electric_bike", "fusion_lon": 0.0, "fusion_lat": 0.0, "rental_uris": {"android": "https://dc.lft.to/lastmile_qr_scan", "ios": "https://dc.lft.to/lastmile_qr_scan"}, "bike_id": "d49550d90d7c33ac95914f2b20057724", "is_reserved": 0, "lon": -77.0952175, "name": "d49550d90d7c33ac95914f2b20057724", "is_disabled": 0, "lat": 38.838134833333335}, {"type": "electric_scooter", "fusion_lon": 0.0, "fusion_lat": 0.0, "rental_uris": {"android": "https://dc.lft.to/lastmile_qr_scan", "ios": "https://dc.lft.to/lastmile_qr_scan"}, "bike_id": "9dbe37840bbca644c874d39355b3924b", "is_reserved": 0, "lon": -77.0274405, "name": "9dbe37840bbca644c874d39355b3924b", "is_disabled": 0, "lat": 38.954079666666665}, {"type": "electric_bike", "fusion_lon": 0.0, "fusion_lat": 0.0, "rental_uris": {"android": "https://dc.lft.to/lastmile_qr_scan", "ios": "https://dc.lft.to/lastmile_qr_scan"}, "bike_id": "55cf3b422a5f2dc0045826fd76af7708", "is_reserved": 0, "lon": -76.99628566666667, "name": "55cf3b422a5f2dc0045826fd76af7708", "is_disabled": 0, "lat": 38.885743}, {"type": "electric_scooter", "fusion_lon": 0.0, "fusion_lat": 0.0, "rental_uris": {"android": "https://dc.lft.to/lastmile_qr_scan", "ios": "https://dc.lft.to/lastmile_qr_scan"}, "bike_id": "6511bb6b3473f67f969cd90dc0d42347", "is_reserved": 0, "lon": -76.9977935, "name": "6511bb6b3473f67f969cd90dc0d42347", "is_disabled": 0, "lat": 38.8442705}, {"type": "electric_scooter", "fusion_lon": 0.0, "fusion_lat": 0.0, "rental_uris": {"android": "https://dc.lft.to/lastmile_qr_scan", "ios": "https://dc.lft.to/lastmile_qr_scan"}, "bike_id": "9f58e2631f637b419fd7e26974dfe1fc", "is_reserved": 0, "lon": -77.06827216666667, "name": "9f58e2631f637b419fd7e26974dfe1fc", "is_disabled": 0, "lat": 38.911751}, {"type": "electric_scooter", "fusion_lon": 0.0, "fusion_lat": 0.0, "rental_uris": {"android": "https://dc.lft.to/lastmile_qr_scan", "ios": "https://dc.lft.to/lastmile_qr_scan"}, "bike_id": "a9e7d83bfef2134f86db80497cb0ada6", "is_reserved": 0, "lon": -77.04337933333333, "name": "a9e7d83bfef2134f86db80497cb0ada6", "is_disabled": 0, "lat": 38.90876683333333}, {"type": "electric_scooter", "fusion_lon": 0.0, "fusion_lat": 0.0, "rental_uris": {"android": "https://dc.lft.to/lastmile_qr_scan", "ios": "https://dc.lft.to/lastmile_qr_scan"}, "bike_id": "02e4872b374bb7d7d0b681f9b8e56756", "is_reserved": 0, "lon": -77.0318595, "name": "02e4872b374bb7d7d0b681f9b8e56756", "is_disabled": 0, "lat": 38.921897666666666}, {"type": "electric_scooter", "fusion_lon": 0.0, "fusion_lat": 0.0, "rental_uris": {"android": "https://dc.lft.to/lastmile_qr_scan", "ios": "https://dc.lft.to/lastmile_qr_scan"}, "bike_id": "a1aa427ac6bda91f9472731cb98bc441", "is_reserved": 0, "lon": -77.00491933333333, "name": "a1aa427ac6bda91f9472731cb98bc441", "is_disabled": 0, "lat": 38.879375833333334}, {"type": "electric_scooter", "fusion_lon": 0.0, "fusion_lat": 0.0, "rental_uris": {"android": "https://dc.lft.to/lastmile_qr_scan", "ios": "https://dc.lft.to/lastmile_qr_scan"}, "bike_id": "b31c177d29378e31d22dbafd9a748bdb", "is_reserved": 0, "lon": -76.98307583333333, "name": "b31c177d29378e31d22dbafd9a748bdb", "is_disabled": 0, "lat": 38.8691885}, {"type": "electric_scooter", "fusion_lon": 0.0, "fusion_lat": 0.0, "rental_uris": {"android": "https://dc.lft.to/lastmile_qr_scan", "ios": "https://dc.lft.to/lastmile_qr_scan"}, "bike_id": "3bb082fcfb0b8fb46cfe570bb78c1cff", "is_reserved": 0, "lon": -77.06252316666667, "name": "3bb082fcfb0b8fb46cfe570bb78c1cff", "is_disabled": 0, "lat": 38.905216833333334}, {"type": "electric_scooter", "fusion_lon": 0.0, "fusion_lat": 0.0, "rental_uris": {"android": "https://dc.lft.to/lastmile_qr_scan", "ios": "https://dc.lft.to/lastmile_qr_scan"}, "bike_id": "fc3335f8c1a75550287ffb93e25f8795", "is_reserved": 0, "lon": -77.029818, "name": "fc3335f8c1a75550287ffb93e25f8795", "is_disabled": 0, "lat": 38.916782833333336}, {"type": "electric_bike", "fusion_lon": 0.0, "fusion_lat": 0.0, "rental_uris": {"android": "https://dc.lft.to/lastmile_qr_scan", "ios": "https://dc.lft.to/lastmile_qr_scan"}, "bike_id": "54c99f9b2aed589644d85e4b80f5aef6", "is_reserved": 0, "lon": -77.0564365, "name": "54c99f9b2aed589644d85e4b80f5aef6", "is_disabled": 0, "lat": 38.986592333333334}, {"type": "electric_scooter", "fusion_lon": 0.0, "fusion_lat": 0.0, "rental_uris": {"android": "https://dc.lft.to/lastmile_qr_scan", "ios": "https://dc.lft.to/lastmile_qr_scan"}, "bike_id": "408a0a32233a2ff65cc0eee9fb5b88e5", "is_reserved": 0, "lon": -77.00565516666667, "name": "408a0a32233a2ff65cc0eee9fb5b88e5", "is_disabled": 0, "lat": 38.88501433333333}, {"type": "electric_scooter", "fusion_lon": 0.0, "fusion_lat": 0.0, "rental_uris": {"android": "https://dc.lft.to/lastmile_qr_scan", "ios": "https://dc.lft.to/lastmile_qr_scan"}, "bike_id": "072a2ee369ebe664f284402c91595215", "is_reserved": 0, "lon": -77.0071005, "name": "072a2ee369ebe664f284402c91595215", "is_disabled": 0, "lat": 38.884972}, {"type": "electric_scooter", "fusion_lon": 0.0, "fusion_lat": 0.0, "rental_uris": {"android": "https://dc.lft.to/lastmile_qr_scan", "ios": "https://dc.lft.to/lastmile_qr_scan"}, "bike_id": "82b542acc5feceb2c24d512801548742", "is_reserved": 0, "lon": -77.02492116666667, "name": "82b542acc5feceb2c24d512801548742", "is_disabled": 0, "lat": 38.9211115}, {"type": "electric_scooter", "fusion_lon": 0.0, "fusion_lat": 0.0, "rental_uris": {"android": "https://dc.lft.to/lastmile_qr_scan", "ios": "https://dc.lft.to/lastmile_qr_scan"}, "bike_id": "110869fe5617662cf80b4fb26569a6a3", "is_reserved": 0, "lon": -77.02095666666666, "name": "110869fe5617662cf80b4fb26569a6a3", "is_disabled": 0, "lat": 38.93020466666667}, {"type": "electric_scooter", "fusion_lon": 0.0, "fusion_lat": 0.0, "rental_uris": {"android": "https://dc.lft.to/lastmile_qr_scan", "ios": "https://dc.lft.to/lastmile_qr_scan"}, "bike_id": "fdd42b3b8dbe70a434c45c444f927e9a", "is_reserved": 0, "lon": -77.0253675, "name": "fdd42b3b8dbe70a434c45c444f927e9a", "is_disabled": 0, "lat": 38.94173716666667}, {"type": "electric_scooter", "fusion_lon": 0.0, "fusion_lat": 0.0, "rental_uris": {"android": "https://dc.lft.to/lastmile_qr_scan", "ios": "https://dc.lft.to/lastmile_qr_scan"}, "bike_id": "48673dc96389de91063e75710c5fdd6d", "is_reserved": 0, "lon": -77.03174, "name": "48673dc96389de91063e75710c5fdd6d", "is_disabled": 0, "lat": 38.8981675}, {"type": "electric_scooter", "fusion_lon": 0.0, "fusion_lat": 0.0, "rental_uris": {"android": "https://dc.lft.to/lastmile_qr_scan", "ios": "https://dc.lft.to/lastmile_qr_scan"}, "bike_id": "115a94ef109daff9318bd6dc17ac1d8d", "is_reserved": 0, "lon": -77.02170016666666, "name": "115a94ef109daff9318bd6dc17ac1d8d", "is_disabled": 0, "lat": 38.895495833333335}, {"type": "electric_bike", "fusion_lon": 0.0, "fusion_lat": 0.0, "rental_uris": {"android": "https://dc.lft.to/lastmile_qr_scan", "ios": "https://dc.lft.to/lastmile_qr_scan"}, "bike_id": "3515c9507b9f804a22148e1e4c04d7e2", "is_reserved": 0, "lon": -77.06346933333333, "name": "3515c9507b9f804a22148e1e4c04d7e2", "is_disabled": 0, "lat": 38.80621433333334}, {"type": "electric_scooter", "fusion_lon": 0.0, "fusion_lat": 0.0, "rental_uris": {"android": "https://dc.lft.to/lastmile_qr_scan", "ios": "https://dc.lft.to/lastmile_qr_scan"}, "bike_id": "4e5f23b79d3c34cf6ca17a50db9547fd", "is_reserved": 0, "lon": -77.03790216666667, "name": "4e5f23b79d3c34cf6ca17a50db9547fd", "is_disabled": 0, "lat": 38.924741166666664}, {"type": "electric_bike", "fusion_lon": 0.0, "fusion_lat": 0.0, "rental_uris": {"android": "https://dc.lft.to/lastmile_qr_scan", "ios": "https://dc.lft.to/lastmile_qr_scan"}, "bike_id": "a0e4cd336c7ff5bd3dbedc54cdef9606", "is_reserved": 0, "lon": -76.9821415, "name": "a0e4cd336c7ff5bd3dbedc54cdef9606", "is_disabled": 0, "lat": 38.9850465}, {"type": "electric_bike", "fusion_lon": 0.0, "fusion_lat": 0.0, "rental_uris": {"android": "https://dc.lft.to/lastmile_qr_scan", "ios": "https://dc.lft.to/lastmile_qr_scan"}, "bike_id": "b0d42eac1c75b5bb4098292c465586bd", "is_reserved": 0, "lon": -77.05814316666667, "name": "b0d42eac1c75b5bb4098292c465586bd", "is_disabled": 0, "lat": 38.82268666666667}, {"type": "electric_scooter", "fusion_lon": 0.0, "fusion_lat": 0.0, "rental_uris": {"android": "https://dc.lft.to/lastmile_qr_scan", "ios": "https://dc.lft.to/lastmile_qr_scan"}, "bike_id": "51f57babdf70bcd0a67f1923ed7fd46d", "is_reserved": 0, "lon": -77.00999583333333, "name": "51f57babdf70bcd0a67f1923ed7fd46d", "is_disabled": 0, "lat": 38.91038283333334}, {"type": "electric_scooter", "fusion_lon": 0.0, "fusion_lat": 0.0, "rental_uris": {"android": "https://dc.lft.to/lastmile_qr_scan", "ios": "https://dc.lft.to/lastmile_qr_scan"}, "bike_id": "3f2ab72ced3afa21d17653b3d2832c19", "is_reserved": 0, "lon": -77.0327265, "name": "3f2ab72ced3afa21d17653b3d2832c19", "is_disabled": 0, "lat": 38.932508166666665}, {"type": "electric_scooter", "fusion_lon": 0.0, "fusion_lat": 0.0, "rental_uris": {"android": "https://dc.lft.to/lastmile_qr_scan", "ios": "https://dc.lft.to/lastmile_qr_scan"}, "bike_id": "6cf3b1b491a39d8af56f7ced84710ba1", "is_reserved": 0, "lon": -76.98649883333333, "name": "6cf3b1b491a39d8af56f7ced84710ba1", "is_disabled": 0, "lat": 38.857981833333334}, {"type": "electric_bike", "fusion_lon": 0.0, "fusion_lat": 0.0, "rental_uris": {"android": "https://dc.lft.to/lastmile_qr_scan", "ios": "https://dc.lft.to/lastmile_qr_scan"}, "bike_id": "f9fda042c83ec84423c9e9553cb7d293", "is_reserved": 0, "lon": -76.9598615, "name": "f9fda042c83ec84423c9e9553cb7d293", "is_disabled": 0, "lat": 38.86997266666667}, {"type": "electric_scooter", "fusion_lon": 0.0, "fusion_lat": 0.0, "rental_uris": {"android": "https://dc.lft.to/lastmile_qr_scan", "ios": "https://dc.lft.to/lastmile_qr_scan"}, "bike_id": "ebf127235c8bb4bae200a484d6cf6aff", "is_reserved": 0, "lon": -77.0268915, "name": "ebf127235c8bb4bae200a484d6cf6aff", "is_disabled": 0, "lat": 38.8922585}, {"type": "electric_scooter", "fusion_lon": 0.0, "fusion_lat": 0.0, "rental_uris": {"android": "https://dc.lft.to/lastmile_qr_scan", "ios": "https://dc.lft.to/lastmile_qr_scan"}, "bike_id": "12b7f919e79edd96c62d10e185a41e0f", "is_reserved": 0, "lon": -76.99697833333333, "name": "12b7f919e79edd96c62d10e185a41e0f", "is_disabled": 0, "lat": 38.908349333333334}, {"type": "electric_scooter", "fusion_lon": 0.0, "fusion_lat": 0.0, "rental_uris": {"android": "https://dc.lft.to/lastmile_qr_scan", "ios": "https://dc.lft.to/lastmile_qr_scan"}, "bike_id": "63ca8dd53f5b13b026484e8627762ef5", "is_reserved": 0, "lon": -77.04681633333334, "name": "63ca8dd53f5b13b026484e8627762ef5", "is_disabled": 0, "lat": 38.89740183333333}, {"type": "electric_scooter", "fusion_lon": 0.0, "fusion_lat": 0.0, "rental_uris": {"android": "https://dc.lft.to/lastmile_qr_scan", "ios": "https://dc.lft.to/lastmile_qr_scan"}, "bike_id": "57404024c58b5aea6a8858cb36cdbf36", "is_reserved": 0, "lon": -77.03653083333333, "name": "57404024c58b5aea6a8858cb36cdbf36", "is_disabled": 0, "lat": 38.9080445}, {"type": "electric_scooter", "fusion_lon": 0.0, "fusion_lat": 0.0, "rental_uris": {"android": "https://dc.lft.to/lastmile_qr_scan", "ios": "https://dc.lft.to/lastmile_qr_scan"}, "bike_id": "08e762042a985d55a59795f1c7ef0b56", "is_reserved": 0, "lon": -77.03727133333334, "name": "08e762042a985d55a59795f1c7ef0b56", "is_disabled": 0, "lat": 38.926593833333335}, {"type": "electric_scooter", "fusion_lon": 0.0, "fusion_lat": 0.0, "rental_uris": {"android": "https://dc.lft.to/lastmile_qr_scan", "ios": "https://dc.lft.to/lastmile_qr_scan"}, "bike_id": "f6230d5a799048aaf8ef689d7c838418", "is_reserved": 0, "lon": -77.03232583333333, "name": "f6230d5a799048aaf8ef689d7c838418", "is_disabled": 0, "lat": 38.9217995}, {"type": "electric_scooter", "fusion_lon": 0.0, "fusion_lat": 0.0, "rental_uris": {"android": "https://dc.lft.to/lastmile_qr_scan", "ios": "https://dc.lft.to/lastmile_qr_scan"}, "bike_id": "7e38f99bbda2d6089d40d9020437eeb2", "is_reserved": 0, "lon": -77.019084, "name": "7e38f99bbda2d6089d40d9020437eeb2", "is_disabled": 0, "lat": 38.923656666666666}, {"type": "electric_scooter", "fusion_lon": 0.0, "fusion_lat": 0.0, "rental_uris": {"android": "https://dc.lft.to/lastmile_qr_scan", "ios": "https://dc.lft.to/lastmile_qr_scan"}, "bike_id": "9c12056d174d142126aee2b5ae23b6bc", "is_reserved": 0, "lon": -77.00569666666667, "name": "9c12056d174d142126aee2b5ae23b6bc", "is_disabled": 0, "lat": 38.90523266666667}, {"type": "electric_scooter", "fusion_lon": 0.0, "fusion_lat": 0.0, "rental_uris": {"android": "https://dc.lft.to/lastmile_qr_scan", "ios": "https://dc.lft.to/lastmile_qr_scan"}, "bike_id": "b97bc80001fb96998def1cdf04fff592", "is_reserved": 0, "lon": -76.99490366666667, "name": "b97bc80001fb96998def1cdf04fff592", "is_disabled": 0, "lat": 38.855641166666665}, {"type": "electric_scooter", "fusion_lon": 0.0, "fusion_lat": 0.0, "rental_uris": {"android": "https://dc.lft.to/lastmile_qr_scan", "ios": "https://dc.lft.to/lastmile_qr_scan"}, "bike_id": "45197d48e2ce83084caba08cb5c10d04", "is_reserved": 0, "lon": -77.0234065, "name": "45197d48e2ce83084caba08cb5c10d04", "is_disabled": 0, "lat": 38.9444975}, {"type": "electric_scooter", "fusion_lon": 0.0, "fusion_lat": 0.0, "rental_uris": {"android": "https://dc.lft.to/lastmile_qr_scan", "ios": "https://dc.lft.to/lastmile_qr_scan"}, "bike_id": "4d722e276cb7eddc73bce4164ff0be72", "is_reserved": 0, "lon": -77.0403675, "name": "4d722e276cb7eddc73bce4164ff0be72", "is_disabled": 0, "lat": 38.90283316666667}, {"type": "electric_scooter", "fusion_lon": 0.0, "fusion_lat": 0.0, "rental_uris": {"android": "https://dc.lft.to/lastmile_qr_scan", "ios": "https://dc.lft.to/lastmile_qr_scan"}, "bike_id": "a6e1f6c587ea636eb7df8063e20dfd1b", "is_reserved": 0, "lon": -77.04239166666666, "name": "a6e1f6c587ea636eb7df8063e20dfd1b", "is_disabled": 0, "lat": 38.90575366666667}, {"type": "electric_scooter", "fusion_lon": 0.0, "fusion_lat": 0.0, "rental_uris": {"android": "https://dc.lft.to/lastmile_qr_scan", "ios": "https://dc.lft.to/lastmile_qr_scan"}, "bike_id": "1ba14cc1889443a9e0e56fd4528ef1bb", "is_reserved": 0, "lon": -77.0449265, "name": "1ba14cc1889443a9e0e56fd4528ef1bb", "is_disabled": 0, "lat": 38.90408766666667}, {"type": "electric_scooter", "fusion_lon": 0.0, "fusion_lat": 0.0, "rental_uris": {"android": "https://dc.lft.to/lastmile_qr_scan", "ios": "https://dc.lft.to/lastmile_qr_scan"}, "bike_id": "ffa64d86718bc78d6679017e9be9f98c", "is_reserved": 0, "lon": -77.00189383333333, "name": "ffa64d86718bc78d6679017e9be9f98c", "is_disabled": 0, "lat": 38.87513166666667}, {"type": "electric_scooter", "fusion_lon": 0.0, "fusion_lat": 0.0, "rental_uris": {"android": "https://dc.lft.to/lastmile_qr_scan", "ios": "https://dc.lft.to/lastmile_qr_scan"}, "bike_id": "69c304c3d5e800b2d3c1a26fc180dcf9", "is_reserved": 0, "lon": -77.00560266666666, "name": "69c304c3d5e800b2d3c1a26fc180dcf9", "is_disabled": 0, "lat": 38.92618916666667}, {"type": "electric_scooter", "fusion_lon": 0.0, "fusion_lat": 0.0, "rental_uris": {"android": "https://dc.lft.to/lastmile_qr_scan", "ios": "https://dc.lft.to/lastmile_qr_scan"}, "bike_id": "70f9c3ce6c0527a6d254dd1e29912f4d", "is_reserved": 0, "lon": -76.971481, "name": "70f9c3ce6c0527a6d254dd1e29912f4d", "is_disabled": 0, "lat": 38.918817833333335}, {"type": "electric_scooter", "fusion_lon": 0.0, "fusion_lat": 0.0, "rental_uris": {"android": "https://dc.lft.to/lastmile_qr_scan", "ios": "https://dc.lft.to/lastmile_qr_scan"}, "bike_id": "5bb4af9042d5a825cf5ca6ae25b0210d", "is_reserved": 0, "lon": -77.0320475, "name": "5bb4af9042d5a825cf5ca6ae25b0210d", "is_disabled": 0, "lat": 38.8870325}, {"type": "electric_scooter", "fusion_lon": 0.0, "fusion_lat": 0.0, "rental_uris": {"android": "https://dc.lft.to/lastmile_qr_scan", "ios": "https://dc.lft.to/lastmile_qr_scan"}, "bike_id": "26ce07be13b730f98240ac9a8de9eb22", "is_reserved": 0, "lon": -77.0446915, "name": "26ce07be13b730f98240ac9a8de9eb22", "is_disabled": 0, "lat": 38.91263333333333}, {"type": "electric_scooter", "fusion_lon": 0.0, "fusion_lat": 0.0, "rental_uris": {"android": "https://dc.lft.to/lastmile_qr_scan", "ios": "https://dc.lft.to/lastmile_qr_scan"}, "bike_id": "2ad848598e3e0184bc98dd3002ac4c21", "is_reserved": 0, "lon": -77.0415335, "name": "2ad848598e3e0184bc98dd3002ac4c21", "is_disabled": 0, "lat": 38.88283583333333}, {"type": "electric_scooter", "fusion_lon": 0.0, "fusion_lat": 0.0, "rental_uris": {"android": "https://dc.lft.to/lastmile_qr_scan", "ios": "https://dc.lft.to/lastmile_qr_scan"}, "bike_id": "1e10d4afd0c8d6c97944a6fd6075ee2a", "is_reserved": 0, "lon": -77.02454033333333, "name": "1e10d4afd0c8d6c97944a6fd6075ee2a", "is_disabled": 0, "lat": 38.908541666666665}, {"type": "electric_scooter", "fusion_lon": 0.0, "fusion_lat": 0.0, "rental_uris": {"android": "https://dc.lft.to/lastmile_qr_scan", "ios": "https://dc.lft.to/lastmile_qr_scan"}, "bike_id": "f349c3800d13129c9a5f5b9e061f3e97", "is_reserved": 0, "lon": -76.990423, "name": "f349c3800d13129c9a5f5b9e061f3e97", "is_disabled": 0, "lat": 38.86371466666667}, {"type": "electric_scooter", "fusion_lon": 0.0, "fusion_lat": 0.0, "rental_uris": {"android": "https://dc.lft.to/lastmile_qr_scan", "ios": "https://dc.lft.to/lastmile_qr_scan"}, "bike_id": "23fb9fe4189e377e8e1ec567c10b91ba", "is_reserved": 0, "lon": -77.054303, "name": "23fb9fe4189e377e8e1ec567c10b91ba", "is_disabled": 0, "lat": 38.899417166666666}, {"type": "electric_scooter", "fusion_lon": 0.0, "fusion_lat": 0.0, "rental_uris": {"android": "https://dc.lft.to/lastmile_qr_scan", "ios": "https://dc.lft.to/lastmile_qr_scan"}, "bike_id": "e160ec484cf705e09a5d0965feeb5a64", "is_reserved": 0, "lon": -77.03739233333333, "name": "e160ec484cf705e09a5d0965feeb5a64", "is_disabled": 0, "lat": 38.88180466666667}, {"type": "electric_scooter", "fusion_lon": 0.0, "fusion_lat": 0.0, "rental_uris": {"android": "https://dc.lft.to/lastmile_qr_scan", "ios": "https://dc.lft.to/lastmile_qr_scan"}, "bike_id": "3b6c210fddcc305e42270ccd0a82cf57", "is_reserved": 0, "lon": -76.9877975, "name": "3b6c210fddcc305e42270ccd0a82cf57", "is_disabled": 0, "lat": 38.906725333333334}, {"type": "electric_scooter", "fusion_lon": 0.0, "fusion_lat": 0.0, "rental_uris": {"android": "https://dc.lft.to/lastmile_qr_scan", "ios": "https://dc.lft.to/lastmile_qr_scan"}, "bike_id": "8e10e76a59bbd8a1f0aaa252d8d1a03e", "is_reserved": 0, "lon": -77.047174, "name": "8e10e76a59bbd8a1f0aaa252d8d1a03e", "is_disabled": 0, "lat": 38.89962933333334}, {"type": "electric_scooter", "fusion_lon": 0.0, "fusion_lat": 0.0, "rental_uris": {"android": "https://dc.lft.to/lastmile_qr_scan", "ios": "https://dc.lft.to/lastmile_qr_scan"}, "bike_id": "9592bc04f10b28569dde5663be886cce", "is_reserved": 0, "lon": -77.052352, "name": "9592bc04f10b28569dde5663be886cce", "is_disabled": 0, "lat": 38.900037}, {"type": "electric_scooter", "fusion_lon": 0.0, "fusion_lat": 0.0, "rental_uris": {"android": "https://dc.lft.to/lastmile_qr_scan", "ios": "https://dc.lft.to/lastmile_qr_scan"}, "bike_id": "3ef1cce4b8691dcbdca92f7aa1efef87", "is_reserved": 0, "lon": -77.03661516666666, "name": "3ef1cce4b8691dcbdca92f7aa1efef87", "is_disabled": 0, "lat": 38.925545666666665}, {"type": "electric_scooter", "fusion_lon": 0.0, "fusion_lat": 0.0, "rental_uris": {"android": "https://dc.lft.to/lastmile_qr_scan", "ios": "https://dc.lft.to/lastmile_qr_scan"}, "bike_id": "77f24085e71f1df69ecc8e27d6ea8aa7", "is_reserved": 0, "lon": -77.04237333333333, "name": "77f24085e71f1df69ecc8e27d6ea8aa7", "is_disabled": 0, "lat": 38.90640633333334}, {"type": "electric_scooter", "fusion_lon": 0.0, "fusion_lat": 0.0, "rental_uris": {"android": "https://dc.lft.to/lastmile_qr_scan", "ios": "https://dc.lft.to/lastmile_qr_scan"}, "bike_id": "8e2c578a9ec1d57868bf3d90680fa6ee", "is_reserved": 0, "lon": -77.04497033333334, "name": "8e2c578a9ec1d57868bf3d90680fa6ee", "is_disabled": 0, "lat": 38.890538166666666}, {"type": "electric_scooter", "fusion_lon": 0.0, "fusion_lat": 0.0, "rental_uris": {"android": "https://dc.lft.to/lastmile_qr_scan", "ios": "https://dc.lft.to/lastmile_qr_scan"}, "bike_id": "ddde2457ff40def1225fe8c497713f63", "is_reserved": 0, "lon": -76.981399, "name": "ddde2457ff40def1225fe8c497713f63", "is_disabled": 0, "lat": 38.90563383333333}, {"type": "electric_scooter", "fusion_lon": 0.0, "fusion_lat": 0.0, "rental_uris": {"android": "https://dc.lft.to/lastmile_qr_scan", "ios": "https://dc.lft.to/lastmile_qr_scan"}, "bike_id": "bfec16744e76c2ffeef52c95129e20e5", "is_reserved": 0, "lon": -77.04843866666667, "name": "bfec16744e76c2ffeef52c95129e20e5", "is_disabled": 0, "lat": 38.89552366666667}, {"type": "electric_scooter", "fusion_lon": 0.0, "fusion_lat": 0.0, "rental_uris": {"android": "https://dc.lft.to/lastmile_qr_scan", "ios": "https://dc.lft.to/lastmile_qr_scan"}, "bike_id": "34ae830564ab43e090a4f2cce53eb099", "is_reserved": 0, "lon": -77.04332766666667, "name": "34ae830564ab43e090a4f2cce53eb099", "is_disabled": 0, "lat": 38.91036}, {"type": "electric_scooter", "fusion_lon": 0.0, "fusion_lat": 0.0, "rental_uris": {"android": "https://dc.lft.to/lastmile_qr_scan", "ios": "https://dc.lft.to/lastmile_qr_scan"}, "bike_id": "22b3321092a1b3f193dbdc2143ece785", "is_reserved": 0, "lon": -77.05036433333333, "name": "22b3321092a1b3f193dbdc2143ece785", "is_disabled": 0, "lat": 38.892795}, {"type": "electric_bike", "fusion_lon": 0.0, "fusion_lat": 0.0, "rental_uris": {"android": "https://dc.lft.to/lastmile_qr_scan", "ios": "https://dc.lft.to/lastmile_qr_scan"}, "bike_id": "babc791fb050fc078349cb199b0f5521", "is_reserved": 0, "lon": -76.92488133333333, "name": "babc791fb050fc078349cb199b0f5521", "is_disabled": 0, "lat": 38.95901883333333}, {"type": "electric_scooter", "fusion_lon": 0.0, "fusion_lat": 0.0, "rental_uris": {"android": "https://dc.lft.to/lastmile_qr_scan", "ios": "https://dc.lft.to/lastmile_qr_scan"}, "bike_id": "a107f7ac9ab71973e8abd91a40e0ac71", "is_reserved": 0, "lon": -76.94066916666667, "name": "a107f7ac9ab71973e8abd91a40e0ac71", "is_disabled": 0, "lat": 38.89047983333333}, {"type": "electric_scooter", "fusion_lon": 0.0, "fusion_lat": 0.0, "rental_uris": {"android": "https://dc.lft.to/lastmile_qr_scan", "ios": "https://dc.lft.to/lastmile_qr_scan"}, "bike_id": "2cc07404ab17aadb8843e110beab9b87", "is_reserved": 0, "lon": -77.032234, "name": "2cc07404ab17aadb8843e110beab9b87", "is_disabled": 0, "lat": 38.930466333333335}, {"type": "electric_scooter", "fusion_lon": 0.0, "fusion_lat": 0.0, "rental_uris": {"android": "https://dc.lft.to/lastmile_qr_scan", "ios": "https://dc.lft.to/lastmile_qr_scan"}, "bike_id": "d7e0cde5b389f87e056fddf97671764a", "is_reserved": 0, "lon": -76.97380733333334, "name": "d7e0cde5b389f87e056fddf97671764a", "is_disabled": 0, "lat": 38.871881}, {"type": "electric_scooter", "fusion_lon": 0.0, "fusion_lat": 0.0, "rental_uris": {"android": "https://dc.lft.to/lastmile_qr_scan", "ios": "https://dc.lft.to/lastmile_qr_scan"}, "bike_id": "af81f5cb760a270d971dcf64d598ce70", "is_reserved": 0, "lon": -77.0434635, "name": "af81f5cb760a270d971dcf64d598ce70", "is_disabled": 0, "lat": 38.905634666666664}, {"type": "electric_scooter", "fusion_lon": 0.0, "fusion_lat": 0.0, "rental_uris": {"android": "https://dc.lft.to/lastmile_qr_scan", "ios": "https://dc.lft.to/lastmile_qr_scan"}, "bike_id": "7b8d4286192fe72e1b1cd4cbab991ca1", "is_reserved": 0, "lon": -77.043337, "name": "7b8d4286192fe72e1b1cd4cbab991ca1", "is_disabled": 0, "lat": 38.9081}, {"type": "electric_scooter", "fusion_lon": 0.0, "fusion_lat": 0.0, "rental_uris": {"android": "https://dc.lft.to/lastmile_qr_scan", "ios": "https://dc.lft.to/lastmile_qr_scan"}, "bike_id": "35ac90c9a583e8fa51098c2b6143d133", "is_reserved": 0, "lon": -77.04027283333333, "name": "35ac90c9a583e8fa51098c2b6143d133", "is_disabled": 0, "lat": 38.91787383333333}, {"type": "electric_bike", "fusion_lon": 0.0, "fusion_lat": 0.0, "rental_uris": {"android": "https://dc.lft.to/lastmile_qr_scan", "ios": "https://dc.lft.to/lastmile_qr_scan"}, "bike_id": "758a3fb5f0b3c8a2d3f5c2e74e0e1f41", "is_reserved": 0, "lon": -77.01824066666667, "name": "758a3fb5f0b3c8a2d3f5c2e74e0e1f41", "is_disabled": 0, "lat": 38.94207883333333}, {"type": "electric_scooter", "fusion_lon": 0.0, "fusion_lat": 0.0, "rental_uris": {"android": "https://dc.lft.to/lastmile_qr_scan", "ios": "https://dc.lft.to/lastmile_qr_scan"}, "bike_id": "25959d2d7fd0109a252e07523836e728", "is_reserved": 0, "lon": -77.0017905, "name": "25959d2d7fd0109a252e07523836e728", "is_disabled": 0, "lat": 38.900477333333335}, {"type": "electric_scooter", "fusion_lon": 0.0, "fusion_lat": 0.0, "rental_uris": {"android": "https://dc.lft.to/lastmile_qr_scan", "ios": "https://dc.lft.to/lastmile_qr_scan"}, "bike_id": "868f4f204333aab449590dd405da1f81", "is_reserved": 0, "lon": -76.98648566666667, "name": "868f4f204333aab449590dd405da1f81", "is_disabled": 0, "lat": 38.858061}, {"type": "electric_scooter", "fusion_lon": 0.0, "fusion_lat": 0.0, "rental_uris": {"android": "https://dc.lft.to/lastmile_qr_scan", "ios": "https://dc.lft.to/lastmile_qr_scan"}, "bike_id": "2799c3c50869d88b35c20fb7e77f7992", "is_reserved": 0, "lon": -77.02696416666667, "name": "2799c3c50869d88b35c20fb7e77f7992", "is_disabled": 0, "lat": 38.94980316666667}, {"type": "electric_scooter", "fusion_lon": 0.0, "fusion_lat": 0.0, "rental_uris": {"android": "https://dc.lft.to/lastmile_qr_scan", "ios": "https://dc.lft.to/lastmile_qr_scan"}, "bike_id": "6b40d4766de1a0fcbaf51d7a6d7515ef", "is_reserved": 0, "lon": -77.02614616666666, "name": "6b40d4766de1a0fcbaf51d7a6d7515ef", "is_disabled": 0, "lat": 38.943964666666666}, {"type": "electric_scooter", "fusion_lon": 0.0, "fusion_lat": 0.0, "rental_uris": {"android": "https://dc.lft.to/lastmile_qr_scan", "ios": "https://dc.lft.to/lastmile_qr_scan"}, "bike_id": "ff988f2750fd3f38ea6baf15e0461006", "is_reserved": 0, "lon": -77.0336985, "name": "ff988f2750fd3f38ea6baf15e0461006", "is_disabled": 0, "lat": 38.89999133333333}, {"type": "electric_scooter", "fusion_lon": 0.0, "fusion_lat": 0.0, "rental_uris": {"android": "https://dc.lft.to/lastmile_qr_scan", "ios": "https://dc.lft.to/lastmile_qr_scan"}, "bike_id": "55db92270414b8eb0409d5a919664a0c", "is_reserved": 0, "lon": -77.03219483333334, "name": "55db92270414b8eb0409d5a919664a0c", "is_disabled": 0, "lat": 38.8953905}, {"type": "electric_scooter", "fusion_lon": 0.0, "fusion_lat": 0.0, "rental_uris": {"android": "https://dc.lft.to/lastmile_qr_scan", "ios": "https://dc.lft.to/lastmile_qr_scan"}, "bike_id": "35dfee8ef21bdd5a47b40cdd612c537a", "is_reserved": 0, "lon": -77.02439633333333, "name": "35dfee8ef21bdd5a47b40cdd612c537a", "is_disabled": 0, "lat": 38.89218616666667}, {"type": "electric_scooter", "fusion_lon": 0.0, "fusion_lat": 0.0, "rental_uris": {"android": "https://dc.lft.to/lastmile_qr_scan", "ios": "https://dc.lft.to/lastmile_qr_scan"}, "bike_id": "52de21f5be9919ebd3aea6a9747f07b5", "is_reserved": 0, "lon": -77.06167616666667, "name": "52de21f5be9919ebd3aea6a9747f07b5", "is_disabled": 0, "lat": 38.94306983333333}, {"type": "electric_scooter", "fusion_lon": 0.0, "fusion_lat": 0.0, "rental_uris": {"android": "https://dc.lft.to/lastmile_qr_scan", "ios": "https://dc.lft.to/lastmile_qr_scan"}, "bike_id": "076f582e6d86649558ed784c46f12dbb", "is_reserved": 0, "lon": -77.031104, "name": "076f582e6d86649558ed784c46f12dbb", "is_disabled": 0, "lat": 38.91706633333333}, {"type": "electric_scooter", "fusion_lon": 0.0, "fusion_lat": 0.0, "rental_uris": {"android": "https://dc.lft.to/lastmile_qr_scan", "ios": "https://dc.lft.to/lastmile_qr_scan"}, "bike_id": "e01aee0658e39abc63db52025d910245", "is_reserved": 0, "lon": -77.0457415, "name": "e01aee0658e39abc63db52025d910245", "is_disabled": 0, "lat": 38.905948}, {"type": "electric_scooter", "fusion_lon": 0.0, "fusion_lat": 0.0, "rental_uris": {"android": "https://dc.lft.to/lastmile_qr_scan", "ios": "https://dc.lft.to/lastmile_qr_scan"}, "bike_id": "c388ce1e6c440301f3ff0f0d819634cd", "is_reserved": 0, "lon": -77.03573766666666, "name": "c388ce1e6c440301f3ff0f0d819634cd", "is_disabled": 0, "lat": 38.91772983333333}, {"type": "electric_scooter", "fusion_lon": 0.0, "fusion_lat": 0.0, "rental_uris": {"android": "https://dc.lft.to/lastmile_qr_scan", "ios": "https://dc.lft.to/lastmile_qr_scan"}, "bike_id": "9a3ce8ca3a60878bce26a42e4e3734a4", "is_reserved": 0, "lon": -77.041738, "name": "9a3ce8ca3a60878bce26a42e4e3734a4", "is_disabled": 0, "lat": 38.917285666666665}, {"type": "electric_scooter", "fusion_lon": 0.0, "fusion_lat": 0.0, "rental_uris": {"android": "https://dc.lft.to/lastmile_qr_scan", "ios": "https://dc.lft.to/lastmile_qr_scan"}, "bike_id": "06fb7708b6ec9e292de1f6296b7e51f1", "is_reserved": 0, "lon": -77.02303066666667, "name": "06fb7708b6ec9e292de1f6296b7e51f1", "is_disabled": 0, "lat": 38.916137166666665}, {"type": "electric_scooter", "fusion_lon": 0.0, "fusion_lat": 0.0, "rental_uris": {"android": "https://dc.lft.to/lastmile_qr_scan", "ios": "https://dc.lft.to/lastmile_qr_scan"}, "bike_id": "92f0460cc1478726362b86bd8cb2ef32", "is_reserved": 0, "lon": -77.07593083333333, "name": "92f0460cc1478726362b86bd8cb2ef32", "is_disabled": 0, "lat": 38.912161}, {"type": "electric_scooter", "fusion_lon": 0.0, "fusion_lat": 0.0, "rental_uris": {"android": "https://dc.lft.to/lastmile_qr_scan", "ios": "https://dc.lft.to/lastmile_qr_scan"}, "bike_id": "5222192c4207dd60bd9e685cf25290c7", "is_reserved": 0, "lon": -77.0637975, "name": "5222192c4207dd60bd9e685cf25290c7", "is_disabled": 0, "lat": 38.90514616666667}, {"type": "electric_scooter", "fusion_lon": 0.0, "fusion_lat": 0.0, "rental_uris": {"android": "https://dc.lft.to/lastmile_qr_scan", "ios": "https://dc.lft.to/lastmile_qr_scan"}, "bike_id": "8a13738f0407a5b7e707a4197203cd9e", "is_reserved": 0, "lon": -77.04490983333334, "name": "8a13738f0407a5b7e707a4197203cd9e", "is_disabled": 0, "lat": 38.8962975}, {"type": "electric_bike", "fusion_lon": 0.0, "fusion_lat": 0.0, "rental_uris": {"android": "https://dc.lft.to/lastmile_qr_scan", "ios": "https://dc.lft.to/lastmile_qr_scan"}, "bike_id": "f8badafd7f5639d1e1e4d8de6795192b", "is_reserved": 0, "lon": -77.10911116666666, "name": "f8badafd7f5639d1e1e4d8de6795192b", "is_disabled": 0, "lat": 39.052048666666664}, {"type": "electric_scooter", "fusion_lon": 0.0, "fusion_lat": 0.0, "rental_uris": {"android": "https://dc.lft.to/lastmile_qr_scan", "ios": "https://dc.lft.to/lastmile_qr_scan"}, "bike_id": "3eca0310d0a29016364e8a316963773a", "is_reserved": 0, "lon": -77.00957383333333, "name": "3eca0310d0a29016364e8a316963773a", "is_disabled": 0, "lat": 38.91566666666667}, {"type": "electric_scooter", "fusion_lon": 0.0, "fusion_lat": 0.0, "rental_uris": {"android": "https://dc.lft.to/lastmile_qr_scan", "ios": "https://dc.lft.to/lastmile_qr_scan"}, "bike_id": "1b35d5278f4d9542d084792a0964bcd1", "is_reserved": 0, "lon": -77.038639, "name": "1b35d5278f4d9542d084792a0964bcd1", "is_disabled": 0, "lat": 38.90784083333333}, {"type": "electric_scooter", "fusion_lon": 0.0, "fusion_lat": 0.0, "rental_uris": {"android": "https://dc.lft.to/lastmile_qr_scan", "ios": "https://dc.lft.to/lastmile_qr_scan"}, "bike_id": "ccbefcf94020982a3fe91c2884a78b8a", "is_reserved": 0, "lon": -77.03436033333334, "name": "ccbefcf94020982a3fe91c2884a78b8a", "is_disabled": 0, "lat": 38.90725966666667}, {"type": "electric_scooter", "fusion_lon": 0.0, "fusion_lat": 0.0, "rental_uris": {"android": "https://dc.lft.to/lastmile_qr_scan", "ios": "https://dc.lft.to/lastmile_qr_scan"}, "bike_id": "8abbe5f0b279ef055f4c9851ad1982fd", "is_reserved": 0, "lon": -77.03362316666667, "name": "8abbe5f0b279ef055f4c9851ad1982fd", "is_disabled": 0, "lat": 38.909695666666664}, {"type": "electric_scooter", "fusion_lon": 0.0, "fusion_lat": 0.0, "rental_uris": {"android": "https://dc.lft.to/lastmile_qr_scan", "ios": "https://dc.lft.to/lastmile_qr_scan"}, "bike_id": "d9e889ee9f45d56508fcb69d8234308c", "is_reserved": 0, "lon": -77.04161283333333, "name": "d9e889ee9f45d56508fcb69d8234308c", "is_disabled": 0, "lat": 38.913455666666664}, {"type": "electric_scooter", "fusion_lon": 0.0, "fusion_lat": 0.0, "rental_uris": {"android": "https://dc.lft.to/lastmile_qr_scan", "ios": "https://dc.lft.to/lastmile_qr_scan"}, "bike_id": "cd4c71621d78ee329d2d0635b38b932a", "is_reserved": 0, "lon": -77.02156166666667, "name": "cd4c71621d78ee329d2d0635b38b932a", "is_disabled": 0, "lat": 38.904149}, {"type": "electric_scooter", "fusion_lon": 0.0, "fusion_lat": 0.0, "rental_uris": {"android": "https://dc.lft.to/lastmile_qr_scan", "ios": "https://dc.lft.to/lastmile_qr_scan"}, "bike_id": "1902bdb125094fad5e84c884045fe055", "is_reserved": 0, "lon": -77.07194533333333, "name": "1902bdb125094fad5e84c884045fe055", "is_disabled": 0, "lat": 38.9067725}, {"type": "electric_bike", "fusion_lon": 0.0, "fusion_lat": 0.0, "rental_uris": {"android": "https://dc.lft.to/lastmile_qr_scan", "ios": "https://dc.lft.to/lastmile_qr_scan"}, "bike_id": "005e5fdb4c5b3b9356a5775722e4f60b", "is_reserved": 0, "lon": -76.9843225, "name": "005e5fdb4c5b3b9356a5775722e4f60b", "is_disabled": 0, "lat": 38.855183}, {"type": "electric_scooter", "fusion_lon": 0.0, "fusion_lat": 0.0, "rental_uris": {"android": "https://dc.lft.to/lastmile_qr_scan", "ios": "https://dc.lft.to/lastmile_qr_scan"}, "bike_id": "b9bccc8b9701b5529f705d86c72bddee", "is_reserved": 0, "lon": -76.95567583333333, "name": "b9bccc8b9701b5529f705d86c72bddee", "is_disabled": 0, "lat": 38.88997333333333}, {"type": "electric_bike", "fusion_lon": 0.0, "fusion_lat": 0.0, "rental_uris": {"android": "https://dc.lft.to/lastmile_qr_scan", "ios": "https://dc.lft.to/lastmile_qr_scan"}, "bike_id": "d87834871b660373088d551e4a26becc", "is_reserved": 0, "lon": -76.99902616666667, "name": "d87834871b660373088d551e4a26becc", "is_disabled": 0, "lat": 38.953143}, {"type": "electric_scooter", "fusion_lon": 0.0, "fusion_lat": 0.0, "rental_uris": {"android": "https://dc.lft.to/lastmile_qr_scan", "ios": "https://dc.lft.to/lastmile_qr_scan"}, "bike_id": "88410bc18dbb6382cca37c39c4fd89d0", "is_reserved": 0, "lon": -77.00325416666666, "name": "88410bc18dbb6382cca37c39c4fd89d0", "is_disabled": 0, "lat": 38.887494333333336}, {"type": "electric_scooter", "fusion_lon": 0.0, "fusion_lat": 0.0, "rental_uris": {"android": "https://dc.lft.to/lastmile_qr_scan", "ios": "https://dc.lft.to/lastmile_qr_scan"}, "bike_id": "a48cd3194fc189f2e345f7a499e7351a", "is_reserved": 0, "lon": -76.99852883333334, "name": "a48cd3194fc189f2e345f7a499e7351a", "is_disabled": 0, "lat": 38.89295466666667}, {"type": "electric_scooter", "fusion_lon": 0.0, "fusion_lat": 0.0, "rental_uris": {"android": "https://dc.lft.to/lastmile_qr_scan", "ios": "https://dc.lft.to/lastmile_qr_scan"}, "bike_id": "5ba97d0a11b95959d312115a82559277", "is_reserved": 0, "lon": -77.03361233333334, "name": "5ba97d0a11b95959d312115a82559277", "is_disabled": 0, "lat": 38.92586216666667}, {"type": "electric_scooter", "fusion_lon": 0.0, "fusion_lat": 0.0, "rental_uris": {"android": "https://dc.lft.to/lastmile_qr_scan", "ios": "https://dc.lft.to/lastmile_qr_scan"}, "bike_id": "e2f015b8a6a4d23ecd0e0bc14b277588", "is_reserved": 0, "lon": -77.01396116666666, "name": "e2f015b8a6a4d23ecd0e0bc14b277588", "is_disabled": 0, "lat": 38.928536333333334}, {"type": "electric_scooter", "fusion_lon": 0.0, "fusion_lat": 0.0, "rental_uris": {"android": "https://dc.lft.to/lastmile_qr_scan", "ios": "https://dc.lft.to/lastmile_qr_scan"}, "bike_id": "7192eec555698a1b3b8c40f29095a8c3", "is_reserved": 0, "lon": -77.03996833333333, "name": "7192eec555698a1b3b8c40f29095a8c3", "is_disabled": 0, "lat": 38.934279333333336}, {"type": "electric_bike", "fusion_lon": 0.0, "fusion_lat": 0.0, "rental_uris": {"android": "https://dc.lft.to/lastmile_qr_scan", "ios": "https://dc.lft.to/lastmile_qr_scan"}, "bike_id": "5e0d289abf78cf6f4e4ebd4a9c6a8734", "is_reserved": 0, "lon": -76.9975565, "name": "5e0d289abf78cf6f4e4ebd4a9c6a8734", "is_disabled": 0, "lat": 38.8372785}, {"type": "electric_scooter", "fusion_lon": 0.0, "fusion_lat": 0.0, "rental_uris": {"android": "https://dc.lft.to/lastmile_qr_scan", "ios": "https://dc.lft.to/lastmile_qr_scan"}, "bike_id": "1658b3d9bcdec64595db368cae7588a4", "is_reserved": 0, "lon": -77.02302133333333, "name": "1658b3d9bcdec64595db368cae7588a4", "is_disabled": 0, "lat": 38.91783316666667}, {"type": "electric_scooter", "fusion_lon": 0.0, "fusion_lat": 0.0, "rental_uris": {"android": "https://dc.lft.to/lastmile_qr_scan", "ios": "https://dc.lft.to/lastmile_qr_scan"}, "bike_id": "d168dd9f5090b8865d5d467357d95759", "is_reserved": 0, "lon": -77.04609733333334, "name": "d168dd9f5090b8865d5d467357d95759", "is_disabled": 0, "lat": 38.89749283333333}, {"type": "electric_scooter", "fusion_lon": 0.0, "fusion_lat": 0.0, "rental_uris": {"android": "https://dc.lft.to/lastmile_qr_scan", "ios": "https://dc.lft.to/lastmile_qr_scan"}, "bike_id": "1ff63c89af36c40f388ea9965fa288a9", "is_reserved": 0, "lon": -77.0034435, "name": "1ff63c89af36c40f388ea9965fa288a9", "is_disabled": 0, "lat": 38.88496283333333}, {"type": "electric_scooter", "fusion_lon": 0.0, "fusion_lat": 0.0, "rental_uris": {"android": "https://dc.lft.to/lastmile_qr_scan", "ios": "https://dc.lft.to/lastmile_qr_scan"}, "bike_id": "e0fd95c84f41cc7c509c377807790ddf", "is_reserved": 0, "lon": -77.04288766666667, "name": "e0fd95c84f41cc7c509c377807790ddf", "is_disabled": 0, "lat": 38.91707683333333}, {"type": "electric_scooter", "fusion_lon": 0.0, "fusion_lat": 0.0, "rental_uris": {"android": "https://dc.lft.to/lastmile_qr_scan", "ios": "https://dc.lft.to/lastmile_qr_scan"}, "bike_id": "72dbf4c2157a51e48d19ed9aa243ae79", "is_reserved": 0, "lon": -76.93747833333333, "name": "72dbf4c2157a51e48d19ed9aa243ae79", "is_disabled": 0, "lat": 38.89052483333333}, {"type": "electric_scooter", "fusion_lon": 0.0, "fusion_lat": 0.0, "rental_uris": {"android": "https://dc.lft.to/lastmile_qr_scan", "ios": "https://dc.lft.to/lastmile_qr_scan"}, "bike_id": "e0a0a78dc304985e75ae3e59dd43168f", "is_reserved": 0, "lon": -77.03449883333333, "name": "e0a0a78dc304985e75ae3e59dd43168f", "is_disabled": 0, "lat": 38.908088666666664}, {"type": "electric_scooter", "fusion_lon": 0.0, "fusion_lat": 0.0, "rental_uris": {"android": "https://dc.lft.to/lastmile_qr_scan", "ios": "https://dc.lft.to/lastmile_qr_scan"}, "bike_id": "cec2fb440b01a209298dd1de38b9c524", "is_reserved": 0, "lon": -77.04678566666666, "name": "cec2fb440b01a209298dd1de38b9c524", "is_disabled": 0, "lat": 38.8945755}, {"type": "electric_scooter", "fusion_lon": 0.0, "fusion_lat": 0.0, "rental_uris": {"android": "https://dc.lft.to/lastmile_qr_scan", "ios": "https://dc.lft.to/lastmile_qr_scan"}, "bike_id": "04546df264d6f8a377dd3249cb86d185", "is_reserved": 0, "lon": -77.02814033333334, "name": "04546df264d6f8a377dd3249cb86d185", "is_disabled": 0, "lat": 38.89241783333333}, {"type": "electric_scooter", "fusion_lon": 0.0, "fusion_lat": 0.0, "rental_uris": {"android": "https://dc.lft.to/lastmile_qr_scan", "ios": "https://dc.lft.to/lastmile_qr_scan"}, "bike_id": "9881e1b9eca343bbf087e2a92d613afa", "is_reserved": 0, "lon": -76.94181333333333, "name": "9881e1b9eca343bbf087e2a92d613afa", "is_disabled": 0, "lat": 38.897617}, {"type": "electric_scooter", "fusion_lon": 0.0, "fusion_lat": 0.0, "rental_uris": {"android": "https://dc.lft.to/lastmile_qr_scan", "ios": "https://dc.lft.to/lastmile_qr_scan"}, "bike_id": "6a08111d400feae4cc36848e10b229fb", "is_reserved": 0, "lon": -76.957569, "name": "6a08111d400feae4cc36848e10b229fb", "is_disabled": 0, "lat": 38.88431666666666}, {"type": "electric_scooter", "fusion_lon": 0.0, "fusion_lat": 0.0, "rental_uris": {"android": "https://dc.lft.to/lastmile_qr_scan", "ios": "https://dc.lft.to/lastmile_qr_scan"}, "bike_id": "4bf3f6ccd7f2dbb8c9eeb9bfdcb0d41b", "is_reserved": 0, "lon": -77.0321225, "name": "4bf3f6ccd7f2dbb8c9eeb9bfdcb0d41b", "is_disabled": 0, "lat": 38.8977815}, {"type": "electric_bike", "fusion_lon": 0.0, "fusion_lat": 0.0, "rental_uris": {"android": "https://dc.lft.to/lastmile_qr_scan", "ios": "https://dc.lft.to/lastmile_qr_scan"}, "bike_id": "369b627992a9af30bd7fb77545f6a2e1", "is_reserved": 0, "lon": -76.984329, "name": "369b627992a9af30bd7fb77545f6a2e1", "is_disabled": 0, "lat": 38.85511316666667}, {"type": "electric_scooter", "fusion_lon": 0.0, "fusion_lat": 0.0, "rental_uris": {"android": "https://dc.lft.to/lastmile_qr_scan", "ios": "https://dc.lft.to/lastmile_qr_scan"}, "bike_id": "1694581a0249c69861cd38914fe0d27e", "is_reserved": 0, "lon": -77.04344283333333, "name": "1694581a0249c69861cd38914fe0d27e", "is_disabled": 0, "lat": 38.906066833333334}, {"type": "electric_scooter", "fusion_lon": 0.0, "fusion_lat": 0.0, "rental_uris": {"android": "https://dc.lft.to/lastmile_qr_scan", "ios": "https://dc.lft.to/lastmile_qr_scan"}, "bike_id": "63182366694efc1bf58f7999245c20db", "is_reserved": 0, "lon": -77.0386265, "name": "63182366694efc1bf58f7999245c20db", "is_disabled": 0, "lat": 38.91256083333333}, {"type": "electric_scooter", "fusion_lon": 0.0, "fusion_lat": 0.0, "rental_uris": {"android": "https://dc.lft.to/lastmile_qr_scan", "ios": "https://dc.lft.to/lastmile_qr_scan"}, "bike_id": "090afa7219e73b46812786ce0c6d0184", "is_reserved": 0, "lon": -76.99232866666667, "name": "090afa7219e73b46812786ce0c6d0184", "is_disabled": 0, "lat": 38.862907166666666}, {"type": "electric_scooter", "fusion_lon": 0.0, "fusion_lat": 0.0, "rental_uris": {"android": "https://dc.lft.to/lastmile_qr_scan", "ios": "https://dc.lft.to/lastmile_qr_scan"}, "bike_id": "91ece5b185a569e2eeeb792efb40146e", "is_reserved": 0, "lon": -77.03988216666667, "name": "91ece5b185a569e2eeeb792efb40146e", "is_disabled": 0, "lat": 38.925891166666666}, {"type": "electric_scooter", "fusion_lon": 0.0, "fusion_lat": 0.0, "rental_uris": {"android": "https://dc.lft.to/lastmile_qr_scan", "ios": "https://dc.lft.to/lastmile_qr_scan"}, "bike_id": "3ae649e620907889b468d2e01b81998d", "is_reserved": 0, "lon": -76.94482383333333, "name": "3ae649e620907889b468d2e01b81998d", "is_disabled": 0, "lat": 38.89845033333334}, {"type": "electric_scooter", "fusion_lon": 0.0, "fusion_lat": 0.0, "rental_uris": {"android": "https://dc.lft.to/lastmile_qr_scan", "ios": "https://dc.lft.to/lastmile_qr_scan"}, "bike_id": "6cf760e9328f970d015b7e42405ac58c", "is_reserved": 0, "lon": -77.0397855, "name": "6cf760e9328f970d015b7e42405ac58c", "is_disabled": 0, "lat": 38.899227}, {"type": "electric_scooter", "fusion_lon": 0.0, "fusion_lat": 0.0, "rental_uris": {"android": "https://dc.lft.to/lastmile_qr_scan", "ios": "https://dc.lft.to/lastmile_qr_scan"}, "bike_id": "20c619598f4134c119ba15c2f19013da", "is_reserved": 0, "lon": -77.01376716666667, "name": "20c619598f4134c119ba15c2f19013da", "is_disabled": 0, "lat": 38.887051166666666}, {"type": "electric_bike", "fusion_lon": 0.0, "fusion_lat": 0.0, "rental_uris": {"android": "https://dc.lft.to/lastmile_qr_scan", "ios": "https://dc.lft.to/lastmile_qr_scan"}, "bike_id": "878c1e9f25555122c908ece320987ede", "is_reserved": 0, "lon": -77.134605, "name": "878c1e9f25555122c908ece320987ede", "is_disabled": 0, "lat": 39.09436933333333}, {"type": "electric_scooter", "fusion_lon": 0.0, "fusion_lat": 0.0, "rental_uris": {"android": "https://dc.lft.to/lastmile_qr_scan", "ios": "https://dc.lft.to/lastmile_qr_scan"}, "bike_id": "99636ec4443e6f0f90562a3999e1ff63", "is_reserved": 0, "lon": -77.03762833333333, "name": "99636ec4443e6f0f90562a3999e1ff63", "is_disabled": 0, "lat": 38.93096766666667}, {"type": "electric_scooter", "fusion_lon": 0.0, "fusion_lat": 0.0, "rental_uris": {"android": "https://dc.lft.to/lastmile_qr_scan", "ios": "https://dc.lft.to/lastmile_qr_scan"}, "bike_id": "6044dd058d54d6a3e75a2113dd708cf2", "is_reserved": 0, "lon": -77.03649733333333, "name": "6044dd058d54d6a3e75a2113dd708cf2", "is_disabled": 0, "lat": 38.906855}, {"type": "electric_bike", "fusion_lon": 0.0, "fusion_lat": 0.0, "rental_uris": {"android": "https://dc.lft.to/lastmile_qr_scan", "ios": "https://dc.lft.to/lastmile_qr_scan"}, "bike_id": "5d9883fe03d79d2cd14c7cac3d0fc642", "is_reserved": 0, "lon": -77.01437533333333, "name": "5d9883fe03d79d2cd14c7cac3d0fc642", "is_disabled": 0, "lat": 38.87669533333333}, {"type": "electric_scooter", "fusion_lon": 0.0, "fusion_lat": 0.0, "rental_uris": {"android": "https://dc.lft.to/lastmile_qr_scan", "ios": "https://dc.lft.to/lastmile_qr_scan"}, "bike_id": "6a239345d2a7e3ea271b76c82b0d9a2f", "is_reserved": 0, "lon": -77.03896133333333, "name": "6a239345d2a7e3ea271b76c82b0d9a2f", "is_disabled": 0, "lat": 38.914165833333335}, {"type": "electric_scooter", "fusion_lon": 0.0, "fusion_lat": 0.0, "rental_uris": {"android": "https://dc.lft.to/lastmile_qr_scan", "ios": "https://dc.lft.to/lastmile_qr_scan"}, "bike_id": "1eb414bb3353d58327fd285ea26bbe96", "is_reserved": 0, "lon": -77.0231645, "name": "1eb414bb3353d58327fd285ea26bbe96", "is_disabled": 0, "lat": 38.92946233333333}, {"type": "electric_scooter", "fusion_lon": 0.0, "fusion_lat": 0.0, "rental_uris": {"android": "https://dc.lft.to/lastmile_qr_scan", "ios": "https://dc.lft.to/lastmile_qr_scan"}, "bike_id": "8bad52106cdbbd7e7d741d550b243396", "is_reserved": 0, "lon": -77.03826266666667, "name": "8bad52106cdbbd7e7d741d550b243396", "is_disabled": 0, "lat": 38.9077875}, {"type": "electric_scooter", "fusion_lon": 0.0, "fusion_lat": 0.0, "rental_uris": {"android": "https://dc.lft.to/lastmile_qr_scan", "ios": "https://dc.lft.to/lastmile_qr_scan"}, "bike_id": "10189a20ea7a70f9746c9c3395e77d0f", "is_reserved": 0, "lon": -77.02782866666666, "name": "10189a20ea7a70f9746c9c3395e77d0f", "is_disabled": 0, "lat": 38.961459166666664}, {"type": "electric_scooter", "fusion_lon": 0.0, "fusion_lat": 0.0, "rental_uris": {"android": "https://dc.lft.to/lastmile_qr_scan", "ios": "https://dc.lft.to/lastmile_qr_scan"}, "bike_id": "7fd73d395b0249d12d1ae79a4a25e781", "is_reserved": 0, "lon": -77.025561, "name": "7fd73d395b0249d12d1ae79a4a25e781", "is_disabled": 0, "lat": 38.9308445}, {"type": "electric_bike", "fusion_lon": 0.0, "fusion_lat": 0.0, "rental_uris": {"android": "https://dc.lft.to/lastmile_qr_scan", "ios": "https://dc.lft.to/lastmile_qr_scan"}, "bike_id": "077675e00a53d9d7e2b69108da8a2bbc", "is_reserved": 0, "lon": -76.95477883333334, "name": "077675e00a53d9d7e2b69108da8a2bbc", "is_disabled": 0, "lat": 38.88640383333333}, {"type": "electric_scooter", "fusion_lon": 0.0, "fusion_lat": 0.0, "rental_uris": {"android": "https://dc.lft.to/lastmile_qr_scan", "ios": "https://dc.lft.to/lastmile_qr_scan"}, "bike_id": "ce5febc77365a170d014908bd4d2c256", "is_reserved": 0, "lon": -76.9969405, "name": "ce5febc77365a170d014908bd4d2c256", "is_disabled": 0, "lat": 38.89820383333333}, {"type": "electric_scooter", "fusion_lon": 0.0, "fusion_lat": 0.0, "rental_uris": {"android": "https://dc.lft.to/lastmile_qr_scan", "ios": "https://dc.lft.to/lastmile_qr_scan"}, "bike_id": "fbb0bfb826890e42d893d67f9d60558c", "is_reserved": 0, "lon": -77.02899533333333, "name": "fbb0bfb826890e42d893d67f9d60558c", "is_disabled": 0, "lat": 38.90150766666667}, {"type": "electric_scooter", "fusion_lon": 0.0, "fusion_lat": 0.0, "rental_uris": {"android": "https://dc.lft.to/lastmile_qr_scan", "ios": "https://dc.lft.to/lastmile_qr_scan"}, "bike_id": "fa7816c8717ef3ee69f3118a1f30461f", "is_reserved": 0, "lon": -77.03739216666666, "name": "fa7816c8717ef3ee69f3118a1f30461f", "is_disabled": 0, "lat": 38.93071966666667}, {"type": "electric_scooter", "fusion_lon": 0.0, "fusion_lat": 0.0, "rental_uris": {"android": "https://dc.lft.to/lastmile_qr_scan", "ios": "https://dc.lft.to/lastmile_qr_scan"}, "bike_id": "3ef79f7d2c70195bb3ffe6f7a84f2027", "is_reserved": 0, "lon": -77.06138116666666, "name": "3ef79f7d2c70195bb3ffe6f7a84f2027", "is_disabled": 0, "lat": 38.90515216666667}, {"type": "electric_scooter", "fusion_lon": 0.0, "fusion_lat": 0.0, "rental_uris": {"android": "https://dc.lft.to/lastmile_qr_scan", "ios": "https://dc.lft.to/lastmile_qr_scan"}, "bike_id": "85377571e11426d0767fcbe24122b546", "is_reserved": 0, "lon": -77.04136483333333, "name": "85377571e11426d0767fcbe24122b546", "is_disabled": 0, "lat": 38.923702666666664}, {"type": "electric_bike", "fusion_lon": 0.0, "fusion_lat": 0.0, "rental_uris": {"android": "https://dc.lft.to/lastmile_qr_scan", "ios": "https://dc.lft.to/lastmile_qr_scan"}, "bike_id": "ecd8ad129dab0309e06558984281adb2", "is_reserved": 0, "lon": -77.12526583333333, "name": "ecd8ad129dab0309e06558984281adb2", "is_disabled": 0, "lat": 39.05637566666667}, {"type": "electric_scooter", "fusion_lon": 0.0, "fusion_lat": 0.0, "rental_uris": {"android": "https://dc.lft.to/lastmile_qr_scan", "ios": "https://dc.lft.to/lastmile_qr_scan"}, "bike_id": "3ffd799c31678f223bc9d4832b72c248", "is_reserved": 0, "lon": -77.0056975, "name": "3ffd799c31678f223bc9d4832b72c248", "is_disabled": 0, "lat": 38.88511616666667}, {"type": "electric_scooter", "fusion_lon": 0.0, "fusion_lat": 0.0, "rental_uris": {"android": "https://dc.lft.to/lastmile_qr_scan", "ios": "https://dc.lft.to/lastmile_qr_scan"}, "bike_id": "6020e5b728af95a037dde9118c2ae386", "is_reserved": 0, "lon": -76.933487, "name": "6020e5b728af95a037dde9118c2ae386", "is_disabled": 0, "lat": 38.89904216666667}, {"type": "electric_scooter", "fusion_lon": 0.0, "fusion_lat": 0.0, "rental_uris": {"android": "https://dc.lft.to/lastmile_qr_scan", "ios": "https://dc.lft.to/lastmile_qr_scan"}, "bike_id": "b73b848f7c5b49941b7e1833a14b6992", "is_reserved": 0, "lon": -77.020811, "name": "b73b848f7c5b49941b7e1833a14b6992", "is_disabled": 0, "lat": 38.9040585}, {"type": "electric_scooter", "fusion_lon": 0.0, "fusion_lat": 0.0, "rental_uris": {"android": "https://dc.lft.to/lastmile_qr_scan", "ios": "https://dc.lft.to/lastmile_qr_scan"}, "bike_id": "4b94714e740cf5e1f72cf887494038e9", "is_reserved": 0, "lon": -77.04609716666667, "name": "4b94714e740cf5e1f72cf887494038e9", "is_disabled": 0, "lat": 38.9024245}, {"type": "electric_scooter", "fusion_lon": 0.0, "fusion_lat": 0.0, "rental_uris": {"android": "https://dc.lft.to/lastmile_qr_scan", "ios": "https://dc.lft.to/lastmile_qr_scan"}, "bike_id": "7ea74aa0f4c25a0b022c34a2fa589165", "is_reserved": 0, "lon": -77.0238, "name": "7ea74aa0f4c25a0b022c34a2fa589165", "is_disabled": 0, "lat": 38.892011333333336}, {"type": "electric_scooter", "fusion_lon": 0.0, "fusion_lat": 0.0, "rental_uris": {"android": "https://dc.lft.to/lastmile_qr_scan", "ios": "https://dc.lft.to/lastmile_qr_scan"}, "bike_id": "6b490e178e35e36ca7650075be62d9b1", "is_reserved": 0, "lon": -77.0453835, "name": "6b490e178e35e36ca7650075be62d9b1", "is_disabled": 0, "lat": 38.8974765}, {"type": "electric_scooter", "fusion_lon": 0.0, "fusion_lat": 0.0, "rental_uris": {"android": "https://dc.lft.to/lastmile_qr_scan", "ios": "https://dc.lft.to/lastmile_qr_scan"}, "bike_id": "2632c0812e230aa5b602044816765af1", "is_reserved": 0, "lon": -77.03227016666666, "name": "2632c0812e230aa5b602044816765af1", "is_disabled": 0, "lat": 38.89776883333333}, {"type": "electric_scooter", "fusion_lon": 0.0, "fusion_lat": 0.0, "rental_uris": {"android": "https://dc.lft.to/lastmile_qr_scan", "ios": "https://dc.lft.to/lastmile_qr_scan"}, "bike_id": "a3997fdb3f09e840c8c811f7f2a816cf", "is_reserved": 0, "lon": -76.98990266666667, "name": "a3997fdb3f09e840c8c811f7f2a816cf", "is_disabled": 0, "lat": 38.85814383333334}, {"type": "electric_scooter", "fusion_lon": 0.0, "fusion_lat": 0.0, "rental_uris": {"android": "https://dc.lft.to/lastmile_qr_scan", "ios": "https://dc.lft.to/lastmile_qr_scan"}, "bike_id": "239f66ee391d4492e1550adde310911d", "is_reserved": 0, "lon": -77.03590966666667, "name": "239f66ee391d4492e1550adde310911d", "is_disabled": 0, "lat": 38.9039095}, {"type": "electric_scooter", "fusion_lon": 0.0, "fusion_lat": 0.0, "rental_uris": {"android": "https://dc.lft.to/lastmile_qr_scan", "ios": "https://dc.lft.to/lastmile_qr_scan"}, "bike_id": "5f028f7fb05da79d45da466731396efc", "is_reserved": 0, "lon": -77.0334785, "name": "5f028f7fb05da79d45da466731396efc", "is_disabled": 0, "lat": 38.88521866666667}, {"type": "electric_scooter", "fusion_lon": 0.0, "fusion_lat": 0.0, "rental_uris": {"android": "https://dc.lft.to/lastmile_qr_scan", "ios": "https://dc.lft.to/lastmile_qr_scan"}, "bike_id": "44c5297c03d9c19132dfd5d507fa6a09", "is_reserved": 0, "lon": -77.0717735, "name": "44c5297c03d9c19132dfd5d507fa6a09", "is_disabled": 0, "lat": 38.94016166666667}, {"type": "electric_scooter", "fusion_lon": 0.0, "fusion_lat": 0.0, "rental_uris": {"android": "https://dc.lft.to/lastmile_qr_scan", "ios": "https://dc.lft.to/lastmile_qr_scan"}, "bike_id": "b8606f97cdaaa0a0141141be7b0f2f23", "is_reserved": 0, "lon": -76.9979865, "name": "b8606f97cdaaa0a0141141be7b0f2f23", "is_disabled": 0, "lat": 38.87498933333333}, {"type": "electric_bike", "fusion_lon": 0.0, "fusion_lat": 0.0, "rental_uris": {"android": "https://dc.lft.to/lastmile_qr_scan", "ios": "https://dc.lft.to/lastmile_qr_scan"}, "bike_id": "5546484b5028eee432cb54a593bef3f5", "is_reserved": 0, "lon": -77.039886, "name": "5546484b5028eee432cb54a593bef3f5", "is_disabled": 0, "lat": 38.90374466666667}, {"type": "electric_scooter", "fusion_lon": 0.0, "fusion_lat": 0.0, "rental_uris": {"android": "https://dc.lft.to/lastmile_qr_scan", "ios": "https://dc.lft.to/lastmile_qr_scan"}, "bike_id": "07a8e0fe25ef7e7178d80c0b9b7246d0", "is_reserved": 0, "lon": -77.04376533333334, "name": "07a8e0fe25ef7e7178d80c0b9b7246d0", "is_disabled": 0, "lat": 38.898617}, {"type": "electric_scooter", "fusion_lon": 0.0, "fusion_lat": 0.0, "rental_uris": {"android": "https://dc.lft.to/lastmile_qr_scan", "ios": "https://dc.lft.to/lastmile_qr_scan"}, "bike_id": "09e9919361df855ba6002425b8a107b0", "is_reserved": 0, "lon": -77.022302, "name": "09e9919361df855ba6002425b8a107b0", "is_disabled": 0, "lat": 38.924213}, {"type": "electric_scooter", "fusion_lon": 0.0, "fusion_lat": 0.0, "rental_uris": {"android": "https://dc.lft.to/lastmile_qr_scan", "ios": "https://dc.lft.to/lastmile_qr_scan"}, "bike_id": "310c7a47cb966ebb31249623d23c6b75", "is_reserved": 0, "lon": -76.9864985, "name": "310c7a47cb966ebb31249623d23c6b75", "is_disabled": 0, "lat": 38.86618333333333}, {"type": "electric_scooter", "fusion_lon": 0.0, "fusion_lat": 0.0, "rental_uris": {"android": "https://dc.lft.to/lastmile_qr_scan", "ios": "https://dc.lft.to/lastmile_qr_scan"}, "bike_id": "2b9ce7d08b16feefca88f28a51bcd223", "is_reserved": 0, "lon": -77.03335916666667, "name": "2b9ce7d08b16feefca88f28a51bcd223", "is_disabled": 0, "lat": 38.8929765}, {"type": "electric_scooter", "fusion_lon": 0.0, "fusion_lat": 0.0, "rental_uris": {"android": "https://dc.lft.to/lastmile_qr_scan", "ios": "https://dc.lft.to/lastmile_qr_scan"}, "bike_id": "504714ed72d86835f721ba7d9d8f48f8", "is_reserved": 0, "lon": -77.06332266666666, "name": "504714ed72d86835f721ba7d9d8f48f8", "is_disabled": 0, "lat": 38.90692716666667}, {"type": "electric_scooter", "fusion_lon": 0.0, "fusion_lat": 0.0, "rental_uris": {"android": "https://dc.lft.to/lastmile_qr_scan", "ios": "https://dc.lft.to/lastmile_qr_scan"}, "bike_id": "f6315587a13bc2b8d79d2e256e83f52f", "is_reserved": 0, "lon": -76.99780966666667, "name": "f6315587a13bc2b8d79d2e256e83f52f", "is_disabled": 0, "lat": 38.844355166666666}, {"type": "electric_scooter", "fusion_lon": 0.0, "fusion_lat": 0.0, "rental_uris": {"android": "https://dc.lft.to/lastmile_qr_scan", "ios": "https://dc.lft.to/lastmile_qr_scan"}, "bike_id": "3b982c81a8781c600ab3d9db68e6a68d", "is_reserved": 0, "lon": -77.04472683333333, "name": "3b982c81a8781c600ab3d9db68e6a68d", "is_disabled": 0, "lat": 38.909325}, {"type": "electric_bike", "fusion_lon": 0.0, "fusion_lat": 0.0, "rental_uris": {"android": "https://dc.lft.to/lastmile_qr_scan", "ios": "https://dc.lft.to/lastmile_qr_scan"}, "bike_id": "40c1d9ab62b2cbb8011928a298d6e0cb", "is_reserved": 0, "lon": -76.9518925, "name": "40c1d9ab62b2cbb8011928a298d6e0cb", "is_disabled": 0, "lat": 38.906942}, {"type": "electric_scooter", "fusion_lon": 0.0, "fusion_lat": 0.0, "rental_uris": {"android": "https://dc.lft.to/lastmile_qr_scan", "ios": "https://dc.lft.to/lastmile_qr_scan"}, "bike_id": "0a390d9aae138d7072bdbfb6a2025ba2", "is_reserved": 0, "lon": -77.03382516666667, "name": "0a390d9aae138d7072bdbfb6a2025ba2", "is_disabled": 0, "lat": 38.90973666666667}, {"type": "electric_scooter", "fusion_lon": 0.0, "fusion_lat": 0.0, "rental_uris": {"android": "https://dc.lft.to/lastmile_qr_scan", "ios": "https://dc.lft.to/lastmile_qr_scan"}, "bike_id": "09eac9334d58ad15a3dfd0b8c5ee7bd9", "is_reserved": 0, "lon": -77.02845466666666, "name": "09eac9334d58ad15a3dfd0b8c5ee7bd9", "is_disabled": 0, "lat": 38.8922155}, {"type": "electric_scooter", "fusion_lon": 0.0, "fusion_lat": 0.0, "rental_uris": {"android": "https://dc.lft.to/lastmile_qr_scan", "ios": "https://dc.lft.to/lastmile_qr_scan"}, "bike_id": "ee360bfe3eb424783afec650259236fb", "is_reserved": 0, "lon": -77.042538, "name": "ee360bfe3eb424783afec650259236fb", "is_disabled": 0, "lat": 38.91035516666667}, {"type": "electric_scooter", "fusion_lon": 0.0, "fusion_lat": 0.0, "rental_uris": {"android": "https://dc.lft.to/lastmile_qr_scan", "ios": "https://dc.lft.to/lastmile_qr_scan"}, "bike_id": "3df1479d9cc4a76341c1e0cc62d3558d", "is_reserved": 0, "lon": -76.9869965, "name": "3df1479d9cc4a76341c1e0cc62d3558d", "is_disabled": 0, "lat": 38.862533166666665}, {"type": "electric_scooter", "fusion_lon": 0.0, "fusion_lat": 0.0, "rental_uris": {"android": "https://dc.lft.to/lastmile_qr_scan", "ios": "https://dc.lft.to/lastmile_qr_scan"}, "bike_id": "02e335c39dca4a2469d513dea822857c", "is_reserved": 0, "lon": -76.99140516666667, "name": "02e335c39dca4a2469d513dea822857c", "is_disabled": 0, "lat": 38.885934166666665}, {"type": "electric_scooter", "fusion_lon": 0.0, "fusion_lat": 0.0, "rental_uris": {"android": "https://dc.lft.to/lastmile_qr_scan", "ios": "https://dc.lft.to/lastmile_qr_scan"}, "bike_id": "727eedb564ecfebf21a8a2a47cf8cf60", "is_reserved": 0, "lon": -77.03884533333333, "name": "727eedb564ecfebf21a8a2a47cf8cf60", "is_disabled": 0, "lat": 38.922385}, {"type": "electric_bike", "fusion_lon": 0.0, "fusion_lat": 0.0, "rental_uris": {"android": "https://dc.lft.to/lastmile_qr_scan", "ios": "https://dc.lft.to/lastmile_qr_scan"}, "bike_id": "1bfaf0eedba6b9002bf5e825ef529ecd", "is_reserved": 0, "lon": -77.079145, "name": "1bfaf0eedba6b9002bf5e825ef529ecd", "is_disabled": 0, "lat": 38.8023185}, {"type": "electric_scooter", "fusion_lon": 0.0, "fusion_lat": 0.0, "rental_uris": {"android": "https://dc.lft.to/lastmile_qr_scan", "ios": "https://dc.lft.to/lastmile_qr_scan"}, "bike_id": "0e0179c52bcdaf32d4791fb73f13ad06", "is_reserved": 0, "lon": -77.0206195, "name": "0e0179c52bcdaf32d4791fb73f13ad06", "is_disabled": 0, "lat": 38.90770216666667}, {"type": "electric_scooter", "fusion_lon": 0.0, "fusion_lat": 0.0, "rental_uris": {"android": "https://dc.lft.to/lastmile_qr_scan", "ios": "https://dc.lft.to/lastmile_qr_scan"}, "bike_id": "f33995950c3c1888b4e632da3f36ae09", "is_reserved": 0, "lon": -77.04323366666667, "name": "f33995950c3c1888b4e632da3f36ae09", "is_disabled": 0, "lat": 38.9233035},