{"data": {"bikes": [{"lon": -77.02086766666666, "bike_id": "d173fa1ee5162119b01246933e70336b", "lat": 38.957547, "fusion_lon": 0.0, "fusion_lat": 0.0, "type": "electric_scooter", "name": "d173fa1ee5162119b01246933e70336b", "is_disabled": 0, "rental_uris": {"ios": "https://dc.lft.to/lastmile_qr_scan", "android": "https://dc.lft.to/lastmile_qr_scan"}, "is_reserved": 0}, {"lon": -77.0189515, "bike_id": "b403ff3bd2b72f669ea7ff86767b6e4d", "lat": 38.92372866666667, "fusion_lon": 0.0, "fusion_lat": 0.0, "type": "electric_scooter", "name": "b403ff3bd2b72f669ea7ff86767b6e4d", "is_disabled": 0, "rental_uris": {"ios": "https://dc.lft.to/lastmile_qr_scan", "android": "https://dc.lft.to/lastmile_qr_scan"}, "is_reserved": 0}, {"lon": -77.02624333333333, "bike_id": "5f9445a9ecc59468573b12350d9c4058", "lat": 38.89732, "fusion_lon": 0.0, "fusion_lat": 0.0, "type": "electric_scooter", "name": "5f9445a9ecc59468573b12350d9c4058", "is_disabled": 0, "rental_uris": {"ios": "https://dc.lft.to/lastmile_qr_scan", "android": "https://dc.lft.to/lastmile_qr_scan"}, "is_reserved": 0}, {"lon": -77.03328666666667, "bike_id": "b31f1545a767ac49a8fdcd342e7147b2", "lat": 38.90965633333333, "fusion_lon": 0.0, "fusion_lat": 0.0, "type": "electric_scooter", "name": "b31f1545a767ac49a8fdcd342e7147b2", "is_disabled": 0, "rental_uris": {"ios": "https://dc.lft.to/lastmile_qr_scan", "android": "https://dc.lft.to/lastmile_qr_scan"}, "is_reserved": 0}, {"lon": -77.01840383333334, "bike_id": "00812ad5d2424b38697964f95eb12039", "lat": 38.9039345, "fusion_lon": 0.0, "fusion_lat": 0.0, "type": "electric_scooter", "name": "00812ad5d2424b38697964f95eb12039", "is_disabled": 0, "rental_uris": {"ios": "https://dc.lft.to/lastmile_qr_scan", "android": "https://dc.lft.to/lastmile_qr_scan"}, "is_reserved": 0}, {"lon": -76.98727166666667, "bike_id": "a030349121ab11a92bf156c1394060b8", "lat": 38.86711533333333, "fusion_lon": 0.0, "fusion_lat": 0.0, "type": "electric_scooter", "name": "a030349121ab11a92bf156c1394060b8", "is_disabled": 0, "rental_uris": {"ios": "https://dc.lft.to/lastmile_qr_scan", "android": "https://dc.lft.to/lastmile_qr_scan"}, "is_reserved": 0}, {"lon": -76.96058016666667, "bike_id": "38cc256b4649cf0bee1dd012b037bd3e", "lat": 38.88404633333333, "fusion_lon": 0.0, "fusion_lat": 0.0, "type": "electric_bike", "name": "38cc256b4649cf0bee1dd012b037bd3e", "is_disabled": 0, "rental_uris": {"ios": "https://dc.lft.to/lastmile_qr_scan", "android": "https://dc.lft.to/lastmile_qr_scan"}, "is_reserved": 0}, {"lon": -77.033398, "bike_id": "6d94555c768ae50f23463c61609751c3", "lat": 38.93641066666667, "fusion_lon": 0.0, "fusion_lat": 0.0, "type": "electric_scooter", "name": "6d94555c768ae50f23463c61609751c3", "is_disabled": 0, "rental_uris": {"ios": "https://dc.lft.to/lastmile_qr_scan", "android": "https://dc.lft.to/lastmile_qr_scan"}, "is_reserved": 0}, {"lon": -76.99004016666666, "bike_id": "1e5c4afbabb95fe05ecb848c66e158f1", "lat": 38.865031333333334, "fusion_lon": 0.0, "fusion_lat": 0.0, "type": "electric_scooter", "name": "1e5c4afbabb95fe05ecb848c66e158f1", "is_disabled": 0, "rental_uris": {"ios": "https://dc.lft.to/lastmile_qr_scan", "android": "https://dc.lft.to/lastmile_qr_scan"}, "is_reserved": 0}, {"lon": -76.99334766666666, "bike_id": "c17480a626aa82ee2453985b8b681844", "lat": 38.8714195, "fusion_lon": 0.0, "fusion_lat": 0.0, "type": "electric_scooter", "name": "c17480a626aa82ee2453985b8b681844", "is_disabled": 0, "rental_uris": {"ios": "https://dc.lft.to/lastmile_qr_scan", "android": "https://dc.lft.to/lastmile_qr_scan"}, "is_reserved": 0}, {"lon": -76.98706766666666, "bike_id": "f2f8e5fbf6042be9cf817137136e7ad1", "lat": 38.865384166666665, "fusion_lon": 0.0, "fusion_lat": 0.0, "type": "electric_scooter", "name": "f2f8e5fbf6042be9cf817137136e7ad1", "is_disabled": 0, "rental_uris": {"ios": "https://dc.lft.to/lastmile_qr_scan", "android": "https://dc.lft.to/lastmile_qr_scan"}, "is_reserved": 0}, {"lon": -77.0227855, "bike_id": "313be35345bd28b4c0447c944cb0dd45", "lat": 38.87892766666667, "fusion_lon": 0.0, "fusion_lat": 0.0, "type": "electric_scooter", "name": "313be35345bd28b4c0447c944cb0dd45", "is_disabled": 0, "rental_uris": {"ios": "https://dc.lft.to/lastmile_qr_scan", "android": "https://dc.lft.to/lastmile_qr_scan"}, "is_reserved": 0}, {"lon": -76.94889566666667, "bike_id": "88f6a3c4fa8f4f52cc8258e6779e51d6", "lat": 38.89513633333333, "fusion_lon": 0.0, "fusion_lat": 0.0, "type": "electric_scooter", "name": "88f6a3c4fa8f4f52cc8258e6779e51d6", "is_disabled": 0, "rental_uris": {"ios": "https://dc.lft.to/lastmile_qr_scan", "android": "https://dc.lft.to/lastmile_qr_scan"}, "is_reserved": 0}, {"lon": -77.04394183333334, "bike_id": "073d203a567bf5691789e06f0118c073", "lat": 38.90896583333333, "fusion_lon": 0.0, "fusion_lat": 0.0, "type": "electric_scooter", "name": "073d203a567bf5691789e06f0118c073", "is_disabled": 0, "rental_uris": {"ios": "https://dc.lft.to/lastmile_qr_scan", "android": "https://dc.lft.to/lastmile_qr_scan"}, "is_reserved": 0}, {"lon": -77.02412366666667, "bike_id": "6851ae22e2d152dc0cf231ec9edd0c06", "lat": 38.899923333333334, "fusion_lon": 0.0, "fusion_lat": 0.0, "type": "electric_scooter", "name": "6851ae22e2d152dc0cf231ec9edd0c06", "is_disabled": 0, "rental_uris": {"ios": "https://dc.lft.to/lastmile_qr_scan", "android": "https://dc.lft.to/lastmile_qr_scan"}, "is_reserved": 0}, {"lon": -77.01755483333334, "bike_id": "c12f0697df3111bcd6fc687e3bb78367", "lat": 38.91277516666667, "fusion_lon": 0.0, "fusion_lat": 0.0, "type": "electric_bike", "name": "c12f0697df3111bcd6fc687e3bb78367", "is_disabled": 0, "rental_uris": {"ios": "https://dc.lft.to/lastmile_qr_scan", "android": "https://dc.lft.to/lastmile_qr_scan"}, "is_reserved": 0}, {"lon": -77.04981083333334, "bike_id": "62964a1dcde7574f5992b4fa9e09670a", "lat": 39.06293766666667, "fusion_lon": 0.0, "fusion_lat": 0.0, "type": "electric_bike", "name": "62964a1dcde7574f5992b4fa9e09670a", "is_disabled": 0, "rental_uris": {"ios": "https://dc.lft.to/lastmile_qr_scan", "android": "https://dc.lft.to/lastmile_qr_scan"}, "is_reserved": 0}, {"lon": -76.9985115, "bike_id": "cf182f62e41d2b9de72df5c5c5760204", "lat": 38.901036, "fusion_lon": 0.0, "fusion_lat": 0.0, "type": "electric_scooter", "name": "cf182f62e41d2b9de72df5c5c5760204", "is_disabled": 0, "rental_uris": {"ios": "https://dc.lft.to/lastmile_qr_scan", "android": "https://dc.lft.to/lastmile_qr_scan"}, "is_reserved": 0}, {"lon": -77.05148733333333, "bike_id": "a714ea2cb71f085fcff12348b19c19b9", "lat": 38.898614333333335, "fusion_lon": 0.0, "fusion_lat": 0.0, "type": "electric_scooter", "name": "a714ea2cb71f085fcff12348b19c19b9", "is_disabled": 0, "rental_uris": {"ios": "https://dc.lft.to/lastmile_qr_scan", "android": "https://dc.lft.to/lastmile_qr_scan"}, "is_reserved": 0}, {"lon": -76.990124, "bike_id": "691a3be81438a89724f0e2333b5fef28", "lat": 38.946019166666666, "fusion_lon": 0.0, "fusion_lat": 0.0, "type": "electric_scooter", "name": "691a3be81438a89724f0e2333b5fef28", "is_disabled": 0, "rental_uris": {"ios": "https://dc.lft.to/lastmile_qr_scan", "android": "https://dc.lft.to/lastmile_qr_scan"}, "is_reserved": 0}, {"lon": -77.032073, "bike_id": "20f5f488ea9e13bbead5c34d41082fcd", "lat": 38.928707, "fusion_lon": 0.0, "fusion_lat": 0.0, "type": "electric_scooter", "name": "20f5f488ea9e13bbead5c34d41082fcd", "is_disabled": 0, "rental_uris": {"ios": "https://dc.lft.to/lastmile_qr_scan", "android": "https://dc.lft.to/lastmile_qr_scan"}, "is_reserved": 0}, {"lon": -77.02422166666666, "bike_id": "d426fba6a615f16c3cc2f784ad9d65e9", "lat": 38.9232535, "fusion_lon": 0.0, "fusion_lat": 0.0, "type": "electric_scooter", "name": "d426fba6a615f16c3cc2f784ad9d65e9", "is_disabled": 0, "rental_uris": {"ios": "https://dc.lft.to/lastmile_qr_scan", "android": "https://dc.lft.to/lastmile_qr_scan"}, "is_reserved": 0}, {"lon": -77.03862833333334, "bike_id": "210b30144e388d4b4a1e816baba7dd80", "lat": 38.92013816666667, "fusion_lon": 0.0, "fusion_lat": 0.0, "type": "electric_scooter", "name": "210b30144e388d4b4a1e816baba7dd80", "is_disabled": 0, "rental_uris": {"ios": "https://dc.lft.to/lastmile_qr_scan", "android": "https://dc.lft.to/lastmile_qr_scan"}, "is_reserved": 0}, {"lon": -76.9450885, "bike_id": "63929f943242b0d453c910acf0a86ae7", "lat": 38.86484316666667, "fusion_lon": 0.0, "fusion_lat": 0.0, "type": "electric_bike", "name": "63929f943242b0d453c910acf0a86ae7", "is_disabled": 0, "rental_uris": {"ios": "https://dc.lft.to/lastmile_qr_scan", "android": "https://dc.lft.to/lastmile_qr_scan"}, "is_reserved": 0}, {"lon": -76.99371616666667, "bike_id": "9e893be6728e0a935a96bada479847d7", "lat": 38.940234833333335, "fusion_lon": 0.0, "fusion_lat": 0.0, "type": "electric_scooter", "name": "9e893be6728e0a935a96bada479847d7", "is_disabled": 0, "rental_uris": {"ios": "https://dc.lft.to/lastmile_qr_scan", "android": "https://dc.lft.to/lastmile_qr_scan"}, "is_reserved": 0}, {"lon": -77.03936666666667, "bike_id": "70bfb803409d3905599dcca910b5f481", "lat": 38.8967115, "fusion_lon": 0.0, "fusion_lat": 0.0, "type": "electric_scooter", "name": "70bfb803409d3905599dcca910b5f481", "is_disabled": 0, "rental_uris": {"ios": "https://dc.lft.to/lastmile_qr_scan", "android": "https://dc.lft.to/lastmile_qr_scan"}, "is_reserved": 0}, {"lon": -76.98380216666666, "bike_id": "a3e625bc2e21991a7097d7b84daeb4bf", "lat": 38.8960475, "fusion_lon": 0.0, "fusion_lat": 0.0, "type": "electric_scooter", "name": "a3e625bc2e21991a7097d7b84daeb4bf", "is_disabled": 0, "rental_uris": {"ios": "https://dc.lft.to/lastmile_qr_scan", "android": "https://dc.lft.to/lastmile_qr_scan"}, "is_reserved": 0}, {"lon": -77.0411035, "bike_id": "8dce54b5f76f9f79ded5a2bae85df808", "lat": 38.9280335, "fusion_lon": 0.0, "fusion_lat": 0.0, "type": "electric_scooter", "name": "8dce54b5f76f9f79ded5a2bae85df808", "is_disabled": 0, "rental_uris": {"ios": "https://dc.lft.to/lastmile_qr_scan", "android": "https://dc.lft.to/lastmile_qr_scan"}, "is_reserved": 0}, {"lon": -77.00573, "bike_id": "7330c96555a40ebe3c275ee85a3217b4", "lat": 38.872394, "fusion_lon": 0.0, "fusion_lat": 0.0, "type": "electric_scooter", "name": "7330c96555a40ebe3c275ee85a3217b4", "is_disabled": 0, "rental_uris": {"ios": "https://dc.lft.to/lastmile_qr_scan", "android": "https://dc.lft.to/lastmile_qr_scan"}, "is_reserved": 0}, {"lon": -77.03550366666667, "bike_id": "76486d42bd1b8d90e4a1d46327519806", "lat": 38.9257075, "fusion_lon": 0.0, "fusion_lat": 0.0, "type": "electric_scooter", "name": "76486d42bd1b8d90e4a1d46327519806", "is_disabled": 0, "rental_uris": {"ios": "https://dc.lft.to/lastmile_qr_scan", "android": "https://dc.lft.to/lastmile_qr_scan"}, "is_reserved": 0}, {"lon": -77.0093425, "bike_id": "445e5b2a8046d039e1713b9fd6dd61e4", "lat": 38.88314483333333, "fusion_lon": 0.0, "fusion_lat": 0.0, "type": "electric_scooter", "name": "445e5b2a8046d039e1713b9fd6dd61e4", "is_disabled": 0, "rental_uris": {"ios": "https://dc.lft.to/lastmile_qr_scan", "android": "https://dc.lft.to/lastmile_qr_scan"}, "is_reserved": 0}, {"lon": -77.03568766666666, "bike_id": "32b6761276d6b785c4dce279d7c51460", "lat": 38.9181145, "fusion_lon": 0.0, "fusion_lat": 0.0, "type": "electric_scooter", "name": "32b6761276d6b785c4dce279d7c51460", "is_disabled": 0, "rental_uris": {"ios": "https://dc.lft.to/lastmile_qr_scan", "android": "https://dc.lft.to/lastmile_qr_scan"}, "is_reserved": 0}, {"lon": -77.04467716666667, "bike_id": "b98220f79203c800059975cb2abac3e1", "lat": 38.915312666666665, "fusion_lon": 0.0, "fusion_lat": 0.0, "type": "electric_scooter", "name": "b98220f79203c800059975cb2abac3e1", "is_disabled": 0, "rental_uris": {"ios": "https://dc.lft.to/lastmile_qr_scan", "android": "https://dc.lft.to/lastmile_qr_scan"}, "is_reserved": 0}, {"lon": -77.01797283333333, "bike_id": "aa83f403f45c1088b3b3c1dfa83291a9", "lat": 38.90505316666667, "fusion_lon": 0.0, "fusion_lat": 0.0, "type": "electric_scooter", "name": "aa83f403f45c1088b3b3c1dfa83291a9", "is_disabled": 0, "rental_uris": {"ios": "https://dc.lft.to/lastmile_qr_scan", "android": "https://dc.lft.to/lastmile_qr_scan"}, "is_reserved": 0}, {"lon": -77.0309935, "bike_id": "aeaf8bcb1a20a7cd416a26f65a08d9c8", "lat": 38.91031983333333, "fusion_lon": 0.0, "fusion_lat": 0.0, "type": "electric_scooter", "name": "aeaf8bcb1a20a7cd416a26f65a08d9c8", "is_disabled": 0, "rental_uris": {"ios": "https://dc.lft.to/lastmile_qr_scan", "android": "https://dc.lft.to/lastmile_qr_scan"}, "is_reserved": 0}, {"lon": -77.03265016666667, "bike_id": "12bb4053d3fa18f04fe6227ffae20a77", "lat": 38.937723166666665, "fusion_lon": 0.0, "fusion_lat": 0.0, "type": "electric_scooter", "name": "12bb4053d3fa18f04fe6227ffae20a77", "is_disabled": 0, "rental_uris": {"ios": "https://dc.lft.to/lastmile_qr_scan", "android": "https://dc.lft.to/lastmile_qr_scan"}, "is_reserved": 0}, {"lon": -77.0095575, "bike_id": "ddb81ef8f8497ac2f806476603c2f27e", "lat": 38.921271, "fusion_lon": 0.0, "fusion_lat": 0.0, "type": "electric_scooter", "name": "ddb81ef8f8497ac2f806476603c2f27e", "is_disabled": 0, "rental_uris": {"ios": "https://dc.lft.to/lastmile_qr_scan", "android": "https://dc.lft.to/lastmile_qr_scan"}, "is_reserved": 0}, {"lon": -77.037638, "bike_id": "f6fed276ea4f28a666a662173fb09a8e", "lat": 38.920088, "fusion_lon": 0.0, "fusion_lat": 0.0, "type": "electric_scooter", "name": "f6fed276ea4f28a666a662173fb09a8e", "is_disabled": 0, "rental_uris": {"ios": "https://dc.lft.to/lastmile_qr_scan", "android": "https://dc.lft.to/lastmile_qr_scan"}, "is_reserved": 0}, {"lon": -77.007198, "bike_id": "1b7530826e804252438b6aee98f5db83", "lat": 38.83342116666667, "fusion_lon": 0.0, "fusion_lat": 0.0, "type": "electric_bike", "name": "1b7530826e804252438b6aee98f5db83", "is_disabled": 0, "rental_uris": {"ios": "https://dc.lft.to/lastmile_qr_scan", "android": "https://dc.lft.to/lastmile_qr_scan"}, "is_reserved": 0}, {"lon": -77.03432933333333, "bike_id": "2aa17b104d1ac400fd5f22108de3cbec", "lat": 38.96540983333333, "fusion_lon": 0.0, "fusion_lat": 0.0, "type": "electric_bike", "name": "2aa17b104d1ac400fd5f22108de3cbec", "is_disabled": 0, "rental_uris": {"ios": "https://dc.lft.to/lastmile_qr_scan", "android": "https://dc.lft.to/lastmile_qr_scan"}, "is_reserved": 0}, {"lon": -77.13925416666666, "bike_id": "3dd3371c4ed2d1d54b82b86c1673f6d3", "lat": 38.8729895, "fusion_lon": 0.0, "fusion_lat": 0.0, "type": "electric_bike", "name": "3dd3371c4ed2d1d54b82b86c1673f6d3", "is_disabled": 0, "rental_uris": {"ios": "https://dc.lft.to/lastmile_qr_scan", "android": "https://dc.lft.to/lastmile_qr_scan"}, "is_reserved": 0}, {"lon": -77.0490595, "bike_id": "e610f597c86f668541a0e4655afa2773", "lat": 38.91608766666667, "fusion_lon": 0.0, "fusion_lat": 0.0, "type": "electric_scooter", "name": "e610f597c86f668541a0e4655afa2773", "is_disabled": 0, "rental_uris": {"ios": "https://dc.lft.to/lastmile_qr_scan", "android": "https://dc.lft.to/lastmile_qr_scan"}, "is_reserved": 0}, {"lon": -76.988324, "bike_id": "be0945cee5626aa03781ff5b8b27f840", "lat": 38.896685833333336, "fusion_lon": 0.0, "fusion_lat": 0.0, "type": "electric_scooter", "name": "be0945cee5626aa03781ff5b8b27f840", "is_disabled": 0, "rental_uris": {"ios": "https://dc.lft.to/lastmile_qr_scan", "android": "https://dc.lft.to/lastmile_qr_scan"}, "is_reserved": 0}, {"lon": -76.97208416666666, "bike_id": "6e2f5d25305a27e26e0f4ac530e5b415", "lat": 38.89290533333333, "fusion_lon": 0.0, "fusion_lat": 0.0, "type": "electric_bike", "name": "6e2f5d25305a27e26e0f4ac530e5b415", "is_disabled": 0, "rental_uris": {"ios": "https://dc.lft.to/lastmile_qr_scan", "android": "https://dc.lft.to/lastmile_qr_scan"}, "is_reserved": 0}, {"lon": -76.98237383333333, "bike_id": "f8143490dab42e3b5875f17a0240c85c", "lat": 38.864692, "fusion_lon": 0.0, "fusion_lat": 0.0, "type": "electric_scooter", "name": "f8143490dab42e3b5875f17a0240c85c", "is_disabled": 0, "rental_uris": {"ios": "https://dc.lft.to/lastmile_qr_scan", "android": "https://dc.lft.to/lastmile_qr_scan"}, "is_reserved": 0}, {"lon": -77.01779216666667, "bike_id": "8c10bb2d175d4de43b6d5d9166f7e446", "lat": 38.90048733333333, "fusion_lon": 0.0, "fusion_lat": 0.0, "type": "electric_scooter", "name": "8c10bb2d175d4de43b6d5d9166f7e446", "is_disabled": 0, "rental_uris": {"ios": "https://dc.lft.to/lastmile_qr_scan", "android": "https://dc.lft.to/lastmile_qr_scan"}, "is_reserved": 0}, {"lon": -76.9211295, "bike_id": "eb8af80a7982cf7fa5d8d2d484eaf381", "lat": 38.891052333333334, "fusion_lon": 0.0, "fusion_lat": 0.0, "type": "electric_scooter", "name": "eb8af80a7982cf7fa5d8d2d484eaf381", "is_disabled": 0, "rental_uris": {"ios": "https://dc.lft.to/lastmile_qr_scan", "android": "https://dc.lft.to/lastmile_qr_scan"}, "is_reserved": 0}, {"lon": -77.02479333333333, "bike_id": "83f08775b21ed37085b617181761a114", "lat": 38.903211, "fusion_lon": 0.0, "fusion_lat": 0.0, "type": "electric_scooter", "name": "83f08775b21ed37085b617181761a114", "is_disabled": 0, "rental_uris": {"ios": "https://dc.lft.to/lastmile_qr_scan", "android": "https://dc.lft.to/lastmile_qr_scan"}, "is_reserved": 0}, {"lon": -77.06127016666667, "bike_id": "5343d5d273d0cb16ec727d13f82ce7f3", "lat": 38.9053365, "fusion_lon": 0.0, "fusion_lat": 0.0, "type": "electric_scooter", "name": "5343d5d273d0cb16ec727d13f82ce7f3", "is_disabled": 0, "rental_uris": {"ios": "https://dc.lft.to/lastmile_qr_scan", "android": "https://dc.lft.to/lastmile_qr_scan"}, "is_reserved": 0}, {"lon": -76.97728583333334, "bike_id": "a27558e1cee93810b5799dfe07a32b13", "lat": 38.87243016666667, "fusion_lon": 0.0, "fusion_lat": 0.0, "type": "electric_scooter", "name": "a27558e1cee93810b5799dfe07a32b13", "is_disabled": 0, "rental_uris": {"ios": "https://dc.lft.to/lastmile_qr_scan", "android": "https://dc.lft.to/lastmile_qr_scan"}, "is_reserved": 0}, {"lon": -77.05572533333333, "bike_id": "5af2553b0360fb113f8a08d7280556ce", "lat": 38.897343666666664, "fusion_lon": 0.0, "fusion_lat": 0.0, "type": "electric_scooter", "name": "5af2553b0360fb113f8a08d7280556ce", "is_disabled": 0, "rental_uris": {"ios": "https://dc.lft.to/lastmile_qr_scan", "android": "https://dc.lft.to/lastmile_qr_scan"}, "is_reserved": 0}, {"lon": -77.0487605, "bike_id": "53b094498cc2d60b7141daae708ab30f", "lat": 38.90974466666667, "fusion_lon": 0.0, "fusion_lat": 0.0, "type": "electric_scooter", "name": "53b094498cc2d60b7141daae708ab30f", "is_disabled": 0, "rental_uris": {"ios": "https://dc.lft.to/lastmile_qr_scan", "android": "https://dc.lft.to/lastmile_qr_scan"}, "is_reserved": 0}, {"lon": -77.02002766666666, "bike_id": "87f3177170a77a0a56c57d1808ed0b3b", "lat": 38.90270183333333, "fusion_lon": 0.0, "fusion_lat": 0.0, "type": "electric_scooter", "name": "87f3177170a77a0a56c57d1808ed0b3b", "is_disabled": 0, "rental_uris": {"ios": "https://dc.lft.to/lastmile_qr_scan", "android": "https://dc.lft.to/lastmile_qr_scan"}, "is_reserved": 0}, {"lon": -77.01120783333333, "bike_id": "676efe3ace53c30a28119c9ad6776098", "lat": 38.894842833333335, "fusion_lon": 0.0, "fusion_lat": 0.0, "type": "electric_scooter", "name": "676efe3ace53c30a28119c9ad6776098", "is_disabled": 0, "rental_uris": {"ios": "https://dc.lft.to/lastmile_qr_scan", "android": "https://dc.lft.to/lastmile_qr_scan"}, "is_reserved": 0}, {"lon": -77.011441, "bike_id": "9a4496e0779ba8d627bb94f7778db5cd", "lat": 38.895855, "fusion_lon": 0.0, "fusion_lat": 0.0, "type": "electric_scooter", "name": "9a4496e0779ba8d627bb94f7778db5cd", "is_disabled": 0, "rental_uris": {"ios": "https://dc.lft.to/lastmile_qr_scan", "android": "https://dc.lft.to/lastmile_qr_scan"}, "is_reserved": 0}, {"lon": -76.988472, "bike_id": "3d3ef1e9d7ab51e4acb6ab311d105904", "lat": 38.901323166666664, "fusion_lon": 0.0, "fusion_lat": 0.0, "type": "electric_scooter", "name": "3d3ef1e9d7ab51e4acb6ab311d105904", "is_disabled": 0, "rental_uris": {"ios": "https://dc.lft.to/lastmile_qr_scan", "android": "https://dc.lft.to/lastmile_qr_scan"}, "is_reserved": 0}, {"lon": -77.017923, "bike_id": "11fa17cfe22f04fc3173d8fe4bbd2450", "lat": 38.9200275, "fusion_lon": 0.0, "fusion_lat": 0.0, "type": "electric_scooter", "name": "11fa17cfe22f04fc3173d8fe4bbd2450", "is_disabled": 0, "rental_uris": {"ios": "https://dc.lft.to/lastmile_qr_scan", "android": "https://dc.lft.to/lastmile_qr_scan"}, "is_reserved": 0}, {"lon": -77.12226016666666, "bike_id": "458f71c87c1f6f6550a96f1b36b94930", "lat": 38.85300983333333, "fusion_lon": 0.0, "fusion_lat": 0.0, "type": "electric_bike", "name": "458f71c87c1f6f6550a96f1b36b94930", "is_disabled": 0, "rental_uris": {"ios": "https://dc.lft.to/lastmile_qr_scan", "android": "https://dc.lft.to/lastmile_qr_scan"}, "is_reserved": 0}, {"lon": -77.02450083333333, "bike_id": "b8269f3159ae8c0e0fdc649df63c61ab", "lat": 38.9185555, "fusion_lon": 0.0, "fusion_lat": 0.0, "type": "electric_scooter", "name": "b8269f3159ae8c0e0fdc649df63c61ab", "is_disabled": 0, "rental_uris": {"ios": "https://dc.lft.to/lastmile_qr_scan", "android": "https://dc.lft.to/lastmile_qr_scan"}, "is_reserved": 0}, {"lon": -77.01455433333334, "bike_id": "26974db74a2f43eedd7b415ff6f63202", "lat": 38.905230833333334, "fusion_lon": 0.0, "fusion_lat": 0.0, "type": "electric_scooter", "name": "26974db74a2f43eedd7b415ff6f63202", "is_disabled": 0, "rental_uris": {"ios": "https://dc.lft.to/lastmile_qr_scan", "android": "https://dc.lft.to/lastmile_qr_scan"}, "is_reserved": 0}, {"lon": -77.04064016666666, "bike_id": "9b7b89a7bb910fe23f21eefce6071152", "lat": 38.91494266666667, "fusion_lon": 0.0, "fusion_lat": 0.0, "type": "electric_scooter", "name": "9b7b89a7bb910fe23f21eefce6071152", "is_disabled": 0, "rental_uris": {"ios": "https://dc.lft.to/lastmile_qr_scan", "android": "https://dc.lft.to/lastmile_qr_scan"}, "is_reserved": 0}, {"lon": -77.01941116666667, "bike_id": "aa4b0c5b0d06660d8201fa7f8de85cea", "lat": 38.931877, "fusion_lon": 0.0, "fusion_lat": 0.0, "type": "electric_scooter", "name": "aa4b0c5b0d06660d8201fa7f8de85cea", "is_disabled": 0, "rental_uris": {"ios": "https://dc.lft.to/lastmile_qr_scan", "android": "https://dc.lft.to/lastmile_qr_scan"}, "is_reserved": 0}, {"lon": -76.97752466666667, "bike_id": "ddbf64086c4d252f9b4ad552192b6b49", "lat": 38.86503283333333, "fusion_lon": 0.0, "fusion_lat": 0.0, "type": "electric_scooter", "name": "ddbf64086c4d252f9b4ad552192b6b49", "is_disabled": 0, "rental_uris": {"ios": "https://dc.lft.to/lastmile_qr_scan", "android": "https://dc.lft.to/lastmile_qr_scan"}, "is_reserved": 0}, {"lon": -77.04173766666666, "bike_id": "a683021438651ae7b6290a32c838fa89", "lat": 38.9042955, "fusion_lon": 0.0, "fusion_lat": 0.0, "type": "electric_scooter", "name": "a683021438651ae7b6290a32c838fa89", "is_disabled": 0, "rental_uris": {"ios": "https://dc.lft.to/lastmile_qr_scan", "android": "https://dc.lft.to/lastmile_qr_scan"}, "is_reserved": 0}, {"lon": -77.0638335, "bike_id": "78147ec4e467b1c3765c4e6e027c20f9", "lat": 38.909245, "fusion_lon": 0.0, "fusion_lat": 0.0, "type": "electric_scooter", "name": "78147ec4e467b1c3765c4e6e027c20f9", "is_disabled": 0, "rental_uris": {"ios": "https://dc.lft.to/lastmile_qr_scan", "android": "https://dc.lft.to/lastmile_qr_scan"}, "is_reserved": 0}, {"lon": -77.04625366666667, "bike_id": "7d9a81dceb6a463fea3790338dcc357a", "lat": 38.9156855, "fusion_lon": 0.0, "fusion_lat": 0.0, "type": "electric_scooter", "name": "7d9a81dceb6a463fea3790338dcc357a", "is_disabled": 0, "rental_uris": {"ios": "https://dc.lft.to/lastmile_qr_scan", "android": "https://dc.lft.to/lastmile_qr_scan"}, "is_reserved": 0}, {"lon": -77.0319035, "bike_id": "fc7cd6576a71b14f4fe7d07cca83f678", "lat": 38.912730833333335, "fusion_lon": 0.0, "fusion_lat": 0.0, "type": "electric_scooter", "name": "fc7cd6576a71b14f4fe7d07cca83f678", "is_disabled": 0, "rental_uris": {"ios": "https://dc.lft.to/lastmile_qr_scan", "android": "https://dc.lft.to/lastmile_qr_scan"}, "is_reserved": 0}, {"lon": -77.03473783333334, "bike_id": "7fcbcc2ad26a3a1d6503b37b11a03f9e", "lat": 38.916294666666666, "fusion_lon": 0.0, "fusion_lat": 0.0, "type": "electric_scooter", "name": "7fcbcc2ad26a3a1d6503b37b11a03f9e", "is_disabled": 0, "rental_uris": {"ios": "https://dc.lft.to/lastmile_qr_scan", "android": "https://dc.lft.to/lastmile_qr_scan"}, "is_reserved": 0}, {"lon": -77.03584266666667, "bike_id": "ae2f714c7d0560fca73d42accd5fda32", "lat": 38.907590666666664, "fusion_lon": 0.0, "fusion_lat": 0.0, "type": "electric_scooter", "name": "ae2f714c7d0560fca73d42accd5fda32", "is_disabled": 0, "rental_uris": {"ios": "https://dc.lft.to/lastmile_qr_scan", "android": "https://dc.lft.to/lastmile_qr_scan"}, "is_reserved": 0}, {"lon": -77.02212983333334, "bike_id": "a44248c257db928aa9e42e4fb335dfb6", "lat": 38.89993916666667, "fusion_lon": 0.0, "fusion_lat": 0.0, "type": "electric_scooter", "name": "a44248c257db928aa9e42e4fb335dfb6", "is_disabled": 0, "rental_uris": {"ios": "https://dc.lft.to/lastmile_qr_scan", "android": "https://dc.lft.to/lastmile_qr_scan"}, "is_reserved": 0}, {"lon": -76.98231416666667, "bike_id": "96d8e7172ea2a14429828abd09e4c0d7", "lat": 38.91657416666666, "fusion_lon": 0.0, "fusion_lat": 0.0, "type": "electric_scooter", "name": "96d8e7172ea2a14429828abd09e4c0d7", "is_disabled": 0, "rental_uris": {"ios": "https://dc.lft.to/lastmile_qr_scan", "android": "https://dc.lft.to/lastmile_qr_scan"}, "is_reserved": 0}, {"lon": -77.032082, "bike_id": "fe550e1d71afd327b0defb54a638ce45", "lat": 38.916707333333335, "fusion_lon": 0.0, "fusion_lat": 0.0, "type": "electric_scooter", "name": "fe550e1d71afd327b0defb54a638ce45", "is_disabled": 0, "rental_uris": {"ios": "https://dc.lft.to/lastmile_qr_scan", "android": "https://dc.lft.to/lastmile_qr_scan"}, "is_reserved": 0}, {"lon": -77.05583866666667, "bike_id": "ae0e5f7d3bcaf20b28217192f68459da", "lat": 38.8931015, "fusion_lon": 0.0, "fusion_lat": 0.0, "type": "electric_scooter", "name": "ae0e5f7d3bcaf20b28217192f68459da", "is_disabled": 0, "rental_uris": {"ios": "https://dc.lft.to/lastmile_qr_scan", "android": "https://dc.lft.to/lastmile_qr_scan"}, "is_reserved": 0}, {"lon": -77.04474933333333, "bike_id": "091b87aa52ddd78a92bfafd727e8f54b", "lat": 38.922844, "fusion_lon": 0.0, "fusion_lat": 0.0, "type": "electric_scooter", "name": "091b87aa52ddd78a92bfafd727e8f54b", "is_disabled": 0, "rental_uris": {"ios": "https://dc.lft.to/lastmile_qr_scan", "android": "https://dc.lft.to/lastmile_qr_scan"}, "is_reserved": 0}, {"lon": -77.046058, "bike_id": "bbb27fe1154233bfae859fc86579d77c", "lat": 38.85306216666667, "fusion_lon": 0.0, "fusion_lat": 0.0, "type": "electric_bike", "name": "bbb27fe1154233bfae859fc86579d77c", "is_disabled": 0, "rental_uris": {"ios": "https://dc.lft.to/lastmile_qr_scan", "android": "https://dc.lft.to/lastmile_qr_scan"}, "is_reserved": 0}, {"lon": -76.97239516666667, "bike_id": "6fb38477e4d9a09e529bab37d7792bd8", "lat": 38.903503, "fusion_lon": 0.0, "fusion_lat": 0.0, "type": "electric_scooter", "name": "6fb38477e4d9a09e529bab37d7792bd8", "is_disabled": 0, "rental_uris": {"ios": "https://dc.lft.to/lastmile_qr_scan", "android": "https://dc.lft.to/lastmile_qr_scan"}, "is_reserved": 0}, {"lon": -77.0571645, "bike_id": "fcf0235b51273032d1ba322bf60381d0", "lat": 38.93371883333333, "fusion_lon": 0.0, "fusion_lat": 0.0, "type": "electric_scooter", "name": "fcf0235b51273032d1ba322bf60381d0", "is_disabled": 0, "rental_uris": {"ios": "https://dc.lft.to/lastmile_qr_scan", "android": "https://dc.lft.to/lastmile_qr_scan"}, "is_reserved": 0}, {"lon": -77.022104, "bike_id": "2415b75bae021f61f3c6847eb0f64f73", "lat": 38.910523166666664, "fusion_lon": 0.0, "fusion_lat": 0.0, "type": "electric_scooter", "name": "2415b75bae021f61f3c6847eb0f64f73", "is_disabled": 0, "rental_uris": {"ios": "https://dc.lft.to/lastmile_qr_scan", "android": "https://dc.lft.to/lastmile_qr_scan"}, "is_reserved": 0}, {"lon": -77.01738733333333, "bike_id": "6ad0b1ed671c7f5e221166feff9caa7b", "lat": 38.90382483333333, "fusion_lon": 0.0, "fusion_lat": 0.0, "type": "electric_scooter", "name": "6ad0b1ed671c7f5e221166feff9caa7b", "is_disabled": 0, "rental_uris": {"ios": "https://dc.lft.to/lastmile_qr_scan", "android": "https://dc.lft.to/lastmile_qr_scan"}, "is_reserved": 0}, {"lon": -77.00071833333334, "bike_id": "a56c428444cbb260bf71423765760788", "lat": 38.87686466666667, "fusion_lon": 0.0, "fusion_lat": 0.0, "type": "electric_scooter", "name": "a56c428444cbb260bf71423765760788", "is_disabled": 0, "rental_uris": {"ios": "https://dc.lft.to/lastmile_qr_scan", "android": "https://dc.lft.to/lastmile_qr_scan"}, "is_reserved": 0}, {"lon": -76.98842633333334, "bike_id": "7478cf24a8b4527dbe30faffe2988ceb", "lat": 38.842809833333334, "fusion_lon": 0.0, "fusion_lat": 0.0, "type": "electric_bike", "name": "7478cf24a8b4527dbe30faffe2988ceb", "is_disabled": 0, "rental_uris": {"ios": "https://dc.lft.to/lastmile_qr_scan", "android": "https://dc.lft.to/lastmile_qr_scan"}, "is_reserved": 0}, {"lon": -77.0366845, "bike_id": "cebf637ed2e4a0addec67847104ffc40", "lat": 38.92243333333333, "fusion_lon": 0.0, "fusion_lat": 0.0, "type": "electric_scooter", "name": "cebf637ed2e4a0addec67847104ffc40", "is_disabled": 0, "rental_uris": {"ios": "https://dc.lft.to/lastmile_qr_scan", "android": "https://dc.lft.to/lastmile_qr_scan"}, "is_reserved": 0}, {"lon": -77.0491735, "bike_id": "528aa592f921d1101e1dba6e41007f33", "lat": 38.908608, "fusion_lon": 0.0, "fusion_lat": 0.0, "type": "electric_scooter", "name": "528aa592f921d1101e1dba6e41007f33", "is_disabled": 0, "rental_uris": {"ios": "https://dc.lft.to/lastmile_qr_scan", "android": "https://dc.lft.to/lastmile_qr_scan"}, "is_reserved": 0}, {"lon": -77.02589466666667, "bike_id": "88ee3c507a977e17b07631d93726b1a7", "lat": 38.92530283333333, "fusion_lon": 0.0, "fusion_lat": 0.0, "type": "electric_scooter", "name": "88ee3c507a977e17b07631d93726b1a7", "is_disabled": 0, "rental_uris": {"ios": "https://dc.lft.to/lastmile_qr_scan", "android": "https://dc.lft.to/lastmile_qr_scan"}, "is_reserved": 0}, {"lon": -77.0005065, "bike_id": "ed916b52c427eade4388e358edec6d62", "lat": 38.923967166666664, "fusion_lon": 0.0, "fusion_lat": 0.0, "type": "electric_scooter", "name": "ed916b52c427eade4388e358edec6d62", "is_disabled": 0, "rental_uris": {"ios": "https://dc.lft.to/lastmile_qr_scan", "android": "https://dc.lft.to/lastmile_qr_scan"}, "is_reserved": 0}, {"lon": -77.02135066666666, "bike_id": "2d13e70a58f47c267e9ee78a52862fdf", "lat": 38.93610916666667, "fusion_lon": 0.0, "fusion_lat": 0.0, "type": "electric_scooter", "name": "2d13e70a58f47c267e9ee78a52862fdf", "is_disabled": 0, "rental_uris": {"ios": "https://dc.lft.to/lastmile_qr_scan", "android": "https://dc.lft.to/lastmile_qr_scan"}, "is_reserved": 0}, {"lon": -77.029567, "bike_id": "81bad820386ce047a79cf5e3f3a759a2", "lat": 38.91253666666667, "fusion_lon": 0.0, "fusion_lat": 0.0, "type": "electric_scooter", "name": "81bad820386ce047a79cf5e3f3a759a2", "is_disabled": 0, "rental_uris": {"ios": "https://dc.lft.to/lastmile_qr_scan", "android": "https://dc.lft.to/lastmile_qr_scan"}, "is_reserved": 0}, {"lon": -76.99845266666667, "bike_id": "615186881bba4c7ee8159a706ea78383", "lat": 38.90002883333333, "fusion_lon": 0.0, "fusion_lat": 0.0, "type": "electric_scooter", "name": "615186881bba4c7ee8159a706ea78383", "is_disabled": 0, "rental_uris": {"ios": "https://dc.lft.to/lastmile_qr_scan", "android": "https://dc.lft.to/lastmile_qr_scan"}, "is_reserved": 0}, {"lon": -77.02945066666666, "bike_id": "a5bdb8d4d3f699177d913d0a3d62e147", "lat": 38.90588016666667, "fusion_lon": 0.0, "fusion_lat": 0.0, "type": "electric_scooter", "name": "a5bdb8d4d3f699177d913d0a3d62e147", "is_disabled": 0, "rental_uris": {"ios": "https://dc.lft.to/lastmile_qr_scan", "android": "https://dc.lft.to/lastmile_qr_scan"}, "is_reserved": 0}, {"lon": -77.07239583333333, "bike_id": "75d86f8036e4a3e895e8177eb9cb51b2", "lat": 38.89896733333333, "fusion_lon": 0.0, "fusion_lat": 0.0, "type": "electric_scooter", "name": "75d86f8036e4a3e895e8177eb9cb51b2", "is_disabled": 0, "rental_uris": {"ios": "https://dc.lft.to/lastmile_qr_scan", "android": "https://dc.lft.to/lastmile_qr_scan"}, "is_reserved": 0}, {"lon": -77.11764916666667, "bike_id": "08b5909aa64d0fd577f01802bca3cac2", "lat": 38.855855, "fusion_lon": 0.0, "fusion_lat": 0.0, "type": "electric_bike", "name": "08b5909aa64d0fd577f01802bca3cac2", "is_disabled": 0, "rental_uris": {"ios": "https://dc.lft.to/lastmile_qr_scan", "android": "https://dc.lft.to/lastmile_qr_scan"}, "is_reserved": 0}, {"lon": -77.03585383333333, "bike_id": "54ccd23c67737061f55957a9925f20e0", "lat": 38.99224866666667, "fusion_lon": 0.0, "fusion_lat": 0.0, "type": "electric_scooter", "name": "54ccd23c67737061f55957a9925f20e0", "is_disabled": 0, "rental_uris": {"ios": "https://dc.lft.to/lastmile_qr_scan", "android": "https://dc.lft.to/lastmile_qr_scan"}, "is_reserved": 0}, {"lon": -76.93070666666667, "bike_id": "4795aeb12ee44d93ca6f5c98b5a62019", "lat": 38.895579833333336, "fusion_lon": 0.0, "fusion_lat": 0.0, "type": "electric_scooter", "name": "4795aeb12ee44d93ca6f5c98b5a62019", "is_disabled": 0, "rental_uris": {"ios": "https://dc.lft.to/lastmile_qr_scan", "android": "https://dc.lft.to/lastmile_qr_scan"}, "is_reserved": 0}, {"lon": -77.00204316666667, "bike_id": "52f46ddfcb88469a0aa97ce86489810e", "lat": 38.90237616666667, "fusion_lon": 0.0, "fusion_lat": 0.0, "type": "electric_scooter", "name": "52f46ddfcb88469a0aa97ce86489810e", "is_disabled": 0, "rental_uris": {"ios": "https://dc.lft.to/lastmile_qr_scan", "android": "https://dc.lft.to/lastmile_qr_scan"}, "is_reserved": 0}, {"lon": -77.02474666666667, "bike_id": "150eee6e9b6a418043870cb3de63a687", "lat": 38.91994483333333, "fusion_lon": 0.0, "fusion_lat": 0.0, "type": "electric_scooter", "name": "150eee6e9b6a418043870cb3de63a687", "is_disabled": 0, "rental_uris": {"ios": "https://dc.lft.to/lastmile_qr_scan", "android": "https://dc.lft.to/lastmile_qr_scan"}, "is_reserved": 0}, {"lon": -77.0387025, "bike_id": "3dce83670d93bc1f220f2e13971e604b", "lat": 38.911911, "fusion_lon": 0.0, "fusion_lat": 0.0, "type": "electric_scooter", "name": "3dce83670d93bc1f220f2e13971e604b", "is_disabled": 0, "rental_uris": {"ios": "https://dc.lft.to/lastmile_qr_scan", "android": "https://dc.lft.to/lastmile_qr_scan"}, "is_reserved": 0}, {"lon": -77.03136416666666, "bike_id": "1f6034887ba35f062ade9c2d42673cf6", "lat": 38.91758333333333, "fusion_lon": 0.0, "fusion_lat": 0.0, "type": "electric_scooter", "name": "1f6034887ba35f062ade9c2d42673cf6", "is_disabled": 0, "rental_uris": {"ios": "https://dc.lft.to/lastmile_qr_scan", "android": "https://dc.lft.to/lastmile_qr_scan"}, "is_reserved": 0}, {"lon": -77.02208416666667, "bike_id": "aa07e9afbaebff7b96102e11e89b1dad", "lat": 38.90418283333333, "fusion_lon": 0.0, "fusion_lat": 0.0, "type": "electric_scooter", "name": "aa07e9afbaebff7b96102e11e89b1dad", "is_disabled": 0, "rental_uris": {"ios": "https://dc.lft.to/lastmile_qr_scan", "android": "https://dc.lft.to/lastmile_qr_scan"}, "is_reserved": 0}, {"lon": -77.03249, "bike_id": "c44fe9fb56004d961da201e4f655fb18", "lat": 38.91565966666667, "fusion_lon": 0.0, "fusion_lat": 0.0, "type": "electric_scooter", "name": "c44fe9fb56004d961da201e4f655fb18", "is_disabled": 0, "rental_uris": {"ios": "https://dc.lft.to/lastmile_qr_scan", "android": "https://dc.lft.to/lastmile_qr_scan"}, "is_reserved": 0}, {"lon": -76.9783045, "bike_id": "7e681b4add4f0ab59f25dec3a969c585", "lat": 38.843700166666665, "fusion_lon": 0.0, "fusion_lat": 0.0, "type": "electric_bike", "name": "7e681b4add4f0ab59f25dec3a969c585", "is_disabled": 0, "rental_uris": {"ios": "https://dc.lft.to/lastmile_qr_scan", "android": "https://dc.lft.to/lastmile_qr_scan"}, "is_reserved": 0}, {"lon": -77.04745216666667, "bike_id": "d30b8e11c997472a83f4e6fa308008f6", "lat": 38.90967216666667, "fusion_lon": 0.0, "fusion_lat": 0.0, "type": "electric_scooter", "name": "d30b8e11c997472a83f4e6fa308008f6", "is_disabled": 0, "rental_uris": {"ios": "https://dc.lft.to/lastmile_qr_scan", "android": "https://dc.lft.to/lastmile_qr_scan"}, "is_reserved": 0}, {"lon": -77.03109583333334, "bike_id": "130acef3357816844841a2463d6fa952", "lat": 38.9332435, "fusion_lon": 0.0, "fusion_lat": 0.0, "type": "electric_scooter", "name": "130acef3357816844841a2463d6fa952", "is_disabled": 0, "rental_uris": {"ios": "https://dc.lft.to/lastmile_qr_scan", "android": "https://dc.lft.to/lastmile_qr_scan"}, "is_reserved": 0}, {"lon": -77.044304, "bike_id": "7c620b15d7206b38e90a9479b9be6294", "lat": 38.92120083333333, "fusion_lon": 0.0, "fusion_lat": 0.0, "type": "electric_scooter", "name": "7c620b15d7206b38e90a9479b9be6294", "is_disabled": 0, "rental_uris": {"ios": "https://dc.lft.to/lastmile_qr_scan", "android": "https://dc.lft.to/lastmile_qr_scan"}, "is_reserved": 0}, {"lon": -77.04434116666667, "bike_id": "d6cf65d2b2804c4cade3d587bff2de38", "lat": 38.921678666666665, "fusion_lon": 0.0, "fusion_lat": 0.0, "type": "electric_scooter", "name": "d6cf65d2b2804c4cade3d587bff2de38", "is_disabled": 0, "rental_uris": {"ios": "https://dc.lft.to/lastmile_qr_scan", "android": "https://dc.lft.to/lastmile_qr_scan"}, "is_reserved": 0}, {"lon": -77.01413433333333, "bike_id": "b6267d2c50181da640550e773cc00a69", "lat": 38.92831866666667, "fusion_lon": 0.0, "fusion_lat": 0.0, "type": "electric_scooter", "name": "b6267d2c50181da640550e773cc00a69", "is_disabled": 0, "rental_uris": {"ios": "https://dc.lft.to/lastmile_qr_scan", "android": "https://dc.lft.to/lastmile_qr_scan"}, "is_reserved": 0}, {"lon": -77.03857266666667, "bike_id": "8844a9a0b91b606fcd8e9ea0aecf2dec", "lat": 38.93200816666667, "fusion_lon": 0.0, "fusion_lat": 0.0, "type": "electric_scooter", "name": "8844a9a0b91b606fcd8e9ea0aecf2dec", "is_disabled": 0, "rental_uris": {"ios": "https://dc.lft.to/lastmile_qr_scan", "android": "https://dc.lft.to/lastmile_qr_scan"}, "is_reserved": 0}, {"lon": -76.97727583333334, "bike_id": "5c37fff925ecf711756c517e560c48c3", "lat": 38.872924166666664, "fusion_lon": 0.0, "fusion_lat": 0.0, "type": "electric_scooter", "name": "5c37fff925ecf711756c517e560c48c3", "is_disabled": 0, "rental_uris": {"ios": "https://dc.lft.to/lastmile_qr_scan", "android": "https://dc.lft.to/lastmile_qr_scan"}, "is_reserved": 0}, {"lon": -77.03183833333334, "bike_id": "f2419f34f7356c9cc7a7450634a381e0", "lat": 38.9106395, "fusion_lon": 0.0, "fusion_lat": 0.0, "type": "electric_scooter", "name": "f2419f34f7356c9cc7a7450634a381e0", "is_disabled": 0, "rental_uris": {"ios": "https://dc.lft.to/lastmile_qr_scan", "android": "https://dc.lft.to/lastmile_qr_scan"}, "is_reserved": 0}, {"lon": -77.03856066666667, "bike_id": "5487a590acd58eb044ff59178938f9f0", "lat": 38.916228833333335, "fusion_lon": 0.0, "fusion_lat": 0.0, "type": "electric_scooter", "name": "5487a590acd58eb044ff59178938f9f0", "is_disabled": 0, "rental_uris": {"ios": "https://dc.lft.to/lastmile_qr_scan", "android": "https://dc.lft.to/lastmile_qr_scan"}, "is_reserved": 0}, {"lon": -77.03210433333334, "bike_id": "1a04d1a6cbfe5859757372ae1dbc04a8", "lat": 38.939630666666666, "fusion_lon": 0.0, "fusion_lat": 0.0, "type": "electric_scooter", "name": "1a04d1a6cbfe5859757372ae1dbc04a8", "is_disabled": 0, "rental_uris": {"ios": "https://dc.lft.to/lastmile_qr_scan", "android": "https://dc.lft.to/lastmile_qr_scan"}, "is_reserved": 0}, {"lon": -77.020577, "bike_id": "7e9b8493309cfe887f2e41f033c664e6", "lat": 38.901545, "fusion_lon": 0.0, "fusion_lat": 0.0, "type": "electric_scooter", "name": "7e9b8493309cfe887f2e41f033c664e6", "is_disabled": 0, "rental_uris": {"ios": "https://dc.lft.to/lastmile_qr_scan", "android": "https://dc.lft.to/lastmile_qr_scan"}, "is_reserved": 0}, {"lon": -77.03270633333334, "bike_id": "3bfa40466b65f3c076a6b2253540009c", "lat": 38.90144816666667, "fusion_lon": 0.0, "fusion_lat": 0.0, "type": "electric_scooter", "name": "3bfa40466b65f3c076a6b2253540009c", "is_disabled": 0, "rental_uris": {"ios": "https://dc.lft.to/lastmile_qr_scan", "android": "https://dc.lft.to/lastmile_qr_scan"}, "is_reserved": 0}, {"lon": -77.11577366666667, "bike_id": "e89145140d749e36a78da6a9a9f20568", "lat": 38.993461, "fusion_lon": 0.0, "fusion_lat": 0.0, "type": "electric_bike", "name": "e89145140d749e36a78da6a9a9f20568", "is_disabled": 0, "rental_uris": {"ios": "https://dc.lft.to/lastmile_qr_scan", "android": "https://dc.lft.to/lastmile_qr_scan"}, "is_reserved": 0}, {"lon": -76.98527183333333, "bike_id": "29be0fe01966758a7426e5c17518dd56", "lat": 38.866858666666666, "fusion_lon": 0.0, "fusion_lat": 0.0, "type": "electric_scooter", "name": "29be0fe01966758a7426e5c17518dd56", "is_disabled": 0, "rental_uris": {"ios": "https://dc.lft.to/lastmile_qr_scan", "android": "https://dc.lft.to/lastmile_qr_scan"}, "is_reserved": 0}, {"lon": -77.03497133333333, "bike_id": "04049954e3cb484dcfbd7ddb7e22d9af", "lat": 38.9345905, "fusion_lon": 0.0, "fusion_lat": 0.0, "type": "electric_scooter", "name": "04049954e3cb484dcfbd7ddb7e22d9af", "is_disabled": 0, "rental_uris": {"ios": "https://dc.lft.to/lastmile_qr_scan", "android": "https://dc.lft.to/lastmile_qr_scan"}, "is_reserved": 0}, {"lon": -77.031005, "bike_id": "bce0c1f002b8be907fcae87aba71d717", "lat": 38.904492166666664, "fusion_lon": 0.0, "fusion_lat": 0.0, "type": "electric_scooter", "name": "bce0c1f002b8be907fcae87aba71d717", "is_disabled": 0, "rental_uris": {"ios": "https://dc.lft.to/lastmile_qr_scan", "android": "https://dc.lft.to/lastmile_qr_scan"}, "is_reserved": 0}, {"lon": -77.028056, "bike_id": "83a15df4f7f00607d564158979ee4cf8", "lat": 38.91704683333333, "fusion_lon": 0.0, "fusion_lat": 0.0, "type": "electric_scooter", "name": "83a15df4f7f00607d564158979ee4cf8", "is_disabled": 0, "rental_uris": {"ios": "https://dc.lft.to/lastmile_qr_scan", "android": "https://dc.lft.to/lastmile_qr_scan"}, "is_reserved": 0}, {"lon": -77.03206183333333, "bike_id": "2714b703d903544338ca9ae957e85b31", "lat": 38.91235183333333, "fusion_lon": 0.0, "fusion_lat": 0.0, "type": "electric_scooter", "name": "2714b703d903544338ca9ae957e85b31", "is_disabled": 0, "rental_uris": {"ios": "https://dc.lft.to/lastmile_qr_scan", "android": "https://dc.lft.to/lastmile_qr_scan"}, "is_reserved": 0}, {"lon": -77.13902583333333, "bike_id": "fd9d2bdd886ef0baf3fa6459d1635f91", "lat": 38.8967365, "fusion_lon": 0.0, "fusion_lat": 0.0, "type": "electric_bike", "name": "fd9d2bdd886ef0baf3fa6459d1635f91", "is_disabled": 0, "rental_uris": {"ios": "https://dc.lft.to/lastmile_qr_scan", "android": "https://dc.lft.to/lastmile_qr_scan"}, "is_reserved": 0}, {"lon": -77.027177, "bike_id": "c33750b2c45952c74eaf3139f016acf2", "lat": 38.90257616666667, "fusion_lon": 0.0, "fusion_lat": 0.0, "type": "electric_scooter", "name": "c33750b2c45952c74eaf3139f016acf2", "is_disabled": 0, "rental_uris": {"ios": "https://dc.lft.to/lastmile_qr_scan", "android": "https://dc.lft.to/lastmile_qr_scan"}, "is_reserved": 0}, {"lon": -77.0148005, "bike_id": "5e12c82b7685e0fc10c2047c2900263a", "lat": 38.9587185, "fusion_lon": 0.0, "fusion_lat": 0.0, "type": "electric_scooter", "name": "5e12c82b7685e0fc10c2047c2900263a", "is_disabled": 0, "rental_uris": {"ios": "https://dc.lft.to/lastmile_qr_scan", "android": "https://dc.lft.to/lastmile_qr_scan"}, "is_reserved": 0}, {"lon": -77.03206983333334, "bike_id": "34e23ccbf06bcc5f48605ad4f6e08ab6", "lat": 38.92170333333333, "fusion_lon": 0.0, "fusion_lat": 0.0, "type": "electric_scooter", "name": "34e23ccbf06bcc5f48605ad4f6e08ab6", "is_disabled": 0, "rental_uris": {"ios": "https://dc.lft.to/lastmile_qr_scan", "android": "https://dc.lft.to/lastmile_qr_scan"}, "is_reserved": 0}, {"lon": -77.03845266666667, "bike_id": "96411f9a4183ba40a942227c77739519", "lat": 38.9148495, "fusion_lon": 0.0, "fusion_lat": 0.0, "type": "electric_scooter", "name": "96411f9a4183ba40a942227c77739519", "is_disabled": 0, "rental_uris": {"ios": "https://dc.lft.to/lastmile_qr_scan", "android": "https://dc.lft.to/lastmile_qr_scan"}, "is_reserved": 0}, {"lon": -76.963598, "bike_id": "a04ffb8530d4a698d16016e88c26125d", "lat": 38.935008333333336, "fusion_lon": 0.0, "fusion_lat": 0.0, "type": "electric_scooter", "name": "a04ffb8530d4a698d16016e88c26125d", "is_disabled": 0, "rental_uris": {"ios": "https://dc.lft.to/lastmile_qr_scan", "android": "https://dc.lft.to/lastmile_qr_scan"}, "is_reserved": 0}, {"lon": -76.93610183333334, "bike_id": "0c2a2ec609e90c0506cf3111113a8b5b", "lat": 38.89683933333333, "fusion_lon": 0.0, "fusion_lat": 0.0, "type": "electric_scooter", "name": "0c2a2ec609e90c0506cf3111113a8b5b", "is_disabled": 0, "rental_uris": {"ios": "https://dc.lft.to/lastmile_qr_scan", "android": "https://dc.lft.to/lastmile_qr_scan"}, "is_reserved": 0}, {"lon": -77.00916133333334, "bike_id": "ca886f2c480504666b5b7d9d70caeaca", "lat": 38.827844666666664, "fusion_lon": 0.0, "fusion_lat": 0.0, "type": "electric_bike", "name": "ca886f2c480504666b5b7d9d70caeaca", "is_disabled": 0, "rental_uris": {"ios": "https://dc.lft.to/lastmile_qr_scan", "android": "https://dc.lft.to/lastmile_qr_scan"}, "is_reserved": 0}, {"lon": -77.04468366666667, "bike_id": "7dc3e70fc5d36604d4e2aa72756afcbc", "lat": 38.91884866666667, "fusion_lon": 0.0, "fusion_lat": 0.0, "type": "electric_scooter", "name": "7dc3e70fc5d36604d4e2aa72756afcbc", "is_disabled": 0, "rental_uris": {"ios": "https://dc.lft.to/lastmile_qr_scan", "android": "https://dc.lft.to/lastmile_qr_scan"}, "is_reserved": 0}, {"lon": -77.00064433333333, "bike_id": "f82388dfa7a715af531c567aef36f6bd", "lat": 38.924341, "fusion_lon": 0.0, "fusion_lat": 0.0, "type": "electric_scooter", "name": "f82388dfa7a715af531c567aef36f6bd", "is_disabled": 0, "rental_uris": {"ios": "https://dc.lft.to/lastmile_qr_scan", "android": "https://dc.lft.to/lastmile_qr_scan"}, "is_reserved": 0}, {"lon": -77.02794433333334, "bike_id": "dad02a880d2b590101a03b4c036d0be1", "lat": 38.916932833333334, "fusion_lon": 0.0, "fusion_lat": 0.0, "type": "electric_scooter", "name": "dad02a880d2b590101a03b4c036d0be1", "is_disabled": 0, "rental_uris": {"ios": "https://dc.lft.to/lastmile_qr_scan", "android": "https://dc.lft.to/lastmile_qr_scan"}, "is_reserved": 0}, {"lon": -77.04268366666666, "bike_id": "310aeaaa21e660ccd6ca56cb2ebe7290", "lat": 38.91791683333334, "fusion_lon": 0.0, "fusion_lat": 0.0, "type": "electric_scooter", "name": "310aeaaa21e660ccd6ca56cb2ebe7290", "is_disabled": 0, "rental_uris": {"ios": "https://dc.lft.to/lastmile_qr_scan", "android": "https://dc.lft.to/lastmile_qr_scan"}, "is_reserved": 0}, {"lon": -76.9761975, "bike_id": "5143287d2171dfc69182d0e0b57735ee", "lat": 38.90380916666667, "fusion_lon": 0.0, "fusion_lat": 0.0, "type": "electric_scooter", "name": "5143287d2171dfc69182d0e0b57735ee", "is_disabled": 0, "rental_uris": {"ios": "https://dc.lft.to/lastmile_qr_scan", "android": "https://dc.lft.to/lastmile_qr_scan"}, "is_reserved": 0}, {"lon": -77.0238885, "bike_id": "28b6b2577f5db2645104780682489d6a", "lat": 38.92067483333334, "fusion_lon": 0.0, "fusion_lat": 0.0, "type": "electric_scooter", "name": "28b6b2577f5db2645104780682489d6a", "is_disabled": 0, "rental_uris": {"ios": "https://dc.lft.to/lastmile_qr_scan", "android": "https://dc.lft.to/lastmile_qr_scan"}, "is_reserved": 0}, {"lon": -76.9982705, "bike_id": "053637fb35c72121a8dbba579751c33b", "lat": 38.90503733333333, "fusion_lon": 0.0, "fusion_lat": 0.0, "type": "electric_scooter", "name": "053637fb35c72121a8dbba579751c33b", "is_disabled": 0, "rental_uris": {"ios": "https://dc.lft.to/lastmile_qr_scan", "android": "https://dc.lft.to/lastmile_qr_scan"}, "is_reserved": 0}, {"lon": -77.04729416666666, "bike_id": "e5366cc42c2872992fe2c1a6477381f9", "lat": 38.9223555, "fusion_lon": 0.0, "fusion_lat": 0.0, "type": "electric_scooter", "name": "e5366cc42c2872992fe2c1a6477381f9", "is_disabled": 0, "rental_uris": {"ios": "https://dc.lft.to/lastmile_qr_scan", "android": "https://dc.lft.to/lastmile_qr_scan"}, "is_reserved": 0}, {"lon": -77.02901266666667, "bike_id": "5ba2e504be18a4efac565cf52e148b31", "lat": 38.903850166666665, "fusion_lon": 0.0, "fusion_lat": 0.0, "type": "electric_scooter", "name": "5ba2e504be18a4efac565cf52e148b31", "is_disabled": 0, "rental_uris": {"ios": "https://dc.lft.to/lastmile_qr_scan", "android": "https://dc.lft.to/lastmile_qr_scan"}, "is_reserved": 0}, {"lon": -77.05267916666666, "bike_id": "8f64363e4cf1976ac08879425314c11c", "lat": 38.899735, "fusion_lon": 0.0, "fusion_lat": 0.0, "type": "electric_scooter", "name": "8f64363e4cf1976ac08879425314c11c", "is_disabled": 0, "rental_uris": {"ios": "https://dc.lft.to/lastmile_qr_scan", "android": "https://dc.lft.to/lastmile_qr_scan"}, "is_reserved": 0}, {"lon": -77.02612833333333, "bike_id": "d0339392ae9cebc54fedbcd5cd498749", "lat": 38.929861833333334, "fusion_lon": 0.0, "fusion_lat": 0.0, "type": "electric_scooter", "name": "d0339392ae9cebc54fedbcd5cd498749", "is_disabled": 0, "rental_uris": {"ios": "https://dc.lft.to/lastmile_qr_scan", "android": "https://dc.lft.to/lastmile_qr_scan"}, "is_reserved": 0}, {"lon": -76.99681333333334, "bike_id": "2a96e34032a480cf4a6e4ab420c09b78", "lat": 38.88684883333333, "fusion_lon": 0.0, "fusion_lat": 0.0, "type": "electric_scooter", "name": "2a96e34032a480cf4a6e4ab420c09b78", "is_disabled": 0, "rental_uris": {"ios": "https://dc.lft.to/lastmile_qr_scan", "android": "https://dc.lft.to/lastmile_qr_scan"}, "is_reserved": 0}, {"lon": -77.02814433333333, "bike_id": "8e4514cac69a9ef135adc748b830d514", "lat": 38.96136816666667, "fusion_lon": 0.0, "fusion_lat": 0.0, "type": "electric_scooter", "name": "8e4514cac69a9ef135adc748b830d514", "is_disabled": 0, "rental_uris": {"ios": "https://dc.lft.to/lastmile_qr_scan", "android": "https://dc.lft.to/lastmile_qr_scan"}, "is_reserved": 0}, {"lon": -77.02470583333333, "bike_id": "20e40790b7462904fc7a3d99db0b364f", "lat": 38.9199715, "fusion_lon": 0.0, "fusion_lat": 0.0, "type": "electric_scooter", "name": "20e40790b7462904fc7a3d99db0b364f", "is_disabled": 0, "rental_uris": {"ios": "https://dc.lft.to/lastmile_qr_scan", "android": "https://dc.lft.to/lastmile_qr_scan"}, "is_reserved": 0}, {"lon": -77.03660966666666, "bike_id": "cf8bb3abc810b26e3b93050e33185521", "lat": 38.9357225, "fusion_lon": 0.0, "fusion_lat": 0.0, "type": "electric_bike", "name": "cf8bb3abc810b26e3b93050e33185521", "is_disabled": 0, "rental_uris": {"ios": "https://dc.lft.to/lastmile_qr_scan", "android": "https://dc.lft.to/lastmile_qr_scan"}, "is_reserved": 0}, {"lon": -77.0460235, "bike_id": "0e7c92140b15840039647c9b02afa471", "lat": 38.921787, "fusion_lon": 0.0, "fusion_lat": 0.0, "type": "electric_scooter", "name": "0e7c92140b15840039647c9b02afa471", "is_disabled": 0, "rental_uris": {"ios": "https://dc.lft.to/lastmile_qr_scan", "android": "https://dc.lft.to/lastmile_qr_scan"}, "is_reserved": 0}, {"lon": -77.02180916666667, "bike_id": "6594adf4a93ea0c5e7c4fefd3b7ca31a", "lat": 38.911351333333336, "fusion_lon": 0.0, "fusion_lat": 0.0, "type": "electric_scooter", "name": "6594adf4a93ea0c5e7c4fefd3b7ca31a", "is_disabled": 0, "rental_uris": {"ios": "https://dc.lft.to/lastmile_qr_scan", "android": "https://dc.lft.to/lastmile_qr_scan"}, "is_reserved": 0}, {"lon": -77.0517565, "bike_id": "f2d276db1ac50fb211f8de7b6de23d62", "lat": 38.924322833333335, "fusion_lon": 0.0, "fusion_lat": 0.0, "type": "electric_scooter", "name": "f2d276db1ac50fb211f8de7b6de23d62", "is_disabled": 0, "rental_uris": {"ios": "https://dc.lft.to/lastmile_qr_scan", "android": "https://dc.lft.to/lastmile_qr_scan"}, "is_reserved": 0}, {"lon": -76.965297, "bike_id": "47d123c4d75ecbaf3c27efda8f872ef6", "lat": 38.8762725, "fusion_lon": 0.0, "fusion_lat": 0.0, "type": "electric_scooter", "name": "47d123c4d75ecbaf3c27efda8f872ef6", "is_disabled": 0, "rental_uris": {"ios": "https://dc.lft.to/lastmile_qr_scan", "android": "https://dc.lft.to/lastmile_qr_scan"}, "is_reserved": 0}, {"lon": -77.05366316666667, "bike_id": "fc23e8f9619042287b909fe2e0127f70", "lat": 38.90395783333334, "fusion_lon": 0.0, "fusion_lat": 0.0, "type": "electric_scooter", "name": "fc23e8f9619042287b909fe2e0127f70", "is_disabled": 0, "rental_uris": {"ios": "https://dc.lft.to/lastmile_qr_scan", "android": "https://dc.lft.to/lastmile_qr_scan"}, "is_reserved": 0}, {"lon": -76.99373733333333, "bike_id": "d8a743cfbe1c8cf9d216dc4e55f134ba", "lat": 38.92399266666666, "fusion_lon": 0.0, "fusion_lat": 0.0, "type": "electric_scooter", "name": "d8a743cfbe1c8cf9d216dc4e55f134ba", "is_disabled": 0, "rental_uris": {"ios": "https://dc.lft.to/lastmile_qr_scan", "android": "https://dc.lft.to/lastmile_qr_scan"}, "is_reserved": 0}, {"lon": -77.03333383333333, "bike_id": "9e47afee2c477cdd47cce43f7235626e", "lat": 38.9389635, "fusion_lon": 0.0, "fusion_lat": 0.0, "type": "electric_scooter", "name": "9e47afee2c477cdd47cce43f7235626e", "is_disabled": 0, "rental_uris": {"ios": "https://dc.lft.to/lastmile_qr_scan", "android": "https://dc.lft.to/lastmile_qr_scan"}, "is_reserved": 0}, {"lon": -77.03667183333333, "bike_id": "70d124b7152cec914bf7ab56fbf98865", "lat": 38.90345466666667, "fusion_lon": 0.0, "fusion_lat": 0.0, "type": "electric_scooter", "name": "70d124b7152cec914bf7ab56fbf98865", "is_disabled": 0, "rental_uris": {"ios": "https://dc.lft.to/lastmile_qr_scan", "android": "https://dc.lft.to/lastmile_qr_scan"}, "is_reserved": 0}, {"lon": -77.03202466666667, "bike_id": "030d006a4dc93ca4a7314670b12e794a", "lat": 38.916166, "fusion_lon": 0.0, "fusion_lat": 0.0, "type": "electric_scooter", "name": "030d006a4dc93ca4a7314670b12e794a", "is_disabled": 0, "rental_uris": {"ios": "https://dc.lft.to/lastmile_qr_scan", "android": "https://dc.lft.to/lastmile_qr_scan"}, "is_reserved": 0}, {"lon": -76.9622005, "bike_id": "02f21d75e00446179fe28c75a7f6a1ea", "lat": 38.87784216666667, "fusion_lon": 0.0, "fusion_lat": 0.0, "type": "electric_scooter", "name": "02f21d75e00446179fe28c75a7f6a1ea", "is_disabled": 0, "rental_uris": {"ios": "https://dc.lft.to/lastmile_qr_scan", "android": "https://dc.lft.to/lastmile_qr_scan"}, "is_reserved": 0}, {"lon": -77.02774183333334, "bike_id": "75ba3d1bf02ca65d338a934b0919038f", "lat": 38.902612166666664, "fusion_lon": 0.0, "fusion_lat": 0.0, "type": "electric_scooter", "name": "75ba3d1bf02ca65d338a934b0919038f", "is_disabled": 0, "rental_uris": {"ios": "https://dc.lft.to/lastmile_qr_scan", "android": "https://dc.lft.to/lastmile_qr_scan"}, "is_reserved": 0}, {"lon": -77.02504833333333, "bike_id": "69235589f9536a3e1cfb2e0754f71d46", "lat": 38.91709, "fusion_lon": 0.0, "fusion_lat": 0.0, "type": "electric_scooter", "name": "69235589f9536a3e1cfb2e0754f71d46", "is_disabled": 0, "rental_uris": {"ios": "https://dc.lft.to/lastmile_qr_scan", "android": "https://dc.lft.to/lastmile_qr_scan"}, "is_reserved": 0}, {"lon": -77.02680516666666, "bike_id": "3c5d76ec0af5e6624f774c9a1a399fc1", "lat": 38.91255983333333, "fusion_lon": 0.0, "fusion_lat": 0.0, "type": "electric_scooter", "name": "3c5d76ec0af5e6624f774c9a1a399fc1", "is_disabled": 0, "rental_uris": {"ios": "https://dc.lft.to/lastmile_qr_scan", "android": "https://dc.lft.to/lastmile_qr_scan"}, "is_reserved": 0}, {"lon": -77.03182116666666, "bike_id": "23a830c3866d9f6fd8cc142cda71e80d", "lat": 38.90907, "fusion_lon": 0.0, "fusion_lat": 0.0, "type": "electric_scooter", "name": "23a830c3866d9f6fd8cc142cda71e80d", "is_disabled": 0, "rental_uris": {"ios": "https://dc.lft.to/lastmile_qr_scan", "android": "https://dc.lft.to/lastmile_qr_scan"}, "is_reserved": 0}, {"lon": -77.0308645, "bike_id": "f2351f3087462fdbd045dd6cac6c5a63", "lat": 38.917020666666666, "fusion_lon": 0.0, "fusion_lat": 0.0, "type": "electric_scooter", "name": "f2351f3087462fdbd045dd6cac6c5a63", "is_disabled": 0, "rental_uris": {"ios": "https://dc.lft.to/lastmile_qr_scan", "android": "https://dc.lft.to/lastmile_qr_scan"}, "is_reserved": 0}, {"lon": -77.047574, "bike_id": "84dca38c0b420178d94b122a575e51cc", "lat": 38.91764883333333, "fusion_lon": 0.0, "fusion_lat": 0.0, "type": "electric_scooter", "name": "84dca38c0b420178d94b122a575e51cc", "is_disabled": 0, "rental_uris": {"ios": "https://dc.lft.to/lastmile_qr_scan", "android": "https://dc.lft.to/lastmile_qr_scan"}, "is_reserved": 0}, {"lon": -77.02234633333333, "bike_id": "c427ada623e78f78efc2509caa59508b", "lat": 38.962034833333334, "fusion_lon": 0.0, "fusion_lat": 0.0, "type": "electric_scooter", "name": "c427ada623e78f78efc2509caa59508b", "is_disabled": 0, "rental_uris": {"ios": "https://dc.lft.to/lastmile_qr_scan", "android": "https://dc.lft.to/lastmile_qr_scan"}, "is_reserved": 0}, {"lon": -77.03246016666667, "bike_id": "f2ef3f26dc92d87a2d87e208d5bff63b", "lat": 38.915600833333336, "fusion_lon": 0.0, "fusion_lat": 0.0, "type": "electric_scooter", "name": "f2ef3f26dc92d87a2d87e208d5bff63b", "is_disabled": 0, "rental_uris": {"ios": "https://dc.lft.to/lastmile_qr_scan", "android": "https://dc.lft.to/lastmile_qr_scan"}, "is_reserved": 0}, {"lon": -76.982338, "bike_id": "edd3c98f876ccd7873018b328ea3c144", "lat": 38.9165345, "fusion_lon": 0.0, "fusion_lat": 0.0, "type": "electric_scooter", "name": "edd3c98f876ccd7873018b328ea3c144", "is_disabled": 0, "rental_uris": {"ios": "https://dc.lft.to/lastmile_qr_scan", "android": "https://dc.lft.to/lastmile_qr_scan"}, "is_reserved": 0}, {"lon": -77.0270725, "bike_id": "83a14d1c31aae8ca71e1aea9e4d64f32", "lat": 38.9066985, "fusion_lon": 0.0, "fusion_lat": 0.0, "type": "electric_scooter", "name": "83a14d1c31aae8ca71e1aea9e4d64f32", "is_disabled": 0, "rental_uris": {"ios": "https://dc.lft.to/lastmile_qr_scan", "android": "https://dc.lft.to/lastmile_qr_scan"}, "is_reserved": 0}, {"lon": -77.02347016666667, "bike_id": "15f4c359000b5081f36834eabc9607a8", "lat": 38.89622683333333, "fusion_lon": 0.0, "fusion_lat": 0.0, "type": "electric_scooter", "name": "15f4c359000b5081f36834eabc9607a8", "is_disabled": 0, "rental_uris": {"ios": "https://dc.lft.to/lastmile_qr_scan", "android": "https://dc.lft.to/lastmile_qr_scan"}, "is_reserved": 0}, {"lon": -77.0367545, "bike_id": "4e0674c3c6d29244b424c80e77a7bb06", "lat": 38.908842666666665, "fusion_lon": 0.0, "fusion_lat": 0.0, "type": "electric_scooter", "name": "4e0674c3c6d29244b424c80e77a7bb06", "is_disabled": 0, "rental_uris": {"ios": "https://dc.lft.to/lastmile_qr_scan", "android": "https://dc.lft.to/lastmile_qr_scan"}, "is_reserved": 0}, {"lon": -77.03080683333333, "bike_id": "f296e97d09c3a97a134f9a4ecd2c3333", "lat": 38.880365833333336, "fusion_lon": 0.0, "fusion_lat": 0.0, "type": "electric_scooter", "name": "f296e97d09c3a97a134f9a4ecd2c3333", "is_disabled": 0, "rental_uris": {"ios": "https://dc.lft.to/lastmile_qr_scan", "android": "https://dc.lft.to/lastmile_qr_scan"}, "is_reserved": 0}, {"lon": -77.03988883333334, "bike_id": "b2271e8d5eb87c124aa3d07a709fe94e", "lat": 38.924522333333336, "fusion_lon": 0.0, "fusion_lat": 0.0, "type": "electric_scooter", "name": "b2271e8d5eb87c124aa3d07a709fe94e", "is_disabled": 0, "rental_uris": {"ios": "https://dc.lft.to/lastmile_qr_scan", "android": "https://dc.lft.to/lastmile_qr_scan"}, "is_reserved": 0}, {"lon": -77.0208605, "bike_id": "c4474f3d3805a8f0988d1b05a02316ac", "lat": 38.89995566666666, "fusion_lon": 0.0, "fusion_lat": 0.0, "type": "electric_scooter", "name": "c4474f3d3805a8f0988d1b05a02316ac", "is_disabled": 0, "rental_uris": {"ios": "https://dc.lft.to/lastmile_qr_scan", "android": "https://dc.lft.to/lastmile_qr_scan"}, "is_reserved": 0}, {"lon": -77.04212816666667, "bike_id": "d418d06338daba5893fcb647fe04d27a", "lat": 38.921256, "fusion_lon": 0.0, "fusion_lat": 0.0, "type": "electric_scooter", "name": "d418d06338daba5893fcb647fe04d27a", "is_disabled": 0, "rental_uris": {"ios": "https://dc.lft.to/lastmile_qr_scan", "android": "https://dc.lft.to/lastmile_qr_scan"}, "is_reserved": 0}, {"lon": -77.02605033333333, "bike_id": "af7c3c3f1d3716a17853302e5cb47f44", "lat": 38.92658333333333, "fusion_lon": 0.0, "fusion_lat": 0.0, "type": "electric_scooter", "name": "af7c3c3f1d3716a17853302e5cb47f44", "is_disabled": 0, "rental_uris": {"ios": "https://dc.lft.to/lastmile_qr_scan", "android": "https://dc.lft.to/lastmile_qr_scan"}, "is_reserved": 0}, {"lon": -77.0445005, "bike_id": "5c24793b423ad1eb8f1bff7193c1fc68", "lat": 38.918776, "fusion_lon": 0.0, "fusion_lat": 0.0, "type": "electric_scooter", "name": "5c24793b423ad1eb8f1bff7193c1fc68", "is_disabled": 0, "rental_uris": {"ios": "https://dc.lft.to/lastmile_qr_scan", "android": "https://dc.lft.to/lastmile_qr_scan"}, "is_reserved": 0}, {"lon": -77.022194, "bike_id": "7a50195b5b1a6f9707a103e142734cdd", "lat": 38.940909, "fusion_lon": 0.0, "fusion_lat": 0.0, "type": "electric_scooter", "name": "7a50195b5b1a6f9707a103e142734cdd", "is_disabled": 0, "rental_uris": {"ios": "https://dc.lft.to/lastmile_qr_scan", "android": "https://dc.lft.to/lastmile_qr_scan"}, "is_reserved": 0}, {"lon": -77.03595183333333, "bike_id": "8e7b6b7ddd217471b20f59023934ade6", "lat": 38.936727833333336, "fusion_lon": 0.0, "fusion_lat": 0.0, "type": "electric_scooter", "name": "8e7b6b7ddd217471b20f59023934ade6", "is_disabled": 0, "rental_uris": {"ios": "https://dc.lft.to/lastmile_qr_scan", "android": "https://dc.lft.to/lastmile_qr_scan"}, "is_reserved": 0}, {"lon": -77.04929016666667, "bike_id": "ed264fe6654e3f707da4cddec4b7c625", "lat": 39.02930666666666, "fusion_lon": 0.0, "fusion_lat": 0.0, "type": "electric_bike", "name": "ed264fe6654e3f707da4cddec4b7c625", "is_disabled": 0, "rental_uris": {"ios": "https://dc.lft.to/lastmile_qr_scan", "android": "https://dc.lft.to/lastmile_qr_scan"}, "is_reserved": 0}, {"lon": -76.98882233333333, "bike_id": "455223626ddea80001fef59655442d3b", "lat": 38.866582, "fusion_lon": 0.0, "fusion_lat": 0.0, "type": "electric_scooter", "name": "455223626ddea80001fef59655442d3b", "is_disabled": 0, "rental_uris": {"ios": "https://dc.lft.to/lastmile_qr_scan", "android": "https://dc.lft.to/lastmile_qr_scan"}, "is_reserved": 0}, {"lon": -77.0653055, "bike_id": "2da99db7798af072e56f86a5e5f2d1f7", "lat": 38.905598166666664, "fusion_lon": 0.0, "fusion_lat": 0.0, "type": "electric_bike", "name": "2da99db7798af072e56f86a5e5f2d1f7", "is_disabled": 0, "rental_uris": {"ios": "https://dc.lft.to/lastmile_qr_scan", "android": "https://dc.lft.to/lastmile_qr_scan"}, "is_reserved": 0}, {"lon": -77.047189, "bike_id": "65241e5c4fbfbd80791572fcf0210db9", "lat": 38.903176333333334, "fusion_lon": 0.0, "fusion_lat": 0.0, "type": "electric_scooter", "name": "65241e5c4fbfbd80791572fcf0210db9", "is_disabled": 0, "rental_uris": {"ios": "https://dc.lft.to/lastmile_qr_scan", "android": "https://dc.lft.to/lastmile_qr_scan"}, "is_reserved": 0}, {"lon": -77.0304415, "bike_id": "4653f7f3f43cff6d3d976876b91b8828", "lat": 38.93715616666667, "fusion_lon": 0.0, "fusion_lat": 0.0, "type": "electric_scooter", "name": "4653f7f3f43cff6d3d976876b91b8828", "is_disabled": 0, "rental_uris": {"ios": "https://dc.lft.to/lastmile_qr_scan", "android": "https://dc.lft.to/lastmile_qr_scan"}, "is_reserved": 0}, {"lon": -77.07415383333333, "bike_id": "2ad83b00bbc922eff97dc00460e94980", "lat": 38.928897666666664, "fusion_lon": 0.0, "fusion_lat": 0.0, "type": "electric_scooter", "name": "2ad83b00bbc922eff97dc00460e94980", "is_disabled": 0, "rental_uris": {"ios": "https://dc.lft.to/lastmile_qr_scan", "android": "https://dc.lft.to/lastmile_qr_scan"}, "is_reserved": 0}, {"lon": -77.03424833333334, "bike_id": "b39d7c6a561377f164cbf1fc402637cd", "lat": 38.919273, "fusion_lon": 0.0, "fusion_lat": 0.0, "type": "electric_scooter", "name": "b39d7c6a561377f164cbf1fc402637cd", "is_disabled": 0, "rental_uris": {"ios": "https://dc.lft.to/lastmile_qr_scan", "android": "https://dc.lft.to/lastmile_qr_scan"}, "is_reserved": 0}, {"lon": -76.992561, "bike_id": "9dc70af785bd0cd74e8dfc90c7a4f3dd", "lat": 38.90292916666667, "fusion_lon": 0.0, "fusion_lat": 0.0, "type": "electric_scooter", "name": "9dc70af785bd0cd74e8dfc90c7a4f3dd", "is_disabled": 0, "rental_uris": {"ios": "https://dc.lft.to/lastmile_qr_scan", "android": "https://dc.lft.to/lastmile_qr_scan"}, "is_reserved": 0}, {"lon": -77.0319025, "bike_id": "18b15fc34dea7f5766c933223d8e8389", "lat": 38.915736833333334, "fusion_lon": 0.0, "fusion_lat": 0.0, "type": "electric_scooter", "name": "18b15fc34dea7f5766c933223d8e8389", "is_disabled": 0, "rental_uris": {"ios": "https://dc.lft.to/lastmile_qr_scan", "android": "https://dc.lft.to/lastmile_qr_scan"}, "is_reserved": 0}, {"lon": -77.02500716666667, "bike_id": "632aed580daac1fd991aef7614d29597", "lat": 38.937590166666666, "fusion_lon": 0.0, "fusion_lat": 0.0, "type": "electric_scooter", "name": "632aed580daac1fd991aef7614d29597", "is_disabled": 0, "rental_uris": {"ios": "https://dc.lft.to/lastmile_qr_scan", "android": "https://dc.lft.to/lastmile_qr_scan"}, "is_reserved": 0}, {"lon": -77.03224266666666, "bike_id": "ffc951285137ffc03b7601c72ea52b91", "lat": 38.9166495, "fusion_lon": 0.0, "fusion_lat": 0.0, "type": "electric_scooter", "name": "ffc951285137ffc03b7601c72ea52b91", "is_disabled": 0, "rental_uris": {"ios": "https://dc.lft.to/lastmile_qr_scan", "android": "https://dc.lft.to/lastmile_qr_scan"}, "is_reserved": 0}, {"lon": -76.9319125, "bike_id": "c2bb35f8fad0a1c0b41a8c8693774bec", "lat": 38.898769, "fusion_lon": 0.0, "fusion_lat": 0.0, "type": "electric_scooter", "name": "c2bb35f8fad0a1c0b41a8c8693774bec", "is_disabled": 0, "rental_uris": {"ios": "https://dc.lft.to/lastmile_qr_scan", "android": "https://dc.lft.to/lastmile_qr_scan"}, "is_reserved": 0}, {"lon": -77.02141183333333, "bike_id": "b85aaa4ad3466fc107a6ffce46c4df67", "lat": 38.8960285, "fusion_lon": 0.0, "fusion_lat": 0.0, "type": "electric_scooter", "name": "b85aaa4ad3466fc107a6ffce46c4df67", "is_disabled": 0, "rental_uris": {"ios": "https://dc.lft.to/lastmile_qr_scan", "android": "https://dc.lft.to/lastmile_qr_scan"}, "is_reserved": 0}, {"lon": -77.00318366666667, "bike_id": "904bce8495d4ae99881533859a880eea", "lat": 38.918998, "fusion_lon": 0.0, "fusion_lat": 0.0, "type": "electric_scooter", "name": "904bce8495d4ae99881533859a880eea", "is_disabled": 0, "rental_uris": {"ios": "https://dc.lft.to/lastmile_qr_scan", "android": "https://dc.lft.to/lastmile_qr_scan"}, "is_reserved": 0}, {"lon": -76.94592266666666, "bike_id": "45b18b51aec49c5e87e8d1a759e0c5b6", "lat": 38.90151016666667, "fusion_lon": 0.0, "fusion_lat": 0.0, "type": "electric_scooter", "name": "45b18b51aec49c5e87e8d1a759e0c5b6", "is_disabled": 0, "rental_uris": {"ios": "https://dc.lft.to/lastmile_qr_scan", "android": "https://dc.lft.to/lastmile_qr_scan"}, "is_reserved": 0}, {"lon": -76.98065416666667, "bike_id": "5f0708fe0311485fbd5f2a6b0de9bff6", "lat": 38.8849085, "fusion_lon": 0.0, "fusion_lat": 0.0, "type": "electric_scooter", "name": "5f0708fe0311485fbd5f2a6b0de9bff6", "is_disabled": 0, "rental_uris": {"ios": "https://dc.lft.to/lastmile_qr_scan", "android": "https://dc.lft.to/lastmile_qr_scan"}, "is_reserved": 0}, {"lon": -77.08804516666666, "bike_id": "903f48874a36c454bde737b45519445c", "lat": 38.91179533333333, "fusion_lon": 0.0, "fusion_lat": 0.0, "type": "electric_scooter", "name": "903f48874a36c454bde737b45519445c", "is_disabled": 0, "rental_uris": {"ios": "https://dc.lft.to/lastmile_qr_scan", "android": "https://dc.lft.to/lastmile_qr_scan"}, "is_reserved": 0}, {"lon": -77.084898, "bike_id": "d8b8e941d7dcafead455e7aa9daecfe6", "lat": 38.8485245, "fusion_lon": 0.0, "fusion_lat": 0.0, "type": "electric_bike", "name": "d8b8e941d7dcafead455e7aa9daecfe6", "is_disabled": 0, "rental_uris": {"ios": "https://dc.lft.to/lastmile_qr_scan", "android": "https://dc.lft.to/lastmile_qr_scan"}, "is_reserved": 0}, {"lon": -76.973974, "bike_id": "5621260eddfd1dfe622c2765f3f7bba8", "lat": 38.902991, "fusion_lon": 0.0, "fusion_lat": 0.0, "type": "electric_scooter", "name": "5621260eddfd1dfe622c2765f3f7bba8", "is_disabled": 0, "rental_uris": {"ios": "https://dc.lft.to/lastmile_qr_scan", "android": "https://dc.lft.to/lastmile_qr_scan"}, "is_reserved": 0}, {"lon": -77.03997383333333, "bike_id": "0e59c4bd8629e9adf3e7e1f373323a47", "lat": 38.93432083333333, "fusion_lon": 0.0, "fusion_lat": 0.0, "type": "electric_scooter", "name": "0e59c4bd8629e9adf3e7e1f373323a47", "is_disabled": 0, "rental_uris": {"ios": "https://dc.lft.to/lastmile_qr_scan", "android": "https://dc.lft.to/lastmile_qr_scan"}, "is_reserved": 0}, {"lon": -76.98918483333334, "bike_id": "0297203e8420ea1e589a705ad547febf", "lat": 38.8649375, "fusion_lon": 0.0, "fusion_lat": 0.0, "type": "electric_scooter", "name": "0297203e8420ea1e589a705ad547febf", "is_disabled": 0, "rental_uris": {"ios": "https://dc.lft.to/lastmile_qr_scan", "android": "https://dc.lft.to/lastmile_qr_scan"}, "is_reserved": 0}, {"lon": -77.0255935, "bike_id": "f8bb3b4fa8b0f76a5bb5286e273ca6ce", "lat": 38.89554583333334, "fusion_lon": 0.0, "fusion_lat": 0.0, "type": "electric_scooter", "name": "f8bb3b4fa8b0f76a5bb5286e273ca6ce", "is_disabled": 0, "rental_uris": {"ios": "https://dc.lft.to/lastmile_qr_scan", "android": "https://dc.lft.to/lastmile_qr_scan"}, "is_reserved": 0}, {"lon": -77.029705, "bike_id": "693838cb8be82de20c3c98db16eafeb0", "lat": 38.912721, "fusion_lon": 0.0, "fusion_lat": 0.0, "type": "electric_scooter", "name": "693838cb8be82de20c3c98db16eafeb0", "is_disabled": 0, "rental_uris": {"ios": "https://dc.lft.to/lastmile_qr_scan", "android": "https://dc.lft.to/lastmile_qr_scan"}, "is_reserved": 0}, {"lon": -77.03870583333334, "bike_id": "e15a5f8a6b50f7a40ec1074956bb80b2", "lat": 38.921536333333336, "fusion_lon": 0.0, "fusion_lat": 0.0, "type": "electric_scooter", "name": "e15a5f8a6b50f7a40ec1074956bb80b2", "is_disabled": 0, "rental_uris": {"ios": "https://dc.lft.to/lastmile_qr_scan", "android": "https://dc.lft.to/lastmile_qr_scan"}, "is_reserved": 0}, {"lon": -77.02692116666667, "bike_id": "89522f94015d21905724dee85536624f", "lat": 38.9181765, "fusion_lon": 0.0, "fusion_lat": 0.0, "type": "electric_scooter", "name": "89522f94015d21905724dee85536624f", "is_disabled": 0, "rental_uris": {"ios": "https://dc.lft.to/lastmile_qr_scan", "android": "https://dc.lft.to/lastmile_qr_scan"}, "is_reserved": 0}, {"lon": -77.04880233333333, "bike_id": "1c75885efdc2df089c9cb4006356888c", "lat": 38.905947833333336, "fusion_lon": 0.0, "fusion_lat": 0.0, "type": "electric_scooter", "name": "1c75885efdc2df089c9cb4006356888c", "is_disabled": 0, "rental_uris": {"ios": "https://dc.lft.to/lastmile_qr_scan", "android": "https://dc.lft.to/lastmile_qr_scan"}, "is_reserved": 0}, {"lon": -76.98748366666666, "bike_id": "434d6234d67c52170cdad25523a99e33", "lat": 38.9002835, "fusion_lon": 0.0, "fusion_lat": 0.0, "type": "electric_scooter", "name": "434d6234d67c52170cdad25523a99e33", "is_disabled": 0, "rental_uris": {"ios": "https://dc.lft.to/lastmile_qr_scan", "android": "https://dc.lft.to/lastmile_qr_scan"}, "is_reserved": 0}, {"lon": -76.97240616666667, "bike_id": "5d995d58fd7800be78ed2496798cd462", "lat": 38.903457333333336, "fusion_lon": 0.0, "fusion_lat": 0.0, "type": "electric_scooter", "name": "5d995d58fd7800be78ed2496798cd462", "is_disabled": 0, "rental_uris": {"ios": "https://dc.lft.to/lastmile_qr_scan", "android": "https://dc.lft.to/lastmile_qr_scan"}, "is_reserved": 0}, {"lon": -76.99704833333334, "bike_id": "babe118d2b7b374d3dec769ce778f65f", "lat": 38.84435416666667, "fusion_lon": 0.0, "fusion_lat": 0.0, "type": "electric_scooter", "name": "babe118d2b7b374d3dec769ce778f65f", "is_disabled": 0, "rental_uris": {"ios": "https://dc.lft.to/lastmile_qr_scan", "android": "https://dc.lft.to/lastmile_qr_scan"}, "is_reserved": 0}, {"lon": -77.017384, "bike_id": "95dbecb520e4dc3c047d589a718a2f75", "lat": 38.88203883333333, "fusion_lon": 0.0, "fusion_lat": 0.0, "type": "electric_scooter", "name": "95dbecb520e4dc3c047d589a718a2f75", "is_disabled": 0, "rental_uris": {"ios": "https://dc.lft.to/lastmile_qr_scan", "android": "https://dc.lft.to/lastmile_qr_scan"}, "is_reserved": 0}, {"lon": -77.03210933333334, "bike_id": "aade8d09ff48f078ed7179e21016858a", "lat": 38.91394583333334, "fusion_lon": 0.0, "fusion_lat": 0.0, "type": "electric_scooter", "name": "aade8d09ff48f078ed7179e21016858a", "is_disabled": 0, "rental_uris": {"ios": "https://dc.lft.to/lastmile_qr_scan", "android": "https://dc.lft.to/lastmile_qr_scan"}, "is_reserved": 0}, {"lon": -77.0053795, "bike_id": "5b2f7227cf1d9508d4fa0857c4866f9a", "lat": 38.8754575, "fusion_lon": 0.0, "fusion_lat": 0.0, "type": "electric_scooter", "name": "5b2f7227cf1d9508d4fa0857c4866f9a", "is_disabled": 0, "rental_uris": {"ios": "https://dc.lft.to/lastmile_qr_scan", "android": "https://dc.lft.to/lastmile_qr_scan"}, "is_reserved": 0}, {"lon": -77.01836516666667, "bike_id": "b69603ca0de1fc327c3a0c4f1eba2175", "lat": 38.90931833333333, "fusion_lon": 0.0, "fusion_lat": 0.0, "type": "electric_scooter", "name": "b69603ca0de1fc327c3a0c4f1eba2175", "is_disabled": 0, "rental_uris": {"ios": "https://dc.lft.to/lastmile_qr_scan", "android": "https://dc.lft.to/lastmile_qr_scan"}, "is_reserved": 0}, {"lon": -76.978905, "bike_id": "3c239aaf36cf19c9f480083dcc19fb64", "lat": 38.88539033333333, "fusion_lon": 0.0, "fusion_lat": 0.0, "type": "electric_scooter", "name": "3c239aaf36cf19c9f480083dcc19fb64", "is_disabled": 0, "rental_uris": {"ios": "https://dc.lft.to/lastmile_qr_scan", "android": "https://dc.lft.to/lastmile_qr_scan"}, "is_reserved": 0}, {"lon": -76.98559833333333, "bike_id": "5310cf66457d39b456c37ea3b1418930", "lat": 38.9071665, "fusion_lon": 0.0, "fusion_lat": 0.0, "type": "electric_scooter", "name": "5310cf66457d39b456c37ea3b1418930", "is_disabled": 0, "rental_uris": {"ios": "https://dc.lft.to/lastmile_qr_scan", "android": "https://dc.lft.to/lastmile_qr_scan"}, "is_reserved": 0}, {"lon": -76.98336533333334, "bike_id": "8233b2a62ace9537958bcef212547bbc", "lat": 38.895449666666664, "fusion_lon": 0.0, "fusion_lat": 0.0, "type": "electric_scooter", "name": "8233b2a62ace9537958bcef212547bbc", "is_disabled": 0, "rental_uris": {"ios": "https://dc.lft.to/lastmile_qr_scan", "android": "https://dc.lft.to/lastmile_qr_scan"}, "is_reserved": 0}, {"lon": -77.23320233333334, "bike_id": "32e5bcf3676902ebc41cefbe43a9dcb6", "lat": 38.872842166666665, "fusion_lon": 0.0, "fusion_lat": 0.0, "type": "electric_bike", "name": "32e5bcf3676902ebc41cefbe43a9dcb6", "is_disabled": 0, "rental_uris": {"ios": "https://dc.lft.to/lastmile_qr_scan", "android": "https://dc.lft.to/lastmile_qr_scan"}, "is_reserved": 0}, {"lon": -77.00885583333333, "bike_id": "640db801e19fe25523b4631691036939", "lat": 38.922806333333334, "fusion_lon": 0.0, "fusion_lat": 0.0, "type": "electric_scooter", "name": "640db801e19fe25523b4631691036939", "is_disabled": 0, "rental_uris": {"ios": "https://dc.lft.to/lastmile_qr_scan", "android": "https://dc.lft.to/lastmile_qr_scan"}, "is_reserved": 0}, {"lon": -77.02832766666667, "bike_id": "79bc530b1e5b085c2c8eb51f084cc3f7", "lat": 38.88729583333333, "fusion_lon": 0.0, "fusion_lat": 0.0, "type": "electric_scooter", "name": "79bc530b1e5b085c2c8eb51f084cc3f7", "is_disabled": 0, "rental_uris": {"ios": "https://dc.lft.to/lastmile_qr_scan", "android": "https://dc.lft.to/lastmile_qr_scan"}, "is_reserved": 0}, {"lon": -77.02870833333333, "bike_id": "e606fd001f2f5ce99b70ce92f9df35bd", "lat": 38.904278166666664, "fusion_lon": 0.0, "fusion_lat": 0.0, "type": "electric_scooter", "name": "e606fd001f2f5ce99b70ce92f9df35bd", "is_disabled": 0, "rental_uris": {"ios": "https://dc.lft.to/lastmile_qr_scan", "android": "https://dc.lft.to/lastmile_qr_scan"}, "is_reserved": 0}, {"lon": -76.97297866666666, "bike_id": "8d3e70e9b37b9f9b311914b1736209f3", "lat": 38.9164515, "fusion_lon": 0.0, "fusion_lat": 0.0, "type": "electric_bike", "name": "8d3e70e9b37b9f9b311914b1736209f3", "is_disabled": 0, "rental_uris": {"ios": "https://dc.lft.to/lastmile_qr_scan", "android": "https://dc.lft.to/lastmile_qr_scan"}, "is_reserved": 0}, {"lon": -77.2333185, "bike_id": "7ed341a26c4413c8affa7d6f98011716", "lat": 38.872742333333335, "fusion_lon": 0.0, "fusion_lat": 0.0, "type": "electric_bike", "name": "7ed341a26c4413c8affa7d6f98011716", "is_disabled": 0, "rental_uris": {"ios": "https://dc.lft.to/lastmile_qr_scan", "android": "https://dc.lft.to/lastmile_qr_scan"}, "is_reserved": 0}, {"lon": -76.965421, "bike_id": "710e98ff0bdb741d8a9550ece8709b55", "lat": 38.918389166666664, "fusion_lon": 0.0, "fusion_lat": 0.0, "type": "electric_scooter", "name": "710e98ff0bdb741d8a9550ece8709b55", "is_disabled": 0, "rental_uris": {"ios": "https://dc.lft.to/lastmile_qr_scan", "android": "https://dc.lft.to/lastmile_qr_scan"}, "is_reserved": 0}, {"lon": -77.00290166666667, "bike_id": "27381bd5218d9112b70a20c1ed082460", "lat": 38.9058395, "fusion_lon": 0.0, "fusion_lat": 0.0, "type": "electric_scooter", "name": "27381bd5218d9112b70a20c1ed082460", "is_disabled": 0, "rental_uris": {"ios": "https://dc.lft.to/lastmile_qr_scan", "android": "https://dc.lft.to/lastmile_qr_scan"}, "is_reserved": 0}, {"lon": -77.05896533333333, "bike_id": "430ca392a0dc06bce3ff4069fcac2efc", "lat": 38.936085, "fusion_lon": 0.0, "fusion_lat": 0.0, "type": "electric_scooter", "name": "430ca392a0dc06bce3ff4069fcac2efc", "is_disabled": 0, "rental_uris": {"ios": "https://dc.lft.to/lastmile_qr_scan", "android": "https://dc.lft.to/lastmile_qr_scan"}, "is_reserved": 0}, {"lon": -77.02157733333334, "bike_id": "3b87c51bacad9d37e2ca1cf94cac7695", "lat": 38.926029166666666, "fusion_lon": 0.0, "fusion_lat": 0.0, "type": "electric_scooter", "name": "3b87c51bacad9d37e2ca1cf94cac7695", "is_disabled": 0, "rental_uris": {"ios": "https://dc.lft.to/lastmile_qr_scan", "android": "https://dc.lft.to/lastmile_qr_scan"}, "is_reserved": 0}, {"lon": -76.98924366666667, "bike_id": "018c2dc5d48039713018dd2e5ddd9ad7", "lat": 38.882108833333334, "fusion_lon": 0.0, "fusion_lat": 0.0, "type": "electric_scooter", "name": "018c2dc5d48039713018dd2e5ddd9ad7", "is_disabled": 0, "rental_uris": {"ios": "https://dc.lft.to/lastmile_qr_scan", "android": "https://dc.lft.to/lastmile_qr_scan"}, "is_reserved": 0}, {"lon": -77.043112, "bike_id": "33c0376afec57d31fb35932810e71d2b", "lat": 38.92370066666667, "fusion_lon": 0.0, "fusion_lat": 0.0, "type": "electric_scooter", "name": "33c0376afec57d31fb35932810e71d2b", "is_disabled": 0, "rental_uris": {"ios": "https://dc.lft.to/lastmile_qr_scan", "android": "https://dc.lft.to/lastmile_qr_scan"}, "is_reserved": 0}, {"lon": -77.0352545, "bike_id": "cbf7e7c4d23d94d5be75462eb8c281c5", "lat": 38.90681433333334, "fusion_lon": 0.0, "fusion_lat": 0.0, "type": "electric_scooter", "name": "cbf7e7c4d23d94d5be75462eb8c281c5", "is_disabled": 0, "rental_uris": {"ios": "https://dc.lft.to/lastmile_qr_scan", "android": "https://dc.lft.to/lastmile_qr_scan"}, "is_reserved": 0}, {"lon": -76.98523016666667, "bike_id": "ff6c452edfdcb2071fcbff92dd1ae6df", "lat": 38.866884666666664, "fusion_lon": 0.0, "fusion_lat": 0.0, "type": "electric_scooter", "name": "ff6c452edfdcb2071fcbff92dd1ae6df", "is_disabled": 0, "rental_uris": {"ios": "https://dc.lft.to/lastmile_qr_scan", "android": "https://dc.lft.to/lastmile_qr_scan"}, "is_reserved": 0}, {"lon": -77.00004833333334, "bike_id": "7ec523627faed45f7974d531a378dfb3", "lat": 38.92448916666667, "fusion_lon": 0.0, "fusion_lat": 0.0, "type": "electric_scooter", "name": "7ec523627faed45f7974d531a378dfb3", "is_disabled": 0, "rental_uris": {"ios": "https://dc.lft.to/lastmile_qr_scan", "android": "https://dc.lft.to/lastmile_qr_scan"}, "is_reserved": 0}, {"lon": -76.9500445, "bike_id": "e335fc206903c074000a8c470dcec255", "lat": 38.89378833333333, "fusion_lon": 0.0, "fusion_lat": 0.0, "type": "electric_scooter", "name": "e335fc206903c074000a8c470dcec255", "is_disabled": 0, "rental_uris": {"ios": "https://dc.lft.to/lastmile_qr_scan", "android": "https://dc.lft.to/lastmile_qr_scan"}, "is_reserved": 0}, {"lon": -76.98881716666666, "bike_id": "eed806817c961d85810599a9bcbe5dcd", "lat": 38.866623, "fusion_lon": 0.0, "fusion_lat": 0.0, "type": "electric_scooter", "name": "eed806817c961d85810599a9bcbe5dcd", "is_disabled": 0, "rental_uris": {"ios": "https://dc.lft.to/lastmile_qr_scan", "android": "https://dc.lft.to/lastmile_qr_scan"}, "is_reserved": 0}, {"lon": -77.02177833333333, "bike_id": "bc8a0caaf903d8bc3e5d0df4060085c8", "lat": 38.90959466666666, "fusion_lon": 0.0, "fusion_lat": 0.0, "type": "electric_scooter", "name": "bc8a0caaf903d8bc3e5d0df4060085c8", "is_disabled": 0, "rental_uris": {"ios": "https://dc.lft.to/lastmile_qr_scan", "android": "https://dc.lft.to/lastmile_qr_scan"}, "is_reserved": 0}, {"lon": -77.038339, "bike_id": "904c2e841ec8d1dfd667ad36ede2f5b8", "lat": 38.90982733333333, "fusion_lon": 0.0, "fusion_lat": 0.0, "type": "electric_scooter", "name": "904c2e841ec8d1dfd667ad36ede2f5b8", "is_disabled": 0, "rental_uris": {"ios": "https://dc.lft.to/lastmile_qr_scan", "android": "https://dc.lft.to/lastmile_qr_scan"}, "is_reserved": 0}, {"lon": -77.01993733333333, "bike_id": "b0cbb959c4354f5bb8c1b1afe1d43e25", "lat": 38.93100033333333, "fusion_lon": 0.0, "fusion_lat": 0.0, "type": "electric_scooter", "name": "b0cbb959c4354f5bb8c1b1afe1d43e25", "is_disabled": 0, "rental_uris": {"ios": "https://dc.lft.to/lastmile_qr_scan", "android": "https://dc.lft.to/lastmile_qr_scan"}, "is_reserved": 0}, {"lon": -77.005744, "bike_id": "c1078751b4b684ab4ebe8294e2f8fb48", "lat": 38.87236983333333, "fusion_lon": 0.0, "fusion_lat": 0.0, "type": "electric_scooter", "name": "c1078751b4b684ab4ebe8294e2f8fb48", "is_disabled": 0, "rental_uris": {"ios": "https://dc.lft.to/lastmile_qr_scan", "android": "https://dc.lft.to/lastmile_qr_scan"}, "is_reserved": 0}, {"lon": -77.02792933333333, "bike_id": "470826f534df4c8068184ea60f55893a", "lat": 38.93079083333333, "fusion_lon": 0.0, "fusion_lat": 0.0, "type": "electric_scooter", "name": "470826f534df4c8068184ea60f55893a", "is_disabled": 0, "rental_uris": {"ios": "https://dc.lft.to/lastmile_qr_scan", "android": "https://dc.lft.to/lastmile_qr_scan"}, "is_reserved": 0}, {"lon": -77.01496633333333, "bike_id": "d128bb6848360b168d5803facf3490ab", "lat": 38.91767133333333, "fusion_lon": 0.0, "fusion_lat": 0.0, "type": "electric_scooter", "name": "d128bb6848360b168d5803facf3490ab", "is_disabled": 0, "rental_uris": {"ios": "https://dc.lft.to/lastmile_qr_scan", "android": "https://dc.lft.to/lastmile_qr_scan"}, "is_reserved": 0}, {"lon": -77.0290565, "bike_id": "480526e51887fe8743acf12da9311443", "lat": 38.928153333333334, "fusion_lon": 0.0, "fusion_lat": 0.0, "type": "electric_scooter", "name": "480526e51887fe8743acf12da9311443", "is_disabled": 0, "rental_uris": {"ios": "https://dc.lft.to/lastmile_qr_scan", "android": "https://dc.lft.to/lastmile_qr_scan"}, "is_reserved": 0}, {"lon": -77.03850116666666, "bike_id": "bada2dafe3de009f9e4cd9b1fcdd260c", "lat": 38.9323335, "fusion_lon": 0.0, "fusion_lat": 0.0, "type": "electric_scooter", "name": "bada2dafe3de009f9e4cd9b1fcdd260c", "is_disabled": 0, "rental_uris": {"ios": "https://dc.lft.to/lastmile_qr_scan", "android": "https://dc.lft.to/lastmile_qr_scan"}, "is_reserved": 0}, {"lon": -77.02133366666666, "bike_id": "fabe69598c4322906740b0689f2a70bc", "lat": 38.916042166666664, "fusion_lon": 0.0, "fusion_lat": 0.0, "type": "electric_scooter", "name": "fabe69598c4322906740b0689f2a70bc", "is_disabled": 0, "rental_uris": {"ios": "https://dc.lft.to/lastmile_qr_scan", "android": "https://dc.lft.to/lastmile_qr_scan"}, "is_reserved": 0}, {"lon": -76.99877733333334, "bike_id": "29fc58071169885e7bdbfecf2b8c1601", "lat": 38.901295166666664, "fusion_lon": 0.0, "fusion_lat": 0.0, "type": "electric_scooter", "name": "29fc58071169885e7bdbfecf2b8c1601", "is_disabled": 0, "rental_uris": {"ios": "https://dc.lft.to/lastmile_qr_scan", "android": "https://dc.lft.to/lastmile_qr_scan"}, "is_reserved": 0}, {"lon": -77.04545166666666, "bike_id": "9438af393655ac0668639b422e12c9ac", "lat": 38.9133725, "fusion_lon": 0.0, "fusion_lat": 0.0, "type": "electric_scooter", "name": "9438af393655ac0668639b422e12c9ac", "is_disabled": 0, "rental_uris": {"ios": "https://dc.lft.to/lastmile_qr_scan", "android": "https://dc.lft.to/lastmile_qr_scan"}, "is_reserved": 0}, {"lon": -77.032804, "bike_id": "739d158e7319f347d450d0197ec74dff", "lat": 38.9198825, "fusion_lon": 0.0, "fusion_lat": 0.0, "type": "electric_scooter", "name": "739d158e7319f347d450d0197ec74dff", "is_disabled": 0, "rental_uris": {"ios": "https://dc.lft.to/lastmile_qr_scan", "android": "https://dc.lft.to/lastmile_qr_scan"}, "is_reserved": 0}, {"lon": -77.03629666666667, "bike_id": "36e10c072946ee5af3e813e9d8deabda", "lat": 38.9449755, "fusion_lon": 0.0, "fusion_lat": 0.0, "type": "electric_scooter", "name": "36e10c072946ee5af3e813e9d8deabda", "is_disabled": 0, "rental_uris": {"ios": "https://dc.lft.to/lastmile_qr_scan", "android": "https://dc.lft.to/lastmile_qr_scan"}, "is_reserved": 0}, {"lon": -76.98103316666666, "bike_id": "d16d4eb3d881f1a6106659a1df585c46", "lat": 38.904117666666664, "fusion_lon": 0.0, "fusion_lat": 0.0, "type": "electric_scooter", "name": "d16d4eb3d881f1a6106659a1df585c46", "is_disabled": 0, "rental_uris": {"ios": "https://dc.lft.to/lastmile_qr_scan", "android": "https://dc.lft.to/lastmile_qr_scan"}, "is_reserved": 0}, {"lon": -76.9862845, "bike_id": "2c06dc999c6e7688f6abfff0d64a6316", "lat": 38.901634, "fusion_lon": 0.0, "fusion_lat": 0.0, "type": "electric_scooter", "name": "2c06dc999c6e7688f6abfff0d64a6316", "is_disabled": 0, "rental_uris": {"ios": "https://dc.lft.to/lastmile_qr_scan", "android": "https://dc.lft.to/lastmile_qr_scan"}, "is_reserved": 0}, {"lon": -77.02981483333333, "bike_id": "00fda3376b0847e12adbe482c68f4ef4", "lat": 38.9393265, "fusion_lon": 0.0, "fusion_lat": 0.0, "type": "electric_scooter", "name": "00fda3376b0847e12adbe482c68f4ef4", "is_disabled": 0, "rental_uris": {"ios": "https://dc.lft.to/lastmile_qr_scan", "android": "https://dc.lft.to/lastmile_qr_scan"}, "is_reserved": 0}, {"lon": -77.02247816666667, "bike_id": "ba9176aad503c3619c267cb56c17c1ef", "lat": 38.92274916666667, "fusion_lon": 0.0, "fusion_lat": 0.0, "type": "electric_scooter", "name": "ba9176aad503c3619c267cb56c17c1ef", "is_disabled": 0, "rental_uris": {"ios": "https://dc.lft.to/lastmile_qr_scan", "android": "https://dc.lft.to/lastmile_qr_scan"}, "is_reserved": 0}, {"lon": -76.96530466666667, "bike_id": "fbf7aa20a069fb7ac134a0d7c57210f3", "lat": 38.876247166666666, "fusion_lon": 0.0, "fusion_lat": 0.0, "type": "electric_scooter", "name": "fbf7aa20a069fb7ac134a0d7c57210f3", "is_disabled": 0, "rental_uris": {"ios": "https://dc.lft.to/lastmile_qr_scan", "android": "https://dc.lft.to/lastmile_qr_scan"}, "is_reserved": 0}, {"lon": -77.03166533333334, "bike_id": "5a6d45d99e1aa5b804b28a1d8189acb5", "lat": 38.91418016666667, "fusion_lon": 0.0, "fusion_lat": 0.0, "type": "electric_scooter", "name": "5a6d45d99e1aa5b804b28a1d8189acb5", "is_disabled": 0, "rental_uris": {"ios": "https://dc.lft.to/lastmile_qr_scan", "android": "https://dc.lft.to/lastmile_qr_scan"}, "is_reserved": 0}, {"lon": -76.98689733333333, "bike_id": "634c19e4603215332b85aec7d9ee258b", "lat": 38.912878666666664, "fusion_lon": 0.0, "fusion_lat": 0.0, "type": "electric_bike", "name": "634c19e4603215332b85aec7d9ee258b", "is_disabled": 0, "rental_uris": {"ios": "https://dc.lft.to/lastmile_qr_scan", "android": "https://dc.lft.to/lastmile_qr_scan"}, "is_reserved": 0}, {"lon": -77.02191666666667, "bike_id": "a65891ed268684f36e1702a158e32639", "lat": 38.9112815, "fusion_lon": 0.0, "fusion_lat": 0.0, "type": "electric_scooter", "name": "a65891ed268684f36e1702a158e32639", "is_disabled": 0, "rental_uris": {"ios": "https://dc.lft.to/lastmile_qr_scan", "android": "https://dc.lft.to/lastmile_qr_scan"}, "is_reserved": 0}, {"lon": -77.04114883333334, "bike_id": "c463aa210b151312fa19a02d351aefdb", "lat": 38.934859333333335, "fusion_lon": 0.0, "fusion_lat": 0.0, "type": "electric_scooter", "name": "c463aa210b151312fa19a02d351aefdb", "is_disabled": 0, "rental_uris": {"ios": "https://dc.lft.to/lastmile_qr_scan", "android": "https://dc.lft.to/lastmile_qr_scan"}, "is_reserved": 0}, {"lon": -77.03953716666666, "bike_id": "d849bfdee2836694ca26dc7c30ae9d5d", "lat": 38.915620833333335, "fusion_lon": 0.0, "fusion_lat": 0.0, "type": "electric_scooter", "name": "d849bfdee2836694ca26dc7c30ae9d5d", "is_disabled": 0, "rental_uris": {"ios": "https://dc.lft.to/lastmile_qr_scan", "android": "https://dc.lft.to/lastmile_qr_scan"}, "is_reserved": 0}, {"lon": -77.02392133333333, "bike_id": "5040a048994634dfc4932425fb263b9c", "lat": 38.931085333333336, "fusion_lon": 0.0, "fusion_lat": 0.0, "type": "electric_scooter", "name": "5040a048994634dfc4932425fb263b9c", "is_disabled": 0, "rental_uris": {"ios": "https://dc.lft.to/lastmile_qr_scan", "android": "https://dc.lft.to/lastmile_qr_scan"}, "is_reserved": 0}, {"lon": -76.9787285, "bike_id": "ea224f0ceeb5094c9490305723aa11f6", "lat": 38.883007166666665, "fusion_lon": 0.0, "fusion_lat": 0.0, "type": "electric_scooter", "name": "ea224f0ceeb5094c9490305723aa11f6", "is_disabled": 0, "rental_uris": {"ios": "https://dc.lft.to/lastmile_qr_scan", "android": "https://dc.lft.to/lastmile_qr_scan"}, "is_reserved": 0}, {"lon": -77.008927, "bike_id": "bc3cc98bd7a303054fc25e7837c724cb", "lat": 38.89763883333333, "fusion_lon": 0.0, "fusion_lat": 0.0, "type": "electric_scooter", "name": "bc3cc98bd7a303054fc25e7837c724cb", "is_disabled": 0, "rental_uris": {"ios": "https://dc.lft.to/lastmile_qr_scan", "android": "https://dc.lft.to/lastmile_qr_scan"}, "is_reserved": 0}, {"lon": -77.03911983333333, "bike_id": "c51c6993a613489a4498b75463911178", "lat": 38.91405233333333, "fusion_lon": 0.0, "fusion_lat": 0.0, "type": "electric_scooter", "name": "c51c6993a613489a4498b75463911178", "is_disabled": 0, "rental_uris": {"ios": "https://dc.lft.to/lastmile_qr_scan", "android": "https://dc.lft.to/lastmile_qr_scan"}, "is_reserved": 0}, {"lon": -77.04403516666666, "bike_id": "6eed14be7aff8c044f292b06e9a8c461", "lat": 38.93323766666666, "fusion_lon": 0.0, "fusion_lat": 0.0, "type": "electric_scooter", "name": "6eed14be7aff8c044f292b06e9a8c461", "is_disabled": 0, "rental_uris": {"ios": "https://dc.lft.to/lastmile_qr_scan", "android": "https://dc.lft.to/lastmile_qr_scan"}, "is_reserved": 0}, {"lon": -77.03184316666666, "bike_id": "8d3e408e2f8de4fa9a9a6b9b1fb6f55b", "lat": 38.912738833333336, "fusion_lon": 0.0, "fusion_lat": 0.0, "type": "electric_scooter", "name": "8d3e408e2f8de4fa9a9a6b9b1fb6f55b", "is_disabled": 0, "rental_uris": {"ios": "https://dc.lft.to/lastmile_qr_scan", "android": "https://dc.lft.to/lastmile_qr_scan"}, "is_reserved": 0}, {"lon": -77.03253966666666, "bike_id": "b551ca67f87e864dd54566b7b148b72b", "lat": 38.92943966666667, "fusion_lon": 0.0, "fusion_lat": 0.0, "type": "electric_scooter", "name": "b551ca67f87e864dd54566b7b148b72b", "is_disabled": 0, "rental_uris": {"ios": "https://dc.lft.to/lastmile_qr_scan", "android": "https://dc.lft.to/lastmile_qr_scan"}, "is_reserved": 0}, {"lon": -77.0077845, "bike_id": "22fe962b81b1b7765f5c97edc2c58cd4", "lat": 38.9065505, "fusion_lon": 0.0, "fusion_lat": 0.0, "type": "electric_scooter", "name": "22fe962b81b1b7765f5c97edc2c58cd4", "is_disabled": 0, "rental_uris": {"ios": "https://dc.lft.to/lastmile_qr_scan", "android": "https://dc.lft.to/lastmile_qr_scan"}, "is_reserved": 0}, {"lon": -77.0231275, "bike_id": "dad6ddf3325599fe811bf3ee3563c5a7", "lat": 38.909592333333336, "fusion_lon": 0.0, "fusion_lat": 0.0, "type": "electric_scooter", "name": "dad6ddf3325599fe811bf3ee3563c5a7", "is_disabled": 0, "rental_uris": {"ios": "https://dc.lft.to/lastmile_qr_scan", "android": "https://dc.lft.to/lastmile_qr_scan"}, "is_reserved": 0}, {"lon": -76.9275615, "bike_id": "0912f8acb1f38adb3996fe328027b83c", "lat": 38.880584999999996, "fusion_lon": 0.0, "fusion_lat": 0.0, "type": "electric_scooter", "name": "0912f8acb1f38adb3996fe328027b83c", "is_disabled": 0, "rental_uris": {"ios": "https://dc.lft.to/lastmile_qr_scan", "android": "https://dc.lft.to/lastmile_qr_scan"}, "is_reserved": 0}, {"lon": -77.03184583333334, "bike_id": "4f16b2ee7a184c3b5d79ff078459930e", "lat": 38.911227833333335, "fusion_lon": 0.0, "fusion_lat": 0.0, "type": "electric_scooter", "name": "4f16b2ee7a184c3b5d79ff078459930e", "is_disabled": 0, "rental_uris": {"ios": "https://dc.lft.to/lastmile_qr_scan", "android": "https://dc.lft.to/lastmile_qr_scan"}, "is_reserved": 0}, {"lon": -77.0527755, "bike_id": "24c0a71dc2bfa806f229dff94d4ea635", "lat": 38.910086166666666, "fusion_lon": 0.0, "fusion_lat": 0.0, "type": "electric_scooter", "name": "24c0a71dc2bfa806f229dff94d4ea635", "is_disabled": 0, "rental_uris": {"ios": "https://dc.lft.to/lastmile_qr_scan", "android": "https://dc.lft.to/lastmile_qr_scan"}, "is_reserved": 0}, {"lon": -77.02269433333333, "bike_id": "c4fd1e509c01f505fcaa8300ceba1c25", "lat": 38.93770683333334, "fusion_lon": 0.0, "fusion_lat": 0.0, "type": "electric_scooter", "name": "c4fd1e509c01f505fcaa8300ceba1c25", "is_disabled": 0, "rental_uris": {"ios": "https://dc.lft.to/lastmile_qr_scan", "android": "https://dc.lft.to/lastmile_qr_scan"}, "is_reserved": 0}, {"lon": -77.027957, "bike_id": "0138c9ba0c1efb6b792fcf878c19f1a4", "lat": 38.956835, "fusion_lon": 0.0, "fusion_lat": 0.0, "type": "electric_scooter", "name": "0138c9ba0c1efb6b792fcf878c19f1a4", "is_disabled": 0, "rental_uris": {"ios": "https://dc.lft.to/lastmile_qr_scan", "android": "https://dc.lft.to/lastmile_qr_scan"}, "is_reserved": 0}, {"lon": -77.05241083333334, "bike_id": "becdf0e7ca84c1ae2e46937067b5ca84", "lat": 38.924666333333334, "fusion_lon": 0.0, "fusion_lat": 0.0, "type": "electric_scooter", "name": "becdf0e7ca84c1ae2e46937067b5ca84", "is_disabled": 0, "rental_uris": {"ios": "https://dc.lft.to/lastmile_qr_scan", "android": "https://dc.lft.to/lastmile_qr_scan"}, "is_reserved": 0}, {"lon": -77.03255783333333, "bike_id": "073b5bd0b64a098200aed88f4d357129", "lat": 38.91815783333333, "fusion_lon": 0.0, "fusion_lat": 0.0, "type": "electric_scooter", "name": "073b5bd0b64a098200aed88f4d357129", "is_disabled": 0, "rental_uris": {"ios": "https://dc.lft.to/lastmile_qr_scan", "android": "https://dc.lft.to/lastmile_qr_scan"}, "is_reserved": 0}, {"lon": -77.02410016666667, "bike_id": "d81a8bd281ff27a01c7481f00de3fb67", "lat": 38.934013666666665, "fusion_lon": 0.0, "fusion_lat": 0.0, "type": "electric_scooter", "name": "d81a8bd281ff27a01c7481f00de3fb67", "is_disabled": 0, "rental_uris": {"ios": "https://dc.lft.to/lastmile_qr_scan", "android": "https://dc.lft.to/lastmile_qr_scan"}, "is_reserved": 0}, {"lon": -77.02599533333333, "bike_id": "a17cf780f7f37da4b2a68cebc72c7a6e", "lat": 38.9185225, "fusion_lon": 0.0, "fusion_lat": 0.0, "type": "electric_scooter", "name": "a17cf780f7f37da4b2a68cebc72c7a6e", "is_disabled": 0, "rental_uris": {"ios": "https://dc.lft.to/lastmile_qr_scan", "android": "https://dc.lft.to/lastmile_qr_scan"}, "is_reserved": 0}, {"lon": -77.04251733333334, "bike_id": "f4e8f39ca28b3a65dddc6e95249effcd", "lat": 38.92643483333333, "fusion_lon": 0.0, "fusion_lat": 0.0, "type": "electric_scooter", "name": "f4e8f39ca28b3a65dddc6e95249effcd", "is_disabled": 0, "rental_uris": {"ios": "https://dc.lft.to/lastmile_qr_scan", "android": "https://dc.lft.to/lastmile_qr_scan"}, "is_reserved": 0}, {"lon": -77.038654, "bike_id": "e1311385c5a5d2d7d4c1843c4ce5796f", "lat": 38.94504, "fusion_lon": 0.0, "fusion_lat": 0.0, "type": "electric_scooter", "name": "e1311385c5a5d2d7d4c1843c4ce5796f", "is_disabled": 0, "rental_uris": {"ios": "https://dc.lft.to/lastmile_qr_scan", "android": "https://dc.lft.to/lastmile_qr_scan"}, "is_reserved": 0}, {"lon": -77.0366985, "bike_id": "7a18683807af63b889f7d2c4563c5771", "lat": 38.919065833333335, "fusion_lon": 0.0, "fusion_lat": 0.0, "type": "electric_scooter", "name": "7a18683807af63b889f7d2c4563c5771", "is_disabled": 0, "rental_uris": {"ios": "https://dc.lft.to/lastmile_qr_scan", "android": "https://dc.lft.to/lastmile_qr_scan"}, "is_reserved": 0}, {"lon": -77.032198, "bike_id": "ba993a109f90c606329a37321ef54c11", "lat": 38.9140615, "fusion_lon": 0.0, "fusion_lat": 0.0, "type": "electric_scooter", "name": "ba993a109f90c606329a37321ef54c11", "is_disabled": 0, "rental_uris": {"ios": "https://dc.lft.to/lastmile_qr_scan", "android": "https://dc.lft.to/lastmile_qr_scan"}, "is_reserved": 0}, {"lon": -76.99839483333334, "bike_id": "8b613bef605a71b838c47e10ad259ba2", "lat": 38.902168333333336, "fusion_lon": 0.0, "fusion_lat": 0.0, "type": "electric_scooter", "name": "8b613bef605a71b838c47e10ad259ba2", "is_disabled": 0, "rental_uris": {"ios": "https://dc.lft.to/lastmile_qr_scan", "android": "https://dc.lft.to/lastmile_qr_scan"}, "is_reserved": 0}, {"lon": -77.02661933333333, "bike_id": "e39dea25a47f54ab539459707f1c729c", "lat": 38.91702333333333, "fusion_lon": 0.0, "fusion_lat": 0.0, "type": "electric_scooter", "name": "e39dea25a47f54ab539459707f1c729c", "is_disabled": 0, "rental_uris": {"ios": "https://dc.lft.to/lastmile_qr_scan", "android": "https://dc.lft.to/lastmile_qr_scan"}, "is_reserved": 0}, {"lon": -76.95368866666666, "bike_id": "5d1f9da1cee08e35690839a5b6bba52e", "lat": 38.89204216666667, "fusion_lon": 0.0, "fusion_lat": 0.0, "type": "electric_scooter", "name": "5d1f9da1cee08e35690839a5b6bba52e", "is_disabled": 0, "rental_uris": {"ios": "https://dc.lft.to/lastmile_qr_scan", "android": "https://dc.lft.to/lastmile_qr_scan"}, "is_reserved": 0}, {"lon": -77.03884983333333, "bike_id": "e4e99f8b65667f16cbd03ce64dc77529", "lat": 38.910021666666665, "fusion_lon": 0.0, "fusion_lat": 0.0, "type": "electric_scooter", "name": "e4e99f8b65667f16cbd03ce64dc77529", "is_disabled": 0, "rental_uris": {"ios": "https://dc.lft.to/lastmile_qr_scan", "android": "https://dc.lft.to/lastmile_qr_scan"}, "is_reserved": 0}, {"lon": -77.01939816666666, "bike_id": "dbe15accae6539e14afd7e5483f5649f", "lat": 38.93590983333333, "fusion_lon": 0.0, "fusion_lat": 0.0, "type": "electric_bike", "name": "dbe15accae6539e14afd7e5483f5649f", "is_disabled": 0, "rental_uris": {"ios": "https://dc.lft.to/lastmile_qr_scan", "android": "https://dc.lft.to/lastmile_qr_scan"}, "is_reserved": 0}, {"lon": -76.98097116666666, "bike_id": "96e5f384d1e96e2d15ec8095d367c291", "lat": 38.895512333333336, "fusion_lon": 0.0, "fusion_lat": 0.0, "type": "electric_scooter", "name": "96e5f384d1e96e2d15ec8095d367c291", "is_disabled": 0, "rental_uris": {"ios": "https://dc.lft.to/lastmile_qr_scan", "android": "https://dc.lft.to/lastmile_qr_scan"}, "is_reserved": 0}, {"lon": -76.998678, "bike_id": "1eb0aa3352fe35d86dfde2d56b8fab92", "lat": 38.90018766666667, "fusion_lon": 0.0, "fusion_lat": 0.0, "type": "electric_scooter", "name": "1eb0aa3352fe35d86dfde2d56b8fab92", "is_disabled": 0, "rental_uris": {"ios": "https://dc.lft.to/lastmile_qr_scan", "android": "https://dc.lft.to/lastmile_qr_scan"}, "is_reserved": 0}, {"lon": -76.961539, "bike_id": "d358cd2a0364f8562a7e7838f3b199bf", "lat": 38.88357166666667, "fusion_lon": 0.0, "fusion_lat": 0.0, "type": "electric_scooter", "name": "d358cd2a0364f8562a7e7838f3b199bf", "is_disabled": 0, "rental_uris": {"ios": "https://dc.lft.to/lastmile_qr_scan", "android": "https://dc.lft.to/lastmile_qr_scan"}, "is_reserved": 0}, {"lon": -77.00578783333333, "bike_id": "fd6f98c0eb6a5d28ddac8a95b7192461", "lat": 38.884387333333336, "fusion_lon": 0.0, "fusion_lat": 0.0, "type": "electric_scooter", "name": "fd6f98c0eb6a5d28ddac8a95b7192461", "is_disabled": 0, "rental_uris": {"ios": "https://dc.lft.to/lastmile_qr_scan", "android": "https://dc.lft.to/lastmile_qr_scan"}, "is_reserved": 0}, {"lon": -77.02615866666666, "bike_id": "2101aee5229f15777a761da6b53dd92f", "lat": 38.91416066666667, "fusion_lon": 0.0, "fusion_lat": 0.0, "type": "electric_scooter", "name": "2101aee5229f15777a761da6b53dd92f", "is_disabled": 0, "rental_uris": {"ios": "https://dc.lft.to/lastmile_qr_scan", "android": "https://dc.lft.to/lastmile_qr_scan"}, "is_reserved": 0}, {"lon": -76.98988883333334, "bike_id": "8f3a0945384de7ea70235baec68e7dcc", "lat": 38.933634, "fusion_lon": 0.0, "fusion_lat": 0.0, "type": "electric_scooter", "name": "8f3a0945384de7ea70235baec68e7dcc", "is_disabled": 0, "rental_uris": {"ios": "https://dc.lft.to/lastmile_qr_scan", "android": "https://dc.lft.to/lastmile_qr_scan"}, "is_reserved": 0}, {"lon": -77.02163433333334, "bike_id": "c081937bdf74639ce499f684a4b2d920", "lat": 38.95074816666666, "fusion_lon": 0.0, "fusion_lat": 0.0, "type": "electric_scooter", "name": "c081937bdf74639ce499f684a4b2d920", "is_disabled": 0, "rental_uris": {"ios": "https://dc.lft.to/lastmile_qr_scan", "android": "https://dc.lft.to/lastmile_qr_scan"}, "is_reserved": 0}, {"lon": -77.03466583333334, "bike_id": "542fb6a0a61669ceaf42071a94baf113", "lat": 38.921560166666666, "fusion_lon": 0.0, "fusion_lat": 0.0, "type": "electric_scooter", "name": "542fb6a0a61669ceaf42071a94baf113", "is_disabled": 0, "rental_uris": {"ios": "https://dc.lft.to/lastmile_qr_scan", "android": "https://dc.lft.to/lastmile_qr_scan"}, "is_reserved": 0},