{"data": {"bikes": [{"rental_uris": {"ios": "https://dc.lft.to/lastmile_qr_scan", "android": "https://dc.lft.to/lastmile_qr_scan"}, "lat": 38.9068815, "lon": -77.0004565, "fusion_lat": 0.0, "name": "de4598a7bb57883f5c5e22dec3a6c2fe", "is_disabled": 0, "is_reserved": 0, "bike_id": "de4598a7bb57883f5c5e22dec3a6c2fe", "fusion_lon": 0.0, "type": "electric_scooter"}, {"rental_uris": {"ios": "https://dc.lft.to/lastmile_qr_scan", "android": "https://dc.lft.to/lastmile_qr_scan"}, "lat": 38.90385466666667, "lon": -77.03637, "fusion_lat": 0.0, "name": "d5babafceeaa69bea7c87ca2f2ec41ea", "is_disabled": 0, "is_reserved": 0, "bike_id": "d5babafceeaa69bea7c87ca2f2ec41ea", "fusion_lon": 0.0, "type": "electric_scooter"}, {"rental_uris": {"ios": "https://dc.lft.to/lastmile_qr_scan", "android": "https://dc.lft.to/lastmile_qr_scan"}, "lat": 38.91913816666667, "lon": -77.01350116666667, "fusion_lat": 0.0, "name": "7173604c8c6db534156afe29b9238af9", "is_disabled": 0, "is_reserved": 0, "bike_id": "7173604c8c6db534156afe29b9238af9", "fusion_lon": 0.0, "type": "electric_scooter"}, {"rental_uris": {"ios": "https://dc.lft.to/lastmile_qr_scan", "android": "https://dc.lft.to/lastmile_qr_scan"}, "lat": 38.91841816666667, "lon": -77.04830483333333, "fusion_lat": 0.0, "name": "99603517cbf2f6d3d5ee6ef92411d318", "is_disabled": 0, "is_reserved": 0, "bike_id": "99603517cbf2f6d3d5ee6ef92411d318", "fusion_lon": 0.0, "type": "electric_scooter"}, {"rental_uris": {"ios": "https://dc.lft.to/lastmile_qr_scan", "android": "https://dc.lft.to/lastmile_qr_scan"}, "lat": 38.9019055, "lon": -76.9788175, "fusion_lat": 0.0, "name": "bd41321defd9b0e3d6ae176d444ac5ed", "is_disabled": 0, "is_reserved": 0, "bike_id": "bd41321defd9b0e3d6ae176d444ac5ed", "fusion_lon": 0.0, "type": "electric_scooter"}, {"rental_uris": {"ios": "https://dc.lft.to/lastmile_qr_scan", "android": "https://dc.lft.to/lastmile_qr_scan"}, "lat": 38.90100733333333, "lon": -77.02719966666666, "fusion_lat": 0.0, "name": "1ba756892394a035d46c4ecceb82085e", "is_disabled": 0, "is_reserved": 0, "bike_id": "1ba756892394a035d46c4ecceb82085e", "fusion_lon": 0.0, "type": "electric_scooter"}, {"rental_uris": {"ios": "https://dc.lft.to/lastmile_qr_scan", "android": "https://dc.lft.to/lastmile_qr_scan"}, "lat": 38.915353333333336, "lon": -76.98345533333334, "fusion_lat": 0.0, "name": "04502228d01504de3627c6e007a6d8aa", "is_disabled": 0, "is_reserved": 0, "bike_id": "04502228d01504de3627c6e007a6d8aa", "fusion_lon": 0.0, "type": "electric_scooter"}, {"rental_uris": {"ios": "https://dc.lft.to/lastmile_qr_scan", "android": "https://dc.lft.to/lastmile_qr_scan"}, "lat": 38.9342855, "lon": -77.02845833333333, "fusion_lat": 0.0, "name": "7e6889aeb9d883569bf1ec6832150622", "is_disabled": 0, "is_reserved": 0, "bike_id": "7e6889aeb9d883569bf1ec6832150622", "fusion_lon": 0.0, "type": "electric_scooter"}, {"rental_uris": {"ios": "https://dc.lft.to/lastmile_qr_scan", "android": "https://dc.lft.to/lastmile_qr_scan"}, "lat": 38.92701066666667, "lon": -77.0206995, "fusion_lat": 0.0, "name": "5f6a725a6c6348c85431549b9b4d862a", "is_disabled": 0, "is_reserved": 0, "bike_id": "5f6a725a6c6348c85431549b9b4d862a", "fusion_lon": 0.0, "type": "electric_scooter"}, {"rental_uris": {"ios": "https://dc.lft.to/lastmile_qr_scan", "android": "https://dc.lft.to/lastmile_qr_scan"}, "lat": 38.91871883333334, "lon": -76.99945566666666, "fusion_lat": 0.0, "name": "46971d6017689f6eca31361302279384", "is_disabled": 0, "is_reserved": 0, "bike_id": "46971d6017689f6eca31361302279384", "fusion_lon": 0.0, "type": "electric_scooter"}, {"rental_uris": {"ios": "https://dc.lft.to/lastmile_qr_scan", "android": "https://dc.lft.to/lastmile_qr_scan"}, "lat": 38.89225283333333, "lon": -77.031637, "fusion_lat": 0.0, "name": "db48744b375a2450b6aa6a20ef93743d", "is_disabled": 0, "is_reserved": 0, "bike_id": "db48744b375a2450b6aa6a20ef93743d", "fusion_lon": 0.0, "type": "electric_scooter"}, {"rental_uris": {"ios": "https://dc.lft.to/lastmile_qr_scan", "android": "https://dc.lft.to/lastmile_qr_scan"}, "lat": 38.92692533333334, "lon": -77.02296616666666, "fusion_lat": 0.0, "name": "a346a4f0d15a6cbbe430a55c5b922178", "is_disabled": 0, "is_reserved": 0, "bike_id": "a346a4f0d15a6cbbe430a55c5b922178", "fusion_lon": 0.0, "type": "electric_scooter"}, {"rental_uris": {"ios": "https://dc.lft.to/lastmile_qr_scan", "android": "https://dc.lft.to/lastmile_qr_scan"}, "lat": 38.91267933333334, "lon": -77.01681716666667, "fusion_lat": 0.0, "name": "ac52038a3198a13e930014aaaefedd55", "is_disabled": 0, "is_reserved": 0, "bike_id": "ac52038a3198a13e930014aaaefedd55", "fusion_lon": 0.0, "type": "electric_scooter"}, {"rental_uris": {"ios": "https://dc.lft.to/lastmile_qr_scan", "android": "https://dc.lft.to/lastmile_qr_scan"}, "lat": 38.92361916666667, "lon": -77.05042216666666, "fusion_lat": 0.0, "name": "b7d2e9807e18bf3f9b809fc2b23c480d", "is_disabled": 0, "is_reserved": 0, "bike_id": "b7d2e9807e18bf3f9b809fc2b23c480d", "fusion_lon": 0.0, "type": "electric_scooter"}, {"rental_uris": {"ios": "https://dc.lft.to/lastmile_qr_scan", "android": "https://dc.lft.to/lastmile_qr_scan"}, "lat": 38.9051005, "lon": -77.017034, "fusion_lat": 0.0, "name": "5f1c78ca343fcbb417437d4cd76726bd", "is_disabled": 0, "is_reserved": 0, "bike_id": "5f1c78ca343fcbb417437d4cd76726bd", "fusion_lon": 0.0, "type": "electric_scooter"}, {"rental_uris": {"ios": "https://dc.lft.to/lastmile_qr_scan", "android": "https://dc.lft.to/lastmile_qr_scan"}, "lat": 38.9072885, "lon": -77.023741, "fusion_lat": 0.0, "name": "2c231146a738c2aa29a051211b7e4c6e", "is_disabled": 0, "is_reserved": 0, "bike_id": "2c231146a738c2aa29a051211b7e4c6e", "fusion_lon": 0.0, "type": "electric_scooter"}, {"rental_uris": {"ios": "https://dc.lft.to/lastmile_qr_scan", "android": "https://dc.lft.to/lastmile_qr_scan"}, "lat": 38.866853666666664, "lon": -76.98568933333334, "fusion_lat": 0.0, "name": "97cbc6e70e690de17e914caf8552aaec", "is_disabled": 0, "is_reserved": 0, "bike_id": "97cbc6e70e690de17e914caf8552aaec", "fusion_lon": 0.0, "type": "electric_scooter"}, {"rental_uris": {"ios": "https://dc.lft.to/lastmile_qr_scan", "android": "https://dc.lft.to/lastmile_qr_scan"}, "lat": 38.918885, "lon": -77.02470533333333, "fusion_lat": 0.0, "name": "c28112d1a0212e6023b05490d7ee86ee", "is_disabled": 0, "is_reserved": 0, "bike_id": "c28112d1a0212e6023b05490d7ee86ee", "fusion_lon": 0.0, "type": "electric_scooter"}, {"rental_uris": {"ios": "https://dc.lft.to/lastmile_qr_scan", "android": "https://dc.lft.to/lastmile_qr_scan"}, "lat": 38.91943366666667, "lon": -77.00326266666667, "fusion_lat": 0.0, "name": "aa92827867d073ffa1122559d767b4a4", "is_disabled": 0, "is_reserved": 0, "bike_id": "aa92827867d073ffa1122559d767b4a4", "fusion_lon": 0.0, "type": "electric_scooter"}, {"rental_uris": {"ios": "https://dc.lft.to/lastmile_qr_scan", "android": "https://dc.lft.to/lastmile_qr_scan"}, "lat": 38.91562533333333, "lon": -77.01196483333334, "fusion_lat": 0.0, "name": "42a0c8f528a4c230b8237df35fb6798c", "is_disabled": 0, "is_reserved": 0, "bike_id": "42a0c8f528a4c230b8237df35fb6798c", "fusion_lon": 0.0, "type": "electric_scooter"}, {"rental_uris": {"ios": "https://dc.lft.to/lastmile_qr_scan", "android": "https://dc.lft.to/lastmile_qr_scan"}, "lat": 38.88748066666667, "lon": -77.02569883333334, "fusion_lat": 0.0, "name": "4c052473a6e9645530162b96fa919218", "is_disabled": 0, "is_reserved": 0, "bike_id": "4c052473a6e9645530162b96fa919218", "fusion_lon": 0.0, "type": "electric_scooter"}, {"rental_uris": {"ios": "https://dc.lft.to/lastmile_qr_scan", "android": "https://dc.lft.to/lastmile_qr_scan"}, "lat": 38.8884785, "lon": -76.92680666666666, "fusion_lat": 0.0, "name": "0294320418487360ef73467016efddb8", "is_disabled": 0, "is_reserved": 0, "bike_id": "0294320418487360ef73467016efddb8", "fusion_lon": 0.0, "type": "electric_scooter"}, {"rental_uris": {"ios": "https://dc.lft.to/lastmile_qr_scan", "android": "https://dc.lft.to/lastmile_qr_scan"}, "lat": 38.88136183333334, "lon": -77.02259316666667, "fusion_lat": 0.0, "name": "5a5e306f551dffa94e4ca739292350e4", "is_disabled": 0, "is_reserved": 0, "bike_id": "5a5e306f551dffa94e4ca739292350e4", "fusion_lon": 0.0, "type": "electric_scooter"}, {"rental_uris": {"ios": "https://dc.lft.to/lastmile_qr_scan", "android": "https://dc.lft.to/lastmile_qr_scan"}, "lat": 38.878644, "lon": -76.969826, "fusion_lat": 0.0, "name": "11a0c5dbdfa9e9ca2524a898b92c5210", "is_disabled": 0, "is_reserved": 0, "bike_id": "11a0c5dbdfa9e9ca2524a898b92c5210", "fusion_lon": 0.0, "type": "electric_scooter"}, {"rental_uris": {"ios": "https://dc.lft.to/lastmile_qr_scan", "android": "https://dc.lft.to/lastmile_qr_scan"}, "lat": 38.874191333333336, "lon": -76.96907483333334, "fusion_lat": 0.0, "name": "6ebe211190d593bd9c902812da25aa81", "is_disabled": 0, "is_reserved": 0, "bike_id": "6ebe211190d593bd9c902812da25aa81", "fusion_lon": 0.0, "type": "electric_scooter"}, {"rental_uris": {"ios": "https://dc.lft.to/lastmile_qr_scan", "android": "https://dc.lft.to/lastmile_qr_scan"}, "lat": 38.853169666666666, "lon": -76.98017666666667, "fusion_lat": 0.0, "name": "96438961a44a307afe891471aefd1cef", "is_disabled": 0, "is_reserved": 0, "bike_id": "96438961a44a307afe891471aefd1cef", "fusion_lon": 0.0, "type": "electric_scooter"}, {"rental_uris": {"ios": "https://dc.lft.to/lastmile_qr_scan", "android": "https://dc.lft.to/lastmile_qr_scan"}, "lat": 38.9128995, "lon": -77.02393683333334, "fusion_lat": 0.0, "name": "63fe89dec585840146b35d7d29b86f5f", "is_disabled": 0, "is_reserved": 0, "bike_id": "63fe89dec585840146b35d7d29b86f5f", "fusion_lon": 0.0, "type": "electric_scooter"}, {"rental_uris": {"ios": "https://dc.lft.to/lastmile_qr_scan", "android": "https://dc.lft.to/lastmile_qr_scan"}, "lat": 38.906757999999996, "lon": -77.070215, "fusion_lat": 0.0, "name": "0d9b4c35b35952783fe56ea325a38629", "is_disabled": 0, "is_reserved": 0, "bike_id": "0d9b4c35b35952783fe56ea325a38629", "fusion_lon": 0.0, "type": "electric_scooter"}, {"rental_uris": {"ios": "https://dc.lft.to/lastmile_qr_scan", "android": "https://dc.lft.to/lastmile_qr_scan"}, "lat": 38.947873333333334, "lon": -77.02131566666667, "fusion_lat": 0.0, "name": "fcb3d1ef1d07662bf7deaeb8fd28ec6b", "is_disabled": 0, "is_reserved": 0, "bike_id": "fcb3d1ef1d07662bf7deaeb8fd28ec6b", "fusion_lon": 0.0, "type": "electric_scooter"}, {"rental_uris": {"ios": "https://dc.lft.to/lastmile_qr_scan", "android": "https://dc.lft.to/lastmile_qr_scan"}, "lat": 38.84523516666667, "lon": -76.97399483333334, "fusion_lat": 0.0, "name": "220f16f19b6f62f6d89eb1181cfc5f28", "is_disabled": 0, "is_reserved": 0, "bike_id": "220f16f19b6f62f6d89eb1181cfc5f28", "fusion_lon": 0.0, "type": "electric_bike"}, {"rental_uris": {"ios": "https://dc.lft.to/lastmile_qr_scan", "android": "https://dc.lft.to/lastmile_qr_scan"}, "lat": 38.897628166666664, "lon": -77.03038866666667, "fusion_lat": 0.0, "name": "d6489558365b5e0b34e26adacde8c218", "is_disabled": 0, "is_reserved": 0, "bike_id": "d6489558365b5e0b34e26adacde8c218", "fusion_lon": 0.0, "type": "electric_scooter"}, {"rental_uris": {"ios": "https://dc.lft.to/lastmile_qr_scan", "android": "https://dc.lft.to/lastmile_qr_scan"}, "lat": 38.892253333333336, "lon": -77.04008333333333, "fusion_lat": 0.0, "name": "7c24c87ea36bf7d9a8bc151520a666dd", "is_disabled": 0, "is_reserved": 0, "bike_id": "7c24c87ea36bf7d9a8bc151520a666dd", "fusion_lon": 0.0, "type": "electric_scooter"}, {"rental_uris": {"ios": "https://dc.lft.to/lastmile_qr_scan", "android": "https://dc.lft.to/lastmile_qr_scan"}, "lat": 38.99004016666667, "lon": -77.00443566666667, "fusion_lat": 0.0, "name": "0252e564a253d910eec0af55b1ae4bc7", "is_disabled": 0, "is_reserved": 0, "bike_id": "0252e564a253d910eec0af55b1ae4bc7", "fusion_lon": 0.0, "type": "electric_bike"}, {"rental_uris": {"ios": "https://dc.lft.to/lastmile_qr_scan", "android": "https://dc.lft.to/lastmile_qr_scan"}, "lat": 38.89422316666667, "lon": -77.03203816666667, "fusion_lat": 0.0, "name": "729287b39584c4e3e40755a66ca7d777", "is_disabled": 0, "is_reserved": 0, "bike_id": "729287b39584c4e3e40755a66ca7d777", "fusion_lon": 0.0, "type": "electric_scooter"}, {"rental_uris": {"ios": "https://dc.lft.to/lastmile_qr_scan", "android": "https://dc.lft.to/lastmile_qr_scan"}, "lat": 38.91816166666667, "lon": -77.03169283333334, "fusion_lat": 0.0, "name": "1d64c5bdcb008711f950364d7f0c5786", "is_disabled": 0, "is_reserved": 0, "bike_id": "1d64c5bdcb008711f950364d7f0c5786", "fusion_lon": 0.0, "type": "electric_scooter"}, {"rental_uris": {"ios": "https://dc.lft.to/lastmile_qr_scan", "android": "https://dc.lft.to/lastmile_qr_scan"}, "lat": 38.91010516666667, "lon": -76.99866316666666, "fusion_lat": 0.0, "name": "c21b1802b63261448f1908cb51752695", "is_disabled": 0, "is_reserved": 0, "bike_id": "c21b1802b63261448f1908cb51752695", "fusion_lon": 0.0, "type": "electric_scooter"}, {"rental_uris": {"ios": "https://dc.lft.to/lastmile_qr_scan", "android": "https://dc.lft.to/lastmile_qr_scan"}, "lat": 38.900279166666664, "lon": -77.04139766666667, "fusion_lat": 0.0, "name": "a86ca129da5fc7db83e7fb18836d11c3", "is_disabled": 0, "is_reserved": 0, "bike_id": "a86ca129da5fc7db83e7fb18836d11c3", "fusion_lon": 0.0, "type": "electric_scooter"}, {"rental_uris": {"ios": "https://dc.lft.to/lastmile_qr_scan", "android": "https://dc.lft.to/lastmile_qr_scan"}, "lat": 38.88733633333333, "lon": -77.02831816666666, "fusion_lat": 0.0, "name": "22ddb6bc1c676258f839f2b22c1bc4c1", "is_disabled": 0, "is_reserved": 0, "bike_id": "22ddb6bc1c676258f839f2b22c1bc4c1", "fusion_lon": 0.0, "type": "electric_scooter"}, {"rental_uris": {"ios": "https://dc.lft.to/lastmile_qr_scan", "android": "https://dc.lft.to/lastmile_qr_scan"}, "lat": 38.892244166666664, "lon": -77.0161475, "fusion_lat": 0.0, "name": "128b55735f3e0d7cdf40d069f41c8ec4", "is_disabled": 0, "is_reserved": 0, "bike_id": "128b55735f3e0d7cdf40d069f41c8ec4", "fusion_lon": 0.0, "type": "electric_scooter"}, {"rental_uris": {"ios": "https://dc.lft.to/lastmile_qr_scan", "android": "https://dc.lft.to/lastmile_qr_scan"}, "lat": 38.906017166666665, "lon": -77.00673266666666, "fusion_lat": 0.0, "name": "29f51cd8b7b4744ce4e0fe1297d57759", "is_disabled": 0, "is_reserved": 0, "bike_id": "29f51cd8b7b4744ce4e0fe1297d57759", "fusion_lon": 0.0, "type": "electric_scooter"}, {"rental_uris": {"ios": "https://dc.lft.to/lastmile_qr_scan", "android": "https://dc.lft.to/lastmile_qr_scan"}, "lat": 38.89810333333333, "lon": -77.01215466666666, "fusion_lat": 0.0, "name": "bcb80d8b572905452d275ce2f8832ed6", "is_disabled": 0, "is_reserved": 0, "bike_id": "bcb80d8b572905452d275ce2f8832ed6", "fusion_lon": 0.0, "type": "electric_scooter"}, {"rental_uris": {"ios": "https://dc.lft.to/lastmile_qr_scan", "android": "https://dc.lft.to/lastmile_qr_scan"}, "lat": 38.928964666666666, "lon": -77.03256066666667, "fusion_lat": 0.0, "name": "5942a62ce3dd88709b4e7646ebf794f3", "is_disabled": 0, "is_reserved": 0, "bike_id": "5942a62ce3dd88709b4e7646ebf794f3", "fusion_lon": 0.0, "type": "electric_scooter"}, {"rental_uris": {"ios": "https://dc.lft.to/lastmile_qr_scan", "android": "https://dc.lft.to/lastmile_qr_scan"}, "lat": 38.89739483333334, "lon": -77.026892, "fusion_lat": 0.0, "name": "b84f2fa1a258fa4e5c2fc9ad4b4eff31", "is_disabled": 0, "is_reserved": 0, "bike_id": "b84f2fa1a258fa4e5c2fc9ad4b4eff31", "fusion_lon": 0.0, "type": "electric_scooter"}, {"rental_uris": {"ios": "https://dc.lft.to/lastmile_qr_scan", "android": "https://dc.lft.to/lastmile_qr_scan"}, "lat": 38.921576333333334, "lon": -77.03317266666667, "fusion_lat": 0.0, "name": "2bc7b585b24713967766aea544565529", "is_disabled": 0, "is_reserved": 0, "bike_id": "2bc7b585b24713967766aea544565529", "fusion_lon": 0.0, "type": "electric_scooter"}, {"rental_uris": {"ios": "https://dc.lft.to/lastmile_qr_scan", "android": "https://dc.lft.to/lastmile_qr_scan"}, "lat": 38.894627, "lon": -77.00340866666667, "fusion_lat": 0.0, "name": "dfaa9b09502ecc88183bb61bcc956d82", "is_disabled": 0, "is_reserved": 0, "bike_id": "dfaa9b09502ecc88183bb61bcc956d82", "fusion_lon": 0.0, "type": "electric_scooter"}, {"rental_uris": {"ios": "https://dc.lft.to/lastmile_qr_scan", "android": "https://dc.lft.to/lastmile_qr_scan"}, "lat": 38.908673666666665, "lon": -76.99778383333333, "fusion_lat": 0.0, "name": "3e6f77d2a0e9cc906b6fd68652725302", "is_disabled": 0, "is_reserved": 0, "bike_id": "3e6f77d2a0e9cc906b6fd68652725302", "fusion_lon": 0.0, "type": "electric_scooter"}, {"rental_uris": {"ios": "https://dc.lft.to/lastmile_qr_scan", "android": "https://dc.lft.to/lastmile_qr_scan"}, "lat": 38.90339633333333, "lon": -76.98514283333333, "fusion_lat": 0.0, "name": "16780380a220e7e7e4f567f5df96ddc8", "is_disabled": 0, "is_reserved": 0, "bike_id": "16780380a220e7e7e4f567f5df96ddc8", "fusion_lon": 0.0, "type": "electric_scooter"}, {"rental_uris": {"ios": "https://dc.lft.to/lastmile_qr_scan", "android": "https://dc.lft.to/lastmile_qr_scan"}, "lat": 38.91566183333333, "lon": -77.0428175, "fusion_lat": 0.0, "name": "f16fbeaad85f839faa4cf431fc96504f", "is_disabled": 0, "is_reserved": 0, "bike_id": "f16fbeaad85f839faa4cf431fc96504f", "fusion_lon": 0.0, "type": "electric_scooter"}, {"rental_uris": {"ios": "https://dc.lft.to/lastmile_qr_scan", "android": "https://dc.lft.to/lastmile_qr_scan"}, "lat": 38.83579916666667, "lon": -77.00120916666667, "fusion_lat": 0.0, "name": "42ae0bceb184952e01ad21e1c9fd2aef", "is_disabled": 0, "is_reserved": 0, "bike_id": "42ae0bceb184952e01ad21e1c9fd2aef", "fusion_lon": 0.0, "type": "electric_scooter"}, {"rental_uris": {"ios": "https://dc.lft.to/lastmile_qr_scan", "android": "https://dc.lft.to/lastmile_qr_scan"}, "lat": 38.90843383333333, "lon": -77.03473116666666, "fusion_lat": 0.0, "name": "7721cd4476f559fdfee7eb0847b3e1e9", "is_disabled": 0, "is_reserved": 0, "bike_id": "7721cd4476f559fdfee7eb0847b3e1e9", "fusion_lon": 0.0, "type": "electric_scooter"}, {"rental_uris": {"ios": "https://dc.lft.to/lastmile_qr_scan", "android": "https://dc.lft.to/lastmile_qr_scan"}, "lat": 38.920073333333335, "lon": -77.02170333333333, "fusion_lat": 0.0, "name": "6b88699ec8e34ad55591e1952ffd7267", "is_disabled": 0, "is_reserved": 0, "bike_id": "6b88699ec8e34ad55591e1952ffd7267", "fusion_lon": 0.0, "type": "electric_scooter"}, {"rental_uris": {"ios": "https://dc.lft.to/lastmile_qr_scan", "android": "https://dc.lft.to/lastmile_qr_scan"}, "lat": 38.88601416666667, "lon": -76.9955415, "fusion_lat": 0.0, "name": "842a58921cb6d6103a3decb1c00b5f86", "is_disabled": 0, "is_reserved": 0, "bike_id": "842a58921cb6d6103a3decb1c00b5f86", "fusion_lon": 0.0, "type": "electric_scooter"}, {"rental_uris": {"ios": "https://dc.lft.to/lastmile_qr_scan", "android": "https://dc.lft.to/lastmile_qr_scan"}, "lat": 38.838105666666664, "lon": -77.0952005, "fusion_lat": 0.0, "name": "c59d8525f2728c2c51a52387517a8119", "is_disabled": 0, "is_reserved": 0, "bike_id": "c59d8525f2728c2c51a52387517a8119", "fusion_lon": 0.0, "type": "electric_bike"}, {"rental_uris": {"ios": "https://dc.lft.to/lastmile_qr_scan", "android": "https://dc.lft.to/lastmile_qr_scan"}, "lat": 38.91266983333333, "lon": -77.044675, "fusion_lat": 0.0, "name": "04e10003918d59042b747d0bc6d7cd7d", "is_disabled": 0, "is_reserved": 0, "bike_id": "04e10003918d59042b747d0bc6d7cd7d", "fusion_lon": 0.0, "type": "electric_scooter"}, {"rental_uris": {"ios": "https://dc.lft.to/lastmile_qr_scan", "android": "https://dc.lft.to/lastmile_qr_scan"}, "lat": 38.96551983333333, "lon": -77.03626166666666, "fusion_lat": 0.0, "name": "c82b94b838d6bdff07d096f6d7641df2", "is_disabled": 0, "is_reserved": 0, "bike_id": "c82b94b838d6bdff07d096f6d7641df2", "fusion_lon": 0.0, "type": "electric_scooter"}, {"rental_uris": {"ios": "https://dc.lft.to/lastmile_qr_scan", "android": "https://dc.lft.to/lastmile_qr_scan"}, "lat": 38.90274, "lon": -77.03926416666667, "fusion_lat": 0.0, "name": "bc15cf806afe0de627742f64a61ddcdd", "is_disabled": 0, "is_reserved": 0, "bike_id": "bc15cf806afe0de627742f64a61ddcdd", "fusion_lon": 0.0, "type": "electric_scooter"}, {"rental_uris": {"ios": "https://dc.lft.to/lastmile_qr_scan", "android": "https://dc.lft.to/lastmile_qr_scan"}, "lat": 38.885206333333336, "lon": -76.99093733333333, "fusion_lat": 0.0, "name": "0e19fd8899fff385f45b45814b1d1f5b", "is_disabled": 0, "is_reserved": 0, "bike_id": "0e19fd8899fff385f45b45814b1d1f5b", "fusion_lon": 0.0, "type": "electric_scooter"}, {"rental_uris": {"ios": "https://dc.lft.to/lastmile_qr_scan", "android": "https://dc.lft.to/lastmile_qr_scan"}, "lat": 38.9077565, "lon": -77.07124333333333, "fusion_lat": 0.0, "name": "02442da29811dfb4875b79e789b1611b", "is_disabled": 0, "is_reserved": 0, "bike_id": "02442da29811dfb4875b79e789b1611b", "fusion_lon": 0.0, "type": "electric_scooter"}, {"rental_uris": {"ios": "https://dc.lft.to/lastmile_qr_scan", "android": "https://dc.lft.to/lastmile_qr_scan"}, "lat": 38.907059833333335, "lon": -77.04517966666667, "fusion_lat": 0.0, "name": "3183d8cb6d7db1a0b8885496f1800e07", "is_disabled": 0, "is_reserved": 0, "bike_id": "3183d8cb6d7db1a0b8885496f1800e07", "fusion_lon": 0.0, "type": "electric_scooter"}, {"rental_uris": {"ios": "https://dc.lft.to/lastmile_qr_scan", "android": "https://dc.lft.to/lastmile_qr_scan"}, "lat": 38.928580333333336, "lon": -77.03010266666666, "fusion_lat": 0.0, "name": "26d8ed3dfb6d534c0a74406d061d2082", "is_disabled": 0, "is_reserved": 0, "bike_id": "26d8ed3dfb6d534c0a74406d061d2082", "fusion_lon": 0.0, "type": "electric_scooter"}, {"rental_uris": {"ios": "https://dc.lft.to/lastmile_qr_scan", "android": "https://dc.lft.to/lastmile_qr_scan"}, "lat": 38.92874316666666, "lon": -77.03926933333334, "fusion_lat": 0.0, "name": "0174b99b14a45324dcb24e9266ffbc63", "is_disabled": 0, "is_reserved": 0, "bike_id": "0174b99b14a45324dcb24e9266ffbc63", "fusion_lon": 0.0, "type": "electric_scooter"}, {"rental_uris": {"ios": "https://dc.lft.to/lastmile_qr_scan", "android": "https://dc.lft.to/lastmile_qr_scan"}, "lat": 38.90832183333333, "lon": -77.000737, "fusion_lat": 0.0, "name": "4d6b0202195db041748d97811015f257", "is_disabled": 0, "is_reserved": 0, "bike_id": "4d6b0202195db041748d97811015f257", "fusion_lon": 0.0, "type": "electric_scooter"}, {"rental_uris": {"ios": "https://dc.lft.to/lastmile_qr_scan", "android": "https://dc.lft.to/lastmile_qr_scan"}, "lat": 38.90026366666667, "lon": -77.03250266666667, "fusion_lat": 0.0, "name": "6d2a519c9b63d8510f021419aa7ebb82", "is_disabled": 0, "is_reserved": 0, "bike_id": "6d2a519c9b63d8510f021419aa7ebb82", "fusion_lon": 0.0, "type": "electric_scooter"}, {"rental_uris": {"ios": "https://dc.lft.to/lastmile_qr_scan", "android": "https://dc.lft.to/lastmile_qr_scan"}, "lat": 38.897133833333335, "lon": -77.02712516666666, "fusion_lat": 0.0, "name": "83abbcb25205ae261a12338cee0a2faa", "is_disabled": 0, "is_reserved": 0, "bike_id": "83abbcb25205ae261a12338cee0a2faa", "fusion_lon": 0.0, "type": "electric_scooter"}, {"rental_uris": {"ios": "https://dc.lft.to/lastmile_qr_scan", "android": "https://dc.lft.to/lastmile_qr_scan"}, "lat": 38.8988535, "lon": -76.93174283333333, "fusion_lat": 0.0, "name": "4c850a2c71f31638fa57613bb89ee573", "is_disabled": 0, "is_reserved": 0, "bike_id": "4c850a2c71f31638fa57613bb89ee573", "fusion_lon": 0.0, "type": "electric_scooter"}, {"rental_uris": {"ios": "https://dc.lft.to/lastmile_qr_scan", "android": "https://dc.lft.to/lastmile_qr_scan"}, "lat": 38.93122616666667, "lon": -77.02266383333334, "fusion_lat": 0.0, "name": "eb3c44364ccfd09a63b9f7d5199678bf", "is_disabled": 0, "is_reserved": 0, "bike_id": "eb3c44364ccfd09a63b9f7d5199678bf", "fusion_lon": 0.0, "type": "electric_scooter"}, {"rental_uris": {"ios": "https://dc.lft.to/lastmile_qr_scan", "android": "https://dc.lft.to/lastmile_qr_scan"}, "lat": 38.902797666666665, "lon": -77.0188, "fusion_lat": 0.0, "name": "a4ae15586aeac37f259d46119a62e94a", "is_disabled": 0, "is_reserved": 0, "bike_id": "a4ae15586aeac37f259d46119a62e94a", "fusion_lon": 0.0, "type": "electric_scooter"}, {"rental_uris": {"ios": "https://dc.lft.to/lastmile_qr_scan", "android": "https://dc.lft.to/lastmile_qr_scan"}, "lat": 38.92072683333333, "lon": -77.02313333333333, "fusion_lat": 0.0, "name": "62e68fc1b688c178c1244109b86bf18e", "is_disabled": 0, "is_reserved": 0, "bike_id": "62e68fc1b688c178c1244109b86bf18e", "fusion_lon": 0.0, "type": "electric_scooter"}, {"rental_uris": {"ios": "https://dc.lft.to/lastmile_qr_scan", "android": "https://dc.lft.to/lastmile_qr_scan"}, "lat": 38.909618, "lon": -77.03349233333333, "fusion_lat": 0.0, "name": "de3090a799ff070f54d82aaf3a68cfe2", "is_disabled": 0, "is_reserved": 0, "bike_id": "de3090a799ff070f54d82aaf3a68cfe2", "fusion_lon": 0.0, "type": "electric_scooter"}, {"rental_uris": {"ios": "https://dc.lft.to/lastmile_qr_scan", "android": "https://dc.lft.to/lastmile_qr_scan"}, "lat": 38.887779, "lon": -76.9553325, "fusion_lat": 0.0, "name": "504667ce5890d8d1ced25c291a6747a8", "is_disabled": 0, "is_reserved": 0, "bike_id": "504667ce5890d8d1ced25c291a6747a8", "fusion_lon": 0.0, "type": "electric_scooter"}, {"rental_uris": {"ios": "https://dc.lft.to/lastmile_qr_scan", "android": "https://dc.lft.to/lastmile_qr_scan"}, "lat": 38.92880433333333, "lon": -77.0404425, "fusion_lat": 0.0, "name": "7c7c2d2b986ae4bed61fb411092a6ef2", "is_disabled": 0, "is_reserved": 0, "bike_id": "7c7c2d2b986ae4bed61fb411092a6ef2", "fusion_lon": 0.0, "type": "electric_scooter"}, {"rental_uris": {"ios": "https://dc.lft.to/lastmile_qr_scan", "android": "https://dc.lft.to/lastmile_qr_scan"}, "lat": 38.940062833333336, "lon": -77.02531933333333, "fusion_lat": 0.0, "name": "06309566ed8e5ac4def15b574d2fc1e7", "is_disabled": 0, "is_reserved": 0, "bike_id": "06309566ed8e5ac4def15b574d2fc1e7", "fusion_lon": 0.0, "type": "electric_bike"}, {"rental_uris": {"ios": "https://dc.lft.to/lastmile_qr_scan", "android": "https://dc.lft.to/lastmile_qr_scan"}, "lat": 38.9237055, "lon": -77.0313005, "fusion_lat": 0.0, "name": "dfce53c1e207dc8da90777740d7c20c5", "is_disabled": 0, "is_reserved": 0, "bike_id": "dfce53c1e207dc8da90777740d7c20c5", "fusion_lon": 0.0, "type": "electric_scooter"}, {"rental_uris": {"ios": "https://dc.lft.to/lastmile_qr_scan", "android": "https://dc.lft.to/lastmile_qr_scan"}, "lat": 38.8963955, "lon": -77.07073, "fusion_lat": 0.0, "name": "21fd9a76bceec81716ad63b5866401af", "is_disabled": 0, "is_reserved": 0, "bike_id": "21fd9a76bceec81716ad63b5866401af", "fusion_lon": 0.0, "type": "electric_scooter"}, {"rental_uris": {"ios": "https://dc.lft.to/lastmile_qr_scan", "android": "https://dc.lft.to/lastmile_qr_scan"}, "lat": 38.8748055, "lon": -76.999794, "fusion_lat": 0.0, "name": "7a438aebb0e8ed43fbf115890ca09694", "is_disabled": 0, "is_reserved": 0, "bike_id": "7a438aebb0e8ed43fbf115890ca09694", "fusion_lon": 0.0, "type": "electric_scooter"}, {"rental_uris": {"ios": "https://dc.lft.to/lastmile_qr_scan", "android": "https://dc.lft.to/lastmile_qr_scan"}, "lat": 38.91921683333333, "lon": -77.00926516666667, "fusion_lat": 0.0, "name": "88c9c9977e69f9c1ac289284dd623045", "is_disabled": 0, "is_reserved": 0, "bike_id": "88c9c9977e69f9c1ac289284dd623045", "fusion_lon": 0.0, "type": "electric_scooter"}, {"rental_uris": {"ios": "https://dc.lft.to/lastmile_qr_scan", "android": "https://dc.lft.to/lastmile_qr_scan"}, "lat": 38.85935466666667, "lon": -77.118279, "fusion_lat": 0.0, "name": "b66c397f6d01683197b9a819a37a763b", "is_disabled": 0, "is_reserved": 0, "bike_id": "b66c397f6d01683197b9a819a37a763b", "fusion_lon": 0.0, "type": "electric_bike"}, {"rental_uris": {"ios": "https://dc.lft.to/lastmile_qr_scan", "android": "https://dc.lft.to/lastmile_qr_scan"}, "lat": 38.90736533333333, "lon": -77.06899683333333, "fusion_lat": 0.0, "name": "d7411c5927b1de0c7cddd9d605f095bf", "is_disabled": 0, "is_reserved": 0, "bike_id": "d7411c5927b1de0c7cddd9d605f095bf", "fusion_lon": 0.0, "type": "electric_scooter"}, {"rental_uris": {"ios": "https://dc.lft.to/lastmile_qr_scan", "android": "https://dc.lft.to/lastmile_qr_scan"}, "lat": 38.82362766666667, "lon": -77.002105, "fusion_lat": 0.0, "name": "09e22ed730937193ada540c26c690b8b", "is_disabled": 0, "is_reserved": 0, "bike_id": "09e22ed730937193ada540c26c690b8b", "fusion_lon": 0.0, "type": "electric_bike"}, {"rental_uris": {"ios": "https://dc.lft.to/lastmile_qr_scan", "android": "https://dc.lft.to/lastmile_qr_scan"}, "lat": 38.87459033333333, "lon": -77.00060316666666, "fusion_lat": 0.0, "name": "a3b8b97cb676935349bbcf31fb84cfe2", "is_disabled": 0, "is_reserved": 0, "bike_id": "a3b8b97cb676935349bbcf31fb84cfe2", "fusion_lon": 0.0, "type": "electric_scooter"}, {"rental_uris": {"ios": "https://dc.lft.to/lastmile_qr_scan", "android": "https://dc.lft.to/lastmile_qr_scan"}, "lat": 38.9023785, "lon": -77.037006, "fusion_lat": 0.0, "name": "55b045cf78082deabc3a17b342a074a8", "is_disabled": 0, "is_reserved": 0, "bike_id": "55b045cf78082deabc3a17b342a074a8", "fusion_lon": 0.0, "type": "electric_scooter"}, {"rental_uris": {"ios": "https://dc.lft.to/lastmile_qr_scan", "android": "https://dc.lft.to/lastmile_qr_scan"}, "lat": 38.92118133333334, "lon": -77.04349616666667, "fusion_lat": 0.0, "name": "970cd415fe0214314755f329478f5e49", "is_disabled": 0, "is_reserved": 0, "bike_id": "970cd415fe0214314755f329478f5e49", "fusion_lon": 0.0, "type": "electric_scooter"}, {"rental_uris": {"ios": "https://dc.lft.to/lastmile_qr_scan", "android": "https://dc.lft.to/lastmile_qr_scan"}, "lat": 38.880330666666666, "lon": -77.024788, "fusion_lat": 0.0, "name": "8996dd99f86cf77ba1a7d269e731421b", "is_disabled": 0, "is_reserved": 0, "bike_id": "8996dd99f86cf77ba1a7d269e731421b", "fusion_lon": 0.0, "type": "electric_bike"}, {"rental_uris": {"ios": "https://dc.lft.to/lastmile_qr_scan", "android": "https://dc.lft.to/lastmile_qr_scan"}, "lat": 38.900276, "lon": -77.00063116666666, "fusion_lat": 0.0, "name": "ea7d542e601ffc64d1b62176791d911d", "is_disabled": 0, "is_reserved": 0, "bike_id": "ea7d542e601ffc64d1b62176791d911d", "fusion_lon": 0.0, "type": "electric_scooter"}, {"rental_uris": {"ios": "https://dc.lft.to/lastmile_qr_scan", "android": "https://dc.lft.to/lastmile_qr_scan"}, "lat": 38.915587333333335, "lon": -77.03833733333333, "fusion_lat": 0.0, "name": "5fb518dc6563696e666bca59496c7c22", "is_disabled": 0, "is_reserved": 0, "bike_id": "5fb518dc6563696e666bca59496c7c22", "fusion_lon": 0.0, "type": "electric_bike"}, {"rental_uris": {"ios": "https://dc.lft.to/lastmile_qr_scan", "android": "https://dc.lft.to/lastmile_qr_scan"}, "lat": 38.91811216666667, "lon": -77.02478516666666, "fusion_lat": 0.0, "name": "b3a00a1a74aafb3a630ffe78da4a9bd8", "is_disabled": 0, "is_reserved": 0, "bike_id": "b3a00a1a74aafb3a630ffe78da4a9bd8", "fusion_lon": 0.0, "type": "electric_scooter"}, {"rental_uris": {"ios": "https://dc.lft.to/lastmile_qr_scan", "android": "https://dc.lft.to/lastmile_qr_scan"}, "lat": 38.9142245, "lon": -77.01985733333333, "fusion_lat": 0.0, "name": "dd836f0af4c8d5d10bcbfcca6a691cb2", "is_disabled": 0, "is_reserved": 0, "bike_id": "dd836f0af4c8d5d10bcbfcca6a691cb2", "fusion_lon": 0.0, "type": "electric_scooter"}, {"rental_uris": {"ios": "https://dc.lft.to/lastmile_qr_scan", "android": "https://dc.lft.to/lastmile_qr_scan"}, "lat": 38.83608266666667, "lon": -77.00382233333333, "fusion_lat": 0.0, "name": "02eaec99fa2ba1190ab4a0a817179eb3", "is_disabled": 0, "is_reserved": 0, "bike_id": "02eaec99fa2ba1190ab4a0a817179eb3", "fusion_lon": 0.0, "type": "electric_bike"}, {"rental_uris": {"ios": "https://dc.lft.to/lastmile_qr_scan", "android": "https://dc.lft.to/lastmile_qr_scan"}, "lat": 38.89218316666667, "lon": -77.0486195, "fusion_lat": 0.0, "name": "968d7dc3b2e99aafc47f018533f36f92", "is_disabled": 0, "is_reserved": 0, "bike_id": "968d7dc3b2e99aafc47f018533f36f92", "fusion_lon": 0.0, "type": "electric_scooter"}, {"rental_uris": {"ios": "https://dc.lft.to/lastmile_qr_scan", "android": "https://dc.lft.to/lastmile_qr_scan"}, "lat": 38.906665, "lon": -77.02687683333333, "fusion_lat": 0.0, "name": "668545fdda132b58adcef610b8352f4b", "is_disabled": 0, "is_reserved": 0, "bike_id": "668545fdda132b58adcef610b8352f4b", "fusion_lon": 0.0, "type": "electric_scooter"}, {"rental_uris": {"ios": "https://dc.lft.to/lastmile_qr_scan", "android": "https://dc.lft.to/lastmile_qr_scan"}, "lat": 38.90967283333333, "lon": -77.034024, "fusion_lat": 0.0, "name": "967c3f209b82efbc91e78fccc202f556", "is_disabled": 0, "is_reserved": 0, "bike_id": "967c3f209b82efbc91e78fccc202f556", "fusion_lon": 0.0, "type": "electric_scooter"}, {"rental_uris": {"ios": "https://dc.lft.to/lastmile_qr_scan", "android": "https://dc.lft.to/lastmile_qr_scan"}, "lat": 38.9353745, "lon": -77.023481, "fusion_lat": 0.0, "name": "224dd2e7988a62dba635cc9c0312a86d", "is_disabled": 0, "is_reserved": 0, "bike_id": "224dd2e7988a62dba635cc9c0312a86d", "fusion_lon": 0.0, "type": "electric_scooter"}, {"rental_uris": {"ios": "https://dc.lft.to/lastmile_qr_scan", "android": "https://dc.lft.to/lastmile_qr_scan"}, "lat": 38.89370016666667, "lon": -77.02254716666667, "fusion_lat": 0.0, "name": "cb3314130f85eaf5c4b3ce009e5bf5a6", "is_disabled": 0, "is_reserved": 0, "bike_id": "cb3314130f85eaf5c4b3ce009e5bf5a6", "fusion_lon": 0.0, "type": "electric_scooter"}, {"rental_uris": {"ios": "https://dc.lft.to/lastmile_qr_scan", "android": "https://dc.lft.to/lastmile_qr_scan"}, "lat": 38.90107283333333, "lon": -77.05971783333334, "fusion_lat": 0.0, "name": "68b64d3e9cc8337d37cc5c8e13f22313", "is_disabled": 0, "is_reserved": 0, "bike_id": "68b64d3e9cc8337d37cc5c8e13f22313", "fusion_lon": 0.0, "type": "electric_scooter"}, {"rental_uris": {"ios": "https://dc.lft.to/lastmile_qr_scan", "android": "https://dc.lft.to/lastmile_qr_scan"}, "lat": 38.915401833333334, "lon": -77.03199633333334, "fusion_lat": 0.0, "name": "a74e3e7ebfa40480f2b08c3996f3f360", "is_disabled": 0, "is_reserved": 0, "bike_id": "a74e3e7ebfa40480f2b08c3996f3f360", "fusion_lon": 0.0, "type": "electric_scooter"}, {"rental_uris": {"ios": "https://dc.lft.to/lastmile_qr_scan", "android": "https://dc.lft.to/lastmile_qr_scan"}, "lat": 38.918068833333336, "lon": -77.0249545, "fusion_lat": 0.0, "name": "716e8de49ea11b27c26dcb8adf94df04", "is_disabled": 0, "is_reserved": 0, "bike_id": "716e8de49ea11b27c26dcb8adf94df04", "fusion_lon": 0.0, "type": "electric_scooter"}, {"rental_uris": {"ios": "https://dc.lft.to/lastmile_qr_scan", "android": "https://dc.lft.to/lastmile_qr_scan"}, "lat": 38.922639833333335, "lon": -77.07348966666666, "fusion_lat": 0.0, "name": "2e4b5da09cec9585c58c0bedf2e91f24", "is_disabled": 0, "is_reserved": 0, "bike_id": "2e4b5da09cec9585c58c0bedf2e91f24", "fusion_lon": 0.0, "type": "electric_scooter"}, {"rental_uris": {"ios": "https://dc.lft.to/lastmile_qr_scan", "android": "https://dc.lft.to/lastmile_qr_scan"}, "lat": 38.9091825, "lon": -77.018965, "fusion_lat": 0.0, "name": "831f6e878fbdc34822c5eef7950d06ca", "is_disabled": 0, "is_reserved": 0, "bike_id": "831f6e878fbdc34822c5eef7950d06ca", "fusion_lon": 0.0, "type": "electric_scooter"}, {"rental_uris": {"ios": "https://dc.lft.to/lastmile_qr_scan", "android": "https://dc.lft.to/lastmile_qr_scan"}, "lat": 38.913970166666665, "lon": -77.02409433333334, "fusion_lat": 0.0, "name": "e8813201ae61a928a4ac1eb518140240", "is_disabled": 0, "is_reserved": 0, "bike_id": "e8813201ae61a928a4ac1eb518140240", "fusion_lon": 0.0, "type": "electric_scooter"}, {"rental_uris": {"ios": "https://dc.lft.to/lastmile_qr_scan", "android": "https://dc.lft.to/lastmile_qr_scan"}, "lat": 38.9357385, "lon": -77.01974466666667, "fusion_lat": 0.0, "name": "6df5fd507384e6920fa8b2ebf4842671", "is_disabled": 0, "is_reserved": 0, "bike_id": "6df5fd507384e6920fa8b2ebf4842671", "fusion_lon": 0.0, "type": "electric_scooter"}, {"rental_uris": {"ios": "https://dc.lft.to/lastmile_qr_scan", "android": "https://dc.lft.to/lastmile_qr_scan"}, "lat": 38.9139935, "lon": -77.024085, "fusion_lat": 0.0, "name": "e28c59e188128a41b010104f721039d5", "is_disabled": 0, "is_reserved": 0, "bike_id": "e28c59e188128a41b010104f721039d5", "fusion_lon": 0.0, "type": "electric_scooter"}, {"rental_uris": {"ios": "https://dc.lft.to/lastmile_qr_scan", "android": "https://dc.lft.to/lastmile_qr_scan"}, "lat": 38.88738266666667, "lon": -77.01530883333334, "fusion_lat": 0.0, "name": "636b57952568257bcc3e75de4982d0f4", "is_disabled": 0, "is_reserved": 0, "bike_id": "636b57952568257bcc3e75de4982d0f4", "fusion_lon": 0.0, "type": "electric_scooter"}, {"rental_uris": {"ios": "https://dc.lft.to/lastmile_qr_scan", "android": "https://dc.lft.to/lastmile_qr_scan"}, "lat": 38.89507733333333, "lon": -77.023034, "fusion_lat": 0.0, "name": "9d120a3252cdd2a0c68a261da94daf1d", "is_disabled": 0, "is_reserved": 0, "bike_id": "9d120a3252cdd2a0c68a261da94daf1d", "fusion_lon": 0.0, "type": "electric_scooter"}, {"rental_uris": {"ios": "https://dc.lft.to/lastmile_qr_scan", "android": "https://dc.lft.to/lastmile_qr_scan"}, "lat": 38.90011833333333, "lon": -77.0449395, "fusion_lat": 0.0, "name": "952749143a02b83c2a4622fa245a6490", "is_disabled": 0, "is_reserved": 0, "bike_id": "952749143a02b83c2a4622fa245a6490", "fusion_lon": 0.0, "type": "electric_scooter"}, {"rental_uris": {"ios": "https://dc.lft.to/lastmile_qr_scan", "android": "https://dc.lft.to/lastmile_qr_scan"}, "lat": 38.921098666666666, "lon": -77.03663733333333, "fusion_lat": 0.0, "name": "7f3fffb40ea60a8ccea9a3d6a639775d", "is_disabled": 0, "is_reserved": 0, "bike_id": "7f3fffb40ea60a8ccea9a3d6a639775d", "fusion_lon": 0.0, "type": "electric_scooter"}, {"rental_uris": {"ios": "https://dc.lft.to/lastmile_qr_scan", "android": "https://dc.lft.to/lastmile_qr_scan"}, "lat": 38.915076166666665, "lon": -77.045067, "fusion_lat": 0.0, "name": "3ad1039d4c4f03ef46bd55e9e14ab12b", "is_disabled": 0, "is_reserved": 0, "bike_id": "3ad1039d4c4f03ef46bd55e9e14ab12b", "fusion_lon": 0.0, "type": "electric_scooter"}, {"rental_uris": {"ios": "https://dc.lft.to/lastmile_qr_scan", "android": "https://dc.lft.to/lastmile_qr_scan"}, "lat": 38.874636833333334, "lon": -77.00484433333334, "fusion_lat": 0.0, "name": "00373f2f1f6ff793acb51fc40d7b60b8", "is_disabled": 0, "is_reserved": 0, "bike_id": "00373f2f1f6ff793acb51fc40d7b60b8", "fusion_lon": 0.0, "type": "electric_scooter"}, {"rental_uris": {"ios": "https://dc.lft.to/lastmile_qr_scan", "android": "https://dc.lft.to/lastmile_qr_scan"}, "lat": 38.9090365, "lon": -77.03968383333333, "fusion_lat": 0.0, "name": "d1d0bc5233004545d0c6b87bcfcb9cf4", "is_disabled": 0, "is_reserved": 0, "bike_id": "d1d0bc5233004545d0c6b87bcfcb9cf4", "fusion_lon": 0.0, "type": "electric_bike"}, {"rental_uris": {"ios": "https://dc.lft.to/lastmile_qr_scan", "android": "https://dc.lft.to/lastmile_qr_scan"}, "lat": 38.873597, "lon": -76.97027933333334, "fusion_lat": 0.0, "name": "61464c80758c83d2caf0a53c50a67512", "is_disabled": 0, "is_reserved": 0, "bike_id": "61464c80758c83d2caf0a53c50a67512", "fusion_lon": 0.0, "type": "electric_scooter"}, {"rental_uris": {"ios": "https://dc.lft.to/lastmile_qr_scan", "android": "https://dc.lft.to/lastmile_qr_scan"}, "lat": 38.91822633333334, "lon": -77.049415, "fusion_lat": 0.0, "name": "80823700e72105758eaa1d5e597cee2d", "is_disabled": 0, "is_reserved": 0, "bike_id": "80823700e72105758eaa1d5e597cee2d", "fusion_lon": 0.0, "type": "electric_scooter"}, {"rental_uris": {"ios": "https://dc.lft.to/lastmile_qr_scan", "android": "https://dc.lft.to/lastmile_qr_scan"}, "lat": 38.86705516666667, "lon": -76.98710516666667, "fusion_lat": 0.0, "name": "79a43064147d6745a43403949ba2e8a7", "is_disabled": 0, "is_reserved": 0, "bike_id": "79a43064147d6745a43403949ba2e8a7", "fusion_lon": 0.0, "type": "electric_scooter"}, {"rental_uris": {"ios": "https://dc.lft.to/lastmile_qr_scan", "android": "https://dc.lft.to/lastmile_qr_scan"}, "lat": 38.93335783333333, "lon": -77.02059183333333, "fusion_lat": 0.0, "name": "5a5f360517691537c6200b0e94251f95", "is_disabled": 0, "is_reserved": 0, "bike_id": "5a5f360517691537c6200b0e94251f95", "fusion_lon": 0.0, "type": "electric_scooter"}, {"rental_uris": {"ios": "https://dc.lft.to/lastmile_qr_scan", "android": "https://dc.lft.to/lastmile_qr_scan"}, "lat": 38.96501283333333, "lon": -77.00202633333333, "fusion_lat": 0.0, "name": "a6d3c3180b2fe3e611c1d05152be4ae7", "is_disabled": 0, "is_reserved": 0, "bike_id": "a6d3c3180b2fe3e611c1d05152be4ae7", "fusion_lon": 0.0, "type": "electric_scooter"}, {"rental_uris": {"ios": "https://dc.lft.to/lastmile_qr_scan", "android": "https://dc.lft.to/lastmile_qr_scan"}, "lat": 38.9108035, "lon": -77.02199433333334, "fusion_lat": 0.0, "name": "518ce71fb62439f69df27193cb60bb67", "is_disabled": 0, "is_reserved": 0, "bike_id": "518ce71fb62439f69df27193cb60bb67", "fusion_lon": 0.0, "type": "electric_scooter"}, {"rental_uris": {"ios": "https://dc.lft.to/lastmile_qr_scan", "android": "https://dc.lft.to/lastmile_qr_scan"}, "lat": 38.90152466666667, "lon": -77.05919333333334, "fusion_lat": 0.0, "name": "75da94ff0433b98ec711fe8df60c8bad", "is_disabled": 0, "is_reserved": 0, "bike_id": "75da94ff0433b98ec711fe8df60c8bad", "fusion_lon": 0.0, "type": "electric_scooter"}, {"rental_uris": {"ios": "https://dc.lft.to/lastmile_qr_scan", "android": "https://dc.lft.to/lastmile_qr_scan"}, "lat": 38.88395516666667, "lon": -77.01570766666667, "fusion_lat": 0.0, "name": "708c5882c7ec3eb4c82547a57c2ed43b", "is_disabled": 0, "is_reserved": 0, "bike_id": "708c5882c7ec3eb4c82547a57c2ed43b", "fusion_lon": 0.0, "type": "electric_scooter"}, {"rental_uris": {"ios": "https://dc.lft.to/lastmile_qr_scan", "android": "https://dc.lft.to/lastmile_qr_scan"}, "lat": 38.91752866666667, "lon": -77.04763416666667, "fusion_lat": 0.0, "name": "b23820a53e48fdf301611b2df76907a7", "is_disabled": 0, "is_reserved": 0, "bike_id": "b23820a53e48fdf301611b2df76907a7", "fusion_lon": 0.0, "type": "electric_scooter"}, {"rental_uris": {"ios": "https://dc.lft.to/lastmile_qr_scan", "android": "https://dc.lft.to/lastmile_qr_scan"}, "lat": 38.84436133333333, "lon": -76.99865433333333, "fusion_lat": 0.0, "name": "37441593e92eef055966444e7851a95c", "is_disabled": 0, "is_reserved": 0, "bike_id": "37441593e92eef055966444e7851a95c", "fusion_lon": 0.0, "type": "electric_scooter"}, {"rental_uris": {"ios": "https://dc.lft.to/lastmile_qr_scan", "android": "https://dc.lft.to/lastmile_qr_scan"}, "lat": 38.90237666666667, "lon": -77.00202383333334, "fusion_lat": 0.0, "name": "af374c35f92b9dcb045588de12e394a5", "is_disabled": 0, "is_reserved": 0, "bike_id": "af374c35f92b9dcb045588de12e394a5", "fusion_lon": 0.0, "type": "electric_scooter"}, {"rental_uris": {"ios": "https://dc.lft.to/lastmile_qr_scan", "android": "https://dc.lft.to/lastmile_qr_scan"}, "lat": 38.90324566666666, "lon": -77.0496585, "fusion_lat": 0.0, "name": "87413c555d27ef90b0aeb4e2bce18cdf", "is_disabled": 0, "is_reserved": 0, "bike_id": "87413c555d27ef90b0aeb4e2bce18cdf", "fusion_lon": 0.0, "type": "electric_scooter"}, {"rental_uris": {"ios": "https://dc.lft.to/lastmile_qr_scan", "android": "https://dc.lft.to/lastmile_qr_scan"}, "lat": 38.91476266666667, "lon": -77.0458175, "fusion_lat": 0.0, "name": "57723169a895897ac341b23ddd154604", "is_disabled": 0, "is_reserved": 0, "bike_id": "57723169a895897ac341b23ddd154604", "fusion_lon": 0.0, "type": "electric_scooter"}, {"rental_uris": {"ios": "https://dc.lft.to/lastmile_qr_scan", "android": "https://dc.lft.to/lastmile_qr_scan"}, "lat": 38.9215745, "lon": -77.032519, "fusion_lat": 0.0, "name": "501ef2f555143f341b11ea0ac96e9b67", "is_disabled": 0, "is_reserved": 0, "bike_id": "501ef2f555143f341b11ea0ac96e9b67", "fusion_lon": 0.0, "type": "electric_scooter"}, {"rental_uris": {"ios": "https://dc.lft.to/lastmile_qr_scan", "android": "https://dc.lft.to/lastmile_qr_scan"}, "lat": 38.892230833333336, "lon": -77.0321855, "fusion_lat": 0.0, "name": "4e74ac6f526a7c5b941495c5d857bcca", "is_disabled": 0, "is_reserved": 0, "bike_id": "4e74ac6f526a7c5b941495c5d857bcca", "fusion_lon": 0.0, "type": "electric_scooter"}, {"rental_uris": {"ios": "https://dc.lft.to/lastmile_qr_scan", "android": "https://dc.lft.to/lastmile_qr_scan"}, "lat": 38.8979625, "lon": -77.02471283333334, "fusion_lat": 0.0, "name": "f25801c093c297ab9995e9d36d6bb3d8", "is_disabled": 0, "is_reserved": 0, "bike_id": "f25801c093c297ab9995e9d36d6bb3d8", "fusion_lon": 0.0, "type": "electric_scooter"}, {"rental_uris": {"ios": "https://dc.lft.to/lastmile_qr_scan", "android": "https://dc.lft.to/lastmile_qr_scan"}, "lat": 38.9038795, "lon": -77.02959333333334, "fusion_lat": 0.0, "name": "9aa94cd8ef0129cb6873bcda15e30970", "is_disabled": 0, "is_reserved": 0, "bike_id": "9aa94cd8ef0129cb6873bcda15e30970", "fusion_lon": 0.0, "type": "electric_scooter"}, {"rental_uris": {"ios": "https://dc.lft.to/lastmile_qr_scan", "android": "https://dc.lft.to/lastmile_qr_scan"}, "lat": 38.8888135, "lon": -76.99030466666666, "fusion_lat": 0.0, "name": "f26c19e1706e2dd598cff4df2b3c882f", "is_disabled": 0, "is_reserved": 0, "bike_id": "f26c19e1706e2dd598cff4df2b3c882f", "fusion_lon": 0.0, "type": "electric_scooter"}, {"rental_uris": {"ios": "https://dc.lft.to/lastmile_qr_scan", "android": "https://dc.lft.to/lastmile_qr_scan"}, "lat": 38.91029116666667, "lon": -76.98551066666667, "fusion_lat": 0.0, "name": "0b3820b22eceb58541c516bcffdc65fa", "is_disabled": 0, "is_reserved": 0, "bike_id": "0b3820b22eceb58541c516bcffdc65fa", "fusion_lon": 0.0, "type": "electric_scooter"}, {"rental_uris": {"ios": "https://dc.lft.to/lastmile_qr_scan", "android": "https://dc.lft.to/lastmile_qr_scan"}, "lat": 38.93757933333333, "lon": -77.02495, "fusion_lat": 0.0, "name": "4c2ccb94eeec0830f4ba423737e5e8b1", "is_disabled": 0, "is_reserved": 0, "bike_id": "4c2ccb94eeec0830f4ba423737e5e8b1", "fusion_lon": 0.0, "type": "electric_scooter"}, {"rental_uris": {"ios": "https://dc.lft.to/lastmile_qr_scan", "android": "https://dc.lft.to/lastmile_qr_scan"}, "lat": 38.8923955, "lon": -76.94095966666667, "fusion_lat": 0.0, "name": "0c776219deaf328dc729c539a05db74a", "is_disabled": 0, "is_reserved": 0, "bike_id": "0c776219deaf328dc729c539a05db74a", "fusion_lon": 0.0, "type": "electric_scooter"}, {"rental_uris": {"ios": "https://dc.lft.to/lastmile_qr_scan", "android": "https://dc.lft.to/lastmile_qr_scan"}, "lat": 38.925684, "lon": -77.03777583333333, "fusion_lat": 0.0, "name": "91b24b7b65bab203abc3f50b6935f71b", "is_disabled": 0, "is_reserved": 0, "bike_id": "91b24b7b65bab203abc3f50b6935f71b", "fusion_lon": 0.0, "type": "electric_scooter"}, {"rental_uris": {"ios": "https://dc.lft.to/lastmile_qr_scan", "android": "https://dc.lft.to/lastmile_qr_scan"}, "lat": 38.928818666666665, "lon": -77.027081, "fusion_lat": 0.0, "name": "7e249a9da37461800582bef7c95feb79", "is_disabled": 0, "is_reserved": 0, "bike_id": "7e249a9da37461800582bef7c95feb79", "fusion_lon": 0.0, "type": "electric_scooter"}, {"rental_uris": {"ios": "https://dc.lft.to/lastmile_qr_scan", "android": "https://dc.lft.to/lastmile_qr_scan"}, "lat": 38.859718, "lon": -76.99158583333333, "fusion_lat": 0.0, "name": "71c8e2c12502334e417b7f299e108b57", "is_disabled": 0, "is_reserved": 0, "bike_id": "71c8e2c12502334e417b7f299e108b57", "fusion_lon": 0.0, "type": "electric_scooter"}, {"rental_uris": {"ios": "https://dc.lft.to/lastmile_qr_scan", "android": "https://dc.lft.to/lastmile_qr_scan"}, "lat": 38.91562316666667, "lon": -77.022068, "fusion_lat": 0.0, "name": "cfc4504b44b31b88d37dd09287bc1e78", "is_disabled": 0, "is_reserved": 0, "bike_id": "cfc4504b44b31b88d37dd09287bc1e78", "fusion_lon": 0.0, "type": "electric_scooter"}, {"rental_uris": {"ios": "https://dc.lft.to/lastmile_qr_scan", "android": "https://dc.lft.to/lastmile_qr_scan"}, "lat": 38.941848, "lon": -77.02487533333333, "fusion_lat": 0.0, "name": "c08dc8002102d0aa9194dd64e16411a5", "is_disabled": 0, "is_reserved": 0, "bike_id": "c08dc8002102d0aa9194dd64e16411a5", "fusion_lon": 0.0, "type": "electric_scooter"}, {"rental_uris": {"ios": "https://dc.lft.to/lastmile_qr_scan", "android": "https://dc.lft.to/lastmile_qr_scan"}, "lat": 38.956529833333335, "lon": -77.0196405, "fusion_lat": 0.0, "name": "d8feb703c860538dfe80cf3039ec186a", "is_disabled": 0, "is_reserved": 0, "bike_id": "d8feb703c860538dfe80cf3039ec186a", "fusion_lon": 0.0, "type": "electric_scooter"}, {"rental_uris": {"ios": "https://dc.lft.to/lastmile_qr_scan", "android": "https://dc.lft.to/lastmile_qr_scan"}, "lat": 38.917813, "lon": -77.03219083333333, "fusion_lat": 0.0, "name": "70b0e6654d88b70e80a576c2706222f2", "is_disabled": 0, "is_reserved": 0, "bike_id": "70b0e6654d88b70e80a576c2706222f2", "fusion_lon": 0.0, "type": "electric_scooter"}, {"rental_uris": {"ios": "https://dc.lft.to/lastmile_qr_scan", "android": "https://dc.lft.to/lastmile_qr_scan"}, "lat": 38.91756616666667, "lon": -77.0270515, "fusion_lat": 0.0, "name": "17d6451d00b5b70051776d9a3cdb31f7", "is_disabled": 0, "is_reserved": 0, "bike_id": "17d6451d00b5b70051776d9a3cdb31f7", "fusion_lon": 0.0, "type": "electric_scooter"}, {"rental_uris": {"ios": "https://dc.lft.to/lastmile_qr_scan", "android": "https://dc.lft.to/lastmile_qr_scan"}, "lat": 38.9510295, "lon": -77.0971495, "fusion_lat": 0.0, "name": "d4b2d89129c02ac35da61417dd35f2ee", "is_disabled": 0, "is_reserved": 0, "bike_id": "d4b2d89129c02ac35da61417dd35f2ee", "fusion_lon": 0.0, "type": "electric_scooter"}, {"rental_uris": {"ios": "https://dc.lft.to/lastmile_qr_scan", "android": "https://dc.lft.to/lastmile_qr_scan"}, "lat": 38.900179333333334, "lon": -76.98690616666667, "fusion_lat": 0.0, "name": "d4fcb39e5636234a5be0f2eaadfad8a9", "is_disabled": 0, "is_reserved": 0, "bike_id": "d4fcb39e5636234a5be0f2eaadfad8a9", "fusion_lon": 0.0, "type": "electric_scooter"}, {"rental_uris": {"ios": "https://dc.lft.to/lastmile_qr_scan", "android": "https://dc.lft.to/lastmile_qr_scan"}, "lat": 38.91608133333333, "lon": -77.02304433333333, "fusion_lat": 0.0, "name": "d0ec21fb364d3c5a294a37ce3152bd1a", "is_disabled": 0, "is_reserved": 0, "bike_id": "d0ec21fb364d3c5a294a37ce3152bd1a", "fusion_lon": 0.0, "type": "electric_scooter"}, {"rental_uris": {"ios": "https://dc.lft.to/lastmile_qr_scan", "android": "https://dc.lft.to/lastmile_qr_scan"}, "lat": 38.8855405, "lon": -76.99624383333334, "fusion_lat": 0.0, "name": "ff3103125211aee6fc5ac94ea915a1f3", "is_disabled": 0, "is_reserved": 0, "bike_id": "ff3103125211aee6fc5ac94ea915a1f3", "fusion_lon": 0.0, "type": "electric_scooter"}, {"rental_uris": {"ios": "https://dc.lft.to/lastmile_qr_scan", "android": "https://dc.lft.to/lastmile_qr_scan"}, "lat": 38.932732, "lon": -77.03495433333333, "fusion_lat": 0.0, "name": "e37bb23ca6ccbe46b51e75008c917002", "is_disabled": 0, "is_reserved": 0, "bike_id": "e37bb23ca6ccbe46b51e75008c917002", "fusion_lon": 0.0, "type": "electric_scooter"}, {"rental_uris": {"ios": "https://dc.lft.to/lastmile_qr_scan", "android": "https://dc.lft.to/lastmile_qr_scan"}, "lat": 38.9287075, "lon": -77.0333735, "fusion_lat": 0.0, "name": "c1aadf43ef792ab5db75c1fa5a64c90d", "is_disabled": 0, "is_reserved": 0, "bike_id": "c1aadf43ef792ab5db75c1fa5a64c90d", "fusion_lon": 0.0, "type": "electric_scooter"}, {"rental_uris": {"ios": "https://dc.lft.to/lastmile_qr_scan", "android": "https://dc.lft.to/lastmile_qr_scan"}, "lat": 38.92150216666667, "lon": -77.038768, "fusion_lat": 0.0, "name": "1a547d0a02712c8a24192a8df0ad7b1d", "is_disabled": 0, "is_reserved": 0, "bike_id": "1a547d0a02712c8a24192a8df0ad7b1d", "fusion_lon": 0.0, "type": "electric_scooter"}, {"rental_uris": {"ios": "https://dc.lft.to/lastmile_qr_scan", "android": "https://dc.lft.to/lastmile_qr_scan"}, "lat": 38.91270183333334, "lon": -77.0221605, "fusion_lat": 0.0, "name": "4b21ed4699c4e60f7dd776dea6e6800b", "is_disabled": 0, "is_reserved": 0, "bike_id": "4b21ed4699c4e60f7dd776dea6e6800b", "fusion_lon": 0.0, "type": "electric_scooter"}, {"rental_uris": {"ios": "https://dc.lft.to/lastmile_qr_scan", "android": "https://dc.lft.to/lastmile_qr_scan"}, "lat": 38.891031166666664, "lon": -77.001994, "fusion_lat": 0.0, "name": "b2e041dd2b948e7cfda3053f2f27ff40", "is_disabled": 0, "is_reserved": 0, "bike_id": "b2e041dd2b948e7cfda3053f2f27ff40", "fusion_lon": 0.0, "type": "electric_scooter"}, {"rental_uris": {"ios": "https://dc.lft.to/lastmile_qr_scan", "android": "https://dc.lft.to/lastmile_qr_scan"}, "lat": 38.900690833333336, "lon": -77.04497516666666, "fusion_lat": 0.0, "name": "b8f943a7398df0f108b92af7ff95184f", "is_disabled": 0, "is_reserved": 0, "bike_id": "b8f943a7398df0f108b92af7ff95184f", "fusion_lon": 0.0, "type": "electric_scooter"}, {"rental_uris": {"ios": "https://dc.lft.to/lastmile_qr_scan", "android": "https://dc.lft.to/lastmile_qr_scan"}, "lat": 38.88399166666667, "lon": -76.96049566666667, "fusion_lat": 0.0, "name": "f943eb947f72608f67cfbdbc4e3033ad", "is_disabled": 0, "is_reserved": 0, "bike_id": "f943eb947f72608f67cfbdbc4e3033ad", "fusion_lon": 0.0, "type": "electric_bike"}, {"rental_uris": {"ios": "https://dc.lft.to/lastmile_qr_scan", "android": "https://dc.lft.to/lastmile_qr_scan"}, "lat": 38.956366, "lon": -77.03630466666667, "fusion_lat": 0.0, "name": "cbbda3403f9d442a9f189344daf3317a", "is_disabled": 0, "is_reserved": 0, "bike_id": "cbbda3403f9d442a9f189344daf3317a", "fusion_lon": 0.0, "type": "electric_scooter"}, {"rental_uris": {"ios": "https://dc.lft.to/lastmile_qr_scan", "android": "https://dc.lft.to/lastmile_qr_scan"}, "lat": 39.05110533333333, "lon": -77.11738916666667, "fusion_lat": 0.0, "name": "54160064ec0ef6126dc680d1117f8440", "is_disabled": 0, "is_reserved": 0, "bike_id": "54160064ec0ef6126dc680d1117f8440", "fusion_lon": 0.0, "type": "electric_bike"}, {"rental_uris": {"ios": "https://dc.lft.to/lastmile_qr_scan", "android": "https://dc.lft.to/lastmile_qr_scan"}, "lat": 38.895054, "lon": -77.04359, "fusion_lat": 0.0, "name": "1500c6924ef986c768acab666b578b85", "is_disabled": 0, "is_reserved": 0, "bike_id": "1500c6924ef986c768acab666b578b85", "fusion_lon": 0.0, "type": "electric_scooter"}, {"rental_uris": {"ios": "https://dc.lft.to/lastmile_qr_scan", "android": "https://dc.lft.to/lastmile_qr_scan"}, "lat": 38.907919166666666, "lon": -77.026932, "fusion_lat": 0.0, "name": "0c85359283fb2b61444461ebe2aac659", "is_disabled": 0, "is_reserved": 0, "bike_id": "0c85359283fb2b61444461ebe2aac659", "fusion_lon": 0.0, "type": "electric_scooter"}, {"rental_uris": {"ios": "https://dc.lft.to/lastmile_qr_scan", "android": "https://dc.lft.to/lastmile_qr_scan"}, "lat": 38.8924165, "lon": -77.033482, "fusion_lat": 0.0, "name": "44500f71c7c2d0d0ac477b6d65139dbb", "is_disabled": 0, "is_reserved": 0, "bike_id": "44500f71c7c2d0d0ac477b6d65139dbb", "fusion_lon": 0.0, "type": "electric_scooter"}, {"rental_uris": {"ios": "https://dc.lft.to/lastmile_qr_scan", "android": "https://dc.lft.to/lastmile_qr_scan"}, "lat": 38.9156175, "lon": -77.03046916666666, "fusion_lat": 0.0, "name": "a65d6f447ce429bbbb2051c347a173a0", "is_disabled": 0, "is_reserved": 0, "bike_id": "a65d6f447ce429bbbb2051c347a173a0", "fusion_lon": 0.0, "type": "electric_scooter"}, {"rental_uris": {"ios": "https://dc.lft.to/lastmile_qr_scan", "android": "https://dc.lft.to/lastmile_qr_scan"}, "lat": 38.9082795, "lon": -77.00084366666667, "fusion_lat": 0.0, "name": "4e9d62f9da7a92bc9ebd1f24199b78fd", "is_disabled": 0, "is_reserved": 0, "bike_id": "4e9d62f9da7a92bc9ebd1f24199b78fd", "fusion_lon": 0.0, "type": "electric_scooter"}, {"rental_uris": {"ios": "https://dc.lft.to/lastmile_qr_scan", "android": "https://dc.lft.to/lastmile_qr_scan"}, "lat": 38.924437166666664, "lon": -77.02019216666666, "fusion_lat": 0.0, "name": "1c0996e512a11265b2f694443891e3c6", "is_disabled": 0, "is_reserved": 0, "bike_id": "1c0996e512a11265b2f694443891e3c6", "fusion_lon": 0.0, "type": "electric_scooter"}, {"rental_uris": {"ios": "https://dc.lft.to/lastmile_qr_scan", "android": "https://dc.lft.to/lastmile_qr_scan"}, "lat": 38.9846195, "lon": -76.97052933333333, "fusion_lat": 0.0, "name": "50dfd6e797d347c75fb66d2d2be11eff", "is_disabled": 0, "is_reserved": 0, "bike_id": "50dfd6e797d347c75fb66d2d2be11eff", "fusion_lon": 0.0, "type": "electric_bike"}, {"rental_uris": {"ios": "https://dc.lft.to/lastmile_qr_scan", "android": "https://dc.lft.to/lastmile_qr_scan"}, "lat": 38.86680966666667, "lon": -76.98570616666666, "fusion_lat": 0.0, "name": "c6cef258cb083f6f27f8777163bde791", "is_disabled": 0, "is_reserved": 0, "bike_id": "c6cef258cb083f6f27f8777163bde791", "fusion_lon": 0.0, "type": "electric_scooter"}, {"rental_uris": {"ios": "https://dc.lft.to/lastmile_qr_scan", "android": "https://dc.lft.to/lastmile_qr_scan"}, "lat": 38.91728333333333, "lon": -77.03659733333333, "fusion_lat": 0.0, "name": "eda20c8f97e3e547c4e18b0cedde5ccc", "is_disabled": 0, "is_reserved": 0, "bike_id": "eda20c8f97e3e547c4e18b0cedde5ccc", "fusion_lon": 0.0, "type": "electric_scooter"}, {"rental_uris": {"ios": "https://dc.lft.to/lastmile_qr_scan", "android": "https://dc.lft.to/lastmile_qr_scan"}, "lat": 38.902510666666664, "lon": -77.03459133333334, "fusion_lat": 0.0, "name": "c87bb6ead90dcee786b310dd7fd684ad", "is_disabled": 0, "is_reserved": 0, "bike_id": "c87bb6ead90dcee786b310dd7fd684ad", "fusion_lon": 0.0, "type": "electric_scooter"}, {"rental_uris": {"ios": "https://dc.lft.to/lastmile_qr_scan", "android": "https://dc.lft.to/lastmile_qr_scan"}, "lat": 38.925194166666664, "lon": -77.04121383333333, "fusion_lat": 0.0, "name": "583f80662270e36bf293ad32c430f47c", "is_disabled": 0, "is_reserved": 0, "bike_id": "583f80662270e36bf293ad32c430f47c", "fusion_lon": 0.0, "type": "electric_scooter"}, {"rental_uris": {"ios": "https://dc.lft.to/lastmile_qr_scan", "android": "https://dc.lft.to/lastmile_qr_scan"}, "lat": 38.924959666666666, "lon": -76.99020666666667, "fusion_lat": 0.0, "name": "25e801c30c100b8374edb9b6082338fc", "is_disabled": 0, "is_reserved": 0, "bike_id": "25e801c30c100b8374edb9b6082338fc", "fusion_lon": 0.0, "type": "electric_scooter"}, {"rental_uris": {"ios": "https://dc.lft.to/lastmile_qr_scan", "android": "https://dc.lft.to/lastmile_qr_scan"}, "lat": 38.90243616666667, "lon": -77.038017, "fusion_lat": 0.0, "name": "b171b9bea20317e9a02192161e89ce6c", "is_disabled": 0, "is_reserved": 0, "bike_id": "b171b9bea20317e9a02192161e89ce6c", "fusion_lon": 0.0, "type": "electric_scooter"}, {"rental_uris": {"ios": "https://dc.lft.to/lastmile_qr_scan", "android": "https://dc.lft.to/lastmile_qr_scan"}, "lat": 38.90500633333333, "lon": -77.05751183333334, "fusion_lat": 0.0, "name": "912efe3ddd6db7e59205495461ae256d", "is_disabled": 0, "is_reserved": 0, "bike_id": "912efe3ddd6db7e59205495461ae256d", "fusion_lon": 0.0, "type": "electric_scooter"}, {"rental_uris": {"ios": "https://dc.lft.to/lastmile_qr_scan", "android": "https://dc.lft.to/lastmile_qr_scan"}, "lat": 38.866470166666666, "lon": -76.9881965, "fusion_lat": 0.0, "name": "3bba7de45fd02a7a0c92ee96c8cd6fb2", "is_disabled": 0, "is_reserved": 0, "bike_id": "3bba7de45fd02a7a0c92ee96c8cd6fb2", "fusion_lon": 0.0, "type": "electric_scooter"}, {"rental_uris": {"ios": "https://dc.lft.to/lastmile_qr_scan", "android": "https://dc.lft.to/lastmile_qr_scan"}, "lat": 38.89284966666666, "lon": -77.0198835, "fusion_lat": 0.0, "name": "8217520ed6474432387a3ddabc7dd468", "is_disabled": 0, "is_reserved": 0, "bike_id": "8217520ed6474432387a3ddabc7dd468", "fusion_lon": 0.0, "type": "electric_scooter"}, {"rental_uris": {"ios": "https://dc.lft.to/lastmile_qr_scan", "android": "https://dc.lft.to/lastmile_qr_scan"}, "lat": 38.95250383333333, "lon": -77.01961516666667, "fusion_lat": 0.0, "name": "b5654cc7e95eb9f7985f19becfaf12a9", "is_disabled": 0, "is_reserved": 0, "bike_id": "b5654cc7e95eb9f7985f19becfaf12a9", "fusion_lon": 0.0, "type": "electric_scooter"}, {"rental_uris": {"ios": "https://dc.lft.to/lastmile_qr_scan", "android": "https://dc.lft.to/lastmile_qr_scan"}, "lat": 38.933902, "lon": -77.057401, "fusion_lat": 0.0, "name": "112d874addfab5737c1fa3fbe35d6a63", "is_disabled": 0, "is_reserved": 0, "bike_id": "112d874addfab5737c1fa3fbe35d6a63", "fusion_lon": 0.0, "type": "electric_scooter"}, {"rental_uris": {"ios": "https://dc.lft.to/lastmile_qr_scan", "android": "https://dc.lft.to/lastmile_qr_scan"}, "lat": 38.90352683333333, "lon": -77.03953483333333, "fusion_lat": 0.0, "name": "718b2960c498213841efa68c6a33c0d0", "is_disabled": 0, "is_reserved": 0, "bike_id": "718b2960c498213841efa68c6a33c0d0", "fusion_lon": 0.0, "type": "electric_scooter"}, {"rental_uris": {"ios": "https://dc.lft.to/lastmile_qr_scan", "android": "https://dc.lft.to/lastmile_qr_scan"}, "lat": 38.884285166666665, "lon": -76.95756116666666, "fusion_lat": 0.0, "name": "f95921aa6c0bc63fb6e1ec0d8d647fad", "is_disabled": 0, "is_reserved": 0, "bike_id": "f95921aa6c0bc63fb6e1ec0d8d647fad", "fusion_lon": 0.0, "type": "electric_scooter"}, {"rental_uris": {"ios": "https://dc.lft.to/lastmile_qr_scan", "android": "https://dc.lft.to/lastmile_qr_scan"}, "lat": 38.9161995, "lon": -77.02291083333333, "fusion_lat": 0.0, "name": "b3300d52ad510140412208b73cbfda26", "is_disabled": 0, "is_reserved": 0, "bike_id": "b3300d52ad510140412208b73cbfda26", "fusion_lon": 0.0, "type": "electric_scooter"}, {"rental_uris": {"ios": "https://dc.lft.to/lastmile_qr_scan", "android": "https://dc.lft.to/lastmile_qr_scan"}, "lat": 38.924109, "lon": -77.03922033333333, "fusion_lat": 0.0, "name": "43258773c1257e1effa221b3ba52cf9f", "is_disabled": 0, "is_reserved": 0, "bike_id": "43258773c1257e1effa221b3ba52cf9f", "fusion_lon": 0.0, "type": "electric_scooter"}, {"rental_uris": {"ios": "https://dc.lft.to/lastmile_qr_scan", "android": "https://dc.lft.to/lastmile_qr_scan"}, "lat": 38.9424165, "lon": -77.035826, "fusion_lat": 0.0, "name": "2e16853e5484974ed87627b5c72308b7", "is_disabled": 0, "is_reserved": 0, "bike_id": "2e16853e5484974ed87627b5c72308b7", "fusion_lon": 0.0, "type": "electric_scooter"}, {"rental_uris": {"ios": "https://dc.lft.to/lastmile_qr_scan", "android": "https://dc.lft.to/lastmile_qr_scan"}, "lat": 38.903688833333334, "lon": -77.02689183333334, "fusion_lat": 0.0, "name": "cc05b15cae965852f8ac8c82f44d00ac", "is_disabled": 0, "is_reserved": 0, "bike_id": "cc05b15cae965852f8ac8c82f44d00ac", "fusion_lon": 0.0, "type": "electric_scooter"}, {"rental_uris": {"ios": "https://dc.lft.to/lastmile_qr_scan", "android": "https://dc.lft.to/lastmile_qr_scan"}, "lat": 38.921517333333334, "lon": -77.03863766666667, "fusion_lat": 0.0, "name": "075c562b74a54442b4feeb1cfe3bf6f9", "is_disabled": 0, "is_reserved": 0, "bike_id": "075c562b74a54442b4feeb1cfe3bf6f9", "fusion_lon": 0.0, "type": "electric_scooter"}, {"rental_uris": {"ios": "https://dc.lft.to/lastmile_qr_scan", "android": "https://dc.lft.to/lastmile_qr_scan"}, "lat": 38.9119145, "lon": -77.0010335, "fusion_lat": 0.0, "name": "55f053076fff3a85114b5c224afc0b70", "is_disabled": 0, "is_reserved": 0, "bike_id": "55f053076fff3a85114b5c224afc0b70", "fusion_lon": 0.0, "type": "electric_scooter"}, {"rental_uris": {"ios": "https://dc.lft.to/lastmile_qr_scan", "android": "https://dc.lft.to/lastmile_qr_scan"}, "lat": 38.897585, "lon": -76.9470755, "fusion_lat": 0.0, "name": "5697f5d29a1a47191f933b929461f0d1", "is_disabled": 0, "is_reserved": 0, "bike_id": "5697f5d29a1a47191f933b929461f0d1", "fusion_lon": 0.0, "type": "electric_scooter"}, {"rental_uris": {"ios": "https://dc.lft.to/lastmile_qr_scan", "android": "https://dc.lft.to/lastmile_qr_scan"}, "lat": 38.89734766666667, "lon": -77.0246135, "fusion_lat": 0.0, "name": "cc72b98a0d583a90eabeae519633e2fc", "is_disabled": 0, "is_reserved": 0, "bike_id": "cc72b98a0d583a90eabeae519633e2fc", "fusion_lon": 0.0, "type": "electric_scooter"}, {"rental_uris": {"ios": "https://dc.lft.to/lastmile_qr_scan", "android": "https://dc.lft.to/lastmile_qr_scan"}, "lat": 38.915573333333334, "lon": -77.01996266666667, "fusion_lat": 0.0, "name": "570496d63a7a891a9a2a662b3622d5e0", "is_disabled": 0, "is_reserved": 0, "bike_id": "570496d63a7a891a9a2a662b3622d5e0", "fusion_lon": 0.0, "type": "electric_scooter"}, {"rental_uris": {"ios": "https://dc.lft.to/lastmile_qr_scan", "android": "https://dc.lft.to/lastmile_qr_scan"}, "lat": 38.925736666666666, "lon": -77.0542565, "fusion_lat": 0.0, "name": "e0fda2e3c25b36c727a8503c80d73d78", "is_disabled": 0, "is_reserved": 0, "bike_id": "e0fda2e3c25b36c727a8503c80d73d78", "fusion_lon": 0.0, "type": "electric_scooter"}, {"rental_uris": {"ios": "https://dc.lft.to/lastmile_qr_scan", "android": "https://dc.lft.to/lastmile_qr_scan"}, "lat": 38.846134666666664, "lon": -76.96910683333333, "fusion_lat": 0.0, "name": "fc42f57b2f14d5e419902d367fefae78", "is_disabled": 0, "is_reserved": 0, "bike_id": "fc42f57b2f14d5e419902d367fefae78", "fusion_lon": 0.0, "type": "electric_bike"}, {"rental_uris": {"ios": "https://dc.lft.to/lastmile_qr_scan", "android": "https://dc.lft.to/lastmile_qr_scan"}, "lat": 38.89962533333333, "lon": -76.97534383333333, "fusion_lat": 0.0, "name": "3ccf1090163bfa08d6cfca55c5c388bc", "is_disabled": 0, "is_reserved": 0, "bike_id": "3ccf1090163bfa08d6cfca55c5c388bc", "fusion_lon": 0.0, "type": "electric_scooter"}, {"rental_uris": {"ios": "https://dc.lft.to/lastmile_qr_scan", "android": "https://dc.lft.to/lastmile_qr_scan"}, "lat": 38.8985385, "lon": -77.03318566666667, "fusion_lat": 0.0, "name": "50afa2cee3c4e8c5dd42ed2e6a199fde", "is_disabled": 0, "is_reserved": 0, "bike_id": "50afa2cee3c4e8c5dd42ed2e6a199fde", "fusion_lon": 0.0, "type": "electric_scooter"}, {"rental_uris": {"ios": "https://dc.lft.to/lastmile_qr_scan", "android": "https://dc.lft.to/lastmile_qr_scan"}, "lat": 38.90418866666667, "lon": -77.05341433333334, "fusion_lat": 0.0, "name": "e3784c8465b1999cbc181b93d3b68737", "is_disabled": 0, "is_reserved": 0, "bike_id": "e3784c8465b1999cbc181b93d3b68737", "fusion_lon": 0.0, "type": "electric_scooter"}, {"rental_uris": {"ios": "https://dc.lft.to/lastmile_qr_scan", "android": "https://dc.lft.to/lastmile_qr_scan"}, "lat": 38.86568116666667, "lon": -76.982149, "fusion_lat": 0.0, "name": "84829a0a65f176f401cbac3df28f8aa3", "is_disabled": 0, "is_reserved": 0, "bike_id": "84829a0a65f176f401cbac3df28f8aa3", "fusion_lon": 0.0, "type": "electric_scooter"}, {"rental_uris": {"ios": "https://dc.lft.to/lastmile_qr_scan", "android": "https://dc.lft.to/lastmile_qr_scan"}, "lat": 38.900246333333335, "lon": -76.9990075, "fusion_lat": 0.0, "name": "bd7b8960bf332abdaf71027ec6f4db9a", "is_disabled": 0, "is_reserved": 0, "bike_id": "bd7b8960bf332abdaf71027ec6f4db9a", "fusion_lon": 0.0, "type": "electric_scooter"}, {"rental_uris": {"ios": "https://dc.lft.to/lastmile_qr_scan", "android": "https://dc.lft.to/lastmile_qr_scan"}, "lat": 38.90730683333334, "lon": -77.02821316666666, "fusion_lat": 0.0, "name": "971e4904c2bd0796f6b77b5f59426b02", "is_disabled": 0, "is_reserved": 0, "bike_id": "971e4904c2bd0796f6b77b5f59426b02", "fusion_lon": 0.0, "type": "electric_scooter"}, {"rental_uris": {"ios": "https://dc.lft.to/lastmile_qr_scan", "android": "https://dc.lft.to/lastmile_qr_scan"}, "lat": 38.90559916666667, "lon": -77.04191033333333, "fusion_lat": 0.0, "name": "eb47210102a26d95b145b51882fa2758", "is_disabled": 0, "is_reserved": 0, "bike_id": "eb47210102a26d95b145b51882fa2758", "fusion_lon": 0.0, "type": "electric_scooter"}, {"rental_uris": {"ios": "https://dc.lft.to/lastmile_qr_scan", "android": "https://dc.lft.to/lastmile_qr_scan"}, "lat": 38.90420533333333, "lon": -76.97376, "fusion_lat": 0.0, "name": "00114e0f7601f473f9e889da7ff8883c", "is_disabled": 0, "is_reserved": 0, "bike_id": "00114e0f7601f473f9e889da7ff8883c", "fusion_lon": 0.0, "type": "electric_scooter"}, {"rental_uris": {"ios": "https://dc.lft.to/lastmile_qr_scan", "android": "https://dc.lft.to/lastmile_qr_scan"}, "lat": 38.901815166666665, "lon": -77.024718, "fusion_lat": 0.0, "name": "b4627a61b49e4918da39d17a52bac4f8", "is_disabled": 0, "is_reserved": 0, "bike_id": "b4627a61b49e4918da39d17a52bac4f8", "fusion_lon": 0.0, "type": "electric_scooter"}, {"rental_uris": {"ios": "https://dc.lft.to/lastmile_qr_scan", "android": "https://dc.lft.to/lastmile_qr_scan"}, "lat": 38.914122666666664, "lon": -77.03811116666667, "fusion_lat": 0.0, "name": "ea7b110fd3c81d8db2816ab10f919d5f", "is_disabled": 0, "is_reserved": 0, "bike_id": "ea7b110fd3c81d8db2816ab10f919d5f", "fusion_lon": 0.0, "type": "electric_scooter"}, {"rental_uris": {"ios": "https://dc.lft.to/lastmile_qr_scan", "android": "https://dc.lft.to/lastmile_qr_scan"}, "lat": 38.937892, "lon": -77.03333966666666, "fusion_lat": 0.0, "name": "f35bcb55819798c8eff9de200041dd70", "is_disabled": 0, "is_reserved": 0, "bike_id": "f35bcb55819798c8eff9de200041dd70", "fusion_lon": 0.0, "type": "electric_scooter"}, {"rental_uris": {"ios": "https://dc.lft.to/lastmile_qr_scan", "android": "https://dc.lft.to/lastmile_qr_scan"}, "lat": 38.8542655, "lon": -77.12075383333334, "fusion_lat": 0.0, "name": "17c9525d33124200e8d58b7cee638f55", "is_disabled": 0, "is_reserved": 0, "bike_id": "17c9525d33124200e8d58b7cee638f55", "fusion_lon": 0.0, "type": "electric_bike"}, {"rental_uris": {"ios": "https://dc.lft.to/lastmile_qr_scan", "android": "https://dc.lft.to/lastmile_qr_scan"}, "lat": 38.86661216666667, "lon": -76.98882316666666, "fusion_lat": 0.0, "name": "a1af724e081258720271701fd1501003", "is_disabled": 0, "is_reserved": 0, "bike_id": "a1af724e081258720271701fd1501003", "fusion_lon": 0.0, "type": "electric_scooter"}, {"rental_uris": {"ios": "https://dc.lft.to/lastmile_qr_scan", "android": "https://dc.lft.to/lastmile_qr_scan"}, "lat": 38.907191833333336, "lon": -77.02983316666666, "fusion_lat": 0.0, "name": "cb9a3104092e6cd46bd5ed01c0a9e703", "is_disabled": 0, "is_reserved": 0, "bike_id": "cb9a3104092e6cd46bd5ed01c0a9e703", "fusion_lon": 0.0, "type": "electric_scooter"}, {"rental_uris": {"ios": "https://dc.lft.to/lastmile_qr_scan", "android": "https://dc.lft.to/lastmile_qr_scan"}, "lat": 38.90619983333333, "lon": -77.04892433333333, "fusion_lat": 0.0, "name": "c4ae8af3439e00b54a517a65bfaed9f9", "is_disabled": 0, "is_reserved": 0, "bike_id": "c4ae8af3439e00b54a517a65bfaed9f9", "fusion_lon": 0.0, "type": "electric_scooter"}, {"rental_uris": {"ios": "https://dc.lft.to/lastmile_qr_scan", "android": "https://dc.lft.to/lastmile_qr_scan"}, "lat": 38.916066666666666, "lon": -77.02307783333333, "fusion_lat": 0.0, "name": "465be564963e28e516db8a6fa1e2e31d", "is_disabled": 0, "is_reserved": 0, "bike_id": "465be564963e28e516db8a6fa1e2e31d", "fusion_lon": 0.0, "type": "electric_scooter"}, {"rental_uris": {"ios": "https://dc.lft.to/lastmile_qr_scan", "android": "https://dc.lft.to/lastmile_qr_scan"}, "lat": 38.9528215, "lon": -77.0179015, "fusion_lat": 0.0, "name": "d3c01789e0bd6b4333c960f210dce477", "is_disabled": 0, "is_reserved": 0, "bike_id": "d3c01789e0bd6b4333c960f210dce477", "fusion_lon": 0.0, "type": "electric_scooter"}, {"rental_uris": {"ios": "https://dc.lft.to/lastmile_qr_scan", "android": "https://dc.lft.to/lastmile_qr_scan"}, "lat": 38.89947166666666, "lon": -77.07179333333333, "fusion_lat": 0.0, "name": "1857db2d7dd34b024856131ab3e2be69", "is_disabled": 0, "is_reserved": 0, "bike_id": "1857db2d7dd34b024856131ab3e2be69", "fusion_lon": 0.0, "type": "electric_scooter"}, {"rental_uris": {"ios": "https://dc.lft.to/lastmile_qr_scan", "android": "https://dc.lft.to/lastmile_qr_scan"}, "lat": 38.8747795, "lon": -76.96530766666666, "fusion_lat": 0.0, "name": "9b48d8ce3e844c48954db6af94d4a9cd", "is_disabled": 0, "is_reserved": 0, "bike_id": "9b48d8ce3e844c48954db6af94d4a9cd", "fusion_lon": 0.0, "type": "electric_bike"}, {"rental_uris": {"ios": "https://dc.lft.to/lastmile_qr_scan", "android": "https://dc.lft.to/lastmile_qr_scan"}, "lat": 38.878483833333334, "lon": -77.00768066666667, "fusion_lat": 0.0, "name": "43e0230646c1de057697cc4f3a4d3950", "is_disabled": 0, "is_reserved": 0, "bike_id": "43e0230646c1de057697cc4f3a4d3950", "fusion_lon": 0.0, "type": "electric_scooter"}, {"rental_uris": {"ios": "https://dc.lft.to/lastmile_qr_scan", "android": "https://dc.lft.to/lastmile_qr_scan"}, "lat": 38.904286, "lon": -76.97908116666666, "fusion_lat": 0.0, "name": "cb5b7aebceabcccbfbb465eea004de9a", "is_disabled": 0, "is_reserved": 0, "bike_id": "cb5b7aebceabcccbfbb465eea004de9a", "fusion_lon": 0.0, "type": "electric_scooter"}, {"rental_uris": {"ios": "https://dc.lft.to/lastmile_qr_scan", "android": "https://dc.lft.to/lastmile_qr_scan"}, "lat": 38.92886266666667, "lon": -77.03341183333333, "fusion_lat": 0.0, "name": "f44af9d81c4f492fb648f4aefdb146f0", "is_disabled": 0, "is_reserved": 0, "bike_id": "f44af9d81c4f492fb648f4aefdb146f0", "fusion_lon": 0.0, "type": "electric_scooter"}, {"rental_uris": {"ios": "https://dc.lft.to/lastmile_qr_scan", "android": "https://dc.lft.to/lastmile_qr_scan"}, "lat": 38.9072645, "lon": -77.023123, "fusion_lat": 0.0, "name": "752d178b7a9bd248ba8a523c03d7175a", "is_disabled": 0, "is_reserved": 0, "bike_id": "752d178b7a9bd248ba8a523c03d7175a", "fusion_lon": 0.0, "type": "electric_scooter"}, {"rental_uris": {"ios": "https://dc.lft.to/lastmile_qr_scan", "android": "https://dc.lft.to/lastmile_qr_scan"}, "lat": 38.907577333333336, "lon": -77.016997, "fusion_lat": 0.0, "name": "ad90352d8f2c4637423a51d380489216", "is_disabled": 0, "is_reserved": 0, "bike_id": "ad90352d8f2c4637423a51d380489216", "fusion_lon": 0.0, "type": "electric_scooter"}, {"rental_uris": {"ios": "https://dc.lft.to/lastmile_qr_scan", "android": "https://dc.lft.to/lastmile_qr_scan"}, "lat": 38.901397, "lon": -77.04225083333333, "fusion_lat": 0.0, "name": "834b190cd9e59a185b97fe1b99d0e155", "is_disabled": 0, "is_reserved": 0, "bike_id": "834b190cd9e59a185b97fe1b99d0e155", "fusion_lon": 0.0, "type": "electric_scooter"}, {"rental_uris": {"ios": "https://dc.lft.to/lastmile_qr_scan", "android": "https://dc.lft.to/lastmile_qr_scan"}, "lat": 38.9321595, "lon": -77.03262966666667, "fusion_lat": 0.0, "name": "114614d78b8df72fb295520af7726a60", "is_disabled": 0, "is_reserved": 0, "bike_id": "114614d78b8df72fb295520af7726a60", "fusion_lon": 0.0, "type": "electric_scooter"}, {"rental_uris": {"ios": "https://dc.lft.to/lastmile_qr_scan", "android": "https://dc.lft.to/lastmile_qr_scan"}, "lat": 38.89221766666667, "lon": -77.04368066666666, "fusion_lat": 0.0, "name": "16c305e9bf227e3d32450356e026e2f7", "is_disabled": 0, "is_reserved": 0, "bike_id": "16c305e9bf227e3d32450356e026e2f7", "fusion_lon": 0.0, "type": "electric_scooter"}, {"rental_uris": {"ios": "https://dc.lft.to/lastmile_qr_scan", "android": "https://dc.lft.to/lastmile_qr_scan"}, "lat": 38.898677166666666, "lon": -76.94640333333334, "fusion_lat": 0.0, "name": "504c3aa73858e2259cf3d1e98a8ab967", "is_disabled": 0, "is_reserved": 0, "bike_id": "504c3aa73858e2259cf3d1e98a8ab967", "fusion_lon": 0.0, "type": "electric_scooter"}, {"rental_uris": {"ios": "https://dc.lft.to/lastmile_qr_scan", "android": "https://dc.lft.to/lastmile_qr_scan"}, "lat": 38.920022333333335, "lon": -77.02173616666667, "fusion_lat": 0.0, "name": "922bdac955cccd121b31897ad81b2f3e", "is_disabled": 0, "is_reserved": 0, "bike_id": "922bdac955cccd121b31897ad81b2f3e", "fusion_lon": 0.0, "type": "electric_scooter"}, {"rental_uris": {"ios": "https://dc.lft.to/lastmile_qr_scan", "android": "https://dc.lft.to/lastmile_qr_scan"}, "lat": 38.890085, "lon": -77.03320466666666, "fusion_lat": 0.0, "name": "cc681d59641926d4a057f0e9741e31f4", "is_disabled": 0, "is_reserved": 0, "bike_id": "cc681d59641926d4a057f0e9741e31f4", "fusion_lon": 0.0, "type": "electric_scooter"}, {"rental_uris": {"ios": "https://dc.lft.to/lastmile_qr_scan", "android": "https://dc.lft.to/lastmile_qr_scan"}, "lat": 38.89475083333333, "lon": -76.94860016666667, "fusion_lat": 0.0, "name": "291f4b3b57d9e43e07e359ae9fd1f631", "is_disabled": 0, "is_reserved": 0, "bike_id": "291f4b3b57d9e43e07e359ae9fd1f631", "fusion_lon": 0.0, "type": "electric_scooter"}, {"rental_uris": {"ios": "https://dc.lft.to/lastmile_qr_scan", "android": "https://dc.lft.to/lastmile_qr_scan"}, "lat": 38.8953145, "lon": -77.03347333333333, "fusion_lat": 0.0, "name": "60b252d1fac06052654115043c4e95f7", "is_disabled": 0, "is_reserved": 0, "bike_id": "60b252d1fac06052654115043c4e95f7", "fusion_lon": 0.0, "type": "electric_scooter"}, {"rental_uris": {"ios": "https://dc.lft.to/lastmile_qr_scan", "android": "https://dc.lft.to/lastmile_qr_scan"}, "lat": 38.926820166666666, "lon": -77.02271816666666, "fusion_lat": 0.0, "name": "923dcd7b0388332558f33a424bfb6ec0", "is_disabled": 0, "is_reserved": 0, "bike_id": "923dcd7b0388332558f33a424bfb6ec0", "fusion_lon": 0.0, "type": "electric_scooter"}, {"rental_uris": {"ios": "https://dc.lft.to/lastmile_qr_scan", "android": "https://dc.lft.to/lastmile_qr_scan"}, "lat": 38.90123083333334, "lon": -77.02795216666667, "fusion_lat": 0.0, "name": "cae4fc5e3cecbbfdcfd0a466770c2faf", "is_disabled": 0, "is_reserved": 0, "bike_id": "cae4fc5e3cecbbfdcfd0a466770c2faf", "fusion_lon": 0.0, "type": "electric_scooter"}, {"rental_uris": {"ios": "https://dc.lft.to/lastmile_qr_scan", "android": "https://dc.lft.to/lastmile_qr_scan"}, "lat": 38.915561333333336, "lon": -77.00645933333334, "fusion_lat": 0.0, "name": "04bf5604c34884a2d97bb4a869b5e4f1", "is_disabled": 0, "is_reserved": 0, "bike_id": "04bf5604c34884a2d97bb4a869b5e4f1", "fusion_lon": 0.0, "type": "electric_scooter"}, {"rental_uris": {"ios": "https://dc.lft.to/lastmile_qr_scan", "android": "https://dc.lft.to/lastmile_qr_scan"}, "lat": 38.91689266666667, "lon": -77.02914533333333, "fusion_lat": 0.0, "name": "2810c0c8e3cd3e624938d8bd3ede9757", "is_disabled": 0, "is_reserved": 0, "bike_id": "2810c0c8e3cd3e624938d8bd3ede9757", "fusion_lon": 0.0, "type": "electric_scooter"}, {"rental_uris": {"ios": "https://dc.lft.to/lastmile_qr_scan", "android": "https://dc.lft.to/lastmile_qr_scan"}, "lat": 38.88530083333333, "lon": -76.99823566666667, "fusion_lat": 0.0, "name": "53414b520e763307aeda5666defce314", "is_disabled": 0, "is_reserved": 0, "bike_id": "53414b520e763307aeda5666defce314", "fusion_lon": 0.0, "type": "electric_scooter"}, {"rental_uris": {"ios": "https://dc.lft.to/lastmile_qr_scan", "android": "https://dc.lft.to/lastmile_qr_scan"}, "lat": 38.873852666666664, "lon": -77.00076166666666, "fusion_lat": 0.0, "name": "d89324907c7d052038702403163b6086", "is_disabled": 0, "is_reserved": 0, "bike_id": "d89324907c7d052038702403163b6086", "fusion_lon": 0.0, "type": "electric_scooter"}, {"rental_uris": {"ios": "https://dc.lft.to/lastmile_qr_scan", "android": "https://dc.lft.to/lastmile_qr_scan"}, "lat": 38.957904666666664, "lon": -77.03217183333334, "fusion_lat": 0.0, "name": "bf6b1f19442a65cb6084c52cc4bf95a7", "is_disabled": 0, "is_reserved": 0, "bike_id": "bf6b1f19442a65cb6084c52cc4bf95a7", "fusion_lon": 0.0, "type": "electric_scooter"}, {"rental_uris": {"ios": "https://dc.lft.to/lastmile_qr_scan", "android": "https://dc.lft.to/lastmile_qr_scan"}, "lat": 38.872494833333334, "lon": -76.97730933333334, "fusion_lat": 0.0, "name": "e8586b539759b6b0d6ad524734580c8d", "is_disabled": 0, "is_reserved": 0, "bike_id": "e8586b539759b6b0d6ad524734580c8d", "fusion_lon": 0.0, "type": "electric_scooter"}, {"rental_uris": {"ios": "https://dc.lft.to/lastmile_qr_scan", "android": "https://dc.lft.to/lastmile_qr_scan"}, "lat": 38.9739795, "lon": -77.06455833333334, "fusion_lat": 0.0, "name": "7342d96ffa62f930dd9dadafba876344", "is_disabled": 0, "is_reserved": 0, "bike_id": "7342d96ffa62f930dd9dadafba876344", "fusion_lon": 0.0, "type": "electric_bike"}, {"rental_uris": {"ios": "https://dc.lft.to/lastmile_qr_scan", "android": "https://dc.lft.to/lastmile_qr_scan"}, "lat": 38.91680783333334, "lon": -77.029718, "fusion_lat": 0.0, "name": "03ab7fc21dfb9c4556eddee124d146cf", "is_disabled": 0, "is_reserved": 0, "bike_id": "03ab7fc21dfb9c4556eddee124d146cf", "fusion_lon": 0.0, "type": "electric_scooter"}, {"rental_uris": {"ios": "https://dc.lft.to/lastmile_qr_scan", "android": "https://dc.lft.to/lastmile_qr_scan"}, "lat": 38.9329675, "lon": -77.08537433333333, "fusion_lat": 0.0, "name": "66ed9b2fecbf9770cdefb09b23798116", "is_disabled": 0, "is_reserved": 0, "bike_id": "66ed9b2fecbf9770cdefb09b23798116", "fusion_lon": 0.0, "type": "electric_scooter"}, {"rental_uris": {"ios": "https://dc.lft.to/lastmile_qr_scan", "android": "https://dc.lft.to/lastmile_qr_scan"}, "lat": 38.916087166666664, "lon": -77.0228705, "fusion_lat": 0.0, "name": "d0534e3a84d7c3ca8adc4e929de5be5d", "is_disabled": 0, "is_reserved": 0, "bike_id": "d0534e3a84d7c3ca8adc4e929de5be5d", "fusion_lon": 0.0, "type": "electric_scooter"}, {"rental_uris": {"ios": "https://dc.lft.to/lastmile_qr_scan", "android": "https://dc.lft.to/lastmile_qr_scan"}, "lat": 38.884533833333336, "lon": -77.02503933333334, "fusion_lat": 0.0, "name": "8ac92381d75f93c45087f8119efd9ac0", "is_disabled": 0, "is_reserved": 0, "bike_id": "8ac92381d75f93c45087f8119efd9ac0", "fusion_lon": 0.0, "type": "electric_scooter"}, {"rental_uris": {"ios": "https://dc.lft.to/lastmile_qr_scan", "android": "https://dc.lft.to/lastmile_qr_scan"}, "lat": 38.897369, "lon": -77.0245765, "fusion_lat": 0.0, "name": "c8b4c2a35e1bbb0c832af6dcdde88daf", "is_disabled": 0, "is_reserved": 0, "bike_id": "c8b4c2a35e1bbb0c832af6dcdde88daf", "fusion_lon": 0.0, "type": "electric_scooter"}, {"rental_uris": {"ios": "https://dc.lft.to/lastmile_qr_scan", "android": "https://dc.lft.to/lastmile_qr_scan"}, "lat": 38.917382333333336, "lon": -77.03200966666667, "fusion_lat": 0.0, "name": "86487f8c10b586137a5c8f543088ee53", "is_disabled": 0, "is_reserved": 0, "bike_id": "86487f8c10b586137a5c8f543088ee53", "fusion_lon": 0.0, "type": "electric_scooter"}, {"rental_uris": {"ios": "https://dc.lft.to/lastmile_qr_scan", "android": "https://dc.lft.to/lastmile_qr_scan"}, "lat": 38.89496233333333, "lon": -77.021719, "fusion_lat": 0.0, "name": "a11fed29c533438ebd7d1fa123fca1eb", "is_disabled": 0, "is_reserved": 0, "bike_id": "a11fed29c533438ebd7d1fa123fca1eb", "fusion_lon": 0.0, "type": "electric_scooter"}, {"rental_uris": {"ios": "https://dc.lft.to/lastmile_qr_scan", "android": "https://dc.lft.to/lastmile_qr_scan"}, "lat": 38.950047833333336, "lon": -77.01844516666667, "fusion_lat": 0.0, "name": "798595212edc8dcab5e901e2f806324f", "is_disabled": 0, "is_reserved": 0, "bike_id": "798595212edc8dcab5e901e2f806324f", "fusion_lon": 0.0, "type": "electric_scooter"}, {"rental_uris": {"ios": "https://dc.lft.to/lastmile_qr_scan", "android": "https://dc.lft.to/lastmile_qr_scan"}, "lat": 38.90528716666667, "lon": -77.044845, "fusion_lat": 0.0, "name": "0c7dc1e96e4cf44fe05c8cf69682fe5f", "is_disabled": 0, "is_reserved": 0, "bike_id": "0c7dc1e96e4cf44fe05c8cf69682fe5f", "fusion_lon": 0.0, "type": "electric_scooter"}, {"rental_uris": {"ios": "https://dc.lft.to/lastmile_qr_scan", "android": "https://dc.lft.to/lastmile_qr_scan"}, "lat": 38.92699416666667, "lon": -77.03560566666667, "fusion_lat": 0.0, "name": "8dfbeebf300462f8140b93971e2e9379", "is_disabled": 0, "is_reserved": 0, "bike_id": "8dfbeebf300462f8140b93971e2e9379", "fusion_lon": 0.0, "type": "electric_scooter"}, {"rental_uris": {"ios": "https://dc.lft.to/lastmile_qr_scan", "android": "https://dc.lft.to/lastmile_qr_scan"}, "lat": 38.89356466666667, "lon": -77.02224033333333, "fusion_lat": 0.0, "name": "05f274ec5d4b740626f7d29f08d21638", "is_disabled": 0, "is_reserved": 0, "bike_id": "05f274ec5d4b740626f7d29f08d21638", "fusion_lon": 0.0, "type": "electric_scooter"}, {"rental_uris": {"ios": "https://dc.lft.to/lastmile_qr_scan", "android": "https://dc.lft.to/lastmile_qr_scan"}, "lat": 38.8563675, "lon": -77.11256016666667, "fusion_lat": 0.0, "name": "9a8749f5391e579431756dafc5e1fe4f", "is_disabled": 0, "is_reserved": 0, "bike_id": "9a8749f5391e579431756dafc5e1fe4f", "fusion_lon": 0.0, "type": "electric_bike"}, {"rental_uris": {"ios": "https://dc.lft.to/lastmile_qr_scan", "android": "https://dc.lft.to/lastmile_qr_scan"}, "lat": 38.90692883333333, "lon": -77.06071166666666, "fusion_lat": 0.0, "name": "d2c864e5a7c23138fa8b2a21703d6d75", "is_disabled": 0, "is_reserved": 0, "bike_id": "d2c864e5a7c23138fa8b2a21703d6d75", "fusion_lon": 0.0, "type": "electric_scooter"}, {"rental_uris": {"ios": "https://dc.lft.to/lastmile_qr_scan", "android": "https://dc.lft.to/lastmile_qr_scan"}, "lat": 38.91221516666667, "lon": -77.03197416666667, "fusion_lat": 0.0, "name": "a804d2d73061019ed1178b3eff4f3053", "is_disabled": 0, "is_reserved": 0, "bike_id": "a804d2d73061019ed1178b3eff4f3053", "fusion_lon": 0.0, "type": "electric_scooter"}, {"rental_uris": {"ios": "https://dc.lft.to/lastmile_qr_scan", "android": "https://dc.lft.to/lastmile_qr_scan"}, "lat": 38.9173955, "lon": -77.02116383333333, "fusion_lat": 0.0, "name": "156f5a8efa30e48bc82d9b7ac5d67fa4", "is_disabled": 0, "is_reserved": 0, "bike_id": "156f5a8efa30e48bc82d9b7ac5d67fa4", "fusion_lon": 0.0, "type": "electric_scooter"}, {"rental_uris": {"ios": "https://dc.lft.to/lastmile_qr_scan", "android": "https://dc.lft.to/lastmile_qr_scan"}, "lat": 38.8874675, "lon": -77.0315905, "fusion_lat": 0.0, "name": "113540ebe0424add8cd59553bade4ea3", "is_disabled": 0, "is_reserved": 0, "bike_id": "113540ebe0424add8cd59553bade4ea3", "fusion_lon": 0.0, "type": "electric_scooter"}, {"rental_uris": {"ios": "https://dc.lft.to/lastmile_qr_scan", "android": "https://dc.lft.to/lastmile_qr_scan"}, "lat": 38.90112583333333, "lon": -76.98064916666667, "fusion_lat": 0.0, "name": "ec12c50605ca134f16ec55b9bbb2389a", "is_disabled": 0, "is_reserved": 0, "bike_id": "ec12c50605ca134f16ec55b9bbb2389a", "fusion_lon": 0.0, "type": "electric_bike"}, {"rental_uris": {"ios": "https://dc.lft.to/lastmile_qr_scan", "android": "https://dc.lft.to/lastmile_qr_scan"}, "lat": 38.908675333333335, "lon": -76.99787816666667, "fusion_lat": 0.0, "name": "f1cd0a0c7c7e28f389cc5ade2e46db0e", "is_disabled": 0, "is_reserved": 0, "bike_id": "f1cd0a0c7c7e28f389cc5ade2e46db0e", "fusion_lon": 0.0, "type": "electric_scooter"}, {"rental_uris": {"ios": "https://dc.lft.to/lastmile_qr_scan", "android": "https://dc.lft.to/lastmile_qr_scan"}, "lat": 38.937583833333335, "lon": -77.022636, "fusion_lat": 0.0, "name": "e1fd630eeb4c2c17f418d96f93ee131a", "is_disabled": 0, "is_reserved": 0, "bike_id": "e1fd630eeb4c2c17f418d96f93ee131a", "fusion_lon": 0.0, "type": "electric_scooter"}, {"rental_uris": {"ios": "https://dc.lft.to/lastmile_qr_scan", "android": "https://dc.lft.to/lastmile_qr_scan"}, "lat": 38.929115833333334, "lon": -77.02089733333334, "fusion_lat": 0.0, "name": "f1e581ba16f31ef78a943c8c92b42182", "is_disabled": 0, "is_reserved": 0, "bike_id": "f1e581ba16f31ef78a943c8c92b42182", "fusion_lon": 0.0, "type": "electric_scooter"}, {"rental_uris": {"ios": "https://dc.lft.to/lastmile_qr_scan", "android": "https://dc.lft.to/lastmile_qr_scan"}, "lat": 38.8820965, "lon": -77.00344333333334, "fusion_lat": 0.0, "name": "015c60bee698e70cf234d823156ca395", "is_disabled": 0, "is_reserved": 0, "bike_id": "015c60bee698e70cf234d823156ca395", "fusion_lon": 0.0, "type": "electric_scooter"}, {"rental_uris": {"ios": "https://dc.lft.to/lastmile_qr_scan", "android": "https://dc.lft.to/lastmile_qr_scan"}, "lat": 38.903379, "lon": -77.061887, "fusion_lat": 0.0, "name": "ae247d252b95c6092e9a33bb4c9ecbdc", "is_disabled": 0, "is_reserved": 0, "bike_id": "ae247d252b95c6092e9a33bb4c9ecbdc", "fusion_lon": 0.0, "type": "electric_scooter"}, {"rental_uris": {"ios": "https://dc.lft.to/lastmile_qr_scan", "android": "https://dc.lft.to/lastmile_qr_scan"}, "lat": 38.938913, "lon": -77.03333533333333, "fusion_lat": 0.0, "name": "7b9e33a19b4e106e14963c242131aaf4", "is_disabled": 0, "is_reserved": 0, "bike_id": "7b9e33a19b4e106e14963c242131aaf4", "fusion_lon": 0.0, "type": "electric_scooter"}, {"rental_uris": {"ios": "https://dc.lft.to/lastmile_qr_scan", "android": "https://dc.lft.to/lastmile_qr_scan"}, "lat": 38.9016395, "lon": -76.930273, "fusion_lat": 0.0, "name": "c4a1e6e4127d39acbcc3144e352a88b6", "is_disabled": 0, "is_reserved": 0, "bike_id": "c4a1e6e4127d39acbcc3144e352a88b6", "fusion_lon": 0.0, "type": "electric_scooter"}, {"rental_uris": {"ios": "https://dc.lft.to/lastmile_qr_scan", "android": "https://dc.lft.to/lastmile_qr_scan"}, "lat": 38.916677, "lon": -77.02384083333334, "fusion_lat": 0.0, "name": "8e509c4d999087f6ac33cd4a62d774cc", "is_disabled": 0, "is_reserved": 0, "bike_id": "8e509c4d999087f6ac33cd4a62d774cc", "fusion_lon": 0.0, "type": "electric_scooter"}, {"rental_uris": {"ios": "https://dc.lft.to/lastmile_qr_scan", "android": "https://dc.lft.to/lastmile_qr_scan"}, "lat": 38.8841375, "lon": -76.95409766666667, "fusion_lat": 0.0, "name": "e5422665d2e761868e386fbe8729447c", "is_disabled": 0, "is_reserved": 0, "bike_id": "e5422665d2e761868e386fbe8729447c", "fusion_lon": 0.0, "type": "electric_bike"}, {"rental_uris": {"ios": "https://dc.lft.to/lastmile_qr_scan", "android": "https://dc.lft.to/lastmile_qr_scan"}, "lat": 38.9221825, "lon": -77.04333633333333, "fusion_lat": 0.0, "name": "8cbfe7023101a102ff7cb4cce3d3ae69", "is_disabled": 0, "is_reserved": 0, "bike_id": "8cbfe7023101a102ff7cb4cce3d3ae69", "fusion_lon": 0.0, "type": "electric_scooter"}, {"rental_uris": {"ios": "https://dc.lft.to/lastmile_qr_scan", "android": "https://dc.lft.to/lastmile_qr_scan"}, "lat": 38.859034333333334, "lon": -76.99548016666667, "fusion_lat": 0.0, "name": "449edd6f3b8eebc517ee2c79f2a9a988", "is_disabled": 0, "is_reserved": 0, "bike_id": "449edd6f3b8eebc517ee2c79f2a9a988", "fusion_lon": 0.0, "type": "electric_scooter"}, {"rental_uris": {"ios": "https://dc.lft.to/lastmile_qr_scan", "android": "https://dc.lft.to/lastmile_qr_scan"}, "lat": 38.90140183333333, "lon": -77.02931766666667, "fusion_lat": 0.0, "name": "86ff7c6dc540b1c8b38a1e9280d952bc", "is_disabled": 0, "is_reserved": 0, "bike_id": "86ff7c6dc540b1c8b38a1e9280d952bc", "fusion_lon": 0.0, "type": "electric_scooter"}, {"rental_uris": {"ios": "https://dc.lft.to/lastmile_qr_scan", "android": "https://dc.lft.to/lastmile_qr_scan"}, "lat": 38.927687166666665, "lon": -77.02767683333333, "fusion_lat": 0.0, "name": "84109c6d26c88aea6756aa43cf498e91", "is_disabled": 0, "is_reserved": 0, "bike_id": "84109c6d26c88aea6756aa43cf498e91", "fusion_lon": 0.0, "type": "electric_scooter"}, {"rental_uris": {"ios": "https://dc.lft.to/lastmile_qr_scan", "android": "https://dc.lft.to/lastmile_qr_scan"}, "lat": 38.937020833333335, "lon": -77.056079, "fusion_lat": 0.0, "name": "1cf68057637ca5ec313b878819c79e23", "is_disabled": 0, "is_reserved": 0, "bike_id": "1cf68057637ca5ec313b878819c79e23", "fusion_lon": 0.0, "type": "electric_bike"}, {"rental_uris": {"ios": "https://dc.lft.to/lastmile_qr_scan", "android": "https://dc.lft.to/lastmile_qr_scan"}, "lat": 38.954835, "lon": -77.0770765, "fusion_lat": 0.0, "name": "fc3432c53fb526f2fb79c9c62c8eb32d", "is_disabled": 0, "is_reserved": 0, "bike_id": "fc3432c53fb526f2fb79c9c62c8eb32d", "fusion_lon": 0.0, "type": "electric_bike"}, {"rental_uris": {"ios": "https://dc.lft.to/lastmile_qr_scan", "android": "https://dc.lft.to/lastmile_qr_scan"}, "lat": 38.90501183333333, "lon": -77.06884233333334, "fusion_lat": 0.0, "name": "7291aeeb688415f2c32147c93b107083", "is_disabled": 0, "is_reserved": 0, "bike_id": "7291aeeb688415f2c32147c93b107083", "fusion_lon": 0.0, "type": "electric_scooter"}, {"rental_uris": {"ios": "https://dc.lft.to/lastmile_qr_scan", "android": "https://dc.lft.to/lastmile_qr_scan"}, "lat": 38.90088033333333, "lon": -77.02373766666666, "fusion_lat": 0.0, "name": "0e173947546f6d9fc474cff00d7d306f", "is_disabled": 0, "is_reserved": 0, "bike_id": "0e173947546f6d9fc474cff00d7d306f", "fusion_lon": 0.0, "type": "electric_scooter"}, {"rental_uris": {"ios": "https://dc.lft.to/lastmile_qr_scan", "android": "https://dc.lft.to/lastmile_qr_scan"}, "lat": 38.917728333333336, "lon": -77.02299466666666, "fusion_lat": 0.0, "name": "569a6673d644179b264aca85bc728739", "is_disabled": 0, "is_reserved": 0, "bike_id": "569a6673d644179b264aca85bc728739", "fusion_lon": 0.0, "type": "electric_scooter"}, {"rental_uris": {"ios": "https://dc.lft.to/lastmile_qr_scan", "android": "https://dc.lft.to/lastmile_qr_scan"}, "lat": 38.897164333333336, "lon": -77.00795933333333, "fusion_lat": 0.0, "name": "6b70605902a46075e496555a36840adc", "is_disabled": 0, "is_reserved": 0, "bike_id": "6b70605902a46075e496555a36840adc", "fusion_lon": 0.0, "type": "electric_scooter"}, {"rental_uris": {"ios": "https://dc.lft.to/lastmile_qr_scan", "android": "https://dc.lft.to/lastmile_qr_scan"}, "lat": 38.9008575, "lon": -76.98339, "fusion_lat": 0.0, "name": "75d1319ff6705f187d2ff8dd2fdd5068", "is_disabled": 0, "is_reserved": 0, "bike_id": "75d1319ff6705f187d2ff8dd2fdd5068", "fusion_lon": 0.0, "type": "electric_scooter"}, {"rental_uris": {"ios": "https://dc.lft.to/lastmile_qr_scan", "android": "https://dc.lft.to/lastmile_qr_scan"}, "lat": 38.93303733333333, "lon": -77.0725775, "fusion_lat": 0.0, "name": "bd0067f530e8c8c9ad6e2aad7a6e9ff1", "is_disabled": 0, "is_reserved": 0, "bike_id": "bd0067f530e8c8c9ad6e2aad7a6e9ff1", "fusion_lon": 0.0, "type": "electric_scooter"}, {"rental_uris": {"ios": "https://dc.lft.to/lastmile_qr_scan", "android": "https://dc.lft.to/lastmile_qr_scan"}, "lat": 38.83159716666667, "lon": -76.99548366666667, "fusion_lat": 0.0, "name": "ab649332670da2b5e7a957a435de9693", "is_disabled": 0, "is_reserved": 0, "bike_id": "ab649332670da2b5e7a957a435de9693", "fusion_lon": 0.0, "type": "electric_bike"}, {"rental_uris": {"ios": "https://dc.lft.to/lastmile_qr_scan", "android": "https://dc.lft.to/lastmile_qr_scan"}, "lat": 38.887148333333336, "lon": -77.0177935, "fusion_lat": 0.0, "name": "2fd9ec5c4b53300dbfd86267e2ac61c4", "is_disabled": 0, "is_reserved": 0, "bike_id": "2fd9ec5c4b53300dbfd86267e2ac61c4", "fusion_lon": 0.0, "type": "electric_scooter"}, {"rental_uris": {"ios": "https://dc.lft.to/lastmile_qr_scan", "android": "https://dc.lft.to/lastmile_qr_scan"}, "lat": 38.897199666666666, "lon": -77.02435216666667, "fusion_lat": 0.0, "name": "b97b4e1126144a4b3436ec94805eeeb2", "is_disabled": 0, "is_reserved": 0, "bike_id": "b97b4e1126144a4b3436ec94805eeeb2", "fusion_lon": 0.0, "type": "electric_scooter"}, {"rental_uris": {"ios": "https://dc.lft.to/lastmile_qr_scan", "android": "https://dc.lft.to/lastmile_qr_scan"}, "lat": 38.920366666666666, "lon": -77.03406516666666, "fusion_lat": 0.0, "name": "19f7aa05902459c7a06c606c8241f1f7", "is_disabled": 0, "is_reserved": 0, "bike_id": "19f7aa05902459c7a06c606c8241f1f7", "fusion_lon": 0.0, "type": "electric_scooter"}, {"rental_uris": {"ios": "https://dc.lft.to/lastmile_qr_scan", "android": "https://dc.lft.to/lastmile_qr_scan"}, "lat": 38.91786916666667, "lon": -77.04349266666667, "fusion_lat": 0.0, "name": "0dd78a3754bc1587d7cb073cf175b50f", "is_disabled": 0, "is_reserved": 0, "bike_id": "0dd78a3754bc1587d7cb073cf175b50f", "fusion_lon": 0.0, "type": "electric_scooter"}, {"rental_uris": {"ios": "https://dc.lft.to/lastmile_qr_scan", "android": "https://dc.lft.to/lastmile_qr_scan"}, "lat": 38.9051145, "lon": -77.0013285, "fusion_lat": 0.0, "name": "da614ec004c724c9bc36cd28b6b28cfd", "is_disabled": 0, "is_reserved": 0, "bike_id": "da614ec004c724c9bc36cd28b6b28cfd", "fusion_lon": 0.0, "type": "electric_scooter"}, {"rental_uris": {"ios": "https://dc.lft.to/lastmile_qr_scan", "android": "https://dc.lft.to/lastmile_qr_scan"}, "lat": 38.912703666666665, "lon": -77.02388316666666, "fusion_lat": 0.0, "name": "f30c2d22503d4877a8e2bb263e142649", "is_disabled": 0, "is_reserved": 0, "bike_id": "f30c2d22503d4877a8e2bb263e142649", "fusion_lon": 0.0, "type": "electric_scooter"}, {"rental_uris": {"ios": "https://dc.lft.to/lastmile_qr_scan", "android": "https://dc.lft.to/lastmile_qr_scan"}, "lat": 38.907858166666664, "lon": -77.07154066666666, "fusion_lat": 0.0, "name": "0005b55c0624a64a5f1e74dbae17d834", "is_disabled": 0, "is_reserved": 0, "bike_id": "0005b55c0624a64a5f1e74dbae17d834", "fusion_lon": 0.0, "type": "electric_scooter"}, {"rental_uris": {"ios": "https://dc.lft.to/lastmile_qr_scan", "android": "https://dc.lft.to/lastmile_qr_scan"}, "lat": 38.932281, "lon": -77.181212, "fusion_lat": 0.0, "name": "7b6ab27b524f4a95f486ac972f032b88", "is_disabled": 0, "is_reserved": 0, "bike_id": "7b6ab27b524f4a95f486ac972f032b88", "fusion_lon": 0.0, "type": "electric_bike"}, {"rental_uris": {"ios": "https://dc.lft.to/lastmile_qr_scan", "android": "https://dc.lft.to/lastmile_qr_scan"}, "lat": 38.90767116666667, "lon": -77.0401025, "fusion_lat": 0.0, "name": "4062dd4dc0541816444287138c3ac228", "is_disabled": 0, "is_reserved": 0, "bike_id": "4062dd4dc0541816444287138c3ac228", "fusion_lon": 0.0, "type": "electric_scooter"}, {"rental_uris": {"ios": "https://dc.lft.to/lastmile_qr_scan", "android": "https://dc.lft.to/lastmile_qr_scan"}, "lat": 38.91417, "lon": -77.0420795, "fusion_lat": 0.0, "name": "6c5994996f6e2d2e6813bcf82f8d0346", "is_disabled": 0, "is_reserved": 0, "bike_id": "6c5994996f6e2d2e6813bcf82f8d0346", "fusion_lon": 0.0, "type": "electric_scooter"}, {"rental_uris": {"ios": "https://dc.lft.to/lastmile_qr_scan", "android": "https://dc.lft.to/lastmile_qr_scan"}, "lat": 38.92871133333333, "lon": -77.02775283333334, "fusion_lat": 0.0, "name": "978b4407fa09c56f91278faed0917ce2", "is_disabled": 0, "is_reserved": 0, "bike_id": "978b4407fa09c56f91278faed0917ce2", "fusion_lon": 0.0, "type": "electric_scooter"}, {"rental_uris": {"ios": "https://dc.lft.to/lastmile_qr_scan", "android": "https://dc.lft.to/lastmile_qr_scan"}, "lat": 38.902489833333334, "lon": -77.02483433333333, "fusion_lat": 0.0, "name": "8a55633c2601f01862bcc20901d60e24", "is_disabled": 0, "is_reserved": 0, "bike_id": "8a55633c2601f01862bcc20901d60e24", "fusion_lon": 0.0, "type": "electric_scooter"}, {"rental_uris": {"ios": "https://dc.lft.to/lastmile_qr_scan", "android": "https://dc.lft.to/lastmile_qr_scan"}, "lat": 38.9067815, "lon": -76.98001716666667, "fusion_lat": 0.0, "name": "7d74e48492663c480c98a90908834b23", "is_disabled": 0, "is_reserved": 0, "bike_id": "7d74e48492663c480c98a90908834b23", "fusion_lon": 0.0, "type": "electric_scooter"}, {"rental_uris": {"ios": "https://dc.lft.to/lastmile_qr_scan", "android": "https://dc.lft.to/lastmile_qr_scan"}, "lat": 38.934714166666666, "lon": -77.02972566666666, "fusion_lat": 0.0, "name": "4c83963b4db405c9494016d2f6d4b40a", "is_disabled": 0, "is_reserved": 0, "bike_id": "4c83963b4db405c9494016d2f6d4b40a", "fusion_lon": 0.0, "type": "electric_bike"}, {"rental_uris": {"ios": "https://dc.lft.to/lastmile_qr_scan", "android": "https://dc.lft.to/lastmile_qr_scan"}, "lat": 38.87469933333333, "lon": -77.009125, "fusion_lat": 0.0, "name": "996486df8a24bc6c019826b9ee7e3c53", "is_disabled": 0, "is_reserved": 0, "bike_id": "996486df8a24bc6c019826b9ee7e3c53", "fusion_lon": 0.0, "type": "electric_scooter"}, {"rental_uris": {"ios": "https://dc.lft.to/lastmile_qr_scan", "android": "https://dc.lft.to/lastmile_qr_scan"}, "lat": 38.91603933333333, "lon": -77.0488265, "fusion_lat": 0.0, "name": "1b575282911c80ad6af06c2b1e415e18", "is_disabled": 0, "is_reserved": 0, "bike_id": "1b575282911c80ad6af06c2b1e415e18", "fusion_lon": 0.0, "type": "electric_scooter"}, {"rental_uris": {"ios": "https://dc.lft.to/lastmile_qr_scan", "android": "https://dc.lft.to/lastmile_qr_scan"}, "lat": 38.8999495, "lon": -76.98551416666666, "fusion_lat": 0.0, "name": "bc6625f474cfe569c1e04911f1afa2c8", "is_disabled": 0, "is_reserved": 0, "bike_id": "bc6625f474cfe569c1e04911f1afa2c8", "fusion_lon": 0.0, "type": "electric_scooter"}, {"rental_uris": {"ios": "https://dc.lft.to/lastmile_qr_scan", "android": "https://dc.lft.to/lastmile_qr_scan"}, "lat": 38.916926333333336, "lon": -77.023718, "fusion_lat": 0.0, "name": "8ae7a32d51c5d84377583ddcb8b22bf4", "is_disabled": 0, "is_reserved": 0, "bike_id": "8ae7a32d51c5d84377583ddcb8b22bf4", "fusion_lon": 0.0, "type": "electric_scooter"}, {"rental_uris": {"ios": "https://dc.lft.to/lastmile_qr_scan", "android": "https://dc.lft.to/lastmile_qr_scan"}, "lat": 38.9046365, "lon": -76.97609566666667, "fusion_lat": 0.0, "name": "64fd974bf3e131d71122fa1ecb9f09d5", "is_disabled": 0, "is_reserved": 0, "bike_id": "64fd974bf3e131d71122fa1ecb9f09d5", "fusion_lon": 0.0, "type": "electric_scooter"}, {"rental_uris": {"ios": "https://dc.lft.to/lastmile_qr_scan", "android": "https://dc.lft.to/lastmile_qr_scan"}, "lat": 38.881238, "lon": -77.023633, "fusion_lat": 0.0, "name": "1840a2013fbed0e74ca9a138e32e2d77", "is_disabled": 0, "is_reserved": 0, "bike_id": "1840a2013fbed0e74ca9a138e32e2d77", "fusion_lon": 0.0, "type": "electric_scooter"}, {"rental_uris": {"ios": "https://dc.lft.to/lastmile_qr_scan", "android": "https://dc.lft.to/lastmile_qr_scan"}, "lat": 38.904698833333335, "lon": -77.04359516666666, "fusion_lat": 0.0, "name": "bc6cfca3e9265851b1f4c829958d9241", "is_disabled": 0, "is_reserved": 0, "bike_id": "bc6cfca3e9265851b1f4c829958d9241", "fusion_lon": 0.0, "type": "electric_scooter"},