{"data": {"bikes": [{"rental_uris": {"ios": "https://dc.lft.to/lastmile_qr_scan", "android": "https://dc.lft.to/lastmile_qr_scan"}, "lat": 38.8650775, "lon": -76.99003, "fusion_lat": 0.0, "name": "f7657cdc307d672c984658435887d44d", "is_disabled": 0, "is_reserved": 0, "bike_id": "f7657cdc307d672c984658435887d44d", "fusion_lon": 0.0, "type": "electric_scooter"}, {"rental_uris": {"ios": "https://dc.lft.to/lastmile_qr_scan", "android": "https://dc.lft.to/lastmile_qr_scan"}, "lat": 38.92461, "lon": -77.05235283333333, "fusion_lat": 0.0, "name": "d110fd63424af52a1991354df2aba309", "is_disabled": 0, "is_reserved": 0, "bike_id": "d110fd63424af52a1991354df2aba309", "fusion_lon": 0.0, "type": "electric_scooter"}, {"rental_uris": {"ios": "https://dc.lft.to/lastmile_qr_scan", "android": "https://dc.lft.to/lastmile_qr_scan"}, "lat": 38.853562833333335, "lon": -77.086868, "fusion_lat": 0.0, "name": "a89a4081d333be84e685a521c72b73bc", "is_disabled": 0, "is_reserved": 0, "bike_id": "a89a4081d333be84e685a521c72b73bc", "fusion_lon": 0.0, "type": "electric_bike"}, {"rental_uris": {"ios": "https://dc.lft.to/lastmile_qr_scan", "android": "https://dc.lft.to/lastmile_qr_scan"}, "lat": 38.95562816666666, "lon": -77.02721183333334, "fusion_lat": 0.0, "name": "cabae7e4e141209593493eb1e6c06d14", "is_disabled": 0, "is_reserved": 0, "bike_id": "cabae7e4e141209593493eb1e6c06d14", "fusion_lon": 0.0, "type": "electric_scooter"}, {"rental_uris": {"ios": "https://dc.lft.to/lastmile_qr_scan", "android": "https://dc.lft.to/lastmile_qr_scan"}, "lat": 38.915650166666666, "lon": -77.025695, "fusion_lat": 0.0, "name": "fa81c1957390cba51a72449b2876d133", "is_disabled": 0, "is_reserved": 0, "bike_id": "fa81c1957390cba51a72449b2876d133", "fusion_lon": 0.0, "type": "electric_scooter"}, {"rental_uris": {"ios": "https://dc.lft.to/lastmile_qr_scan", "android": "https://dc.lft.to/lastmile_qr_scan"}, "lat": 38.923288, "lon": -77.03677233333333, "fusion_lat": 0.0, "name": "8130243268449b54962f2bdf8c530e84", "is_disabled": 0, "is_reserved": 0, "bike_id": "8130243268449b54962f2bdf8c530e84", "fusion_lon": 0.0, "type": "electric_scooter"}, {"rental_uris": {"ios": "https://dc.lft.to/lastmile_qr_scan", "android": "https://dc.lft.to/lastmile_qr_scan"}, "lat": 38.9141355, "lon": -77.02612983333333, "fusion_lat": 0.0, "name": "a9398d3e14efdeca3961ae817d8ed231", "is_disabled": 0, "is_reserved": 0, "bike_id": "a9398d3e14efdeca3961ae817d8ed231", "fusion_lon": 0.0, "type": "electric_scooter"}, {"rental_uris": {"ios": "https://dc.lft.to/lastmile_qr_scan", "android": "https://dc.lft.to/lastmile_qr_scan"}, "lat": 38.89846033333333, "lon": -77.02736566666667, "fusion_lat": 0.0, "name": "619fedabb66d2504dcdfa6d44b9ec1e6", "is_disabled": 0, "is_reserved": 0, "bike_id": "619fedabb66d2504dcdfa6d44b9ec1e6", "fusion_lon": 0.0, "type": "electric_scooter"}, {"rental_uris": {"ios": "https://dc.lft.to/lastmile_qr_scan", "android": "https://dc.lft.to/lastmile_qr_scan"}, "lat": 38.9038425, "lon": -77.04505566666667, "fusion_lat": 0.0, "name": "06b0c52a9d155b706ec3e55cd04ceff8", "is_disabled": 0, "is_reserved": 0, "bike_id": "06b0c52a9d155b706ec3e55cd04ceff8", "fusion_lon": 0.0, "type": "electric_scooter"}, {"rental_uris": {"ios": "https://dc.lft.to/lastmile_qr_scan", "android": "https://dc.lft.to/lastmile_qr_scan"}, "lat": 38.922769, "lon": -77.04233983333333, "fusion_lat": 0.0, "name": "29e01b0229c542eda523f0731681d657", "is_disabled": 0, "is_reserved": 0, "bike_id": "29e01b0229c542eda523f0731681d657", "fusion_lon": 0.0, "type": "electric_scooter"}, {"rental_uris": {"ios": "https://dc.lft.to/lastmile_qr_scan", "android": "https://dc.lft.to/lastmile_qr_scan"}, "lat": 38.858472166666665, "lon": -76.98732266666667, "fusion_lat": 0.0, "name": "1985218929c1178dc371c90e4eaa5675", "is_disabled": 0, "is_reserved": 0, "bike_id": "1985218929c1178dc371c90e4eaa5675", "fusion_lon": 0.0, "type": "electric_scooter"}, {"rental_uris": {"ios": "https://dc.lft.to/lastmile_qr_scan", "android": "https://dc.lft.to/lastmile_qr_scan"}, "lat": 38.91408, "lon": -77.020114, "fusion_lat": 0.0, "name": "e5a5268c3dc286a66d336cde52bd1931", "is_disabled": 0, "is_reserved": 0, "bike_id": "e5a5268c3dc286a66d336cde52bd1931", "fusion_lon": 0.0, "type": "electric_scooter"}, {"rental_uris": {"ios": "https://dc.lft.to/lastmile_qr_scan", "android": "https://dc.lft.to/lastmile_qr_scan"}, "lat": 38.92023183333333, "lon": -77.02602283333333, "fusion_lat": 0.0, "name": "f619b53e64a5fbd02eeb673251e71ed1", "is_disabled": 0, "is_reserved": 0, "bike_id": "f619b53e64a5fbd02eeb673251e71ed1", "fusion_lon": 0.0, "type": "electric_scooter"}, {"rental_uris": {"ios": "https://dc.lft.to/lastmile_qr_scan", "android": "https://dc.lft.to/lastmile_qr_scan"}, "lat": 38.91656033333334, "lon": -77.02373533333333, "fusion_lat": 0.0, "name": "80c78ac7ae6fa0632986c8855e4de282", "is_disabled": 0, "is_reserved": 0, "bike_id": "80c78ac7ae6fa0632986c8855e4de282", "fusion_lon": 0.0, "type": "electric_scooter"}, {"rental_uris": {"ios": "https://dc.lft.to/lastmile_qr_scan", "android": "https://dc.lft.to/lastmile_qr_scan"}, "lat": 38.905681, "lon": -77.04324, "fusion_lat": 0.0, "name": "e65402f4191930608ed6a78a9504414f", "is_disabled": 0, "is_reserved": 0, "bike_id": "e65402f4191930608ed6a78a9504414f", "fusion_lon": 0.0, "type": "electric_scooter"}, {"rental_uris": {"ios": "https://dc.lft.to/lastmile_qr_scan", "android": "https://dc.lft.to/lastmile_qr_scan"}, "lat": 38.905835, "lon": -77.03994166666666, "fusion_lat": 0.0, "name": "c7e0f4d3cf1a8e71c29715d3bd63eeee", "is_disabled": 0, "is_reserved": 0, "bike_id": "c7e0f4d3cf1a8e71c29715d3bd63eeee", "fusion_lon": 0.0, "type": "electric_scooter"}, {"rental_uris": {"ios": "https://dc.lft.to/lastmile_qr_scan", "android": "https://dc.lft.to/lastmile_qr_scan"}, "lat": 38.94629966666667, "lon": -77.01845933333334, "fusion_lat": 0.0, "name": "1aa5abff49af45af3af1975675edaed2", "is_disabled": 0, "is_reserved": 0, "bike_id": "1aa5abff49af45af3af1975675edaed2", "fusion_lon": 0.0, "type": "electric_scooter"}, {"rental_uris": {"ios": "https://dc.lft.to/lastmile_qr_scan", "android": "https://dc.lft.to/lastmile_qr_scan"}, "lat": 38.894803333333336, "lon": -77.02275933333334, "fusion_lat": 0.0, "name": "a8920741fd14d9725181403ef1d2d6ed", "is_disabled": 0, "is_reserved": 0, "bike_id": "a8920741fd14d9725181403ef1d2d6ed", "fusion_lon": 0.0, "type": "electric_scooter"}, {"rental_uris": {"ios": "https://dc.lft.to/lastmile_qr_scan", "android": "https://dc.lft.to/lastmile_qr_scan"}, "lat": 38.8669265, "lon": -76.98709933333333, "fusion_lat": 0.0, "name": "6d10bc6fa89979ca039b82d7da2fd570", "is_disabled": 0, "is_reserved": 0, "bike_id": "6d10bc6fa89979ca039b82d7da2fd570", "fusion_lon": 0.0, "type": "electric_scooter"}, {"rental_uris": {"ios": "https://dc.lft.to/lastmile_qr_scan", "android": "https://dc.lft.to/lastmile_qr_scan"}, "lat": 38.9191115, "lon": -77.03200633333333, "fusion_lat": 0.0, "name": "d766091b33090791e15ed24cc970975e", "is_disabled": 0, "is_reserved": 0, "bike_id": "d766091b33090791e15ed24cc970975e", "fusion_lon": 0.0, "type": "electric_scooter"}, {"rental_uris": {"ios": "https://dc.lft.to/lastmile_qr_scan", "android": "https://dc.lft.to/lastmile_qr_scan"}, "lat": 38.93346866666667, "lon": -77.061984, "fusion_lat": 0.0, "name": "5eb363b2e8f6161c73967fc045a4da07", "is_disabled": 0, "is_reserved": 0, "bike_id": "5eb363b2e8f6161c73967fc045a4da07", "fusion_lon": 0.0, "type": "electric_scooter"}, {"rental_uris": {"ios": "https://dc.lft.to/lastmile_qr_scan", "android": "https://dc.lft.to/lastmile_qr_scan"}, "lat": 38.92440833333333, "lon": -77.01948133333333, "fusion_lat": 0.0, "name": "95f20372306d492f2221f7d77214e17b", "is_disabled": 0, "is_reserved": 0, "bike_id": "95f20372306d492f2221f7d77214e17b", "fusion_lon": 0.0, "type": "electric_scooter"}, {"rental_uris": {"ios": "https://dc.lft.to/lastmile_qr_scan", "android": "https://dc.lft.to/lastmile_qr_scan"}, "lat": 38.910157833333336, "lon": -77.03854583333333, "fusion_lat": 0.0, "name": "144bc1cab86ea1b440d91e5c3b4db6c6", "is_disabled": 0, "is_reserved": 0, "bike_id": "144bc1cab86ea1b440d91e5c3b4db6c6", "fusion_lon": 0.0, "type": "electric_scooter"}, {"rental_uris": {"ios": "https://dc.lft.to/lastmile_qr_scan", "android": "https://dc.lft.to/lastmile_qr_scan"}, "lat": 38.933622166666666, "lon": -77.07361916666666, "fusion_lat": 0.0, "name": "3b4f0e73d04a10d47531939f85d8fb86", "is_disabled": 0, "is_reserved": 0, "bike_id": "3b4f0e73d04a10d47531939f85d8fb86", "fusion_lon": 0.0, "type": "electric_scooter"}, {"rental_uris": {"ios": "https://dc.lft.to/lastmile_qr_scan", "android": "https://dc.lft.to/lastmile_qr_scan"}, "lat": 38.85765333333333, "lon": -76.99304066666667, "fusion_lat": 0.0, "name": "750844da18caafa4b58b29f617497494", "is_disabled": 0, "is_reserved": 0, "bike_id": "750844da18caafa4b58b29f617497494", "fusion_lon": 0.0, "type": "electric_scooter"}, {"rental_uris": {"ios": "https://dc.lft.to/lastmile_qr_scan", "android": "https://dc.lft.to/lastmile_qr_scan"}, "lat": 38.94154116666667, "lon": -77.0019845, "fusion_lat": 0.0, "name": "ff08dbaa03d9991152db9519e4114e36", "is_disabled": 0, "is_reserved": 0, "bike_id": "ff08dbaa03d9991152db9519e4114e36", "fusion_lon": 0.0, "type": "electric_bike"}, {"rental_uris": {"ios": "https://dc.lft.to/lastmile_qr_scan", "android": "https://dc.lft.to/lastmile_qr_scan"}, "lat": 38.82069516666667, "lon": -77.05375, "fusion_lat": 0.0, "name": "f89090b313daafcf98d0bc99152a04c4", "is_disabled": 0, "is_reserved": 0, "bike_id": "f89090b313daafcf98d0bc99152a04c4", "fusion_lon": 0.0, "type": "electric_bike"}, {"rental_uris": {"ios": "https://dc.lft.to/lastmile_qr_scan", "android": "https://dc.lft.to/lastmile_qr_scan"}, "lat": 38.907472166666665, "lon": -77.03843916666666, "fusion_lat": 0.0, "name": "f634807589a47c8bb0b2c966aeaf7304", "is_disabled": 0, "is_reserved": 0, "bike_id": "f634807589a47c8bb0b2c966aeaf7304", "fusion_lon": 0.0, "type": "electric_scooter"}, {"rental_uris": {"ios": "https://dc.lft.to/lastmile_qr_scan", "android": "https://dc.lft.to/lastmile_qr_scan"}, "lat": 38.918435, "lon": -77.03181516666666, "fusion_lat": 0.0, "name": "f641398d6f47e26f92cb6730e259cc55", "is_disabled": 0, "is_reserved": 0, "bike_id": "f641398d6f47e26f92cb6730e259cc55", "fusion_lon": 0.0, "type": "electric_scooter"}, {"rental_uris": {"ios": "https://dc.lft.to/lastmile_qr_scan", "android": "https://dc.lft.to/lastmile_qr_scan"}, "lat": 38.896202333333335, "lon": -76.99844, "fusion_lat": 0.0, "name": "05a90c950dff5f80e3d557f4b97bd31d", "is_disabled": 0, "is_reserved": 0, "bike_id": "05a90c950dff5f80e3d557f4b97bd31d", "fusion_lon": 0.0, "type": "electric_scooter"}, {"rental_uris": {"ios": "https://dc.lft.to/lastmile_qr_scan", "android": "https://dc.lft.to/lastmile_qr_scan"}, "lat": 38.899093, "lon": -77.03298616666666, "fusion_lat": 0.0, "name": "158bb0671f5f42c8c41e260e0ad280b1", "is_disabled": 0, "is_reserved": 0, "bike_id": "158bb0671f5f42c8c41e260e0ad280b1", "fusion_lon": 0.0, "type": "electric_scooter"}, {"rental_uris": {"ios": "https://dc.lft.to/lastmile_qr_scan", "android": "https://dc.lft.to/lastmile_qr_scan"}, "lat": 38.885178, "lon": -76.99087133333333, "fusion_lat": 0.0, "name": "807a6871a7dccec7b78af44394b7b6af", "is_disabled": 0, "is_reserved": 0, "bike_id": "807a6871a7dccec7b78af44394b7b6af", "fusion_lon": 0.0, "type": "electric_scooter"}, {"rental_uris": {"ios": "https://dc.lft.to/lastmile_qr_scan", "android": "https://dc.lft.to/lastmile_qr_scan"}, "lat": 38.9024215, "lon": -77.03945533333334, "fusion_lat": 0.0, "name": "0926844021be524cf60dd10a076059b5", "is_disabled": 0, "is_reserved": 0, "bike_id": "0926844021be524cf60dd10a076059b5", "fusion_lon": 0.0, "type": "electric_scooter"}, {"rental_uris": {"ios": "https://dc.lft.to/lastmile_qr_scan", "android": "https://dc.lft.to/lastmile_qr_scan"}, "lat": 38.928605, "lon": -77.030181, "fusion_lat": 0.0, "name": "057250f876a31bfaab8f2aa8b89af37a", "is_disabled": 0, "is_reserved": 0, "bike_id": "057250f876a31bfaab8f2aa8b89af37a", "fusion_lon": 0.0, "type": "electric_scooter"}, {"rental_uris": {"ios": "https://dc.lft.to/lastmile_qr_scan", "android": "https://dc.lft.to/lastmile_qr_scan"}, "lat": 38.88139316666667, "lon": -77.01664466666666, "fusion_lat": 0.0, "name": "da816e9aeed22143d4dc900c26f68a81", "is_disabled": 0, "is_reserved": 0, "bike_id": "da816e9aeed22143d4dc900c26f68a81", "fusion_lon": 0.0, "type": "electric_bike"}, {"rental_uris": {"ios": "https://dc.lft.to/lastmile_qr_scan", "android": "https://dc.lft.to/lastmile_qr_scan"}, "lat": 38.920002, "lon": -77.02171916666667, "fusion_lat": 0.0, "name": "b75556c39b9a2342574a5135faabf329", "is_disabled": 0, "is_reserved": 0, "bike_id": "b75556c39b9a2342574a5135faabf329", "fusion_lon": 0.0, "type": "electric_scooter"}, {"rental_uris": {"ios": "https://dc.lft.to/lastmile_qr_scan", "android": "https://dc.lft.to/lastmile_qr_scan"}, "lat": 38.8997855, "lon": -76.996081, "fusion_lat": 0.0, "name": "3b820c8d9e781ccabfff8d61a2d630e5", "is_disabled": 0, "is_reserved": 0, "bike_id": "3b820c8d9e781ccabfff8d61a2d630e5", "fusion_lon": 0.0, "type": "electric_scooter"}, {"rental_uris": {"ios": "https://dc.lft.to/lastmile_qr_scan", "android": "https://dc.lft.to/lastmile_qr_scan"}, "lat": 38.90892733333333, "lon": -77.04557916666667, "fusion_lat": 0.0, "name": "5d896408242862f9cb0dca178986d124", "is_disabled": 0, "is_reserved": 0, "bike_id": "5d896408242862f9cb0dca178986d124", "fusion_lon": 0.0, "type": "electric_scooter"}, {"rental_uris": {"ios": "https://dc.lft.to/lastmile_qr_scan", "android": "https://dc.lft.to/lastmile_qr_scan"}, "lat": 38.83809983333333, "lon": -77.09522116666666, "fusion_lat": 0.0, "name": "e19e447a0f6aeb31320c51e15537dd6b", "is_disabled": 0, "is_reserved": 0, "bike_id": "e19e447a0f6aeb31320c51e15537dd6b", "fusion_lon": 0.0, "type": "electric_bike"}, {"rental_uris": {"ios": "https://dc.lft.to/lastmile_qr_scan", "android": "https://dc.lft.to/lastmile_qr_scan"}, "lat": 38.908677833333336, "lon": -76.99783966666666, "fusion_lat": 0.0, "name": "279dd2813d71ac6b165c83872e5243b5", "is_disabled": 0, "is_reserved": 0, "bike_id": "279dd2813d71ac6b165c83872e5243b5", "fusion_lon": 0.0, "type": "electric_scooter"}, {"rental_uris": {"ios": "https://dc.lft.to/lastmile_qr_scan", "android": "https://dc.lft.to/lastmile_qr_scan"}, "lat": 38.965527333333334, "lon": -77.03624116666667, "fusion_lat": 0.0, "name": "a13b4de45d397110ee8f12a20a7e681b", "is_disabled": 0, "is_reserved": 0, "bike_id": "a13b4de45d397110ee8f12a20a7e681b", "fusion_lon": 0.0, "type": "electric_scooter"}, {"rental_uris": {"ios": "https://dc.lft.to/lastmile_qr_scan", "android": "https://dc.lft.to/lastmile_qr_scan"}, "lat": 38.8995985, "lon": -77.04535216666666, "fusion_lat": 0.0, "name": "c503c4dbe7aba9aa37cfb4a48ace5705", "is_disabled": 0, "is_reserved": 0, "bike_id": "c503c4dbe7aba9aa37cfb4a48ace5705", "fusion_lon": 0.0, "type": "electric_scooter"}, {"rental_uris": {"ios": "https://dc.lft.to/lastmile_qr_scan", "android": "https://dc.lft.to/lastmile_qr_scan"}, "lat": 38.89617116666667, "lon": -77.00355816666666, "fusion_lat": 0.0, "name": "21d78126030c4e54a6f6259f77002c2a", "is_disabled": 0, "is_reserved": 0, "bike_id": "21d78126030c4e54a6f6259f77002c2a", "fusion_lon": 0.0, "type": "electric_scooter"}, {"rental_uris": {"ios": "https://dc.lft.to/lastmile_qr_scan", "android": "https://dc.lft.to/lastmile_qr_scan"}, "lat": 38.8671345, "lon": -76.98712783333333, "fusion_lat": 0.0, "name": "7497a2f3a23b95eadd4a89a61a0a83a9", "is_disabled": 0, "is_reserved": 0, "bike_id": "7497a2f3a23b95eadd4a89a61a0a83a9", "fusion_lon": 0.0, "type": "electric_scooter"}, {"rental_uris": {"ios": "https://dc.lft.to/lastmile_qr_scan", "android": "https://dc.lft.to/lastmile_qr_scan"}, "lat": 38.899533, "lon": -77.04775183333334, "fusion_lat": 0.0, "name": "25942fe5c36b3627618bb96ca8e7935d", "is_disabled": 0, "is_reserved": 0, "bike_id": "25942fe5c36b3627618bb96ca8e7935d", "fusion_lon": 0.0, "type": "electric_scooter"}, {"rental_uris": {"ios": "https://dc.lft.to/lastmile_qr_scan", "android": "https://dc.lft.to/lastmile_qr_scan"}, "lat": 38.9357435, "lon": -77.019777, "fusion_lat": 0.0, "name": "e54bc845903a99fd11afccaa0c995da3", "is_disabled": 0, "is_reserved": 0, "bike_id": "e54bc845903a99fd11afccaa0c995da3", "fusion_lon": 0.0, "type": "electric_scooter"}, {"rental_uris": {"ios": "https://dc.lft.to/lastmile_qr_scan", "android": "https://dc.lft.to/lastmile_qr_scan"}, "lat": 38.894952333333336, "lon": -77.022814, "fusion_lat": 0.0, "name": "b0a45687512e8cf1044d081012681e54", "is_disabled": 0, "is_reserved": 0, "bike_id": "b0a45687512e8cf1044d081012681e54", "fusion_lon": 0.0, "type": "electric_scooter"}, {"rental_uris": {"ios": "https://dc.lft.to/lastmile_qr_scan", "android": "https://dc.lft.to/lastmile_qr_scan"}, "lat": 38.91401533333333, "lon": -77.02407916666667, "fusion_lat": 0.0, "name": "7732873b501b1c101d3c1f0071087563", "is_disabled": 0, "is_reserved": 0, "bike_id": "7732873b501b1c101d3c1f0071087563", "fusion_lon": 0.0, "type": "electric_scooter"}, {"rental_uris": {"ios": "https://dc.lft.to/lastmile_qr_scan", "android": "https://dc.lft.to/lastmile_qr_scan"}, "lat": 38.9052765, "lon": -77.0647785, "fusion_lat": 0.0, "name": "106704538f7d3f354168a186fe3ce4e7", "is_disabled": 0, "is_reserved": 0, "bike_id": "106704538f7d3f354168a186fe3ce4e7", "fusion_lon": 0.0, "type": "electric_scooter"}, {"rental_uris": {"ios": "https://dc.lft.to/lastmile_qr_scan", "android": "https://dc.lft.to/lastmile_qr_scan"}, "lat": 39.052775, "lon": -77.08069416666666, "fusion_lat": 0.0, "name": "c91364f08f3e018728489a109248b1d0", "is_disabled": 0, "is_reserved": 0, "bike_id": "c91364f08f3e018728489a109248b1d0", "fusion_lon": 0.0, "type": "electric_bike"}, {"rental_uris": {"ios": "https://dc.lft.to/lastmile_qr_scan", "android": "https://dc.lft.to/lastmile_qr_scan"}, "lat": 38.873577, "lon": -76.97028533333334, "fusion_lat": 0.0, "name": "f91395ba04adc2fe57ca7f46062bacad", "is_disabled": 0, "is_reserved": 0, "bike_id": "f91395ba04adc2fe57ca7f46062bacad", "fusion_lon": 0.0, "type": "electric_scooter"}, {"rental_uris": {"ios": "https://dc.lft.to/lastmile_qr_scan", "android": "https://dc.lft.to/lastmile_qr_scan"}, "lat": 38.91492383333333, "lon": -77.04478616666667, "fusion_lat": 0.0, "name": "95c379f5c4df1034e3b4c340303e2610", "is_disabled": 0, "is_reserved": 0, "bike_id": "95c379f5c4df1034e3b4c340303e2610", "fusion_lon": 0.0, "type": "electric_scooter"}, {"rental_uris": {"ios": "https://dc.lft.to/lastmile_qr_scan", "android": "https://dc.lft.to/lastmile_qr_scan"}, "lat": 38.899976833333334, "lon": -77.04502333333333, "fusion_lat": 0.0, "name": "bdee430a7eb1ebc555f4503ef1e7e661", "is_disabled": 0, "is_reserved": 0, "bike_id": "bdee430a7eb1ebc555f4503ef1e7e661", "fusion_lon": 0.0, "type": "electric_scooter"}, {"rental_uris": {"ios": "https://dc.lft.to/lastmile_qr_scan", "android": "https://dc.lft.to/lastmile_qr_scan"}, "lat": 38.87465133333333, "lon": -77.00487383333333, "fusion_lat": 0.0, "name": "b35b86641a0a567a8b08fcf6614c2c14", "is_disabled": 0, "is_reserved": 0, "bike_id": "b35b86641a0a567a8b08fcf6614c2c14", "fusion_lon": 0.0, "type": "electric_scooter"}, {"rental_uris": {"ios": "https://dc.lft.to/lastmile_qr_scan", "android": "https://dc.lft.to/lastmile_qr_scan"}, "lat": 38.91828316666667, "lon": -77.04943066666667, "fusion_lat": 0.0, "name": "89360a336dd6348bfb99d4ed5e457621", "is_disabled": 0, "is_reserved": 0, "bike_id": "89360a336dd6348bfb99d4ed5e457621", "fusion_lon": 0.0, "type": "electric_scooter"}, {"rental_uris": {"ios": "https://dc.lft.to/lastmile_qr_scan", "android": "https://dc.lft.to/lastmile_qr_scan"}, "lat": 38.933341666666664, "lon": -77.0206575, "fusion_lat": 0.0, "name": "f7da8cb59ca6b906e30b60025e215067", "is_disabled": 0, "is_reserved": 0, "bike_id": "f7da8cb59ca6b906e30b60025e215067", "fusion_lon": 0.0, "type": "electric_scooter"}, {"rental_uris": {"ios": "https://dc.lft.to/lastmile_qr_scan", "android": "https://dc.lft.to/lastmile_qr_scan"}, "lat": 38.921387333333335, "lon": -77.035022, "fusion_lat": 0.0, "name": "d639c718bd8c2c8744095b7ab810af4f", "is_disabled": 0, "is_reserved": 0, "bike_id": "d639c718bd8c2c8744095b7ab810af4f", "fusion_lon": 0.0, "type": "electric_scooter"}, {"rental_uris": {"ios": "https://dc.lft.to/lastmile_qr_scan", "android": "https://dc.lft.to/lastmile_qr_scan"}, "lat": 39.02433516666667, "lon": -77.13100216666666, "fusion_lat": 0.0, "name": "36dc8b9d8bc674b4de6384b31f871009", "is_disabled": 0, "is_reserved": 0, "bike_id": "36dc8b9d8bc674b4de6384b31f871009", "fusion_lon": 0.0, "type": "electric_bike"}, {"rental_uris": {"ios": "https://dc.lft.to/lastmile_qr_scan", "android": "https://dc.lft.to/lastmile_qr_scan"}, "lat": 38.908695333333334, "lon": -76.99955633333333, "fusion_lat": 0.0, "name": "266ee00597d1ac4ea2c0ef17b5d3f046", "is_disabled": 0, "is_reserved": 0, "bike_id": "266ee00597d1ac4ea2c0ef17b5d3f046", "fusion_lon": 0.0, "type": "electric_scooter"}, {"rental_uris": {"ios": "https://dc.lft.to/lastmile_qr_scan", "android": "https://dc.lft.to/lastmile_qr_scan"}, "lat": 38.90435316666667, "lon": -77.04847133333334, "fusion_lat": 0.0, "name": "39bd03fa509997b6cdaa76560bfca41f", "is_disabled": 0, "is_reserved": 0, "bike_id": "39bd03fa509997b6cdaa76560bfca41f", "fusion_lon": 0.0, "type": "electric_scooter"}, {"rental_uris": {"ios": "https://dc.lft.to/lastmile_qr_scan", "android": "https://dc.lft.to/lastmile_qr_scan"}, "lat": 38.91683616666667, "lon": -77.02885133333334, "fusion_lat": 0.0, "name": "cc51b86dafc7fa6c1a9eca9d6f2331e3", "is_disabled": 0, "is_reserved": 0, "bike_id": "cc51b86dafc7fa6c1a9eca9d6f2331e3", "fusion_lon": 0.0, "type": "electric_scooter"}, {"rental_uris": {"ios": "https://dc.lft.to/lastmile_qr_scan", "android": "https://dc.lft.to/lastmile_qr_scan"}, "lat": 38.91547633333333, "lon": -77.04459466666667, "fusion_lat": 0.0, "name": "41bcc0712a175e907b65905bd4ed51a3", "is_disabled": 0, "is_reserved": 0, "bike_id": "41bcc0712a175e907b65905bd4ed51a3", "fusion_lon": 0.0, "type": "electric_scooter"}, {"rental_uris": {"ios": "https://dc.lft.to/lastmile_qr_scan", "android": "https://dc.lft.to/lastmile_qr_scan"}, "lat": 38.934595, "lon": -76.9644005, "fusion_lat": 0.0, "name": "aa3608fea160dcb80916ef9cdf10c12d", "is_disabled": 0, "is_reserved": 0, "bike_id": "aa3608fea160dcb80916ef9cdf10c12d", "fusion_lon": 0.0, "type": "electric_scooter"}, {"rental_uris": {"ios": "https://dc.lft.to/lastmile_qr_scan", "android": "https://dc.lft.to/lastmile_qr_scan"}, "lat": 38.90198916666667, "lon": -77.01958383333333, "fusion_lat": 0.0, "name": "712dc9c676027bf57c6753291fcb6ef0", "is_disabled": 0, "is_reserved": 0, "bike_id": "712dc9c676027bf57c6753291fcb6ef0", "fusion_lon": 0.0, "type": "electric_scooter"}, {"rental_uris": {"ios": "https://dc.lft.to/lastmile_qr_scan", "android": "https://dc.lft.to/lastmile_qr_scan"}, "lat": 38.914969, "lon": -77.04549116666666, "fusion_lat": 0.0, "name": "f579b568065879435969219683fabbaf", "is_disabled": 0, "is_reserved": 0, "bike_id": "f579b568065879435969219683fabbaf", "fusion_lon": 0.0, "type": "electric_scooter"}, {"rental_uris": {"ios": "https://dc.lft.to/lastmile_qr_scan", "android": "https://dc.lft.to/lastmile_qr_scan"}, "lat": 38.93085766666667, "lon": -77.0375585, "fusion_lat": 0.0, "name": "19d1eff43f607ddae22b36279652c430", "is_disabled": 0, "is_reserved": 0, "bike_id": "19d1eff43f607ddae22b36279652c430", "fusion_lon": 0.0, "type": "electric_scooter"}, {"rental_uris": {"ios": "https://dc.lft.to/lastmile_qr_scan", "android": "https://dc.lft.to/lastmile_qr_scan"}, "lat": 38.91781, "lon": -77.02319583333333, "fusion_lat": 0.0, "name": "da303964ebd265d1d4fe53fe8a64a814", "is_disabled": 0, "is_reserved": 0, "bike_id": "da303964ebd265d1d4fe53fe8a64a814", "fusion_lon": 0.0, "type": "electric_scooter"}, {"rental_uris": {"ios": "https://dc.lft.to/lastmile_qr_scan", "android": "https://dc.lft.to/lastmile_qr_scan"}, "lat": 38.89850066666666, "lon": -77.0530135, "fusion_lat": 0.0, "name": "08d8982eb0c5869319f8324d1bf4c936", "is_disabled": 0, "is_reserved": 0, "bike_id": "08d8982eb0c5869319f8324d1bf4c936", "fusion_lon": 0.0, "type": "electric_bike"}, {"rental_uris": {"ios": "https://dc.lft.to/lastmile_qr_scan", "android": "https://dc.lft.to/lastmile_qr_scan"}, "lat": 38.904737833333336, "lon": -77.02803266666666, "fusion_lat": 0.0, "name": "59760d0ef4aa5ddd2e1dd1f0592c4c1b", "is_disabled": 0, "is_reserved": 0, "bike_id": "59760d0ef4aa5ddd2e1dd1f0592c4c1b", "fusion_lon": 0.0, "type": "electric_scooter"}, {"rental_uris": {"ios": "https://dc.lft.to/lastmile_qr_scan", "android": "https://dc.lft.to/lastmile_qr_scan"}, "lat": 38.8670275, "lon": -76.98711983333334, "fusion_lat": 0.0, "name": "a5255d0bb5150f92dee31278a7d49def", "is_disabled": 0, "is_reserved": 0, "bike_id": "a5255d0bb5150f92dee31278a7d49def", "fusion_lon": 0.0, "type": "electric_scooter"}, {"rental_uris": {"ios": "https://dc.lft.to/lastmile_qr_scan", "android": "https://dc.lft.to/lastmile_qr_scan"}, "lat": 38.93146566666667, "lon": -77.042452, "fusion_lat": 0.0, "name": "d435d414dac6404fd8ec6fbd7d1d7baa", "is_disabled": 0, "is_reserved": 0, "bike_id": "d435d414dac6404fd8ec6fbd7d1d7baa", "fusion_lon": 0.0, "type": "electric_scooter"}, {"rental_uris": {"ios": "https://dc.lft.to/lastmile_qr_scan", "android": "https://dc.lft.to/lastmile_qr_scan"}, "lat": 38.918381833333335, "lon": -77.03513316666667, "fusion_lat": 0.0, "name": "74f7344f53ed76a41291f758232b2936", "is_disabled": 0, "is_reserved": 0, "bike_id": "74f7344f53ed76a41291f758232b2936", "fusion_lon": 0.0, "type": "electric_scooter"}, {"rental_uris": {"ios": "https://dc.lft.to/lastmile_qr_scan", "android": "https://dc.lft.to/lastmile_qr_scan"}, "lat": 38.8960155, "lon": -77.0446485, "fusion_lat": 0.0, "name": "25f4ac59a751d55f6c7833179126742a", "is_disabled": 0, "is_reserved": 0, "bike_id": "25f4ac59a751d55f6c7833179126742a", "fusion_lon": 0.0, "type": "electric_scooter"}, {"rental_uris": {"ios": "https://dc.lft.to/lastmile_qr_scan", "android": "https://dc.lft.to/lastmile_qr_scan"}, "lat": 38.928711, "lon": -76.990261, "fusion_lat": 0.0, "name": "22495bd16f6597deb6e53ab8a568d443", "is_disabled": 0, "is_reserved": 0, "bike_id": "22495bd16f6597deb6e53ab8a568d443", "fusion_lon": 0.0, "type": "electric_scooter"}, {"rental_uris": {"ios": "https://dc.lft.to/lastmile_qr_scan", "android": "https://dc.lft.to/lastmile_qr_scan"}, "lat": 38.9169485, "lon": -77.037707, "fusion_lat": 0.0, "name": "49b49aff021c6aa743542ab9428ce5a2", "is_disabled": 0, "is_reserved": 0, "bike_id": "49b49aff021c6aa743542ab9428ce5a2", "fusion_lon": 0.0, "type": "electric_scooter"}, {"rental_uris": {"ios": "https://dc.lft.to/lastmile_qr_scan", "android": "https://dc.lft.to/lastmile_qr_scan"}, "lat": 38.916998166666666, "lon": -77.02416566666666, "fusion_lat": 0.0, "name": "d2944ca2dfd21cf85eedc451d8f405ec", "is_disabled": 0, "is_reserved": 0, "bike_id": "d2944ca2dfd21cf85eedc451d8f405ec", "fusion_lon": 0.0, "type": "electric_scooter"}, {"rental_uris": {"ios": "https://dc.lft.to/lastmile_qr_scan", "android": "https://dc.lft.to/lastmile_qr_scan"}, "lat": 38.917001, "lon": -77.02413883333334, "fusion_lat": 0.0, "name": "af2b3e197ef5c99008be33321e2c2f7f", "is_disabled": 0, "is_reserved": 0, "bike_id": "af2b3e197ef5c99008be33321e2c2f7f", "fusion_lon": 0.0, "type": "electric_scooter"}, {"rental_uris": {"ios": "https://dc.lft.to/lastmile_qr_scan", "android": "https://dc.lft.to/lastmile_qr_scan"}, "lat": 38.88712566666667, "lon": -77.01774633333333, "fusion_lat": 0.0, "name": "74c285bfaa5ac6f12dfc0929dc135342", "is_disabled": 0, "is_reserved": 0, "bike_id": "74c285bfaa5ac6f12dfc0929dc135342", "fusion_lon": 0.0, "type": "electric_scooter"}, {"rental_uris": {"ios": "https://dc.lft.to/lastmile_qr_scan", "android": "https://dc.lft.to/lastmile_qr_scan"}, "lat": 39.01366733333333, "lon": -76.921345, "fusion_lat": 0.0, "name": "b30ff9be4c3a4732d6761ae90d42aeb6", "is_disabled": 0, "is_reserved": 0, "bike_id": "b30ff9be4c3a4732d6761ae90d42aeb6", "fusion_lon": 0.0, "type": "electric_bike"}, {"rental_uris": {"ios": "https://dc.lft.to/lastmile_qr_scan", "android": "https://dc.lft.to/lastmile_qr_scan"}, "lat": 38.9058965, "lon": -77.0219075, "fusion_lat": 0.0, "name": "ad37c7c84271bdabed9038d74b195241", "is_disabled": 0, "is_reserved": 0, "bike_id": "ad37c7c84271bdabed9038d74b195241", "fusion_lon": 0.0, "type": "electric_scooter"}, {"rental_uris": {"ios": "https://dc.lft.to/lastmile_qr_scan", "android": "https://dc.lft.to/lastmile_qr_scan"}, "lat": 38.91818, "lon": -77.04152666666667, "fusion_lat": 0.0, "name": "4aa9f8ed97d14403eb4cb024cd34fc55", "is_disabled": 0, "is_reserved": 0, "bike_id": "4aa9f8ed97d14403eb4cb024cd34fc55", "fusion_lon": 0.0, "type": "electric_scooter"}, {"rental_uris": {"ios": "https://dc.lft.to/lastmile_qr_scan", "android": "https://dc.lft.to/lastmile_qr_scan"}, "lat": 38.914249833333336, "lon": -77.0198405, "fusion_lat": 0.0, "name": "c2c93321025b512ea93a739b7a264f0d", "is_disabled": 0, "is_reserved": 0, "bike_id": "c2c93321025b512ea93a739b7a264f0d", "fusion_lon": 0.0, "type": "electric_scooter"}, {"rental_uris": {"ios": "https://dc.lft.to/lastmile_qr_scan", "android": "https://dc.lft.to/lastmile_qr_scan"}, "lat": 38.9409015, "lon": -77.02720633333334, "fusion_lat": 0.0, "name": "d32c10d27141b517a27b3eefa3725d4c", "is_disabled": 0, "is_reserved": 0, "bike_id": "d32c10d27141b517a27b3eefa3725d4c", "fusion_lon": 0.0, "type": "electric_scooter"}, {"rental_uris": {"ios": "https://dc.lft.to/lastmile_qr_scan", "android": "https://dc.lft.to/lastmile_qr_scan"}, "lat": 38.90524716666667, "lon": -77.04743016666667, "fusion_lat": 0.0, "name": "1ff1904f664bd77f0b39320de4b9d28e", "is_disabled": 0, "is_reserved": 0, "bike_id": "1ff1904f664bd77f0b39320de4b9d28e", "fusion_lon": 0.0, "type": "electric_scooter"}, {"rental_uris": {"ios": "https://dc.lft.to/lastmile_qr_scan", "android": "https://dc.lft.to/lastmile_qr_scan"}, "lat": 38.906454, "lon": -77.00584966666666, "fusion_lat": 0.0, "name": "90bc6a77edc850b49beb32ddbf6d4fef", "is_disabled": 0, "is_reserved": 0, "bike_id": "90bc6a77edc850b49beb32ddbf6d4fef", "fusion_lon": 0.0, "type": "electric_scooter"}, {"rental_uris": {"ios": "https://dc.lft.to/lastmile_qr_scan", "android": "https://dc.lft.to/lastmile_qr_scan"}, "lat": 38.924161833333336, "lon": -77.019581, "fusion_lat": 0.0, "name": "b43c981194512928a842722c621d971d", "is_disabled": 0, "is_reserved": 0, "bike_id": "b43c981194512928a842722c621d971d", "fusion_lon": 0.0, "type": "electric_scooter"}, {"rental_uris": {"ios": "https://dc.lft.to/lastmile_qr_scan", "android": "https://dc.lft.to/lastmile_qr_scan"}, "lat": 38.88541933333333, "lon": -77.00578133333333, "fusion_lat": 0.0, "name": "5eae0fc441110fecd3703d5aed70b870", "is_disabled": 0, "is_reserved": 0, "bike_id": "5eae0fc441110fecd3703d5aed70b870", "fusion_lon": 0.0, "type": "electric_scooter"}, {"rental_uris": {"ios": "https://dc.lft.to/lastmile_qr_scan", "android": "https://dc.lft.to/lastmile_qr_scan"}, "lat": 38.90311033333333, "lon": -77.04865233333334, "fusion_lat": 0.0, "name": "ae6ff588cbca92b1f4f916a06cae24fc", "is_disabled": 0, "is_reserved": 0, "bike_id": "ae6ff588cbca92b1f4f916a06cae24fc", "fusion_lon": 0.0, "type": "electric_scooter"}, {"rental_uris": {"ios": "https://dc.lft.to/lastmile_qr_scan", "android": "https://dc.lft.to/lastmile_qr_scan"}, "lat": 38.91772483333333, "lon": -77.02950683333333, "fusion_lat": 0.0, "name": "e7e104c228de4200c16aabbbcef94b27", "is_disabled": 0, "is_reserved": 0, "bike_id": "e7e104c228de4200c16aabbbcef94b27", "fusion_lon": 0.0, "type": "electric_scooter"}, {"rental_uris": {"ios": "https://dc.lft.to/lastmile_qr_scan", "android": "https://dc.lft.to/lastmile_qr_scan"}, "lat": 38.90820033333333, "lon": -76.99710883333333, "fusion_lat": 0.0, "name": "bc39f237d16f2732b9293d1133ac1d00", "is_disabled": 0, "is_reserved": 0, "bike_id": "bc39f237d16f2732b9293d1133ac1d00", "fusion_lon": 0.0, "type": "electric_scooter"}, {"rental_uris": {"ios": "https://dc.lft.to/lastmile_qr_scan", "android": "https://dc.lft.to/lastmile_qr_scan"}, "lat": 38.9111035, "lon": -77.021727, "fusion_lat": 0.0, "name": "c1773a16ad210d6b71afdb48004bc490", "is_disabled": 0, "is_reserved": 0, "bike_id": "c1773a16ad210d6b71afdb48004bc490", "fusion_lon": 0.0, "type": "electric_scooter"}, {"rental_uris": {"ios": "https://dc.lft.to/lastmile_qr_scan", "android": "https://dc.lft.to/lastmile_qr_scan"}, "lat": 38.9046495, "lon": -77.01937533333333, "fusion_lat": 0.0, "name": "a6f2c55cdb7f8b3cf0c0e13a5e63a189", "is_disabled": 0, "is_reserved": 0, "bike_id": "a6f2c55cdb7f8b3cf0c0e13a5e63a189", "fusion_lon": 0.0, "type": "electric_scooter"}, {"rental_uris": {"ios": "https://dc.lft.to/lastmile_qr_scan", "android": "https://dc.lft.to/lastmile_qr_scan"}, "lat": 38.92118466666667, "lon": -77.03657016666666, "fusion_lat": 0.0, "name": "de0cfdcde94455a8f77a226515cb91c2", "is_disabled": 0, "is_reserved": 0, "bike_id": "de0cfdcde94455a8f77a226515cb91c2", "fusion_lon": 0.0, "type": "electric_scooter"}, {"rental_uris": {"ios": "https://dc.lft.to/lastmile_qr_scan", "android": "https://dc.lft.to/lastmile_qr_scan"}, "lat": 38.916019666666664, "lon": -77.04830933333334, "fusion_lat": 0.0, "name": "862961772654f03aff44ce5dd8e15d4b", "is_disabled": 0, "is_reserved": 0, "bike_id": "862961772654f03aff44ce5dd8e15d4b", "fusion_lon": 0.0, "type": "electric_scooter"}, {"rental_uris": {"ios": "https://dc.lft.to/lastmile_qr_scan", "android": "https://dc.lft.to/lastmile_qr_scan"}, "lat": 38.90060616666667, "lon": -77.03653683333333, "fusion_lat": 0.0, "name": "90d196df03b0761dd658e724a62335d1", "is_disabled": 0, "is_reserved": 0, "bike_id": "90d196df03b0761dd658e724a62335d1", "fusion_lon": 0.0, "type": "electric_scooter"}, {"rental_uris": {"ios": "https://dc.lft.to/lastmile_qr_scan", "android": "https://dc.lft.to/lastmile_qr_scan"}, "lat": 38.901309166666664, "lon": -77.04363783333334, "fusion_lat": 0.0, "name": "d0dfaffe4f8cbf76cab79c9f61d62eae", "is_disabled": 0, "is_reserved": 0, "bike_id": "d0dfaffe4f8cbf76cab79c9f61d62eae", "fusion_lon": 0.0, "type": "electric_scooter"}, {"rental_uris": {"ios": "https://dc.lft.to/lastmile_qr_scan", "android": "https://dc.lft.to/lastmile_qr_scan"}, "lat": 38.923495, "lon": -77.035043, "fusion_lat": 0.0, "name": "b5a1d23f811d7cbf82c70678c09b2c92", "is_disabled": 0, "is_reserved": 0, "bike_id": "b5a1d23f811d7cbf82c70678c09b2c92", "fusion_lon": 0.0, "type": "electric_scooter"}, {"rental_uris": {"ios": "https://dc.lft.to/lastmile_qr_scan", "android": "https://dc.lft.to/lastmile_qr_scan"}, "lat": 38.888172, "lon": -76.93010283333334, "fusion_lat": 0.0, "name": "4c2dce4ef0627834c1a35c702472a59c", "is_disabled": 0, "is_reserved": 0, "bike_id": "4c2dce4ef0627834c1a35c702472a59c", "fusion_lon": 0.0, "type": "electric_scooter"}, {"rental_uris": {"ios": "https://dc.lft.to/lastmile_qr_scan", "android": "https://dc.lft.to/lastmile_qr_scan"}, "lat": 39.03991716666667, "lon": -76.99932866666667, "fusion_lat": 0.0, "name": "a02e6cfaa003281fdb195528efafa8f3", "is_disabled": 0, "is_reserved": 0, "bike_id": "a02e6cfaa003281fdb195528efafa8f3", "fusion_lon": 0.0, "type": "electric_bike"}, {"rental_uris": {"ios": "https://dc.lft.to/lastmile_qr_scan", "android": "https://dc.lft.to/lastmile_qr_scan"}, "lat": 38.90726883333333, "lon": -77.02265766666666, "fusion_lat": 0.0, "name": "2d0e8ea707d85a23f164226177882c1e", "is_disabled": 0, "is_reserved": 0, "bike_id": "2d0e8ea707d85a23f164226177882c1e", "fusion_lon": 0.0, "type": "electric_scooter"}, {"rental_uris": {"ios": "https://dc.lft.to/lastmile_qr_scan", "android": "https://dc.lft.to/lastmile_qr_scan"}, "lat": 38.92387866666667, "lon": -77.0300725, "fusion_lat": 0.0, "name": "0ea3d796eb91ae628ef7a9df114c23b0", "is_disabled": 0, "is_reserved": 0, "bike_id": "0ea3d796eb91ae628ef7a9df114c23b0", "fusion_lon": 0.0, "type": "electric_bike"}, {"rental_uris": {"ios": "https://dc.lft.to/lastmile_qr_scan", "android": "https://dc.lft.to/lastmile_qr_scan"}, "lat": 38.932413, "lon": -76.99517316666666, "fusion_lat": 0.0, "name": "c15d7292342597240cca18cc837047a6", "is_disabled": 0, "is_reserved": 0, "bike_id": "c15d7292342597240cca18cc837047a6", "fusion_lon": 0.0, "type": "electric_scooter"}, {"rental_uris": {"ios": "https://dc.lft.to/lastmile_qr_scan", "android": "https://dc.lft.to/lastmile_qr_scan"}, "lat": 38.9221805, "lon": -77.03459933333333, "fusion_lat": 0.0, "name": "78db4e3b57a8b1b8a2589ec090614908", "is_disabled": 0, "is_reserved": 0, "bike_id": "78db4e3b57a8b1b8a2589ec090614908", "fusion_lon": 0.0, "type": "electric_scooter"}, {"rental_uris": {"ios": "https://dc.lft.to/lastmile_qr_scan", "android": "https://dc.lft.to/lastmile_qr_scan"}, "lat": 38.87627116666667, "lon": -76.9653425, "fusion_lat": 0.0, "name": "14a5b30ad06471c655878a1caebd02eb", "is_disabled": 0, "is_reserved": 0, "bike_id": "14a5b30ad06471c655878a1caebd02eb", "fusion_lon": 0.0, "type": "electric_scooter"}, {"rental_uris": {"ios": "https://dc.lft.to/lastmile_qr_scan", "android": "https://dc.lft.to/lastmile_qr_scan"}, "lat": 38.926736, "lon": -77.01507616666666, "fusion_lat": 0.0, "name": "03b9ed565b9f533dd40ed77dba679966", "is_disabled": 0, "is_reserved": 0, "bike_id": "03b9ed565b9f533dd40ed77dba679966", "fusion_lon": 0.0, "type": "electric_scooter"}, {"rental_uris": {"ios": "https://dc.lft.to/lastmile_qr_scan", "android": "https://dc.lft.to/lastmile_qr_scan"}, "lat": 38.88185566666667, "lon": -77.02084966666666, "fusion_lat": 0.0, "name": "c075e2c33942201c7d208aa8e935a8dd", "is_disabled": 0, "is_reserved": 0, "bike_id": "c075e2c33942201c7d208aa8e935a8dd", "fusion_lon": 0.0, "type": "electric_scooter"}, {"rental_uris": {"ios": "https://dc.lft.to/lastmile_qr_scan", "android": "https://dc.lft.to/lastmile_qr_scan"}, "lat": 38.92322, "lon": -77.04443633333334, "fusion_lat": 0.0, "name": "0e6cefe2a161b24b252c8beacbd58fe0", "is_disabled": 0, "is_reserved": 0, "bike_id": "0e6cefe2a161b24b252c8beacbd58fe0", "fusion_lon": 0.0, "type": "electric_scooter"}, {"rental_uris": {"ios": "https://dc.lft.to/lastmile_qr_scan", "android": "https://dc.lft.to/lastmile_qr_scan"}, "lat": 38.8833945, "lon": -76.99486766666666, "fusion_lat": 0.0, "name": "85f29c30e77a9779d66ee16f2ed400f1", "is_disabled": 0, "is_reserved": 0, "bike_id": "85f29c30e77a9779d66ee16f2ed400f1", "fusion_lon": 0.0, "type": "electric_scooter"}, {"rental_uris": {"ios": "https://dc.lft.to/lastmile_qr_scan", "android": "https://dc.lft.to/lastmile_qr_scan"}, "lat": 38.93196416666667, "lon": -77.02398916666667, "fusion_lat": 0.0, "name": "0b859cd97eb6b05d2ffce7a3dba69636", "is_disabled": 0, "is_reserved": 0, "bike_id": "0b859cd97eb6b05d2ffce7a3dba69636", "fusion_lon": 0.0, "type": "electric_scooter"}, {"rental_uris": {"ios": "https://dc.lft.to/lastmile_qr_scan", "android": "https://dc.lft.to/lastmile_qr_scan"}, "lat": 38.8866095, "lon": -77.16234866666667, "fusion_lat": 0.0, "name": "00ca0651a4d342091a5f2e91541c4bee", "is_disabled": 0, "is_reserved": 0, "bike_id": "00ca0651a4d342091a5f2e91541c4bee", "fusion_lon": 0.0, "type": "electric_bike"}, {"rental_uris": {"ios": "https://dc.lft.to/lastmile_qr_scan", "android": "https://dc.lft.to/lastmile_qr_scan"}, "lat": 38.9499545, "lon": -77.01830416666667, "fusion_lat": 0.0, "name": "88212f9794eb213cb98a3a38cb09158c", "is_disabled": 0, "is_reserved": 0, "bike_id": "88212f9794eb213cb98a3a38cb09158c", "fusion_lon": 0.0, "type": "electric_scooter"}, {"rental_uris": {"ios": "https://dc.lft.to/lastmile_qr_scan", "android": "https://dc.lft.to/lastmile_qr_scan"}, "lat": 38.9015925, "lon": -77.04386633333333, "fusion_lat": 0.0, "name": "13ac7841e168a181cd92cd1e0a142cf4", "is_disabled": 0, "is_reserved": 0, "bike_id": "13ac7841e168a181cd92cd1e0a142cf4", "fusion_lon": 0.0, "type": "electric_bike"}, {"rental_uris": {"ios": "https://dc.lft.to/lastmile_qr_scan", "android": "https://dc.lft.to/lastmile_qr_scan"}, "lat": 38.9006275, "lon": -76.92741966666667, "fusion_lat": 0.0, "name": "9b9e4c9bb9e7f353fb5bd8a89d6edd66", "is_disabled": 0, "is_reserved": 0, "bike_id": "9b9e4c9bb9e7f353fb5bd8a89d6edd66", "fusion_lon": 0.0, "type": "electric_scooter"}, {"rental_uris": {"ios": "https://dc.lft.to/lastmile_qr_scan", "android": "https://dc.lft.to/lastmile_qr_scan"}, "lat": 38.906937, "lon": -77.023885, "fusion_lat": 0.0, "name": "d30fc8cfdde2a4ceca38d5bdb4e48195", "is_disabled": 0, "is_reserved": 0, "bike_id": "d30fc8cfdde2a4ceca38d5bdb4e48195", "fusion_lon": 0.0, "type": "electric_scooter"}, {"rental_uris": {"ios": "https://dc.lft.to/lastmile_qr_scan", "android": "https://dc.lft.to/lastmile_qr_scan"}, "lat": 38.87651316666667, "lon": -77.00435166666666, "fusion_lat": 0.0, "name": "63d7d6fcd975bb8ecd77d615443c1cf6", "is_disabled": 0, "is_reserved": 0, "bike_id": "63d7d6fcd975bb8ecd77d615443c1cf6", "fusion_lon": 0.0, "type": "electric_scooter"}, {"rental_uris": {"ios": "https://dc.lft.to/lastmile_qr_scan", "android": "https://dc.lft.to/lastmile_qr_scan"}, "lat": 38.914153166666665, "lon": -77.01318716666667, "fusion_lat": 0.0, "name": "4cbc4c47d1607def03c3057df8ca6b77", "is_disabled": 0, "is_reserved": 0, "bike_id": "4cbc4c47d1607def03c3057df8ca6b77", "fusion_lon": 0.0, "type": "electric_scooter"}, {"rental_uris": {"ios": "https://dc.lft.to/lastmile_qr_scan", "android": "https://dc.lft.to/lastmile_qr_scan"}, "lat": 38.86744783333333, "lon": -76.97859283333334, "fusion_lat": 0.0, "name": "698e64fa7d01a8ce7790e7e7c45e8822", "is_disabled": 0, "is_reserved": 0, "bike_id": "698e64fa7d01a8ce7790e7e7c45e8822", "fusion_lon": 0.0, "type": "electric_scooter"}, {"rental_uris": {"ios": "https://dc.lft.to/lastmile_qr_scan", "android": "https://dc.lft.to/lastmile_qr_scan"}, "lat": 38.9141965, "lon": -77.01805133333333, "fusion_lat": 0.0, "name": "adde8824ef57ece7c3812cbd1bef8790", "is_disabled": 0, "is_reserved": 0, "bike_id": "adde8824ef57ece7c3812cbd1bef8790", "fusion_lon": 0.0, "type": "electric_scooter"}, {"rental_uris": {"ios": "https://dc.lft.to/lastmile_qr_scan", "android": "https://dc.lft.to/lastmile_qr_scan"}, "lat": 38.915546, "lon": -77.02209483333333, "fusion_lat": 0.0, "name": "cdc1153a6556d75f51c5843284de71d8", "is_disabled": 0, "is_reserved": 0, "bike_id": "cdc1153a6556d75f51c5843284de71d8", "fusion_lon": 0.0, "type": "electric_scooter"}, {"rental_uris": {"ios": "https://dc.lft.to/lastmile_qr_scan", "android": "https://dc.lft.to/lastmile_qr_scan"}, "lat": 38.92234166666667, "lon": -77.03515366666667, "fusion_lat": 0.0, "name": "b3c5c154f9724e98398ea08970bcb93d", "is_disabled": 0, "is_reserved": 0, "bike_id": "b3c5c154f9724e98398ea08970bcb93d", "fusion_lon": 0.0, "type": "electric_scooter"}, {"rental_uris": {"ios": "https://dc.lft.to/lastmile_qr_scan", "android": "https://dc.lft.to/lastmile_qr_scan"}, "lat": 38.925980833333334, "lon": -77.0238495, "fusion_lat": 0.0, "name": "1290e1b0cab5bd795ccd896275f4ab75", "is_disabled": 0, "is_reserved": 0, "bike_id": "1290e1b0cab5bd795ccd896275f4ab75", "fusion_lon": 0.0, "type": "electric_scooter"}, {"rental_uris": {"ios": "https://dc.lft.to/lastmile_qr_scan", "android": "https://dc.lft.to/lastmile_qr_scan"}, "lat": 38.87378783333333, "lon": -77.00111583333333, "fusion_lat": 0.0, "name": "34a8c95a433a1880a13134db07b4e2bc", "is_disabled": 0, "is_reserved": 0, "bike_id": "34a8c95a433a1880a13134db07b4e2bc", "fusion_lon": 0.0, "type": "electric_scooter"}, {"rental_uris": {"ios": "https://dc.lft.to/lastmile_qr_scan", "android": "https://dc.lft.to/lastmile_qr_scan"}, "lat": 38.92400683333334, "lon": -77.01223433333334, "fusion_lat": 0.0, "name": "7aa4ce07eed67a93471941c8424aad94", "is_disabled": 0, "is_reserved": 0, "bike_id": "7aa4ce07eed67a93471941c8424aad94", "fusion_lon": 0.0, "type": "electric_scooter"}, {"rental_uris": {"ios": "https://dc.lft.to/lastmile_qr_scan", "android": "https://dc.lft.to/lastmile_qr_scan"}, "lat": 38.92606216666667, "lon": -77.02419383333333, "fusion_lat": 0.0, "name": "0df647437cc013787de0e3eaaa15f590", "is_disabled": 0, "is_reserved": 0, "bike_id": "0df647437cc013787de0e3eaaa15f590", "fusion_lon": 0.0, "type": "electric_scooter"}, {"rental_uris": {"ios": "https://dc.lft.to/lastmile_qr_scan", "android": "https://dc.lft.to/lastmile_qr_scan"}, "lat": 38.921631, "lon": -77.03325816666667, "fusion_lat": 0.0, "name": "ef0283867451112fdaa5d3be2ef01bea", "is_disabled": 0, "is_reserved": 0, "bike_id": "ef0283867451112fdaa5d3be2ef01bea", "fusion_lon": 0.0, "type": "electric_scooter"}, {"rental_uris": {"ios": "https://dc.lft.to/lastmile_qr_scan", "android": "https://dc.lft.to/lastmile_qr_scan"}, "lat": 38.937307, "lon": -77.032655, "fusion_lat": 0.0, "name": "3f72a4f3c7aa266f351546cc58faecfb", "is_disabled": 0, "is_reserved": 0, "bike_id": "3f72a4f3c7aa266f351546cc58faecfb", "fusion_lon": 0.0, "type": "electric_scooter"}, {"rental_uris": {"ios": "https://dc.lft.to/lastmile_qr_scan", "android": "https://dc.lft.to/lastmile_qr_scan"}, "lat": 38.93459083333333, "lon": -77.02771583333333, "fusion_lat": 0.0, "name": "2f6166980587771ab5cb7647443e3dff", "is_disabled": 0, "is_reserved": 0, "bike_id": "2f6166980587771ab5cb7647443e3dff", "fusion_lon": 0.0, "type": "electric_scooter"}, {"rental_uris": {"ios": "https://dc.lft.to/lastmile_qr_scan", "android": "https://dc.lft.to/lastmile_qr_scan"}, "lat": 38.918664166666666, "lon": -77.0402925, "fusion_lat": 0.0, "name": "809e85187e0eb13d42bc447396e81257", "is_disabled": 0, "is_reserved": 0, "bike_id": "809e85187e0eb13d42bc447396e81257", "fusion_lon": 0.0, "type": "electric_scooter"}, {"rental_uris": {"ios": "https://dc.lft.to/lastmile_qr_scan", "android": "https://dc.lft.to/lastmile_qr_scan"}, "lat": 38.90777216666667, "lon": -77.07249833333333, "fusion_lat": 0.0, "name": "fc7f203b1af93d005e7ddb95a6b8af72", "is_disabled": 0, "is_reserved": 0, "bike_id": "fc7f203b1af93d005e7ddb95a6b8af72", "fusion_lon": 0.0, "type": "electric_scooter"}, {"rental_uris": {"ios": "https://dc.lft.to/lastmile_qr_scan", "android": "https://dc.lft.to/lastmile_qr_scan"}, "lat": 38.90250416666667, "lon": -77.02683216666667, "fusion_lat": 0.0, "name": "29e77b309260d32c071f28d12ef9f3b0", "is_disabled": 0, "is_reserved": 0, "bike_id": "29e77b309260d32c071f28d12ef9f3b0", "fusion_lon": 0.0, "type": "electric_scooter"}, {"rental_uris": {"ios": "https://dc.lft.to/lastmile_qr_scan", "android": "https://dc.lft.to/lastmile_qr_scan"}, "lat": 38.87917183333333, "lon": -77.00733166666667, "fusion_lat": 0.0, "name": "bf4bd2bc4a1c86bcf3ae144a02fa4b76", "is_disabled": 0, "is_reserved": 0, "bike_id": "bf4bd2bc4a1c86bcf3ae144a02fa4b76", "fusion_lon": 0.0, "type": "electric_scooter"}, {"rental_uris": {"ios": "https://dc.lft.to/lastmile_qr_scan", "android": "https://dc.lft.to/lastmile_qr_scan"}, "lat": 38.87467866666667, "lon": -77.00492333333334, "fusion_lat": 0.0, "name": "cad9ea551287240660316995aa3281ad", "is_disabled": 0, "is_reserved": 0, "bike_id": "cad9ea551287240660316995aa3281ad", "fusion_lon": 0.0, "type": "electric_scooter"}, {"rental_uris": {"ios": "https://dc.lft.to/lastmile_qr_scan", "android": "https://dc.lft.to/lastmile_qr_scan"}, "lat": 38.900158166666664, "lon": -77.04050783333334, "fusion_lat": 0.0, "name": "8b8882d1f2226ef4fe8c851bb3044b72", "is_disabled": 0, "is_reserved": 0, "bike_id": "8b8882d1f2226ef4fe8c851bb3044b72", "fusion_lon": 0.0, "type": "electric_scooter"}, {"rental_uris": {"ios": "https://dc.lft.to/lastmile_qr_scan", "android": "https://dc.lft.to/lastmile_qr_scan"}, "lat": 38.896091, "lon": -76.98868983333334, "fusion_lat": 0.0, "name": "211149c9b5e2dc80b633c2790576f574", "is_disabled": 0, "is_reserved": 0, "bike_id": "211149c9b5e2dc80b633c2790576f574", "fusion_lon": 0.0, "type": "electric_scooter"}, {"rental_uris": {"ios": "https://dc.lft.to/lastmile_qr_scan", "android": "https://dc.lft.to/lastmile_qr_scan"}, "lat": 38.911752666666665, "lon": -77.0282545, "fusion_lat": 0.0, "name": "2c028a9f5d36f3d89ae8b0e14a96bbec", "is_disabled": 0, "is_reserved": 0, "bike_id": "2c028a9f5d36f3d89ae8b0e14a96bbec", "fusion_lon": 0.0, "type": "electric_scooter"}, {"rental_uris": {"ios": "https://dc.lft.to/lastmile_qr_scan", "android": "https://dc.lft.to/lastmile_qr_scan"}, "lat": 38.91383166666667, "lon": -77.03214233333334, "fusion_lat": 0.0, "name": "bf1c86b9b8e03f6d610677d33dcf80a5", "is_disabled": 0, "is_reserved": 0, "bike_id": "bf1c86b9b8e03f6d610677d33dcf80a5", "fusion_lon": 0.0, "type": "electric_scooter"}, {"rental_uris": {"ios": "https://dc.lft.to/lastmile_qr_scan", "android": "https://dc.lft.to/lastmile_qr_scan"}, "lat": 38.8867205, "lon": -77.01983266666667, "fusion_lat": 0.0, "name": "e185d036448ffc4d61ebb1fb1c46789e", "is_disabled": 0, "is_reserved": 0, "bike_id": "e185d036448ffc4d61ebb1fb1c46789e", "fusion_lon": 0.0, "type": "electric_scooter"}, {"rental_uris": {"ios": "https://dc.lft.to/lastmile_qr_scan", "android": "https://dc.lft.to/lastmile_qr_scan"}, "lat": 38.858922166666666, "lon": -77.11865, "fusion_lat": 0.0, "name": "dfe498a1a3a1c2c141b51d7bbca796b4", "is_disabled": 0, "is_reserved": 0, "bike_id": "dfe498a1a3a1c2c141b51d7bbca796b4", "fusion_lon": 0.0, "type": "electric_bike"}, {"rental_uris": {"ios": "https://dc.lft.to/lastmile_qr_scan", "android": "https://dc.lft.to/lastmile_qr_scan"}, "lat": 38.89787033333333, "lon": -77.0320935, "fusion_lat": 0.0, "name": "00a4ac16ef214bd869a085e520421a15", "is_disabled": 0, "is_reserved": 0, "bike_id": "00a4ac16ef214bd869a085e520421a15", "fusion_lon": 0.0, "type": "electric_scooter"}, {"rental_uris": {"ios": "https://dc.lft.to/lastmile_qr_scan", "android": "https://dc.lft.to/lastmile_qr_scan"}, "lat": 38.89230083333333, "lon": -77.01602133333333, "fusion_lat": 0.0, "name": "741d30d129d2277f820198f31a556b37", "is_disabled": 0, "is_reserved": 0, "bike_id": "741d30d129d2277f820198f31a556b37", "fusion_lon": 0.0, "type": "electric_scooter"}, {"rental_uris": {"ios": "https://dc.lft.to/lastmile_qr_scan", "android": "https://dc.lft.to/lastmile_qr_scan"}, "lat": 38.88493116666667, "lon": -77.007307, "fusion_lat": 0.0, "name": "0e9eb5e65a2bac0b5f090d85ee59b070", "is_disabled": 0, "is_reserved": 0, "bike_id": "0e9eb5e65a2bac0b5f090d85ee59b070", "fusion_lon": 0.0, "type": "electric_scooter"}, {"rental_uris": {"ios": "https://dc.lft.to/lastmile_qr_scan", "android": "https://dc.lft.to/lastmile_qr_scan"}, "lat": 38.92326716666667, "lon": -77.00887833333333, "fusion_lat": 0.0, "name": "08b408534bbdd0001f8dfecb46f3e5fc", "is_disabled": 0, "is_reserved": 0, "bike_id": "08b408534bbdd0001f8dfecb46f3e5fc", "fusion_lon": 0.0, "type": "electric_scooter"}, {"rental_uris": {"ios": "https://dc.lft.to/lastmile_qr_scan", "android": "https://dc.lft.to/lastmile_qr_scan"}, "lat": 38.92002516666667, "lon": -77.02206016666666, "fusion_lat": 0.0, "name": "ad2c7d2b8108df11fafbe55da35b24cc", "is_disabled": 0, "is_reserved": 0, "bike_id": "ad2c7d2b8108df11fafbe55da35b24cc", "fusion_lon": 0.0, "type": "electric_scooter"}, {"rental_uris": {"ios": "https://dc.lft.to/lastmile_qr_scan", "android": "https://dc.lft.to/lastmile_qr_scan"}, "lat": 38.987704, "lon": -77.14055783333333, "fusion_lat": 0.0, "name": "d166fdf00245c1f1cb44473eb8b8ef18", "is_disabled": 0, "is_reserved": 0, "bike_id": "d166fdf00245c1f1cb44473eb8b8ef18", "fusion_lon": 0.0, "type": "electric_bike"}, {"rental_uris": {"ios": "https://dc.lft.to/lastmile_qr_scan", "android": "https://dc.lft.to/lastmile_qr_scan"}, "lat": 38.93534616666667, "lon": -77.0235105, "fusion_lat": 0.0, "name": "28e63976db3c5af6eced604a87711daf", "is_disabled": 0, "is_reserved": 0, "bike_id": "28e63976db3c5af6eced604a87711daf", "fusion_lon": 0.0, "type": "electric_scooter"}, {"rental_uris": {"ios": "https://dc.lft.to/lastmile_qr_scan", "android": "https://dc.lft.to/lastmile_qr_scan"}, "lat": 38.92486433333333, "lon": -77.0317985, "fusion_lat": 0.0, "name": "42b1eb1edccf8e08e2e7c8ec1893eb90", "is_disabled": 0, "is_reserved": 0, "bike_id": "42b1eb1edccf8e08e2e7c8ec1893eb90", "fusion_lon": 0.0, "type": "electric_scooter"}, {"rental_uris": {"ios": "https://dc.lft.to/lastmile_qr_scan", "android": "https://dc.lft.to/lastmile_qr_scan"}, "lat": 38.916535, "lon": -76.979153, "fusion_lat": 0.0, "name": "0c4d255bb588b1248fd26b88b99f7c30", "is_disabled": 0, "is_reserved": 0, "bike_id": "0c4d255bb588b1248fd26b88b99f7c30", "fusion_lon": 0.0, "type": "electric_scooter"}, {"rental_uris": {"ios": "https://dc.lft.to/lastmile_qr_scan", "android": "https://dc.lft.to/lastmile_qr_scan"}, "lat": 38.918387833333334, "lon": -77.032129, "fusion_lat": 0.0, "name": "d0d02faf5f9dcfa3c1b3f27e979fa981", "is_disabled": 0, "is_reserved": 0, "bike_id": "d0d02faf5f9dcfa3c1b3f27e979fa981", "fusion_lon": 0.0, "type": "electric_scooter"}, {"rental_uris": {"ios": "https://dc.lft.to/lastmile_qr_scan", "android": "https://dc.lft.to/lastmile_qr_scan"}, "lat": 38.920359, "lon": -77.00307033333333, "fusion_lat": 0.0, "name": "d41a13f7d3723264feb073a6070a0520", "is_disabled": 0, "is_reserved": 0, "bike_id": "d41a13f7d3723264feb073a6070a0520", "fusion_lon": 0.0, "type": "electric_scooter"}, {"rental_uris": {"ios": "https://dc.lft.to/lastmile_qr_scan", "android": "https://dc.lft.to/lastmile_qr_scan"}, "lat": 38.8971585, "lon": -77.02733216666667, "fusion_lat": 0.0, "name": "7984beb62f385b8a05b6a0bd1b060e30", "is_disabled": 0, "is_reserved": 0, "bike_id": "7984beb62f385b8a05b6a0bd1b060e30", "fusion_lon": 0.0, "type": "electric_scooter"}, {"rental_uris": {"ios": "https://dc.lft.to/lastmile_qr_scan", "android": "https://dc.lft.to/lastmile_qr_scan"}, "lat": 38.8988575, "lon": -76.93178, "fusion_lat": 0.0, "name": "3ad494a8c55ad34b4d7bc3c7b6481e0f", "is_disabled": 0, "is_reserved": 0, "bike_id": "3ad494a8c55ad34b4d7bc3c7b6481e0f", "fusion_lon": 0.0, "type": "electric_scooter"}, {"rental_uris": {"ios": "https://dc.lft.to/lastmile_qr_scan", "android": "https://dc.lft.to/lastmile_qr_scan"}, "lat": 38.9207275, "lon": -77.02318766666667, "fusion_lat": 0.0, "name": "c4e72c0496b5603fb0fde4468050a4fb", "is_disabled": 0, "is_reserved": 0, "bike_id": "c4e72c0496b5603fb0fde4468050a4fb", "fusion_lon": 0.0, "type": "electric_scooter"}, {"rental_uris": {"ios": "https://dc.lft.to/lastmile_qr_scan", "android": "https://dc.lft.to/lastmile_qr_scan"}, "lat": 38.903654833333334, "lon": -77.03178216666667, "fusion_lat": 0.0, "name": "953c87d6d4bec17dd7c289575e4b3967", "is_disabled": 0, "is_reserved": 0, "bike_id": "953c87d6d4bec17dd7c289575e4b3967", "fusion_lon": 0.0, "type": "electric_scooter"}, {"rental_uris": {"ios": "https://dc.lft.to/lastmile_qr_scan", "android": "https://dc.lft.to/lastmile_qr_scan"}, "lat": 38.9287965, "lon": -77.040479, "fusion_lat": 0.0, "name": "c5ee626230dc90da5f37a8bbc9552758", "is_disabled": 0, "is_reserved": 0, "bike_id": "c5ee626230dc90da5f37a8bbc9552758", "fusion_lon": 0.0, "type": "electric_scooter"}, {"rental_uris": {"ios": "https://dc.lft.to/lastmile_qr_scan", "android": "https://dc.lft.to/lastmile_qr_scan"}, "lat": 38.9233425, "lon": -77.05573933333334, "fusion_lat": 0.0, "name": "420df412fa928894ab0051291f4af259", "is_disabled": 0, "is_reserved": 0, "bike_id": "420df412fa928894ab0051291f4af259", "fusion_lon": 0.0, "type": "electric_scooter"}, {"rental_uris": {"ios": "https://dc.lft.to/lastmile_qr_scan", "android": "https://dc.lft.to/lastmile_qr_scan"}, "lat": 38.9180585, "lon": -77.03436316666667, "fusion_lat": 0.0, "name": "9dc7fb8d3ee240f04532fdde9095cebe", "is_disabled": 0, "is_reserved": 0, "bike_id": "9dc7fb8d3ee240f04532fdde9095cebe", "fusion_lon": 0.0, "type": "electric_scooter"}, {"rental_uris": {"ios": "https://dc.lft.to/lastmile_qr_scan", "android": "https://dc.lft.to/lastmile_qr_scan"}, "lat": 38.86630483333333, "lon": -76.98714733333334, "fusion_lat": 0.0, "name": "537a316450bf12f953a0c6a56dd9d1c0", "is_disabled": 0, "is_reserved": 0, "bike_id": "537a316450bf12f953a0c6a56dd9d1c0", "fusion_lon": 0.0, "type": "electric_scooter"}, {"rental_uris": {"ios": "https://dc.lft.to/lastmile_qr_scan", "android": "https://dc.lft.to/lastmile_qr_scan"}, "lat": 38.92881466666667, "lon": -77.0392455, "fusion_lat": 0.0, "name": "fa524a0072f84acedd13853a585e4e07", "is_disabled": 0, "is_reserved": 0, "bike_id": "fa524a0072f84acedd13853a585e4e07", "fusion_lon": 0.0, "type": "electric_scooter"}, {"rental_uris": {"ios": "https://dc.lft.to/lastmile_qr_scan", "android": "https://dc.lft.to/lastmile_qr_scan"}, "lat": 38.92376433333333, "lon": -77.03134866666667, "fusion_lat": 0.0, "name": "d18b4d93e2c1f1fcd995dcb4597f4d9a", "is_disabled": 0, "is_reserved": 0, "bike_id": "d18b4d93e2c1f1fcd995dcb4597f4d9a", "fusion_lon": 0.0, "type": "electric_scooter"}, {"rental_uris": {"ios": "https://dc.lft.to/lastmile_qr_scan", "android": "https://dc.lft.to/lastmile_qr_scan"}, "lat": 38.907289, "lon": -77.000571, "fusion_lat": 0.0, "name": "2a7605cf082e8cc7e983647c3cbd8318", "is_disabled": 0, "is_reserved": 0, "bike_id": "2a7605cf082e8cc7e983647c3cbd8318", "fusion_lon": 0.0, "type": "electric_scooter"}, {"rental_uris": {"ios": "https://dc.lft.to/lastmile_qr_scan", "android": "https://dc.lft.to/lastmile_qr_scan"}, "lat": 38.887767833333335, "lon": -76.95525083333334, "fusion_lat": 0.0, "name": "29eef0a760e5b4d9a156a8b814528323", "is_disabled": 0, "is_reserved": 0, "bike_id": "29eef0a760e5b4d9a156a8b814528323", "fusion_lon": 0.0, "type": "electric_scooter"}, {"rental_uris": {"ios": "https://dc.lft.to/lastmile_qr_scan", "android": "https://dc.lft.to/lastmile_qr_scan"}, "lat": 38.896615833333335, "lon": -77.0710125, "fusion_lat": 0.0, "name": "9502a068d9b30e4cffd5daf74a97102a", "is_disabled": 0, "is_reserved": 0, "bike_id": "9502a068d9b30e4cffd5daf74a97102a", "fusion_lon": 0.0, "type": "electric_scooter"}, {"rental_uris": {"ios": "https://dc.lft.to/lastmile_qr_scan", "android": "https://dc.lft.to/lastmile_qr_scan"}, "lat": 38.90933366666667, "lon": -77.0317905, "fusion_lat": 0.0, "name": "bbc96ce4078cc50f128899738f5a0375", "is_disabled": 0, "is_reserved": 0, "bike_id": "bbc96ce4078cc50f128899738f5a0375", "fusion_lon": 0.0, "type": "electric_scooter"}, {"rental_uris": {"ios": "https://dc.lft.to/lastmile_qr_scan", "android": "https://dc.lft.to/lastmile_qr_scan"}, "lat": 38.92741516666667, "lon": -76.99608, "fusion_lat": 0.0, "name": "59b1579d09af0e903a61f92d6e1f3405", "is_disabled": 0, "is_reserved": 0, "bike_id": "59b1579d09af0e903a61f92d6e1f3405", "fusion_lon": 0.0, "type": "electric_scooter"}, {"rental_uris": {"ios": "https://dc.lft.to/lastmile_qr_scan", "android": "https://dc.lft.to/lastmile_qr_scan"}, "lat": 38.91536383333333, "lon": -77.01224016666667, "fusion_lat": 0.0, "name": "5deafdae6028b4413e7de34948f9ac91", "is_disabled": 0, "is_reserved": 0, "bike_id": "5deafdae6028b4413e7de34948f9ac91", "fusion_lon": 0.0, "type": "electric_scooter"}, {"rental_uris": {"ios": "https://dc.lft.to/lastmile_qr_scan", "android": "https://dc.lft.to/lastmile_qr_scan"}, "lat": 38.8971765, "lon": -77.00792133333333, "fusion_lat": 0.0, "name": "a9dc6d7fb61492c16841bf7646f61a4d", "is_disabled": 0, "is_reserved": 0, "bike_id": "a9dc6d7fb61492c16841bf7646f61a4d", "fusion_lon": 0.0, "type": "electric_scooter"}, {"rental_uris": {"ios": "https://dc.lft.to/lastmile_qr_scan", "android": "https://dc.lft.to/lastmile_qr_scan"}, "lat": 38.88710583333334, "lon": -77.01775416666666, "fusion_lat": 0.0, "name": "e494d057b7b362ad8c025b0307d8ad89", "is_disabled": 0, "is_reserved": 0, "bike_id": "e494d057b7b362ad8c025b0307d8ad89", "fusion_lon": 0.0, "type": "electric_scooter"}, {"rental_uris": {"ios": "https://dc.lft.to/lastmile_qr_scan", "android": "https://dc.lft.to/lastmile_qr_scan"}, "lat": 38.91786316666666, "lon": -77.04360916666667, "fusion_lat": 0.0, "name": "2e69cde312d30aeeef8a4152c4881706", "is_disabled": 0, "is_reserved": 0, "bike_id": "2e69cde312d30aeeef8a4152c4881706", "fusion_lon": 0.0, "type": "electric_scooter"}, {"rental_uris": {"ios": "https://dc.lft.to/lastmile_qr_scan", "android": "https://dc.lft.to/lastmile_qr_scan"}, "lat": 38.9204425, "lon": -77.03415266666667, "fusion_lat": 0.0, "name": "f3a1fc2c621451e6b4cbb44a1cd9b298", "is_disabled": 0, "is_reserved": 0, "bike_id": "f3a1fc2c621451e6b4cbb44a1cd9b298", "fusion_lon": 0.0, "type": "electric_scooter"}, {"rental_uris": {"ios": "https://dc.lft.to/lastmile_qr_scan", "android": "https://dc.lft.to/lastmile_qr_scan"}, "lat": 38.905000666666666, "lon": -77.06884833333334, "fusion_lat": 0.0, "name": "42880d4943a6d9631f1d4f3b9246d53d", "is_disabled": 0, "is_reserved": 0, "bike_id": "42880d4943a6d9631f1d4f3b9246d53d", "fusion_lon": 0.0, "type": "electric_scooter"}, {"rental_uris": {"ios": "https://dc.lft.to/lastmile_qr_scan", "android": "https://dc.lft.to/lastmile_qr_scan"}, "lat": 38.8315815, "lon": -76.99548066666667, "fusion_lat": 0.0, "name": "34e7b59a5e1fcb0e13ec0d753f20265b", "is_disabled": 0, "is_reserved": 0, "bike_id": "34e7b59a5e1fcb0e13ec0d753f20265b", "fusion_lon": 0.0, "type": "electric_bike"}, {"rental_uris": {"ios": "https://dc.lft.to/lastmile_qr_scan", "android": "https://dc.lft.to/lastmile_qr_scan"}, "lat": 38.954832333333336, "lon": -77.07706316666666, "fusion_lat": 0.0, "name": "e82d576a10b08a01a4ad137fa275727e", "is_disabled": 0, "is_reserved": 0, "bike_id": "e82d576a10b08a01a4ad137fa275727e", "fusion_lon": 0.0, "type": "electric_bike"}, {"rental_uris": {"ios": "https://dc.lft.to/lastmile_qr_scan", "android": "https://dc.lft.to/lastmile_qr_scan"}, "lat": 38.900948166666666, "lon": -76.98335833333333, "fusion_lat": 0.0, "name": "895931b22b4ed5b67875243575b0a609", "is_disabled": 0, "is_reserved": 0, "bike_id": "895931b22b4ed5b67875243575b0a609", "fusion_lon": 0.0, "type": "electric_scooter"}, {"rental_uris": {"ios": "https://dc.lft.to/lastmile_qr_scan", "android": "https://dc.lft.to/lastmile_qr_scan"}, "lat": 38.897210333333334, "lon": -77.02732316666666, "fusion_lat": 0.0, "name": "ae889db3465add32317284cb576cbec8", "is_disabled": 0, "is_reserved": 0, "bike_id": "ae889db3465add32317284cb576cbec8", "fusion_lon": 0.0, "type": "electric_scooter"}, {"rental_uris": {"ios": "https://dc.lft.to/lastmile_qr_scan", "android": "https://dc.lft.to/lastmile_qr_scan"}, "lat": 38.933057166666664, "lon": -77.072602, "fusion_lat": 0.0, "name": "c9b68859a2b705ad2e89d2ae20bcb9bd", "is_disabled": 0, "is_reserved": 0, "bike_id": "c9b68859a2b705ad2e89d2ae20bcb9bd", "fusion_lon": 0.0, "type": "electric_scooter"}, {"rental_uris": {"ios": "https://dc.lft.to/lastmile_qr_scan", "android": "https://dc.lft.to/lastmile_qr_scan"}, "lat": 38.89839083333333, "lon": -77.02801533333333, "fusion_lat": 0.0, "name": "77740529fd696a245d85a982fb9f83e8", "is_disabled": 0, "is_reserved": 0, "bike_id": "77740529fd696a245d85a982fb9f83e8", "fusion_lon": 0.0, "type": "electric_scooter"}, {"rental_uris": {"ios": "https://dc.lft.to/lastmile_qr_scan", "android": "https://dc.lft.to/lastmile_qr_scan"}, "lat": 38.899132333333334, "lon": -77.02184783333334, "fusion_lat": 0.0, "name": "8836e44e24bc8869d9105c938bd022fd", "is_disabled": 0, "is_reserved": 0, "bike_id": "8836e44e24bc8869d9105c938bd022fd", "fusion_lon": 0.0, "type": "electric_scooter"}, {"rental_uris": {"ios": "https://dc.lft.to/lastmile_qr_scan", "android": "https://dc.lft.to/lastmile_qr_scan"}, "lat": 38.937066, "lon": -77.05608983333333, "fusion_lat": 0.0, "name": "8b61bc3e85e1706ed94c17e9a5204c87", "is_disabled": 0, "is_reserved": 0, "bike_id": "8b61bc3e85e1706ed94c17e9a5204c87", "fusion_lon": 0.0, "type": "electric_bike"}, {"rental_uris": {"ios": "https://dc.lft.to/lastmile_qr_scan", "android": "https://dc.lft.to/lastmile_qr_scan"}, "lat": 38.9156505, "lon": -77.02212616666667, "fusion_lat": 0.0, "name": "806de4e3d7a3258368620a7d7d4d7783", "is_disabled": 0, "is_reserved": 0, "bike_id": "806de4e3d7a3258368620a7d7d4d7783", "fusion_lon": 0.0, "type": "electric_scooter"}, {"rental_uris": {"ios": "https://dc.lft.to/lastmile_qr_scan", "android": "https://dc.lft.to/lastmile_qr_scan"}, "lat": 38.87062866666667, "lon": -76.97100583333334, "fusion_lat": 0.0, "name": "e0241da38758b57aa882bbd7c8976cc5", "is_disabled": 0, "is_reserved": 0, "bike_id": "e0241da38758b57aa882bbd7c8976cc5", "fusion_lon": 0.0, "type": "electric_scooter"}, {"rental_uris": {"ios": "https://dc.lft.to/lastmile_qr_scan", "android": "https://dc.lft.to/lastmile_qr_scan"}, "lat": 38.888383, "lon": -77.04904433333333, "fusion_lat": 0.0, "name": "8cf74e9d042cd679a684b6314faddde8", "is_disabled": 0, "is_reserved": 0, "bike_id": "8cf74e9d042cd679a684b6314faddde8", "fusion_lon": 0.0, "type": "electric_scooter"}, {"rental_uris": {"ios": "https://dc.lft.to/lastmile_qr_scan", "android": "https://dc.lft.to/lastmile_qr_scan"}, "lat": 38.861480666666665, "lon": -77.0914375, "fusion_lat": 0.0, "name": "83ea9308b6855c6fac4cbcbf80908022", "is_disabled": 0, "is_reserved": 0, "bike_id": "83ea9308b6855c6fac4cbcbf80908022", "fusion_lon": 0.0, "type": "electric_bike"}, {"rental_uris": {"ios": "https://dc.lft.to/lastmile_qr_scan", "android": "https://dc.lft.to/lastmile_qr_scan"}, "lat": 38.93389283333333, "lon": -77.0574055, "fusion_lat": 0.0, "name": "90e870a514445d161269580a0aeb69da", "is_disabled": 0, "is_reserved": 0, "bike_id": "90e870a514445d161269580a0aeb69da", "fusion_lon": 0.0, "type": "electric_scooter"}, {"rental_uris": {"ios": "https://dc.lft.to/lastmile_qr_scan", "android": "https://dc.lft.to/lastmile_qr_scan"}, "lat": 38.907252166666666, "lon": -77.02385433333333, "fusion_lat": 0.0, "name": "67a91b6d576ab61015dcbe7d0ee69481", "is_disabled": 0, "is_reserved": 0, "bike_id": "67a91b6d576ab61015dcbe7d0ee69481", "fusion_lon": 0.0, "type": "electric_scooter"}, {"rental_uris": {"ios": "https://dc.lft.to/lastmile_qr_scan", "android": "https://dc.lft.to/lastmile_qr_scan"}, "lat": 38.9228295, "lon": -77.03664966666666, "fusion_lat": 0.0, "name": "681fc724707a31a9a1d23d46ef98b5f5", "is_disabled": 0, "is_reserved": 0, "bike_id": "681fc724707a31a9a1d23d46ef98b5f5", "fusion_lon": 0.0, "type": "electric_scooter"}, {"rental_uris": {"ios": "https://dc.lft.to/lastmile_qr_scan", "android": "https://dc.lft.to/lastmile_qr_scan"}, "lat": 38.90275233333333, "lon": -77.05807716666666, "fusion_lat": 0.0, "name": "1eb3957aa240cc789a0c9943ee4cb1db", "is_disabled": 0, "is_reserved": 0, "bike_id": "1eb3957aa240cc789a0c9943ee4cb1db", "fusion_lon": 0.0, "type": "electric_scooter"}, {"rental_uris": {"ios": "https://dc.lft.to/lastmile_qr_scan", "android": "https://dc.lft.to/lastmile_qr_scan"}, "lat": 38.893317, "lon": -77.04675283333333, "fusion_lat": 0.0, "name": "2b4ed27309c399a4205c64730eddfcdd", "is_disabled": 0, "is_reserved": 0, "bike_id": "2b4ed27309c399a4205c64730eddfcdd", "fusion_lon": 0.0, "type": "electric_scooter"}, {"rental_uris": {"ios": "https://dc.lft.to/lastmile_qr_scan", "android": "https://dc.lft.to/lastmile_qr_scan"}, "lat": 38.934730333333334, "lon": -77.02234316666667, "fusion_lat": 0.0, "name": "56c392f5b81e7ec40cff48167f339a03", "is_disabled": 0, "is_reserved": 0, "bike_id": "56c392f5b81e7ec40cff48167f339a03", "fusion_lon": 0.0, "type": "electric_scooter"}, {"rental_uris": {"ios": "https://dc.lft.to/lastmile_qr_scan", "android": "https://dc.lft.to/lastmile_qr_scan"}, "lat": 38.932261833333335, "lon": -77.0385685, "fusion_lat": 0.0, "name": "1274b3b04a962fe108c7ea82d63b507b", "is_disabled": 0, "is_reserved": 0, "bike_id": "1274b3b04a962fe108c7ea82d63b507b", "fusion_lon": 0.0, "type": "electric_scooter"}, {"rental_uris": {"ios": "https://dc.lft.to/lastmile_qr_scan", "android": "https://dc.lft.to/lastmile_qr_scan"}, "lat": 38.908012666666664, "lon": -77.0306245, "fusion_lat": 0.0, "name": "013e93b299ff22b50527c2675f50f566", "is_disabled": 0, "is_reserved": 0, "bike_id": "013e93b299ff22b50527c2675f50f566", "fusion_lon": 0.0, "type": "electric_scooter"}, {"rental_uris": {"ios": "https://dc.lft.to/lastmile_qr_scan", "android": "https://dc.lft.to/lastmile_qr_scan"}, "lat": 38.898657166666666, "lon": -76.94636733333333, "fusion_lat": 0.0, "name": "d223d919dd6dac7adbe68ac91fe47a4f", "is_disabled": 0, "is_reserved": 0, "bike_id": "d223d919dd6dac7adbe68ac91fe47a4f", "fusion_lon": 0.0, "type": "electric_scooter"}, {"rental_uris": {"ios": "https://dc.lft.to/lastmile_qr_scan", "android": "https://dc.lft.to/lastmile_qr_scan"}, "lat": 38.9221625, "lon": -77.20140583333334, "fusion_lat": 0.0, "name": "26f0b281856c405aca64c8ac9c30d101", "is_disabled": 0, "is_reserved": 0, "bike_id": "26f0b281856c405aca64c8ac9c30d101", "fusion_lon": 0.0, "type": "electric_bike"}, {"rental_uris": {"ios": "https://dc.lft.to/lastmile_qr_scan", "android": "https://dc.lft.to/lastmile_qr_scan"}, "lat": 38.8996435, "lon": -77.02176316666667, "fusion_lat": 0.0, "name": "ab039f3f256e52748a6377afa6ec678d", "is_disabled": 0, "is_reserved": 0, "bike_id": "ab039f3f256e52748a6377afa6ec678d", "fusion_lon": 0.0, "type": "electric_scooter"}, {"rental_uris": {"ios": "https://dc.lft.to/lastmile_qr_scan", "android": "https://dc.lft.to/lastmile_qr_scan"}, "lat": 38.904447833333336, "lon": -76.98000733333333, "fusion_lat": 0.0, "name": "a8557391265582e8594ec8e5c44c17cf", "is_disabled": 0, "is_reserved": 0, "bike_id": "a8557391265582e8594ec8e5c44c17cf", "fusion_lon": 0.0, "type": "electric_scooter"}, {"rental_uris": {"ios": "https://dc.lft.to/lastmile_qr_scan", "android": "https://dc.lft.to/lastmile_qr_scan"}, "lat": 38.911016833333335, "lon": -77.02229066666666, "fusion_lat": 0.0, "name": "6d26f8ef323f424f7988ac5b5b238bdc", "is_disabled": 0, "is_reserved": 0, "bike_id": "6d26f8ef323f424f7988ac5b5b238bdc", "fusion_lon": 0.0, "type": "electric_scooter"}, {"rental_uris": {"ios": "https://dc.lft.to/lastmile_qr_scan", "android": "https://dc.lft.to/lastmile_qr_scan"}, "lat": 38.908145833333336, "lon": -77.03444016666667, "fusion_lat": 0.0, "name": "c9869929ec34bb4a54196ae9fa3a204b", "is_disabled": 0, "is_reserved": 0, "bike_id": "c9869929ec34bb4a54196ae9fa3a204b", "fusion_lon": 0.0, "type": "electric_scooter"}, {"rental_uris": {"ios": "https://dc.lft.to/lastmile_qr_scan", "android": "https://dc.lft.to/lastmile_qr_scan"}, "lat": 38.91855283333334, "lon": -77.04480033333333, "fusion_lat": 0.0, "name": "46150a2986a10820fbc61f975a4a5968", "is_disabled": 0, "is_reserved": 0, "bike_id": "46150a2986a10820fbc61f975a4a5968", "fusion_lon": 0.0, "type": "electric_scooter"}, {"rental_uris": {"ios": "https://dc.lft.to/lastmile_qr_scan", "android": "https://dc.lft.to/lastmile_qr_scan"}, "lat": 38.8923135, "lon": -77.01490533333333, "fusion_lat": 0.0, "name": "18980292e74f6cd5d1d3dd0b3290a5c5", "is_disabled": 0, "is_reserved": 0, "bike_id": "18980292e74f6cd5d1d3dd0b3290a5c5", "fusion_lon": 0.0, "type": "electric_scooter"}, {"rental_uris": {"ios": "https://dc.lft.to/lastmile_qr_scan", "android": "https://dc.lft.to/lastmile_qr_scan"}, "lat": 38.91550733333333, "lon": -77.03800616666666, "fusion_lat": 0.0, "name": "acb9103f26b1f1137cd772f38bdcba74", "is_disabled": 0, "is_reserved": 0, "bike_id": "acb9103f26b1f1137cd772f38bdcba74", "fusion_lon": 0.0, "type": "electric_scooter"}, {"rental_uris": {"ios": "https://dc.lft.to/lastmile_qr_scan", "android": "https://dc.lft.to/lastmile_qr_scan"}, "lat": 38.92487416666667, "lon": -77.03814616666666, "fusion_lat": 0.0, "name": "c48780ac4a33d97776ba083662114df0", "is_disabled": 0, "is_reserved": 0, "bike_id": "c48780ac4a33d97776ba083662114df0", "fusion_lon": 0.0, "type": "electric_scooter"}, {"rental_uris": {"ios": "https://dc.lft.to/lastmile_qr_scan", "android": "https://dc.lft.to/lastmile_qr_scan"}, "lat": 38.93428733333333, "lon": -77.04003166666666, "fusion_lat": 0.0, "name": "91b48bced49ca490ae4ac75bfb699e64", "is_disabled": 0, "is_reserved": 0, "bike_id": "91b48bced49ca490ae4ac75bfb699e64", "fusion_lon": 0.0, "type": "electric_scooter"}, {"rental_uris": {"ios": "https://dc.lft.to/lastmile_qr_scan", "android": "https://dc.lft.to/lastmile_qr_scan"}, "lat": 38.91670633333333, "lon": -76.98173483333333, "fusion_lat": 0.0, "name": "9026bb9c4b64ec35fb8e3eefa7623000", "is_disabled": 0, "is_reserved": 0, "bike_id": "9026bb9c4b64ec35fb8e3eefa7623000", "fusion_lon": 0.0, "type": "electric_scooter"}, {"rental_uris": {"ios": "https://dc.lft.to/lastmile_qr_scan", "android": "https://dc.lft.to/lastmile_qr_scan"}, "lat": 38.89708183333333, "lon": -77.02393483333333, "fusion_lat": 0.0, "name": "7723fedb4295511248ea0d75e630edb4", "is_disabled": 0, "is_reserved": 0, "bike_id": "7723fedb4295511248ea0d75e630edb4", "fusion_lon": 0.0, "type": "electric_scooter"}, {"rental_uris": {"ios": "https://dc.lft.to/lastmile_qr_scan", "android": "https://dc.lft.to/lastmile_qr_scan"}, "lat": 38.92840433333333, "lon": -77.03268, "fusion_lat": 0.0, "name": "838f6238653c4d8c7e7f87a760744111", "is_disabled": 0, "is_reserved": 0, "bike_id": "838f6238653c4d8c7e7f87a760744111", "fusion_lon": 0.0, "type": "electric_scooter"}, {"rental_uris": {"ios": "https://dc.lft.to/lastmile_qr_scan", "android": "https://dc.lft.to/lastmile_qr_scan"}, "lat": 38.91010333333333, "lon": -77.04006233333334, "fusion_lat": 0.0, "name": "246f42a0a77bfb62f44d5dddaed17b00", "is_disabled": 0, "is_reserved": 0, "bike_id": "246f42a0a77bfb62f44d5dddaed17b00", "fusion_lon": 0.0, "type": "electric_scooter"}, {"rental_uris": {"ios": "https://dc.lft.to/lastmile_qr_scan", "android": "https://dc.lft.to/lastmile_qr_scan"}, "lat": 38.89914866666667, "lon": -76.93361933333334, "fusion_lat": 0.0, "name": "a98ac7c39d1aadabdf08efdb80f76d3f", "is_disabled": 0, "is_reserved": 0, "bike_id": "a98ac7c39d1aadabdf08efdb80f76d3f", "fusion_lon": 0.0, "type": "electric_scooter"}, {"rental_uris": {"ios": "https://dc.lft.to/lastmile_qr_scan", "android": "https://dc.lft.to/lastmile_qr_scan"}, "lat": 38.91695333333333, "lon": -77.0231755, "fusion_lat": 0.0, "name": "dae483d122cfaf45756e294873bc7dd8", "is_disabled": 0, "is_reserved": 0, "bike_id": "dae483d122cfaf45756e294873bc7dd8", "fusion_lon": 0.0, "type": "electric_scooter"}, {"rental_uris": {"ios": "https://dc.lft.to/lastmile_qr_scan", "android": "https://dc.lft.to/lastmile_qr_scan"}, "lat": 38.903791, "lon": -77.0456695, "fusion_lat": 0.0, "name": "4214bb34a750bb4192091531b940e5c7", "is_disabled": 0, "is_reserved": 0, "bike_id": "4214bb34a750bb4192091531b940e5c7", "fusion_lon": 0.0, "type": "electric_scooter"}, {"rental_uris": {"ios": "https://dc.lft.to/lastmile_qr_scan", "android": "https://dc.lft.to/lastmile_qr_scan"}, "lat": 38.90655683333333, "lon": -77.0429125, "fusion_lat": 0.0, "name": "53131a514360ed608201c7e184e300f9", "is_disabled": 0, "is_reserved": 0, "bike_id": "53131a514360ed608201c7e184e300f9", "fusion_lon": 0.0, "type": "electric_scooter"}, {"rental_uris": {"ios": "https://dc.lft.to/lastmile_qr_scan", "android": "https://dc.lft.to/lastmile_qr_scan"}, "lat": 38.91714316666667, "lon": -77.02847216666666, "fusion_lat": 0.0, "name": "5f68fbcd49b743621ac5163742c4a9e7", "is_disabled": 0, "is_reserved": 0, "bike_id": "5f68fbcd49b743621ac5163742c4a9e7", "fusion_lon": 0.0, "type": "electric_scooter"}, {"rental_uris": {"ios": "https://dc.lft.to/lastmile_qr_scan", "android": "https://dc.lft.to/lastmile_qr_scan"}, "lat": 38.9142985, "lon": -77.03183166666666, "fusion_lat": 0.0, "name": "6613f0315cf4829a56c16585f1720dec", "is_disabled": 0, "is_reserved": 0, "bike_id": "6613f0315cf4829a56c16585f1720dec", "fusion_lon": 0.0, "type": "electric_scooter"}, {"rental_uris": {"ios": "https://dc.lft.to/lastmile_qr_scan", "android": "https://dc.lft.to/lastmile_qr_scan"}, "lat": 38.923343333333335, "lon": -77.04619066666666, "fusion_lat": 0.0, "name": "02f0383e1d32374a73d8b42be86e4094", "is_disabled": 0, "is_reserved": 0, "bike_id": "02f0383e1d32374a73d8b42be86e4094", "fusion_lon": 0.0, "type": "electric_scooter"}, {"rental_uris": {"ios": "https://dc.lft.to/lastmile_qr_scan", "android": "https://dc.lft.to/lastmile_qr_scan"}, "lat": 38.91144, "lon": -77.02391, "fusion_lat": 0.0, "name": "978ce08d373c075d4d16303d2751fdc2", "is_disabled": 0, "is_reserved": 0, "bike_id": "978ce08d373c075d4d16303d2751fdc2", "fusion_lon": 0.0, "type": "electric_scooter"}, {"rental_uris": {"ios": "https://dc.lft.to/lastmile_qr_scan", "android": "https://dc.lft.to/lastmile_qr_scan"}, "lat": 38.91256033333333, "lon": -77.038251, "fusion_lat": 0.0, "name": "a21478f34af4c663aec406777339dd48", "is_disabled": 0, "is_reserved": 0, "bike_id": "a21478f34af4c663aec406777339dd48", "fusion_lon": 0.0, "type": "electric_scooter"}, {"rental_uris": {"ios": "https://dc.lft.to/lastmile_qr_scan", "android": "https://dc.lft.to/lastmile_qr_scan"}, "lat": 38.9089095, "lon": -76.982381, "fusion_lat": 0.0, "name": "6b3ba1ea393a355b0f35e16101b6ae45", "is_disabled": 0, "is_reserved": 0, "bike_id": "6b3ba1ea393a355b0f35e16101b6ae45", "fusion_lon": 0.0, "type": "electric_scooter"}, {"rental_uris": {"ios": "https://dc.lft.to/lastmile_qr_scan", "android": "https://dc.lft.to/lastmile_qr_scan"}, "lat": 38.9181295, "lon": -77.0400515, "fusion_lat": 0.0, "name": "65d9ef88ee1605b98ec13dc2df0f9356", "is_disabled": 0, "is_reserved": 0, "bike_id": "65d9ef88ee1605b98ec13dc2df0f9356", "fusion_lon": 0.0, "type": "electric_scooter"}, {"rental_uris": {"ios": "https://dc.lft.to/lastmile_qr_scan", "android": "https://dc.lft.to/lastmile_qr_scan"}, "lat": 38.912265, "lon": -77.012366, "fusion_lat": 0.0, "name": "354aadfb5574340981023c5f0efa4050", "is_disabled": 0, "is_reserved": 0, "bike_id": "354aadfb5574340981023c5f0efa4050", "fusion_lon": 0.0, "type": "electric_scooter"}, {"rental_uris": {"ios": "https://dc.lft.to/lastmile_qr_scan", "android": "https://dc.lft.to/lastmile_qr_scan"}, "lat": 38.90565616666667, "lon": -77.02211416666667, "fusion_lat": 0.0, "name": "fa7ab47238c686cdcff8abbcbc3f4720", "is_disabled": 0, "is_reserved": 0, "bike_id": "fa7ab47238c686cdcff8abbcbc3f4720", "fusion_lon": 0.0, "type": "electric_scooter"}, {"rental_uris": {"ios": "https://dc.lft.to/lastmile_qr_scan", "android": "https://dc.lft.to/lastmile_qr_scan"}, "lat": 38.89134966666667, "lon": -76.95186566666666, "fusion_lat": 0.0, "name": "09c81348cbb193c184839c752d2e2316", "is_disabled": 0, "is_reserved": 0, "bike_id": "09c81348cbb193c184839c752d2e2316", "fusion_lon": 0.0, "type": "electric_scooter"}, {"rental_uris": {"ios": "https://dc.lft.to/lastmile_qr_scan", "android": "https://dc.lft.to/lastmile_qr_scan"}, "lat": 38.9139865, "lon": -77.0240825, "fusion_lat": 0.0, "name": "0b7fcb1222d92a05cb91605821456e50", "is_disabled": 0, "is_reserved": 0, "bike_id": "0b7fcb1222d92a05cb91605821456e50", "fusion_lon": 0.0, "type": "electric_scooter"}, {"rental_uris": {"ios": "https://dc.lft.to/lastmile_qr_scan", "android": "https://dc.lft.to/lastmile_qr_scan"}, "lat": 38.92759383333333, "lon": -77.056379, "fusion_lat": 0.0, "name": "2eca868dfeb27b647f7adc4b2828ed5a", "is_disabled": 0, "is_reserved": 0, "bike_id": "2eca868dfeb27b647f7adc4b2828ed5a", "fusion_lon": 0.0, "type": "electric_scooter"}, {"rental_uris": {"ios": "https://dc.lft.to/lastmile_qr_scan", "android": "https://dc.lft.to/lastmile_qr_scan"}, "lat": 38.9179045, "lon": -77.02324733333333, "fusion_lat": 0.0, "name": "81cc08df280091ed7fcfbfcdc60e0a22", "is_disabled": 0, "is_reserved": 0, "bike_id": "81cc08df280091ed7fcfbfcdc60e0a22", "fusion_lon": 0.0, "type": "electric_scooter"}, {"rental_uris": {"ios": "https://dc.lft.to/lastmile_qr_scan", "android": "https://dc.lft.to/lastmile_qr_scan"}, "lat": 38.871758166666666, "lon": -77.006257, "fusion_lat": 0.0, "name": "c6e6b4aca343cc5a08ca677fd83c1dab", "is_disabled": 0, "is_reserved": 0, "bike_id": "c6e6b4aca343cc5a08ca677fd83c1dab", "fusion_lon": 0.0, "type": "electric_scooter"}, {"rental_uris": {"ios": "https://dc.lft.to/lastmile_qr_scan", "android": "https://dc.lft.to/lastmile_qr_scan"}, "lat": 38.900127166666664, "lon": -76.99834716666666, "fusion_lat": 0.0, "name": "85f2c3cee09c852c09d48fd43d4c9890", "is_disabled": 0, "is_reserved": 0, "bike_id": "85f2c3cee09c852c09d48fd43d4c9890", "fusion_lon": 0.0, "type": "electric_scooter"}, {"rental_uris": {"ios": "https://dc.lft.to/lastmile_qr_scan", "android": "https://dc.lft.to/lastmile_qr_scan"}, "lat": 38.8972865, "lon": -77.04459183333333, "fusion_lat": 0.0, "name": "1506b1a49fc0aac0a0e4efb28a4e288b", "is_disabled": 0, "is_reserved": 0, "bike_id": "1506b1a49fc0aac0a0e4efb28a4e288b", "fusion_lon": 0.0, "type": "electric_scooter"}, {"rental_uris": {"ios": "https://dc.lft.to/lastmile_qr_scan", "android": "https://dc.lft.to/lastmile_qr_scan"}, "lat": 38.90020333333333, "lon": -76.99843466666667, "fusion_lat": 0.0, "name": "a3946cc37cd0c98393edde839ba1542f", "is_disabled": 0, "is_reserved": 0, "bike_id": "a3946cc37cd0c98393edde839ba1542f", "fusion_lon": 0.0, "type": "electric_scooter"}, {"rental_uris": {"ios": "https://dc.lft.to/lastmile_qr_scan", "android": "https://dc.lft.to/lastmile_qr_scan"}, "lat": 38.92157666666667, "lon": -77.03381616666667, "fusion_lat": 0.0, "name": "356f81592b285c6a70580959c1585dd7", "is_disabled": 0, "is_reserved": 0, "bike_id": "356f81592b285c6a70580959c1585dd7", "fusion_lon": 0.0, "type": "electric_scooter"}, {"rental_uris": {"ios": "https://dc.lft.to/lastmile_qr_scan", "android": "https://dc.lft.to/lastmile_qr_scan"}, "lat": 38.9362315, "lon": -76.9797265, "fusion_lat": 0.0, "name": "5d3b42c33fceec7a449bb37f3cff4e19", "is_disabled": 0, "is_reserved": 0, "bike_id": "5d3b42c33fceec7a449bb37f3cff4e19", "fusion_lon": 0.0, "type": "electric_scooter"}, {"rental_uris": {"ios": "https://dc.lft.to/lastmile_qr_scan", "android": "https://dc.lft.to/lastmile_qr_scan"}, "lat": 38.928964, "lon": -77.03312183333334, "fusion_lat": 0.0, "name": "fbf71d048dae584c3678b0683442cef3", "is_disabled": 0, "is_reserved": 0, "bike_id": "fbf71d048dae584c3678b0683442cef3", "fusion_lon": 0.0, "type": "electric_scooter"}, {"rental_uris": {"ios": "https://dc.lft.to/lastmile_qr_scan", "android": "https://dc.lft.to/lastmile_qr_scan"}, "lat": 38.91722933333333, "lon": -77.031844, "fusion_lat": 0.0, "name": "af8d8785870ed84732c40c8688a61c1e", "is_disabled": 0, "is_reserved": 0, "bike_id": "af8d8785870ed84732c40c8688a61c1e", "fusion_lon": 0.0, "type": "electric_scooter"}, {"rental_uris": {"ios": "https://dc.lft.to/lastmile_qr_scan", "android": "https://dc.lft.to/lastmile_qr_scan"}, "lat": 38.9176245, "lon": -77.015008, "fusion_lat": 0.0, "name": "2aa72c0e81308c43cd2f0c8bb0b598d6", "is_disabled": 0, "is_reserved": 0, "bike_id": "2aa72c0e81308c43cd2f0c8bb0b598d6", "fusion_lon": 0.0, "type": "electric_scooter"}, {"rental_uris": {"ios": "https://dc.lft.to/lastmile_qr_scan", "android": "https://dc.lft.to/lastmile_qr_scan"}, "lat": 38.902619666666666, "lon": -77.038467, "fusion_lat": 0.0, "name": "2506df379296b84db6575a6af2ab22ee", "is_disabled": 0, "is_reserved": 0, "bike_id": "2506df379296b84db6575a6af2ab22ee", "fusion_lon": 0.0, "type": "electric_scooter"}, {"rental_uris": {"ios": "https://dc.lft.to/lastmile_qr_scan", "android": "https://dc.lft.to/lastmile_qr_scan"}, "lat": 38.899303333333336, "lon": -77.04486716666666, "fusion_lat": 0.0, "name": "aa84fe7a8ffd58b130cfbaf67bb7eea3", "is_disabled": 0, "is_reserved": 0, "bike_id": "aa84fe7a8ffd58b130cfbaf67bb7eea3", "fusion_lon": 0.0, "type": "electric_scooter"}, {"rental_uris": {"ios": "https://dc.lft.to/lastmile_qr_scan", "android": "https://dc.lft.to/lastmile_qr_scan"}, "lat": 38.90642116666667, "lon": -77.0487635, "fusion_lat": 0.0, "name": "f3df6f3afe6fe3492454f5c1a0541cde", "is_disabled": 0, "is_reserved": 0, "bike_id": "f3df6f3afe6fe3492454f5c1a0541cde", "fusion_lon": 0.0, "type": "electric_scooter"}, {"rental_uris": {"ios": "https://dc.lft.to/lastmile_qr_scan", "android": "https://dc.lft.to/lastmile_qr_scan"}, "lat": 38.88014783333333, "lon": -77.00534866666666, "fusion_lat": 0.0, "name": "8c14ea7c24e3de9abf1b2c73c0f3f3f5", "is_disabled": 0, "is_reserved": 0, "bike_id": "8c14ea7c24e3de9abf1b2c73c0f3f3f5", "fusion_lon": 0.0, "type": "electric_scooter"}, {"rental_uris": {"ios": "https://dc.lft.to/lastmile_qr_scan", "android": "https://dc.lft.to/lastmile_qr_scan"}, "lat": 38.90203833333333, "lon": -77.02999566666666, "fusion_lat": 0.0, "name": "131be0a973e99e1fb1caccd1256f9e06", "is_disabled": 0, "is_reserved": 0, "bike_id": "131be0a973e99e1fb1caccd1256f9e06", "fusion_lon": 0.0, "type": "electric_scooter"}, {"rental_uris": {"ios": "https://dc.lft.to/lastmile_qr_scan", "android": "https://dc.lft.to/lastmile_qr_scan"}, "lat": 38.89238666666667, "lon": -77.0334845, "fusion_lat": 0.0, "name": "94a9c4946f88ad0108db6953f89fb732", "is_disabled": 0, "is_reserved": 0, "bike_id": "94a9c4946f88ad0108db6953f89fb732", "fusion_lon": 0.0, "type": "electric_scooter"}, {"rental_uris": {"ios": "https://dc.lft.to/lastmile_qr_scan", "android": "https://dc.lft.to/lastmile_qr_scan"}, "lat": 38.909807, "lon": -77.021822, "fusion_lat": 0.0, "name": "a45f59d19de1ddcd3f65ba08ded3c75c", "is_disabled": 0, "is_reserved": 0, "bike_id": "a45f59d19de1ddcd3f65ba08ded3c75c", "fusion_lon": 0.0, "type": "electric_scooter"}, {"rental_uris": {"ios": "https://dc.lft.to/lastmile_qr_scan", "android": "https://dc.lft.to/lastmile_qr_scan"}, "lat": 38.8922275, "lon": -77.02231016666667, "fusion_lat": 0.0, "name": "823487bc133d186ba5165b3b021ca6a1", "is_disabled": 0, "is_reserved": 0, "bike_id": "823487bc133d186ba5165b3b021ca6a1", "fusion_lon": 0.0, "type": "electric_scooter"}, {"rental_uris": {"ios": "https://dc.lft.to/lastmile_qr_scan", "android": "https://dc.lft.to/lastmile_qr_scan"}, "lat": 38.91408666666667, "lon": -77.03168, "fusion_lat": 0.0, "name": "bf1234dff768f0ecb92e73a26c6f9da1", "is_disabled": 0, "is_reserved": 0, "bike_id": "bf1234dff768f0ecb92e73a26c6f9da1", "fusion_lon": 0.0, "type": "electric_scooter"}, {"rental_uris": {"ios": "https://dc.lft.to/lastmile_qr_scan", "android": "https://dc.lft.to/lastmile_qr_scan"}, "lat": 38.929491666666664, "lon": -77.034674, "fusion_lat": 0.0, "name": "03143b5cfef70fc117675fad489e4081", "is_disabled": 0, "is_reserved": 0, "bike_id": "03143b5cfef70fc117675fad489e4081", "fusion_lon": 0.0, "type": "electric_scooter"}, {"rental_uris": {"ios": "https://dc.lft.to/lastmile_qr_scan", "android": "https://dc.lft.to/lastmile_qr_scan"}, "lat": 38.897460333333335, "lon": -77.02691333333334, "fusion_lat": 0.0, "name": "741e24395ef0ed1b4f68354569fecfd7", "is_disabled": 0, "is_reserved": 0, "bike_id": "741e24395ef0ed1b4f68354569fecfd7", "fusion_lon": 0.0, "type": "electric_scooter"}, {"rental_uris": {"ios": "https://dc.lft.to/lastmile_qr_scan", "android": "https://dc.lft.to/lastmile_qr_scan"}, "lat": 39.040856833333336, "lon": -77.05338533333334, "fusion_lat": 0.0, "name": "3e12121096ed836e5713f14f4da42da1", "is_disabled": 0, "is_reserved": 0, "bike_id": "3e12121096ed836e5713f14f4da42da1", "fusion_lon": 0.0, "type": "electric_bike"}, {"rental_uris": {"ios": "https://dc.lft.to/lastmile_qr_scan", "android": "https://dc.lft.to/lastmile_qr_scan"}, "lat": 38.8924405, "lon": -77.0334335, "fusion_lat": 0.0, "name": "79f637319ad341afeeca101c5112a0c5", "is_disabled": 0, "is_reserved": 0, "bike_id": "79f637319ad341afeeca101c5112a0c5", "fusion_lon": 0.0, "type": "electric_scooter"}, {"rental_uris": {"ios": "https://dc.lft.to/lastmile_qr_scan", "android": "https://dc.lft.to/lastmile_qr_scan"}, "lat": 38.92364516666667, "lon": -77.032685, "fusion_lat": 0.0, "name": "4489ef7af7119361442874af85fc2b27", "is_disabled": 0, "is_reserved": 0, "bike_id": "4489ef7af7119361442874af85fc2b27", "fusion_lon": 0.0, "type": "electric_scooter"}, {"rental_uris": {"ios": "https://dc.lft.to/lastmile_qr_scan", "android": "https://dc.lft.to/lastmile_qr_scan"}, "lat": 38.905904, "lon": -77.02187566666667, "fusion_lat": 0.0, "name": "ad820c499ba08bff1353d732962d3f13", "is_disabled": 0, "is_reserved": 0, "bike_id": "ad820c499ba08bff1353d732962d3f13", "fusion_lon": 0.0, "type": "electric_scooter"}, {"rental_uris": {"ios": "https://dc.lft.to/lastmile_qr_scan", "android": "https://dc.lft.to/lastmile_qr_scan"}, "lat": 38.8845055, "lon": -76.9509455, "fusion_lat": 0.0, "name": "e55ef05c301923f084981c3e1e42f77d", "is_disabled": 0, "is_reserved": 0, "bike_id": "e55ef05c301923f084981c3e1e42f77d", "fusion_lon": 0.0, "type": "electric_scooter"}, {"rental_uris": {"ios": "https://dc.lft.to/lastmile_qr_scan", "android": "https://dc.lft.to/lastmile_qr_scan"}, "lat": 38.90382916666667, "lon": -77.01642833333334, "fusion_lat": 0.0, "name": "ecea04738468cbfa6cd0442083f55cc0", "is_disabled": 0, "is_reserved": 0, "bike_id": "ecea04738468cbfa6cd0442083f55cc0", "fusion_lon": 0.0, "type": "electric_scooter"}, {"rental_uris": {"ios": "https://dc.lft.to/lastmile_qr_scan", "android": "https://dc.lft.to/lastmile_qr_scan"}, "lat": 38.9185855, "lon": -77.0416685, "fusion_lat": 0.0, "name": "d4474702909f99ecc31dc47a00f4e35d", "is_disabled": 0, "is_reserved": 0, "bike_id": "d4474702909f99ecc31dc47a00f4e35d", "fusion_lon": 0.0, "type": "electric_scooter"}, {"rental_uris": {"ios": "https://dc.lft.to/lastmile_qr_scan", "android": "https://dc.lft.to/lastmile_qr_scan"}, "lat": 38.91216566666667, "lon": -77.02799966666667, "fusion_lat": 0.0, "name": "e9c213753bc19136a0eb278afca4140b", "is_disabled": 0, "is_reserved": 0, "bike_id": "e9c213753bc19136a0eb278afca4140b", "fusion_lon": 0.0, "type": "electric_scooter"}, {"rental_uris": {"ios": "https://dc.lft.to/lastmile_qr_scan", "android": "https://dc.lft.to/lastmile_qr_scan"}, "lat": 38.873785833333336, "lon": -77.0007035, "fusion_lat": 0.0, "name": "bec4a7e453f8237e1efd09c64074bfe1", "is_disabled": 0, "is_reserved": 0, "bike_id": "bec4a7e453f8237e1efd09c64074bfe1", "fusion_lon": 0.0, "type": "electric_scooter"}, {"rental_uris": {"ios": "https://dc.lft.to/lastmile_qr_scan", "android": "https://dc.lft.to/lastmile_qr_scan"}, "lat": 38.88140416666667, "lon": -77.01676816666667, "fusion_lat": 0.0, "name": "7b9e2ad610fb9d701daa6ccdb6084100", "is_disabled": 0, "is_reserved": 0, "bike_id": "7b9e2ad610fb9d701daa6ccdb6084100", "fusion_lon": 0.0, "type": "electric_scooter"}, {"rental_uris": {"ios": "https://dc.lft.to/lastmile_qr_scan", "android": "https://dc.lft.to/lastmile_qr_scan"}, "lat": 38.90192666666667, "lon": -76.978798, "fusion_lat": 0.0, "name": "27a51d2cb22667287d2dfd840fe22fe5", "is_disabled": 0, "is_reserved": 0, "bike_id": "27a51d2cb22667287d2dfd840fe22fe5", "fusion_lon": 0.0, "type": "electric_scooter"}, {"rental_uris": {"ios": "https://dc.lft.to/lastmile_qr_scan", "android": "https://dc.lft.to/lastmile_qr_scan"}, "lat": 38.916400833333334, "lon": -77.02585883333333, "fusion_lat": 0.0, "name": "9d47907b1771439cb168933542a8a46a", "is_disabled": 0, "is_reserved": 0, "bike_id": "9d47907b1771439cb168933542a8a46a", "fusion_lon": 0.0, "type": "electric_scooter"}, {"rental_uris": {"ios": "https://dc.lft.to/lastmile_qr_scan", "android": "https://dc.lft.to/lastmile_qr_scan"}, "lat": 38.922687, "lon": -77.018519, "fusion_lat": 0.0, "name": "bb7e532dc8f1d63b2014a162a606eb38", "is_disabled": 0, "is_reserved": 0, "bike_id": "bb7e532dc8f1d63b2014a162a606eb38", "fusion_lon": 0.0, "type": "electric_scooter"}, {"rental_uris": {"ios": "https://dc.lft.to/lastmile_qr_scan", "android": "https://dc.lft.to/lastmile_qr_scan"}, "lat": 38.8975015, "lon": -77.02576733333333, "fusion_lat": 0.0, "name": "035a5b3093875faff41127e15e499656", "is_disabled": 0, "is_reserved": 0, "bike_id": "035a5b3093875faff41127e15e499656", "fusion_lon": 0.0, "type": "electric_scooter"}, {"rental_uris": {"ios": "https://dc.lft.to/lastmile_qr_scan", "android": "https://dc.lft.to/lastmile_qr_scan"}, "lat": 38.9038135, "lon": -77.03651366666666, "fusion_lat": 0.0, "name": "c8d51d3a7b56c683db19734db59928b3", "is_disabled": 0, "is_reserved": 0, "bike_id": "c8d51d3a7b56c683db19734db59928b3", "fusion_lon": 0.0, "type": "electric_scooter"}, {"rental_uris": {"ios": "https://dc.lft.to/lastmile_qr_scan", "android": "https://dc.lft.to/lastmile_qr_scan"}, "lat": 38.90670933333333, "lon": -77.00007616666667, "fusion_lat": 0.0, "name": "4998f9888cceb26e03701963db0de6c9", "is_disabled": 0, "is_reserved": 0, "bike_id": "4998f9888cceb26e03701963db0de6c9", "fusion_lon": 0.0, "type": "electric_scooter"}, {"rental_uris": {"ios": "https://dc.lft.to/lastmile_qr_scan", "android": "https://dc.lft.to/lastmile_qr_scan"}, "lat": 38.919135, "lon": -77.013456, "fusion_lat": 0.0, "name": "dd2490560922cc008c6bbf82a8a52f61", "is_disabled": 0, "is_reserved": 0, "bike_id": "dd2490560922cc008c6bbf82a8a52f61", "fusion_lon": 0.0, "type": "electric_scooter"}, {"rental_uris": {"ios": "https://dc.lft.to/lastmile_qr_scan", "android": "https://dc.lft.to/lastmile_qr_scan"}, "lat": 38.934221666666666, "lon": -77.02839966666667, "fusion_lat": 0.0, "name": "9e6f1f33647606d77b2ee09665d606ee", "is_disabled": 0, "is_reserved": 0, "bike_id": "9e6f1f33647606d77b2ee09665d606ee", "fusion_lon": 0.0, "type": "electric_scooter"}, {"rental_uris": {"ios": "https://dc.lft.to/lastmile_qr_scan", "android": "https://dc.lft.to/lastmile_qr_scan"}, "lat": 38.9287355, "lon": -77.034083, "fusion_lat": 0.0, "name": "90e947e717d4586b206c056482a071c6", "is_disabled": 0, "is_reserved": 0, "bike_id": "90e947e717d4586b206c056482a071c6", "fusion_lon": 0.0, "type": "electric_scooter"}, {"rental_uris": {"ios": "https://dc.lft.to/lastmile_qr_scan", "android": "https://dc.lft.to/lastmile_qr_scan"}, "lat": 38.927514, "lon": -77.02381066666666, "fusion_lat": 0.0, "name": "3a5451126e27748053ead51e261bad11", "is_disabled": 0, "is_reserved": 0, "bike_id": "3a5451126e27748053ead51e261bad11", "fusion_lon": 0.0, "type": "electric_scooter"}, {"rental_uris": {"ios": "https://dc.lft.to/lastmile_qr_scan", "android": "https://dc.lft.to/lastmile_qr_scan"}, "lat": 38.91838833333333, "lon": -77.0483295, "fusion_lat": 0.0, "name": "60aab0d3a32101e481cdb5dca4c4735a", "is_disabled": 0, "is_reserved": 0, "bike_id": "60aab0d3a32101e481cdb5dca4c4735a", "fusion_lon": 0.0, "type": "electric_scooter"}, {"rental_uris": {"ios": "https://dc.lft.to/lastmile_qr_scan", "android": "https://dc.lft.to/lastmile_qr_scan"}, "lat": 38.91539066666667, "lon": -76.98343983333334, "fusion_lat": 0.0, "name": "1d0a15d3a647286a621f748a998e3ce9", "is_disabled": 0, "is_reserved": 0, "bike_id": "1d0a15d3a647286a621f748a998e3ce9", "fusion_lon": 0.0, "type": "electric_scooter"}, {"rental_uris": {"ios": "https://dc.lft.to/lastmile_qr_scan", "android": "https://dc.lft.to/lastmile_qr_scan"}, "lat": 38.89489416666667, "lon": -77.022873, "fusion_lat": 0.0, "name": "8851d848d7fb02d82902b3ef50eb38b0", "is_disabled": 0, "is_reserved": 0, "bike_id": "8851d848d7fb02d82902b3ef50eb38b0", "fusion_lon": 0.0, "type": "electric_scooter"}, {"rental_uris": {"ios": "https://dc.lft.to/lastmile_qr_scan", "android": "https://dc.lft.to/lastmile_qr_scan"}, "lat": 38.9185715, "lon": -76.96111466666666, "fusion_lat": 0.0, "name": "0b409c4972c18f2eafcbb97b9cc33d76", "is_disabled": 0, "is_reserved": 0, "bike_id": "0b409c4972c18f2eafcbb97b9cc33d76", "fusion_lon": 0.0, "type": "electric_scooter"}, {"rental_uris": {"ios": "https://dc.lft.to/lastmile_qr_scan", "android": "https://dc.lft.to/lastmile_qr_scan"}, "lat": 38.920387, "lon": -77.08195533333334, "fusion_lat": 0.0, "name": "b7845d76c7c313b664d3a2f203d5db05", "is_disabled": 0, "is_reserved": 0, "bike_id": "b7845d76c7c313b664d3a2f203d5db05", "fusion_lon": 0.0, "type": "electric_scooter"}, {"rental_uris": {"ios": "https://dc.lft.to/lastmile_qr_scan", "android": "https://dc.lft.to/lastmile_qr_scan"}, "lat": 38.91259516666667, "lon": -77.0386455, "fusion_lat": 0.0, "name": "5f348931d0b1caf8145f5b0ed5ba2d39", "is_disabled": 0, "is_reserved": 0, "bike_id": "5f348931d0b1caf8145f5b0ed5ba2d39", "fusion_lon": 0.0, "type": "electric_scooter"}, {"rental_uris": {"ios": "https://dc.lft.to/lastmile_qr_scan", "android": "https://dc.lft.to/lastmile_qr_scan"}, "lat": 38.91816033333333, "lon": -77.03271266666667, "fusion_lat": 0.0, "name": "a70a002af99c640928403d0bccf8c37a", "is_disabled": 0, "is_reserved": 0, "bike_id": "a70a002af99c640928403d0bccf8c37a", "fusion_lon": 0.0, "type": "electric_scooter"}, {"rental_uris": {"ios": "https://dc.lft.to/lastmile_qr_scan", "android": "https://dc.lft.to/lastmile_qr_scan"}, "lat": 38.92197516666667, "lon": -77.018429, "fusion_lat": 0.0, "name": "d2fd88ce1a74ba383f83a86d571caad8", "is_disabled": 0, "is_reserved": 0, "bike_id": "d2fd88ce1a74ba383f83a86d571caad8", "fusion_lon": 0.0, "type": "electric_scooter"}, {"rental_uris": {"ios": "https://dc.lft.to/lastmile_qr_scan", "android": "https://dc.lft.to/lastmile_qr_scan"}, "lat": 38.902101333333334, "lon": -77.021346, "fusion_lat": 0.0, "name": "7cd949618289ee07bcf954feec1f724f", "is_disabled": 0, "is_reserved": 0, "bike_id": "7cd949618289ee07bcf954feec1f724f", "fusion_lon": 0.0, "type": "electric_scooter"}, {"rental_uris": {"ios": "https://dc.lft.to/lastmile_qr_scan", "android": "https://dc.lft.to/lastmile_qr_scan"}, "lat": 38.895486, "lon": -77.00387816666667, "fusion_lat": 0.0, "name": "82b69abafb7d6f888d09c6245666dfca", "is_disabled": 0, "is_reserved": 0, "bike_id": "82b69abafb7d6f888d09c6245666dfca", "fusion_lon": 0.0, "type": "electric_scooter"}, {"rental_uris": {"ios": "https://dc.lft.to/lastmile_qr_scan", "android": "https://dc.lft.to/lastmile_qr_scan"}, "lat": 38.922316, "lon": -77.0218355, "fusion_lat": 0.0, "name": "cdf955267040bf8671bfcdf0fa2e0600", "is_disabled": 0, "is_reserved": 0, "bike_id": "cdf955267040bf8671bfcdf0fa2e0600", "fusion_lon": 0.0, "type": "electric_scooter"}, {"rental_uris": {"ios": "https://dc.lft.to/lastmile_qr_scan", "android": "https://dc.lft.to/lastmile_qr_scan"}, "lat": 38.9149405, "lon": -76.98377616666667, "fusion_lat": 0.0, "name": "3a4b46ecda18f3779ed351aa575f3827", "is_disabled": 0, "is_reserved": 0, "bike_id": "3a4b46ecda18f3779ed351aa575f3827", "fusion_lon": 0.0, "type": "electric_scooter"}, {"rental_uris": {"ios": "https://dc.lft.to/lastmile_qr_scan", "android": "https://dc.lft.to/lastmile_qr_scan"}, "lat": 38.9081765, "lon": -77.031667, "fusion_lat": 0.0, "name": "76937bffe0cfdde1311864360119f3ca", "is_disabled": 0, "is_reserved": 0, "bike_id": "76937bffe0cfdde1311864360119f3ca", "fusion_lon": 0.0, "type": "electric_scooter"}, {"rental_uris": {"ios": "https://dc.lft.to/lastmile_qr_scan", "android": "https://dc.lft.to/lastmile_qr_scan"}, "lat": 38.89222733333333, "lon": -77.048667, "fusion_lat": 0.0, "name": "f472c7242d372e7098847835252cdfdc", "is_disabled": 0, "is_reserved": 0, "bike_id": "f472c7242d372e7098847835252cdfdc", "fusion_lon": 0.0, "type": "electric_scooter"}, {"rental_uris": {"ios": "https://dc.lft.to/lastmile_qr_scan", "android": "https://dc.lft.to/lastmile_qr_scan"}, "lat": 38.90249266666667, "lon": -77.048227, "fusion_lat": 0.0, "name": "cc5739cad1b1f964c193d4fab647b9b9", "is_disabled": 0, "is_reserved": 0, "bike_id": "cc5739cad1b1f964c193d4fab647b9b9", "fusion_lon": 0.0, "type": "electric_scooter"}, {"rental_uris": {"ios": "https://dc.lft.to/lastmile_qr_scan", "android": "https://dc.lft.to/lastmile_qr_scan"}, "lat": 38.923264, "lon": -77.0296305, "fusion_lat": 0.0, "name": "08b3ad73083ba556a3891882dd30a86d", "is_disabled": 0, "is_reserved": 0, "bike_id": "08b3ad73083ba556a3891882dd30a86d", "fusion_lon": 0.0, "type": "electric_scooter"}, {"rental_uris": {"ios": "https://dc.lft.to/lastmile_qr_scan", "android": "https://dc.lft.to/lastmile_qr_scan"}, "lat": 38.915562666666666, "lon": -77.03323766666666, "fusion_lat": 0.0, "name": "06bf5a14cfa56947f616c21b833f2762", "is_disabled": 0, "is_reserved": 0, "bike_id": "06bf5a14cfa56947f616c21b833f2762", "fusion_lon": 0.0, "type": "electric_scooter"}, {"rental_uris": {"ios": "https://dc.lft.to/lastmile_qr_scan", "android": "https://dc.lft.to/lastmile_qr_scan"}, "lat": 38.9655705, "lon": -77.00201966666667, "fusion_lat": 0.0, "name": "0988f5fe79a650ff5e18c13513953836", "is_disabled": 0, "is_reserved": 0, "bike_id": "0988f5fe79a650ff5e18c13513953836", "fusion_lon": 0.0, "type": "electric_scooter"}, {"rental_uris": {"ios": "https://dc.lft.to/lastmile_qr_scan", "android": "https://dc.lft.to/lastmile_qr_scan"}, "lat": 38.911148, "lon": -77.0028785, "fusion_lat": 0.0, "name": "7de3e1840a8dc5ced4f80dfdafa5ad35", "is_disabled": 0, "is_reserved": 0, "bike_id": "7de3e1840a8dc5ced4f80dfdafa5ad35", "fusion_lon": 0.0, "type": "electric_scooter"}, {"rental_uris": {"ios": "https://dc.lft.to/lastmile_qr_scan", "android": "https://dc.lft.to/lastmile_qr_scan"}, "lat": 38.921460833333335, "lon": -77.03515383333334, "fusion_lat": 0.0, "name": "bd4acc0eb45aa22f7dc1775da138136f", "is_disabled": 0, "is_reserved": 0, "bike_id": "bd4acc0eb45aa22f7dc1775da138136f", "fusion_lon": 0.0, "type": "electric_scooter"}, {"rental_uris": {"ios": "https://dc.lft.to/lastmile_qr_scan", "android": "https://dc.lft.to/lastmile_qr_scan"},