{"data": {"bikes": [{"lat": 38.912684, "fusion_lon": 0.0, "fusion_lat": 0.0, "is_disabled": 0, "type": "electric_scooter", "lon": -77.0222185, "rental_uris": {"android": "https://dc.lft.to/lastmile_qr_scan", "ios": "https://dc.lft.to/lastmile_qr_scan"}, "is_reserved": 0, "bike_id": "e03c31554fa46c21038b5448b276cfc4", "name": "e03c31554fa46c21038b5448b276cfc4"}, {"lat": 38.90975983333333, "fusion_lon": 0.0, "fusion_lat": 0.0, "is_disabled": 0, "type": "electric_scooter", "lon": -77.03115383333333, "rental_uris": {"android": "https://dc.lft.to/lastmile_qr_scan", "ios": "https://dc.lft.to/lastmile_qr_scan"}, "is_reserved": 0, "bike_id": "e44def899ab74b1f6b1dccf9f3cdd467", "name": "e44def899ab74b1f6b1dccf9f3cdd467"}, {"lat": 38.92943566666667, "fusion_lon": 0.0, "fusion_lat": 0.0, "is_disabled": 0, "type": "electric_scooter", "lon": -77.03284283333333, "rental_uris": {"android": "https://dc.lft.to/lastmile_qr_scan", "ios": "https://dc.lft.to/lastmile_qr_scan"}, "is_reserved": 0, "bike_id": "2cbc434f96a0e8f005a1050ab2928de8", "name": "2cbc434f96a0e8f005a1050ab2928de8"}, {"lat": 38.88741783333333, "fusion_lon": 0.0, "fusion_lat": 0.0, "is_disabled": 0, "type": "electric_scooter", "lon": -77.0283105, "rental_uris": {"android": "https://dc.lft.to/lastmile_qr_scan", "ios": "https://dc.lft.to/lastmile_qr_scan"}, "is_reserved": 0, "bike_id": "426cef1ddad5750c75ad74eef73062a7", "name": "426cef1ddad5750c75ad74eef73062a7"}, {"lat": 38.93154283333333, "fusion_lon": 0.0, "fusion_lat": 0.0, "is_disabled": 0, "type": "electric_scooter", "lon": -77.036235, "rental_uris": {"android": "https://dc.lft.to/lastmile_qr_scan", "ios": "https://dc.lft.to/lastmile_qr_scan"}, "is_reserved": 0, "bike_id": "1c2ffceec785675cde2ed7d2add9de59", "name": "1c2ffceec785675cde2ed7d2add9de59"}, {"lat": 38.936685, "fusion_lon": 0.0, "fusion_lat": 0.0, "is_disabled": 0, "type": "electric_bike", "lon": -76.95204766666667, "rental_uris": {"android": "https://dc.lft.to/lastmile_qr_scan", "ios": "https://dc.lft.to/lastmile_qr_scan"}, "is_reserved": 0, "bike_id": "a025fd12a88a8344487329a1b128cad5", "name": "a025fd12a88a8344487329a1b128cad5"}, {"lat": 38.86357533333333, "fusion_lon": 0.0, "fusion_lat": 0.0, "is_disabled": 0, "type": "electric_scooter", "lon": -76.99097966666666, "rental_uris": {"android": "https://dc.lft.to/lastmile_qr_scan", "ios": "https://dc.lft.to/lastmile_qr_scan"}, "is_reserved": 0, "bike_id": "38f09782206547ef3f004d1095e49dee", "name": "38f09782206547ef3f004d1095e49dee"}, {"lat": 38.86709533333333, "fusion_lon": 0.0, "fusion_lat": 0.0, "is_disabled": 0, "type": "electric_scooter", "lon": -76.98731583333333, "rental_uris": {"android": "https://dc.lft.to/lastmile_qr_scan", "ios": "https://dc.lft.to/lastmile_qr_scan"}, "is_reserved": 0, "bike_id": "1c6d8217f4bf4d2e3daddb70f2670f61", "name": "1c6d8217f4bf4d2e3daddb70f2670f61"}, {"lat": 38.9072855, "fusion_lon": 0.0, "fusion_lat": 0.0, "is_disabled": 0, "type": "electric_scooter", "lon": -77.031902, "rental_uris": {"android": "https://dc.lft.to/lastmile_qr_scan", "ios": "https://dc.lft.to/lastmile_qr_scan"}, "is_reserved": 0, "bike_id": "ab5d845654aec54c08720fe3369d87d5", "name": "ab5d845654aec54c08720fe3369d87d5"}, {"lat": 38.9397845, "fusion_lon": 0.0, "fusion_lat": 0.0, "is_disabled": 0, "type": "electric_scooter", "lon": -77.02710383333333, "rental_uris": {"android": "https://dc.lft.to/lastmile_qr_scan", "ios": "https://dc.lft.to/lastmile_qr_scan"}, "is_reserved": 0, "bike_id": "ed69983eaa109484a465e40d7933d223", "name": "ed69983eaa109484a465e40d7933d223"}, {"lat": 38.904742666666664, "fusion_lon": 0.0, "fusion_lat": 0.0, "is_disabled": 0, "type": "electric_scooter", "lon": -77.03553833333334, "rental_uris": {"android": "https://dc.lft.to/lastmile_qr_scan", "ios": "https://dc.lft.to/lastmile_qr_scan"}, "is_reserved": 0, "bike_id": "81e2f06b1cc8c3b09e8de9307a859d19", "name": "81e2f06b1cc8c3b09e8de9307a859d19"}, {"lat": 38.9226035, "fusion_lon": 0.0, "fusion_lat": 0.0, "is_disabled": 0, "type": "electric_scooter", "lon": -77.02344366666667, "rental_uris": {"android": "https://dc.lft.to/lastmile_qr_scan", "ios": "https://dc.lft.to/lastmile_qr_scan"}, "is_reserved": 0, "bike_id": "19d719a429cf437dd8ed243b9f1c7375", "name": "19d719a429cf437dd8ed243b9f1c7375"}, {"lat": 38.899649333333336, "fusion_lon": 0.0, "fusion_lat": 0.0, "is_disabled": 0, "type": "electric_scooter", "lon": -76.93786783333333, "rental_uris": {"android": "https://dc.lft.to/lastmile_qr_scan", "ios": "https://dc.lft.to/lastmile_qr_scan"}, "is_reserved": 0, "bike_id": "4b0a3f6c0edfbb63cc7050d503ee0dbc", "name": "4b0a3f6c0edfbb63cc7050d503ee0dbc"}, {"lat": 38.926398, "fusion_lon": 0.0, "fusion_lat": 0.0, "is_disabled": 0, "type": "electric_scooter", "lon": -77.025181, "rental_uris": {"android": "https://dc.lft.to/lastmile_qr_scan", "ios": "https://dc.lft.to/lastmile_qr_scan"}, "is_reserved": 0, "bike_id": "06c7d9292739201e79b7e1427f67f12a", "name": "06c7d9292739201e79b7e1427f67f12a"}, {"lat": 38.879231833333336, "fusion_lon": 0.0, "fusion_lat": 0.0, "is_disabled": 0, "type": "electric_scooter", "lon": -77.02367033333333, "rental_uris": {"android": "https://dc.lft.to/lastmile_qr_scan", "ios": "https://dc.lft.to/lastmile_qr_scan"}, "is_reserved": 0, "bike_id": "a7e6f2dfb72aa18ef52c7ca2508340e3", "name": "a7e6f2dfb72aa18ef52c7ca2508340e3"}, {"lat": 38.899456666666666, "fusion_lon": 0.0, "fusion_lat": 0.0, "is_disabled": 0, "type": "electric_scooter", "lon": -76.9818905, "rental_uris": {"android": "https://dc.lft.to/lastmile_qr_scan", "ios": "https://dc.lft.to/lastmile_qr_scan"}, "is_reserved": 0, "bike_id": "9f919a229f55ecabb6ef30802d4b81aa", "name": "9f919a229f55ecabb6ef30802d4b81aa"}, {"lat": 38.898553666666665, "fusion_lon": 0.0, "fusion_lat": 0.0, "is_disabled": 0, "type": "electric_bike", "lon": -76.9318995, "rental_uris": {"android": "https://dc.lft.to/lastmile_qr_scan", "ios": "https://dc.lft.to/lastmile_qr_scan"}, "is_reserved": 0, "bike_id": "fe7d594b9678bcb57d29bd1301a29b92", "name": "fe7d594b9678bcb57d29bd1301a29b92"}, {"lat": 38.90013966666667, "fusion_lon": 0.0, "fusion_lat": 0.0, "is_disabled": 0, "type": "electric_scooter", "lon": -77.0448395, "rental_uris": {"android": "https://dc.lft.to/lastmile_qr_scan", "ios": "https://dc.lft.to/lastmile_qr_scan"}, "is_reserved": 0, "bike_id": "cd9823616c945f7c5a9a42dbc2410c6d", "name": "cd9823616c945f7c5a9a42dbc2410c6d"}, {"lat": 38.876385166666665, "fusion_lon": 0.0, "fusion_lat": 0.0, "is_disabled": 0, "type": "electric_scooter", "lon": -77.0038405, "rental_uris": {"android": "https://dc.lft.to/lastmile_qr_scan", "ios": "https://dc.lft.to/lastmile_qr_scan"}, "is_reserved": 0, "bike_id": "7194e0f52f8de9b68caf5e86f0c91d80", "name": "7194e0f52f8de9b68caf5e86f0c91d80"}, {"lat": 38.883242333333335, "fusion_lon": 0.0, "fusion_lat": 0.0, "is_disabled": 0, "type": "electric_scooter", "lon": -77.016676, "rental_uris": {"android": "https://dc.lft.to/lastmile_qr_scan", "ios": "https://dc.lft.to/lastmile_qr_scan"}, "is_reserved": 0, "bike_id": "6ebb39faaaceff312525bda320178ba9", "name": "6ebb39faaaceff312525bda320178ba9"}, {"lat": 38.99046333333333, "fusion_lon": 0.0, "fusion_lat": 0.0, "is_disabled": 0, "type": "electric_bike", "lon": -77.069613, "rental_uris": {"android": "https://dc.lft.to/lastmile_qr_scan", "ios": "https://dc.lft.to/lastmile_qr_scan"}, "is_reserved": 0, "bike_id": "4d06f645b19fc6b7fa4a0c696dfbe598", "name": "4d06f645b19fc6b7fa4a0c696dfbe598"}, {"lat": 38.92874066666667, "fusion_lon": 0.0, "fusion_lat": 0.0, "is_disabled": 0, "type": "electric_scooter", "lon": -77.03443483333334, "rental_uris": {"android": "https://dc.lft.to/lastmile_qr_scan", "ios": "https://dc.lft.to/lastmile_qr_scan"}, "is_reserved": 0, "bike_id": "41284bc5901480689bfa61baf75d8f44", "name": "41284bc5901480689bfa61baf75d8f44"}, {"lat": 38.90376216666667, "fusion_lon": 0.0, "fusion_lat": 0.0, "is_disabled": 0, "type": "electric_scooter", "lon": -77.04470666666667, "rental_uris": {"android": "https://dc.lft.to/lastmile_qr_scan", "ios": "https://dc.lft.to/lastmile_qr_scan"}, "is_reserved": 0, "bike_id": "b2f7bd0436e35e7697ae4296a7147959", "name": "b2f7bd0436e35e7697ae4296a7147959"}, {"lat": 38.911229166666665, "fusion_lon": 0.0, "fusion_lat": 0.0, "is_disabled": 0, "type": "electric_scooter", "lon": -77.02182266666667, "rental_uris": {"android": "https://dc.lft.to/lastmile_qr_scan", "ios": "https://dc.lft.to/lastmile_qr_scan"}, "is_reserved": 0, "bike_id": "e0785ca54a918408247660d1ff9f40a1", "name": "e0785ca54a918408247660d1ff9f40a1"}, {"lat": 38.91719366666667, "fusion_lon": 0.0, "fusion_lat": 0.0, "is_disabled": 0, "type": "electric_scooter", "lon": -77.027031, "rental_uris": {"android": "https://dc.lft.to/lastmile_qr_scan", "ios": "https://dc.lft.to/lastmile_qr_scan"}, "is_reserved": 0, "bike_id": "be8ec1cbb2626599c95f2da7a2d99072", "name": "be8ec1cbb2626599c95f2da7a2d99072"}, {"lat": 38.8935415, "fusion_lon": 0.0, "fusion_lat": 0.0, "is_disabled": 0, "type": "electric_scooter", "lon": -77.00333383333333, "rental_uris": {"android": "https://dc.lft.to/lastmile_qr_scan", "ios": "https://dc.lft.to/lastmile_qr_scan"}, "is_reserved": 0, "bike_id": "e9da63241e07f2fcd42f16a99f9d622e", "name": "e9da63241e07f2fcd42f16a99f9d622e"}, {"lat": 38.90345766666667, "fusion_lon": 0.0, "fusion_lat": 0.0, "is_disabled": 0, "type": "electric_scooter", "lon": -77.0384885, "rental_uris": {"android": "https://dc.lft.to/lastmile_qr_scan", "ios": "https://dc.lft.to/lastmile_qr_scan"}, "is_reserved": 0, "bike_id": "419c3d05f359902d21b350041ee8e8ab", "name": "419c3d05f359902d21b350041ee8e8ab"}, {"lat": 38.89555266666667, "fusion_lon": 0.0, "fusion_lat": 0.0, "is_disabled": 0, "type": "electric_scooter", "lon": -77.0467405, "rental_uris": {"android": "https://dc.lft.to/lastmile_qr_scan", "ios": "https://dc.lft.to/lastmile_qr_scan"}, "is_reserved": 0, "bike_id": "c6ac56315776dce6dc0bce575abed178", "name": "c6ac56315776dce6dc0bce575abed178"}, {"lat": 38.9368395, "fusion_lon": 0.0, "fusion_lat": 0.0, "is_disabled": 0, "type": "electric_scooter", "lon": -77.03283533333334, "rental_uris": {"android": "https://dc.lft.to/lastmile_qr_scan", "ios": "https://dc.lft.to/lastmile_qr_scan"}, "is_reserved": 0, "bike_id": "43189496c9e45f7d1e3a376620ae27ba", "name": "43189496c9e45f7d1e3a376620ae27ba"}, {"lat": 38.8873705, "fusion_lon": 0.0, "fusion_lat": 0.0, "is_disabled": 0, "type": "electric_scooter", "lon": -77.02626733333334, "rental_uris": {"android": "https://dc.lft.to/lastmile_qr_scan", "ios": "https://dc.lft.to/lastmile_qr_scan"}, "is_reserved": 0, "bike_id": "13acf4c70bf011de973586f8415679a1", "name": "13acf4c70bf011de973586f8415679a1"}, {"lat": 38.924981833333334, "fusion_lon": 0.0, "fusion_lat": 0.0, "is_disabled": 0, "type": "electric_scooter", "lon": -77.02254033333334, "rental_uris": {"android": "https://dc.lft.to/lastmile_qr_scan", "ios": "https://dc.lft.to/lastmile_qr_scan"}, "is_reserved": 0, "bike_id": "26ca2bc4e67df57dc3869098e7c84c39", "name": "26ca2bc4e67df57dc3869098e7c84c39"}, {"lat": 38.85789916666667, "fusion_lon": 0.0, "fusion_lat": 0.0, "is_disabled": 0, "type": "electric_bike", "lon": -77.099642, "rental_uris": {"android": "https://dc.lft.to/lastmile_qr_scan", "ios": "https://dc.lft.to/lastmile_qr_scan"}, "is_reserved": 0, "bike_id": "f39613dce94ed5f80390b08e7aaadcae", "name": "f39613dce94ed5f80390b08e7aaadcae"}, {"lat": 38.905845, "fusion_lon": 0.0, "fusion_lat": 0.0, "is_disabled": 0, "type": "electric_scooter", "lon": -76.98622933333333, "rental_uris": {"android": "https://dc.lft.to/lastmile_qr_scan", "ios": "https://dc.lft.to/lastmile_qr_scan"}, "is_reserved": 0, "bike_id": "4c2a95a0eb277800d510ec81cb2f7adc", "name": "4c2a95a0eb277800d510ec81cb2f7adc"}, {"lat": 38.904787, "fusion_lon": 0.0, "fusion_lat": 0.0, "is_disabled": 0, "type": "electric_scooter", "lon": -77.03850883333334, "rental_uris": {"android": "https://dc.lft.to/lastmile_qr_scan", "ios": "https://dc.lft.to/lastmile_qr_scan"}, "is_reserved": 0, "bike_id": "fd2c63b9c8e63f9b6cbcdd1dd1cb2e4e", "name": "fd2c63b9c8e63f9b6cbcdd1dd1cb2e4e"}, {"lat": 38.94998733333333, "fusion_lon": 0.0, "fusion_lat": 0.0, "is_disabled": 0, "type": "electric_scooter", "lon": -77.02706766666667, "rental_uris": {"android": "https://dc.lft.to/lastmile_qr_scan", "ios": "https://dc.lft.to/lastmile_qr_scan"}, "is_reserved": 0, "bike_id": "dad69aa89e49e2963f08b9c05f8eb498", "name": "dad69aa89e49e2963f08b9c05f8eb498"}, {"lat": 38.91989066666667, "fusion_lon": 0.0, "fusion_lat": 0.0, "is_disabled": 0, "type": "electric_scooter", "lon": -77.033137, "rental_uris": {"android": "https://dc.lft.to/lastmile_qr_scan", "ios": "https://dc.lft.to/lastmile_qr_scan"}, "is_reserved": 0, "bike_id": "162c31bffb94b25eaea140d527eaefe9", "name": "162c31bffb94b25eaea140d527eaefe9"}, {"lat": 38.8123995, "fusion_lon": 0.0, "fusion_lat": 0.0, "is_disabled": 0, "type": "electric_bike", "lon": -77.04072033333334, "rental_uris": {"android": "https://dc.lft.to/lastmile_qr_scan", "ios": "https://dc.lft.to/lastmile_qr_scan"}, "is_reserved": 0, "bike_id": "0fab18df4206df47deb8acce8e27ca53", "name": "0fab18df4206df47deb8acce8e27ca53"}, {"lat": 38.90238133333333, "fusion_lon": 0.0, "fusion_lat": 0.0, "is_disabled": 0, "type": "electric_scooter", "lon": -77.00202283333333, "rental_uris": {"android": "https://dc.lft.to/lastmile_qr_scan", "ios": "https://dc.lft.to/lastmile_qr_scan"}, "is_reserved": 0, "bike_id": "968f44b41391f11374a667b1bb41fb08", "name": "968f44b41391f11374a667b1bb41fb08"}, {"lat": 38.956328166666665, "fusion_lon": 0.0, "fusion_lat": 0.0, "is_disabled": 0, "type": "electric_scooter", "lon": -77.02988833333333, "rental_uris": {"android": "https://dc.lft.to/lastmile_qr_scan", "ios": "https://dc.lft.to/lastmile_qr_scan"}, "is_reserved": 0, "bike_id": "6eda9e761ebbba7f25beaa57a3231016", "name": "6eda9e761ebbba7f25beaa57a3231016"}, {"lat": 38.904939166666665, "fusion_lon": 0.0, "fusion_lat": 0.0, "is_disabled": 0, "type": "electric_scooter", "lon": -77.04345283333333, "rental_uris": {"android": "https://dc.lft.to/lastmile_qr_scan", "ios": "https://dc.lft.to/lastmile_qr_scan"}, "is_reserved": 0, "bike_id": "704819750f9c5a708ac6e1301cec2565", "name": "704819750f9c5a708ac6e1301cec2565"}, {"lat": 38.886768833333335, "fusion_lon": 0.0, "fusion_lat": 0.0, "is_disabled": 0, "type": "electric_scooter", "lon": -76.95219233333333, "rental_uris": {"android": "https://dc.lft.to/lastmile_qr_scan", "ios": "https://dc.lft.to/lastmile_qr_scan"}, "is_reserved": 0, "bike_id": "3e8383228f301b5dbcd30c8a5fd52411", "name": "3e8383228f301b5dbcd30c8a5fd52411"}, {"lat": 38.916216, "fusion_lon": 0.0, "fusion_lat": 0.0, "is_disabled": 0, "type": "electric_scooter", "lon": -77.02605483333333, "rental_uris": {"android": "https://dc.lft.to/lastmile_qr_scan", "ios": "https://dc.lft.to/lastmile_qr_scan"}, "is_reserved": 0, "bike_id": "a242bff4b213a2bbc73eba89c6bd6f8a", "name": "a242bff4b213a2bbc73eba89c6bd6f8a"}, {"lat": 38.9038405, "fusion_lon": 0.0, "fusion_lat": 0.0, "is_disabled": 0, "type": "electric_scooter", "lon": -77.0320355, "rental_uris": {"android": "https://dc.lft.to/lastmile_qr_scan", "ios": "https://dc.lft.to/lastmile_qr_scan"}, "is_reserved": 0, "bike_id": "c06895880ee873e5c28f2ffd76060f60", "name": "c06895880ee873e5c28f2ffd76060f60"}, {"lat": 38.91620783333333, "fusion_lon": 0.0, "fusion_lat": 0.0, "is_disabled": 0, "type": "electric_scooter", "lon": -77.02300133333334, "rental_uris": {"android": "https://dc.lft.to/lastmile_qr_scan", "ios": "https://dc.lft.to/lastmile_qr_scan"}, "is_reserved": 0, "bike_id": "b9929c37beb4707f96d72f0e1e7acb57", "name": "b9929c37beb4707f96d72f0e1e7acb57"}, {"lat": 38.956553166666666, "fusion_lon": 0.0, "fusion_lat": 0.0, "is_disabled": 0, "type": "electric_scooter", "lon": -77.03294966666667, "rental_uris": {"android": "https://dc.lft.to/lastmile_qr_scan", "ios": "https://dc.lft.to/lastmile_qr_scan"}, "is_reserved": 0, "bike_id": "fdc0092358d88c5a0599d4dd276c065f", "name": "fdc0092358d88c5a0599d4dd276c065f"}, {"lat": 38.902400166666666, "fusion_lon": 0.0, "fusion_lat": 0.0, "is_disabled": 0, "type": "electric_scooter", "lon": -77.03955516666667, "rental_uris": {"android": "https://dc.lft.to/lastmile_qr_scan", "ios": "https://dc.lft.to/lastmile_qr_scan"}, "is_reserved": 0, "bike_id": "34e2c16b3535c2c56d8315b32f2c1cbd", "name": "34e2c16b3535c2c56d8315b32f2c1cbd"}, {"lat": 38.87230116666667, "fusion_lon": 0.0, "fusion_lat": 0.0, "is_disabled": 0, "type": "electric_bike", "lon": -76.9320415, "rental_uris": {"android": "https://dc.lft.to/lastmile_qr_scan", "ios": "https://dc.lft.to/lastmile_qr_scan"}, "is_reserved": 0, "bike_id": "dd346cdc876ae3f2e743896457fb4910", "name": "dd346cdc876ae3f2e743896457fb4910"}, {"lat": 38.89682, "fusion_lon": 0.0, "fusion_lat": 0.0, "is_disabled": 0, "type": "electric_scooter", "lon": -77.0050025, "rental_uris": {"android": "https://dc.lft.to/lastmile_qr_scan", "ios": "https://dc.lft.to/lastmile_qr_scan"}, "is_reserved": 0, "bike_id": "dc5a013c28c65779ad756085dc39aa77", "name": "dc5a013c28c65779ad756085dc39aa77"}, {"lat": 38.90365416666667, "fusion_lon": 0.0, "fusion_lat": 0.0, "is_disabled": 0, "type": "electric_scooter", "lon": -77.067609, "rental_uris": {"android": "https://dc.lft.to/lastmile_qr_scan", "ios": "https://dc.lft.to/lastmile_qr_scan"}, "is_reserved": 0, "bike_id": "0699765f063a2af387de5e55f0caab88", "name": "0699765f063a2af387de5e55f0caab88"}, {"lat": 38.864077333333334, "fusion_lon": 0.0, "fusion_lat": 0.0, "is_disabled": 0, "type": "electric_scooter", "lon": -76.99025616666667, "rental_uris": {"android": "https://dc.lft.to/lastmile_qr_scan", "ios": "https://dc.lft.to/lastmile_qr_scan"}, "is_reserved": 0, "bike_id": "0e2f66a8735c28404589bceb86e9235e", "name": "0e2f66a8735c28404589bceb86e9235e"}, {"lat": 38.884128833333335, "fusion_lon": 0.0, "fusion_lat": 0.0, "is_disabled": 0, "type": "electric_scooter", "lon": -77.0305325, "rental_uris": {"android": "https://dc.lft.to/lastmile_qr_scan", "ios": "https://dc.lft.to/lastmile_qr_scan"}, "is_reserved": 0, "bike_id": "1dae5207ac06c6259566e6096e2c7862", "name": "1dae5207ac06c6259566e6096e2c7862"}, {"lat": 38.93354583333333, "fusion_lon": 0.0, "fusion_lat": 0.0, "is_disabled": 0, "type": "electric_scooter", "lon": -77.07222783333333, "rental_uris": {"android": "https://dc.lft.to/lastmile_qr_scan", "ios": "https://dc.lft.to/lastmile_qr_scan"}, "is_reserved": 0, "bike_id": "8f86edef3b084111ebea68ef837e7bb8", "name": "8f86edef3b084111ebea68ef837e7bb8"}, {"lat": 38.902626, "fusion_lon": 0.0, "fusion_lat": 0.0, "is_disabled": 0, "type": "electric_scooter", "lon": -77.036677, "rental_uris": {"android": "https://dc.lft.to/lastmile_qr_scan", "ios": "https://dc.lft.to/lastmile_qr_scan"}, "is_reserved": 0, "bike_id": "dc5f91d3056168ac844fd853d7e3f0cb", "name": "dc5f91d3056168ac844fd853d7e3f0cb"}, {"lat": 38.911432166666664, "fusion_lon": 0.0, "fusion_lat": 0.0, "is_disabled": 0, "type": "electric_scooter", "lon": -77.02803416666667, "rental_uris": {"android": "https://dc.lft.to/lastmile_qr_scan", "ios": "https://dc.lft.to/lastmile_qr_scan"}, "is_reserved": 0, "bike_id": "e1b0780ceed7ef2bd8dfef905dd6f776", "name": "e1b0780ceed7ef2bd8dfef905dd6f776"}, {"lat": 38.90820316666667, "fusion_lon": 0.0, "fusion_lat": 0.0, "is_disabled": 0, "type": "electric_scooter", "lon": -77.00595916666667, "rental_uris": {"android": "https://dc.lft.to/lastmile_qr_scan", "ios": "https://dc.lft.to/lastmile_qr_scan"}, "is_reserved": 0, "bike_id": "c176a795269061ce7ed1955d8f85b6bd", "name": "c176a795269061ce7ed1955d8f85b6bd"}, {"lat": 38.9435955, "fusion_lon": 0.0, "fusion_lat": 0.0, "is_disabled": 0, "type": "electric_scooter", "lon": -77.06108916666666, "rental_uris": {"android": "https://dc.lft.to/lastmile_qr_scan", "ios": "https://dc.lft.to/lastmile_qr_scan"}, "is_reserved": 0, "bike_id": "784def386ebcb2f93182c396b66a9c36", "name": "784def386ebcb2f93182c396b66a9c36"}, {"lat": 38.928449666666666, "fusion_lon": 0.0, "fusion_lat": 0.0, "is_disabled": 0, "type": "electric_scooter", "lon": -77.01413633333334, "rental_uris": {"android": "https://dc.lft.to/lastmile_qr_scan", "ios": "https://dc.lft.to/lastmile_qr_scan"}, "is_reserved": 0, "bike_id": "2aff36a28387cb174cc9d1fe580f62cb", "name": "2aff36a28387cb174cc9d1fe580f62cb"}, {"lat": 38.92449766666667, "fusion_lon": 0.0, "fusion_lat": 0.0, "is_disabled": 0, "type": "electric_scooter", "lon": -77.02027066666666, "rental_uris": {"android": "https://dc.lft.to/lastmile_qr_scan", "ios": "https://dc.lft.to/lastmile_qr_scan"}, "is_reserved": 0, "bike_id": "be03c2797058c57472c1c2874498d06b", "name": "be03c2797058c57472c1c2874498d06b"}, {"lat": 38.88176883333333, "fusion_lon": 0.0, "fusion_lat": 0.0, "is_disabled": 0, "type": "electric_scooter", "lon": -77.028112, "rental_uris": {"android": "https://dc.lft.to/lastmile_qr_scan", "ios": "https://dc.lft.to/lastmile_qr_scan"}, "is_reserved": 0, "bike_id": "7695af7f95863748139f65b7bad42420", "name": "7695af7f95863748139f65b7bad42420"}, {"lat": 38.9251935, "fusion_lon": 0.0, "fusion_lat": 0.0, "is_disabled": 0, "type": "electric_scooter", "lon": -77.04447066666667, "rental_uris": {"android": "https://dc.lft.to/lastmile_qr_scan", "ios": "https://dc.lft.to/lastmile_qr_scan"}, "is_reserved": 0, "bike_id": "d2bfb9353b106a717657a36445b3f9cc", "name": "d2bfb9353b106a717657a36445b3f9cc"}, {"lat": 38.92118083333333, "fusion_lon": 0.0, "fusion_lat": 0.0, "is_disabled": 0, "type": "electric_scooter", "lon": -77.04577283333333, "rental_uris": {"android": "https://dc.lft.to/lastmile_qr_scan", "ios": "https://dc.lft.to/lastmile_qr_scan"}, "is_reserved": 0, "bike_id": "22ea1f87443d95feb1ca905ec5b89578", "name": "22ea1f87443d95feb1ca905ec5b89578"}, {"lat": 38.88303483333333, "fusion_lon": 0.0, "fusion_lat": 0.0, "is_disabled": 0, "type": "electric_scooter", "lon": -76.94856766666666, "rental_uris": {"android": "https://dc.lft.to/lastmile_qr_scan", "ios": "https://dc.lft.to/lastmile_qr_scan"}, "is_reserved": 0, "bike_id": "e99450d9be4aa676f53c28019d1e83e9", "name": "e99450d9be4aa676f53c28019d1e83e9"}, {"lat": 38.894816, "fusion_lon": 0.0, "fusion_lat": 0.0, "is_disabled": 0, "type": "electric_scooter", "lon": -76.99517483333334, "rental_uris": {"android": "https://dc.lft.to/lastmile_qr_scan", "ios": "https://dc.lft.to/lastmile_qr_scan"}, "is_reserved": 0, "bike_id": "b783fabf0911cbd72e81b36a7fad44f1", "name": "b783fabf0911cbd72e81b36a7fad44f1"}, {"lat": 38.93689716666667, "fusion_lon": 0.0, "fusion_lat": 0.0, "is_disabled": 0, "type": "electric_bike", "lon": -76.99059433333333, "rental_uris": {"android": "https://dc.lft.to/lastmile_qr_scan", "ios": "https://dc.lft.to/lastmile_qr_scan"}, "is_reserved": 0, "bike_id": "239ade32c714654fa777f9feee93bd20", "name": "239ade32c714654fa777f9feee93bd20"}, {"lat": 38.94415566666667, "fusion_lon": 0.0, "fusion_lat": 0.0, "is_disabled": 0, "type": "electric_scooter", "lon": -77.0551685, "rental_uris": {"android": "https://dc.lft.to/lastmile_qr_scan", "ios": "https://dc.lft.to/lastmile_qr_scan"}, "is_reserved": 0, "bike_id": "3f8bfb90697f25425859bf8e0b4d769f", "name": "3f8bfb90697f25425859bf8e0b4d769f"}, {"lat": 38.893902833333335, "fusion_lon": 0.0, "fusion_lat": 0.0, "is_disabled": 0, "type": "electric_scooter", "lon": -77.0239375, "rental_uris": {"android": "https://dc.lft.to/lastmile_qr_scan", "ios": "https://dc.lft.to/lastmile_qr_scan"}, "is_reserved": 0, "bike_id": "404fe7bba1158392c078a35fcd7ee0f7", "name": "404fe7bba1158392c078a35fcd7ee0f7"}, {"lat": 38.9072605, "fusion_lon": 0.0, "fusion_lat": 0.0, "is_disabled": 0, "type": "electric_scooter", "lon": -77.03439783333333, "rental_uris": {"android": "https://dc.lft.to/lastmile_qr_scan", "ios": "https://dc.lft.to/lastmile_qr_scan"}, "is_reserved": 0, "bike_id": "8910d5807fe20a1952c80b47ba2e2959", "name": "8910d5807fe20a1952c80b47ba2e2959"}, {"lat": 38.92267533333333, "fusion_lon": 0.0, "fusion_lat": 0.0, "is_disabled": 0, "type": "electric_bike", "lon": -76.99394516666666, "rental_uris": {"android": "https://dc.lft.to/lastmile_qr_scan", "ios": "https://dc.lft.to/lastmile_qr_scan"}, "is_reserved": 0, "bike_id": "5f4bc60454639d8aa06b30b424614053", "name": "5f4bc60454639d8aa06b30b424614053"}, {"lat": 38.9026475, "fusion_lon": 0.0, "fusion_lat": 0.0, "is_disabled": 0, "type": "electric_scooter", "lon": -77.0021355, "rental_uris": {"android": "https://dc.lft.to/lastmile_qr_scan", "ios": "https://dc.lft.to/lastmile_qr_scan"}, "is_reserved": 0, "bike_id": "b4d798c87215820bacf7cac64d322650", "name": "b4d798c87215820bacf7cac64d322650"}, {"lat": 38.88742383333334, "fusion_lon": 0.0, "fusion_lat": 0.0, "is_disabled": 0, "type": "electric_scooter", "lon": -77.03152166666666, "rental_uris": {"android": "https://dc.lft.to/lastmile_qr_scan", "ios": "https://dc.lft.to/lastmile_qr_scan"}, "is_reserved": 0, "bike_id": "a9479961e6b4df222c86f3f9fad4dc50", "name": "a9479961e6b4df222c86f3f9fad4dc50"}, {"lat": 38.917704666666666, "fusion_lon": 0.0, "fusion_lat": 0.0, "is_disabled": 0, "type": "electric_scooter", "lon": -77.01459616666666, "rental_uris": {"android": "https://dc.lft.to/lastmile_qr_scan", "ios": "https://dc.lft.to/lastmile_qr_scan"}, "is_reserved": 0, "bike_id": "e141a6252d4db87f405bcc804da92dfa", "name": "e141a6252d4db87f405bcc804da92dfa"}, {"lat": 38.926166, "fusion_lon": 0.0, "fusion_lat": 0.0, "is_disabled": 0, "type": "electric_scooter", "lon": -77.05281916666667, "rental_uris": {"android": "https://dc.lft.to/lastmile_qr_scan", "ios": "https://dc.lft.to/lastmile_qr_scan"}, "is_reserved": 0, "bike_id": "9457341bb20d7ab8fe59267c690691e6", "name": "9457341bb20d7ab8fe59267c690691e6"}, {"lat": 38.926711833333336, "fusion_lon": 0.0, "fusion_lat": 0.0, "is_disabled": 0, "type": "electric_bike", "lon": -77.00803883333333, "rental_uris": {"android": "https://dc.lft.to/lastmile_qr_scan", "ios": "https://dc.lft.to/lastmile_qr_scan"}, "is_reserved": 0, "bike_id": "ceac9529b08d53a045ad13ed3dcc45fe", "name": "ceac9529b08d53a045ad13ed3dcc45fe"}, {"lat": 38.894820333333335, "fusion_lon": 0.0, "fusion_lat": 0.0, "is_disabled": 0, "type": "electric_scooter", "lon": -76.94841116666667, "rental_uris": {"android": "https://dc.lft.to/lastmile_qr_scan", "ios": "https://dc.lft.to/lastmile_qr_scan"}, "is_reserved": 0, "bike_id": "b8a4783af15375e1e0fea9990d6a154c", "name": "b8a4783af15375e1e0fea9990d6a154c"}, {"lat": 38.9037235, "fusion_lon": 0.0, "fusion_lat": 0.0, "is_disabled": 0, "type": "electric_scooter", "lon": -77.03568466666667, "rental_uris": {"android": "https://dc.lft.to/lastmile_qr_scan", "ios": "https://dc.lft.to/lastmile_qr_scan"}, "is_reserved": 0, "bike_id": "7e76a91587b27d9cb6b06c8936f9aaf7", "name": "7e76a91587b27d9cb6b06c8936f9aaf7"}, {"lat": 38.902688, "fusion_lon": 0.0, "fusion_lat": 0.0, "is_disabled": 0, "type": "electric_scooter", "lon": -77.03440816666667, "rental_uris": {"android": "https://dc.lft.to/lastmile_qr_scan", "ios": "https://dc.lft.to/lastmile_qr_scan"}, "is_reserved": 0, "bike_id": "ad74fd0f0e360dd49299ee12320e8d46", "name": "ad74fd0f0e360dd49299ee12320e8d46"}, {"lat": 38.854436, "fusion_lon": 0.0, "fusion_lat": 0.0, "is_disabled": 0, "type": "electric_scooter", "lon": -76.98608, "rental_uris": {"android": "https://dc.lft.to/lastmile_qr_scan", "ios": "https://dc.lft.to/lastmile_qr_scan"}, "is_reserved": 0, "bike_id": "9161df5a5b73513a92f111881bda7e87", "name": "9161df5a5b73513a92f111881bda7e87"}, {"lat": 38.916356, "fusion_lon": 0.0, "fusion_lat": 0.0, "is_disabled": 0, "type": "electric_scooter", "lon": -77.00111166666667, "rental_uris": {"android": "https://dc.lft.to/lastmile_qr_scan", "ios": "https://dc.lft.to/lastmile_qr_scan"}, "is_reserved": 0, "bike_id": "b9dca7864b3ef8b7fb3e92b55d139505", "name": "b9dca7864b3ef8b7fb3e92b55d139505"}, {"lat": 38.90683766666667, "fusion_lon": 0.0, "fusion_lat": 0.0, "is_disabled": 0, "type": "electric_scooter", "lon": -77.03816883333333, "rental_uris": {"android": "https://dc.lft.to/lastmile_qr_scan", "ios": "https://dc.lft.to/lastmile_qr_scan"}, "is_reserved": 0, "bike_id": "e6613c57db57017e63b580dac54dc70d", "name": "e6613c57db57017e63b580dac54dc70d"}, {"lat": 38.928876833333334, "fusion_lon": 0.0, "fusion_lat": 0.0, "is_disabled": 0, "type": "electric_scooter", "lon": -77.02307066666667, "rental_uris": {"android": "https://dc.lft.to/lastmile_qr_scan", "ios": "https://dc.lft.to/lastmile_qr_scan"}, "is_reserved": 0, "bike_id": "9e112173b339269e9c6c1196d896922b", "name": "9e112173b339269e9c6c1196d896922b"}, {"lat": 38.9002055, "fusion_lon": 0.0, "fusion_lat": 0.0, "is_disabled": 0, "type": "electric_scooter", "lon": -77.0402115, "rental_uris": {"android": "https://dc.lft.to/lastmile_qr_scan", "ios": "https://dc.lft.to/lastmile_qr_scan"}, "is_reserved": 0, "bike_id": "311a5b3a2d56057b9f4d4c9872b96762", "name": "311a5b3a2d56057b9f4d4c9872b96762"}, {"lat": 38.8931995, "fusion_lon": 0.0, "fusion_lat": 0.0, "is_disabled": 0, "type": "electric_scooter", "lon": -77.02969616666667, "rental_uris": {"android": "https://dc.lft.to/lastmile_qr_scan", "ios": "https://dc.lft.to/lastmile_qr_scan"}, "is_reserved": 0, "bike_id": "e0b0d9a91ebc3bb6d85e4825d3ef009d", "name": "e0b0d9a91ebc3bb6d85e4825d3ef009d"}, {"lat": 38.87915433333333, "fusion_lon": 0.0, "fusion_lat": 0.0, "is_disabled": 0, "type": "electric_scooter", "lon": -76.99161616666666, "rental_uris": {"android": "https://dc.lft.to/lastmile_qr_scan", "ios": "https://dc.lft.to/lastmile_qr_scan"}, "is_reserved": 0, "bike_id": "64e5b651b8462509d1424e782fc38152", "name": "64e5b651b8462509d1424e782fc38152"}, {"lat": 38.889863166666665, "fusion_lon": 0.0, "fusion_lat": 0.0, "is_disabled": 0, "type": "electric_scooter", "lon": -76.92408666666667, "rental_uris": {"android": "https://dc.lft.to/lastmile_qr_scan", "ios": "https://dc.lft.to/lastmile_qr_scan"}, "is_reserved": 0, "bike_id": "6b5db05632f8b207d881dbbeb0dbc8cc", "name": "6b5db05632f8b207d881dbbeb0dbc8cc"}, {"lat": 38.865111, "fusion_lon": 0.0, "fusion_lat": 0.0, "is_disabled": 0, "type": "electric_scooter", "lon": -76.97349483333333, "rental_uris": {"android": "https://dc.lft.to/lastmile_qr_scan", "ios": "https://dc.lft.to/lastmile_qr_scan"}, "is_reserved": 0, "bike_id": "9fe40794a8395cbbf0639bc2a834b58c", "name": "9fe40794a8395cbbf0639bc2a834b58c"}, {"lat": 38.90367333333333, "fusion_lon": 0.0, "fusion_lat": 0.0, "is_disabled": 0, "type": "electric_scooter", "lon": -77.04458366666667, "rental_uris": {"android": "https://dc.lft.to/lastmile_qr_scan", "ios": "https://dc.lft.to/lastmile_qr_scan"}, "is_reserved": 0, "bike_id": "b1f2009f22101b095e61cacb82800684", "name": "b1f2009f22101b095e61cacb82800684"}, {"lat": 38.90239366666667, "fusion_lon": 0.0, "fusion_lat": 0.0, "is_disabled": 0, "type": "electric_scooter", "lon": -77.0020255, "rental_uris": {"android": "https://dc.lft.to/lastmile_qr_scan", "ios": "https://dc.lft.to/lastmile_qr_scan"}, "is_reserved": 0, "bike_id": "d159784a6d78f5b82917d307d5a0e915", "name": "d159784a6d78f5b82917d307d5a0e915"}, {"lat": 38.90797416666667, "fusion_lon": 0.0, "fusion_lat": 0.0, "is_disabled": 0, "type": "electric_scooter", "lon": -77.04507283333334, "rental_uris": {"android": "https://dc.lft.to/lastmile_qr_scan", "ios": "https://dc.lft.to/lastmile_qr_scan"}, "is_reserved": 0, "bike_id": "f75674ff60b781c5cfc15c2bcce83448", "name": "f75674ff60b781c5cfc15c2bcce83448"}, {"lat": 38.892409, "fusion_lon": 0.0, "fusion_lat": 0.0, "is_disabled": 0, "type": "electric_scooter", "lon": -77.02198433333334, "rental_uris": {"android": "https://dc.lft.to/lastmile_qr_scan", "ios": "https://dc.lft.to/lastmile_qr_scan"}, "is_reserved": 0, "bike_id": "bde8142445cdcfbc5b1bf4eaf71f84e9", "name": "bde8142445cdcfbc5b1bf4eaf71f84e9"}, {"lat": 38.902537333333335, "fusion_lon": 0.0, "fusion_lat": 0.0, "is_disabled": 0, "type": "electric_scooter", "lon": -77.03161333333334, "rental_uris": {"android": "https://dc.lft.to/lastmile_qr_scan", "ios": "https://dc.lft.to/lastmile_qr_scan"}, "is_reserved": 0, "bike_id": "7458528bded5cd599ce368d7e0aa2466", "name": "7458528bded5cd599ce368d7e0aa2466"}, {"lat": 38.913304833333335, "fusion_lon": 0.0, "fusion_lat": 0.0, "is_disabled": 0, "type": "electric_scooter", "lon": -77.01997433333334, "rental_uris": {"android": "https://dc.lft.to/lastmile_qr_scan", "ios": "https://dc.lft.to/lastmile_qr_scan"}, "is_reserved": 0, "bike_id": "9e88f1597d9d88b3e6c6a24d2376b6c4", "name": "9e88f1597d9d88b3e6c6a24d2376b6c4"}, {"lat": 38.908661, "fusion_lon": 0.0, "fusion_lat": 0.0, "is_disabled": 0, "type": "electric_scooter", "lon": -76.99956833333333, "rental_uris": {"android": "https://dc.lft.to/lastmile_qr_scan", "ios": "https://dc.lft.to/lastmile_qr_scan"}, "is_reserved": 0, "bike_id": "672f78c63153ccf1b9250e88a42ed9df", "name": "672f78c63153ccf1b9250e88a42ed9df"}, {"lat": 38.8935335, "fusion_lon": 0.0, "fusion_lat": 0.0, "is_disabled": 0, "type": "electric_bike", "lon": -77.18739916666667, "rental_uris": {"android": "https://dc.lft.to/lastmile_qr_scan", "ios": "https://dc.lft.to/lastmile_qr_scan"}, "is_reserved": 0, "bike_id": "4e2ce87fe09fd71a85267e85b1cfa155", "name": "4e2ce87fe09fd71a85267e85b1cfa155"}, {"lat": 38.857178, "fusion_lon": 0.0, "fusion_lat": 0.0, "is_disabled": 0, "type": "electric_scooter", "lon": -76.97096966666666, "rental_uris": {"android": "https://dc.lft.to/lastmile_qr_scan", "ios": "https://dc.lft.to/lastmile_qr_scan"}, "is_reserved": 0, "bike_id": "4caaf572c3dab2f414a46947ec00c0a0", "name": "4caaf572c3dab2f414a46947ec00c0a0"}, {"lat": 38.89701183333333, "fusion_lon": 0.0, "fusion_lat": 0.0, "is_disabled": 0, "type": "electric_scooter", "lon": -77.02697316666666, "rental_uris": {"android": "https://dc.lft.to/lastmile_qr_scan", "ios": "https://dc.lft.to/lastmile_qr_scan"}, "is_reserved": 0, "bike_id": "c281928d24a42976e6096d15d2b87630", "name": "c281928d24a42976e6096d15d2b87630"}, {"lat": 38.92192933333333, "fusion_lon": 0.0, "fusion_lat": 0.0, "is_disabled": 0, "type": "electric_scooter", "lon": -77.072622, "rental_uris": {"android": "https://dc.lft.to/lastmile_qr_scan", "ios": "https://dc.lft.to/lastmile_qr_scan"}, "is_reserved": 0, "bike_id": "7f7d48cb8327dc93d18e65586363ded9", "name": "7f7d48cb8327dc93d18e65586363ded9"}, {"lat": 38.9061845, "fusion_lon": 0.0, "fusion_lat": 0.0, "is_disabled": 0, "type": "electric_scooter", "lon": -77.06271016666666, "rental_uris": {"android": "https://dc.lft.to/lastmile_qr_scan", "ios": "https://dc.lft.to/lastmile_qr_scan"}, "is_reserved": 0, "bike_id": "4d98a4d3d5c1ebfeb8d55e0a13d4ce5f", "name": "4d98a4d3d5c1ebfeb8d55e0a13d4ce5f"}, {"lat": 38.901849166666665, "fusion_lon": 0.0, "fusion_lat": 0.0, "is_disabled": 0, "type": "electric_scooter", "lon": -76.98220783333333, "rental_uris": {"android": "https://dc.lft.to/lastmile_qr_scan", "ios": "https://dc.lft.to/lastmile_qr_scan"}, "is_reserved": 0, "bike_id": "a255128886879e28782595050164b8fe", "name": "a255128886879e28782595050164b8fe"}, {"lat": 38.896089333333336, "fusion_lon": 0.0, "fusion_lat": 0.0, "is_disabled": 0, "type": "electric_scooter", "lon": -76.95656666666666, "rental_uris": {"android": "https://dc.lft.to/lastmile_qr_scan", "ios": "https://dc.lft.to/lastmile_qr_scan"}, "is_reserved": 0, "bike_id": "313203baae33db2cf492c48b7cc5b785", "name": "313203baae33db2cf492c48b7cc5b785"}, {"lat": 38.915141166666665, "fusion_lon": 0.0, "fusion_lat": 0.0, "is_disabled": 0, "type": "electric_scooter", "lon": -77.0383295, "rental_uris": {"android": "https://dc.lft.to/lastmile_qr_scan", "ios": "https://dc.lft.to/lastmile_qr_scan"}, "is_reserved": 0, "bike_id": "b19cb72f5df54869b9db21f477e5f45d", "name": "b19cb72f5df54869b9db21f477e5f45d"}, {"lat": 39.0173335, "fusion_lon": 0.0, "fusion_lat": 0.0, "is_disabled": 0, "type": "electric_bike", "lon": -77.06383566666666, "rental_uris": {"android": "https://dc.lft.to/lastmile_qr_scan", "ios": "https://dc.lft.to/lastmile_qr_scan"}, "is_reserved": 0, "bike_id": "75ba647aed26238fcf9c8ce269a31e1c", "name": "75ba647aed26238fcf9c8ce269a31e1c"}, {"lat": 38.89006966666667, "fusion_lon": 0.0, "fusion_lat": 0.0, "is_disabled": 0, "type": "electric_scooter", "lon": -77.03322, "rental_uris": {"android": "https://dc.lft.to/lastmile_qr_scan", "ios": "https://dc.lft.to/lastmile_qr_scan"}, "is_reserved": 0, "bike_id": "1b3386563129f770a1f327268f2acd9b", "name": "1b3386563129f770a1f327268f2acd9b"}, {"lat": 38.92317333333333, "fusion_lon": 0.0, "fusion_lat": 0.0, "is_disabled": 0, "type": "electric_scooter", "lon": -77.04175583333334, "rental_uris": {"android": "https://dc.lft.to/lastmile_qr_scan", "ios": "https://dc.lft.to/lastmile_qr_scan"}, "is_reserved": 0, "bike_id": "abc1dac6f0f823b02a2770b0c7eb91d0", "name": "abc1dac6f0f823b02a2770b0c7eb91d0"}, {"lat": 38.95742383333334, "fusion_lon": 0.0, "fusion_lat": 0.0, "is_disabled": 0, "type": "electric_bike", "lon": -76.9725265, "rental_uris": {"android": "https://dc.lft.to/lastmile_qr_scan", "ios": "https://dc.lft.to/lastmile_qr_scan"}, "is_reserved": 0, "bike_id": "1ea16667302060fb567a5cbce57fefa3", "name": "1ea16667302060fb567a5cbce57fefa3"}, {"lat": 38.896800666666664, "fusion_lon": 0.0, "fusion_lat": 0.0, "is_disabled": 0, "type": "electric_scooter", "lon": -77.0049475, "rental_uris": {"android": "https://dc.lft.to/lastmile_qr_scan", "ios": "https://dc.lft.to/lastmile_qr_scan"}, "is_reserved": 0, "bike_id": "cc86764e27d0bd5f907f69e5a59914d9", "name": "cc86764e27d0bd5f907f69e5a59914d9"}, {"lat": 38.9264225, "fusion_lon": 0.0, "fusion_lat": 0.0, "is_disabled": 0, "type": "electric_scooter", "lon": -77.03700033333334, "rental_uris": {"android": "https://dc.lft.to/lastmile_qr_scan", "ios": "https://dc.lft.to/lastmile_qr_scan"}, "is_reserved": 0, "bike_id": "ab189bb7f051190e7334b1640ea79b49", "name": "ab189bb7f051190e7334b1640ea79b49"}, {"lat": 38.92316116666667, "fusion_lon": 0.0, "fusion_lat": 0.0, "is_disabled": 0, "type": "electric_scooter", "lon": -77.029579, "rental_uris": {"android": "https://dc.lft.to/lastmile_qr_scan", "ios": "https://dc.lft.to/lastmile_qr_scan"}, "is_reserved": 0, "bike_id": "142a5924bfd15b17e017c3efd794b3d6", "name": "142a5924bfd15b17e017c3efd794b3d6"}, {"lat": 38.926419, "fusion_lon": 0.0, "fusion_lat": 0.0, "is_disabled": 0, "type": "electric_scooter", "lon": -77.03703883333333, "rental_uris": {"android": "https://dc.lft.to/lastmile_qr_scan", "ios": "https://dc.lft.to/lastmile_qr_scan"}, "is_reserved": 0, "bike_id": "a4ff16dab9467d8167be734e688bc081", "name": "a4ff16dab9467d8167be734e688bc081"}, {"lat": 38.921237166666664, "fusion_lon": 0.0, "fusion_lat": 0.0, "is_disabled": 0, "type": "electric_scooter", "lon": -77.043708, "rental_uris": {"android": "https://dc.lft.to/lastmile_qr_scan", "ios": "https://dc.lft.to/lastmile_qr_scan"}, "is_reserved": 0, "bike_id": "b31b6c67e8102d05127a3fee60969524", "name": "b31b6c67e8102d05127a3fee60969524"}, {"lat": 38.904022166666664, "fusion_lon": 0.0, "fusion_lat": 0.0, "is_disabled": 0, "type": "electric_scooter", "lon": -77.0435605, "rental_uris": {"android": "https://dc.lft.to/lastmile_qr_scan", "ios": "https://dc.lft.to/lastmile_qr_scan"}, "is_reserved": 0, "bike_id": "d9940c5458e69e6212547b4d04233a3b", "name": "d9940c5458e69e6212547b4d04233a3b"}, {"lat": 38.92148266666667, "fusion_lon": 0.0, "fusion_lat": 0.0, "is_disabled": 0, "type": "electric_scooter", "lon": -77.03508416666666, "rental_uris": {"android": "https://dc.lft.to/lastmile_qr_scan", "ios": "https://dc.lft.to/lastmile_qr_scan"}, "is_reserved": 0, "bike_id": "16fa9fa1e673741f0227df31922781c4", "name": "16fa9fa1e673741f0227df31922781c4"}, {"lat": 38.86240083333333, "fusion_lon": 0.0, "fusion_lat": 0.0, "is_disabled": 0, "type": "electric_scooter", "lon": -76.99484166666667, "rental_uris": {"android": "https://dc.lft.to/lastmile_qr_scan", "ios": "https://dc.lft.to/lastmile_qr_scan"}, "is_reserved": 0, "bike_id": "4d47e9df203f059c2c87848347988b2c", "name": "4d47e9df203f059c2c87848347988b2c"}, {"lat": 38.8994485, "fusion_lon": 0.0, "fusion_lat": 0.0, "is_disabled": 0, "type": "electric_scooter", "lon": -77.026877, "rental_uris": {"android": "https://dc.lft.to/lastmile_qr_scan", "ios": "https://dc.lft.to/lastmile_qr_scan"}, "is_reserved": 0, "bike_id": "e775ab57092de3279300c893a0fa1d68", "name": "e775ab57092de3279300c893a0fa1d68"}, {"lat": 38.903744, "fusion_lon": 0.0, "fusion_lat": 0.0, "is_disabled": 0, "type": "electric_scooter", "lon": -77.0355, "rental_uris": {"android": "https://dc.lft.to/lastmile_qr_scan", "ios": "https://dc.lft.to/lastmile_qr_scan"}, "is_reserved": 0, "bike_id": "13bc33e2a9981d0d83f1c8c3c8aabfd3", "name": "13bc33e2a9981d0d83f1c8c3c8aabfd3"}, {"lat": 38.915633666666665, "fusion_lon": 0.0, "fusion_lat": 0.0, "is_disabled": 0, "type": "electric_scooter", "lon": -77.00590266666667, "rental_uris": {"android": "https://dc.lft.to/lastmile_qr_scan", "ios": "https://dc.lft.to/lastmile_qr_scan"}, "is_reserved": 0, "bike_id": "7c315ceed8fa5b43b32f1c6e99c993c8", "name": "7c315ceed8fa5b43b32f1c6e99c993c8"}, {"lat": 39.024169, "fusion_lon": 0.0, "fusion_lat": 0.0, "is_disabled": 0, "type": "electric_bike", "lon": -77.12498333333333, "rental_uris": {"android": "https://dc.lft.to/lastmile_qr_scan", "ios": "https://dc.lft.to/lastmile_qr_scan"}, "is_reserved": 0, "bike_id": "71d165bba63a99101d27c5195a7e2f8a", "name": "71d165bba63a99101d27c5195a7e2f8a"}, {"lat": 38.89005483333333, "fusion_lon": 0.0, "fusion_lat": 0.0, "is_disabled": 0, "type": "electric_scooter", "lon": -76.938346, "rental_uris": {"android": "https://dc.lft.to/lastmile_qr_scan", "ios": "https://dc.lft.to/lastmile_qr_scan"}, "is_reserved": 0, "bike_id": "4d38303c708fe7d72c4b27793272dfd9", "name": "4d38303c708fe7d72c4b27793272dfd9"}, {"lat": 38.929856666666666, "fusion_lon": 0.0, "fusion_lat": 0.0, "is_disabled": 0, "type": "electric_scooter", "lon": -77.02345983333333, "rental_uris": {"android": "https://dc.lft.to/lastmile_qr_scan", "ios": "https://dc.lft.to/lastmile_qr_scan"}, "is_reserved": 0, "bike_id": "61684b0e018456fab6d114bbc7931dc8", "name": "61684b0e018456fab6d114bbc7931dc8"}, {"lat": 38.919111666666666, "fusion_lon": 0.0, "fusion_lat": 0.0, "is_disabled": 0, "type": "electric_scooter", "lon": -77.0786745, "rental_uris": {"android": "https://dc.lft.to/lastmile_qr_scan", "ios": "https://dc.lft.to/lastmile_qr_scan"}, "is_reserved": 0, "bike_id": "51c674d99bded50b47c3329ce95b3a67", "name": "51c674d99bded50b47c3329ce95b3a67"}, {"lat": 38.90373316666667, "fusion_lon": 0.0, "fusion_lat": 0.0, "is_disabled": 0, "type": "electric_scooter", "lon": -77.02200116666667, "rental_uris": {"android": "https://dc.lft.to/lastmile_qr_scan", "ios": "https://dc.lft.to/lastmile_qr_scan"}, "is_reserved": 0, "bike_id": "32162c2ab390b52ee47214fb4cfb6b2f", "name": "32162c2ab390b52ee47214fb4cfb6b2f"}, {"lat": 38.9620505, "fusion_lon": 0.0, "fusion_lat": 0.0, "is_disabled": 0, "type": "electric_scooter", "lon": -77.02347216666666, "rental_uris": {"android": "https://dc.lft.to/lastmile_qr_scan", "ios": "https://dc.lft.to/lastmile_qr_scan"}, "is_reserved": 0, "bike_id": "1626d382a23f12f5867b7f4c823a94b3", "name": "1626d382a23f12f5867b7f4c823a94b3"}, {"lat": 38.918256166666666, "fusion_lon": 0.0, "fusion_lat": 0.0, "is_disabled": 0, "type": "electric_scooter", "lon": -77.02271283333333, "rental_uris": {"android": "https://dc.lft.to/lastmile_qr_scan", "ios": "https://dc.lft.to/lastmile_qr_scan"}, "is_reserved": 0, "bike_id": "7509357a35071db5bbc2cb4beecfbd96", "name": "7509357a35071db5bbc2cb4beecfbd96"}, {"lat": 38.931301833333336, "fusion_lon": 0.0, "fusion_lat": 0.0, "is_disabled": 0, "type": "electric_scooter", "lon": -77.07836966666666, "rental_uris": {"android": "https://dc.lft.to/lastmile_qr_scan", "ios": "https://dc.lft.to/lastmile_qr_scan"}, "is_reserved": 0, "bike_id": "f61e55cef497fe7d804af1284d45cda5", "name": "f61e55cef497fe7d804af1284d45cda5"}, {"lat": 38.905766666666665, "fusion_lon": 0.0, "fusion_lat": 0.0, "is_disabled": 0, "type": "electric_scooter", "lon": -77.03860683333333, "rental_uris": {"android": "https://dc.lft.to/lastmile_qr_scan", "ios": "https://dc.lft.to/lastmile_qr_scan"}, "is_reserved": 0, "bike_id": "198d3553941ae8d07c7abf2d305c9dd5", "name": "198d3553941ae8d07c7abf2d305c9dd5"}, {"lat": 38.9246105, "fusion_lon": 0.0, "fusion_lat": 0.0, "is_disabled": 0, "type": "electric_scooter", "lon": -77.02964566666667, "rental_uris": {"android": "https://dc.lft.to/lastmile_qr_scan", "ios": "https://dc.lft.to/lastmile_qr_scan"}, "is_reserved": 0, "bike_id": "c9fff02ac8ae48bda24dadfdf2c53e08", "name": "c9fff02ac8ae48bda24dadfdf2c53e08"}, {"lat": 38.90010616666667, "fusion_lon": 0.0, "fusion_lat": 0.0, "is_disabled": 0, "type": "electric_scooter", "lon": -76.99290833333333, "rental_uris": {"android": "https://dc.lft.to/lastmile_qr_scan", "ios": "https://dc.lft.to/lastmile_qr_scan"}, "is_reserved": 0, "bike_id": "e2bc7815490413ef98ee51a39bb8c3ff", "name": "e2bc7815490413ef98ee51a39bb8c3ff"}, {"lat": 38.9000865, "fusion_lon": 0.0, "fusion_lat": 0.0, "is_disabled": 0, "type": "electric_scooter", "lon": -77.04583416666667, "rental_uris": {"android": "https://dc.lft.to/lastmile_qr_scan", "ios": "https://dc.lft.to/lastmile_qr_scan"}, "is_reserved": 0, "bike_id": "b32f9b94b1aef43c9393b72614847982", "name": "b32f9b94b1aef43c9393b72614847982"}, {"lat": 38.90909666666667, "fusion_lon": 0.0, "fusion_lat": 0.0, "is_disabled": 0, "type": "electric_scooter", "lon": -77.07265583333333, "rental_uris": {"android": "https://dc.lft.to/lastmile_qr_scan", "ios": "https://dc.lft.to/lastmile_qr_scan"}, "is_reserved": 0, "bike_id": "c56456406e9a68e10172851da9953b24", "name": "c56456406e9a68e10172851da9953b24"}, {"lat": 38.9001335, "fusion_lon": 0.0, "fusion_lat": 0.0, "is_disabled": 0, "type": "electric_scooter", "lon": -77.001436, "rental_uris": {"android": "https://dc.lft.to/lastmile_qr_scan", "ios": "https://dc.lft.to/lastmile_qr_scan"}, "is_reserved": 0, "bike_id": "2533ab378c053f0924c8080764bf6c24", "name": "2533ab378c053f0924c8080764bf6c24"}, {"lat": 38.90971316666667, "fusion_lon": 0.0, "fusion_lat": 0.0, "is_disabled": 0, "type": "electric_scooter", "lon": -77.04129383333333, "rental_uris": {"android": "https://dc.lft.to/lastmile_qr_scan", "ios": "https://dc.lft.to/lastmile_qr_scan"}, "is_reserved": 0, "bike_id": "df71491c7431de81ab80585e1b0a30b9", "name": "df71491c7431de81ab80585e1b0a30b9"}, {"lat": 38.92966666666667, "fusion_lon": 0.0, "fusion_lat": 0.0, "is_disabled": 0, "type": "electric_scooter", "lon": -77.03209983333333, "rental_uris": {"android": "https://dc.lft.to/lastmile_qr_scan", "ios": "https://dc.lft.to/lastmile_qr_scan"}, "is_reserved": 0, "bike_id": "d150e1ad4cb4426fca7c8038611496d7", "name": "d150e1ad4cb4426fca7c8038611496d7"}, {"lat": 38.994533833333335, "fusion_lon": 0.0, "fusion_lat": 0.0, "is_disabled": 0, "type": "electric_bike", "lon": -76.9081515, "rental_uris": {"android": "https://dc.lft.to/lastmile_qr_scan", "ios": "https://dc.lft.to/lastmile_qr_scan"}, "is_reserved": 0, "bike_id": "42e8825652c656494d9b3c38b85d9c41", "name": "42e8825652c656494d9b3c38b85d9c41"}, {"lat": 38.93474166666667, "fusion_lon": 0.0, "fusion_lat": 0.0, "is_disabled": 0, "type": "electric_scooter", "lon": -77.06532183333333, "rental_uris": {"android": "https://dc.lft.to/lastmile_qr_scan", "ios": "https://dc.lft.to/lastmile_qr_scan"}, "is_reserved": 0, "bike_id": "421d6296b47ac31e1bd6e8dbffb79086", "name": "421d6296b47ac31e1bd6e8dbffb79086"}, {"lat": 38.897464166666666, "fusion_lon": 0.0, "fusion_lat": 0.0, "is_disabled": 0, "type": "electric_scooter", "lon": -77.02675083333334, "rental_uris": {"android": "https://dc.lft.to/lastmile_qr_scan", "ios": "https://dc.lft.to/lastmile_qr_scan"}, "is_reserved": 0, "bike_id": "0ae0e7a1848958be581b09f69b2f54b6", "name": "0ae0e7a1848958be581b09f69b2f54b6"}, {"lat": 38.9073155, "fusion_lon": 0.0, "fusion_lat": 0.0, "is_disabled": 0, "type": "electric_scooter", "lon": -77.007609, "rental_uris": {"android": "https://dc.lft.to/lastmile_qr_scan", "ios": "https://dc.lft.to/lastmile_qr_scan"}, "is_reserved": 0, "bike_id": "912a7b67dce6b63faf494326509213fc", "name": "912a7b67dce6b63faf494326509213fc"}, {"lat": 38.9140545, "fusion_lon": 0.0, "fusion_lat": 0.0, "is_disabled": 0, "type": "electric_scooter", "lon": -77.0418105, "rental_uris": {"android": "https://dc.lft.to/lastmile_qr_scan", "ios": "https://dc.lft.to/lastmile_qr_scan"}, "is_reserved": 0, "bike_id": "4a9b4ab32f881f0774767b1854e9858a", "name": "4a9b4ab32f881f0774767b1854e9858a"}, {"lat": 38.9337155, "fusion_lon": 0.0, "fusion_lat": 0.0, "is_disabled": 0, "type": "electric_scooter", "lon": -77.0572945, "rental_uris": {"android": "https://dc.lft.to/lastmile_qr_scan", "ios": "https://dc.lft.to/lastmile_qr_scan"}, "is_reserved": 0, "bike_id": "086cebf81b3af7700b200cd53000f921", "name": "086cebf81b3af7700b200cd53000f921"}, {"lat": 38.86221116666667, "fusion_lon": 0.0, "fusion_lat": 0.0, "is_disabled": 0, "type": "electric_scooter", "lon": -76.99459133333333, "rental_uris": {"android": "https://dc.lft.to/lastmile_qr_scan", "ios": "https://dc.lft.to/lastmile_qr_scan"}, "is_reserved": 0, "bike_id": "30798addc0238dad3b265b61b5a315ce", "name": "30798addc0238dad3b265b61b5a315ce"}, {"lat": 38.8976325, "fusion_lon": 0.0, "fusion_lat": 0.0, "is_disabled": 0, "type": "electric_scooter", "lon": -77.003536, "rental_uris": {"android": "https://dc.lft.to/lastmile_qr_scan", "ios": "https://dc.lft.to/lastmile_qr_scan"}, "is_reserved": 0, "bike_id": "cde8b0eeb7487976157b15d23da5aea1", "name": "cde8b0eeb7487976157b15d23da5aea1"}, {"lat": 38.84536533333333, "fusion_lon": 0.0, "fusion_lat": 0.0, "is_disabled": 0, "type": "electric_bike", "lon": -76.98790616666666, "rental_uris": {"android": "https://dc.lft.to/lastmile_qr_scan", "ios": "https://dc.lft.to/lastmile_qr_scan"}, "is_reserved": 0, "bike_id": "b5eec30d3155da7dedf0f12838968aa8", "name": "b5eec30d3155da7dedf0f12838968aa8"}, {"lat": 38.880109166666664, "fusion_lon": 0.0, "fusion_lat": 0.0, "is_disabled": 0, "type": "electric_bike", "lon": -76.9159565, "rental_uris": {"android": "https://dc.lft.to/lastmile_qr_scan", "ios": "https://dc.lft.to/lastmile_qr_scan"}, "is_reserved": 0, "bike_id": "c809c13c468328d03aaa7140ea45d215", "name": "c809c13c468328d03aaa7140ea45d215"}, {"lat": 38.92008716666667, "fusion_lon": 0.0, "fusion_lat": 0.0, "is_disabled": 0, "type": "electric_scooter", "lon": -76.98544366666667, "rental_uris": {"android": "https://dc.lft.to/lastmile_qr_scan", "ios": "https://dc.lft.to/lastmile_qr_scan"}, "is_reserved": 0, "bike_id": "e3d77a31ec9a249e070dfc9be02fd749", "name": "e3d77a31ec9a249e070dfc9be02fd749"}, {"lat": 38.9053215, "fusion_lon": 0.0, "fusion_lat": 0.0, "is_disabled": 0, "type": "electric_scooter", "lon": -77.062348, "rental_uris": {"android": "https://dc.lft.to/lastmile_qr_scan", "ios": "https://dc.lft.to/lastmile_qr_scan"}, "is_reserved": 0, "bike_id": "ba0e44501c212d94fac61924953c127d", "name": "ba0e44501c212d94fac61924953c127d"}, {"lat": 38.91330033333333, "fusion_lon": 0.0, "fusion_lat": 0.0, "is_disabled": 0, "type": "electric_scooter", "lon": -77.04816033333333, "rental_uris": {"android": "https://dc.lft.to/lastmile_qr_scan", "ios": "https://dc.lft.to/lastmile_qr_scan"}, "is_reserved": 0, "bike_id": "d8384f085b414499357aa4af3c06902b", "name": "d8384f085b414499357aa4af3c06902b"}, {"lat": 38.9313955, "fusion_lon": 0.0, "fusion_lat": 0.0, "is_disabled": 0, "type": "electric_scooter", "lon": -77.02370633333334, "rental_uris": {"android": "https://dc.lft.to/lastmile_qr_scan", "ios": "https://dc.lft.to/lastmile_qr_scan"}, "is_reserved": 0, "bike_id": "ae9f1ab1352808c31d7caaa770179ae8", "name": "ae9f1ab1352808c31d7caaa770179ae8"}, {"lat": 38.922344333333335, "fusion_lon": 0.0, "fusion_lat": 0.0, "is_disabled": 0, "type": "electric_scooter", "lon": -77.04257483333333, "rental_uris": {"android": "https://dc.lft.to/lastmile_qr_scan", "ios": "https://dc.lft.to/lastmile_qr_scan"}, "is_reserved": 0, "bike_id": "83a136b3abb4a1accb38dd3bb4770252", "name": "83a136b3abb4a1accb38dd3bb4770252"}, {"lat": 38.91255366666667, "fusion_lon": 0.0, "fusion_lat": 0.0, "is_disabled": 0, "type": "electric_scooter", "lon": -77.04963483333333, "rental_uris": {"android": "https://dc.lft.to/lastmile_qr_scan", "ios": "https://dc.lft.to/lastmile_qr_scan"}, "is_reserved": 0, "bike_id": "d82ba30f2619401a4b8acea0c4168492", "name": "d82ba30f2619401a4b8acea0c4168492"}, {"lat": 38.8641175, "fusion_lon": 0.0, "fusion_lat": 0.0, "is_disabled": 0, "type": "electric_scooter", "lon": -76.99028316666667, "rental_uris": {"android": "https://dc.lft.to/lastmile_qr_scan", "ios": "https://dc.lft.to/lastmile_qr_scan"}, "is_reserved": 0, "bike_id": "d86b96126257538a1adae12d9db26e49", "name": "d86b96126257538a1adae12d9db26e49"}, {"lat": 38.887879833333336, "fusion_lon": 0.0, "fusion_lat": 0.0, "is_disabled": 0, "type": "electric_bike", "lon": -76.92343933333333, "rental_uris": {"android": "https://dc.lft.to/lastmile_qr_scan", "ios": "https://dc.lft.to/lastmile_qr_scan"}, "is_reserved": 0, "bike_id": "ec3ec6fac39d13f666573ac349e9a73f", "name": "ec3ec6fac39d13f666573ac349e9a73f"}, {"lat": 38.935181166666666, "fusion_lon": 0.0, "fusion_lat": 0.0, "is_disabled": 0, "type": "electric_scooter", "lon": -77.081978, "rental_uris": {"android": "https://dc.lft.to/lastmile_qr_scan", "ios": "https://dc.lft.to/lastmile_qr_scan"}, "is_reserved": 0, "bike_id": "c169a9ccf28fac997dd59a27d754a0f8", "name": "c169a9ccf28fac997dd59a27d754a0f8"}, {"lat": 38.90032383333333, "fusion_lon": 0.0, "fusion_lat": 0.0, "is_disabled": 0, "type": "electric_scooter", "lon": -76.98780516666666, "rental_uris": {"android": "https://dc.lft.to/lastmile_qr_scan", "ios": "https://dc.lft.to/lastmile_qr_scan"}, "is_reserved": 0, "bike_id": "2b453499bcc03e4a54fd1f1771cff6ed", "name": "2b453499bcc03e4a54fd1f1771cff6ed"}, {"lat": 38.8924325, "fusion_lon": 0.0, "fusion_lat": 0.0, "is_disabled": 0, "type": "electric_scooter", "lon": -77.021945, "rental_uris": {"android": "https://dc.lft.to/lastmile_qr_scan", "ios": "https://dc.lft.to/lastmile_qr_scan"}, "is_reserved": 0, "bike_id": "ec69382aefaa721fe42e199d8d50b278", "name": "ec69382aefaa721fe42e199d8d50b278"}, {"lat": 38.90573166666667, "fusion_lon": 0.0, "fusion_lat": 0.0, "is_disabled": 0, "type": "electric_scooter", "lon": -77.0216085, "rental_uris": {"android": "https://dc.lft.to/lastmile_qr_scan", "ios": "https://dc.lft.to/lastmile_qr_scan"}, "is_reserved": 0, "bike_id": "cc6f9fee58777749418d1dce97d1f7dd", "name": "cc6f9fee58777749418d1dce97d1f7dd"}, {"lat": 38.911810833333334, "fusion_lon": 0.0, "fusion_lat": 0.0, "is_disabled": 0, "type": "electric_bike", "lon": -77.00262083333334, "rental_uris": {"android": "https://dc.lft.to/lastmile_qr_scan", "ios": "https://dc.lft.to/lastmile_qr_scan"}, "is_reserved": 0, "bike_id": "d4c18912ebb47101a680c312dbeaeff3", "name": "d4c18912ebb47101a680c312dbeaeff3"}, {"lat": 38.911966166666666, "fusion_lon": 0.0, "fusion_lat": 0.0, "is_disabled": 0, "type": "electric_scooter", "lon": -77.032165, "rental_uris": {"android": "https://dc.lft.to/lastmile_qr_scan", "ios": "https://dc.lft.to/lastmile_qr_scan"}, "is_reserved": 0, "bike_id": "e25b2bfc95daf05eb076a1f98f0244a6", "name": "e25b2bfc95daf05eb076a1f98f0244a6"}, {"lat": 38.81331766666667, "fusion_lon": 0.0, "fusion_lat": 0.0, "is_disabled": 0, "type": "electric_bike", "lon": -77.05095033333333, "rental_uris": {"android": "https://dc.lft.to/lastmile_qr_scan", "ios": "https://dc.lft.to/lastmile_qr_scan"}, "is_reserved": 0, "bike_id": "6f91c75595f57ec928e6ba1118f943e0", "name": "6f91c75595f57ec928e6ba1118f943e0"}, {"lat": 38.862167, "fusion_lon": 0.0, "fusion_lat": 0.0, "is_disabled": 0, "type": "electric_scooter", "lon": -76.99480983333333, "rental_uris": {"android": "https://dc.lft.to/lastmile_qr_scan", "ios": "https://dc.lft.to/lastmile_qr_scan"}, "is_reserved": 0, "bike_id": "3a79ab3f33587525ed4aaf9bf421f78c", "name": "3a79ab3f33587525ed4aaf9bf421f78c"}, {"lat": 38.915459, "fusion_lon": 0.0, "fusion_lat": 0.0, "is_disabled": 0, "type": "electric_scooter", "lon": -77.0122555, "rental_uris": {"android": "https://dc.lft.to/lastmile_qr_scan", "ios": "https://dc.lft.to/lastmile_qr_scan"}, "is_reserved": 0, "bike_id": "8bc93a3d262b33166877a47a2aee198a", "name": "8bc93a3d262b33166877a47a2aee198a"}, {"lat": 38.91265383333333, "fusion_lon": 0.0, "fusion_lat": 0.0, "is_disabled": 0, "type": "electric_scooter", "lon": -77.02667066666666, "rental_uris": {"android": "https://dc.lft.to/lastmile_qr_scan", "ios": "https://dc.lft.to/lastmile_qr_scan"}, "is_reserved": 0, "bike_id": "7abc1683a933a941cfd3f82997e6479d", "name": "7abc1683a933a941cfd3f82997e6479d"}, {"lat": 38.892216, "fusion_lon": 0.0, "fusion_lat": 0.0, "is_disabled": 0, "type": "electric_scooter", "lon": -77.0235195, "rental_uris": {"android": "https://dc.lft.to/lastmile_qr_scan", "ios": "https://dc.lft.to/lastmile_qr_scan"}, "is_reserved": 0, "bike_id": "b92dcdf41bb3b65976aa0bbaa8f38830", "name": "b92dcdf41bb3b65976aa0bbaa8f38830"}, {"lat": 38.842999666666664, "fusion_lon": 0.0, "fusion_lat": 0.0, "is_disabled": 0, "type": "electric_bike", "lon": -77.11423833333333, "rental_uris": {"android": "https://dc.lft.to/lastmile_qr_scan", "ios": "https://dc.lft.to/lastmile_qr_scan"}, "is_reserved": 0, "bike_id": "0bc71b28de2a1c16184e0c9f32e8ea80", "name": "0bc71b28de2a1c16184e0c9f32e8ea80"}, {"lat": 38.887697, "fusion_lon": 0.0, "fusion_lat": 0.0, "is_disabled": 0, "type": "electric_scooter", "lon": -77.02170516666666, "rental_uris": {"android": "https://dc.lft.to/lastmile_qr_scan", "ios": "https://dc.lft.to/lastmile_qr_scan"}, "is_reserved": 0, "bike_id": "7f8adb3af40c713e44ed2506f0d9ce5c", "name": "7f8adb3af40c713e44ed2506f0d9ce5c"}, {"lat": 38.9202615, "fusion_lon": 0.0, "fusion_lat": 0.0, "is_disabled": 0, "type": "electric_scooter", "lon": -77.0170225, "rental_uris": {"android": "https://dc.lft.to/lastmile_qr_scan", "ios": "https://dc.lft.to/lastmile_qr_scan"}, "is_reserved": 0, "bike_id": "33f0290b3eb35e5e3337b506f7fb00aa", "name": "33f0290b3eb35e5e3337b506f7fb00aa"}, {"lat": 38.909582666666665, "fusion_lon": 0.0, "fusion_lat": 0.0, "is_disabled": 0, "type": "electric_scooter", "lon": -77.03931, "rental_uris": {"android": "https://dc.lft.to/lastmile_qr_scan", "ios": "https://dc.lft.to/lastmile_qr_scan"}, "is_reserved": 0, "bike_id": "0e83c85df610f518ba8c0f763f7de36c", "name": "0e83c85df610f518ba8c0f763f7de36c"}, {"lat": 38.9001415, "fusion_lon": 0.0, "fusion_lat": 0.0, "is_disabled": 0, "type": "electric_scooter", "lon": -77.00022883333334, "rental_uris": {"android": "https://dc.lft.to/lastmile_qr_scan", "ios": "https://dc.lft.to/lastmile_qr_scan"}, "is_reserved": 0, "bike_id": "ae71b57f4786635545526de82933ca33", "name": "ae71b57f4786635545526de82933ca33"}, {"lat": 38.931771499999996, "fusion_lon": 0.0, "fusion_lat": 0.0, "is_disabled": 0, "type": "electric_scooter", "lon": -77.034152, "rental_uris": {"android": "https://dc.lft.to/lastmile_qr_scan", "ios": "https://dc.lft.to/lastmile_qr_scan"}, "is_reserved": 0, "bike_id": "54fac576102a3af72b003ef1e53dcae8", "name": "54fac576102a3af72b003ef1e53dcae8"}, {"lat": 38.921708333333335, "fusion_lon": 0.0, "fusion_lat": 0.0, "is_disabled": 0, "type": "electric_scooter", "lon": -77.0389375, "rental_uris": {"android": "https://dc.lft.to/lastmile_qr_scan", "ios": "https://dc.lft.to/lastmile_qr_scan"}, "is_reserved": 0, "bike_id": "2b6f83e1178cc95631b7cf0e3d7bcc5c", "name": "2b6f83e1178cc95631b7cf0e3d7bcc5c"}, {"lat": 38.91458766666667, "fusion_lon": 0.0, "fusion_lat": 0.0, "is_disabled": 0, "type": "electric_scooter", "lon": -77.04154133333333, "rental_uris": {"android": "https://dc.lft.to/lastmile_qr_scan", "ios": "https://dc.lft.to/lastmile_qr_scan"}, "is_reserved": 0, "bike_id": "7f60e25be5a56b2c31b0bcbd1bbf65f4", "name": "7f60e25be5a56b2c31b0bcbd1bbf65f4"}, {"lat": 38.9012995, "fusion_lon": 0.0, "fusion_lat": 0.0, "is_disabled": 0, "type": "electric_scooter", "lon": -77.04995233333334, "rental_uris": {"android": "https://dc.lft.to/lastmile_qr_scan", "ios": "https://dc.lft.to/lastmile_qr_scan"}, "is_reserved": 0, "bike_id": "d6f0c56e0d4d3e2d022bde188d71f220", "name": "d6f0c56e0d4d3e2d022bde188d71f220"}, {"lat": 38.9005515, "fusion_lon": 0.0, "fusion_lat": 0.0, "is_disabled": 0, "type": "electric_scooter", "lon": -77.02735216666666, "rental_uris": {"android": "https://dc.lft.to/lastmile_qr_scan", "ios": "https://dc.lft.to/lastmile_qr_scan"}, "is_reserved": 0, "bike_id": "5c127941c59ae1d7fe2d6504cdd17526", "name": "5c127941c59ae1d7fe2d6504cdd17526"}, {"lat": 38.911749666666665, "fusion_lon": 0.0, "fusion_lat": 0.0, "is_disabled": 0, "type": "electric_scooter", "lon": -77.08437983333333, "rental_uris": {"android": "https://dc.lft.to/lastmile_qr_scan", "ios": "https://dc.lft.to/lastmile_qr_scan"}, "is_reserved": 0, "bike_id": "a10d4ee37ac4644622eedd87a24cfbce", "name": "a10d4ee37ac4644622eedd87a24cfbce"}, {"lat": 38.930311, "fusion_lon": 0.0, "fusion_lat": 0.0, "is_disabled": 0, "type": "electric_scooter", "lon": -77.012985, "rental_uris": {"android": "https://dc.lft.to/lastmile_qr_scan", "ios": "https://dc.lft.to/lastmile_qr_scan"}, "is_reserved": 0, "bike_id": "83f1afba4bcc2f2dfeb4ef04c7b41200", "name": "83f1afba4bcc2f2dfeb4ef04c7b41200"}, {"lat": 38.892295833333336, "fusion_lon": 0.0, "fusion_lat": 0.0, "is_disabled": 0, "type": "electric_scooter", "lon": -77.05003066666667, "rental_uris": {"android": "https://dc.lft.to/lastmile_qr_scan", "ios": "https://dc.lft.to/lastmile_qr_scan"}, "is_reserved": 0, "bike_id": "120b6dad62f21d5391b76011e94dce36", "name": "120b6dad62f21d5391b76011e94dce36"}, {"lat": 38.90379333333333, "fusion_lon": 0.0, "fusion_lat": 0.0, "is_disabled": 0, "type": "electric_scooter", "lon": -77.03499833333333, "rental_uris": {"android": "https://dc.lft.to/lastmile_qr_scan", "ios": "https://dc.lft.to/lastmile_qr_scan"}, "is_reserved": 0, "bike_id": "b30febed765a9ce26305a23561f8b8fc", "name": "b30febed765a9ce26305a23561f8b8fc"}, {"lat": 38.93674633333333, "fusion_lon": 0.0, "fusion_lat": 0.0, "is_disabled": 0, "type": "electric_scooter", "lon": -77.03632183333333, "rental_uris": {"android": "https://dc.lft.to/lastmile_qr_scan", "ios": "https://dc.lft.to/lastmile_qr_scan"}, "is_reserved": 0, "bike_id": "e05a89d80ebdc7dbf4cd75ac84d29202", "name": "e05a89d80ebdc7dbf4cd75ac84d29202"}, {"lat": 38.90411616666667, "fusion_lon": 0.0, "fusion_lat": 0.0, "is_disabled": 0, "type": "electric_scooter", "lon": -77.00132816666667, "rental_uris": {"android": "https://dc.lft.to/lastmile_qr_scan", "ios": "https://dc.lft.to/lastmile_qr_scan"}, "is_reserved": 0, "bike_id": "7fb014a6a34020df1aa24ec7856dffb0", "name": "7fb014a6a34020df1aa24ec7856dffb0"}, {"lat": 38.903554166666666, "fusion_lon": 0.0, "fusion_lat": 0.0, "is_disabled": 0, "type": "electric_scooter", "lon": -77.044619, "rental_uris": {"android": "https://dc.lft.to/lastmile_qr_scan", "ios": "https://dc.lft.to/lastmile_qr_scan"}, "is_reserved": 0, "bike_id": "4c6b64cce39a6e509d7571d57fc742f9", "name": "4c6b64cce39a6e509d7571d57fc742f9"}, {"lat": 38.86221, "fusion_lon": 0.0, "fusion_lat": 0.0, "is_disabled": 0, "type": "electric_scooter", "lon": -76.994938, "rental_uris": {"android": "https://dc.lft.to/lastmile_qr_scan", "ios": "https://dc.lft.to/lastmile_qr_scan"}, "is_reserved": 0, "bike_id": "89ffc7753cc97ca0d54e69e58d93dec4", "name": "89ffc7753cc97ca0d54e69e58d93dec4"}, {"lat": 38.85208166666666, "fusion_lon": 0.0, "fusion_lat": 0.0, "is_disabled": 0, "type": "electric_bike", "lon": -77.10126866666667, "rental_uris": {"android": "https://dc.lft.to/lastmile_qr_scan", "ios": "https://dc.lft.to/lastmile_qr_scan"}, "is_reserved": 0, "bike_id": "2fa78a9ee19cb396df3b6e6284191ac4", "name": "2fa78a9ee19cb396df3b6e6284191ac4"}, {"lat": 38.931294333333334, "fusion_lon": 0.0, "fusion_lat": 0.0, "is_disabled": 0, "type": "electric_scooter", "lon": -77.0235245, "rental_uris": {"android": "https://dc.lft.to/lastmile_qr_scan", "ios": "https://dc.lft.to/lastmile_qr_scan"}, "is_reserved": 0, "bike_id": "34229f138079c58b90049bfe342ac003", "name": "34229f138079c58b90049bfe342ac003"}, {"lat": 38.9235775, "fusion_lon": 0.0, "fusion_lat": 0.0, "is_disabled": 0, "type": "electric_scooter", "lon": -77.04388233333333, "rental_uris": {"android": "https://dc.lft.to/lastmile_qr_scan", "ios": "https://dc.lft.to/lastmile_qr_scan"}, "is_reserved": 0, "bike_id": "dd9219fc983fab68f140750aff98f0ad", "name": "dd9219fc983fab68f140750aff98f0ad"}, {"lat": 38.9622985, "fusion_lon": 0.0, "fusion_lat": 0.0, "is_disabled": 0, "type": "electric_scooter", "lon": -77.029769, "rental_uris": {"android": "https://dc.lft.to/lastmile_qr_scan", "ios": "https://dc.lft.to/lastmile_qr_scan"}, "is_reserved": 0, "bike_id": "e1ff790ffacebfc2d976f486ca6ccd22", "name": "e1ff790ffacebfc2d976f486ca6ccd22"}, {"lat": 38.877066, "fusion_lon": 0.0, "fusion_lat": 0.0, "is_disabled": 0, "type": "electric_scooter", "lon": -77.0057945, "rental_uris": {"android": "https://dc.lft.to/lastmile_qr_scan", "ios": "https://dc.lft.to/lastmile_qr_scan"}, "is_reserved": 0, "bike_id": "eb4323f048cd328a66575e32361530ac", "name": "eb4323f048cd328a66575e32361530ac"}, {"lat": 38.9143115, "fusion_lon": 0.0, "fusion_lat": 0.0, "is_disabled": 0, "type": "electric_scooter", "lon": -77.0020255, "rental_uris": {"android": "https://dc.lft.to/lastmile_qr_scan", "ios": "https://dc.lft.to/lastmile_qr_scan"}, "is_reserved": 0, "bike_id": "277e3623fd3616342ebf1c305a9a54ed", "name": "277e3623fd3616342ebf1c305a9a54ed"}, {"lat": 38.92236283333333, "fusion_lon": 0.0, "fusion_lat": 0.0, "is_disabled": 0, "type": "electric_scooter", "lon": -77.03515533333334, "rental_uris": {"android": "https://dc.lft.to/lastmile_qr_scan", "ios": "https://dc.lft.to/lastmile_qr_scan"}, "is_reserved": 0, "bike_id": "79064eea9cee9ddbbab0f2b3778548a4", "name": "79064eea9cee9ddbbab0f2b3778548a4"}, {"lat": 38.896135, "fusion_lon": 0.0, "fusion_lat": 0.0, "is_disabled": 0, "type": "electric_scooter", "lon": -77.01151233333333, "rental_uris": {"android": "https://dc.lft.to/lastmile_qr_scan", "ios": "https://dc.lft.to/lastmile_qr_scan"}, "is_reserved": 0, "bike_id": "310f341bca16f0323c0e33467fce9547", "name": "310f341bca16f0323c0e33467fce9547"}, {"lat": 38.93462566666667, "fusion_lon": 0.0, "fusion_lat": 0.0, "is_disabled": 0, "type": "electric_bike", "lon": -77.089549, "rental_uris": {"android": "https://dc.lft.to/lastmile_qr_scan", "ios": "https://dc.lft.to/lastmile_qr_scan"}, "is_reserved": 0, "bike_id": "6314f8bb833a709b779ddf950e8f6842", "name": "6314f8bb833a709b779ddf950e8f6842"}, {"lat": 38.898693, "fusion_lon": 0.0, "fusion_lat": 0.0, "is_disabled": 0, "type": "electric_scooter", "lon": -76.94666616666666, "rental_uris": {"android": "https://dc.lft.to/lastmile_qr_scan", "ios": "https://dc.lft.to/lastmile_qr_scan"}, "is_reserved": 0, "bike_id": "d278953b61655a260d22689c23248ae5", "name": "d278953b61655a260d22689c23248ae5"}, {"lat": 38.91400216666667, "fusion_lon": 0.0, "fusion_lat": 0.0, "is_disabled": 0, "type": "electric_scooter", "lon": -77.04472216666667, "rental_uris": {"android": "https://dc.lft.to/lastmile_qr_scan", "ios": "https://dc.lft.to/lastmile_qr_scan"}, "is_reserved": 0, "bike_id": "a9c91f33038c48e53b72e2a98a09dedb", "name": "a9c91f33038c48e53b72e2a98a09dedb"}, {"lat": 38.9000695, "fusion_lon": 0.0, "fusion_lat": 0.0, "is_disabled": 0, "type": "electric_scooter", "lon": -77.03164283333334, "rental_uris": {"android": "https://dc.lft.to/lastmile_qr_scan", "ios": "https://dc.lft.to/lastmile_qr_scan"}, "is_reserved": 0, "bike_id": "cd35f754ededb260036dbbcafb05d37d", "name": "cd35f754ededb260036dbbcafb05d37d"}, {"lat": 38.9006505, "fusion_lon": 0.0, "fusion_lat": 0.0, "is_disabled": 0, "type": "electric_scooter", "lon": -77.03172883333333, "rental_uris": {"android": "https://dc.lft.to/lastmile_qr_scan", "ios": "https://dc.lft.to/lastmile_qr_scan"}, "is_reserved": 0, "bike_id": "942b66e2cc21bd74f204c3e0ff5cfd2d", "name": "942b66e2cc21bd74f204c3e0ff5cfd2d"}, {"lat": 38.89636616666667, "fusion_lon": 0.0, "fusion_lat": 0.0, "is_disabled": 0, "type": "electric_scooter", "lon": -77.02673733333333, "rental_uris": {"android": "https://dc.lft.to/lastmile_qr_scan", "ios": "https://dc.lft.to/lastmile_qr_scan"}, "is_reserved": 0, "bike_id": "01d7ce41a5e2614bf68d87dc4bd747e2", "name": "01d7ce41a5e2614bf68d87dc4bd747e2"}, {"lat": 38.90277583333334, "fusion_lon": 0.0, "fusion_lat": 0.0, "is_disabled": 0, "type": "electric_scooter", "lon": -77.03466783333333, "rental_uris": {"android": "https://dc.lft.to/lastmile_qr_scan", "ios": "https://dc.lft.to/lastmile_qr_scan"}, "is_reserved": 0, "bike_id": "fd6b05b67eb99c9fa5f0e56ae12d3d7c", "name": "fd6b05b67eb99c9fa5f0e56ae12d3d7c"}, {"lat": 38.90065666666667, "fusion_lon": 0.0, "fusion_lat": 0.0, "is_disabled": 0, "type": "electric_scooter", "lon": -77.00209683333334, "rental_uris": {"android": "https://dc.lft.to/lastmile_qr_scan", "ios": "https://dc.lft.to/lastmile_qr_scan"}, "is_reserved": 0, "bike_id": "6eba3be81d071ec3dcae0758172a49f6", "name": "6eba3be81d071ec3dcae0758172a49f6"}, {"lat": 38.9125375, "fusion_lon": 0.0, "fusion_lat": 0.0, "is_disabled": 0, "type": "electric_scooter", "lon": -77.00931816666667, "rental_uris": {"android": "https://dc.lft.to/lastmile_qr_scan", "ios": "https://dc.lft.to/lastmile_qr_scan"}, "is_reserved": 0, "bike_id": "09e16fbe124f7ec6bae5d85e3a3eb4de", "name": "09e16fbe124f7ec6bae5d85e3a3eb4de"}, {"lat": 38.8948175, "fusion_lon": 0.0, "fusion_lat": 0.0, "is_disabled": 0, "type": "electric_scooter", "lon": -76.99516466666667, "rental_uris": {"android": "https://dc.lft.to/lastmile_qr_scan", "ios": "https://dc.lft.to/lastmile_qr_scan"}, "is_reserved": 0, "bike_id": "4b746115b1baf986d9e3aca72f57b536", "name": "4b746115b1baf986d9e3aca72f57b536"}, {"lat": 38.85219166666667, "fusion_lon": 0.0, "fusion_lat": 0.0, "is_disabled": 0, "type": "electric_bike", "lon": -77.12964566666666, "rental_uris": {"android": "https://dc.lft.to/lastmile_qr_scan", "ios": "https://dc.lft.to/lastmile_qr_scan"}, "is_reserved": 0, "bike_id": "51d9b72f0545225d3c2f8c4a627d3e27", "name": "51d9b72f0545225d3c2f8c4a627d3e27"}, {"lat": 38.91327866666666, "fusion_lon": 0.0, "fusion_lat": 0.0, "is_disabled": 0, "type": "electric_scooter", "lon": -77.04535266666667, "rental_uris": {"android": "https://dc.lft.to/lastmile_qr_scan", "ios": "https://dc.lft.to/lastmile_qr_scan"}, "is_reserved": 0, "bike_id": "12569b043fb9d82df23e8060fdf54298", "name": "12569b043fb9d82df23e8060fdf54298"}, {"lat": 38.907212, "fusion_lon": 0.0, "fusion_lat": 0.0, "is_disabled": 0, "type": "electric_scooter", "lon": -77.038212, "rental_uris": {"android": "https://dc.lft.to/lastmile_qr_scan", "ios": "https://dc.lft.to/lastmile_qr_scan"}, "is_reserved": 0, "bike_id": "347aaab34752c62f0673337675576e35", "name": "347aaab34752c62f0673337675576e35"}, {"lat": 38.908503333333336, "fusion_lon": 0.0, "fusion_lat": 0.0, "is_disabled": 0, "type": "electric_scooter", "lon": -77.04552616666666, "rental_uris": {"android": "https://dc.lft.to/lastmile_qr_scan", "ios": "https://dc.lft.to/lastmile_qr_scan"}, "is_reserved": 0, "bike_id": "da0b5a76de6d2d6c5bf725f7bd9feb6f", "name": "da0b5a76de6d2d6c5bf725f7bd9feb6f"}, {"lat": 38.90971783333333, "fusion_lon": 0.0, "fusion_lat": 0.0, "is_disabled": 0, "type": "electric_scooter", "lon": -77.0325185, "rental_uris": {"android": "https://dc.lft.to/lastmile_qr_scan", "ios": "https://dc.lft.to/lastmile_qr_scan"}, "is_reserved": 0, "bike_id": "724f1da8591e655a5e224645f5028f25", "name": "724f1da8591e655a5e224645f5028f25"}, {"lat": 38.8659355, "fusion_lon": 0.0, "fusion_lat": 0.0, "is_disabled": 0, "type": "electric_bike", "lon": -76.9323015, "rental_uris": {"android": "https://dc.lft.to/lastmile_qr_scan", "ios": "https://dc.lft.to/lastmile_qr_scan"}, "is_reserved": 0, "bike_id": "9c94a240a9331c426783e0cc95036fc1", "name": "9c94a240a9331c426783e0cc95036fc1"}, {"lat": 38.905788666666666, "fusion_lon": 0.0, "fusion_lat": 0.0, "is_disabled": 0, "type": "electric_scooter", "lon": -77.00589833333333, "rental_uris": {"android": "https://dc.lft.to/lastmile_qr_scan", "ios": "https://dc.lft.to/lastmile_qr_scan"}, "is_reserved": 0, "bike_id": "94baad26988be710e8e6ab953d92fee7", "name": "94baad26988be710e8e6ab953d92fee7"}, {"lat": 38.917563333333334, "fusion_lon": 0.0, "fusion_lat": 0.0, "is_disabled": 0, "type": "electric_scooter", "lon": -77.02484616666666, "rental_uris": {"android": "https://dc.lft.to/lastmile_qr_scan", "ios": "https://dc.lft.to/lastmile_qr_scan"}, "is_reserved": 0, "bike_id": "56673897a5e41102feed2778c26c5778", "name": "56673897a5e41102feed2778c26c5778"}, {"lat": 38.87468166666667, "fusion_lon": 0.0, "fusion_lat": 0.0, "is_disabled": 0, "type": "electric_scooter", "lon": -77.00589983333333, "rental_uris": {"android": "https://dc.lft.to/lastmile_qr_scan", "ios": "https://dc.lft.to/lastmile_qr_scan"}, "is_reserved": 0, "bike_id": "74a935ca948d1d7970b008faca4c8fad", "name": "74a935ca948d1d7970b008faca4c8fad"}, {"lat": 38.9148215, "fusion_lon": 0.0, "fusion_lat": 0.0, "is_disabled": 0, "type": "electric_scooter", "lon": -77.04557283333334, "rental_uris": {"android": "https://dc.lft.to/lastmile_qr_scan", "ios": "https://dc.lft.to/lastmile_qr_scan"}, "is_reserved": 0, "bike_id": "3fed019404449425b6f104be704851cb", "name": "3fed019404449425b6f104be704851cb"}, {"lat": 38.94129066666667, "fusion_lon": 0.0, "fusion_lat": 0.0, "is_disabled": 0, "type": "electric_scooter", "lon": -77.09199833333334, "rental_uris": {"android": "https://dc.lft.to/lastmile_qr_scan", "ios": "https://dc.lft.to/lastmile_qr_scan"}, "is_reserved": 0, "bike_id": "9ad5bf628b73b0d9e4234d14ba932914", "name": "9ad5bf628b73b0d9e4234d14ba932914"}, {"lat": 38.868606, "fusion_lon": 0.0, "fusion_lat": 0.0, "is_disabled": 0, "type": "electric_bike", "lon": -76.91659416666667, "rental_uris": {"android": "https://dc.lft.to/lastmile_qr_scan", "ios": "https://dc.lft.to/lastmile_qr_scan"}, "is_reserved": 0, "bike_id": "4d28855c7814a7e7c2b1e9935798dc54", "name": "4d28855c7814a7e7c2b1e9935798dc54"}, {"lat": 38.90383283333333, "fusion_lon": 0.0, "fusion_lat": 0.0, "is_disabled": 0, "type": "electric_scooter", "lon": -77.04368816666667, "rental_uris": {"android": "https://dc.lft.to/lastmile_qr_scan", "ios": "https://dc.lft.to/lastmile_qr_scan"}, "is_reserved": 0, "bike_id": "b672242c2e9fc2ca15fc6b7c03661302", "name": "b672242c2e9fc2ca15fc6b7c03661302"}, {"lat": 38.9012825, "fusion_lon": 0.0, "fusion_lat": 0.0, "is_disabled": 0, "type": "electric_scooter", "lon": -77.0470595, "rental_uris": {"android": "https://dc.lft.to/lastmile_qr_scan", "ios": "https://dc.lft.to/lastmile_qr_scan"}, "is_reserved": 0, "bike_id": "e73929df7d7c80270149bbf73140d10c", "name": "e73929df7d7c80270149bbf73140d10c"}, {"lat": 38.89223716666667, "fusion_lon": 0.0, "fusion_lat": 0.0, "is_disabled": 0, "type": "electric_scooter", "lon": -77.0322025, "rental_uris": {"android": "https://dc.lft.to/lastmile_qr_scan", "ios": "https://dc.lft.to/lastmile_qr_scan"}, "is_reserved": 0, "bike_id": "0fdc2a6d7e180439df4d137738f440df", "name": "0fdc2a6d7e180439df4d137738f440df"}, {"lat": 38.925153333333334, "fusion_lon": 0.0, "fusion_lat": 0.0, "is_disabled": 0, "type": "electric_bike", "lon": -77.233034, "rental_uris": {"android": "https://dc.lft.to/lastmile_qr_scan", "ios": "https://dc.lft.to/lastmile_qr_scan"}, "is_reserved": 0, "bike_id": "e46a287670c39c6d727f44d380cfd589", "name": "e46a287670c39c6d727f44d380cfd589"}, {"lat": 38.89160483333333, "fusion_lon": 0.0, "fusion_lat": 0.0, "is_disabled": 0, "type": "electric_scooter", "lon": -76.95407466666667, "rental_uris": {"android": "https://dc.lft.to/lastmile_qr_scan", "ios": "https://dc.lft.to/lastmile_qr_scan"}, "is_reserved": 0, "bike_id": "96e9134aabad2bba380c5580fc94bfac", "name": "96e9134aabad2bba380c5580fc94bfac"}, {"lat": 38.9038445, "fusion_lon": 0.0, "fusion_lat": 0.0, "is_disabled": 0, "type": "electric_scooter", "lon": -77.04218666666667, "rental_uris": {"android": "https://dc.lft.to/lastmile_qr_scan", "ios": "https://dc.lft.to/lastmile_qr_scan"}, "is_reserved": 0, "bike_id": "23da93175cb8bc4c946723570714826d", "name": "23da93175cb8bc4c946723570714826d"}, {"lat": 38.9130305, "fusion_lon": 0.0, "fusion_lat": 0.0, "is_disabled": 0, "type": "electric_scooter", "lon": -77.040124, "rental_uris": {"android": "https://dc.lft.to/lastmile_qr_scan", "ios": "https://dc.lft.to/lastmile_qr_scan"}, "is_reserved": 0, "bike_id": "9de44c96163c549dbc27f741d4a42f0f", "name": "9de44c96163c549dbc27f741d4a42f0f"}, {"lat": 38.897296, "fusion_lon": 0.0, "fusion_lat": 0.0, "is_disabled": 0, "type": "electric_bike", "lon": -77.12273033333334, "rental_uris": {"android": "https://dc.lft.to/lastmile_qr_scan", "ios": "https://dc.lft.to/lastmile_qr_scan"}, "is_reserved": 0, "bike_id": "a26daf2fce309b85fe70cf6f9003fdc1", "name": "a26daf2fce309b85fe70cf6f9003fdc1"}, {"lat": 38.900744833333334, "fusion_lon": 0.0, "fusion_lat": 0.0, "is_disabled": 0, "type": "electric_bike", "lon": -77.05047166666667, "rental_uris": {"android": "https://dc.lft.to/lastmile_qr_scan", "ios": "https://dc.lft.to/lastmile_qr_scan"}, "is_reserved": 0, "bike_id": "17e3840b8c282e87b5e808d883d21dba", "name": "17e3840b8c282e87b5e808d883d21dba"}, {"lat": 38.911017, "fusion_lon": 0.0, "fusion_lat": 0.0, "is_disabled": 0, "type": "electric_scooter", "lon": -77.07344233333333, "rental_uris": {"android": "https://dc.lft.to/lastmile_qr_scan", "ios": "https://dc.lft.to/lastmile_qr_scan"}, "is_reserved": 0, "bike_id": "6428e168dea8a7ca9093ece4dc6c0ed3", "name": "6428e168dea8a7ca9093ece4dc6c0ed3"}, {"lat": 38.923503833333335, "fusion_lon": 0.0, "fusion_lat": 0.0, "is_disabled": 0, "type": "electric_scooter", "lon": -77.0434335, "rental_uris": {"android": "https://dc.lft.to/lastmile_qr_scan", "ios": "https://dc.lft.to/lastmile_qr_scan"}, "is_reserved": 0, "bike_id": "838ad1b3362ee483ee8a5bfdbc014500", "name": "838ad1b3362ee483ee8a5bfdbc014500"}, {"lat": 38.896049833333336, "fusion_lon": 0.0, "fusion_lat": 0.0, "is_disabled": 0, "type": "electric_scooter", "lon": -77.04978833333334, "rental_uris": {"android": "https://dc.lft.to/lastmile_qr_scan", "ios": "https://dc.lft.to/lastmile_qr_scan"}, "is_reserved": 0, "bike_id": "d650ef52c5f725869bcc559d457b6fbe", "name": "d650ef52c5f725869bcc559d457b6fbe"}, {"lat": 38.90012566666667, "fusion_lon": 0.0, "fusion_lat": 0.0, "is_disabled": 0, "type": "electric_scooter", "lon": -77.04653616666667, "rental_uris": {"android": "https://dc.lft.to/lastmile_qr_scan", "ios": "https://dc.lft.to/lastmile_qr_scan"}, "is_reserved": 0, "bike_id": "6e33abef36990959939a11b64086d646", "name": "6e33abef36990959939a11b64086d646"}, {"lat": 38.838373833333335, "fusion_lon": 0.0, "fusion_lat": 0.0, "is_disabled": 0, "type": "electric_scooter", "lon": -76.99981616666666, "rental_uris": {"android": "https://dc.lft.to/lastmile_qr_scan", "ios": "https://dc.lft.to/lastmile_qr_scan"}, "is_reserved": 0, "bike_id": "948b394ca13d57eb14c9b8204b082731", "name": "948b394ca13d57eb14c9b8204b082731"}, {"lat": 38.91120683333333, "fusion_lon": 0.0, "fusion_lat": 0.0, "is_disabled": 0, "type": "electric_scooter", "lon": -77.04225, "rental_uris": {"android": "https://dc.lft.to/lastmile_qr_scan", "ios": "https://dc.lft.to/lastmile_qr_scan"}, "is_reserved": 0, "bike_id": "f8b7b652f7f52b05ae8f30795c7c21d8", "name": "f8b7b652f7f52b05ae8f30795c7c21d8"}, {"lat": 38.928386833333334, "fusion_lon": 0.0, "fusion_lat": 0.0, "is_disabled": 0, "type": "electric_scooter", "lon": -76.9936535, "rental_uris": {"android": "https://dc.lft.to/lastmile_qr_scan", "ios": "https://dc.lft.to/lastmile_qr_scan"}, "is_reserved": 0, "bike_id": "1f7fa5e7b428ef809a4f65ece5999c14", "name": "1f7fa5e7b428ef809a4f65ece5999c14"}, {"lat": 38.9226545, "fusion_lon": 0.0, "fusion_lat": 0.0, "is_disabled": 0, "type": "electric_scooter", "lon": -76.9940235, "rental_uris": {"android": "https://dc.lft.to/lastmile_qr_scan", "ios": "https://dc.lft.to/lastmile_qr_scan"}, "is_reserved": 0, "bike_id": "c9da9d313851d9281007218d1e1b6aee", "name": "c9da9d313851d9281007218d1e1b6aee"}, {"lat": 38.97064366666667, "fusion_lon": 0.0, "fusion_lat": 0.0, "is_disabled": 0, "type": "electric_bike", "lon": -76.96012216666666, "rental_uris": {"android": "https://dc.lft.to/lastmile_qr_scan", "ios": "https://dc.lft.to/lastmile_qr_scan"}, "is_reserved": 0, "bike_id": "951b3cdd364be7379b2144734cd96ab2", "name": "951b3cdd364be7379b2144734cd96ab2"}, {"lat": 38.86053833333333, "fusion_lon": 0.0, "fusion_lat": 0.0, "is_disabled": 0, "type": "electric_scooter", "lon": -76.99080583333334, "rental_uris": {"android": "https://dc.lft.to/lastmile_qr_scan", "ios": "https://dc.lft.to/lastmile_qr_scan"}, "is_reserved": 0, "bike_id": "c5bb87da54dce66507880a907b9e5c59", "name": "c5bb87da54dce66507880a907b9e5c59"}, {"lat": 38.865075833333336, "fusion_lon": 0.0, "fusion_lat": 0.0, "is_disabled": 0, "type": "electric_scooter", "lon": -76.99007133333333, "rental_uris": {"android": "https://dc.lft.to/lastmile_qr_scan", "ios": "https://dc.lft.to/lastmile_qr_scan"}, "is_reserved": 0, "bike_id": "020bee8642d22a28a4a757934fe706c4", "name": "020bee8642d22a28a4a757934fe706c4"}, {"lat": 38.90369883333334, "fusion_lon": 0.0, "fusion_lat": 0.0, "is_disabled": 0, "type": "electric_scooter", "lon": -77.03924066666667, "rental_uris": {"android": "https://dc.lft.to/lastmile_qr_scan", "ios": "https://dc.lft.to/lastmile_qr_scan"}, "is_reserved": 0, "bike_id": "6756bf29607f46aa1b1efa077281ea72", "name": "6756bf29607f46aa1b1efa077281ea72"}, {"lat": 38.892124333333335, "fusion_lon": 0.0, "fusion_lat": 0.0, "is_disabled": 0, "type": "electric_scooter", "lon": -77.02446966666666, "rental_uris": {"android": "https://dc.lft.to/lastmile_qr_scan", "ios": "https://dc.lft.to/lastmile_qr_scan"}, "is_reserved": 0, "bike_id": "9144a09c5abd1e3780c64e237b8280da", "name": "9144a09c5abd1e3780c64e237b8280da"}, {"lat": 38.9185005, "fusion_lon": 0.0, "fusion_lat": 0.0, "is_disabled": 0, "type": "electric_scooter", "lon": -77.04497833333333, "rental_uris": {"android": "https://dc.lft.to/lastmile_qr_scan", "ios": "https://dc.lft.to/lastmile_qr_scan"}, "is_reserved": 0, "bike_id": "67ee171ea0bdefb42d071e9f94b6ea39", "name": "67ee171ea0bdefb42d071e9f94b6ea39"}, {"lat": 38.9090835, "fusion_lon": 0.0, "fusion_lat": 0.0, "is_disabled": 0, "type": "electric_scooter", "lon": -77.04409283333334, "rental_uris": {"android": "https://dc.lft.to/lastmile_qr_scan", "ios": "https://dc.lft.to/lastmile_qr_scan"}, "is_reserved": 0, "bike_id": "98f6dd5460857400068f741d6cd5a85d", "name": "98f6dd5460857400068f741d6cd5a85d"}, {"lat": 38.89619316666667, "fusion_lon": 0.0, "fusion_lat": 0.0, "is_disabled": 0, "type": "electric_scooter", "lon": -76.999353, "rental_uris": {"android": "https://dc.lft.to/lastmile_qr_scan", "ios": "https://dc.lft.to/lastmile_qr_scan"}, "is_reserved": 0, "bike_id": "6649c0f82bb49cd562ff5a2072390b4c", "name": "6649c0f82bb49cd562ff5a2072390b4c"}, {"lat": 38.900611833333336, "fusion_lon": 0.0, "fusion_lat": 0.0, "is_disabled": 0, "type": "electric_scooter", "lon": -77.01351033333333, "rental_uris": {"android": "https://dc.lft.to/lastmile_qr_scan", "ios": "https://dc.lft.to/lastmile_qr_scan"}, "is_reserved": 0, "bike_id": "b5f19ec3e48172701657ecd3b7d5fbb0", "name": "b5f19ec3e48172701657ecd3b7d5fbb0"}, {"lat": 38.94603733333334, "fusion_lon": 0.0, "fusion_lat": 0.0, "is_disabled": 0, "type": "electric_scooter", "lon": -77.0297985, "rental_uris": {"android": "https://dc.lft.to/lastmile_qr_scan", "ios": "https://dc.lft.to/lastmile_qr_scan"}, "is_reserved": 0, "bike_id": "4c67acaef2ef1a963f00fad7927c3159", "name": "4c67acaef2ef1a963f00fad7927c3159"}, {"lat": 38.906597, "fusion_lon": 0.0, "fusion_lat": 0.0, "is_disabled": 0, "type": "electric_scooter", "lon": -77.03902883333333, "rental_uris": {"android": "https://dc.lft.to/lastmile_qr_scan", "ios": "https://dc.lft.to/lastmile_qr_scan"}, "is_reserved": 0, "bike_id": "208c5f3c4dc32e80dfcab2da813cdaed", "name": "208c5f3c4dc32e80dfcab2da813cdaed"}, {"lat": 38.95847883333333, "fusion_lon": 0.0, "fusion_lat": 0.0, "is_disabled": 0, "type": "electric_scooter", "lon": -77.02894866666666, "rental_uris": {"android": "https://dc.lft.to/lastmile_qr_scan", "ios": "https://dc.lft.to/lastmile_qr_scan"}, "is_reserved": 0, "bike_id": "3f796b5395b7f83a437aae0b6d7e63e6", "name": "3f796b5395b7f83a437aae0b6d7e63e6"}, {"lat": 38.8850255, "fusion_lon": 0.0, "fusion_lat": 0.0, "is_disabled": 0, "type": "electric_scooter", "lon": -77.02340733333334, "rental_uris": {"android": "https://dc.lft.to/lastmile_qr_scan", "ios": "https://dc.lft.to/lastmile_qr_scan"}, "is_reserved": 0, "bike_id": "90f1efc05003decfa6d260d6235ba48c", "name": "90f1efc05003decfa6d260d6235ba48c"}, {"lat": 38.9126775, "fusion_lon": 0.0, "fusion_lat": 0.0, "is_disabled": 0, "type": "electric_scooter", "lon": -77.03872, "rental_uris": {"android": "https://dc.lft.to/lastmile_qr_scan", "ios": "https://dc.lft.to/lastmile_qr_scan"}, "is_reserved": 0, "bike_id": "f749b558f92ce91467588419d9a4b5d6", "name": "f749b558f92ce91467588419d9a4b5d6"}, {"lat": 38.93675866666667, "fusion_lon": 0.0, "fusion_lat": 0.0, "is_disabled": 0, "type": "electric_scooter", "lon": -77.036246, "rental_uris": {"android": "https://dc.lft.to/lastmile_qr_scan", "ios": "https://dc.lft.to/lastmile_qr_scan"}, "is_reserved": 0, "bike_id": "f88c62c128baf3b08fdd883a453fc7d7", "name": "f88c62c128baf3b08fdd883a453fc7d7"}, {"lat": 38.923931833333334, "fusion_lon": 0.0, "fusion_lat": 0.0, "is_disabled": 0, "type": "electric_scooter", "lon": -77.04089833333333, "rental_uris": {"android": "https://dc.lft.to/lastmile_qr_scan", "ios": "https://dc.lft.to/lastmile_qr_scan"}, "is_reserved": 0, "bike_id": "488451a662852455e093a85f7b10b106", "name": "488451a662852455e093a85f7b10b106"}, {"lat": 38.907553, "fusion_lon": 0.0, "fusion_lat": 0.0, "is_disabled": 0, "type": "electric_scooter", "lon": -77.0012495, "rental_uris": {"android": "https://dc.lft.to/lastmile_qr_scan", "ios": "https://dc.lft.to/lastmile_qr_scan"}, "is_reserved": 0, "bike_id": "f699bc704f220109d7c4d236cd4aae93", "name": "f699bc704f220109d7c4d236cd4aae93"}, {"lat": 38.86708516666667, "fusion_lon": 0.0, "fusion_lat": 0.0, "is_disabled": 0, "type": "electric_scooter", "lon": -76.98731283333333, "rental_uris": {"android": "https://dc.lft.to/lastmile_qr_scan", "ios": "https://dc.lft.to/lastmile_qr_scan"}, "is_reserved": 0, "bike_id": "f94963e79a69d85703f2e90f6a562cff", "name": "f94963e79a69d85703f2e90f6a562cff"}, {"lat": 38.90970683333333, "fusion_lon": 0.0, "fusion_lat": 0.0, "is_disabled": 0, "type": "electric_bike", "lon": -77.08822983333333, "rental_uris": {"android": "https://dc.lft.to/lastmile_qr_scan", "ios": "https://dc.lft.to/lastmile_qr_scan"}, "is_reserved": 0, "bike_id": "86eb1a3222fcb667b4723d0266ceda70", "name": "86eb1a3222fcb667b4723d0266ceda70"}, {"lat": 38.88588333333333, "fusion_lon": 0.0, "fusion_lat": 0.0, "is_disabled": 0, "type": "electric_scooter", "lon": -77.02572583333334, "rental_uris": {"android": "https://dc.lft.to/lastmile_qr_scan", "ios": "https://dc.lft.to/lastmile_qr_scan"}, "is_reserved": 0, "bike_id": "6dde48c0e31783bbf349b301866c3a67", "name": "6dde48c0e31783bbf349b301866c3a67"}, {"lat": 38.89223366666667, "fusion_lon": 0.0, "fusion_lat": 0.0, "is_disabled": 0, "type": "electric_scooter", "lon": -77.0272185, "rental_uris": {"android": "https://dc.lft.to/lastmile_qr_scan", "ios": "https://dc.lft.to/lastmile_qr_scan"}, "is_reserved": 0, "bike_id": "18ded5ddfdc1511f9dc0af16da53bc7a", "name": "18ded5ddfdc1511f9dc0af16da53bc7a"}, {"lat": 38.919386833333334, "fusion_lon": 0.0, "fusion_lat": 0.0, "is_disabled": 0, "type": "electric_scooter", "lon": -76.9742365, "rental_uris": {"android": "https://dc.lft.to/lastmile_qr_scan", "ios": "https://dc.lft.to/lastmile_qr_scan"}, "is_reserved": 0, "bike_id": "9e795a629472c843e760ec2f319e6f52", "name": "9e795a629472c843e760ec2f319e6f52"}, {"lat": 38.894345, "fusion_lon": 0.0, "fusion_lat": 0.0, "is_disabled": 0, "type": "electric_scooter", "lon": -77.00114733333334, "rental_uris": {"android": "https://dc.lft.to/lastmile_qr_scan", "ios": "https://dc.lft.to/lastmile_qr_scan"}, "is_reserved": 0, "bike_id": "392735a8ae790b9a996e38f99b3c0c6d", "name": "392735a8ae790b9a996e38f99b3c0c6d"}, {"lat": 38.93555683333334, "fusion_lon": 0.0, "fusion_lat": 0.0, "is_disabled": 0, "type": "electric_scooter", "lon": -77.08213533333333, "rental_uris": {"android": "https://dc.lft.to/lastmile_qr_scan", "ios": "https://dc.lft.to/lastmile_qr_scan"}, "is_reserved": 0, "bike_id": "fa4191da5291b9eb9d4a5101a2a71f20", "name": "fa4191da5291b9eb9d4a5101a2a71f20"}, {"lat": 38.904694666666664, "fusion_lon": 0.0, "fusion_lat": 0.0, "is_disabled": 0, "type": "electric_scooter", "lon": -76.99214483333333, "rental_uris": {"android": "https://dc.lft.to/lastmile_qr_scan", "ios": "https://dc.lft.to/lastmile_qr_scan"}, "is_reserved": 0, "bike_id": "b6334cd1f04a389897e87650ce8a19c7", "name": "b6334cd1f04a389897e87650ce8a19c7"}, {"lat": 38.944597, "fusion_lon": 0.0, "fusion_lat": 0.0, "is_disabled": 0, "type": "electric_scooter", "lon": -77.0281025, "rental_uris": {"android": "https://dc.lft.to/lastmile_qr_scan", "ios": "https://dc.lft.to/lastmile_qr_scan"}, "is_reserved": 0, "bike_id": "7d87b7b162d0fc068f51ceddc400a4b4", "name": "7d87b7b162d0fc068f51ceddc400a4b4"}, {"lat": 38.897609333333335, "fusion_lon": 0.0, "fusion_lat": 0.0, "is_disabled": 0, "type": "electric_scooter", "lon": -76.93825966666667, "rental_uris": {"android": "https://dc.lft.to/lastmile_qr_scan", "ios": "https://dc.lft.to/lastmile_qr_scan"}, "is_reserved": 0, "bike_id": "62222fba1b1261160f5800f6758ad588", "name": "62222fba1b1261160f5800f6758ad588"}, {"lat": 38.89485966666667, "fusion_lon": 0.0, "fusion_lat": 0.0, "is_disabled": 0, "type": "electric_scooter", "lon": -76.94844383333333, "rental_uris": {"android": "https://dc.lft.to/lastmile_qr_scan", "ios": "https://dc.lft.to/lastmile_qr_scan"}, "is_reserved": 0, "bike_id": "98ef52e225d16d97f4922ca8566d6dad", "name": "98ef52e225d16d97f4922ca8566d6dad"}, {"lat": 38.90040233333333, "fusion_lon": 0.0, "fusion_lat": 0.0, "is_disabled": 0, "type": "electric_scooter", "lon": -77.04349933333333, "rental_uris": {"android": "https://dc.lft.to/lastmile_qr_scan", "ios": "https://dc.lft.to/lastmile_qr_scan"}, "is_reserved": 0, "bike_id": "b1ec7bfbe9bd37c32c439b4ce46b775b", "name": "b1ec7bfbe9bd37c32c439b4ce46b775b"}, {"lat": 38.913500166666665, "fusion_lon": 0.0, "fusion_lat": 0.0, "is_disabled": 0, "type": "electric_scooter", "lon": -77.003466, "rental_uris": {"android": "https://dc.lft.to/lastmile_qr_scan", "ios": "https://dc.lft.to/lastmile_qr_scan"}, "is_reserved": 0, "bike_id": "3f72c35d940c3a773b50e166e595d578", "name": "3f72c35d940c3a773b50e166e595d578"}, {"lat": 38.910532, "fusion_lon": 0.0, "fusion_lat": 0.0, "is_disabled": 0, "type": "electric_scooter", "lon": -77.00920883333333, "rental_uris": {"android": "https://dc.lft.to/lastmile_qr_scan", "ios": "https://dc.lft.to/lastmile_qr_scan"}, "is_reserved": 0, "bike_id": "ba91db3e228190f4877a1332c404ed14", "name": "ba91db3e228190f4877a1332c404ed14"}, {"lat": 38.919179166666666, "fusion_lon": 0.0, "fusion_lat": 0.0, "is_disabled": 0, "type": "electric_scooter", "lon": -77.03055483333333, "rental_uris": {"android": "https://dc.lft.to/lastmile_qr_scan", "ios": "https://dc.lft.to/lastmile_qr_scan"}, "is_reserved": 0, "bike_id": "2a39c885f739384aa296bf37170378b4", "name": "2a39c885f739384aa296bf37170378b4"}, {"lat": 38.9179765, "fusion_lon": 0.0, "fusion_lat": 0.0, "is_disabled": 0, "type": "electric_scooter", "lon": -77.02309016666666, "rental_uris": {"android": "https://dc.lft.to/lastmile_qr_scan", "ios": "https://dc.lft.to/lastmile_qr_scan"}, "is_reserved": 0, "bike_id": "be38547253b0e59a58a2f93e0c44ebd6", "name": "be38547253b0e59a58a2f93e0c44ebd6"}, {"lat": 38.923425, "fusion_lon": 0.0, "fusion_lat": 0.0, "is_disabled": 0, "type": "electric_scooter", "lon": -77.01902933333334, "rental_uris": {"android": "https://dc.lft.to/lastmile_qr_scan", "ios": "https://dc.lft.to/lastmile_qr_scan"}, "is_reserved": 0, "bike_id": "ea27b882956726c31330a64f21c34c37", "name": "ea27b882956726c31330a64f21c34c37"}, {"lat": 38.860695166666666, "fusion_lon": 0.0, "fusion_lat": 0.0, "is_disabled": 0, "type": "electric_scooter", "lon": -76.990293, "rental_uris": {"android": "https://dc.lft.to/lastmile_qr_scan", "ios": "https://dc.lft.to/lastmile_qr_scan"}, "is_reserved": 0, "bike_id": "66aebc45a6439774c4eca9fdf12b7483", "name": "66aebc45a6439774c4eca9fdf12b7483"}, {"lat": 38.892201, "fusion_lon": 0.0, "fusion_lat": 0.0, "is_disabled": 0, "type": "electric_scooter", "lon": -77.02629516666667, "rental_uris": {"android": "https://dc.lft.to/lastmile_qr_scan", "ios": "https://dc.lft.to/lastmile_qr_scan"}, "is_reserved": 0, "bike_id": "e64d8359a4055d2c6a5c9432d5304cc1", "name": "e64d8359a4055d2c6a5c9432d5304cc1"}, {"lat": 39.05346133333333, "fusion_lon": 0.0, "fusion_lat": 0.0, "is_disabled": 0, "type": "electric_bike", "lon": -77.13594783333333, "rental_uris": {"android": "https://dc.lft.to/lastmile_qr_scan", "ios": "https://dc.lft.to/lastmile_qr_scan"}, "is_reserved": 0, "bike_id": "316cd1da06422e3cc3db77dceb7d42e3", "name": "316cd1da06422e3cc3db77dceb7d42e3"}, {"lat": 38.928725, "fusion_lon": 0.0, "fusion_lat": 0.0, "is_disabled": 0, "type": "electric_scooter", "lon": -77.0347345, "rental_uris": {"android": "https://dc.lft.to/lastmile_qr_scan", "ios": "https://dc.lft.to/lastmile_qr_scan"}, "is_reserved": 0, "bike_id": "df68442c726ade0eece927d4a388653e", "name": "df68442c726ade0eece927d4a388653e"}, {"lat": 38.88301116666667, "fusion_lon": 0.0, "fusion_lat": 0.0, "is_disabled": 0, "type": "electric_scooter", "lon": -76.94855733333333, "rental_uris": {"android": "https://dc.lft.to/lastmile_qr_scan", "ios": "https://dc.lft.to/lastmile_qr_scan"}, "is_reserved": 0, "bike_id": "7ad96db627f729037f6bf68ac0c477ef", "name": "7ad96db627f729037f6bf68ac0c477ef"}, {"lat": 38.913245333333336, "fusion_lon": 0.0, "fusion_lat": 0.0, "is_disabled": 0, "type": "electric_scooter", "lon": -77.03673116666667, "rental_uris": {"android": "https://dc.lft.to/lastmile_qr_scan", "ios": "https://dc.lft.to/lastmile_qr_scan"}, "is_reserved": 0, "bike_id": "dfbbda4167b17c853215b1fc79da35be", "name": "dfbbda4167b17c853215b1fc79da35be"}, {"lat": 38.9301585, "fusion_lon": 0.0, "fusion_lat": 0.0, "is_disabled": 0, "type": "electric_scooter", "lon": -77.06186583333333, "rental_uris": {"android": "https://dc.lft.to/lastmile_qr_scan", "ios": "https://dc.lft.to/lastmile_qr_scan"}, "is_reserved": 0, "bike_id": "203b90cf37b34eb646073a1441cdaa9f", "name": "203b90cf37b34eb646073a1441cdaa9f"}, {"lat": 38.903147, "fusion_lon": 0.0, "fusion_lat": 0.0, "is_disabled": 0, "type": "electric_scooter", "lon": -77.01172766666667, "rental_uris": {"android": "https://dc.lft.to/lastmile_qr_scan", "ios": "https://dc.lft.to/lastmile_qr_scan"}, "is_reserved": 0, "bike_id": "6cc5e4c52353a333d8a7ff5d3744e03a", "name": "6cc5e4c52353a333d8a7ff5d3744e03a"}, {"lat": 38.877795666666664, "fusion_lon": 0.0, "fusion_lat": 0.0, "is_disabled": 0, "type": "electric_scooter", "lon": -77.0144145, "rental_uris": {"android": "https://dc.lft.to/lastmile_qr_scan", "ios": "https://dc.lft.to/lastmile_qr_scan"}, "is_reserved": 0, "bike_id": "6b96df0edc259ff3ed7cb3b3b7368f46", "name": "6b96df0edc259ff3ed7cb3b3b7368f46"}, {"lat": 38.84501016666667, "fusion_lon": 0.0, "fusion_lat": 0.0, "is_disabled": 0, "type": "electric_scooter", "lon": -76.9875725, "rental_uris": {"android": "https://dc.lft.to/lastmile_qr_scan", "ios": "https://dc.lft.to/lastmile_qr_scan"}, "is_reserved": 0, "bike_id": "daa4b76421d0d820fbd8fee6d91ff4a4", "name": "daa4b76421d0d820fbd8fee6d91ff4a4"}, {"lat": 38.905193833333335, "fusion_lon": 0.0, "fusion_lat": 0.0, "is_disabled": 0, "type": "electric_scooter", "lon": -77.0345065, "rental_uris": {"android": "https://dc.lft.to/lastmile_qr_scan", "ios": "https://dc.lft.to/lastmile_qr_scan"}, "is_reserved": 0, "bike_id": "ca519e492917e06db151d10cc2681851", "name": "ca519e492917e06db151d10cc2681851"}, {"lat": 38.88765433333333, "fusion_lon": 0.0, "fusion_lat": 0.0, "is_disabled": 0, "type": "electric_scooter", "lon": -77.02166466666667, "rental_uris": {"android": "https://dc.lft.to/lastmile_qr_scan", "ios": "https://dc.lft.to/lastmile_qr_scan"}, "is_reserved": 0, "bike_id": "1241716655cc681ba5216a424717d6ac", "name": "1241716655cc681ba5216a424717d6ac"}, {"lat": 38.924468833333336, "fusion_lon": 0.0, "fusion_lat": 0.0, "is_disabled": 0, "type": "electric_bike", "lon": -76.96837633333334, "rental_uris": {"android": "https://dc.lft.to/lastmile_qr_scan", "ios": "https://dc.lft.to/lastmile_qr_scan"}, "is_reserved": 0, "bike_id": "51a0d9bef7fbd9c9c0dcd0bfd2158527", "name": "51a0d9bef7fbd9c9c0dcd0bfd2158527"}, {"lat": 38.8617245, "fusion_lon": 0.0, "fusion_lat": 0.0, "is_disabled": 0, "type": "electric_scooter", "lon": -76.98325083333333, "rental_uris": {"android": "https://dc.lft.to/lastmile_qr_scan", "ios": "https://dc.lft.to/lastmile_qr_scan"}, "is_reserved": 0, "bike_id": "5b9e43ca4697f811fa82a40de8d9479d", "name": "5b9e43ca4697f811fa82a40de8d9479d"}, {"lat": 39.10566566666667, "fusion_lon": 0.0, "fusion_lat": 0.0, "is_disabled": 0, "type": "electric_bike", "lon": -77.15267366666667, "rental_uris": {"android": "https://dc.lft.to/lastmile_qr_scan", "ios": "https://dc.lft.to/lastmile_qr_scan"}, "is_reserved": 0, "bike_id": "604cf05a6925a9a819c67d20a0c35995", "name": "604cf05a6925a9a819c67d20a0c35995"}, {"lat": 38.8996935, "fusion_lon": 0.0, "fusion_lat": 0.0, "is_disabled": 0, "type": "electric_scooter", "lon": -77.04722083333333, "rental_uris": {"android": "https://dc.lft.to/lastmile_qr_scan", "ios": "https://dc.lft.to/lastmile_qr_scan"}, "is_reserved": 0, "bike_id": "3c1bd85b0a0b0e19d92c6f185a7be067", "name": "3c1bd85b0a0b0e19d92c6f185a7be067"}, {"lat": 38.930159833333335, "fusion_lon": 0.0, "fusion_lat": 0.0, "is_disabled": 0, "type": "electric_scooter", "lon": -77.03802283333333, "rental_uris": {"android": "https://dc.lft.to/lastmile_qr_scan", "ios": "https://dc.lft.to/lastmile_qr_scan"}, "is_reserved": 0, "bike_id": "639c3a3dec0ce37a1dffd6a0ab1eb206", "name": "639c3a3dec0ce37a1dffd6a0ab1eb206"}, {"lat": 38.90953916666667, "fusion_lon": 0.0, "fusion_lat": 0.0, "is_disabled": 0, "type": "electric_scooter", "lon": -77.03480166666667, "rental_uris": {"android": "https://dc.lft.to/lastmile_qr_scan", "ios": "https://dc.lft.to/lastmile_qr_scan"}, "is_reserved": 0, "bike_id": "583b0233bf4dc39a06356632f65f2faa", "name": "583b0233bf4dc39a06356632f65f2faa"}, {"lat": 38.8880015, "fusion_lon": 0.0, "fusion_lat": 0.0, "is_disabled": 0, "type": "electric_bike", "lon": -76.9299285, "rental_uris": {"android": "https://dc.lft.to/lastmile_qr_scan", "ios": "https://dc.lft.to/lastmile_qr_scan"}, "is_reserved": 0, "bike_id": "fea06a947137863e128cb95d226d051c", "name": "fea06a947137863e128cb95d226d051c"}, {"lat": 38.9077725, "fusion_lon": 0.0, "fusion_lat": 0.0, "is_disabled": 0, "type": "electric_scooter", "lon": -77.03206333333333, "rental_uris": {"android": "https://dc.lft.to/lastmile_qr_scan", "ios": "https://dc.lft.to/lastmile_qr_scan"}, "is_reserved": 0, "bike_id": "075ec9e90798f7f3b167a3f9ddbd30ba", "name": "075ec9e90798f7f3b167a3f9ddbd30ba"}, {"lat": 38.8764625, "fusion_lon": 0.0, "fusion_lat": 0.0, "is_disabled": 0, "type": "electric_scooter", "lon": -76.9650545, "rental_uris": {"android": "https://dc.lft.to/lastmile_qr_scan", "ios": "https://dc.lft.to/lastmile_qr_scan"}, "is_reserved": 0, "bike_id": "69dc25a7d4f5845d5f49d954a512c3ac", "name": "69dc25a7d4f5845d5f49d954a512c3ac"}, {"lat": 38.887424, "fusion_lon": 0.0, "fusion_lat": 0.0, "is_disabled": 0, "type": "electric_scooter", "lon": -77.0160075, "rental_uris": {"android": "https://dc.lft.to/lastmile_qr_scan", "ios": "https://dc.lft.to/lastmile_qr_scan"}, "is_reserved": 0, "bike_id": "4fef5fb1a2dd22e6b1e8a449d8fc6cf6", "name": "4fef5fb1a2dd22e6b1e8a449d8fc6cf6"}, {"lat": 38.898749, "fusion_lon": 0.0, "fusion_lat": 0.0, "is_disabled": 0, "type": "electric_scooter", "lon": -76.93184366666667, "rental_uris": {"android": "https://dc.lft.to/lastmile_qr_scan", "ios": "https://dc.lft.to/lastmile_qr_scan"}, "is_reserved": 0, "bike_id": "d08e075f2751a1fabd4348dd793f206b", "name": "d08e075f2751a1fabd4348dd793f206b"}, {"lat": 38.87945066666666, "fusion_lon": 0.0, "fusion_lat": 0.0, "is_disabled": 0, "type": "electric_scooter", "lon": -77.00803433333333, "rental_uris": {"android": "https://dc.lft.to/lastmile_qr_scan", "ios": "https://dc.lft.to/lastmile_qr_scan"},