{"data": {"bikes": [{"fusion_lat": 0.0, "name": "292bb9ec30fdc7f3c31c1682cc5a3ab8", "is_disabled": 0, "rental_uris": {"android": "https://dc.lft.to/lastmile_qr_scan", "ios": "https://dc.lft.to/lastmile_qr_scan"}, "fusion_lon": 0.0, "lat": 38.91100083333333, "bike_id": "292bb9ec30fdc7f3c31c1682cc5a3ab8", "type": "electric_scooter", "is_reserved": 0, "lon": -77.01148466666666}, {"fusion_lat": 0.0, "name": "51cc04f651601a3d212d46e236a3b3e4", "is_disabled": 0, "rental_uris": {"android": "https://dc.lft.to/lastmile_qr_scan", "ios": "https://dc.lft.to/lastmile_qr_scan"}, "fusion_lon": 0.0, "lat": 38.92613133333333, "bike_id": "51cc04f651601a3d212d46e236a3b3e4", "type": "electric_scooter", "is_reserved": 0, "lon": -77.021625}, {"fusion_lat": 0.0, "name": "85158a1f51047e2e8a7bd2d07047f630", "is_disabled": 0, "rental_uris": {"android": "https://dc.lft.to/lastmile_qr_scan", "ios": "https://dc.lft.to/lastmile_qr_scan"}, "fusion_lon": 0.0, "lat": 38.928669666666664, "bike_id": "85158a1f51047e2e8a7bd2d07047f630", "type": "electric_scooter", "is_reserved": 0, "lon": -77.02730183333334}, {"fusion_lat": 0.0, "name": "067bf9787b6013861ec9dd0890304ba7", "is_disabled": 0, "rental_uris": {"android": "https://dc.lft.to/lastmile_qr_scan", "ios": "https://dc.lft.to/lastmile_qr_scan"}, "fusion_lon": 0.0, "lat": 38.96678416666666, "bike_id": "067bf9787b6013861ec9dd0890304ba7", "type": "electric_bike", "is_reserved": 0, "lon": -77.0217}, {"fusion_lat": 0.0, "name": "bb9a4221d3f40f17e1974bb8fc0c480f", "is_disabled": 0, "rental_uris": {"android": "https://dc.lft.to/lastmile_qr_scan", "ios": "https://dc.lft.to/lastmile_qr_scan"}, "fusion_lon": 0.0, "lat": 38.918852, "bike_id": "bb9a4221d3f40f17e1974bb8fc0c480f", "type": "electric_scooter", "is_reserved": 0, "lon": -77.0349045}, {"fusion_lat": 0.0, "name": "79f7ac10e535d7b68e351f732361e9f6", "is_disabled": 0, "rental_uris": {"android": "https://dc.lft.to/lastmile_qr_scan", "ios": "https://dc.lft.to/lastmile_qr_scan"}, "fusion_lon": 0.0, "lat": 38.9046725, "bike_id": "79f7ac10e535d7b68e351f732361e9f6", "type": "electric_scooter", "is_reserved": 0, "lon": -77.05331166666667}, {"fusion_lat": 0.0, "name": "5953b522628fac441c8831caa8d5ab09", "is_disabled": 0, "rental_uris": {"android": "https://dc.lft.to/lastmile_qr_scan", "ios": "https://dc.lft.to/lastmile_qr_scan"}, "fusion_lon": 0.0, "lat": 38.871792666666664, "bike_id": "5953b522628fac441c8831caa8d5ab09", "type": "electric_scooter", "is_reserved": 0, "lon": -77.009202}, {"fusion_lat": 0.0, "name": "3aaa80edd88f04c0384e513ce443b974", "is_disabled": 0, "rental_uris": {"android": "https://dc.lft.to/lastmile_qr_scan", "ios": "https://dc.lft.to/lastmile_qr_scan"}, "fusion_lon": 0.0, "lat": 38.89485, "bike_id": "3aaa80edd88f04c0384e513ce443b974", "type": "electric_scooter", "is_reserved": 0, "lon": -77.01110916666667}, {"fusion_lat": 0.0, "name": "1acb26dd05fc57064ef6f3968c5e07b7", "is_disabled": 0, "rental_uris": {"android": "https://dc.lft.to/lastmile_qr_scan", "ios": "https://dc.lft.to/lastmile_qr_scan"}, "fusion_lon": 0.0, "lat": 38.922119333333335, "bike_id": "1acb26dd05fc57064ef6f3968c5e07b7", "type": "electric_scooter", "is_reserved": 0, "lon": -77.020168}, {"fusion_lat": 0.0, "name": "5d15164d490ad186d283fc77098379be", "is_disabled": 0, "rental_uris": {"android": "https://dc.lft.to/lastmile_qr_scan", "ios": "https://dc.lft.to/lastmile_qr_scan"}, "fusion_lon": 0.0, "lat": 38.8872755, "bike_id": "5d15164d490ad186d283fc77098379be", "type": "electric_scooter", "is_reserved": 0, "lon": -77.02583016666667}, {"fusion_lat": 0.0, "name": "97ab935378fce0972a4de89799d65097", "is_disabled": 0, "rental_uris": {"android": "https://dc.lft.to/lastmile_qr_scan", "ios": "https://dc.lft.to/lastmile_qr_scan"}, "fusion_lon": 0.0, "lat": 38.8900925, "bike_id": "97ab935378fce0972a4de89799d65097", "type": "electric_scooter", "is_reserved": 0, "lon": -76.93734366666666}, {"fusion_lat": 0.0, "name": "30bfb24f9d6661b5621247172a5f215b", "is_disabled": 0, "rental_uris": {"android": "https://dc.lft.to/lastmile_qr_scan", "ios": "https://dc.lft.to/lastmile_qr_scan"}, "fusion_lon": 0.0, "lat": 38.898364, "bike_id": "30bfb24f9d6661b5621247172a5f215b", "type": "electric_scooter", "is_reserved": 0, "lon": -77.0298695}, {"fusion_lat": 0.0, "name": "4fd155d03c4dba02541664c5452e1faf", "is_disabled": 0, "rental_uris": {"android": "https://dc.lft.to/lastmile_qr_scan", "ios": "https://dc.lft.to/lastmile_qr_scan"}, "fusion_lon": 0.0, "lat": 38.887314, "bike_id": "4fd155d03c4dba02541664c5452e1faf", "type": "electric_scooter", "is_reserved": 0, "lon": -77.015254}, {"fusion_lat": 0.0, "name": "28103fca86eeb822795f62fbb6af98de", "is_disabled": 0, "rental_uris": {"android": "https://dc.lft.to/lastmile_qr_scan", "ios": "https://dc.lft.to/lastmile_qr_scan"}, "fusion_lon": 0.0, "lat": 38.90253883333333, "bike_id": "28103fca86eeb822795f62fbb6af98de", "type": "electric_scooter", "is_reserved": 0, "lon": -77.0187335}, {"fusion_lat": 0.0, "name": "b178e36355560f1eba4f3f1474af42a1", "is_disabled": 0, "rental_uris": {"android": "https://dc.lft.to/lastmile_qr_scan", "ios": "https://dc.lft.to/lastmile_qr_scan"}, "fusion_lon": 0.0, "lat": 38.88984883333333, "bike_id": "b178e36355560f1eba4f3f1474af42a1", "type": "electric_scooter", "is_reserved": 0, "lon": -77.00337916666666}, {"fusion_lat": 0.0, "name": "0e691dc8bf73ac02997718cae4c2603b", "is_disabled": 0, "rental_uris": {"android": "https://dc.lft.to/lastmile_qr_scan", "ios": "https://dc.lft.to/lastmile_qr_scan"}, "fusion_lon": 0.0, "lat": 38.9073115, "bike_id": "0e691dc8bf73ac02997718cae4c2603b", "type": "electric_scooter", "is_reserved": 0, "lon": -77.02802433333333}, {"fusion_lat": 0.0, "name": "3e5c5a5adbd4fcf996b0f45aac0e084c", "is_disabled": 0, "rental_uris": {"android": "https://dc.lft.to/lastmile_qr_scan", "ios": "https://dc.lft.to/lastmile_qr_scan"}, "fusion_lon": 0.0, "lat": 38.922486666666664, "bike_id": "3e5c5a5adbd4fcf996b0f45aac0e084c", "type": "electric_scooter", "is_reserved": 0, "lon": -77.03087233333333}, {"fusion_lat": 0.0, "name": "5c7d3557cd4e4e6dc4cf27e37b93b9d1", "is_disabled": 0, "rental_uris": {"android": "https://dc.lft.to/lastmile_qr_scan", "ios": "https://dc.lft.to/lastmile_qr_scan"}, "fusion_lon": 0.0, "lat": 38.887365333333335, "bike_id": "5c7d3557cd4e4e6dc4cf27e37b93b9d1", "type": "electric_scooter", "is_reserved": 0, "lon": -77.01527016666667}, {"fusion_lat": 0.0, "name": "593341dd543e56cb64b3b541b6fa6e38", "is_disabled": 0, "rental_uris": {"android": "https://dc.lft.to/lastmile_qr_scan", "ios": "https://dc.lft.to/lastmile_qr_scan"}, "fusion_lon": 0.0, "lat": 38.93585316666667, "bike_id": "593341dd543e56cb64b3b541b6fa6e38", "type": "electric_scooter", "is_reserved": 0, "lon": -77.03349233333333}, {"fusion_lat": 0.0, "name": "521c04ea6c35b81296037905a123236c", "is_disabled": 0, "rental_uris": {"android": "https://dc.lft.to/lastmile_qr_scan", "ios": "https://dc.lft.to/lastmile_qr_scan"}, "fusion_lon": 0.0, "lat": 38.92285116666667, "bike_id": "521c04ea6c35b81296037905a123236c", "type": "electric_scooter", "is_reserved": 0, "lon": -77.02333133333333}, {"fusion_lat": 0.0, "name": "485b13d3e2758bd685d7cddb97cd2d77", "is_disabled": 0, "rental_uris": {"android": "https://dc.lft.to/lastmile_qr_scan", "ios": "https://dc.lft.to/lastmile_qr_scan"}, "fusion_lon": 0.0, "lat": 38.908387, "bike_id": "485b13d3e2758bd685d7cddb97cd2d77", "type": "electric_bike", "is_reserved": 0, "lon": -77.04352816666666}, {"fusion_lat": 0.0, "name": "6377ba6e025a5c78d69ea719ba10542f", "is_disabled": 0, "rental_uris": {"android": "https://dc.lft.to/lastmile_qr_scan", "ios": "https://dc.lft.to/lastmile_qr_scan"}, "fusion_lon": 0.0, "lat": 38.90620966666667, "bike_id": "6377ba6e025a5c78d69ea719ba10542f", "type": "electric_scooter", "is_reserved": 0, "lon": -77.02535033333334}, {"fusion_lat": 0.0, "name": "68d5972c73baeb2c29b6d9f13af900fd", "is_disabled": 0, "rental_uris": {"android": "https://dc.lft.to/lastmile_qr_scan", "ios": "https://dc.lft.to/lastmile_qr_scan"}, "fusion_lon": 0.0, "lat": 38.921463, "bike_id": "68d5972c73baeb2c29b6d9f13af900fd", "type": "electric_scooter", "is_reserved": 0, "lon": -77.04366466666667}, {"fusion_lat": 0.0, "name": "d70553f007e6bec0909ab40c84e150f1", "is_disabled": 0, "rental_uris": {"android": "https://dc.lft.to/lastmile_qr_scan", "ios": "https://dc.lft.to/lastmile_qr_scan"}, "fusion_lon": 0.0, "lat": 38.883093, "bike_id": "d70553f007e6bec0909ab40c84e150f1", "type": "electric_scooter", "is_reserved": 0, "lon": -77.01387866666667}, {"fusion_lat": 0.0, "name": "fa682761928e8d56236c00abbdd72725", "is_disabled": 0, "rental_uris": {"android": "https://dc.lft.to/lastmile_qr_scan", "ios": "https://dc.lft.to/lastmile_qr_scan"}, "fusion_lon": 0.0, "lat": 38.89219533333333, "bike_id": "fa682761928e8d56236c00abbdd72725", "type": "electric_scooter", "is_reserved": 0, "lon": -77.0322025}, {"fusion_lat": 0.0, "name": "459e2dd09231aa52e3d7f1cb8bbc414d", "is_disabled": 0, "rental_uris": {"android": "https://dc.lft.to/lastmile_qr_scan", "ios": "https://dc.lft.to/lastmile_qr_scan"}, "fusion_lon": 0.0, "lat": 38.917061, "bike_id": "459e2dd09231aa52e3d7f1cb8bbc414d", "type": "electric_scooter", "is_reserved": 0, "lon": -77.02420816666667}, {"fusion_lat": 0.0, "name": "34b733be2cf3f7588e229a628212d372", "is_disabled": 0, "rental_uris": {"android": "https://dc.lft.to/lastmile_qr_scan", "ios": "https://dc.lft.to/lastmile_qr_scan"}, "fusion_lon": 0.0, "lat": 38.90979566666667, "bike_id": "34b733be2cf3f7588e229a628212d372", "type": "electric_scooter", "is_reserved": 0, "lon": -77.03213566666666}, {"fusion_lat": 0.0, "name": "dd11d1a29e318d39fd570ae584d42380", "is_disabled": 0, "rental_uris": {"android": "https://dc.lft.to/lastmile_qr_scan", "ios": "https://dc.lft.to/lastmile_qr_scan"}, "fusion_lon": 0.0, "lat": 38.901491666666665, "bike_id": "dd11d1a29e318d39fd570ae584d42380", "type": "electric_scooter", "is_reserved": 0, "lon": -76.93068283333334}, {"fusion_lat": 0.0, "name": "2e0aa39d7a6a8859d10e94985c8ba3fb", "is_disabled": 0, "rental_uris": {"android": "https://dc.lft.to/lastmile_qr_scan", "ios": "https://dc.lft.to/lastmile_qr_scan"}, "fusion_lon": 0.0, "lat": 38.92808483333334, "bike_id": "2e0aa39d7a6a8859d10e94985c8ba3fb", "type": "electric_scooter", "is_reserved": 0, "lon": -77.04359833333334}, {"fusion_lat": 0.0, "name": "b7bbc8c5937dcdf1911c235655485671", "is_disabled": 0, "rental_uris": {"android": "https://dc.lft.to/lastmile_qr_scan", "ios": "https://dc.lft.to/lastmile_qr_scan"}, "fusion_lon": 0.0, "lat": 38.92232933333333, "bike_id": "b7bbc8c5937dcdf1911c235655485671", "type": "electric_scooter", "is_reserved": 0, "lon": -77.04252116666666}, {"fusion_lat": 0.0, "name": "5d31f4f463284efae86046d43bf9e8a6", "is_disabled": 0, "rental_uris": {"android": "https://dc.lft.to/lastmile_qr_scan", "ios": "https://dc.lft.to/lastmile_qr_scan"}, "fusion_lon": 0.0, "lat": 38.961244, "bike_id": "5d31f4f463284efae86046d43bf9e8a6", "type": "electric_bike", "is_reserved": 0, "lon": -77.03276116666666}, {"fusion_lat": 0.0, "name": "bbaa5c709d06b108db071bbc5496a9f6", "is_disabled": 0, "rental_uris": {"android": "https://dc.lft.to/lastmile_qr_scan", "ios": "https://dc.lft.to/lastmile_qr_scan"}, "fusion_lon": 0.0, "lat": 38.879947, "bike_id": "bbaa5c709d06b108db071bbc5496a9f6", "type": "electric_bike", "is_reserved": 0, "lon": -76.9841015}, {"fusion_lat": 0.0, "name": "f0357584912b8d44e5f94b9200846580", "is_disabled": 0, "rental_uris": {"android": "https://dc.lft.to/lastmile_qr_scan", "ios": "https://dc.lft.to/lastmile_qr_scan"}, "fusion_lon": 0.0, "lat": 38.91417933333334, "bike_id": "f0357584912b8d44e5f94b9200846580", "type": "electric_scooter", "is_reserved": 0, "lon": -77.02814583333334}, {"fusion_lat": 0.0, "name": "70399ad7e5a33ab1f5448390bad78824", "is_disabled": 0, "rental_uris": {"android": "https://dc.lft.to/lastmile_qr_scan", "ios": "https://dc.lft.to/lastmile_qr_scan"}, "fusion_lon": 0.0, "lat": 38.92310483333333, "bike_id": "70399ad7e5a33ab1f5448390bad78824", "type": "electric_scooter", "is_reserved": 0, "lon": -77.04130366666666}, {"fusion_lat": 0.0, "name": "0be6dd80d293f63381c22c1ee5ec27be", "is_disabled": 0, "rental_uris": {"android": "https://dc.lft.to/lastmile_qr_scan", "ios": "https://dc.lft.to/lastmile_qr_scan"}, "fusion_lon": 0.0, "lat": 38.927388666666666, "bike_id": "0be6dd80d293f63381c22c1ee5ec27be", "type": "electric_bike", "is_reserved": 0, "lon": -76.993667}, {"fusion_lat": 0.0, "name": "a2fce8a6acc370c261a8cb38be8a468a", "is_disabled": 0, "rental_uris": {"android": "https://dc.lft.to/lastmile_qr_scan", "ios": "https://dc.lft.to/lastmile_qr_scan"}, "fusion_lon": 0.0, "lat": 38.91710783333333, "bike_id": "a2fce8a6acc370c261a8cb38be8a468a", "type": "electric_scooter", "is_reserved": 0, "lon": -77.03873266666666}, {"fusion_lat": 0.0, "name": "9994df8f067ad2ad36d267564cbf3960", "is_disabled": 0, "rental_uris": {"android": "https://dc.lft.to/lastmile_qr_scan", "ios": "https://dc.lft.to/lastmile_qr_scan"}, "fusion_lon": 0.0, "lat": 38.908475833333334, "bike_id": "9994df8f067ad2ad36d267564cbf3960", "type": "electric_scooter", "is_reserved": 0, "lon": -76.9976385}, {"fusion_lat": 0.0, "name": "e3cb533f9cffae2670a5eb94a4037c54", "is_disabled": 0, "rental_uris": {"android": "https://dc.lft.to/lastmile_qr_scan", "ios": "https://dc.lft.to/lastmile_qr_scan"}, "fusion_lon": 0.0, "lat": 38.92942333333333, "bike_id": "e3cb533f9cffae2670a5eb94a4037c54", "type": "electric_scooter", "is_reserved": 0, "lon": -77.03281533333333}, {"fusion_lat": 0.0, "name": "e5e0e20c4177165723baa4d5cf2892f4", "is_disabled": 0, "rental_uris": {"android": "https://dc.lft.to/lastmile_qr_scan", "ios": "https://dc.lft.to/lastmile_qr_scan"}, "fusion_lon": 0.0, "lat": 38.92869483333333, "bike_id": "e5e0e20c4177165723baa4d5cf2892f4", "type": "electric_scooter", "is_reserved": 0, "lon": -77.01355033333333}, {"fusion_lat": 0.0, "name": "17758eb6805b04335ba5067e5ec1b073", "is_disabled": 0, "rental_uris": {"android": "https://dc.lft.to/lastmile_qr_scan", "ios": "https://dc.lft.to/lastmile_qr_scan"}, "fusion_lon": 0.0, "lat": 38.9115385, "bike_id": "17758eb6805b04335ba5067e5ec1b073", "type": "electric_scooter", "is_reserved": 0, "lon": -77.01111433333334}, {"fusion_lat": 0.0, "name": "70090374f46e33ef5efe6ebd0f6af470", "is_disabled": 0, "rental_uris": {"android": "https://dc.lft.to/lastmile_qr_scan", "ios": "https://dc.lft.to/lastmile_qr_scan"}, "fusion_lon": 0.0, "lat": 38.8784715, "bike_id": "70090374f46e33ef5efe6ebd0f6af470", "type": "electric_scooter", "is_reserved": 0, "lon": -77.00109466666666}, {"fusion_lat": 0.0, "name": "f11d10270f5d53267003de13125defc7", "is_disabled": 0, "rental_uris": {"android": "https://dc.lft.to/lastmile_qr_scan", "ios": "https://dc.lft.to/lastmile_qr_scan"}, "fusion_lon": 0.0, "lat": 38.9373875, "bike_id": "f11d10270f5d53267003de13125defc7", "type": "electric_scooter", "is_reserved": 0, "lon": -77.02439683333333}, {"fusion_lat": 0.0, "name": "100a524145c9dd8a0d8b81fc2c929b28", "is_disabled": 0, "rental_uris": {"android": "https://dc.lft.to/lastmile_qr_scan", "ios": "https://dc.lft.to/lastmile_qr_scan"}, "fusion_lon": 0.0, "lat": 38.910019, "bike_id": "100a524145c9dd8a0d8b81fc2c929b28", "type": "electric_scooter", "is_reserved": 0, "lon": -77.03858983333333}, {"fusion_lat": 0.0, "name": "3c8903a3f78999f43974a1bc04b07a60", "is_disabled": 0, "rental_uris": {"android": "https://dc.lft.to/lastmile_qr_scan", "ios": "https://dc.lft.to/lastmile_qr_scan"}, "fusion_lon": 0.0, "lat": 38.920739, "bike_id": "3c8903a3f78999f43974a1bc04b07a60", "type": "electric_scooter", "is_reserved": 0, "lon": -77.02520733333333}, {"fusion_lat": 0.0, "name": "0fbfa5fbdc572d5c551f523b3410deab", "is_disabled": 0, "rental_uris": {"android": "https://dc.lft.to/lastmile_qr_scan", "ios": "https://dc.lft.to/lastmile_qr_scan"}, "fusion_lon": 0.0, "lat": 38.90717516666667, "bike_id": "0fbfa5fbdc572d5c551f523b3410deab", "type": "electric_scooter", "is_reserved": 0, "lon": -77.00505733333334}, {"fusion_lat": 0.0, "name": "3b9c38337bc333866816dbbf724c9e8f", "is_disabled": 0, "rental_uris": {"android": "https://dc.lft.to/lastmile_qr_scan", "ios": "https://dc.lft.to/lastmile_qr_scan"}, "fusion_lon": 0.0, "lat": 38.877216, "bike_id": "3b9c38337bc333866816dbbf724c9e8f", "type": "electric_scooter", "is_reserved": 0, "lon": -77.01766333333333}, {"fusion_lat": 0.0, "name": "6cca40bf2a90b78918fddffbb0ec79cd", "is_disabled": 0, "rental_uris": {"android": "https://dc.lft.to/lastmile_qr_scan", "ios": "https://dc.lft.to/lastmile_qr_scan"}, "fusion_lon": 0.0, "lat": 38.90709233333333, "bike_id": "6cca40bf2a90b78918fddffbb0ec79cd", "type": "electric_scooter", "is_reserved": 0, "lon": -77.04967166666667}, {"fusion_lat": 0.0, "name": "f477d5c1fae2500f6f0a2d564d880f26", "is_disabled": 0, "rental_uris": {"android": "https://dc.lft.to/lastmile_qr_scan", "ios": "https://dc.lft.to/lastmile_qr_scan"}, "fusion_lon": 0.0, "lat": 38.90683833333333, "bike_id": "f477d5c1fae2500f6f0a2d564d880f26", "type": "electric_scooter", "is_reserved": 0, "lon": -77.02698833333334}, {"fusion_lat": 0.0, "name": "ee7f76c376f8bd9eb3985fce3ce69193", "is_disabled": 0, "rental_uris": {"android": "https://dc.lft.to/lastmile_qr_scan", "ios": "https://dc.lft.to/lastmile_qr_scan"}, "fusion_lon": 0.0, "lat": 38.91419883333333, "bike_id": "ee7f76c376f8bd9eb3985fce3ce69193", "type": "electric_scooter", "is_reserved": 0, "lon": -77.038148}, {"fusion_lat": 0.0, "name": "18c90634c326f30d831fb032cfa5f3d0", "is_disabled": 0, "rental_uris": {"android": "https://dc.lft.to/lastmile_qr_scan", "ios": "https://dc.lft.to/lastmile_qr_scan"}, "fusion_lon": 0.0, "lat": 38.903571666666664, "bike_id": "18c90634c326f30d831fb032cfa5f3d0", "type": "electric_scooter", "is_reserved": 0, "lon": -77.00730833333333}, {"fusion_lat": 0.0, "name": "a5ecae8fcebc01aab6589c2c1896cef8", "is_disabled": 0, "rental_uris": {"android": "https://dc.lft.to/lastmile_qr_scan", "ios": "https://dc.lft.to/lastmile_qr_scan"}, "fusion_lon": 0.0, "lat": 38.8710435, "bike_id": "a5ecae8fcebc01aab6589c2c1896cef8", "type": "electric_scooter", "is_reserved": 0, "lon": -76.9657465}, {"fusion_lat": 0.0, "name": "f475eaf726874ccb56b09193bbebfb50", "is_disabled": 0, "rental_uris": {"android": "https://dc.lft.to/lastmile_qr_scan", "ios": "https://dc.lft.to/lastmile_qr_scan"}, "fusion_lon": 0.0, "lat": 38.9209425, "bike_id": "f475eaf726874ccb56b09193bbebfb50", "type": "electric_scooter", "is_reserved": 0, "lon": -77.0252325}, {"fusion_lat": 0.0, "name": "b7573cffc67958f8c1156937e8528940", "is_disabled": 0, "rental_uris": {"android": "https://dc.lft.to/lastmile_qr_scan", "ios": "https://dc.lft.to/lastmile_qr_scan"}, "fusion_lon": 0.0, "lat": 38.91705366666667, "bike_id": "b7573cffc67958f8c1156937e8528940", "type": "electric_scooter", "is_reserved": 0, "lon": -77.03466883333333}, {"fusion_lat": 0.0, "name": "f3f7803fef1df4554e0ad090971f8eb7", "is_disabled": 0, "rental_uris": {"android": "https://dc.lft.to/lastmile_qr_scan", "ios": "https://dc.lft.to/lastmile_qr_scan"}, "fusion_lon": 0.0, "lat": 38.91546233333333, "bike_id": "f3f7803fef1df4554e0ad090971f8eb7", "type": "electric_scooter", "is_reserved": 0, "lon": -77.0384975}, {"fusion_lat": 0.0, "name": "7e9e810ef5ef06e2b34bf98b93d8263b", "is_disabled": 0, "rental_uris": {"android": "https://dc.lft.to/lastmile_qr_scan", "ios": "https://dc.lft.to/lastmile_qr_scan"}, "fusion_lon": 0.0, "lat": 38.88344933333333, "bike_id": "7e9e810ef5ef06e2b34bf98b93d8263b", "type": "electric_scooter", "is_reserved": 0, "lon": -76.93505166666667}, {"fusion_lat": 0.0, "name": "8275651ef0f5dc46bfc28c1a1277ab67", "is_disabled": 0, "rental_uris": {"android": "https://dc.lft.to/lastmile_qr_scan", "ios": "https://dc.lft.to/lastmile_qr_scan"}, "fusion_lon": 0.0, "lat": 38.915646833333334, "bike_id": "8275651ef0f5dc46bfc28c1a1277ab67", "type": "electric_scooter", "is_reserved": 0, "lon": -77.01034233333333}, {"fusion_lat": 0.0, "name": "1323245ba0148005578703d3ca1b63d0", "is_disabled": 0, "rental_uris": {"android": "https://dc.lft.to/lastmile_qr_scan", "ios": "https://dc.lft.to/lastmile_qr_scan"}, "fusion_lon": 0.0, "lat": 38.890232166666664, "bike_id": "1323245ba0148005578703d3ca1b63d0", "type": "electric_scooter", "is_reserved": 0, "lon": -77.03183266666667}, {"fusion_lat": 0.0, "name": "c4cf221f1d1098f81e5e3ef3849ede81", "is_disabled": 0, "rental_uris": {"android": "https://dc.lft.to/lastmile_qr_scan", "ios": "https://dc.lft.to/lastmile_qr_scan"}, "fusion_lon": 0.0, "lat": 38.9438505, "bike_id": "c4cf221f1d1098f81e5e3ef3849ede81", "type": "electric_scooter", "is_reserved": 0, "lon": -77.09505283333333}, {"fusion_lat": 0.0, "name": "94263112467f304ef6ba3642c66e0b49", "is_disabled": 0, "rental_uris": {"android": "https://dc.lft.to/lastmile_qr_scan", "ios": "https://dc.lft.to/lastmile_qr_scan"}, "fusion_lon": 0.0, "lat": 38.931413666666664, "bike_id": "94263112467f304ef6ba3642c66e0b49", "type": "electric_bike", "is_reserved": 0, "lon": -77.0007175}, {"fusion_lat": 0.0, "name": "df4d0a047ff97701639b7f849d50fd83", "is_disabled": 0, "rental_uris": {"android": "https://dc.lft.to/lastmile_qr_scan", "ios": "https://dc.lft.to/lastmile_qr_scan"}, "fusion_lon": 0.0, "lat": 38.947245833333334, "bike_id": "df4d0a047ff97701639b7f849d50fd83", "type": "electric_scooter", "is_reserved": 0, "lon": -77.06542716666667}, {"fusion_lat": 0.0, "name": "08915c1e275e173c7a3a363bfbb29911", "is_disabled": 0, "rental_uris": {"android": "https://dc.lft.to/lastmile_qr_scan", "ios": "https://dc.lft.to/lastmile_qr_scan"}, "fusion_lon": 0.0, "lat": 38.90126866666667, "bike_id": "08915c1e275e173c7a3a363bfbb29911", "type": "electric_scooter", "is_reserved": 0, "lon": -77.044647}, {"fusion_lat": 0.0, "name": "0dbe708bf13769929f4781b868622de5", "is_disabled": 0, "rental_uris": {"android": "https://dc.lft.to/lastmile_qr_scan", "ios": "https://dc.lft.to/lastmile_qr_scan"}, "fusion_lon": 0.0, "lat": 38.952811, "bike_id": "0dbe708bf13769929f4781b868622de5", "type": "electric_scooter", "is_reserved": 0, "lon": -77.06874416666666}, {"fusion_lat": 0.0, "name": "c9154997c1fc48a9ca72ed2f071dc583", "is_disabled": 0, "rental_uris": {"android": "https://dc.lft.to/lastmile_qr_scan", "ios": "https://dc.lft.to/lastmile_qr_scan"}, "fusion_lon": 0.0, "lat": 38.928976166666665, "bike_id": "c9154997c1fc48a9ca72ed2f071dc583", "type": "electric_scooter", "is_reserved": 0, "lon": -77.03260166666666}, {"fusion_lat": 0.0, "name": "9c9b781924c163b97a67b24f52fb5c82", "is_disabled": 0, "rental_uris": {"android": "https://dc.lft.to/lastmile_qr_scan", "ios": "https://dc.lft.to/lastmile_qr_scan"}, "fusion_lon": 0.0, "lat": 38.915888833333334, "bike_id": "9c9b781924c163b97a67b24f52fb5c82", "type": "electric_scooter", "is_reserved": 0, "lon": -77.0433285}, {"fusion_lat": 0.0, "name": "5cb97bd9502f94c1fee6fcad0e897ffa", "is_disabled": 0, "rental_uris": {"android": "https://dc.lft.to/lastmile_qr_scan", "ios": "https://dc.lft.to/lastmile_qr_scan"}, "fusion_lon": 0.0, "lat": 38.916033, "bike_id": "5cb97bd9502f94c1fee6fcad0e897ffa", "type": "electric_scooter", "is_reserved": 0, "lon": -77.02301516666667}, {"fusion_lat": 0.0, "name": "e5eba972f820a7230aa400268f73dcea", "is_disabled": 0, "rental_uris": {"android": "https://dc.lft.to/lastmile_qr_scan", "ios": "https://dc.lft.to/lastmile_qr_scan"}, "fusion_lon": 0.0, "lat": 38.885022666666664, "bike_id": "e5eba972f820a7230aa400268f73dcea", "type": "electric_scooter", "is_reserved": 0, "lon": -77.01477516666667}, {"fusion_lat": 0.0, "name": "dfaef474b8b0dce37f009bf2359c560a", "is_disabled": 0, "rental_uris": {"android": "https://dc.lft.to/lastmile_qr_scan", "ios": "https://dc.lft.to/lastmile_qr_scan"}, "fusion_lon": 0.0, "lat": 38.92376316666667, "bike_id": "dfaef474b8b0dce37f009bf2359c560a", "type": "electric_scooter", "is_reserved": 0, "lon": -77.05153}, {"fusion_lat": 0.0, "name": "6e0f0e270b9f7999572e540261acfc27", "is_disabled": 0, "rental_uris": {"android": "https://dc.lft.to/lastmile_qr_scan", "ios": "https://dc.lft.to/lastmile_qr_scan"}, "fusion_lon": 0.0, "lat": 38.95082633333333, "bike_id": "6e0f0e270b9f7999572e540261acfc27", "type": "electric_scooter", "is_reserved": 0, "lon": -77.027152}, {"fusion_lat": 0.0, "name": "c617436191f90a184892ff4f99f39242", "is_disabled": 0, "rental_uris": {"android": "https://dc.lft.to/lastmile_qr_scan", "ios": "https://dc.lft.to/lastmile_qr_scan"}, "fusion_lon": 0.0, "lat": 38.895876666666666, "bike_id": "c617436191f90a184892ff4f99f39242", "type": "electric_scooter", "is_reserved": 0, "lon": -77.02173883333333}, {"fusion_lat": 0.0, "name": "d54372286a0fbb8e004fa917690a8c22", "is_disabled": 0, "rental_uris": {"android": "https://dc.lft.to/lastmile_qr_scan", "ios": "https://dc.lft.to/lastmile_qr_scan"}, "fusion_lon": 0.0, "lat": 38.916904833333334, "bike_id": "d54372286a0fbb8e004fa917690a8c22", "type": "electric_scooter", "is_reserved": 0, "lon": -77.02597516666667}, {"fusion_lat": 0.0, "name": "4b98a30e63e10f0e81a8cd20734923a7", "is_disabled": 0, "rental_uris": {"android": "https://dc.lft.to/lastmile_qr_scan", "ios": "https://dc.lft.to/lastmile_qr_scan"}, "fusion_lon": 0.0, "lat": 38.945103333333336, "bike_id": "4b98a30e63e10f0e81a8cd20734923a7", "type": "electric_bike", "is_reserved": 0, "lon": -77.00674316666667}, {"fusion_lat": 0.0, "name": "1a087e6b1b8787ff7b7778fcfa8d7819", "is_disabled": 0, "rental_uris": {"android": "https://dc.lft.to/lastmile_qr_scan", "ios": "https://dc.lft.to/lastmile_qr_scan"}, "fusion_lon": 0.0, "lat": 38.876655666666665, "bike_id": "1a087e6b1b8787ff7b7778fcfa8d7819", "type": "electric_scooter", "is_reserved": 0, "lon": -77.00064783333333}, {"fusion_lat": 0.0, "name": "b277ac21bb152d8aa53f76f2b032b096", "is_disabled": 0, "rental_uris": {"android": "https://dc.lft.to/lastmile_qr_scan", "ios": "https://dc.lft.to/lastmile_qr_scan"}, "fusion_lon": 0.0, "lat": 38.911125166666665, "bike_id": "b277ac21bb152d8aa53f76f2b032b096", "type": "electric_scooter", "is_reserved": 0, "lon": -77.01737866666667}, {"fusion_lat": 0.0, "name": "cf2de6c52a24c8638eb005850cd05d1e", "is_disabled": 0, "rental_uris": {"android": "https://dc.lft.to/lastmile_qr_scan", "ios": "https://dc.lft.to/lastmile_qr_scan"}, "fusion_lon": 0.0, "lat": 38.90458266666667, "bike_id": "cf2de6c52a24c8638eb005850cd05d1e", "type": "electric_scooter", "is_reserved": 0, "lon": -77.05326216666667}, {"fusion_lat": 0.0, "name": "3ac236141392a6ff9ccca807ecd2de5a", "is_disabled": 0, "rental_uris": {"android": "https://dc.lft.to/lastmile_qr_scan", "ios": "https://dc.lft.to/lastmile_qr_scan"}, "fusion_lon": 0.0, "lat": 38.93175133333333, "bike_id": "3ac236141392a6ff9ccca807ecd2de5a", "type": "electric_scooter", "is_reserved": 0, "lon": -77.03298816666667}, {"fusion_lat": 0.0, "name": "3694a76d2057d1ddfc9202aab6fc1c39", "is_disabled": 0, "rental_uris": {"android": "https://dc.lft.to/lastmile_qr_scan", "ios": "https://dc.lft.to/lastmile_qr_scan"}, "fusion_lon": 0.0, "lat": 38.90904283333333, "bike_id": "3694a76d2057d1ddfc9202aab6fc1c39", "type": "electric_scooter", "is_reserved": 0, "lon": -77.0441385}, {"fusion_lat": 0.0, "name": "96b5851f67de1ede01b6395fc0ab6731", "is_disabled": 0, "rental_uris": {"android": "https://dc.lft.to/lastmile_qr_scan", "ios": "https://dc.lft.to/lastmile_qr_scan"}, "fusion_lon": 0.0, "lat": 38.9306085, "bike_id": "96b5851f67de1ede01b6395fc0ab6731", "type": "electric_scooter", "is_reserved": 0, "lon": -77.03950083333334}, {"fusion_lat": 0.0, "name": "eb810d3c31773777ffbd22ced1637236", "is_disabled": 0, "rental_uris": {"android": "https://dc.lft.to/lastmile_qr_scan", "ios": "https://dc.lft.to/lastmile_qr_scan"}, "fusion_lon": 0.0, "lat": 38.90486416666667, "bike_id": "eb810d3c31773777ffbd22ced1637236", "type": "electric_scooter", "is_reserved": 0, "lon": -76.949578}, {"fusion_lat": 0.0, "name": "5ba864fabf9fe5bf7d2ed8fc4f78a697", "is_disabled": 0, "rental_uris": {"android": "https://dc.lft.to/lastmile_qr_scan", "ios": "https://dc.lft.to/lastmile_qr_scan"}, "fusion_lon": 0.0, "lat": 38.8934985, "bike_id": "5ba864fabf9fe5bf7d2ed8fc4f78a697", "type": "electric_scooter", "is_reserved": 0, "lon": -76.98655466666666}, {"fusion_lat": 0.0, "name": "73afaf24fd7a6dc0f5d897d775a6e060", "is_disabled": 0, "rental_uris": {"android": "https://dc.lft.to/lastmile_qr_scan", "ios": "https://dc.lft.to/lastmile_qr_scan"}, "fusion_lon": 0.0, "lat": 38.898892000000004, "bike_id": "73afaf24fd7a6dc0f5d897d775a6e060", "type": "electric_scooter", "is_reserved": 0, "lon": -77.0014885}, {"fusion_lat": 0.0, "name": "3da55aac19fcbbbc63b8c353293f7706", "is_disabled": 0, "rental_uris": {"android": "https://dc.lft.to/lastmile_qr_scan", "ios": "https://dc.lft.to/lastmile_qr_scan"}, "fusion_lon": 0.0, "lat": 38.905079, "bike_id": "3da55aac19fcbbbc63b8c353293f7706", "type": "electric_scooter", "is_reserved": 0, "lon": -77.04822083333333}, {"fusion_lat": 0.0, "name": "c542fe3286d7dced3180e6a422647c79", "is_disabled": 0, "rental_uris": {"android": "https://dc.lft.to/lastmile_qr_scan", "ios": "https://dc.lft.to/lastmile_qr_scan"}, "fusion_lon": 0.0, "lat": 38.934115, "bike_id": "c542fe3286d7dced3180e6a422647c79", "type": "electric_scooter", "is_reserved": 0, "lon": -77.022056}, {"fusion_lat": 0.0, "name": "cd409f74666dc3c777dad9b177d0d8ef", "is_disabled": 0, "rental_uris": {"android": "https://dc.lft.to/lastmile_qr_scan", "ios": "https://dc.lft.to/lastmile_qr_scan"}, "fusion_lon": 0.0, "lat": 38.9300575, "bike_id": "cd409f74666dc3c777dad9b177d0d8ef", "type": "electric_scooter", "is_reserved": 0, "lon": -77.032557}, {"fusion_lat": 0.0, "name": "b00b571d992c2536ee63cba156d32dea", "is_disabled": 0, "rental_uris": {"android": "https://dc.lft.to/lastmile_qr_scan", "ios": "https://dc.lft.to/lastmile_qr_scan"}, "fusion_lon": 0.0, "lat": 38.909044, "bike_id": "b00b571d992c2536ee63cba156d32dea", "type": "electric_scooter", "is_reserved": 0, "lon": -77.026099}, {"fusion_lat": 0.0, "name": "d5f89a1db73eb6abacfa08b65df31487", "is_disabled": 0, "rental_uris": {"android": "https://dc.lft.to/lastmile_qr_scan", "ios": "https://dc.lft.to/lastmile_qr_scan"}, "fusion_lon": 0.0, "lat": 38.90543533333334, "bike_id": "d5f89a1db73eb6abacfa08b65df31487", "type": "electric_scooter", "is_reserved": 0, "lon": -77.046483}, {"fusion_lat": 0.0, "name": "01f0b58201dc37e73b4c7171de4262be", "is_disabled": 0, "rental_uris": {"android": "https://dc.lft.to/lastmile_qr_scan", "ios": "https://dc.lft.to/lastmile_qr_scan"}, "fusion_lon": 0.0, "lat": 38.9115555, "bike_id": "01f0b58201dc37e73b4c7171de4262be", "type": "electric_scooter", "is_reserved": 0, "lon": -77.04346683333333}, {"fusion_lat": 0.0, "name": "d30f0d558d84d24bf0d7cfa9f922a341", "is_disabled": 0, "rental_uris": {"android": "https://dc.lft.to/lastmile_qr_scan", "ios": "https://dc.lft.to/lastmile_qr_scan"}, "fusion_lon": 0.0, "lat": 38.92021366666667, "bike_id": "d30f0d558d84d24bf0d7cfa9f922a341", "type": "electric_scooter", "is_reserved": 0, "lon": -77.027145}, {"fusion_lat": 0.0, "name": "10d1b502733ad138666f21aaeea0dc09", "is_disabled": 0, "rental_uris": {"android": "https://dc.lft.to/lastmile_qr_scan", "ios": "https://dc.lft.to/lastmile_qr_scan"}, "fusion_lon": 0.0, "lat": 38.90148516666667, "bike_id": "10d1b502733ad138666f21aaeea0dc09", "type": "electric_scooter", "is_reserved": 0, "lon": -77.02560966666667}, {"fusion_lat": 0.0, "name": "65f446a0c6063595f9ba82a17c546b93", "is_disabled": 0, "rental_uris": {"android": "https://dc.lft.to/lastmile_qr_scan", "ios": "https://dc.lft.to/lastmile_qr_scan"}, "fusion_lon": 0.0, "lat": 38.87135833333333, "bike_id": "65f446a0c6063595f9ba82a17c546b93", "type": "electric_scooter", "is_reserved": 0, "lon": -77.01221166666667}, {"fusion_lat": 0.0, "name": "003e992aea52bdcb9b8e65d47127fb9a", "is_disabled": 0, "rental_uris": {"android": "https://dc.lft.to/lastmile_qr_scan", "ios": "https://dc.lft.to/lastmile_qr_scan"}, "fusion_lon": 0.0, "lat": 38.9357235, "bike_id": "003e992aea52bdcb9b8e65d47127fb9a", "type": "electric_scooter", "is_reserved": 0, "lon": -77.01924983333333}, {"fusion_lat": 0.0, "name": "51c0d4797c1628a88ba926df7de8bf71", "is_disabled": 0, "rental_uris": {"android": "https://dc.lft.to/lastmile_qr_scan", "ios": "https://dc.lft.to/lastmile_qr_scan"}, "fusion_lon": 0.0, "lat": 38.9129145, "bike_id": "51c0d4797c1628a88ba926df7de8bf71", "type": "electric_scooter", "is_reserved": 0, "lon": -77.04517966666667}, {"fusion_lat": 0.0, "name": "9eec6a7f7a3f01acfc65fab38612b54b", "is_disabled": 0, "rental_uris": {"android": "https://dc.lft.to/lastmile_qr_scan", "ios": "https://dc.lft.to/lastmile_qr_scan"}, "fusion_lon": 0.0, "lat": 38.878086333333336, "bike_id": "9eec6a7f7a3f01acfc65fab38612b54b", "type": "electric_scooter", "is_reserved": 0, "lon": -77.01530916666667}, {"fusion_lat": 0.0, "name": "5eb51226fb4fb8b601caa9b239281cc0", "is_disabled": 0, "rental_uris": {"android": "https://dc.lft.to/lastmile_qr_scan", "ios": "https://dc.lft.to/lastmile_qr_scan"}, "fusion_lon": 0.0, "lat": 38.92782916666667, "bike_id": "5eb51226fb4fb8b601caa9b239281cc0", "type": "electric_scooter", "is_reserved": 0, "lon": -77.04304916666666}, {"fusion_lat": 0.0, "name": "dad5035f11f3cb871c9c8c1b63c865b6", "is_disabled": 0, "rental_uris": {"android": "https://dc.lft.to/lastmile_qr_scan", "ios": "https://dc.lft.to/lastmile_qr_scan"}, "fusion_lon": 0.0, "lat": 38.91609016666666, "bike_id": "dad5035f11f3cb871c9c8c1b63c865b6", "type": "electric_scooter", "is_reserved": 0, "lon": -77.04586333333333}, {"fusion_lat": 0.0, "name": "4ae298b4aaea0ff3ba361ba6f3d2df30", "is_disabled": 0, "rental_uris": {"android": "https://dc.lft.to/lastmile_qr_scan", "ios": "https://dc.lft.to/lastmile_qr_scan"}, "fusion_lon": 0.0, "lat": 38.935039333333336, "bike_id": "4ae298b4aaea0ff3ba361ba6f3d2df30", "type": "electric_scooter", "is_reserved": 0, "lon": -77.03635316666667}, {"fusion_lat": 0.0, "name": "86340f95ca3f432311c3872e19bfcd73", "is_disabled": 0, "rental_uris": {"android": "https://dc.lft.to/lastmile_qr_scan", "ios": "https://dc.lft.to/lastmile_qr_scan"}, "fusion_lon": 0.0, "lat": 38.92249983333333, "bike_id": "86340f95ca3f432311c3872e19bfcd73", "type": "electric_scooter", "is_reserved": 0, "lon": -77.0338705}, {"fusion_lat": 0.0, "name": "c6e1bacb1d54094fff8e34e00fc59484", "is_disabled": 0, "rental_uris": {"android": "https://dc.lft.to/lastmile_qr_scan", "ios": "https://dc.lft.to/lastmile_qr_scan"}, "fusion_lon": 0.0, "lat": 38.89220483333333, "bike_id": "c6e1bacb1d54094fff8e34e00fc59484", "type": "electric_scooter", "is_reserved": 0, "lon": -77.0265545}, {"fusion_lat": 0.0, "name": "08b7cef1b8ec6fa218cca1b852661112", "is_disabled": 0, "rental_uris": {"android": "https://dc.lft.to/lastmile_qr_scan", "ios": "https://dc.lft.to/lastmile_qr_scan"}, "fusion_lon": 0.0, "lat": 38.897457833333334, "bike_id": "08b7cef1b8ec6fa218cca1b852661112", "type": "electric_scooter", "is_reserved": 0, "lon": -77.02719166666667}, {"fusion_lat": 0.0, "name": "0bd6315aa47ba1f6e1e6053b61c53ad6", "is_disabled": 0, "rental_uris": {"android": "https://dc.lft.to/lastmile_qr_scan", "ios": "https://dc.lft.to/lastmile_qr_scan"}, "fusion_lon": 0.0, "lat": 38.90005466666667, "bike_id": "0bd6315aa47ba1f6e1e6053b61c53ad6", "type": "electric_scooter", "is_reserved": 0, "lon": -77.02401666666667}, {"fusion_lat": 0.0, "name": "0024eaaf4ce9cd470128771a1ee81468", "is_disabled": 0, "rental_uris": {"android": "https://dc.lft.to/lastmile_qr_scan", "ios": "https://dc.lft.to/lastmile_qr_scan"}, "fusion_lon": 0.0, "lat": 38.89960033333333, "bike_id": "0024eaaf4ce9cd470128771a1ee81468", "type": "electric_scooter", "is_reserved": 0, "lon": -76.98572716666666}, {"fusion_lat": 0.0, "name": "0674807c16de457185f56d411ff5b3ef", "is_disabled": 0, "rental_uris": {"android": "https://dc.lft.to/lastmile_qr_scan", "ios": "https://dc.lft.to/lastmile_qr_scan"}, "fusion_lon": 0.0, "lat": 38.92987733333333, "bike_id": "0674807c16de457185f56d411ff5b3ef", "type": "electric_scooter", "is_reserved": 0, "lon": -77.034759}, {"fusion_lat": 0.0, "name": "e74edf4a011866f4e7d0e71d413ed238", "is_disabled": 0, "rental_uris": {"android": "https://dc.lft.to/lastmile_qr_scan", "ios": "https://dc.lft.to/lastmile_qr_scan"}, "fusion_lon": 0.0, "lat": 38.896983, "bike_id": "e74edf4a011866f4e7d0e71d413ed238", "type": "electric_scooter", "is_reserved": 0, "lon": -77.02596183333333}, {"fusion_lat": 0.0, "name": "4ffeaaf71bcb7611f2cb0529b8872b14", "is_disabled": 0, "rental_uris": {"android": "https://dc.lft.to/lastmile_qr_scan", "ios": "https://dc.lft.to/lastmile_qr_scan"}, "fusion_lon": 0.0, "lat": 38.90360716666667, "bike_id": "4ffeaaf71bcb7611f2cb0529b8872b14", "type": "electric_scooter", "is_reserved": 0, "lon": -77.00345483333334}, {"fusion_lat": 0.0, "name": "c0ddc35a2c938d6921774c405f47a518", "is_disabled": 0, "rental_uris": {"android": "https://dc.lft.to/lastmile_qr_scan", "ios": "https://dc.lft.to/lastmile_qr_scan"}, "fusion_lon": 0.0, "lat": 38.914758166666665, "bike_id": "c0ddc35a2c938d6921774c405f47a518", "type": "electric_scooter", "is_reserved": 0, "lon": -77.03217516666666}, {"fusion_lat": 0.0, "name": "d7e580d03b951b949c4a3f56085a8c75", "is_disabled": 0, "rental_uris": {"android": "https://dc.lft.to/lastmile_qr_scan", "ios": "https://dc.lft.to/lastmile_qr_scan"}, "fusion_lon": 0.0, "lat": 38.921207833333334, "bike_id": "d7e580d03b951b949c4a3f56085a8c75", "type": "electric_scooter", "is_reserved": 0, "lon": -77.0443585}, {"fusion_lat": 0.0, "name": "8c4019bd49def2617d89210736d07c77", "is_disabled": 0, "rental_uris": {"android": "https://dc.lft.to/lastmile_qr_scan", "ios": "https://dc.lft.to/lastmile_qr_scan"}, "fusion_lon": 0.0, "lat": 38.90799616666666, "bike_id": "8c4019bd49def2617d89210736d07c77", "type": "electric_scooter", "is_reserved": 0, "lon": -77.043512}, {"fusion_lat": 0.0, "name": "a2c11740336580a7b172fc6699983e5d", "is_disabled": 0, "rental_uris": {"android": "https://dc.lft.to/lastmile_qr_scan", "ios": "https://dc.lft.to/lastmile_qr_scan"}, "fusion_lon": 0.0, "lat": 38.87647416666667, "bike_id": "a2c11740336580a7b172fc6699983e5d", "type": "electric_scooter", "is_reserved": 0, "lon": -77.00114066666667}, {"fusion_lat": 0.0, "name": "0a0c2a9aa7fc69701c46a778e013e519", "is_disabled": 0, "rental_uris": {"android": "https://dc.lft.to/lastmile_qr_scan", "ios": "https://dc.lft.to/lastmile_qr_scan"}, "fusion_lon": 0.0, "lat": 38.83601, "bike_id": "0a0c2a9aa7fc69701c46a778e013e519", "type": "electric_bike", "is_reserved": 0, "lon": -77.00380733333333}, {"fusion_lat": 0.0, "name": "6fc04f94757411e27ca0d392f27cf475", "is_disabled": 0, "rental_uris": {"android": "https://dc.lft.to/lastmile_qr_scan", "ios": "https://dc.lft.to/lastmile_qr_scan"}, "fusion_lon": 0.0, "lat": 38.887965666666666, "bike_id": "6fc04f94757411e27ca0d392f27cf475", "type": "electric_bike", "is_reserved": 0, "lon": -76.9299615}, {"fusion_lat": 0.0, "name": "9f7b53ad002cf47d181d3533e2e2962e", "is_disabled": 0, "rental_uris": {"android": "https://dc.lft.to/lastmile_qr_scan", "ios": "https://dc.lft.to/lastmile_qr_scan"}, "fusion_lon": 0.0, "lat": 38.935095833333335, "bike_id": "9f7b53ad002cf47d181d3533e2e2962e", "type": "electric_scooter", "is_reserved": 0, "lon": -77.0329415}, {"fusion_lat": 0.0, "name": "e43b57d93701995383308ba6de394b28", "is_disabled": 0, "rental_uris": {"android": "https://dc.lft.to/lastmile_qr_scan", "ios": "https://dc.lft.to/lastmile_qr_scan"}, "fusion_lon": 0.0, "lat": 38.921774, "bike_id": "e43b57d93701995383308ba6de394b28", "type": "electric_scooter", "is_reserved": 0, "lon": -77.026649}, {"fusion_lat": 0.0, "name": "9344fa87b2461dd9baaae3d04801ac75", "is_disabled": 0, "rental_uris": {"android": "https://dc.lft.to/lastmile_qr_scan", "ios": "https://dc.lft.to/lastmile_qr_scan"}, "fusion_lon": 0.0, "lat": 38.91546566666667, "bike_id": "9344fa87b2461dd9baaae3d04801ac75", "type": "electric_scooter", "is_reserved": 0, "lon": -77.046119}, {"fusion_lat": 0.0, "name": "b4e10c0171fa6eb19f2862b702caac69", "is_disabled": 0, "rental_uris": {"android": "https://dc.lft.to/lastmile_qr_scan", "ios": "https://dc.lft.to/lastmile_qr_scan"}, "fusion_lon": 0.0, "lat": 38.8651515, "bike_id": "b4e10c0171fa6eb19f2862b702caac69", "type": "electric_bike", "is_reserved": 0, "lon": -77.12938833333334}, {"fusion_lat": 0.0, "name": "d8af4edfcebab5402e669d45dde0de8f", "is_disabled": 0, "rental_uris": {"android": "https://dc.lft.to/lastmile_qr_scan", "ios": "https://dc.lft.to/lastmile_qr_scan"}, "fusion_lon": 0.0, "lat": 38.916485333333334, "bike_id": "d8af4edfcebab5402e669d45dde0de8f", "type": "electric_scooter", "is_reserved": 0, "lon": -77.0095495}, {"fusion_lat": 0.0, "name": "039057822696967510cb4b18ae8f8357", "is_disabled": 0, "rental_uris": {"android": "https://dc.lft.to/lastmile_qr_scan", "ios": "https://dc.lft.to/lastmile_qr_scan"}, "fusion_lon": 0.0, "lat": 38.903887166666664, "bike_id": "039057822696967510cb4b18ae8f8357", "type": "electric_scooter", "is_reserved": 0, "lon": -77.01758433333333}, {"fusion_lat": 0.0, "name": "2e6c7d04445d12f939b9a7ed54ee0686", "is_disabled": 0, "rental_uris": {"android": "https://dc.lft.to/lastmile_qr_scan", "ios": "https://dc.lft.to/lastmile_qr_scan"}, "fusion_lon": 0.0, "lat": 38.901342, "bike_id": "2e6c7d04445d12f939b9a7ed54ee0686", "type": "electric_scooter", "is_reserved": 0, "lon": -77.02329016666667}, {"fusion_lat": 0.0, "name": "5f578eff05b542b17fed39cbe09e7332", "is_disabled": 0, "rental_uris": {"android": "https://dc.lft.to/lastmile_qr_scan", "ios": "https://dc.lft.to/lastmile_qr_scan"}, "fusion_lon": 0.0, "lat": 38.91406033333333, "bike_id": "5f578eff05b542b17fed39cbe09e7332", "type": "electric_scooter", "is_reserved": 0, "lon": -77.0424395}, {"fusion_lat": 0.0, "name": "3a6da4a7e61955eaf8466989ed9fc611", "is_disabled": 0, "rental_uris": {"android": "https://dc.lft.to/lastmile_qr_scan", "ios": "https://dc.lft.to/lastmile_qr_scan"}, "fusion_lon": 0.0, "lat": 38.91257483333333, "bike_id": "3a6da4a7e61955eaf8466989ed9fc611", "type": "electric_scooter", "is_reserved": 0, "lon": -77.03632916666666}, {"fusion_lat": 0.0, "name": "59c93b365c2a6489b5b73a3c2db81d13", "is_disabled": 0, "rental_uris": {"android": "https://dc.lft.to/lastmile_qr_scan", "ios": "https://dc.lft.to/lastmile_qr_scan"}, "fusion_lon": 0.0, "lat": 38.9295685, "bike_id": "59c93b365c2a6489b5b73a3c2db81d13", "type": "electric_scooter", "is_reserved": 0, "lon": -77.03100816666667}, {"fusion_lat": 0.0, "name": "e40cee133b6ba7f235ff9bf136f0f292", "is_disabled": 0, "rental_uris": {"android": "https://dc.lft.to/lastmile_qr_scan", "ios": "https://dc.lft.to/lastmile_qr_scan"}, "fusion_lon": 0.0, "lat": 38.88766416666667, "bike_id": "e40cee133b6ba7f235ff9bf136f0f292", "type": "electric_scooter", "is_reserved": 0, "lon": -77.02865433333334}, {"fusion_lat": 0.0, "name": "b49c41a151c3b1efb7da92a078df90b4", "is_disabled": 0, "rental_uris": {"android": "https://dc.lft.to/lastmile_qr_scan", "ios": "https://dc.lft.to/lastmile_qr_scan"}, "fusion_lon": 0.0, "lat": 38.9017545, "bike_id": "b49c41a151c3b1efb7da92a078df90b4", "type": "electric_scooter", "is_reserved": 0, "lon": -77.0249165}, {"fusion_lat": 0.0, "name": "67af9028bc9649231c1d207e16bde36f", "is_disabled": 0, "rental_uris": {"android": "https://dc.lft.to/lastmile_qr_scan", "ios": "https://dc.lft.to/lastmile_qr_scan"}, "fusion_lon": 0.0, "lat": 38.9167745, "bike_id": "67af9028bc9649231c1d207e16bde36f", "type": "electric_scooter", "is_reserved": 0, "lon": -77.0368965}, {"fusion_lat": 0.0, "name": "2c2e088a278b7fb4691e25e4f26c1330", "is_disabled": 0, "rental_uris": {"android": "https://dc.lft.to/lastmile_qr_scan", "ios": "https://dc.lft.to/lastmile_qr_scan"}, "fusion_lon": 0.0, "lat": 38.905392666666664, "bike_id": "2c2e088a278b7fb4691e25e4f26c1330", "type": "electric_scooter", "is_reserved": 0, "lon": -76.981984}, {"fusion_lat": 0.0, "name": "e62ff1382bf5b8b1e99b223fde2de97f", "is_disabled": 0, "rental_uris": {"android": "https://dc.lft.to/lastmile_qr_scan", "ios": "https://dc.lft.to/lastmile_qr_scan"}, "fusion_lon": 0.0, "lat": 38.90254683333333, "bike_id": "e62ff1382bf5b8b1e99b223fde2de97f", "type": "electric_scooter", "is_reserved": 0, "lon": -77.06319966666666}, {"fusion_lat": 0.0, "name": "96e02f7085114bbe7d7c34d89a9dda1e", "is_disabled": 0, "rental_uris": {"android": "https://dc.lft.to/lastmile_qr_scan", "ios": "https://dc.lft.to/lastmile_qr_scan"}, "fusion_lon": 0.0, "lat": 38.9666805, "bike_id": "96e02f7085114bbe7d7c34d89a9dda1e", "type": "electric_scooter", "is_reserved": 0, "lon": -77.02552566666667}, {"fusion_lat": 0.0, "name": "d2c77d8f66b39232d3ac29c10d22c4c2", "is_disabled": 0, "rental_uris": {"android": "https://dc.lft.to/lastmile_qr_scan", "ios": "https://dc.lft.to/lastmile_qr_scan"}, "fusion_lon": 0.0, "lat": 38.90552116666667, "bike_id": "d2c77d8f66b39232d3ac29c10d22c4c2", "type": "electric_scooter", "is_reserved": 0, "lon": -77.04660566666666}, {"fusion_lat": 0.0, "name": "58671b985d350c60fd3fc345c3b06b22", "is_disabled": 0, "rental_uris": {"android": "https://dc.lft.to/lastmile_qr_scan", "ios": "https://dc.lft.to/lastmile_qr_scan"}, "fusion_lon": 0.0, "lat": 38.89195983333333, "bike_id": "58671b985d350c60fd3fc345c3b06b22", "type": "electric_scooter", "is_reserved": 0, "lon": -77.02258966666666}, {"fusion_lat": 0.0, "name": "3ca7b7a58999a146b8831b46cf227be7", "is_disabled": 0, "rental_uris": {"android": "https://dc.lft.to/lastmile_qr_scan", "ios": "https://dc.lft.to/lastmile_qr_scan"}, "fusion_lon": 0.0, "lat": 38.9155845, "bike_id": "3ca7b7a58999a146b8831b46cf227be7", "type": "electric_scooter", "is_reserved": 0, "lon": -77.03105133333334}, {"fusion_lat": 0.0, "name": "2708fa30d287d2bc8ee1923a72574eb5", "is_disabled": 0, "rental_uris": {"android": "https://dc.lft.to/lastmile_qr_scan", "ios": "https://dc.lft.to/lastmile_qr_scan"}, "fusion_lon": 0.0, "lat": 38.889862666666666, "bike_id": "2708fa30d287d2bc8ee1923a72574eb5", "type": "electric_scooter", "is_reserved": 0, "lon": -76.99252016666667}, {"fusion_lat": 0.0, "name": "5ac973cf8366aaff16bc5c2d5d0f3768", "is_disabled": 0, "rental_uris": {"android": "https://dc.lft.to/lastmile_qr_scan", "ios": "https://dc.lft.to/lastmile_qr_scan"}, "fusion_lon": 0.0, "lat": 38.89220483333333, "bike_id": "5ac973cf8366aaff16bc5c2d5d0f3768", "type": "electric_scooter", "is_reserved": 0, "lon": -77.0317625}, {"fusion_lat": 0.0, "name": "906ec71f36f6d3ffda48d849f2ece934", "is_disabled": 0, "rental_uris": {"android": "https://dc.lft.to/lastmile_qr_scan", "ios": "https://dc.lft.to/lastmile_qr_scan"}, "fusion_lon": 0.0, "lat": 38.920675833333334, "bike_id": "906ec71f36f6d3ffda48d849f2ece934", "type": "electric_scooter", "is_reserved": 0, "lon": -77.04100216666667}, {"fusion_lat": 0.0, "name": "70f4b482ba146690bdc1ca5bf802e4ca", "is_disabled": 0, "rental_uris": {"android": "https://dc.lft.to/lastmile_qr_scan", "ios": "https://dc.lft.to/lastmile_qr_scan"}, "fusion_lon": 0.0, "lat": 38.99778116666667, "bike_id": "70f4b482ba146690bdc1ca5bf802e4ca", "type": "electric_bike", "is_reserved": 0, "lon": -77.04718833333334}, {"fusion_lat": 0.0, "name": "41b84de0124ed3d085a682af31bd7b4f", "is_disabled": 0, "rental_uris": {"android": "https://dc.lft.to/lastmile_qr_scan", "ios": "https://dc.lft.to/lastmile_qr_scan"}, "fusion_lon": 0.0, "lat": 38.897081, "bike_id": "41b84de0124ed3d085a682af31bd7b4f", "type": "electric_scooter", "is_reserved": 0, "lon": -77.00828533333333}, {"fusion_lat": 0.0, "name": "f1981dc18eea5d3531b88ea6da24723f", "is_disabled": 0, "rental_uris": {"android": "https://dc.lft.to/lastmile_qr_scan", "ios": "https://dc.lft.to/lastmile_qr_scan"}, "fusion_lon": 0.0, "lat": 38.91661283333333, "bike_id": "f1981dc18eea5d3531b88ea6da24723f", "type": "electric_scooter", "is_reserved": 0, "lon": -77.03855816666666}, {"fusion_lat": 0.0, "name": "f549acaa0a32d3ad7a5d6b70c3d4ae2e", "is_disabled": 0, "rental_uris": {"android": "https://dc.lft.to/lastmile_qr_scan", "ios": "https://dc.lft.to/lastmile_qr_scan"}, "fusion_lon": 0.0, "lat": 38.90004916666667, "bike_id": "f549acaa0a32d3ad7a5d6b70c3d4ae2e", "type": "electric_scooter", "is_reserved": 0, "lon": -77.02183883333333}, {"fusion_lat": 0.0, "name": "6d9909b6090d09d750602caa2e762d00", "is_disabled": 0, "rental_uris": {"android": "https://dc.lft.to/lastmile_qr_scan", "ios": "https://dc.lft.to/lastmile_qr_scan"}, "fusion_lon": 0.0, "lat": 38.89534716666667, "bike_id": "6d9909b6090d09d750602caa2e762d00", "type": "electric_scooter", "is_reserved": 0, "lon": -77.011043}, {"fusion_lat": 0.0, "name": "7534146c7177479c8c8561ce17a0aea6", "is_disabled": 0, "rental_uris": {"android": "https://dc.lft.to/lastmile_qr_scan", "ios": "https://dc.lft.to/lastmile_qr_scan"}, "fusion_lon": 0.0, "lat": 38.90385533333333, "bike_id": "7534146c7177479c8c8561ce17a0aea6", "type": "electric_scooter", "is_reserved": 0, "lon": -77.04825616666666}, {"fusion_lat": 0.0, "name": "4d81205be3cf4ec0ae0cdb806bd4f80c", "is_disabled": 0, "rental_uris": {"android": "https://dc.lft.to/lastmile_qr_scan", "ios": "https://dc.lft.to/lastmile_qr_scan"}, "fusion_lon": 0.0, "lat": 38.905838, "bike_id": "4d81205be3cf4ec0ae0cdb806bd4f80c", "type": "electric_scooter", "is_reserved": 0, "lon": -77.00640583333333}, {"fusion_lat": 0.0, "name": "303d2c4edded05832836b9eb3f99b0eb", "is_disabled": 0, "rental_uris": {"android": "https://dc.lft.to/lastmile_qr_scan", "ios": "https://dc.lft.to/lastmile_qr_scan"}, "fusion_lon": 0.0, "lat": 38.89847533333333, "bike_id": "303d2c4edded05832836b9eb3f99b0eb", "type": "electric_scooter", "is_reserved": 0, "lon": -77.03959333333333}, {"fusion_lat": 0.0, "name": "5f65aa960c2d7015c03fde3c9064a719", "is_disabled": 0, "rental_uris": {"android": "https://dc.lft.to/lastmile_qr_scan", "ios": "https://dc.lft.to/lastmile_qr_scan"}, "fusion_lon": 0.0, "lat": 38.9203765, "bike_id": "5f65aa960c2d7015c03fde3c9064a719", "type": "electric_scooter", "is_reserved": 0, "lon": -77.0258925}, {"fusion_lat": 0.0, "name": "7c976a40f339d5b0fe760c554e0023f8", "is_disabled": 0, "rental_uris": {"android": "https://dc.lft.to/lastmile_qr_scan", "ios": "https://dc.lft.to/lastmile_qr_scan"}, "fusion_lon": 0.0, "lat": 38.91977083333333, "bike_id": "7c976a40f339d5b0fe760c554e0023f8", "type": "electric_scooter", "is_reserved": 0, "lon": -77.02392766666667}, {"fusion_lat": 0.0, "name": "3314d1da6edaec0664bf31f3ce7057b7", "is_disabled": 0, "rental_uris": {"android": "https://dc.lft.to/lastmile_qr_scan", "ios": "https://dc.lft.to/lastmile_qr_scan"}, "fusion_lon": 0.0, "lat": 38.90571766666667, "bike_id": "3314d1da6edaec0664bf31f3ce7057b7", "type": "electric_scooter", "is_reserved": 0, "lon": -77.04559733333333}, {"fusion_lat": 0.0, "name": "7612dfcb1c3534a2caa891e7707cc182", "is_disabled": 0, "rental_uris": {"android": "https://dc.lft.to/lastmile_qr_scan", "ios": "https://dc.lft.to/lastmile_qr_scan"}, "fusion_lon": 0.0, "lat": 38.90531883333333, "bike_id": "7612dfcb1c3534a2caa891e7707cc182", "type": "electric_scooter", "is_reserved": 0, "lon": -77.06138933333334}, {"fusion_lat": 0.0, "name": "4570735fa2e68f5f16d0048cfa0d5363", "is_disabled": 0, "rental_uris": {"android": "https://dc.lft.to/lastmile_qr_scan", "ios": "https://dc.lft.to/lastmile_qr_scan"}, "fusion_lon": 0.0, "lat": 38.915358166666664, "bike_id": "4570735fa2e68f5f16d0048cfa0d5363", "type": "electric_scooter", "is_reserved": 0, "lon": -77.03205466666667}, {"fusion_lat": 0.0, "name": "13802bf60a9a749f5c997e9c78e72c52", "is_disabled": 0, "rental_uris": {"android": "https://dc.lft.to/lastmile_qr_scan", "ios": "https://dc.lft.to/lastmile_qr_scan"}, "fusion_lon": 0.0, "lat": 38.9242015, "bike_id": "13802bf60a9a749f5c997e9c78e72c52", "type": "electric_scooter", "is_reserved": 0, "lon": -77.05757583333333}, {"fusion_lat": 0.0, "name": "f4349a02725c5fd347e923d375d5c60c", "is_disabled": 0, "rental_uris": {"android": "https://dc.lft.to/lastmile_qr_scan", "ios": "https://dc.lft.to/lastmile_qr_scan"}, "fusion_lon": 0.0, "lat": 38.909463833333334, "bike_id": "f4349a02725c5fd347e923d375d5c60c", "type": "electric_scooter", "is_reserved": 0, "lon": -77.03444666666667}, {"fusion_lat": 0.0, "name": "f8021a017a8baa7c37a0932188130c5f", "is_disabled": 0, "rental_uris": {"android": "https://dc.lft.to/lastmile_qr_scan", "ios": "https://dc.lft.to/lastmile_qr_scan"}, "fusion_lon": 0.0, "lat": 38.97368066666667, "bike_id": "f8021a017a8baa7c37a0932188130c5f", "type": "electric_scooter", "is_reserved": 0, "lon": -77.02600966666667}, {"fusion_lat": 0.0, "name": "b3b0091e1e4470433e7168cec5120bbe", "is_disabled": 0, "rental_uris": {"android": "https://dc.lft.to/lastmile_qr_scan", "ios": "https://dc.lft.to/lastmile_qr_scan"}, "fusion_lon": 0.0, "lat": 38.918471333333336, "bike_id": "b3b0091e1e4470433e7168cec5120bbe", "type": "electric_scooter", "is_reserved": 0, "lon": -76.96533633333334}, {"fusion_lat": 0.0, "name": "6bc13fa1f50b7790225f60088d608c60", "is_disabled": 0, "rental_uris": {"android": "https://dc.lft.to/lastmile_qr_scan", "ios": "https://dc.lft.to/lastmile_qr_scan"}, "fusion_lon": 0.0, "lat": 38.8993475, "bike_id": "6bc13fa1f50b7790225f60088d608c60", "type": "electric_scooter", "is_reserved": 0, "lon": -76.99727483333334}, {"fusion_lat": 0.0, "name": "321f04877fd2864d741b70db4cd7231f", "is_disabled": 0, "rental_uris": {"android": "https://dc.lft.to/lastmile_qr_scan", "ios": "https://dc.lft.to/lastmile_qr_scan"}, "fusion_lon": 0.0, "lat": 38.900260333333335, "bike_id": "321f04877fd2864d741b70db4cd7231f", "type": "electric_scooter", "is_reserved": 0, "lon": -77.01717}, {"fusion_lat": 0.0, "name": "d07cc753a02119d329f4f727a34751d5", "is_disabled": 0, "rental_uris": {"android": "https://dc.lft.to/lastmile_qr_scan", "ios": "https://dc.lft.to/lastmile_qr_scan"}, "fusion_lon": 0.0, "lat": 38.92611333333333, "bike_id": "d07cc753a02119d329f4f727a34751d5", "type": "electric_scooter", "is_reserved": 0, "lon": -77.02163216666666}, {"fusion_lat": 0.0, "name": "1bd85e450eee75cd7e296f14eda1dfa3", "is_disabled": 0, "rental_uris": {"android": "https://dc.lft.to/lastmile_qr_scan", "ios": "https://dc.lft.to/lastmile_qr_scan"}, "fusion_lon": 0.0, "lat": 38.92885616666667, "bike_id": "1bd85e450eee75cd7e296f14eda1dfa3", "type": "electric_scooter", "is_reserved": 0, "lon": -77.03738983333334}, {"fusion_lat": 0.0, "name": "af51b963c644c4db6b7ef96ae931db38", "is_disabled": 0, "rental_uris": {"android": "https://dc.lft.to/lastmile_qr_scan", "ios": "https://dc.lft.to/lastmile_qr_scan"}, "fusion_lon": 0.0, "lat": 38.904809, "bike_id": "af51b963c644c4db6b7ef96ae931db38", "type": "electric_scooter", "is_reserved": 0, "lon": -77.02716183333334}, {"fusion_lat": 0.0, "name": "415f5bed284325d82731d9562277fcee", "is_disabled": 0, "rental_uris": {"android": "https://dc.lft.to/lastmile_qr_scan", "ios": "https://dc.lft.to/lastmile_qr_scan"}, "fusion_lon": 0.0, "lat": 38.905547166666665, "bike_id": "415f5bed284325d82731d9562277fcee", "type": "electric_scooter", "is_reserved": 0, "lon": -77.00285483333333}, {"fusion_lat": 0.0, "name": "c2a5ca21ac29162aaf2f2b2af9f50108", "is_disabled": 0, "rental_uris": {"android": "https://dc.lft.to/lastmile_qr_scan", "ios": "https://dc.lft.to/lastmile_qr_scan"}, "fusion_lon": 0.0, "lat": 38.923783666666665, "bike_id": "c2a5ca21ac29162aaf2f2b2af9f50108", "type": "electric_scooter", "is_reserved": 0, "lon": -77.04469916666666}, {"fusion_lat": 0.0, "name": "c7026d39b67053c261900d596af02604", "is_disabled": 0, "rental_uris": {"android": "https://dc.lft.to/lastmile_qr_scan", "ios": "https://dc.lft.to/lastmile_qr_scan"}, "fusion_lon": 0.0, "lat": 38.894091833333334, "bike_id": "c7026d39b67053c261900d596af02604", "type": "electric_scooter", "is_reserved": 0, "lon": -77.01084316666666}, {"fusion_lat": 0.0, "name": "1693432b5c2852b08aed212c84ff451a", "is_disabled": 0, "rental_uris": {"android": "https://dc.lft.to/lastmile_qr_scan", "ios": "https://dc.lft.to/lastmile_qr_scan"}, "fusion_lon": 0.0, "lat": 38.898240666666666, "bike_id": "1693432b5c2852b08aed212c84ff451a", "type": "electric_scooter", "is_reserved": 0, "lon": -77.02478533333333}, {"fusion_lat": 0.0, "name": "85b2599960d182db525235d2fef0f444", "is_disabled": 0, "rental_uris": {"android": "https://dc.lft.to/lastmile_qr_scan", "ios": "https://dc.lft.to/lastmile_qr_scan"}, "fusion_lon": 0.0, "lat": 38.963922833333335, "bike_id": "85b2599960d182db525235d2fef0f444", "type": "electric_scooter", "is_reserved": 0, "lon": -77.02595083333334}, {"fusion_lat": 0.0, "name": "74f195162346c8f816bfe8d14cb97376", "is_disabled": 0, "rental_uris": {"android": "https://dc.lft.to/lastmile_qr_scan", "ios": "https://dc.lft.to/lastmile_qr_scan"}, "fusion_lon": 0.0, "lat": 38.8959885, "bike_id": "74f195162346c8f816bfe8d14cb97376", "type": "electric_scooter", "is_reserved": 0, "lon": -77.02559533333333}, {"fusion_lat": 0.0, "name": "d7da9c4b89f81a7cf0437f2054fca89d", "is_disabled": 0, "rental_uris": {"android": "https://dc.lft.to/lastmile_qr_scan", "ios": "https://dc.lft.to/lastmile_qr_scan"}, "fusion_lon": 0.0, "lat": 38.903785, "bike_id": "d7da9c4b89f81a7cf0437f2054fca89d", "type": "electric_scooter", "is_reserved": 0, "lon": -76.97616}, {"fusion_lat": 0.0, "name": "d56dbf74a5d85f5719c1f90a15adaa7f", "is_disabled": 0, "rental_uris": {"android": "https://dc.lft.to/lastmile_qr_scan", "ios": "https://dc.lft.to/lastmile_qr_scan"}, "fusion_lon": 0.0, "lat": 38.9072085, "bike_id": "d56dbf74a5d85f5719c1f90a15adaa7f", "type": "electric_scooter", "is_reserved": 0, "lon": -77.03203183333333}, {"fusion_lat": 0.0, "name": "adee8dda58e96f3e61990be04119725d", "is_disabled": 0, "rental_uris": {"android": "https://dc.lft.to/lastmile_qr_scan", "ios": "https://dc.lft.to/lastmile_qr_scan"}, "fusion_lon": 0.0, "lat": 38.9228645, "bike_id": "adee8dda58e96f3e61990be04119725d", "type": "electric_scooter", "is_reserved": 0, "lon": -77.036824}, {"fusion_lat": 0.0, "name": "3898ab9f52192e4b9803b886473a9eec", "is_disabled": 0, "rental_uris": {"android": "https://dc.lft.to/lastmile_qr_scan", "ios": "https://dc.lft.to/lastmile_qr_scan"}, "fusion_lon": 0.0, "lat": 38.927325833333335, "bike_id": "3898ab9f52192e4b9803b886473a9eec", "type": "electric_scooter", "is_reserved": 0, "lon": -77.05249333333333}, {"fusion_lat": 0.0, "name": "da04e25e861ce7f31510413bae016048", "is_disabled": 0, "rental_uris": {"android": "https://dc.lft.to/lastmile_qr_scan", "ios": "https://dc.lft.to/lastmile_qr_scan"}, "fusion_lon": 0.0, "lat": 38.917269833333336, "bike_id": "da04e25e861ce7f31510413bae016048", "type": "electric_scooter", "is_reserved": 0, "lon": -77.04178933333333}, {"fusion_lat": 0.0, "name": "24f7eb2623e751fe3f6d8d00ddb5ab50", "is_disabled": 0, "rental_uris": {"android": "https://dc.lft.to/lastmile_qr_scan", "ios": "https://dc.lft.to/lastmile_qr_scan"}, "fusion_lon": 0.0, "lat": 38.92018266666667, "bike_id": "24f7eb2623e751fe3f6d8d00ddb5ab50", "type": "electric_scooter", "is_reserved": 0, "lon": -77.03891866666666}, {"fusion_lat": 0.0, "name": "b0ea6bd7828286307e209d1087898cd0", "is_disabled": 0, "rental_uris": {"android": "https://dc.lft.to/lastmile_qr_scan", "ios": "https://dc.lft.to/lastmile_qr_scan"}, "fusion_lon": 0.0, "lat": 38.9184965, "bike_id": "b0ea6bd7828286307e209d1087898cd0", "type": "electric_scooter", "is_reserved": 0, "lon": -77.03205466666667}, {"fusion_lat": 0.0, "name": "e781836c459590ea5c2716d46d9ee510", "is_disabled": 0, "rental_uris": {"android": "https://dc.lft.to/lastmile_qr_scan", "ios": "https://dc.lft.to/lastmile_qr_scan"}, "fusion_lon": 0.0, "lat": 38.892415166666666, "bike_id": "e781836c459590ea5c2716d46d9ee510", "type": "electric_scooter", "is_reserved": 0, "lon": -77.04363266666667}, {"fusion_lat": 0.0, "name": "9ddec7f9a964ea41ad1a129416bfa700", "is_disabled": 0, "rental_uris": {"android": "https://dc.lft.to/lastmile_qr_scan", "ios": "https://dc.lft.to/lastmile_qr_scan"}, "fusion_lon": 0.0, "lat": 38.9386335, "bike_id": "9ddec7f9a964ea41ad1a129416bfa700", "type": "electric_scooter", "is_reserved": 0, "lon": -77.031704}, {"fusion_lat": 0.0, "name": "9dc9b66abb00ec3c726b050989ae3fee", "is_disabled": 0, "rental_uris": {"android": "https://dc.lft.to/lastmile_qr_scan", "ios": "https://dc.lft.to/lastmile_qr_scan"}, "fusion_lon": 0.0, "lat": 38.88187166666667, "bike_id": "9dc9b66abb00ec3c726b050989ae3fee", "type": "electric_scooter", "is_reserved": 0, "lon": -77.0035525}, {"fusion_lat": 0.0, "name": "5d29412839c786aeb6f0da15c11d8c3b", "is_disabled": 0, "rental_uris": {"android": "https://dc.lft.to/lastmile_qr_scan", "ios": "https://dc.lft.to/lastmile_qr_scan"}, "fusion_lon": 0.0, "lat": 38.80421616666667, "bike_id": "5d29412839c786aeb6f0da15c11d8c3b", "type": "electric_bike", "is_reserved": 0, "lon": -77.05573433333333}, {"fusion_lat": 0.0, "name": "53bbae02947c8ce48002dcbd2ce3ba71", "is_disabled": 0, "rental_uris": {"android": "https://dc.lft.to/lastmile_qr_scan", "ios": "https://dc.lft.to/lastmile_qr_scan"}, "fusion_lon": 0.0, "lat": 38.90425716666667, "bike_id": "53bbae02947c8ce48002dcbd2ce3ba71", "type": "electric_scooter", "is_reserved": 0, "lon": -77.05146066666667}, {"fusion_lat": 0.0, "name": "fb994a92ac6280608a4f1ecda2b6c417", "is_disabled": 0, "rental_uris": {"android": "https://dc.lft.to/lastmile_qr_scan", "ios": "https://dc.lft.to/lastmile_qr_scan"}, "fusion_lon": 0.0, "lat": 38.9045475, "bike_id": "fb994a92ac6280608a4f1ecda2b6c417", "type": "electric_scooter", "is_reserved": 0, "lon": -77.0532755}, {"fusion_lat": 0.0, "name": "00902881d0d73b1ac481aebe63444fc7", "is_disabled": 0, "rental_uris": {"android": "https://dc.lft.to/lastmile_qr_scan", "ios": "https://dc.lft.to/lastmile_qr_scan"}, "fusion_lon": 0.0, "lat": 38.926071, "bike_id": "00902881d0d73b1ac481aebe63444fc7", "type": "electric_scooter", "is_reserved": 0, "lon": -77.0396395}, {"fusion_lat": 0.0, "name": "f3ecc12959fc8e52d22df499c327adaf", "is_disabled": 0, "rental_uris": {"android": "https://dc.lft.to/lastmile_qr_scan", "ios": "https://dc.lft.to/lastmile_qr_scan"}, "fusion_lon": 0.0, "lat": 38.897583166666664, "bike_id": "f3ecc12959fc8e52d22df499c327adaf", "type": "electric_scooter", "is_reserved": 0, "lon": -77.02693216666667}, {"fusion_lat": 0.0, "name": "a4d802c3fbe02d8ec60d753c25e4704c", "is_disabled": 0, "rental_uris": {"android": "https://dc.lft.to/lastmile_qr_scan", "ios": "https://dc.lft.to/lastmile_qr_scan"}, "fusion_lon": 0.0, "lat": 38.91254883333333, "bike_id": "a4d802c3fbe02d8ec60d753c25e4704c", "type": "electric_scooter", "is_reserved": 0, "lon": -77.006736}, {"fusion_lat": 0.0, "name": "af060ef0ac79642fb4203343e8d6f668", "is_disabled": 0, "rental_uris": {"android": "https://dc.lft.to/lastmile_qr_scan", "ios": "https://dc.lft.to/lastmile_qr_scan"}, "fusion_lon": 0.0, "lat": 38.89529566666667, "bike_id": "af060ef0ac79642fb4203343e8d6f668", "type": "electric_scooter", "is_reserved": 0, "lon": -77.03062966666667}, {"fusion_lat": 0.0, "name": "1bcc2f5456060adb10f90311f77dc091", "is_disabled": 0, "rental_uris": {"android": "https://dc.lft.to/lastmile_qr_scan", "ios": "https://dc.lft.to/lastmile_qr_scan"}, "fusion_lon": 0.0, "lat": 38.84426716666667, "bike_id": "1bcc2f5456060adb10f90311f77dc091", "type": "electric_scooter", "is_reserved": 0, "lon": -76.99784466666667}, {"fusion_lat": 0.0, "name": "869aa191bca88a5e5800f8e7cba89e20", "is_disabled": 0, "rental_uris": {"android": "https://dc.lft.to/lastmile_qr_scan", "ios": "https://dc.lft.to/lastmile_qr_scan"}, "fusion_lon": 0.0, "lat": 38.901319666666666, "bike_id": "869aa191bca88a5e5800f8e7cba89e20", "type": "electric_scooter", "is_reserved": 0, "lon": -77.038835}, {"fusion_lat": 0.0, "name": "0fab6e915f6757b96489a5c696e6677a", "is_disabled": 0, "rental_uris": {"android": "https://dc.lft.to/lastmile_qr_scan", "ios": "https://dc.lft.to/lastmile_qr_scan"}, "fusion_lon": 0.0, "lat": 38.941823666666664, "bike_id": "0fab6e915f6757b96489a5c696e6677a", "type": "electric_scooter", "is_reserved": 0, "lon": -77.02490666666667}, {"fusion_lat": 0.0, "name": "7167ed1413675048fd990393e5c92f1d", "is_disabled": 0, "rental_uris": {"android": "https://dc.lft.to/lastmile_qr_scan", "ios": "https://dc.lft.to/lastmile_qr_scan"}, "fusion_lon": 0.0, "lat": 38.920812, "bike_id": "7167ed1413675048fd990393e5c92f1d", "type": "electric_scooter", "is_reserved": 0, "lon": -77.02513866666666}, {"fusion_lat": 0.0, "name": "569d9fcc7fc00626c642b227b5012086", "is_disabled": 0, "rental_uris": {"android": "https://dc.lft.to/lastmile_qr_scan", "ios": "https://dc.lft.to/lastmile_qr_scan"}, "fusion_lon": 0.0, "lat": 38.92915833333333, "bike_id": "569d9fcc7fc00626c642b227b5012086", "type": "electric_scooter", "is_reserved": 0, "lon": -77.03212033333334}, {"fusion_lat": 0.0, "name": "c23129323d13fa8c568e1ac4b0e9fee4", "is_disabled": 0, "rental_uris": {"android": "https://dc.lft.to/lastmile_qr_scan", "ios": "https://dc.lft.to/lastmile_qr_scan"}, "fusion_lon": 0.0, "lat": 38.922367666666666, "bike_id": "c23129323d13fa8c568e1ac4b0e9fee4", "type": "electric_scooter", "is_reserved": 0, "lon": -77.04248816666667}, {"fusion_lat": 0.0, "name": "9334355e2cec79c46725cb172e152431", "is_disabled": 0, "rental_uris": {"android": "https://dc.lft.to/lastmile_qr_scan", "ios": "https://dc.lft.to/lastmile_qr_scan"}, "fusion_lon": 0.0, "lat": 38.892352333333335, "bike_id": "9334355e2cec79c46725cb172e152431", "type": "electric_scooter", "is_reserved": 0, "lon": -77.04894916666667}, {"fusion_lat": 0.0, "name": "078c5073954022686c39772166220a63", "is_disabled": 0, "rental_uris": {"android": "https://dc.lft.to/lastmile_qr_scan", "ios": "https://dc.lft.to/lastmile_qr_scan"}, "fusion_lon": 0.0, "lat": 38.910285333333334, "bike_id": "078c5073954022686c39772166220a63", "type": "electric_scooter", "is_reserved": 0, "lon": -77.00758783333333}, {"fusion_lat": 0.0, "name": "2517d65a85de42817e8d0d997b79a1b4", "is_disabled": 0, "rental_uris": {"android": "https://dc.lft.to/lastmile_qr_scan", "ios": "https://dc.lft.to/lastmile_qr_scan"}, "fusion_lon": 0.0, "lat": 38.9010195, "bike_id": "2517d65a85de42817e8d0d997b79a1b4", "type": "electric_scooter", "is_reserved": 0, "lon": -77.01973033333333}, {"fusion_lat": 0.0, "name": "8a2609ca3d4b936b4e27e0299d0619db", "is_disabled": 0, "rental_uris": {"android": "https://dc.lft.to/lastmile_qr_scan", "ios": "https://dc.lft.to/lastmile_qr_scan"}, "fusion_lon": 0.0, "lat": 38.89219666666666, "bike_id": "8a2609ca3d4b936b4e27e0299d0619db", "type": "electric_scooter", "is_reserved": 0, "lon": -77.022226}, {"fusion_lat": 0.0, "name": "0c49d8685a12a5138cdeb5aeb20f8dd1", "is_disabled": 0, "rental_uris": {"android": "https://dc.lft.to/lastmile_qr_scan", "ios": "https://dc.lft.to/lastmile_qr_scan"}, "fusion_lon": 0.0, "lat": 38.91428533333333, "bike_id": "0c49d8685a12a5138cdeb5aeb20f8dd1", "type": "electric_scooter", "is_reserved": 0, "lon": -77.04498366666667}, {"fusion_lat": 0.0, "name": "bc95f1a9b370ea8e29cf99015341e3b4", "is_disabled": 0, "rental_uris": {"android": "https://dc.lft.to/lastmile_qr_scan", "ios": "https://dc.lft.to/lastmile_qr_scan"}, "fusion_lon": 0.0, "lat": 38.888741833333334, "bike_id": "bc95f1a9b370ea8e29cf99015341e3b4", "type": "electric_scooter", "is_reserved": 0, "lon": -77.0285755}, {"fusion_lat": 0.0, "name": "eadd60d98fef2ec401878fd849dabd3e", "is_disabled": 0, "rental_uris": {"android": "https://dc.lft.to/lastmile_qr_scan", "ios": "https://dc.lft.to/lastmile_qr_scan"}, "fusion_lon": 0.0, "lat": 38.85796166666667, "bike_id": "eadd60d98fef2ec401878fd849dabd3e", "type": "electric_bike", "is_reserved": 0, "lon": -76.98740083333334}, {"fusion_lat": 0.0, "name": "b0ee1f2971e3b6d81d6b22ebabc01685", "is_disabled": 0, "rental_uris": {"android": "https://dc.lft.to/lastmile_qr_scan", "ios": "https://dc.lft.to/lastmile_qr_scan"}, "fusion_lon": 0.0, "lat": 38.94178816666667, "bike_id": "b0ee1f2971e3b6d81d6b22ebabc01685", "type": "electric_scooter", "is_reserved": 0, "lon": -77.03655033333334}, {"fusion_lat": 0.0, "name": "f4ffba8c5d0add176cacc56c4d0164ad", "is_disabled": 0, "rental_uris": {"android": "https://dc.lft.to/lastmile_qr_scan", "ios": "https://dc.lft.to/lastmile_qr_scan"}, "fusion_lon": 0.0, "lat": 38.921414, "bike_id": "f4ffba8c5d0add176cacc56c4d0164ad", "type": "electric_scooter", "is_reserved": 0, "lon": -77.04011683333333}, {"fusion_lat": 0.0, "name": "571c44bd1fc057cf922aed90159dd930", "is_disabled": 0, "rental_uris": {"android": "https://dc.lft.to/lastmile_qr_scan", "ios": "https://dc.lft.to/lastmile_qr_scan"}, "fusion_lon": 0.0, "lat": 38.917265, "bike_id": "571c44bd1fc057cf922aed90159dd930", "type": "electric_scooter", "is_reserved": 0, "lon": -77.00816783333333}, {"fusion_lat": 0.0, "name": "a3433f2247a5bd1bdbe5b057b2fc0693", "is_disabled": 0, "rental_uris": {"android": "https://dc.lft.to/lastmile_qr_scan", "ios": "https://dc.lft.to/lastmile_qr_scan"}, "fusion_lon": 0.0, "lat": 38.8624645, "bike_id": "a3433f2247a5bd1bdbe5b057b2fc0693", "type": "electric_bike", "is_reserved": 0, "lon": -76.98331416666667}, {"fusion_lat": 0.0, "name": "07a4c8a9a6e70519f5a27e39ec3be283", "is_disabled": 0, "rental_uris": {"android": "https://dc.lft.to/lastmile_qr_scan", "ios": "https://dc.lft.to/lastmile_qr_scan"}, "fusion_lon": 0.0, "lat": 38.93361733333333, "bike_id": "07a4c8a9a6e70519f5a27e39ec3be283", "type": "electric_scooter", "is_reserved": 0, "lon": -77.03889033333333}, {"fusion_lat": 0.0, "name": "553408ac9ec03737932fce44dc835b71", "is_disabled": 0, "rental_uris": {"android": "https://dc.lft.to/lastmile_qr_scan", "ios": "https://dc.lft.to/lastmile_qr_scan"}, "fusion_lon": 0.0, "lat": 38.942513166666664, "bike_id": "553408ac9ec03737932fce44dc835b71", "type": "electric_bike", "is_reserved": 0, "lon": -77.03268416666667}, {"fusion_lat": 0.0, "name": "98a359226af3d6ece0450d3dda796309", "is_disabled": 0, "rental_uris": {"android": "https://dc.lft.to/lastmile_qr_scan", "ios": "https://dc.lft.to/lastmile_qr_scan"}, "fusion_lon": 0.0, "lat": 38.90344283333334, "bike_id": "98a359226af3d6ece0450d3dda796309", "type": "electric_scooter", "is_reserved": 0, "lon": -76.97256266666666}, {"fusion_lat": 0.0, "name": "e6acf827419d9aec6c9719b6f8ea6998", "is_disabled": 0, "rental_uris": {"android": "https://dc.lft.to/lastmile_qr_scan", "ios": "https://dc.lft.to/lastmile_qr_scan"}, "fusion_lon": 0.0, "lat": 38.9035135, "bike_id": "e6acf827419d9aec6c9719b6f8ea6998", "type": "electric_scooter", "is_reserved": 0, "lon": -77.038652}, {"fusion_lat": 0.0, "name": "5aff9c5663be64e1ddb956766cfdfb53", "is_disabled": 0, "rental_uris": {"android": "https://dc.lft.to/lastmile_qr_scan", "ios": "https://dc.lft.to/lastmile_qr_scan"}, "fusion_lon": 0.0, "lat": 38.9413445, "bike_id": "5aff9c5663be64e1ddb956766cfdfb53", "type": "electric_scooter", "is_reserved": 0, "lon": -77.006097}, {"fusion_lat": 0.0, "name": "b34b93cf2d406c49377e57fcfc0e96e7", "is_disabled": 0, "rental_uris": {"android": "https://dc.lft.to/lastmile_qr_scan", "ios": "https://dc.lft.to/lastmile_qr_scan"}, "fusion_lon": 0.0, "lat": 38.93051283333333, "bike_id": "b34b93cf2d406c49377e57fcfc0e96e7", "type": "electric_scooter", "is_reserved": 0, "lon": -77.0322395}, {"fusion_lat": 0.0, "name": "2540820bc5fa6b6df484343da70ddb5a", "is_disabled": 0, "rental_uris": {"android": "https://dc.lft.to/lastmile_qr_scan", "ios": "https://dc.lft.to/lastmile_qr_scan"}, "fusion_lon": 0.0, "lat": 38.92604266666667, "bike_id": "2540820bc5fa6b6df484343da70ddb5a", "type": "electric_scooter", "is_reserved": 0, "lon": -77.02383116666667}, {"fusion_lat": 0.0, "name": "e4a7945f9ba30ffb2155920c6cf60a78", "is_disabled": 0, "rental_uris": {"android": "https://dc.lft.to/lastmile_qr_scan", "ios": "https://dc.lft.to/lastmile_qr_scan"}, "fusion_lon": 0.0, "lat": 38.926123, "bike_id": "e4a7945f9ba30ffb2155920c6cf60a78", "type": "electric_scooter", "is_reserved": 0, "lon": -77.041907}, {"fusion_lat": 0.0, "name": "0381df9c0ce24dffe32087395b255905", "is_disabled": 0, "rental_uris": {"android": "https://dc.lft.to/lastmile_qr_scan", "ios": "https://dc.lft.to/lastmile_qr_scan"}, "fusion_lon": 0.0, "lat": 38.8393215, "bike_id": "0381df9c0ce24dffe32087395b255905", "type": "electric_bike", "is_reserved": 0, "lon": -77.07899633333334}, {"fusion_lat": 0.0, "name": "ac401113018b164c10d6530aade3a98b", "is_disabled": 0, "rental_uris": {"android": "https://dc.lft.to/lastmile_qr_scan", "ios": "https://dc.lft.to/lastmile_qr_scan"}, "fusion_lon": 0.0, "lat": 38.91650116666667, "bike_id": "ac401113018b164c10d6530aade3a98b", "type": "electric_scooter", "is_reserved": 0, "lon": -77.02185}, {"fusion_lat": 0.0, "name": "17d0058b121e0353f28eb43c173dbd79", "is_disabled": 0, "rental_uris": {"android": "https://dc.lft.to/lastmile_qr_scan", "ios": "https://dc.lft.to/lastmile_qr_scan"}, "fusion_lon": 0.0, "lat": 38.907149833333335, "bike_id": "17d0058b121e0353f28eb43c173dbd79", "type": "electric_scooter", "is_reserved": 0, "lon": -77.07599483333334}, {"fusion_lat": 0.0, "name": "102165e681ba5b924c0a80af67942c12", "is_disabled": 0, "rental_uris": {"android": "https://dc.lft.to/lastmile_qr_scan", "ios": "https://dc.lft.to/lastmile_qr_scan"}, "fusion_lon": 0.0, "lat": 38.919955333333334, "bike_id": "102165e681ba5b924c0a80af67942c12", "type": "electric_scooter", "is_reserved": 0, "lon": -77.02376733333334}, {"fusion_lat": 0.0, "name": "a6d87b11d58e8b68ab7e24aa657d77ca", "is_disabled": 0, "rental_uris": {"android": "https://dc.lft.to/lastmile_qr_scan", "ios": "https://dc.lft.to/lastmile_qr_scan"}, "fusion_lon": 0.0, "lat": 38.907300666666664, "bike_id": "a6d87b11d58e8b68ab7e24aa657d77ca", "type": "electric_scooter", "is_reserved": 0, "lon": -77.0435425}, {"fusion_lat": 0.0, "name": "e0efb09231f1b3f30dd1acaebdb7cbb3", "is_disabled": 0, "rental_uris": {"android": "https://dc.lft.to/lastmile_qr_scan", "ios": "https://dc.lft.to/lastmile_qr_scan"}, "fusion_lon": 0.0, "lat": 38.9004825, "bike_id": "e0efb09231f1b3f30dd1acaebdb7cbb3", "type": "electric_scooter", "is_reserved": 0, "lon": -77.041732}, {"fusion_lat": 0.0, "name": "f558acf755b23b60e66ef46f87e3b600", "is_disabled": 0, "rental_uris": {"android": "https://dc.lft.to/lastmile_qr_scan", "ios": "https://dc.lft.to/lastmile_qr_scan"}, "fusion_lon": 0.0, "lat": 38.907251, "bike_id": "f558acf755b23b60e66ef46f87e3b600", "type": "electric_scooter", "is_reserved": 0, "lon": -77.0433985}, {"fusion_lat": 0.0, "name": "e3c5c47e67e5062c769ac7e9a3d80873", "is_disabled": 0, "rental_uris": {"android": "https://dc.lft.to/lastmile_qr_scan", "ios": "https://dc.lft.to/lastmile_qr_scan"}, "fusion_lon": 0.0, "lat": 38.8966895, "bike_id": "e3c5c47e67e5062c769ac7e9a3d80873", "type": "electric_scooter", "is_reserved": 0, "lon": -77.02267066666667}, {"fusion_lat": 0.0, "name": "c462516bf9e7e297a5665cc5f269924f", "is_disabled": 0, "rental_uris": {"android": "https://dc.lft.to/lastmile_qr_scan", "ios": "https://dc.lft.to/lastmile_qr_scan"}, "fusion_lon": 0.0, "lat": 38.918401833333334, "bike_id": "c462516bf9e7e297a5665cc5f269924f", "type": "electric_scooter", "is_reserved": 0, "lon": -77.02293633333333}, {"fusion_lat": 0.0, "name": "83dd31f6768ea8938b5f68053adce278", "is_disabled": 0, "rental_uris": {"android": "https://dc.lft.to/lastmile_qr_scan", "ios": "https://dc.lft.to/lastmile_qr_scan"}, "fusion_lon": 0.0, "lat": 38.93505066666667, "bike_id": "83dd31f6768ea8938b5f68053adce278", "type": "electric_scooter", "is_reserved": 0, "lon": -77.0363675}, {"fusion_lat": 0.0, "name": "59a12c518eca055403333a62adefe7ca", "is_disabled": 0, "rental_uris": {"android": "https://dc.lft.to/lastmile_qr_scan", "ios": "https://dc.lft.to/lastmile_qr_scan"}, "fusion_lon": 0.0, "lat": 38.924004333333336, "bike_id": "59a12c518eca055403333a62adefe7ca", "type": "electric_scooter", "is_reserved": 0, "lon": -77.02059266666667}, {"fusion_lat": 0.0, "name": "3ebdfc669c47d9ba534553cfaa8ef6ea", "is_disabled": 0, "rental_uris": {"android": "https://dc.lft.to/lastmile_qr_scan", "ios": "https://dc.lft.to/lastmile_qr_scan"}, "fusion_lon": 0.0, "lat": 38.9056955, "bike_id": "3ebdfc669c47d9ba534553cfaa8ef6ea", "type": "electric_scooter", "is_reserved": 0, "lon": -77.04074316666667}, {"fusion_lat": 0.0, "name": "bd89c2768f06269d7807d38e884e23c7", "is_disabled": 0, "rental_uris": {"android": "https://dc.lft.to/lastmile_qr_scan", "ios": "https://dc.lft.to/lastmile_qr_scan"}, "fusion_lon": 0.0, "lat": 38.878098333333334, "bike_id": "bd89c2768f06269d7807d38e884e23c7", "type": "electric_scooter", "is_reserved": 0, "lon": -77.015301}, {"fusion_lat": 0.0, "name": "265026dfa570310d66f8afcaa84a5795", "is_disabled": 0, "rental_uris": {"android": "https://dc.lft.to/lastmile_qr_scan", "ios": "https://dc.lft.to/lastmile_qr_scan"}, "fusion_lon": 0.0, "lat": 38.89797016666667, "bike_id": "265026dfa570310d66f8afcaa84a5795", "type": "electric_scooter", "is_reserved": 0, "lon": -76.98464816666667}, {"fusion_lat": 0.0, "name": "db0000261d4bad2048c250bf618f1ba5", "is_disabled": 0, "rental_uris": {"android": "https://dc.lft.to/lastmile_qr_scan", "ios": "https://dc.lft.to/lastmile_qr_scan"}, "fusion_lon": 0.0, "lat": 38.934442, "bike_id": "db0000261d4bad2048c250bf618f1ba5", "type": "electric_scooter", "is_reserved": 0, "lon": -77.03865933333333}, {"fusion_lat": 0.0, "name": "bbe20bccda0ea59835ccdf6d723b6f5a", "is_disabled": 0, "rental_uris": {"android": "https://dc.lft.to/lastmile_qr_scan", "ios": "https://dc.lft.to/lastmile_qr_scan"}, "fusion_lon": 0.0, "lat": 38.928141833333335, "bike_id": "bbe20bccda0ea59835ccdf6d723b6f5a", "type": "electric_scooter", "is_reserved": 0, "lon": -77.02331616666666}, {"fusion_lat": 0.0, "name": "37c789d654d36135676b6ccefc25ba48", "is_disabled": 0, "rental_uris": {"android": "https://dc.lft.to/lastmile_qr_scan", "ios": "https://dc.lft.to/lastmile_qr_scan"}, "fusion_lon": 0.0, "lat": 38.89285983333333, "bike_id": "37c789d654d36135676b6ccefc25ba48", "type": "electric_scooter", "is_reserved": 0, "lon": -77.0320875}, {"fusion_lat": 0.0, "name": "11049d03f662fee870b668797da2537b", "is_disabled": 0, "rental_uris": {"android": "https://dc.lft.to/lastmile_qr_scan", "ios": "https://dc.lft.to/lastmile_qr_scan"}, "fusion_lon": 0.0, "lat": 38.858756666666665, "bike_id": "11049d03f662fee870b668797da2537b", "type": "electric_bike", "is_reserved": 0, "lon": -77.09558183333333}, {"fusion_lat": 0.0, "name": "b079ed908ef9c04fe234a4ef07d2cfb1", "is_disabled": 0, "rental_uris": {"android": "https://dc.lft.to/lastmile_qr_scan", "ios": "https://dc.lft.to/lastmile_qr_scan"}, "fusion_lon": 0.0, "lat": 38.91658183333333, "bike_id": "b079ed908ef9c04fe234a4ef07d2cfb1", "type": "electric_scooter", "is_reserved": 0, "lon": -77.038521}, {"fusion_lat": 0.0, "name": "6b9d0dea0f2c043d53b1eabdec267cf4", "is_disabled": 0, "rental_uris": {"android": "https://dc.lft.to/lastmile_qr_scan", "ios": "https://dc.lft.to/lastmile_qr_scan"}, "fusion_lon": 0.0, "lat": 38.895478833333335, "bike_id": "6b9d0dea0f2c043d53b1eabdec267cf4", "type": "electric_scooter", "is_reserved": 0, "lon": -77.0268185}, {"fusion_lat": 0.0, "name": "9e99d38ce50076436e17c81a850631e5", "is_disabled": 0, "rental_uris": {"android": "https://dc.lft.to/lastmile_qr_scan", "ios": "https://dc.lft.to/lastmile_qr_scan"}, "fusion_lon": 0.0, "lat": 38.9280705, "bike_id": "9e99d38ce50076436e17c81a850631e5", "type": "electric_scooter", "is_reserved": 0, "lon": -77.04339283333333}, {"fusion_lat": 0.0, "name": "6603fc2094f1390107b1d0d0f2e378e3", "is_disabled": 0, "rental_uris": {"android": "https://dc.lft.to/lastmile_qr_scan", "ios": "https://dc.lft.to/lastmile_qr_scan"}, "fusion_lon": 0.0, "lat": 38.90683116666666, "bike_id": "6603fc2094f1390107b1d0d0f2e378e3", "type": "electric_bike", "is_reserved": 0, "lon": -77.02692966666666}, {"fusion_lat": 0.0, "name": "fa63d2dcf77befbcada90f05bf0aeea3", "is_disabled": 0, "rental_uris": {"android": "https://dc.lft.to/lastmile_qr_scan", "ios": "https://dc.lft.to/lastmile_qr_scan"}, "fusion_lon": 0.0, "lat": 38.9029425, "bike_id": "fa63d2dcf77befbcada90f05bf0aeea3", "type": "electric_scooter", "is_reserved": 0, "lon": -77.0495065}, {"fusion_lat": 0.0, "name": "e6edf8510fde9fb8965df89b6c8d0a75", "is_disabled": 0, "rental_uris": {"android": "https://dc.lft.to/lastmile_qr_scan", "ios": "https://dc.lft.to/lastmile_qr_scan"}, "fusion_lon": 0.0, "lat": 38.9291765, "bike_id": "e6edf8510fde9fb8965df89b6c8d0a75", "type": "electric_scooter", "is_reserved": 0, "lon": -77.0326385}, {"fusion_lat": 0.0, "name": "8d9f228c4478796b64c30b2593c69ea6", "is_disabled": 0, "rental_uris": {"android": "https://dc.lft.to/lastmile_qr_scan", "ios": "https://dc.lft.to/lastmile_qr_scan"}, "fusion_lon": 0.0, "lat": 38.911147166666666, "bike_id": "8d9f228c4478796b64c30b2593c69ea6", "type": "electric_scooter", "is_reserved": 0, "lon": -77.010019}, {"fusion_lat": 0.0, "name": "1403325a568a5b081518420e1957fd78", "is_disabled": 0, "rental_uris": {"android": "https://dc.lft.to/lastmile_qr_scan", "ios": "https://dc.lft.to/lastmile_qr_scan"}, "fusion_lon": 0.0, "lat": 38.8960345, "bike_id": "1403325a568a5b081518420e1957fd78", "type": "electric_scooter", "is_reserved": 0, "lon": -76.98111183333333}, {"fusion_lat": 0.0, "name": "17f18300ce779218e3786c5180d512eb", "is_disabled": 0, "rental_uris": {"android": "https://dc.lft.to/lastmile_qr_scan", "ios": "https://dc.lft.to/lastmile_qr_scan"}, "fusion_lon": 0.0, "lat": 38.941973833333336, "bike_id": "17f18300ce779218e3786c5180d512eb", "type": "electric_scooter", "is_reserved": 0, "lon": -77.025344}, {"fusion_lat": 0.0, "name": "0bb6a2620d31aed1c7f9d7557e0c825c", "is_disabled": 0, "rental_uris": {"android": "https://dc.lft.to/lastmile_qr_scan", "ios": "https://dc.lft.to/lastmile_qr_scan"}, "fusion_lon": 0.0, "lat": 38.89219716666667, "bike_id": "0bb6a2620d31aed1c7f9d7557e0c825c", "type": "electric_scooter", "is_reserved": 0, "lon": -77.02370933333333}, {"fusion_lat": 0.0, "name": "1b6981c617310098faad0b0875b1e8ff", "is_disabled": 0, "rental_uris": {"android": "https://dc.lft.to/lastmile_qr_scan", "ios": "https://dc.lft.to/lastmile_qr_scan"}, "fusion_lon": 0.0, "lat": 38.899733833333336, "bike_id": "1b6981c617310098faad0b0875b1e8ff", "type": "electric_scooter", "is_reserved": 0, "lon": -77.05269266666667}, {"fusion_lat": 0.0, "name": "6949a3691d5ef7d9c41e2f4f0f7b3889", "is_disabled": 0, "rental_uris": {"android": "https://dc.lft.to/lastmile_qr_scan", "ios": "https://dc.lft.to/lastmile_qr_scan"}, "fusion_lon": 0.0, "lat": 38.92503716666667, "bike_id": "6949a3691d5ef7d9c41e2f4f0f7b3889", "type": "electric_scooter", "is_reserved": 0, "lon": -77.0522565}, {"fusion_lat": 0.0, "name": "f6a6f51cb1c38615c6a1b5abd332305f", "is_disabled": 0, "rental_uris": {"android": "https://dc.lft.to/lastmile_qr_scan", "ios": "https://dc.lft.to/lastmile_qr_scan"}, "fusion_lon": 0.0, "lat": 38.90803866666667, "bike_id": "f6a6f51cb1c38615c6a1b5abd332305f", "type": "electric_scooter", "is_reserved": 0, "lon": -77.03464916666667}, {"fusion_lat": 0.0, "name": "09c07ca50009823211a1c3e91ed2efe4", "is_disabled": 0, "rental_uris": {"android": "https://dc.lft.to/lastmile_qr_scan", "ios": "https://dc.lft.to/lastmile_qr_scan"}, "fusion_lon": 0.0, "lat": 38.89014066666667, "bike_id": "09c07ca50009823211a1c3e91ed2efe4", "type": "electric_scooter", "is_reserved": 0, "lon": -76.93735333333333}, {"fusion_lat": 0.0, "name": "bb78f4292f2fd36f70b3b3b876c93d8b", "is_disabled": 0, "rental_uris": {"android": "https://dc.lft.to/lastmile_qr_scan", "ios": "https://dc.lft.to/lastmile_qr_scan"}, "fusion_lon": 0.0, "lat": 38.94324233333333, "bike_id": "bb78f4292f2fd36f70b3b3b876c93d8b", "type": "electric_scooter", "is_reserved": 0, "lon": -77.015496}, {"fusion_lat": 0.0, "name": "c55bf7606233ee17a8d5ded8a48aa0e6", "is_disabled": 0, "rental_uris": {"android": "https://dc.lft.to/lastmile_qr_scan", "ios": "https://dc.lft.to/lastmile_qr_scan"}, "fusion_lon": 0.0, "lat": 38.90187533333334, "bike_id": "c55bf7606233ee17a8d5ded8a48aa0e6", "type": "electric_scooter", "is_reserved": 0, "lon": -77.05047233333333}, {"fusion_lat": 0.0, "name": "abab9e4f748ab491384f6e5fff958722", "is_disabled": 0, "rental_uris": {"android": "https://dc.lft.to/lastmile_qr_scan", "ios": "https://dc.lft.to/lastmile_qr_scan"}, "fusion_lon": 0.0, "lat": 38.894859, "bike_id": "abab9e4f748ab491384f6e5fff958722", "type": "electric_scooter", "is_reserved": 0, "lon": -77.0217895}, {"fusion_lat": 0.0, "name": "ac6b3de773ea73311b7e3d67d9fbe325", "is_disabled": 0, "rental_uris": {"android": "https://dc.lft.to/lastmile_qr_scan", "ios": "https://dc.lft.to/lastmile_qr_scan"}, "fusion_lon": 0.0, "lat": 38.88354533333333, "bike_id": "ac6b3de773ea73311b7e3d67d9fbe325", "type": "electric_scooter", "is_reserved": 0, "lon": -77.01362366666666}, {"fusion_lat": 0.0, "name": "0bb27d4dd44c6c6211ab533898e3a991", "is_disabled": 0, "rental_uris": {"android": "https://dc.lft.to/lastmile_qr_scan", "ios": "https://dc.lft.to/lastmile_qr_scan"}, "fusion_lon": 0.0, "lat": 38.92862816666667, "bike_id": "0bb27d4dd44c6c6211ab533898e3a991", "type": "electric_scooter", "is_reserved": 0, "lon": -77.07334116666667}, {"fusion_lat": 0.0, "name": "57be86cc68fa3738889ba5953d2bf990", "is_disabled": 0, "rental_uris": {"android": "https://dc.lft.to/lastmile_qr_scan", "ios": "https://dc.lft.to/lastmile_qr_scan"}, "fusion_lon": 0.0, "lat": 38.9192215, "bike_id": "57be86cc68fa3738889ba5953d2bf990", "type": "electric_scooter", "is_reserved": 0, "lon": -77.026622}, {"fusion_lat": 0.0, "name": "23b4f08a3baf28bdf58d261911302553", "is_disabled": 0, "rental_uris": {"android": "https://dc.lft.to/lastmile_qr_scan", "ios": "https://dc.lft.to/lastmile_qr_scan"}, "fusion_lon": 0.0, "lat": 38.9072455, "bike_id": "23b4f08a3baf28bdf58d261911302553", "type": "electric_scooter", "is_reserved": 0, "lon": -77.043367}, {"fusion_lat": 0.0, "name": "c63dcb6dc22fa9473ab6442cd5deebeb", "is_disabled": 0, "rental_uris": {"android": "https://dc.lft.to/lastmile_qr_scan", "ios": "https://dc.lft.to/lastmile_qr_scan"}, "fusion_lon": 0.0, "lat": 38.92260266666667, "bike_id": "c63dcb6dc22fa9473ab6442cd5deebeb", "type": "electric_scooter", "is_reserved": 0, "lon": -77.03532066666666}, {"fusion_lat": 0.0, "name": "cebbb947f1a03d096963066d2aae1930", "is_disabled": 0, "rental_uris": {"android": "https://dc.lft.to/lastmile_qr_scan", "ios": "https://dc.lft.to/lastmile_qr_scan"}, "fusion_lon": 0.0, "lat": 38.93029383333333, "bike_id": "cebbb947f1a03d096963066d2aae1930", "type": "electric_scooter", "is_reserved": 0, "lon": -77.037942}, {"fusion_lat": 0.0, "name": "d874eb948a68016ddf14abb351601724", "is_disabled": 0, "rental_uris": {"android": "https://dc.lft.to/lastmile_qr_scan", "ios": "https://dc.lft.to/lastmile_qr_scan"}, "fusion_lon": 0.0, "lat": 38.90519916666667, "bike_id": "d874eb948a68016ddf14abb351601724", "type": "electric_scooter", "is_reserved": 0, "lon": -77.06784816666666}, {"fusion_lat": 0.0, "name": "591cc66eeb7094ce40a4aaf12d510853", "is_disabled": 0, "rental_uris": {"android": "https://dc.lft.to/lastmile_qr_scan", "ios": "https://dc.lft.to/lastmile_qr_scan"}, "fusion_lon": 0.0, "lat": 38.84193716666667, "bike_id": "591cc66eeb7094ce40a4aaf12d510853", "type": "electric_bike", "is_reserved": 0, "lon": -77.0775665}, {"fusion_lat": 0.0, "name": "6f50c9e35469e6e97546560feca5e78c", "is_disabled": 0, "rental_uris": {"android": "https://dc.lft.to/lastmile_qr_scan", "ios": "https://dc.lft.to/lastmile_qr_scan"}, "fusion_lon": 0.0, "lat": 38.897412333333335, "bike_id": "6f50c9e35469e6e97546560feca5e78c", "type": "electric_scooter", "is_reserved": 0, "lon": -77.00197983333334}, {"fusion_lat": 0.0, "name": "a768f93d735d2a58b117f8e96f9f2ba9", "is_disabled": 0, "rental_uris": {"android": "https://dc.lft.to/lastmile_qr_scan", "ios": "https://dc.lft.to/lastmile_qr_scan"}, "fusion_lon": 0.0, "lat": 38.900523666666665, "bike_id": "a768f93d735d2a58b117f8e96f9f2ba9", "type": "electric_scooter", "is_reserved": 0, "lon": -77.01627533333334}, {"fusion_lat": 0.0, "name": "a2e1b02d2d6ff2192f0a48aea3edd19f", "is_disabled": 0, "rental_uris": {"android": "https://dc.lft.to/lastmile_qr_scan", "ios": "https://dc.lft.to/lastmile_qr_scan"}, "fusion_lon": 0.0, "lat": 38.8839925, "bike_id": "a2e1b02d2d6ff2192f0a48aea3edd19f", "type": "electric_scooter", "is_reserved": 0, "lon": -76.9304695}, {"fusion_lat": 0.0, "name": "87ddff62d00ed22ddee2a72c70e32bbd", "is_disabled": 0, "rental_uris": {"android": "https://dc.lft.to/lastmile_qr_scan", "ios": "https://dc.lft.to/lastmile_qr_scan"}, "fusion_lon": 0.0, "lat": 38.91020483333333, "bike_id": "87ddff62d00ed22ddee2a72c70e32bbd", "type": "electric_scooter", "is_reserved": 0, "lon": -77.052832}, {"fusion_lat": 0.0, "name": "828380692afd456e63bb4ac59e715b51", "is_disabled": 0, "rental_uris": {"android": "https://dc.lft.to/lastmile_qr_scan", "ios": "https://dc.lft.to/lastmile_qr_scan"}, "fusion_lon": 0.0, "lat": 38.8781825, "bike_id": "828380692afd456e63bb4ac59e715b51", "type": "electric_scooter", "is_reserved": 0, "lon": -77.0013065}, {"fusion_lat": 0.0, "name": "eb7c50bacbf118d20a3d0213372953d8", "is_disabled": 0, "rental_uris": {"android": "https://dc.lft.to/lastmile_qr_scan", "ios": "https://dc.lft.to/lastmile_qr_scan"}, "fusion_lon": 0.0, "lat": 38.928082333333336, "bike_id": "eb7c50bacbf118d20a3d0213372953d8", "type": "electric_scooter", "is_reserved": 0, "lon": -77.04357}, {"fusion_lat": 0.0, "name": "d0157eecee51061dc59679fa09102c80", "is_disabled": 0, "rental_uris": {"android": "https://dc.lft.to/lastmile_qr_scan", "ios": "https://dc.lft.to/lastmile_qr_scan"}, "fusion_lon": 0.0, "lat": 38.91716616666667, "bike_id": "d0157eecee51061dc59679fa09102c80", "type": "electric_scooter", "is_reserved": 0, "lon": -77.03188033333333}, {"fusion_lat": 0.0, "name": "b160ab0019282e93ac72e53fdeb3047f", "is_disabled": 0, "rental_uris": {"android": "https://dc.lft.to/lastmile_qr_scan", "ios": "https://dc.lft.to/lastmile_qr_scan"}, "fusion_lon": 0.0, "lat": 38.92036233333333, "bike_id": "b160ab0019282e93ac72e53fdeb3047f", "type": "electric_scooter", "is_reserved": 0, "lon": -76.99120916666666}, {"fusion_lat": 0.0, "name": "e20540a5e46c3dd79766b39d946be5ce", "is_disabled": 0, "rental_uris": {"android": "https://dc.lft.to/lastmile_qr_scan", "ios": "https://dc.lft.to/lastmile_qr_scan"}, "fusion_lon": 0.0, "lat": 38.914816, "bike_id": "e20540a5e46c3dd79766b39d946be5ce", "type": "electric_scooter", "is_reserved": 0, "lon": -77.02190966666667}, {"fusion_lat": 0.0, "name": "b19a26d4137a1c717458fce14a51831e", "is_disabled": 0, "rental_uris": {"android": "https://dc.lft.to/lastmile_qr_scan", "ios": "https://dc.lft.to/lastmile_qr_scan"}, "fusion_lon": 0.0, "lat": 38.84910716666667, "bike_id": "b19a26d4137a1c717458fce14a51831e", "type": "electric_bike", "is_reserved": 0, "lon": -77.09982783333334}, {"fusion_lat": 0.0, "name": "fa995c6ec0383114ab4a2b9c79b01bee", "is_disabled": 0, "rental_uris": {"android": "https://dc.lft.to/lastmile_qr_scan", "ios": "https://dc.lft.to/lastmile_qr_scan"}, "fusion_lon": 0.0, "lat": 38.90527383333333, "bike_id": "fa995c6ec0383114ab4a2b9c79b01bee", "type": "electric_bike", "is_reserved": 0, "lon": -77.05959}, {"fusion_lat": 0.0, "name": "12e0fa4de6bfe430087406d89135643f", "is_disabled": 0, "rental_uris": {"android": "https://dc.lft.to/lastmile_qr_scan", "ios": "https://dc.lft.to/lastmile_qr_scan"}, "fusion_lon": 0.0, "lat": 38.90763483333333, "bike_id": "12e0fa4de6bfe430087406d89135643f", "type": "electric_scooter", "is_reserved": 0, "lon": -77.03574366666666}, {"fusion_lat": 0.0, "name": "e14e0d6541a0c630527a28d3279a040d", "is_disabled": 0, "rental_uris": {"android": "https://dc.lft.to/lastmile_qr_scan", "ios": "https://dc.lft.to/lastmile_qr_scan"}, "fusion_lon": 0.0, "lat": 38.91224283333333, "bike_id": "e14e0d6541a0c630527a28d3279a040d", "type": "electric_scooter", "is_reserved": 0, "lon": -77.0320355}, {"fusion_lat": 0.0, "name": "d33b2bed1b69e978f1d69a40ddd84220", "is_disabled": 0, "rental_uris": {"android": "https://dc.lft.to/lastmile_qr_scan", "ios": "https://dc.lft.to/lastmile_qr_scan"}, "fusion_lon": 0.0, "lat": 38.916544, "bike_id": "d33b2bed1b69e978f1d69a40ddd84220", "type": "electric_scooter", "is_reserved": 0, "lon": -77.0385015}, {"fusion_lat": 0.0, "name": "48a1e119da34f5ff08c0ae0ed0d9bd34", "is_disabled": 0, "rental_uris": {"android": "https://dc.lft.to/lastmile_qr_scan", "ios": "https://dc.lft.to/lastmile_qr_scan"}, "fusion_lon": 0.0, "lat": 38.915893833333335, "bike_id": "48a1e119da34f5ff08c0ae0ed0d9bd34", "type": "electric_scooter", "is_reserved": 0, "lon": -77.04481766666666}, {"fusion_lat": 0.0, "name": "e62896a01f46f1505b28c02a7926dc2d", "is_disabled": 0, "rental_uris": {"android": "https://dc.lft.to/lastmile_qr_scan", "ios": "https://dc.lft.to/lastmile_qr_scan"}, "fusion_lon": 0.0, "lat": 38.90114533333333, "bike_id": "e62896a01f46f1505b28c02a7926dc2d", "type": "electric_scooter", "is_reserved": 0, "lon": -77.03173883333334}, {"fusion_lat": 0.0, "name": "02e366eadd10929ff9cebbd5a553576d", "is_disabled": 0, "rental_uris": {"android": "https://dc.lft.to/lastmile_qr_scan", "ios": "https://dc.lft.to/lastmile_qr_scan"}, "fusion_lon": 0.0, "lat": 38.87133683333333, "bike_id": "02e366eadd10929ff9cebbd5a553576d", "type": "electric_scooter", "is_reserved": 0, "lon": -77.00767133333333}, {"fusion_lat": 0.0, "name": "6bb38b711f673c57055f21e160bdf988", "is_disabled": 0, "rental_uris": {"android": "https://dc.lft.to/lastmile_qr_scan", "ios": "https://dc.lft.to/lastmile_qr_scan"}, "fusion_lon": 0.0, "lat": 38.888997, "bike_id": "6bb38b711f673c57055f21e160bdf988", "type": "electric_scooter", "is_reserved": 0, "lon": -76.99203966666667}, {"fusion_lat": 0.0, "name": "4bd116287e7ddba4febb1727db10bb15", "is_disabled": 0, "rental_uris": {"android": "https://dc.lft.to/lastmile_qr_scan", "ios": "https://dc.lft.to/lastmile_qr_scan"}, "fusion_lon": 0.0, "lat": 38.887444333333335, "bike_id": "4bd116287e7ddba4febb1727db10bb15", "type": "electric_scooter", "is_reserved": 0, "lon": -77.02228116666667}, {"fusion_lat": 0.0, "name": "c1eeee321d60c22bc5501c86682440ed", "is_disabled": 0, "rental_uris": {"android": "https://dc.lft.to/lastmile_qr_scan", "ios": "https://dc.lft.to/lastmile_qr_scan"}, "fusion_lon": 0.0, "lat": 38.86518433333333, "bike_id": "c1eeee321d60c22bc5501c86682440ed", "type": "electric_bike", "is_reserved": 0, "lon": -76.97336733333333}, {"fusion_lat": 0.0, "name": "cd8ad940cdf90e2370e9d2ccfd5ad042", "is_disabled": 0, "rental_uris": {"android": "https://dc.lft.to/lastmile_qr_scan", "ios": "https://dc.lft.to/lastmile_qr_scan"}, "fusion_lon": 0.0, "lat": 38.90393733333333, "bike_id": "cd8ad940cdf90e2370e9d2ccfd5ad042", "type": "electric_scooter", "is_reserved": 0, "lon": -77.0613985}, {"fusion_lat": 0.0, "name": "e5c76797691c6dcfa0da7804a59aff17", "is_disabled": 0, "rental_uris": {"android": "https://dc.lft.to/lastmile_qr_scan", "ios": "https://dc.lft.to/lastmile_qr_scan"}, "fusion_lon": 0.0, "lat": 38.923710666666665, "bike_id": "e5c76797691c6dcfa0da7804a59aff17", "type": "electric_scooter", "is_reserved": 0, "lon": -77.05263683333334}, {"fusion_lat": 0.0, "name": "baafa6fb5c2b9065742abfb07b3e3c5e", "is_disabled": 0, "rental_uris": {"android": "https://dc.lft.to/lastmile_qr_scan", "ios": "https://dc.lft.to/lastmile_qr_scan"}, "fusion_lon": 0.0, "lat": 38.905142833333336, "bike_id": "baafa6fb5c2b9065742abfb07b3e3c5e", "type": "electric_scooter", "is_reserved": 0, "lon": -77.047732}, {"fusion_lat": 0.0, "name": "ae4bc02b07fa3c04f41a64aa93ac45f0", "is_disabled": 0, "rental_uris": {"android": "https://dc.lft.to/lastmile_qr_scan", "ios": "https://dc.lft.to/lastmile_qr_scan"}, "fusion_lon": 0.0, "lat": 38.906180666666664, "bike_id": "ae4bc02b07fa3c04f41a64aa93ac45f0", "type": "electric_scooter", "is_reserved": 0, "lon": -77.02595866666667}, {"fusion_lat": 0.0, "name": "d5ef52c7f2a0854c389a6872765fa926", "is_disabled": 0, "rental_uris": {"android": "https://dc.lft.to/lastmile_qr_scan", "ios": "https://dc.lft.to/lastmile_qr_scan"}, "fusion_lon": 0.0, "lat": 38.907288666666666, "bike_id": "d5ef52c7f2a0854c389a6872765fa926", "type": "electric_scooter", "is_reserved": 0, "lon": -77.043518}, {"fusion_lat": 0.0, "name": "3a3f1f8b912b476e116879aeb762e46b", "is_disabled": 0, "rental_uris": {"android": "https://dc.lft.to/lastmile_qr_scan", "ios": "https://dc.lft.to/lastmile_qr_scan"}, "fusion_lon": 0.0, "lat": 38.95368766666667, "bike_id": "3a3f1f8b912b476e116879aeb762e46b", "type": "electric_scooter", "is_reserved": 0, "lon": -76.99840783333333}, {"fusion_lat": 0.0, "name": "32c37b48f624315914a86c6308ed56c0", "is_disabled": 0, "rental_uris": {"android": "https://dc.lft.to/lastmile_qr_scan", "ios": "https://dc.lft.to/lastmile_qr_scan"}, "fusion_lon": 0.0, "lat": 38.905114833333336, "bike_id": "32c37b48f624315914a86c6308ed56c0", "type": "electric_scooter", "is_reserved": 0, "lon": -77.04839483333333}, {"fusion_lat": 0.0, "name": "877d587f18dd7db5959a526963247a4c", "is_disabled": 0, "rental_uris": {"android": "https://dc.lft.to/lastmile_qr_scan", "ios": "https://dc.lft.to/lastmile_qr_scan"}, "fusion_lon": 0.0, "lat": 38.920427833333335, "bike_id": "877d587f18dd7db5959a526963247a4c", "type": "electric_scooter", "is_reserved": 0, "lon": -77.03473116666666}, {"fusion_lat": 0.0, "name": "961bfa4d554480b36ac100e8571a7ba5", "is_disabled": 0, "rental_uris": {"android": "https://dc.lft.to/lastmile_qr_scan", "ios": "https://dc.lft.to/lastmile_qr_scan"}, "fusion_lon": 0.0, "lat": 38.900604666666666, "bike_id": "961bfa4d554480b36ac100e8571a7ba5", "type": "electric_scooter", "is_reserved": 0, "lon": -76.93387616666666}, {"fusion_lat": 0.0, "name": "575f98c79f26f5fd8b3901861e39b5c9", "is_disabled": 0, "rental_uris": {"android": "https://dc.lft.to/lastmile_qr_scan", "ios": "https://dc.lft.to/lastmile_qr_scan"}, "fusion_lon": 0.0, "lat": 38.902340333333335, "bike_id": "575f98c79f26f5fd8b3901861e39b5c9", "type": "electric_scooter", "is_reserved": 0, "lon": -77.022895}, {"fusion_lat": 0.0, "name": "1b7c4824a00d5c92e97251a3bcefdd3c", "is_disabled": 0, "rental_uris": {"android": "https://dc.lft.to/lastmile_qr_scan", "ios": "https://dc.lft.to/lastmile_qr_scan"}, "fusion_lon": 0.0, "lat": 38.91208866666667, "bike_id": "1b7c4824a00d5c92e97251a3bcefdd3c", "type": "electric_scooter", "is_reserved": 0, "lon": -77.03208483333333}, {"fusion_lat": 0.0, "name": "ae09ac8cde99528cc071deef943bd4d0", "is_disabled": 0, "rental_uris": {"android": "https://dc.lft.to/lastmile_qr_scan", "ios": "https://dc.lft.to/lastmile_qr_scan"}, "fusion_lon": 0.0, "lat": 38.898332833333335, "bike_id": "ae09ac8cde99528cc071deef943bd4d0", "type": "electric_scooter", "is_reserved": 0, "lon": -76.9463695}, {"fusion_lat": 0.0, "name": "491aa82bba09d41713703ee5f16d8ee2", "is_disabled": 0, "rental_uris": {"android": "https://dc.lft.to/lastmile_qr_scan", "ios": "https://dc.lft.to/lastmile_qr_scan"}, "fusion_lon": 0.0, "lat": 38.876506166666665, "bike_id": "491aa82bba09d41713703ee5f16d8ee2", "type": "electric_scooter", "is_reserved": 0, "lon": -77.001212}, {"fusion_lat": 0.0, "name": "f918aa2b7635cf8652cbc8554291f349", "is_disabled": 0, "rental_uris": {"android": "https://dc.lft.to/lastmile_qr_scan", "ios": "https://dc.lft.to/lastmile_qr_scan"}, "fusion_lon": 0.0, "lat": 38.901732, "bike_id": "f918aa2b7635cf8652cbc8554291f349", "type": "electric_scooter", "is_reserved": 0, "lon": -76.99261883333334}, {"fusion_lat": 0.0, "name": "25b206afb6cd1207e5485250b23e4a35", "is_disabled": 0, "rental_uris": {"android": "https://dc.lft.to/lastmile_qr_scan", "ios": "https://dc.lft.to/lastmile_qr_scan"}, "fusion_lon": 0.0, "lat": 38.90684266666667, "bike_id": "25b206afb6cd1207e5485250b23e4a35", "type": "electric_scooter", "is_reserved": 0, "lon": -77.02697333333333}, {"fusion_lat": 0.0, "name": "e9ff78ea6fa721911e9fc68cd6987b63", "is_disabled": 0, "rental_uris": {"android": "https://dc.lft.to/lastmile_qr_scan", "ios": "https://dc.lft.to/lastmile_qr_scan"}, "fusion_lon": 0.0, "lat": 38.93507133333333, "bike_id": "e9ff78ea6fa721911e9fc68cd6987b63", "type": "electric_scooter", "is_reserved": 0, "lon": -77.032919}, {"fusion_lat": 0.0, "name": "7fd640e2739368256058b947b64e086f", "is_disabled": 0, "rental_uris": {"android": "https://dc.lft.to/lastmile_qr_scan", "ios": "https://dc.lft.to/lastmile_qr_scan"}, "fusion_lon": 0.0, "lat": 38.926427333333336, "bike_id": "7fd640e2739368256058b947b64e086f", "type": "electric_scooter", "is_reserved": 0, "lon": -77.03703666666667}, {"fusion_lat": 0.0, "name": "67872183785b56f939928d7c53d28ba0", "is_disabled": 0, "rental_uris": {"android": "https://dc.lft.to/lastmile_qr_scan", "ios": "https://dc.lft.to/lastmile_qr_scan"}, "fusion_lon": 0.0, "lat": 38.9058475, "bike_id": "67872183785b56f939928d7c53d28ba0", "type": "electric_scooter", "is_reserved": 0, "lon": -77.00677566666667},