{"data": {"bikes": [{"fusion_lat": 0.0, "is_reserved": 0, "is_disabled": 0, "rental_uris": {"android": "https://dc.lft.to/lastmile_qr_scan", "ios": "https://dc.lft.to/lastmile_qr_scan"}, "fusion_lon": 0.0, "lat": 38.923092833333335, "lon": -77.04260433333333, "type": "electric_scooter", "bike_id": "d8e337a6817944c885b22472f7a1d0d7", "name": "d8e337a6817944c885b22472f7a1d0d7"}, {"fusion_lat": 0.0, "is_reserved": 0, "is_disabled": 0, "rental_uris": {"android": "https://dc.lft.to/lastmile_qr_scan", "ios": "https://dc.lft.to/lastmile_qr_scan"}, "fusion_lon": 0.0, "lat": 38.88750266666667, "lon": -77.02072583333333, "type": "electric_scooter", "bike_id": "6419b1e7a65033a45dc131bfa7abeca4", "name": "6419b1e7a65033a45dc131bfa7abeca4"}, {"fusion_lat": 0.0, "is_reserved": 0, "is_disabled": 0, "rental_uris": {"android": "https://dc.lft.to/lastmile_qr_scan", "ios": "https://dc.lft.to/lastmile_qr_scan"}, "fusion_lon": 0.0, "lat": 38.8724175, "lon": -77.01211266666667, "type": "electric_scooter", "bike_id": "65da3ab5e8326228f60dd56ebf98604a", "name": "65da3ab5e8326228f60dd56ebf98604a"}, {"fusion_lat": 0.0, "is_reserved": 0, "is_disabled": 0, "rental_uris": {"android": "https://dc.lft.to/lastmile_qr_scan", "ios": "https://dc.lft.to/lastmile_qr_scan"}, "fusion_lon": 0.0, "lat": 38.903763833333336, "lon": -77.04563733333333, "type": "electric_scooter", "bike_id": "77363148dadebc79e6265a1d37d9298f", "name": "77363148dadebc79e6265a1d37d9298f"}, {"fusion_lat": 0.0, "is_reserved": 0, "is_disabled": 0, "rental_uris": {"android": "https://dc.lft.to/lastmile_qr_scan", "ios": "https://dc.lft.to/lastmile_qr_scan"}, "fusion_lon": 0.0, "lat": 38.903772000000004, "lon": -77.04673733333334, "type": "electric_scooter", "bike_id": "f60375591770bfa7e3a8b77117791984", "name": "f60375591770bfa7e3a8b77117791984"}, {"fusion_lat": 0.0, "is_reserved": 0, "is_disabled": 0, "rental_uris": {"android": "https://dc.lft.to/lastmile_qr_scan", "ios": "https://dc.lft.to/lastmile_qr_scan"}, "fusion_lon": 0.0, "lat": 38.916980333333335, "lon": -77.03631566666667, "type": "electric_scooter", "bike_id": "5d2c8bafe43d5fc79d0e4628dc71ceaf", "name": "5d2c8bafe43d5fc79d0e4628dc71ceaf"}, {"fusion_lat": 0.0, "is_reserved": 0, "is_disabled": 0, "rental_uris": {"android": "https://dc.lft.to/lastmile_qr_scan", "ios": "https://dc.lft.to/lastmile_qr_scan"}, "fusion_lon": 0.0, "lat": 38.9074015, "lon": -77.03985816666666, "type": "electric_scooter", "bike_id": "2ea278dd35efd0f2acd3327b32d30346", "name": "2ea278dd35efd0f2acd3327b32d30346"}, {"fusion_lat": 0.0, "is_reserved": 0, "is_disabled": 0, "rental_uris": {"android": "https://dc.lft.to/lastmile_qr_scan", "ios": "https://dc.lft.to/lastmile_qr_scan"}, "fusion_lon": 0.0, "lat": 38.89356166666666, "lon": -77.003295, "type": "electric_scooter", "bike_id": "5b9b76f0d5245d4e5b28efc1e4605861", "name": "5b9b76f0d5245d4e5b28efc1e4605861"}, {"fusion_lat": 0.0, "is_reserved": 0, "is_disabled": 0, "rental_uris": {"android": "https://dc.lft.to/lastmile_qr_scan", "ios": "https://dc.lft.to/lastmile_qr_scan"}, "fusion_lon": 0.0, "lat": 38.919056499999996, "lon": -77.04107866666666, "type": "electric_scooter", "bike_id": "d4e5451075e0d7373541609fd4fd1c0c", "name": "d4e5451075e0d7373541609fd4fd1c0c"}, {"fusion_lat": 0.0, "is_reserved": 0, "is_disabled": 0, "rental_uris": {"android": "https://dc.lft.to/lastmile_qr_scan", "ios": "https://dc.lft.to/lastmile_qr_scan"}, "fusion_lon": 0.0, "lat": 38.931089666666665, "lon": -77.02400116666666, "type": "electric_scooter", "bike_id": "8bc8a517bbd95db6f21b54d48d51ee25", "name": "8bc8a517bbd95db6f21b54d48d51ee25"}, {"fusion_lat": 0.0, "is_reserved": 0, "is_disabled": 0, "rental_uris": {"android": "https://dc.lft.to/lastmile_qr_scan", "ios": "https://dc.lft.to/lastmile_qr_scan"}, "fusion_lon": 0.0, "lat": 38.8531845, "lon": -76.980037, "type": "electric_scooter", "bike_id": "70930b17c5444bc4feb2db66540ac025", "name": "70930b17c5444bc4feb2db66540ac025"}, {"fusion_lat": 0.0, "is_reserved": 0, "is_disabled": 0, "rental_uris": {"android": "https://dc.lft.to/lastmile_qr_scan", "ios": "https://dc.lft.to/lastmile_qr_scan"}, "fusion_lon": 0.0, "lat": 38.91422083333333, "lon": -77.03255866666667, "type": "electric_scooter", "bike_id": "b3ad8f5a587cc0b5f7586105198b0376", "name": "b3ad8f5a587cc0b5f7586105198b0376"}, {"fusion_lat": 0.0, "is_reserved": 0, "is_disabled": 0, "rental_uris": {"android": "https://dc.lft.to/lastmile_qr_scan", "ios": "https://dc.lft.to/lastmile_qr_scan"}, "fusion_lon": 0.0, "lat": 38.896283333333336, "lon": -76.956548, "type": "electric_scooter", "bike_id": "44890fd949d4982522524572c72c71c2", "name": "44890fd949d4982522524572c72c71c2"}, {"fusion_lat": 0.0, "is_reserved": 0, "is_disabled": 0, "rental_uris": {"android": "https://dc.lft.to/lastmile_qr_scan", "ios": "https://dc.lft.to/lastmile_qr_scan"}, "fusion_lon": 0.0, "lat": 38.91630416666667, "lon": -77.031924, "type": "electric_scooter", "bike_id": "c8b8479d9d19c0125c8bed55d3c95cd1", "name": "c8b8479d9d19c0125c8bed55d3c95cd1"}, {"fusion_lat": 0.0, "is_reserved": 0, "is_disabled": 0, "rental_uris": {"android": "https://dc.lft.to/lastmile_qr_scan", "ios": "https://dc.lft.to/lastmile_qr_scan"}, "fusion_lon": 0.0, "lat": 38.93588283333333, "lon": -77.03525233333333, "type": "electric_scooter", "bike_id": "1402398b2951f8cfc3bbba1615eb7258", "name": "1402398b2951f8cfc3bbba1615eb7258"}, {"fusion_lat": 0.0, "is_reserved": 0, "is_disabled": 0, "rental_uris": {"android": "https://dc.lft.to/lastmile_qr_scan", "ios": "https://dc.lft.to/lastmile_qr_scan"}, "fusion_lon": 0.0, "lat": 38.897035833333334, "lon": -77.0049295, "type": "electric_scooter", "bike_id": "bf57192607f0dd9115e1fba22df22809", "name": "bf57192607f0dd9115e1fba22df22809"}, {"fusion_lat": 0.0, "is_reserved": 0, "is_disabled": 0, "rental_uris": {"android": "https://dc.lft.to/lastmile_qr_scan", "ios": "https://dc.lft.to/lastmile_qr_scan"}, "fusion_lon": 0.0, "lat": 38.937086, "lon": -77.02118533333334, "type": "electric_bike", "bike_id": "a3a586939aa2742239881c2dde963336", "name": "a3a586939aa2742239881c2dde963336"}, {"fusion_lat": 0.0, "is_reserved": 0, "is_disabled": 0, "rental_uris": {"android": "https://dc.lft.to/lastmile_qr_scan", "ios": "https://dc.lft.to/lastmile_qr_scan"}, "fusion_lon": 0.0, "lat": 38.9226355, "lon": -77.04135383333333, "type": "electric_scooter", "bike_id": "fced47eb42d31291358690aa837e8164", "name": "fced47eb42d31291358690aa837e8164"}, {"fusion_lat": 0.0, "is_reserved": 0, "is_disabled": 0, "rental_uris": {"android": "https://dc.lft.to/lastmile_qr_scan", "ios": "https://dc.lft.to/lastmile_qr_scan"}, "fusion_lon": 0.0, "lat": 38.902782333333334, "lon": -77.04616816666666, "type": "electric_scooter", "bike_id": "4e211fff409b8d2d1bbb31229b5660c8", "name": "4e211fff409b8d2d1bbb31229b5660c8"}, {"fusion_lat": 0.0, "is_reserved": 0, "is_disabled": 0, "rental_uris": {"android": "https://dc.lft.to/lastmile_qr_scan", "ios": "https://dc.lft.to/lastmile_qr_scan"}, "fusion_lon": 0.0, "lat": 38.94910683333333, "lon": -76.97235833333333, "type": "electric_bike", "bike_id": "d7e4224928d7c28d38cde2911513b788", "name": "d7e4224928d7c28d38cde2911513b788"}, {"fusion_lat": 0.0, "is_reserved": 0, "is_disabled": 0, "rental_uris": {"android": "https://dc.lft.to/lastmile_qr_scan", "ios": "https://dc.lft.to/lastmile_qr_scan"}, "fusion_lon": 0.0, "lat": 38.930685, "lon": -77.0312345, "type": "electric_scooter", "bike_id": "0feeaa7e0f02fc032862c1c7253eddb4", "name": "0feeaa7e0f02fc032862c1c7253eddb4"}, {"fusion_lat": 0.0, "is_reserved": 0, "is_disabled": 0, "rental_uris": {"android": "https://dc.lft.to/lastmile_qr_scan", "ios": "https://dc.lft.to/lastmile_qr_scan"}, "fusion_lon": 0.0, "lat": 38.9423735, "lon": -77.07240266666666, "type": "electric_scooter", "bike_id": "0861bd6050b5a8905480d3f9bf156175", "name": "0861bd6050b5a8905480d3f9bf156175"}, {"fusion_lat": 0.0, "is_reserved": 0, "is_disabled": 0, "rental_uris": {"android": "https://dc.lft.to/lastmile_qr_scan", "ios": "https://dc.lft.to/lastmile_qr_scan"}, "fusion_lon": 0.0, "lat": 38.89367433333334, "lon": -77.04787216666666, "type": "electric_scooter", "bike_id": "2115fe2353407adb6ef4e2e961e7253c", "name": "2115fe2353407adb6ef4e2e961e7253c"}, {"fusion_lat": 0.0, "is_reserved": 0, "is_disabled": 0, "rental_uris": {"android": "https://dc.lft.to/lastmile_qr_scan", "ios": "https://dc.lft.to/lastmile_qr_scan"}, "fusion_lon": 0.0, "lat": 38.91819133333333, "lon": -77.04172533333333, "type": "electric_scooter", "bike_id": "ec33ee72ede5b9b072819c0099876697", "name": "ec33ee72ede5b9b072819c0099876697"}, {"fusion_lat": 0.0, "is_reserved": 0, "is_disabled": 0, "rental_uris": {"android": "https://dc.lft.to/lastmile_qr_scan", "ios": "https://dc.lft.to/lastmile_qr_scan"}, "fusion_lon": 0.0, "lat": 38.89840983333333, "lon": -77.03339616666666, "type": "electric_scooter", "bike_id": "4165694af86b47f84eb32b08706c21ab", "name": "4165694af86b47f84eb32b08706c21ab"}, {"fusion_lat": 0.0, "is_reserved": 0, "is_disabled": 0, "rental_uris": {"android": "https://dc.lft.to/lastmile_qr_scan", "ios": "https://dc.lft.to/lastmile_qr_scan"}, "fusion_lon": 0.0, "lat": 38.99943366666667, "lon": -77.017685, "type": "electric_bike", "bike_id": "c933631ec24f11e8556d9a896f3345b7", "name": "c933631ec24f11e8556d9a896f3345b7"}, {"fusion_lat": 0.0, "is_reserved": 0, "is_disabled": 0, "rental_uris": {"android": "https://dc.lft.to/lastmile_qr_scan", "ios": "https://dc.lft.to/lastmile_qr_scan"}, "fusion_lon": 0.0, "lat": 38.936581833333335, "lon": -77.02383533333334, "type": "electric_scooter", "bike_id": "a0f29c82388efdb7c00fb5d7ed27658a", "name": "a0f29c82388efdb7c00fb5d7ed27658a"}, {"fusion_lat": 0.0, "is_reserved": 0, "is_disabled": 0, "rental_uris": {"android": "https://dc.lft.to/lastmile_qr_scan", "ios": "https://dc.lft.to/lastmile_qr_scan"}, "fusion_lon": 0.0, "lat": 38.916177833333336, "lon": -77.0488105, "type": "electric_scooter", "bike_id": "fc1b2fd9a9e20e04006afb7f3d5c80c0", "name": "fc1b2fd9a9e20e04006afb7f3d5c80c0"}, {"fusion_lat": 0.0, "is_reserved": 0, "is_disabled": 0, "rental_uris": {"android": "https://dc.lft.to/lastmile_qr_scan", "ios": "https://dc.lft.to/lastmile_qr_scan"}, "fusion_lon": 0.0, "lat": 38.911903, "lon": -77.03433916666667, "type": "electric_scooter", "bike_id": "2c2a8270ac2adff2b94aea91bd73e03c", "name": "2c2a8270ac2adff2b94aea91bd73e03c"}, {"fusion_lat": 0.0, "is_reserved": 0, "is_disabled": 0, "rental_uris": {"android": "https://dc.lft.to/lastmile_qr_scan", "ios": "https://dc.lft.to/lastmile_qr_scan"}, "fusion_lon": 0.0, "lat": 38.896118333333334, "lon": -77.04556216666667, "type": "electric_scooter", "bike_id": "6e3feecd6eb207e4e62b54ce74cd89dc", "name": "6e3feecd6eb207e4e62b54ce74cd89dc"}, {"fusion_lat": 0.0, "is_reserved": 0, "is_disabled": 0, "rental_uris": {"android": "https://dc.lft.to/lastmile_qr_scan", "ios": "https://dc.lft.to/lastmile_qr_scan"}, "fusion_lon": 0.0, "lat": 38.85511783333333, "lon": -77.12011333333334, "type": "electric_bike", "bike_id": "8b8bfd26dc31d556c30673398cb6c013", "name": "8b8bfd26dc31d556c30673398cb6c013"}, {"fusion_lat": 0.0, "is_reserved": 0, "is_disabled": 0, "rental_uris": {"android": "https://dc.lft.to/lastmile_qr_scan", "ios": "https://dc.lft.to/lastmile_qr_scan"}, "fusion_lon": 0.0, "lat": 38.909523166666666, "lon": -77.04655766666667, "type": "electric_scooter", "bike_id": "5d7f3b74aac433fcc1f3a473d0b48df2", "name": "5d7f3b74aac433fcc1f3a473d0b48df2"}, {"fusion_lat": 0.0, "is_reserved": 0, "is_disabled": 0, "rental_uris": {"android": "https://dc.lft.to/lastmile_qr_scan", "ios": "https://dc.lft.to/lastmile_qr_scan"}, "fusion_lon": 0.0, "lat": 38.898327, "lon": -76.94637633333333, "type": "electric_scooter", "bike_id": "5af815b7162a2c84d78f0f45f7e94af2", "name": "5af815b7162a2c84d78f0f45f7e94af2"}, {"fusion_lat": 0.0, "is_reserved": 0, "is_disabled": 0, "rental_uris": {"android": "https://dc.lft.to/lastmile_qr_scan", "ios": "https://dc.lft.to/lastmile_qr_scan"}, "fusion_lon": 0.0, "lat": 38.914765833333334, "lon": -77.02386083333333, "type": "electric_scooter", "bike_id": "ce996c0011fdd79867f86e4b7a1222f2", "name": "ce996c0011fdd79867f86e4b7a1222f2"}, {"fusion_lat": 0.0, "is_reserved": 0, "is_disabled": 0, "rental_uris": {"android": "https://dc.lft.to/lastmile_qr_scan", "ios": "https://dc.lft.to/lastmile_qr_scan"}, "fusion_lon": 0.0, "lat": 38.86658466666667, "lon": -76.98903333333334, "type": "electric_scooter", "bike_id": "ae0ca785615e91ea3e2c78a448378971", "name": "ae0ca785615e91ea3e2c78a448378971"}, {"fusion_lat": 0.0, "is_reserved": 0, "is_disabled": 0, "rental_uris": {"android": "https://dc.lft.to/lastmile_qr_scan", "ios": "https://dc.lft.to/lastmile_qr_scan"}, "fusion_lon": 0.0, "lat": 38.88975166666667, "lon": -76.937359, "type": "electric_scooter", "bike_id": "178f9d704fc920fabcb63acc94f240b1", "name": "178f9d704fc920fabcb63acc94f240b1"}, {"fusion_lat": 0.0, "is_reserved": 0, "is_disabled": 0, "rental_uris": {"android": "https://dc.lft.to/lastmile_qr_scan", "ios": "https://dc.lft.to/lastmile_qr_scan"}, "fusion_lon": 0.0, "lat": 38.90427966666667, "lon": -77.04031033333334, "type": "electric_scooter", "bike_id": "ee3670e8bf6c050cdcd3e686d109ffda", "name": "ee3670e8bf6c050cdcd3e686d109ffda"}, {"fusion_lat": 0.0, "is_reserved": 0, "is_disabled": 0, "rental_uris": {"android": "https://dc.lft.to/lastmile_qr_scan", "ios": "https://dc.lft.to/lastmile_qr_scan"}, "fusion_lon": 0.0, "lat": 38.90754, "lon": -76.99872766666667, "type": "electric_scooter", "bike_id": "e3ba9d28603025f8ac25107f0ca8e51d", "name": "e3ba9d28603025f8ac25107f0ca8e51d"}, {"fusion_lat": 0.0, "is_reserved": 0, "is_disabled": 0, "rental_uris": {"android": "https://dc.lft.to/lastmile_qr_scan", "ios": "https://dc.lft.to/lastmile_qr_scan"}, "fusion_lon": 0.0, "lat": 38.925096833333335, "lon": -77.04088633333333, "type": "electric_scooter", "bike_id": "1781e2cbe64c94b41f124e16c72b24d1", "name": "1781e2cbe64c94b41f124e16c72b24d1"}, {"fusion_lat": 0.0, "is_reserved": 0, "is_disabled": 0, "rental_uris": {"android": "https://dc.lft.to/lastmile_qr_scan", "ios": "https://dc.lft.to/lastmile_qr_scan"}, "fusion_lon": 0.0, "lat": 38.884388333333334, "lon": -76.957604, "type": "electric_scooter", "bike_id": "5ffe98150e558e280fcb16de3c06239e", "name": "5ffe98150e558e280fcb16de3c06239e"}, {"fusion_lat": 0.0, "is_reserved": 0, "is_disabled": 0, "rental_uris": {"android": "https://dc.lft.to/lastmile_qr_scan", "ios": "https://dc.lft.to/lastmile_qr_scan"}, "fusion_lon": 0.0, "lat": 38.90546783333333, "lon": -77.050122, "type": "electric_scooter", "bike_id": "ec2248f6dd8358129e2ec29ef484220e", "name": "ec2248f6dd8358129e2ec29ef484220e"}, {"fusion_lat": 0.0, "is_reserved": 0, "is_disabled": 0, "rental_uris": {"android": "https://dc.lft.to/lastmile_qr_scan", "ios": "https://dc.lft.to/lastmile_qr_scan"}, "fusion_lon": 0.0, "lat": 38.87461733333333, "lon": -77.004882, "type": "electric_scooter", "bike_id": "c8655bdbfead077f9f4e0d3281c150c3", "name": "c8655bdbfead077f9f4e0d3281c150c3"}, {"fusion_lat": 0.0, "is_reserved": 0, "is_disabled": 0, "rental_uris": {"android": "https://dc.lft.to/lastmile_qr_scan", "ios": "https://dc.lft.to/lastmile_qr_scan"}, "fusion_lon": 0.0, "lat": 38.9650475, "lon": -77.06490216666667, "type": "electric_bike", "bike_id": "84db471bcb7244bf4973f8ff11224478", "name": "84db471bcb7244bf4973f8ff11224478"}, {"fusion_lat": 0.0, "is_reserved": 0, "is_disabled": 0, "rental_uris": {"android": "https://dc.lft.to/lastmile_qr_scan", "ios": "https://dc.lft.to/lastmile_qr_scan"}, "fusion_lon": 0.0, "lat": 38.9242855, "lon": -77.05061383333333, "type": "electric_scooter", "bike_id": "b8acdf9461fc865a0eb11e4671ca08c6", "name": "b8acdf9461fc865a0eb11e4671ca08c6"}, {"fusion_lat": 0.0, "is_reserved": 0, "is_disabled": 0, "rental_uris": {"android": "https://dc.lft.to/lastmile_qr_scan", "ios": "https://dc.lft.to/lastmile_qr_scan"}, "fusion_lon": 0.0, "lat": 38.90389866666666, "lon": -77.0438865, "type": "electric_scooter", "bike_id": "a2ea08321c60c1b69d53387457cd4b25", "name": "a2ea08321c60c1b69d53387457cd4b25"}, {"fusion_lat": 0.0, "is_reserved": 0, "is_disabled": 0, "rental_uris": {"android": "https://dc.lft.to/lastmile_qr_scan", "ios": "https://dc.lft.to/lastmile_qr_scan"}, "fusion_lon": 0.0, "lat": 38.94598966666667, "lon": -77.02978466666667, "type": "electric_scooter", "bike_id": "5367304faff78bff76c621ee7d8261b8", "name": "5367304faff78bff76c621ee7d8261b8"}, {"fusion_lat": 0.0, "is_reserved": 0, "is_disabled": 0, "rental_uris": {"android": "https://dc.lft.to/lastmile_qr_scan", "ios": "https://dc.lft.to/lastmile_qr_scan"}, "fusion_lon": 0.0, "lat": 38.8961865, "lon": -77.04495233333333, "type": "electric_scooter", "bike_id": "e41769467138647db6e9aab2d918cc5a", "name": "e41769467138647db6e9aab2d918cc5a"}, {"fusion_lat": 0.0, "is_reserved": 0, "is_disabled": 0, "rental_uris": {"android": "https://dc.lft.to/lastmile_qr_scan", "ios": "https://dc.lft.to/lastmile_qr_scan"}, "fusion_lon": 0.0, "lat": 38.84592383333333, "lon": -77.076832, "type": "electric_bike", "bike_id": "18e6ae1cb319b071e6ffe85b743b223a", "name": "18e6ae1cb319b071e6ffe85b743b223a"}, {"fusion_lat": 0.0, "is_reserved": 0, "is_disabled": 0, "rental_uris": {"android": "https://dc.lft.to/lastmile_qr_scan", "ios": "https://dc.lft.to/lastmile_qr_scan"}, "fusion_lon": 0.0, "lat": 38.966201, "lon": -77.03653133333333, "type": "electric_bike", "bike_id": "0f8046cc300816825e6168f198b2d546", "name": "0f8046cc300816825e6168f198b2d546"}, {"fusion_lat": 0.0, "is_reserved": 0, "is_disabled": 0, "rental_uris": {"android": "https://dc.lft.to/lastmile_qr_scan", "ios": "https://dc.lft.to/lastmile_qr_scan"}, "fusion_lon": 0.0, "lat": 38.86621133333333, "lon": -76.98659833333333, "type": "electric_scooter", "bike_id": "a67b3c2264cbb037d8d60e701188ff68", "name": "a67b3c2264cbb037d8d60e701188ff68"}, {"fusion_lat": 0.0, "is_reserved": 0, "is_disabled": 0, "rental_uris": {"android": "https://dc.lft.to/lastmile_qr_scan", "ios": "https://dc.lft.to/lastmile_qr_scan"}, "fusion_lon": 0.0, "lat": 38.90567566666667, "lon": -77.02203933333334, "type": "electric_scooter", "bike_id": "221c94ddd3de932b07dd70c9ab023166", "name": "221c94ddd3de932b07dd70c9ab023166"}, {"fusion_lat": 0.0, "is_reserved": 0, "is_disabled": 0, "rental_uris": {"android": "https://dc.lft.to/lastmile_qr_scan", "ios": "https://dc.lft.to/lastmile_qr_scan"}, "fusion_lon": 0.0, "lat": 38.907224666666664, "lon": -77.0398355, "type": "electric_scooter", "bike_id": "6f4d577fb10b78f83bbc118917207825", "name": "6f4d577fb10b78f83bbc118917207825"}, {"fusion_lat": 0.0, "is_reserved": 0, "is_disabled": 0, "rental_uris": {"android": "https://dc.lft.to/lastmile_qr_scan", "ios": "https://dc.lft.to/lastmile_qr_scan"}, "fusion_lon": 0.0, "lat": 38.9097935, "lon": -77.02187783333333, "type": "electric_scooter", "bike_id": "6db260c2d934f8fee2aa7b40ff9d8360", "name": "6db260c2d934f8fee2aa7b40ff9d8360"}, {"fusion_lat": 0.0, "is_reserved": 0, "is_disabled": 0, "rental_uris": {"android": "https://dc.lft.to/lastmile_qr_scan", "ios": "https://dc.lft.to/lastmile_qr_scan"}, "fusion_lon": 0.0, "lat": 38.92360633333333, "lon": -77.05078183333333, "type": "electric_scooter", "bike_id": "873e5026566f5e5d79ae131a8ed15f8f", "name": "873e5026566f5e5d79ae131a8ed15f8f"}, {"fusion_lat": 0.0, "is_reserved": 0, "is_disabled": 0, "rental_uris": {"android": "https://dc.lft.to/lastmile_qr_scan", "ios": "https://dc.lft.to/lastmile_qr_scan"}, "fusion_lon": 0.0, "lat": 38.941874166666665, "lon": -77.02487983333333, "type": "electric_scooter", "bike_id": "a0b9b32b2ae37771172f454b2a122468", "name": "a0b9b32b2ae37771172f454b2a122468"}, {"fusion_lat": 0.0, "is_reserved": 0, "is_disabled": 0, "rental_uris": {"android": "https://dc.lft.to/lastmile_qr_scan", "ios": "https://dc.lft.to/lastmile_qr_scan"}, "fusion_lon": 0.0, "lat": 38.91715, "lon": -77.03882816666666, "type": "electric_scooter", "bike_id": "a46015d590e6cc166a1687e3cf180043", "name": "a46015d590e6cc166a1687e3cf180043"}, {"fusion_lat": 0.0, "is_reserved": 0, "is_disabled": 0, "rental_uris": {"android": "https://dc.lft.to/lastmile_qr_scan", "ios": "https://dc.lft.to/lastmile_qr_scan"}, "fusion_lon": 0.0, "lat": 38.917302, "lon": -77.04174733333333, "type": "electric_scooter", "bike_id": "73daf4113a1036561f0e744e1a23e6a0", "name": "73daf4113a1036561f0e744e1a23e6a0"}, {"fusion_lat": 0.0, "is_reserved": 0, "is_disabled": 0, "rental_uris": {"android": "https://dc.lft.to/lastmile_qr_scan", "ios": "https://dc.lft.to/lastmile_qr_scan"}, "fusion_lon": 0.0, "lat": 38.91419783333333, "lon": -77.03159433333333, "type": "electric_scooter", "bike_id": "436b1a0dbcd9c8f5af1bc1ed2d6ad37f", "name": "436b1a0dbcd9c8f5af1bc1ed2d6ad37f"}, {"fusion_lat": 0.0, "is_reserved": 0, "is_disabled": 0, "rental_uris": {"android": "https://dc.lft.to/lastmile_qr_scan", "ios": "https://dc.lft.to/lastmile_qr_scan"}, "fusion_lon": 0.0, "lat": 38.930699833333335, "lon": -77.022663, "type": "electric_scooter", "bike_id": "184b3f66e82c9a6fa6e6f3500af9b112", "name": "184b3f66e82c9a6fa6e6f3500af9b112"}, {"fusion_lat": 0.0, "is_reserved": 0, "is_disabled": 0, "rental_uris": {"android": "https://dc.lft.to/lastmile_qr_scan", "ios": "https://dc.lft.to/lastmile_qr_scan"}, "fusion_lon": 0.0, "lat": 38.925997, "lon": -77.05694166666666, "type": "electric_scooter", "bike_id": "36879d177d50752cad6364ac4db4f4fa", "name": "36879d177d50752cad6364ac4db4f4fa"}, {"fusion_lat": 0.0, "is_reserved": 0, "is_disabled": 0, "rental_uris": {"android": "https://dc.lft.to/lastmile_qr_scan", "ios": "https://dc.lft.to/lastmile_qr_scan"}, "fusion_lon": 0.0, "lat": 38.92333333333333, "lon": -77.03889916666667, "type": "electric_scooter", "bike_id": "4dc642e59712340a5f0d23ae427088d8", "name": "4dc642e59712340a5f0d23ae427088d8"}, {"fusion_lat": 0.0, "is_reserved": 0, "is_disabled": 0, "rental_uris": {"android": "https://dc.lft.to/lastmile_qr_scan", "ios": "https://dc.lft.to/lastmile_qr_scan"}, "fusion_lon": 0.0, "lat": 38.923539833333336, "lon": -77.032196, "type": "electric_scooter", "bike_id": "844d9b1389bebd6ad5e1082c78440773", "name": "844d9b1389bebd6ad5e1082c78440773"}, {"fusion_lat": 0.0, "is_reserved": 0, "is_disabled": 0, "rental_uris": {"android": "https://dc.lft.to/lastmile_qr_scan", "ios": "https://dc.lft.to/lastmile_qr_scan"}, "fusion_lon": 0.0, "lat": 38.91823466666666, "lon": -77.01103533333334, "type": "electric_scooter", "bike_id": "67e23fd36375b0a078e59a5258ca8bcc", "name": "67e23fd36375b0a078e59a5258ca8bcc"}, {"fusion_lat": 0.0, "is_reserved": 0, "is_disabled": 0, "rental_uris": {"android": "https://dc.lft.to/lastmile_qr_scan", "ios": "https://dc.lft.to/lastmile_qr_scan"}, "fusion_lon": 0.0, "lat": 38.92438083333333, "lon": -77.029802, "type": "electric_scooter", "bike_id": "a781dcc0c05fab368e123b8b9ca4d7bc", "name": "a781dcc0c05fab368e123b8b9ca4d7bc"}, {"fusion_lat": 0.0, "is_reserved": 0, "is_disabled": 0, "rental_uris": {"android": "https://dc.lft.to/lastmile_qr_scan", "ios": "https://dc.lft.to/lastmile_qr_scan"}, "fusion_lon": 0.0, "lat": 38.894718166666664, "lon": -76.94837283333334, "type": "electric_bike", "bike_id": "93d515ba1dc776f440bd8199c7fc3e68", "name": "93d515ba1dc776f440bd8199c7fc3e68"}, {"fusion_lat": 0.0, "is_reserved": 0, "is_disabled": 0, "rental_uris": {"android": "https://dc.lft.to/lastmile_qr_scan", "ios": "https://dc.lft.to/lastmile_qr_scan"}, "fusion_lon": 0.0, "lat": 38.90975366666667, "lon": -77.03378166666667, "type": "electric_scooter", "bike_id": "7f192e26c9574cf12af84b1e80d64375", "name": "7f192e26c9574cf12af84b1e80d64375"}, {"fusion_lat": 0.0, "is_reserved": 0, "is_disabled": 0, "rental_uris": {"android": "https://dc.lft.to/lastmile_qr_scan", "ios": "https://dc.lft.to/lastmile_qr_scan"}, "fusion_lon": 0.0, "lat": 38.92594916666667, "lon": -77.0322425, "type": "electric_scooter", "bike_id": "33125453cffc5451d18b49809d0fee52", "name": "33125453cffc5451d18b49809d0fee52"}, {"fusion_lat": 0.0, "is_reserved": 0, "is_disabled": 0, "rental_uris": {"android": "https://dc.lft.to/lastmile_qr_scan", "ios": "https://dc.lft.to/lastmile_qr_scan"}, "fusion_lon": 0.0, "lat": 38.907258166666665, "lon": -77.003643, "type": "electric_scooter", "bike_id": "d2690cfb706f427884018090075759fb", "name": "d2690cfb706f427884018090075759fb"}, {"fusion_lat": 0.0, "is_reserved": 0, "is_disabled": 0, "rental_uris": {"android": "https://dc.lft.to/lastmile_qr_scan", "ios": "https://dc.lft.to/lastmile_qr_scan"}, "fusion_lon": 0.0, "lat": 38.9078915, "lon": -77.0447735, "type": "electric_scooter", "bike_id": "28c7fcaf185c589cac3fcabda48bfdf6", "name": "28c7fcaf185c589cac3fcabda48bfdf6"}, {"fusion_lat": 0.0, "is_reserved": 0, "is_disabled": 0, "rental_uris": {"android": "https://dc.lft.to/lastmile_qr_scan", "ios": "https://dc.lft.to/lastmile_qr_scan"}, "fusion_lon": 0.0, "lat": 38.920268166666666, "lon": -77.03137866666667, "type": "electric_scooter", "bike_id": "0914f51282102c98edd8260e8bcd4ea9", "name": "0914f51282102c98edd8260e8bcd4ea9"}, {"fusion_lat": 0.0, "is_reserved": 0, "is_disabled": 0, "rental_uris": {"android": "https://dc.lft.to/lastmile_qr_scan", "ios": "https://dc.lft.to/lastmile_qr_scan"}, "fusion_lon": 0.0, "lat": 38.8985295, "lon": -77.02284833333333, "type": "electric_scooter", "bike_id": "5e0cb6bb9ec5e9b4b166405f0b3e02a6", "name": "5e0cb6bb9ec5e9b4b166405f0b3e02a6"}, {"fusion_lat": 0.0, "is_reserved": 0, "is_disabled": 0, "rental_uris": {"android": "https://dc.lft.to/lastmile_qr_scan", "ios": "https://dc.lft.to/lastmile_qr_scan"}, "fusion_lon": 0.0, "lat": 38.8982005, "lon": -77.03312483333333, "type": "electric_scooter", "bike_id": "b39ed3ebf271c9276932e12c12caa1d3", "name": "b39ed3ebf271c9276932e12c12caa1d3"}, {"fusion_lat": 0.0, "is_reserved": 0, "is_disabled": 0, "rental_uris": {"android": "https://dc.lft.to/lastmile_qr_scan", "ios": "https://dc.lft.to/lastmile_qr_scan"}, "fusion_lon": 0.0, "lat": 38.8579395, "lon": -76.98744816666667, "type": "electric_bike", "bike_id": "6420ae8d26b618866ca219bbcfaf7571", "name": "6420ae8d26b618866ca219bbcfaf7571"}, {"fusion_lat": 0.0, "is_reserved": 0, "is_disabled": 0, "rental_uris": {"android": "https://dc.lft.to/lastmile_qr_scan", "ios": "https://dc.lft.to/lastmile_qr_scan"}, "fusion_lon": 0.0, "lat": 38.8874855, "lon": -77.021682, "type": "electric_scooter", "bike_id": "10f7db18424071178605e8896f1db903", "name": "10f7db18424071178605e8896f1db903"}, {"fusion_lat": 0.0, "is_reserved": 0, "is_disabled": 0, "rental_uris": {"android": "https://dc.lft.to/lastmile_qr_scan", "ios": "https://dc.lft.to/lastmile_qr_scan"}, "fusion_lon": 0.0, "lat": 38.919216666666664, "lon": -77.03382616666667, "type": "electric_scooter", "bike_id": "0524bfc8f897839369686412127cb9b0", "name": "0524bfc8f897839369686412127cb9b0"}, {"fusion_lat": 0.0, "is_reserved": 0, "is_disabled": 0, "rental_uris": {"android": "https://dc.lft.to/lastmile_qr_scan", "ios": "https://dc.lft.to/lastmile_qr_scan"}, "fusion_lon": 0.0, "lat": 38.91820466666667, "lon": -77.004691, "type": "electric_scooter", "bike_id": "e8a8ec31cf596d5a2ee1cc516bc83f1a", "name": "e8a8ec31cf596d5a2ee1cc516bc83f1a"}, {"fusion_lat": 0.0, "is_reserved": 0, "is_disabled": 0, "rental_uris": {"android": "https://dc.lft.to/lastmile_qr_scan", "ios": "https://dc.lft.to/lastmile_qr_scan"}, "fusion_lon": 0.0, "lat": 38.875361833333336, "lon": -77.00505966666667, "type": "electric_scooter", "bike_id": "837b4197d1ff62b2584d92c40573c3f2", "name": "837b4197d1ff62b2584d92c40573c3f2"}, {"fusion_lat": 0.0, "is_reserved": 0, "is_disabled": 0, "rental_uris": {"android": "https://dc.lft.to/lastmile_qr_scan", "ios": "https://dc.lft.to/lastmile_qr_scan"}, "fusion_lon": 0.0, "lat": 38.894986833333334, "lon": -77.0021865, "type": "electric_scooter", "bike_id": "eddbf2422320cc5f64ddb24675afc828", "name": "eddbf2422320cc5f64ddb24675afc828"}, {"fusion_lat": 0.0, "is_reserved": 0, "is_disabled": 0, "rental_uris": {"android": "https://dc.lft.to/lastmile_qr_scan", "ios": "https://dc.lft.to/lastmile_qr_scan"}, "fusion_lon": 0.0, "lat": 38.924315, "lon": -77.05208733333333, "type": "electric_scooter", "bike_id": "253c5d2ecaa18997882bd3fd61cc66b1", "name": "253c5d2ecaa18997882bd3fd61cc66b1"}, {"fusion_lat": 0.0, "is_reserved": 0, "is_disabled": 0, "rental_uris": {"android": "https://dc.lft.to/lastmile_qr_scan", "ios": "https://dc.lft.to/lastmile_qr_scan"}, "fusion_lon": 0.0, "lat": 38.922357833333336, "lon": -77.04392716666666, "type": "electric_scooter", "bike_id": "941da63a5a8f5179977cb5158dc33f90", "name": "941da63a5a8f5179977cb5158dc33f90"}, {"fusion_lat": 0.0, "is_reserved": 0, "is_disabled": 0, "rental_uris": {"android": "https://dc.lft.to/lastmile_qr_scan", "ios": "https://dc.lft.to/lastmile_qr_scan"}, "fusion_lon": 0.0, "lat": 38.90016166666667, "lon": -77.0289105, "type": "electric_scooter", "bike_id": "f05fc662d1efe3b06cfb5962da9e3c9a", "name": "f05fc662d1efe3b06cfb5962da9e3c9a"}, {"fusion_lat": 0.0, "is_reserved": 0, "is_disabled": 0, "rental_uris": {"android": "https://dc.lft.to/lastmile_qr_scan", "ios": "https://dc.lft.to/lastmile_qr_scan"}, "fusion_lon": 0.0, "lat": 38.927143, "lon": -77.04198666666667, "type": "electric_scooter", "bike_id": "7cf3cd62484901f653a27112e0ee7b9f", "name": "7cf3cd62484901f653a27112e0ee7b9f"}, {"fusion_lat": 0.0, "is_reserved": 0, "is_disabled": 0, "rental_uris": {"android": "https://dc.lft.to/lastmile_qr_scan", "ios": "https://dc.lft.to/lastmile_qr_scan"}, "fusion_lon": 0.0, "lat": 38.90448333333333, "lon": -77.03216616666667, "type": "electric_scooter", "bike_id": "903f0b0e8e0a9cbc55cf8416366fed41", "name": "903f0b0e8e0a9cbc55cf8416366fed41"}, {"fusion_lat": 0.0, "is_reserved": 0, "is_disabled": 0, "rental_uris": {"android": "https://dc.lft.to/lastmile_qr_scan", "ios": "https://dc.lft.to/lastmile_qr_scan"}, "fusion_lon": 0.0, "lat": 38.86659133333333, "lon": -76.98883533333333, "type": "electric_scooter", "bike_id": "586b8793d2f4fb98fe9adce90b997042", "name": "586b8793d2f4fb98fe9adce90b997042"}, {"fusion_lat": 0.0, "is_reserved": 0, "is_disabled": 0, "rental_uris": {"android": "https://dc.lft.to/lastmile_qr_scan", "ios": "https://dc.lft.to/lastmile_qr_scan"}, "fusion_lon": 0.0, "lat": 38.89519116666666, "lon": -76.977331, "type": "electric_scooter", "bike_id": "3a6411cdd92821dfdf82f7351f91c2be", "name": "3a6411cdd92821dfdf82f7351f91c2be"}, {"fusion_lat": 0.0, "is_reserved": 0, "is_disabled": 0, "rental_uris": {"android": "https://dc.lft.to/lastmile_qr_scan", "ios": "https://dc.lft.to/lastmile_qr_scan"}, "fusion_lon": 0.0, "lat": 38.933967833333334, "lon": -77.0411765, "type": "electric_scooter", "bike_id": "6b5e7a2227330cedf13053305a99e9b4", "name": "6b5e7a2227330cedf13053305a99e9b4"}, {"fusion_lat": 0.0, "is_reserved": 0, "is_disabled": 0, "rental_uris": {"android": "https://dc.lft.to/lastmile_qr_scan", "ios": "https://dc.lft.to/lastmile_qr_scan"}, "fusion_lon": 0.0, "lat": 38.95492733333333, "lon": -77.06560766666666, "type": "electric_scooter", "bike_id": "d7c081298e86e11114723355bef4f73a", "name": "d7c081298e86e11114723355bef4f73a"}, {"fusion_lat": 0.0, "is_reserved": 0, "is_disabled": 0, "rental_uris": {"android": "https://dc.lft.to/lastmile_qr_scan", "ios": "https://dc.lft.to/lastmile_qr_scan"}, "fusion_lon": 0.0, "lat": 38.922236, "lon": -77.04238933333333, "type": "electric_scooter", "bike_id": "8a5abf39f8f8673430ca4630fcfa83ca", "name": "8a5abf39f8f8673430ca4630fcfa83ca"}, {"fusion_lat": 0.0, "is_reserved": 0, "is_disabled": 0, "rental_uris": {"android": "https://dc.lft.to/lastmile_qr_scan", "ios": "https://dc.lft.to/lastmile_qr_scan"}, "fusion_lon": 0.0, "lat": 38.8723675, "lon": -77.016343, "type": "electric_scooter", "bike_id": "eb291a6f575dec2781f2beaedf7423c1", "name": "eb291a6f575dec2781f2beaedf7423c1"}, {"fusion_lat": 0.0, "is_reserved": 0, "is_disabled": 0, "rental_uris": {"android": "https://dc.lft.to/lastmile_qr_scan", "ios": "https://dc.lft.to/lastmile_qr_scan"}, "fusion_lon": 0.0, "lat": 38.892237, "lon": -77.026462, "type": "electric_scooter", "bike_id": "71de7899a619f4f30339da3bd8ad6923", "name": "71de7899a619f4f30339da3bd8ad6923"}, {"fusion_lat": 0.0, "is_reserved": 0, "is_disabled": 0, "rental_uris": {"android": "https://dc.lft.to/lastmile_qr_scan", "ios": "https://dc.lft.to/lastmile_qr_scan"}, "fusion_lon": 0.0, "lat": 38.920326, "lon": -77.018141, "type": "electric_scooter", "bike_id": "0fa7d064c8a05ababb2236358d1a8b43", "name": "0fa7d064c8a05ababb2236358d1a8b43"}, {"fusion_lat": 0.0, "is_reserved": 0, "is_disabled": 0, "rental_uris": {"android": "https://dc.lft.to/lastmile_qr_scan", "ios": "https://dc.lft.to/lastmile_qr_scan"}, "fusion_lon": 0.0, "lat": 38.8764915, "lon": -77.00427383333333, "type": "electric_scooter", "bike_id": "762fc1b24231c74368b74a11b22a862a", "name": "762fc1b24231c74368b74a11b22a862a"}, {"fusion_lat": 0.0, "is_reserved": 0, "is_disabled": 0, "rental_uris": {"android": "https://dc.lft.to/lastmile_qr_scan", "ios": "https://dc.lft.to/lastmile_qr_scan"}, "fusion_lon": 0.0, "lat": 38.864445833333335, "lon": -76.973704, "type": "electric_scooter", "bike_id": "2dd740cdc150bc19c60d75b86c466806", "name": "2dd740cdc150bc19c60d75b86c466806"}, {"fusion_lat": 0.0, "is_reserved": 0, "is_disabled": 0, "rental_uris": {"android": "https://dc.lft.to/lastmile_qr_scan", "ios": "https://dc.lft.to/lastmile_qr_scan"}, "fusion_lon": 0.0, "lat": 38.903898166666664, "lon": -77.0076715, "type": "electric_scooter", "bike_id": "1f0d869b99c562a36be19639667ad5d9", "name": "1f0d869b99c562a36be19639667ad5d9"}, {"fusion_lat": 0.0, "is_reserved": 0, "is_disabled": 0, "rental_uris": {"android": "https://dc.lft.to/lastmile_qr_scan", "ios": "https://dc.lft.to/lastmile_qr_scan"}, "fusion_lon": 0.0, "lat": 38.90275483333333, "lon": -77.03873, "type": "electric_scooter", "bike_id": "d0ae2ed9bfb776393f80f3d52f2d5d2e", "name": "d0ae2ed9bfb776393f80f3d52f2d5d2e"}, {"fusion_lat": 0.0, "is_reserved": 0, "is_disabled": 0, "rental_uris": {"android": "https://dc.lft.to/lastmile_qr_scan", "ios": "https://dc.lft.to/lastmile_qr_scan"}, "fusion_lon": 0.0, "lat": 38.89960816666667, "lon": -77.05175016666666, "type": "electric_scooter", "bike_id": "792472e7a94a414363440edbf7488138", "name": "792472e7a94a414363440edbf7488138"}, {"fusion_lat": 0.0, "is_reserved": 0, "is_disabled": 0, "rental_uris": {"android": "https://dc.lft.to/lastmile_qr_scan", "ios": "https://dc.lft.to/lastmile_qr_scan"}, "fusion_lon": 0.0, "lat": 38.90072683333333, "lon": -77.05028233333333, "type": "electric_scooter", "bike_id": "16d32d032275ca3590a0283911348747", "name": "16d32d032275ca3590a0283911348747"}, {"fusion_lat": 0.0, "is_reserved": 0, "is_disabled": 0, "rental_uris": {"android": "https://dc.lft.to/lastmile_qr_scan", "ios": "https://dc.lft.to/lastmile_qr_scan"}, "fusion_lon": 0.0, "lat": 38.92259116666666, "lon": -77.0340345, "type": "electric_scooter", "bike_id": "66b01ccc087056ff8a162fcbab4a722f", "name": "66b01ccc087056ff8a162fcbab4a722f"}, {"fusion_lat": 0.0, "is_reserved": 0, "is_disabled": 0, "rental_uris": {"android": "https://dc.lft.to/lastmile_qr_scan", "ios": "https://dc.lft.to/lastmile_qr_scan"}, "fusion_lon": 0.0, "lat": 38.9263415, "lon": -77.0378765, "type": "electric_scooter", "bike_id": "eb00076eb4ef1496725dfabc0e626168", "name": "eb00076eb4ef1496725dfabc0e626168"}, {"fusion_lat": 0.0, "is_reserved": 0, "is_disabled": 0, "rental_uris": {"android": "https://dc.lft.to/lastmile_qr_scan", "ios": "https://dc.lft.to/lastmile_qr_scan"}, "fusion_lon": 0.0, "lat": 38.897415, "lon": -77.04682, "type": "electric_scooter", "bike_id": "19690aae431050058905fc2266026cd5", "name": "19690aae431050058905fc2266026cd5"}, {"fusion_lat": 0.0, "is_reserved": 0, "is_disabled": 0, "rental_uris": {"android": "https://dc.lft.to/lastmile_qr_scan", "ios": "https://dc.lft.to/lastmile_qr_scan"}, "fusion_lon": 0.0, "lat": 38.91624, "lon": -77.03952833333334, "type": "electric_scooter", "bike_id": "3ef007bc6e0563a718df90a22db0e4e6", "name": "3ef007bc6e0563a718df90a22db0e4e6"}, {"fusion_lat": 0.0, "is_reserved": 0, "is_disabled": 0, "rental_uris": {"android": "https://dc.lft.to/lastmile_qr_scan", "ios": "https://dc.lft.to/lastmile_qr_scan"}, "fusion_lon": 0.0, "lat": 38.922600333333335, "lon": -77.0413505, "type": "electric_scooter", "bike_id": "a76a217f371d3d7bcd12ba1171e02525", "name": "a76a217f371d3d7bcd12ba1171e02525"}, {"fusion_lat": 0.0, "is_reserved": 0, "is_disabled": 0, "rental_uris": {"android": "https://dc.lft.to/lastmile_qr_scan", "ios": "https://dc.lft.to/lastmile_qr_scan"}, "fusion_lon": 0.0, "lat": 38.896162833333335, "lon": -77.04498166666667, "type": "electric_scooter", "bike_id": "2745ba4e9b0c3d159a001bc5005059e3", "name": "2745ba4e9b0c3d159a001bc5005059e3"}, {"fusion_lat": 0.0, "is_reserved": 0, "is_disabled": 0, "rental_uris": {"android": "https://dc.lft.to/lastmile_qr_scan", "ios": "https://dc.lft.to/lastmile_qr_scan"}, "fusion_lon": 0.0, "lat": 38.892630833333335, "lon": -76.941588, "type": "electric_scooter", "bike_id": "2f1d37b952999e6081f4ba09f0627b5e", "name": "2f1d37b952999e6081f4ba09f0627b5e"}, {"fusion_lat": 0.0, "is_reserved": 0, "is_disabled": 0, "rental_uris": {"android": "https://dc.lft.to/lastmile_qr_scan", "ios": "https://dc.lft.to/lastmile_qr_scan"}, "fusion_lon": 0.0, "lat": 38.87480216666667, "lon": -77.010692, "type": "electric_scooter", "bike_id": "d0a418da97becb66ea49762a015055ca", "name": "d0a418da97becb66ea49762a015055ca"}, {"fusion_lat": 0.0, "is_reserved": 0, "is_disabled": 0, "rental_uris": {"android": "https://dc.lft.to/lastmile_qr_scan", "ios": "https://dc.lft.to/lastmile_qr_scan"}, "fusion_lon": 0.0, "lat": 38.91760566666667, "lon": -77.01606833333334, "type": "electric_scooter", "bike_id": "f1800361080449cdb98c30a78ff89aac", "name": "f1800361080449cdb98c30a78ff89aac"}, {"fusion_lat": 0.0, "is_reserved": 0, "is_disabled": 0, "rental_uris": {"android": "https://dc.lft.to/lastmile_qr_scan", "ios": "https://dc.lft.to/lastmile_qr_scan"}, "fusion_lon": 0.0, "lat": 38.875203666666664, "lon": -77.0012985, "type": "electric_scooter", "bike_id": "0c2557007b472f26ff1cfd81479b4013", "name": "0c2557007b472f26ff1cfd81479b4013"}, {"fusion_lat": 0.0, "is_reserved": 0, "is_disabled": 0, "rental_uris": {"android": "https://dc.lft.to/lastmile_qr_scan", "ios": "https://dc.lft.to/lastmile_qr_scan"}, "fusion_lon": 0.0, "lat": 38.93781033333333, "lon": -77.02230033333333, "type": "electric_scooter", "bike_id": "03aa8321656ad4b0e2c5e6fb5c182e16", "name": "03aa8321656ad4b0e2c5e6fb5c182e16"}, {"fusion_lat": 0.0, "is_reserved": 0, "is_disabled": 0, "rental_uris": {"android": "https://dc.lft.to/lastmile_qr_scan", "ios": "https://dc.lft.to/lastmile_qr_scan"}, "fusion_lon": 0.0, "lat": 38.905180333333334, "lon": -77.05143666666666, "type": "electric_scooter", "bike_id": "ad19c18e0ef173505d662d8b740d84d5", "name": "ad19c18e0ef173505d662d8b740d84d5"}, {"fusion_lat": 0.0, "is_reserved": 0, "is_disabled": 0, "rental_uris": {"android": "https://dc.lft.to/lastmile_qr_scan", "ios": "https://dc.lft.to/lastmile_qr_scan"}, "fusion_lon": 0.0, "lat": 38.920749666666666, "lon": -77.02316733333333, "type": "electric_scooter", "bike_id": "09bb5f386179f77f729ab3a4b0056c50", "name": "09bb5f386179f77f729ab3a4b0056c50"}, {"fusion_lat": 0.0, "is_reserved": 0, "is_disabled": 0, "rental_uris": {"android": "https://dc.lft.to/lastmile_qr_scan", "ios": "https://dc.lft.to/lastmile_qr_scan"}, "fusion_lon": 0.0, "lat": 38.887056333333334, "lon": -77.032058, "type": "electric_scooter", "bike_id": "dfc21a28e57cb474aa2200f87064a80c", "name": "dfc21a28e57cb474aa2200f87064a80c"}, {"fusion_lat": 0.0, "is_reserved": 0, "is_disabled": 0, "rental_uris": {"android": "https://dc.lft.to/lastmile_qr_scan", "ios": "https://dc.lft.to/lastmile_qr_scan"}, "fusion_lon": 0.0, "lat": 38.920616833333334, "lon": -77.0427255, "type": "electric_scooter", "bike_id": "36dc3e51c1f712556af47225383c1530", "name": "36dc3e51c1f712556af47225383c1530"}, {"fusion_lat": 0.0, "is_reserved": 0, "is_disabled": 0, "rental_uris": {"android": "https://dc.lft.to/lastmile_qr_scan", "ios": "https://dc.lft.to/lastmile_qr_scan"}, "fusion_lon": 0.0, "lat": 38.91715083333333, "lon": -77.02955166666666, "type": "electric_scooter", "bike_id": "efcdb015aaf0c381eea571ba5ab5ce02", "name": "efcdb015aaf0c381eea571ba5ab5ce02"}, {"fusion_lat": 0.0, "is_reserved": 0, "is_disabled": 0, "rental_uris": {"android": "https://dc.lft.to/lastmile_qr_scan", "ios": "https://dc.lft.to/lastmile_qr_scan"}, "fusion_lon": 0.0, "lat": 38.9301015, "lon": -77.05518333333333, "type": "electric_scooter", "bike_id": "64f2a8fc9c9cd655b1c563849ab3d7aa", "name": "64f2a8fc9c9cd655b1c563849ab3d7aa"}, {"fusion_lat": 0.0, "is_reserved": 0, "is_disabled": 0, "rental_uris": {"android": "https://dc.lft.to/lastmile_qr_scan", "ios": "https://dc.lft.to/lastmile_qr_scan"}, "fusion_lon": 0.0, "lat": 38.918237500000004, "lon": -77.02782516666667, "type": "electric_scooter", "bike_id": "11a23da7ef4cdeee137ca2bf2f46bf3a", "name": "11a23da7ef4cdeee137ca2bf2f46bf3a"}, {"fusion_lat": 0.0, "is_reserved": 0, "is_disabled": 0, "rental_uris": {"android": "https://dc.lft.to/lastmile_qr_scan", "ios": "https://dc.lft.to/lastmile_qr_scan"}, "fusion_lon": 0.0, "lat": 38.880100166666665, "lon": -77.00560666666667, "type": "electric_bike", "bike_id": "be7914f833bfa37bcccfd4f638dd276d", "name": "be7914f833bfa37bcccfd4f638dd276d"}, {"fusion_lat": 0.0, "is_reserved": 0, "is_disabled": 0, "rental_uris": {"android": "https://dc.lft.to/lastmile_qr_scan", "ios": "https://dc.lft.to/lastmile_qr_scan"}, "fusion_lon": 0.0, "lat": 38.918257, "lon": -77.03168733333334, "type": "electric_scooter", "bike_id": "5a302413ab78727989f53fa75423adca", "name": "5a302413ab78727989f53fa75423adca"}, {"fusion_lat": 0.0, "is_reserved": 0, "is_disabled": 0, "rental_uris": {"android": "https://dc.lft.to/lastmile_qr_scan", "ios": "https://dc.lft.to/lastmile_qr_scan"}, "fusion_lon": 0.0, "lat": 38.92151766666667, "lon": -77.04238116666667, "type": "electric_scooter", "bike_id": "3121a5fb3e7fe68da98df40bf39e4072", "name": "3121a5fb3e7fe68da98df40bf39e4072"}, {"fusion_lat": 0.0, "is_reserved": 0, "is_disabled": 0, "rental_uris": {"android": "https://dc.lft.to/lastmile_qr_scan", "ios": "https://dc.lft.to/lastmile_qr_scan"}, "fusion_lon": 0.0, "lat": 38.902604833333335, "lon": -77.03470916666667, "type": "electric_scooter", "bike_id": "e5e08ee1bc2c74c849cbe980a6f4bb32", "name": "e5e08ee1bc2c74c849cbe980a6f4bb32"}, {"fusion_lat": 0.0, "is_reserved": 0, "is_disabled": 0, "rental_uris": {"android": "https://dc.lft.to/lastmile_qr_scan", "ios": "https://dc.lft.to/lastmile_qr_scan"}, "fusion_lon": 0.0, "lat": 38.91344266666667, "lon": -77.01061916666667, "type": "electric_scooter", "bike_id": "ade0bcfbf3ee3f315589fbdc2841b489", "name": "ade0bcfbf3ee3f315589fbdc2841b489"}, {"fusion_lat": 0.0, "is_reserved": 0, "is_disabled": 0, "rental_uris": {"android": "https://dc.lft.to/lastmile_qr_scan", "ios": "https://dc.lft.to/lastmile_qr_scan"}, "fusion_lon": 0.0, "lat": 38.94628866666667, "lon": -77.0252325, "type": "electric_scooter", "bike_id": "0e7193942f37bf26e83a2af681842e09", "name": "0e7193942f37bf26e83a2af681842e09"}, {"fusion_lat": 0.0, "is_reserved": 0, "is_disabled": 0, "rental_uris": {"android": "https://dc.lft.to/lastmile_qr_scan", "ios": "https://dc.lft.to/lastmile_qr_scan"}, "fusion_lon": 0.0, "lat": 38.892038, "lon": -77.023848, "type": "electric_scooter", "bike_id": "e39302066bb43a9e1ae5d48c3b75c764", "name": "e39302066bb43a9e1ae5d48c3b75c764"}, {"fusion_lat": 0.0, "is_reserved": 0, "is_disabled": 0, "rental_uris": {"android": "https://dc.lft.to/lastmile_qr_scan", "ios": "https://dc.lft.to/lastmile_qr_scan"}, "fusion_lon": 0.0, "lat": 38.936101666666666, "lon": -77.057191, "type": "electric_scooter", "bike_id": "8901fd8d71aff8ccc81df40f77b4f12b", "name": "8901fd8d71aff8ccc81df40f77b4f12b"}, {"fusion_lat": 0.0, "is_reserved": 0, "is_disabled": 0, "rental_uris": {"android": "https://dc.lft.to/lastmile_qr_scan", "ios": "https://dc.lft.to/lastmile_qr_scan"}, "fusion_lon": 0.0, "lat": 38.90025116666666, "lon": -77.04031733333333, "type": "electric_scooter", "bike_id": "0caec34eb15bc0e5986eba26d8035b9f", "name": "0caec34eb15bc0e5986eba26d8035b9f"}, {"fusion_lat": 0.0, "is_reserved": 0, "is_disabled": 0, "rental_uris": {"android": "https://dc.lft.to/lastmile_qr_scan", "ios": "https://dc.lft.to/lastmile_qr_scan"}, "fusion_lon": 0.0, "lat": 38.922571166666664, "lon": -77.03344416666667, "type": "electric_scooter", "bike_id": "081cc3da7d01c242e5ba1d7b19c497a3", "name": "081cc3da7d01c242e5ba1d7b19c497a3"}, {"fusion_lat": 0.0, "is_reserved": 0, "is_disabled": 0, "rental_uris": {"android": "https://dc.lft.to/lastmile_qr_scan", "ios": "https://dc.lft.to/lastmile_qr_scan"}, "fusion_lon": 0.0, "lat": 38.86527866666667, "lon": -76.99027766666667, "type": "electric_scooter", "bike_id": "be823e737c82f0e144595ec14ba4302c", "name": "be823e737c82f0e144595ec14ba4302c"}, {"fusion_lat": 0.0, "is_reserved": 0, "is_disabled": 0, "rental_uris": {"android": "https://dc.lft.to/lastmile_qr_scan", "ios": "https://dc.lft.to/lastmile_qr_scan"}, "fusion_lon": 0.0, "lat": 38.9051715, "lon": -77.05135433333334, "type": "electric_scooter", "bike_id": "75dc81b4f692423d2987201896d9133b", "name": "75dc81b4f692423d2987201896d9133b"}, {"fusion_lat": 0.0, "is_reserved": 0, "is_disabled": 0, "rental_uris": {"android": "https://dc.lft.to/lastmile_qr_scan", "ios": "https://dc.lft.to/lastmile_qr_scan"}, "fusion_lon": 0.0, "lat": 38.952859333333336, "lon": -77.0697025, "type": "electric_bike", "bike_id": "2bc90119335f1b9de45ebb8eb81b99ce", "name": "2bc90119335f1b9de45ebb8eb81b99ce"}, {"fusion_lat": 0.0, "is_reserved": 0, "is_disabled": 0, "rental_uris": {"android": "https://dc.lft.to/lastmile_qr_scan", "ios": "https://dc.lft.to/lastmile_qr_scan"}, "fusion_lon": 0.0, "lat": 38.85799816666667, "lon": -77.09965783333334, "type": "electric_bike", "bike_id": "6b9dd822a06995666f4e019b9ca4110f", "name": "6b9dd822a06995666f4e019b9ca4110f"}, {"fusion_lat": 0.0, "is_reserved": 0, "is_disabled": 0, "rental_uris": {"android": "https://dc.lft.to/lastmile_qr_scan", "ios": "https://dc.lft.to/lastmile_qr_scan"}, "fusion_lon": 0.0, "lat": 38.919190666666665, "lon": -77.04632016666666, "type": "electric_scooter", "bike_id": "bdc49d8691392f32ef90531999c22c93", "name": "bdc49d8691392f32ef90531999c22c93"}, {"fusion_lat": 0.0, "is_reserved": 0, "is_disabled": 0, "rental_uris": {"android": "https://dc.lft.to/lastmile_qr_scan", "ios": "https://dc.lft.to/lastmile_qr_scan"}, "fusion_lon": 0.0, "lat": 38.87664083333333, "lon": -77.00414383333333, "type": "electric_scooter", "bike_id": "bb2d7f704078cb0bb139d5bf38c5ff19", "name": "bb2d7f704078cb0bb139d5bf38c5ff19"}, {"fusion_lat": 0.0, "is_reserved": 0, "is_disabled": 0, "rental_uris": {"android": "https://dc.lft.to/lastmile_qr_scan", "ios": "https://dc.lft.to/lastmile_qr_scan"}, "fusion_lon": 0.0, "lat": 38.912161833333336, "lon": -77.038423, "type": "electric_scooter", "bike_id": "64c90bed28ed70865d170774e5338e1f", "name": "64c90bed28ed70865d170774e5338e1f"}, {"fusion_lat": 0.0, "is_reserved": 0, "is_disabled": 0, "rental_uris": {"android": "https://dc.lft.to/lastmile_qr_scan", "ios": "https://dc.lft.to/lastmile_qr_scan"}, "fusion_lon": 0.0, "lat": 38.9391425, "lon": -77.06036716666667, "type": "electric_scooter", "bike_id": "ca0aea4a76b036cf7bb16cdd50abf18f", "name": "ca0aea4a76b036cf7bb16cdd50abf18f"}, {"fusion_lat": 0.0, "is_reserved": 0, "is_disabled": 0, "rental_uris": {"android": "https://dc.lft.to/lastmile_qr_scan", "ios": "https://dc.lft.to/lastmile_qr_scan"}, "fusion_lon": 0.0, "lat": 38.9225115, "lon": -77.02216483333333, "type": "electric_scooter", "bike_id": "2391c82f646089b578c3db79273ed9eb", "name": "2391c82f646089b578c3db79273ed9eb"}, {"fusion_lat": 0.0, "is_reserved": 0, "is_disabled": 0, "rental_uris": {"android": "https://dc.lft.to/lastmile_qr_scan", "ios": "https://dc.lft.to/lastmile_qr_scan"}, "fusion_lon": 0.0, "lat": 38.9325885, "lon": -77.029641, "type": "electric_scooter", "bike_id": "1a0beca42a760a8f1177ccf0e2ad6bf3", "name": "1a0beca42a760a8f1177ccf0e2ad6bf3"}, {"fusion_lat": 0.0, "is_reserved": 0, "is_disabled": 0, "rental_uris": {"android": "https://dc.lft.to/lastmile_qr_scan", "ios": "https://dc.lft.to/lastmile_qr_scan"}, "fusion_lon": 0.0, "lat": 38.91035566666667, "lon": -77.00758633333334, "type": "electric_scooter", "bike_id": "b1eabc65df79fb32d3678fdd503a6cbd", "name": "b1eabc65df79fb32d3678fdd503a6cbd"}, {"fusion_lat": 0.0, "is_reserved": 0, "is_disabled": 0, "rental_uris": {"android": "https://dc.lft.to/lastmile_qr_scan", "ios": "https://dc.lft.to/lastmile_qr_scan"}, "fusion_lon": 0.0, "lat": 38.86377366666667, "lon": -76.99058416666666, "type": "electric_scooter", "bike_id": "ae070bb39397501b6e810df1dbfc0e61", "name": "ae070bb39397501b6e810df1dbfc0e61"}, {"fusion_lat": 0.0, "is_reserved": 0, "is_disabled": 0, "rental_uris": {"android": "https://dc.lft.to/lastmile_qr_scan", "ios": "https://dc.lft.to/lastmile_qr_scan"}, "fusion_lon": 0.0, "lat": 38.90273833333333, "lon": -77.02643733333333, "type": "electric_scooter", "bike_id": "001204603e89f04ea34249980eb21fca", "name": "001204603e89f04ea34249980eb21fca"}, {"fusion_lat": 0.0, "is_reserved": 0, "is_disabled": 0, "rental_uris": {"android": "https://dc.lft.to/lastmile_qr_scan", "ios": "https://dc.lft.to/lastmile_qr_scan"}, "fusion_lon": 0.0, "lat": 38.906307166666664, "lon": -77.03963083333333, "type": "electric_scooter", "bike_id": "ec7851ae136e1a951b76f5e4b74dd7ac", "name": "ec7851ae136e1a951b76f5e4b74dd7ac"}, {"fusion_lat": 0.0, "is_reserved": 0, "is_disabled": 0, "rental_uris": {"android": "https://dc.lft.to/lastmile_qr_scan", "ios": "https://dc.lft.to/lastmile_qr_scan"}, "fusion_lon": 0.0, "lat": 38.912771166666666, "lon": -77.045068, "type": "electric_scooter", "bike_id": "ee4346adb1f0b37f4600545fd7ef19ed", "name": "ee4346adb1f0b37f4600545fd7ef19ed"}, {"fusion_lat": 0.0, "is_reserved": 0, "is_disabled": 0, "rental_uris": {"android": "https://dc.lft.to/lastmile_qr_scan", "ios": "https://dc.lft.to/lastmile_qr_scan"}, "fusion_lon": 0.0, "lat": 38.9203985, "lon": -76.9790705, "type": "electric_scooter", "bike_id": "c727c7fc047d58ce68eb96a107cd0f4e", "name": "c727c7fc047d58ce68eb96a107cd0f4e"}, {"fusion_lat": 0.0, "is_reserved": 0, "is_disabled": 0, "rental_uris": {"android": "https://dc.lft.to/lastmile_qr_scan", "ios": "https://dc.lft.to/lastmile_qr_scan"}, "fusion_lon": 0.0, "lat": 38.89497766666667, "lon": -77.02175016666666, "type": "electric_scooter", "bike_id": "bc8a2b92615646600bf4530a0e052b07", "name": "bc8a2b92615646600bf4530a0e052b07"}, {"fusion_lat": 0.0, "is_reserved": 0, "is_disabled": 0, "rental_uris": {"android": "https://dc.lft.to/lastmile_qr_scan", "ios": "https://dc.lft.to/lastmile_qr_scan"}, "fusion_lon": 0.0, "lat": 38.90338583333333, "lon": -77.03777033333333, "type": "electric_scooter", "bike_id": "ffabec8c312733cb09388b4d2bcd0a04", "name": "ffabec8c312733cb09388b4d2bcd0a04"}, {"fusion_lat": 0.0, "is_reserved": 0, "is_disabled": 0, "rental_uris": {"android": "https://dc.lft.to/lastmile_qr_scan", "ios": "https://dc.lft.to/lastmile_qr_scan"}, "fusion_lon": 0.0, "lat": 38.90622116666667, "lon": -77.0188505, "type": "electric_scooter", "bike_id": "3e78e8c5a7caccef663cab77ddc0af4b", "name": "3e78e8c5a7caccef663cab77ddc0af4b"}, {"fusion_lat": 0.0, "is_reserved": 0, "is_disabled": 0, "rental_uris": {"android": "https://dc.lft.to/lastmile_qr_scan", "ios": "https://dc.lft.to/lastmile_qr_scan"}, "fusion_lon": 0.0, "lat": 38.9155065, "lon": -77.03842216666666, "type": "electric_scooter", "bike_id": "0bcd9d30d6678ef57fdaf9fad1c66371", "name": "0bcd9d30d6678ef57fdaf9fad1c66371"}, {"fusion_lat": 0.0, "is_reserved": 0, "is_disabled": 0, "rental_uris": {"android": "https://dc.lft.to/lastmile_qr_scan", "ios": "https://dc.lft.to/lastmile_qr_scan"}, "fusion_lon": 0.0, "lat": 38.8984405, "lon": -77.022139, "type": "electric_scooter", "bike_id": "1369ed78c8efbb8747bd4b07f52073b0", "name": "1369ed78c8efbb8747bd4b07f52073b0"}, {"fusion_lat": 0.0, "is_reserved": 0, "is_disabled": 0, "rental_uris": {"android": "https://dc.lft.to/lastmile_qr_scan", "ios": "https://dc.lft.to/lastmile_qr_scan"}, "fusion_lon": 0.0, "lat": 38.860527, "lon": -77.05724533333333, "type": "electric_scooter", "bike_id": "3c831fc58acd9517e60f2c6dffc1bd4b", "name": "3c831fc58acd9517e60f2c6dffc1bd4b"}, {"fusion_lat": 0.0, "is_reserved": 0, "is_disabled": 0, "rental_uris": {"android": "https://dc.lft.to/lastmile_qr_scan", "ios": "https://dc.lft.to/lastmile_qr_scan"}, "fusion_lon": 0.0, "lat": 38.9052355, "lon": -77.04774266666666, "type": "electric_scooter", "bike_id": "2e91ee48b886af99416ec6c89dabe47b", "name": "2e91ee48b886af99416ec6c89dabe47b"}, {"fusion_lat": 0.0, "is_reserved": 0, "is_disabled": 0, "rental_uris": {"android": "https://dc.lft.to/lastmile_qr_scan", "ios": "https://dc.lft.to/lastmile_qr_scan"}, "fusion_lon": 0.0, "lat": 38.9228625, "lon": -77.03659616666667, "type": "electric_scooter", "bike_id": "47fade1713a2f6925502115e726d1008", "name": "47fade1713a2f6925502115e726d1008"}, {"fusion_lat": 0.0, "is_reserved": 0, "is_disabled": 0, "rental_uris": {"android": "https://dc.lft.to/lastmile_qr_scan", "ios": "https://dc.lft.to/lastmile_qr_scan"}, "fusion_lon": 0.0, "lat": 38.90284283333333, "lon": -77.038281, "type": "electric_scooter", "bike_id": "0b78bf5db4708900d029fd2ac914e8bf", "name": "0b78bf5db4708900d029fd2ac914e8bf"}, {"fusion_lat": 0.0, "is_reserved": 0, "is_disabled": 0, "rental_uris": {"android": "https://dc.lft.to/lastmile_qr_scan", "ios": "https://dc.lft.to/lastmile_qr_scan"}, "fusion_lon": 0.0, "lat": 38.918855, "lon": -77.04254933333333, "type": "electric_scooter", "bike_id": "b103797a31a3b489d9629ba83fa1e18c", "name": "b103797a31a3b489d9629ba83fa1e18c"}, {"fusion_lat": 0.0, "is_reserved": 0, "is_disabled": 0, "rental_uris": {"android": "https://dc.lft.to/lastmile_qr_scan", "ios": "https://dc.lft.to/lastmile_qr_scan"}, "fusion_lon": 0.0, "lat": 38.92721316666667, "lon": -77.0363855, "type": "electric_scooter", "bike_id": "36ef1ef122b5851917b03cfa6d8b0732", "name": "36ef1ef122b5851917b03cfa6d8b0732"}, {"fusion_lat": 0.0, "is_reserved": 0, "is_disabled": 0, "rental_uris": {"android": "https://dc.lft.to/lastmile_qr_scan", "ios": "https://dc.lft.to/lastmile_qr_scan"}, "fusion_lon": 0.0, "lat": 38.93194416666667, "lon": -77.038549, "type": "electric_scooter", "bike_id": "5fb8a2e111142fa70db4bef6a35ff223", "name": "5fb8a2e111142fa70db4bef6a35ff223"}, {"fusion_lat": 0.0, "is_reserved": 0, "is_disabled": 0, "rental_uris": {"android": "https://dc.lft.to/lastmile_qr_scan", "ios": "https://dc.lft.to/lastmile_qr_scan"}, "fusion_lon": 0.0, "lat": 38.9170515, "lon": -77.04618933333333, "type": "electric_scooter", "bike_id": "e4b70095b4cad71e53b8ce37317da537", "name": "e4b70095b4cad71e53b8ce37317da537"}, {"fusion_lat": 0.0, "is_reserved": 0, "is_disabled": 0, "rental_uris": {"android": "https://dc.lft.to/lastmile_qr_scan", "ios": "https://dc.lft.to/lastmile_qr_scan"}, "fusion_lon": 0.0, "lat": 38.91719, "lon": -77.03836966666667, "type": "electric_scooter", "bike_id": "584a2b8446ef46a2cb146d568b7fb50c", "name": "584a2b8446ef46a2cb146d568b7fb50c"}, {"fusion_lat": 0.0, "is_reserved": 0, "is_disabled": 0, "rental_uris": {"android": "https://dc.lft.to/lastmile_qr_scan", "ios": "https://dc.lft.to/lastmile_qr_scan"}, "fusion_lon": 0.0, "lat": 38.887566666666665, "lon": -77.0257335, "type": "electric_scooter", "bike_id": "b1f7a93d5c70e2755ffee4726a12ba97", "name": "b1f7a93d5c70e2755ffee4726a12ba97"}, {"fusion_lat": 0.0, "is_reserved": 0, "is_disabled": 0, "rental_uris": {"android": "https://dc.lft.to/lastmile_qr_scan", "ios": "https://dc.lft.to/lastmile_qr_scan"}, "fusion_lon": 0.0, "lat": 38.924809333333336, "lon": -77.02627, "type": "electric_scooter", "bike_id": "545c742f837354105cdd81cdf1b5aa90", "name": "545c742f837354105cdd81cdf1b5aa90"}, {"fusion_lat": 0.0, "is_reserved": 0, "is_disabled": 0, "rental_uris": {"android": "https://dc.lft.to/lastmile_qr_scan", "ios": "https://dc.lft.to/lastmile_qr_scan"}, "fusion_lon": 0.0, "lat": 38.93981816666667, "lon": -77.028868, "type": "electric_scooter", "bike_id": "f68c9be0b03f26efe61e9f365d10e6bd", "name": "f68c9be0b03f26efe61e9f365d10e6bd"}, {"fusion_lat": 0.0, "is_reserved": 0, "is_disabled": 0, "rental_uris": {"android": "https://dc.lft.to/lastmile_qr_scan", "ios": "https://dc.lft.to/lastmile_qr_scan"}, "fusion_lon": 0.0, "lat": 38.8595995, "lon": -76.99107183333334, "type": "electric_scooter", "bike_id": "8d694c8207f3dc42c946c56f346a52f5", "name": "8d694c8207f3dc42c946c56f346a52f5"}, {"fusion_lat": 0.0, "is_reserved": 0, "is_disabled": 0, "rental_uris": {"android": "https://dc.lft.to/lastmile_qr_scan", "ios": "https://dc.lft.to/lastmile_qr_scan"}, "fusion_lon": 0.0, "lat": 38.8987705, "lon": -77.02718566666667, "type": "electric_scooter", "bike_id": "e44d9663e0c9d0e39d53d763ca022b6e", "name": "e44d9663e0c9d0e39d53d763ca022b6e"}, {"fusion_lat": 0.0, "is_reserved": 0, "is_disabled": 0, "rental_uris": {"android": "https://dc.lft.to/lastmile_qr_scan", "ios": "https://dc.lft.to/lastmile_qr_scan"}, "fusion_lon": 0.0, "lat": 38.9113785, "lon": -77.04666266666666, "type": "electric_scooter", "bike_id": "df1d38d08a8b21477fc6ee9d6e70fb71", "name": "df1d38d08a8b21477fc6ee9d6e70fb71"}, {"fusion_lat": 0.0, "is_reserved": 0, "is_disabled": 0, "rental_uris": {"android": "https://dc.lft.to/lastmile_qr_scan", "ios": "https://dc.lft.to/lastmile_qr_scan"}, "fusion_lon": 0.0, "lat": 38.918238333333335, "lon": -77.033035, "type": "electric_scooter", "bike_id": "45f1e3d74f7cbd499597a488f7026c8b", "name": "45f1e3d74f7cbd499597a488f7026c8b"}, {"fusion_lat": 0.0, "is_reserved": 0, "is_disabled": 0, "rental_uris": {"android": "https://dc.lft.to/lastmile_qr_scan", "ios": "https://dc.lft.to/lastmile_qr_scan"}, "fusion_lon": 0.0, "lat": 38.892233166666664, "lon": -77.0465175, "type": "electric_scooter", "bike_id": "c287026cedaea0effeff4e135e4cb3a9", "name": "c287026cedaea0effeff4e135e4cb3a9"}, {"fusion_lat": 0.0, "is_reserved": 0, "is_disabled": 0, "rental_uris": {"android": "https://dc.lft.to/lastmile_qr_scan", "ios": "https://dc.lft.to/lastmile_qr_scan"}, "fusion_lon": 0.0, "lat": 38.923535, "lon": -77.05074316666666, "type": "electric_scooter", "bike_id": "a8c40b13dd8fea014493860b54bcbfbe", "name": "a8c40b13dd8fea014493860b54bcbfbe"}, {"fusion_lat": 0.0, "is_reserved": 0, "is_disabled": 0, "rental_uris": {"android": "https://dc.lft.to/lastmile_qr_scan", "ios": "https://dc.lft.to/lastmile_qr_scan"}, "fusion_lon": 0.0, "lat": 38.9049135, "lon": -77.06794783333333, "type": "electric_scooter", "bike_id": "4a403d77a3d7d834dece8bfb2c6f5532", "name": "4a403d77a3d7d834dece8bfb2c6f5532"}, {"fusion_lat": 0.0, "is_reserved": 0, "is_disabled": 0, "rental_uris": {"android": "https://dc.lft.to/lastmile_qr_scan", "ios": "https://dc.lft.to/lastmile_qr_scan"}, "fusion_lon": 0.0, "lat": 38.90816366666667, "lon": -77.03424233333334, "type": "electric_scooter", "bike_id": "7538ebf2b5bd8b4ccbdaaff936ca6c58", "name": "7538ebf2b5bd8b4ccbdaaff936ca6c58"}, {"fusion_lat": 0.0, "is_reserved": 0, "is_disabled": 0, "rental_uris": {"android": "https://dc.lft.to/lastmile_qr_scan", "ios": "https://dc.lft.to/lastmile_qr_scan"}, "fusion_lon": 0.0, "lat": 38.8720075, "lon": -77.00607233333334, "type": "electric_scooter", "bike_id": "1549bb6e277dfbfaf787c51bb1aa8daf", "name": "1549bb6e277dfbfaf787c51bb1aa8daf"}, {"fusion_lat": 0.0, "is_reserved": 0, "is_disabled": 0, "rental_uris": {"android": "https://dc.lft.to/lastmile_qr_scan", "ios": "https://dc.lft.to/lastmile_qr_scan"}, "fusion_lon": 0.0, "lat": 38.89854866666667, "lon": -77.02291683333333, "type": "electric_scooter", "bike_id": "0f0d626ff5b243ef7868782090b01b05", "name": "0f0d626ff5b243ef7868782090b01b05"}, {"fusion_lat": 0.0, "is_reserved": 0, "is_disabled": 0, "rental_uris": {"android": "https://dc.lft.to/lastmile_qr_scan", "ios": "https://dc.lft.to/lastmile_qr_scan"}, "fusion_lon": 0.0, "lat": 38.91050466666667, "lon": -77.0152395, "type": "electric_scooter", "bike_id": "090f012ffc8e2721a6683b24799e87a7", "name": "090f012ffc8e2721a6683b24799e87a7"}, {"fusion_lat": 0.0, "is_reserved": 0, "is_disabled": 0, "rental_uris": {"android": "https://dc.lft.to/lastmile_qr_scan", "ios": "https://dc.lft.to/lastmile_qr_scan"}, "fusion_lon": 0.0, "lat": 38.87490566666666, "lon": -77.00116766666666, "type": "electric_scooter", "bike_id": "5304aa602b657ec0867d641ff7bfee9e", "name": "5304aa602b657ec0867d641ff7bfee9e"}, {"fusion_lat": 0.0, "is_reserved": 0, "is_disabled": 0, "rental_uris": {"android": "https://dc.lft.to/lastmile_qr_scan", "ios": "https://dc.lft.to/lastmile_qr_scan"}, "fusion_lon": 0.0, "lat": 38.892290833333334, "lon": -77.04504433333334, "type": "electric_scooter", "bike_id": "9cc92a4b992b270bd9f09d9c9bfccb27", "name": "9cc92a4b992b270bd9f09d9c9bfccb27"}, {"fusion_lat": 0.0, "is_reserved": 0, "is_disabled": 0, "rental_uris": {"android": "https://dc.lft.to/lastmile_qr_scan", "ios": "https://dc.lft.to/lastmile_qr_scan"}, "fusion_lon": 0.0, "lat": 38.90527383333333, "lon": -77.052279, "type": "electric_scooter", "bike_id": "da183cb9076f3febe8bab748c864acc5", "name": "da183cb9076f3febe8bab748c864acc5"}, {"fusion_lat": 0.0, "is_reserved": 0, "is_disabled": 0, "rental_uris": {"android": "https://dc.lft.to/lastmile_qr_scan", "ios": "https://dc.lft.to/lastmile_qr_scan"}, "fusion_lon": 0.0, "lat": 38.91824033333333, "lon": -77.03843866666666, "type": "electric_scooter", "bike_id": "4fadbce5f7cbb9976bfefa336719df2f", "name": "4fadbce5f7cbb9976bfefa336719df2f"}, {"fusion_lat": 0.0, "is_reserved": 0, "is_disabled": 0, "rental_uris": {"android": "https://dc.lft.to/lastmile_qr_scan", "ios": "https://dc.lft.to/lastmile_qr_scan"}, "fusion_lon": 0.0, "lat": 38.88507116666667, "lon": -77.01591783333333, "type": "electric_scooter", "bike_id": "d781f8de308cba8df077083171da38bd", "name": "d781f8de308cba8df077083171da38bd"}, {"fusion_lat": 0.0, "is_reserved": 0, "is_disabled": 0, "rental_uris": {"android": "https://dc.lft.to/lastmile_qr_scan", "ios": "https://dc.lft.to/lastmile_qr_scan"}, "fusion_lon": 0.0, "lat": 38.905103833333335, "lon": -77.06662083333333, "type": "electric_scooter", "bike_id": "6dc4add5b145cb9700adea9d9e8442ba", "name": "6dc4add5b145cb9700adea9d9e8442ba"}, {"fusion_lat": 0.0, "is_reserved": 0, "is_disabled": 0, "rental_uris": {"android": "https://dc.lft.to/lastmile_qr_scan", "ios": "https://dc.lft.to/lastmile_qr_scan"}, "fusion_lon": 0.0, "lat": 38.956355333333335, "lon": -77.0330605, "type": "electric_scooter", "bike_id": "135d8655c119c5756c90e421b8a0c9c6", "name": "135d8655c119c5756c90e421b8a0c9c6"}, {"fusion_lat": 0.0, "is_reserved": 0, "is_disabled": 0, "rental_uris": {"android": "https://dc.lft.to/lastmile_qr_scan", "ios": "https://dc.lft.to/lastmile_qr_scan"}, "fusion_lon": 0.0, "lat": 38.909623333333336, "lon": -77.04653083333334, "type": "electric_scooter", "bike_id": "5c7ce21236af5e84b60a11bd92fcfabf", "name": "5c7ce21236af5e84b60a11bd92fcfabf"}, {"fusion_lat": 0.0, "is_reserved": 0, "is_disabled": 0, "rental_uris": {"android": "https://dc.lft.to/lastmile_qr_scan", "ios": "https://dc.lft.to/lastmile_qr_scan"}, "fusion_lon": 0.0, "lat": 38.8855265, "lon": -77.11784916666667, "type": "electric_bike", "bike_id": "2865d908b6c59e609deaf96082d884b9", "name": "2865d908b6c59e609deaf96082d884b9"}, {"fusion_lat": 0.0, "is_reserved": 0, "is_disabled": 0, "rental_uris": {"android": "https://dc.lft.to/lastmile_qr_scan", "ios": "https://dc.lft.to/lastmile_qr_scan"}, "fusion_lon": 0.0, "lat": 38.918198833333335, "lon": -77.0271305, "type": "electric_scooter", "bike_id": "0753e97f9855fc2a6e536cce0caa1bf7", "name": "0753e97f9855fc2a6e536cce0caa1bf7"}, {"fusion_lat": 0.0, "is_reserved": 0, "is_disabled": 0, "rental_uris": {"android": "https://dc.lft.to/lastmile_qr_scan", "ios": "https://dc.lft.to/lastmile_qr_scan"}, "fusion_lon": 0.0, "lat": 38.89805616666666, "lon": -77.033056, "type": "electric_scooter", "bike_id": "1b809f3b74f453f8df236dcc1f5a8d0e", "name": "1b809f3b74f453f8df236dcc1f5a8d0e"}, {"fusion_lat": 0.0, "is_reserved": 0, "is_disabled": 0, "rental_uris": {"android": "https://dc.lft.to/lastmile_qr_scan", "ios": "https://dc.lft.to/lastmile_qr_scan"}, "fusion_lon": 0.0, "lat": 38.99859766666667, "lon": -77.029264, "type": "electric_bike", "bike_id": "d967442509759115d7b5952cc7a87bff", "name": "d967442509759115d7b5952cc7a87bff"}, {"fusion_lat": 0.0, "is_reserved": 0, "is_disabled": 0, "rental_uris": {"android": "https://dc.lft.to/lastmile_qr_scan", "ios": "https://dc.lft.to/lastmile_qr_scan"}, "fusion_lon": 0.0, "lat": 38.87204666666667, "lon": -77.00612033333333, "type": "electric_scooter", "bike_id": "7cfa066a29897f5dc98358f6f7d74602", "name": "7cfa066a29897f5dc98358f6f7d74602"}, {"fusion_lat": 0.0, "is_reserved": 0, "is_disabled": 0, "rental_uris": {"android": "https://dc.lft.to/lastmile_qr_scan", "ios": "https://dc.lft.to/lastmile_qr_scan"}, "fusion_lon": 0.0, "lat": 38.928503166666665, "lon": -77.01569016666667, "type": "electric_scooter", "bike_id": "567c40c08bc69fe465ba24e2ea195524", "name": "567c40c08bc69fe465ba24e2ea195524"}, {"fusion_lat": 0.0, "is_reserved": 0, "is_disabled": 0, "rental_uris": {"android": "https://dc.lft.to/lastmile_qr_scan", "ios": "https://dc.lft.to/lastmile_qr_scan"}, "fusion_lon": 0.0, "lat": 38.9057005, "lon": -77.04180716666667, "type": "electric_scooter", "bike_id": "8089ac56405bc953667037be166f3cca", "name": "8089ac56405bc953667037be166f3cca"}, {"fusion_lat": 0.0, "is_reserved": 0, "is_disabled": 0, "rental_uris": {"android": "https://dc.lft.to/lastmile_qr_scan", "ios": "https://dc.lft.to/lastmile_qr_scan"}, "fusion_lon": 0.0, "lat": 38.928540166666664, "lon": -77.03641566666667, "type": "electric_scooter", "bike_id": "ec0d1499e35df47290e91418b0701bf0", "name": "ec0d1499e35df47290e91418b0701bf0"}, {"fusion_lat": 0.0, "is_reserved": 0, "is_disabled": 0, "rental_uris": {"android": "https://dc.lft.to/lastmile_qr_scan", "ios": "https://dc.lft.to/lastmile_qr_scan"}, "fusion_lon": 0.0, "lat": 38.9156245, "lon": -77.03862533333333, "type": "electric_scooter", "bike_id": "e7ca80f2d5ee339cf8c3acbe13f43cf8", "name": "e7ca80f2d5ee339cf8c3acbe13f43cf8"}, {"fusion_lat": 0.0, "is_reserved": 0, "is_disabled": 0, "rental_uris": {"android": "https://dc.lft.to/lastmile_qr_scan", "ios": "https://dc.lft.to/lastmile_qr_scan"}, "fusion_lon": 0.0, "lat": 38.93434216666667, "lon": -76.96512683333333, "type": "electric_scooter", "bike_id": "b8303e2aafdee0852e69017aa1619c7f", "name": "b8303e2aafdee0852e69017aa1619c7f"}, {"fusion_lat": 0.0, "is_reserved": 0, "is_disabled": 0, "rental_uris": {"android": "https://dc.lft.to/lastmile_qr_scan", "ios": "https://dc.lft.to/lastmile_qr_scan"}, "fusion_lon": 0.0, "lat": 38.88716816666667, "lon": -77.133072, "type": "electric_bike", "bike_id": "1fce755c690194fd20a275128d3d98f0", "name": "1fce755c690194fd20a275128d3d98f0"}, {"fusion_lat": 0.0, "is_reserved": 0, "is_disabled": 0, "rental_uris": {"android": "https://dc.lft.to/lastmile_qr_scan", "ios": "https://dc.lft.to/lastmile_qr_scan"}, "fusion_lon": 0.0, "lat": 38.91678116666667, "lon": -77.0297025, "type": "electric_scooter", "bike_id": "fbe85b1202dc73320dd896042166f9c8", "name": "fbe85b1202dc73320dd896042166f9c8"}, {"fusion_lat": 0.0, "is_reserved": 0, "is_disabled": 0, "rental_uris": {"android": "https://dc.lft.to/lastmile_qr_scan", "ios": "https://dc.lft.to/lastmile_qr_scan"}, "fusion_lon": 0.0, "lat": 38.892236833333335, "lon": -77.04373966666667, "type": "electric_scooter", "bike_id": "a110ace4ae6d7720ae6bd61c3d9d78b5", "name": "a110ace4ae6d7720ae6bd61c3d9d78b5"}, {"fusion_lat": 0.0, "is_reserved": 0, "is_disabled": 0, "rental_uris": {"android": "https://dc.lft.to/lastmile_qr_scan", "ios": "https://dc.lft.to/lastmile_qr_scan"}, "fusion_lon": 0.0, "lat": 38.86620116666667, "lon": -76.98662483333334, "type": "electric_scooter", "bike_id": "148626217c4fa64c21d716bb883fa84a", "name": "148626217c4fa64c21d716bb883fa84a"}, {"fusion_lat": 0.0, "is_reserved": 0, "is_disabled": 0, "rental_uris": {"android": "https://dc.lft.to/lastmile_qr_scan", "ios": "https://dc.lft.to/lastmile_qr_scan"}, "fusion_lon": 0.0, "lat": 38.90141583333333, "lon": -76.9415285, "type": "electric_scooter", "bike_id": "fd60e6f1aaa5044d036aac261b38f1c7", "name": "fd60e6f1aaa5044d036aac261b38f1c7"}, {"fusion_lat": 0.0, "is_reserved": 0, "is_disabled": 0, "rental_uris": {"android": "https://dc.lft.to/lastmile_qr_scan", "ios": "https://dc.lft.to/lastmile_qr_scan"}, "fusion_lon": 0.0, "lat": 38.8956815, "lon": -77.02919433333334, "type": "electric_scooter", "bike_id": "68f0988253c61d11a01b76d775b42155", "name": "68f0988253c61d11a01b76d775b42155"}, {"fusion_lat": 0.0, "is_reserved": 0, "is_disabled": 0, "rental_uris": {"android": "https://dc.lft.to/lastmile_qr_scan", "ios": "https://dc.lft.to/lastmile_qr_scan"}, "fusion_lon": 0.0, "lat": 38.90355316666667, "lon": -77.04870033333333, "type": "electric_scooter", "bike_id": "2dc0e8c2e325e328e52c81137092ce86", "name": "2dc0e8c2e325e328e52c81137092ce86"}, {"fusion_lat": 0.0, "is_reserved": 0, "is_disabled": 0, "rental_uris": {"android": "https://dc.lft.to/lastmile_qr_scan", "ios": "https://dc.lft.to/lastmile_qr_scan"}, "fusion_lon": 0.0, "lat": 38.90272, "lon": -77.05312533333333, "type": "electric_scooter", "bike_id": "f4923f7c35becf942b6ce37ae66cc46b", "name": "f4923f7c35becf942b6ce37ae66cc46b"}, {"fusion_lat": 0.0, "is_reserved": 0, "is_disabled": 0, "rental_uris": {"android": "https://dc.lft.to/lastmile_qr_scan", "ios": "https://dc.lft.to/lastmile_qr_scan"}, "fusion_lon": 0.0, "lat": 38.90978416666667, "lon": -77.04634166666666, "type": "electric_scooter", "bike_id": "49b38ad4fd2ca4941b9e62fa241cc63c", "name": "49b38ad4fd2ca4941b9e62fa241cc63c"}, {"fusion_lat": 0.0, "is_reserved": 0, "is_disabled": 0, "rental_uris": {"android": "https://dc.lft.to/lastmile_qr_scan", "ios": "https://dc.lft.to/lastmile_qr_scan"}, "fusion_lon": 0.0, "lat": 38.892248, "lon": -77.04801816666667, "type": "electric_scooter", "bike_id": "e84bc9a6a4f833968d76c96acf110db3", "name": "e84bc9a6a4f833968d76c96acf110db3"}, {"fusion_lat": 0.0, "is_reserved": 0, "is_disabled": 0, "rental_uris": {"android": "https://dc.lft.to/lastmile_qr_scan", "ios": "https://dc.lft.to/lastmile_qr_scan"}, "fusion_lon": 0.0, "lat": 38.92788183333333, "lon": -77.03692516666666, "type": "electric_scooter", "bike_id": "1e4abac5496e7871b28516578f274003", "name": "1e4abac5496e7871b28516578f274003"}, {"fusion_lat": 0.0, "is_reserved": 0, "is_disabled": 0, "rental_uris": {"android": "https://dc.lft.to/lastmile_qr_scan", "ios": "https://dc.lft.to/lastmile_qr_scan"}, "fusion_lon": 0.0, "lat": 38.9614585, "lon": -77.032381, "type": "electric_bike", "bike_id": "f59276f40bab156ed29954c88a85164f", "name": "f59276f40bab156ed29954c88a85164f"}, {"fusion_lat": 0.0, "is_reserved": 0, "is_disabled": 0, "rental_uris": {"android": "https://dc.lft.to/lastmile_qr_scan", "ios": "https://dc.lft.to/lastmile_qr_scan"}, "fusion_lon": 0.0, "lat": 38.903413666666665, "lon": -76.97060483333334, "type": "electric_scooter", "bike_id": "eb92969604821a156e49da1930e5ad20", "name": "eb92969604821a156e49da1930e5ad20"}, {"fusion_lat": 0.0, "is_reserved": 0, "is_disabled": 0, "rental_uris": {"android": "https://dc.lft.to/lastmile_qr_scan", "ios": "https://dc.lft.to/lastmile_qr_scan"}, "fusion_lon": 0.0, "lat": 38.88592366666666, "lon": -77.0006625, "type": "electric_scooter", "bike_id": "013b136c43ac7ada558425746b5b73d4", "name": "013b136c43ac7ada558425746b5b73d4"}, {"fusion_lat": 0.0, "is_reserved": 0, "is_disabled": 0, "rental_uris": {"android": "https://dc.lft.to/lastmile_qr_scan", "ios": "https://dc.lft.to/lastmile_qr_scan"}, "fusion_lon": 0.0, "lat": 38.91985533333333, "lon": -77.023922, "type": "electric_scooter", "bike_id": "b2fb26dd8dfa910c0d65867875b309bf", "name": "b2fb26dd8dfa910c0d65867875b309bf"}, {"fusion_lat": 0.0, "is_reserved": 0, "is_disabled": 0, "rental_uris": {"android": "https://dc.lft.to/lastmile_qr_scan", "ios": "https://dc.lft.to/lastmile_qr_scan"}, "fusion_lon": 0.0, "lat": 38.894859833333335, "lon": -76.94958883333334, "type": "electric_scooter", "bike_id": "e8f2d0b5c2f26040a60e0ff22d920f41", "name": "e8f2d0b5c2f26040a60e0ff22d920f41"}, {"fusion_lat": 0.0, "is_reserved": 0, "is_disabled": 0, "rental_uris": {"android": "https://dc.lft.to/lastmile_qr_scan", "ios": "https://dc.lft.to/lastmile_qr_scan"}, "fusion_lon": 0.0, "lat": 38.9224415, "lon": -77.02913183333334, "type": "electric_scooter", "bike_id": "af77ae150f2cad8400e05965c7e35473", "name": "af77ae150f2cad8400e05965c7e35473"}, {"fusion_lat": 0.0, "is_reserved": 0, "is_disabled": 0, "rental_uris": {"android": "https://dc.lft.to/lastmile_qr_scan", "ios": "https://dc.lft.to/lastmile_qr_scan"}, "fusion_lon": 0.0, "lat": 38.904549, "lon": -77.05922816666667, "type": "electric_scooter", "bike_id": "da021ee3f8de2012b55f180cb7308cb5", "name": "da021ee3f8de2012b55f180cb7308cb5"}, {"fusion_lat": 0.0, "is_reserved": 0, "is_disabled": 0, "rental_uris": {"android": "https://dc.lft.to/lastmile_qr_scan", "ios": "https://dc.lft.to/lastmile_qr_scan"}, "fusion_lon": 0.0, "lat": 38.910105333333334, "lon": -76.99389583333334, "type": "electric_scooter", "bike_id": "4240da98d40197442751d5edcd8d2e8c", "name": "4240da98d40197442751d5edcd8d2e8c"}, {"fusion_lat": 0.0, "is_reserved": 0, "is_disabled": 0, "rental_uris": {"android": "https://dc.lft.to/lastmile_qr_scan", "ios": "https://dc.lft.to/lastmile_qr_scan"}, "fusion_lon": 0.0, "lat": 38.91261133333333, "lon": -77.034975, "type": "electric_scooter", "bike_id": "b205ae9af6926609e894895d55faaff2", "name": "b205ae9af6926609e894895d55faaff2"}, {"fusion_lat": 0.0, "is_reserved": 0, "is_disabled": 0, "rental_uris": {"android": "https://dc.lft.to/lastmile_qr_scan", "ios": "https://dc.lft.to/lastmile_qr_scan"}, "fusion_lon": 0.0, "lat": 38.907420333333334, "lon": -77.023407, "type": "electric_scooter", "bike_id": "62aba07144b8491a43c5a02ee0f3fb17", "name": "62aba07144b8491a43c5a02ee0f3fb17"}, {"fusion_lat": 0.0, "is_reserved": 0, "is_disabled": 0, "rental_uris": {"android": "https://dc.lft.to/lastmile_qr_scan", "ios": "https://dc.lft.to/lastmile_qr_scan"}, "fusion_lon": 0.0, "lat": 38.86522166666666, "lon": -76.99035983333333, "type": "electric_scooter", "bike_id": "3fe86a4619aae988e05c3814bf801236", "name": "3fe86a4619aae988e05c3814bf801236"}, {"fusion_lat": 0.0, "is_reserved": 0, "is_disabled": 0, "rental_uris": {"android": "https://dc.lft.to/lastmile_qr_scan", "ios": "https://dc.lft.to/lastmile_qr_scan"}, "fusion_lon": 0.0, "lat": 38.892232, "lon": -77.04870983333333, "type": "electric_scooter", "bike_id": "30baf36f42d69cb3f68b2293c0f3dc92", "name": "30baf36f42d69cb3f68b2293c0f3dc92"}, {"fusion_lat": 0.0, "is_reserved": 0, "is_disabled": 0, "rental_uris": {"android": "https://dc.lft.to/lastmile_qr_scan", "ios": "https://dc.lft.to/lastmile_qr_scan"}, "fusion_lon": 0.0, "lat": 38.892741666666666, "lon": -77.02590766666667, "type": "electric_scooter", "bike_id": "d4d85ca91b371f18c78c5184fb007777", "name": "d4d85ca91b371f18c78c5184fb007777"}, {"fusion_lat": 0.0, "is_reserved": 0, "is_disabled": 0, "rental_uris": {"android": "https://dc.lft.to/lastmile_qr_scan", "ios": "https://dc.lft.to/lastmile_qr_scan"}, "fusion_lon": 0.0, "lat": 38.8618525, "lon": -76.99424816666667, "type": "electric_scooter", "bike_id": "f2d394cad2692da8b5c91eddaf71cbdc", "name": "f2d394cad2692da8b5c91eddaf71cbdc"}, {"fusion_lat": 0.0, "is_reserved": 0, "is_disabled": 0, "rental_uris": {"android": "https://dc.lft.to/lastmile_qr_scan", "ios": "https://dc.lft.to/lastmile_qr_scan"}, "fusion_lon": 0.0, "lat": 38.86398783333333, "lon": -76.97390933333334, "type": "electric_bike", "bike_id": "9726dbe515a0d358c5ef01482d12aa20", "name": "9726dbe515a0d358c5ef01482d12aa20"}, {"fusion_lat": 0.0, "is_reserved": 0, "is_disabled": 0, "rental_uris": {"android": "https://dc.lft.to/lastmile_qr_scan", "ios": "https://dc.lft.to/lastmile_qr_scan"}, "fusion_lon": 0.0, "lat": 38.9038135, "lon": -77.02638, "type": "electric_scooter", "bike_id": "d318b4360a43b7e975dcd6f77f3e6fd7", "name": "d318b4360a43b7e975dcd6f77f3e6fd7"}, {"fusion_lat": 0.0, "is_reserved": 0, "is_disabled": 0, "rental_uris": {"android": "https://dc.lft.to/lastmile_qr_scan", "ios": "https://dc.lft.to/lastmile_qr_scan"}, "fusion_lon": 0.0, "lat": 38.90202583333333, "lon": -77.04848466666667, "type": "electric_scooter", "bike_id": "81c28fa189640b93f01870818c9576cd", "name": "81c28fa189640b93f01870818c9576cd"}, {"fusion_lat": 0.0, "is_reserved": 0, "is_disabled": 0, "rental_uris": {"android": "https://dc.lft.to/lastmile_qr_scan", "ios": "https://dc.lft.to/lastmile_qr_scan"}, "fusion_lon": 0.0, "lat": 38.939459166666666, "lon": -77.06110266666667, "type": "electric_scooter", "bike_id": "c7546fb75164c63bc8f23420435acd02", "name": "c7546fb75164c63bc8f23420435acd02"}, {"fusion_lat": 0.0, "is_reserved": 0, "is_disabled": 0, "rental_uris": {"android": "https://dc.lft.to/lastmile_qr_scan", "ios": "https://dc.lft.to/lastmile_qr_scan"}, "fusion_lon": 0.0, "lat": 38.905318333333334, "lon": -77.05995233333333, "type": "electric_bike", "bike_id": "37d4e5469cbfa28938cbb28c042039dc", "name": "37d4e5469cbfa28938cbb28c042039dc"}, {"fusion_lat": 0.0, "is_reserved": 0, "is_disabled": 0, "rental_uris": {"android": "https://dc.lft.to/lastmile_qr_scan", "ios": "https://dc.lft.to/lastmile_qr_scan"}, "fusion_lon": 0.0, "lat": 38.842954, "lon": -76.999463, "type": "electric_scooter", "bike_id": "0079fa3594204143f0a9af4d8b143294", "name": "0079fa3594204143f0a9af4d8b143294"}, {"fusion_lat": 0.0, "is_reserved": 0, "is_disabled": 0, "rental_uris": {"android": "https://dc.lft.to/lastmile_qr_scan", "ios": "https://dc.lft.to/lastmile_qr_scan"}, "fusion_lon": 0.0, "lat": 38.973705833333334, "lon": -77.01867116666666, "type": "electric_scooter", "bike_id": "0743361545c27829735f8d09a97036c3", "name": "0743361545c27829735f8d09a97036c3"}, {"fusion_lat": 0.0, "is_reserved": 0, "is_disabled": 0, "rental_uris": {"android": "https://dc.lft.to/lastmile_qr_scan", "ios": "https://dc.lft.to/lastmile_qr_scan"}, "fusion_lon": 0.0, "lat": 38.93624633333334, "lon": -77.02444766666666, "type": "electric_scooter", "bike_id": "853fa46fde11859232d9f775925b32fe", "name": "853fa46fde11859232d9f775925b32fe"}, {"fusion_lat": 0.0, "is_reserved": 0, "is_disabled": 0, "rental_uris": {"android": "https://dc.lft.to/lastmile_qr_scan", "ios": "https://dc.lft.to/lastmile_qr_scan"}, "fusion_lon": 0.0, "lat": 38.8674465, "lon": -76.98787183333333, "type": "electric_scooter", "bike_id": "a8c9b64463753a76220984ace63aabd8", "name": "a8c9b64463753a76220984ace63aabd8"}, {"fusion_lat": 0.0, "is_reserved": 0, "is_disabled": 0, "rental_uris": {"android": "https://dc.lft.to/lastmile_qr_scan", "ios": "https://dc.lft.to/lastmile_qr_scan"}, "fusion_lon": 0.0, "lat": 38.916719666666665, "lon": -77.0066485, "type": "electric_scooter", "bike_id": "4df7a3ac0b74aa1a2417e181ebfc269d", "name": "4df7a3ac0b74aa1a2417e181ebfc269d"}, {"fusion_lat": 0.0, "is_reserved": 0, "is_disabled": 0, "rental_uris": {"android": "https://dc.lft.to/lastmile_qr_scan", "ios": "https://dc.lft.to/lastmile_qr_scan"}, "fusion_lon": 0.0, "lat": 38.9405165, "lon": -77.0926935, "type": "electric_scooter", "bike_id": "51e870701fadc6e40589532cb554b064", "name": "51e870701fadc6e40589532cb554b064"}, {"fusion_lat": 0.0, "is_reserved": 0, "is_disabled": 0, "rental_uris": {"android": "https://dc.lft.to/lastmile_qr_scan", "ios": "https://dc.lft.to/lastmile_qr_scan"}, "fusion_lon": 0.0, "lat": 38.905538, "lon": -77.0474555, "type": "electric_scooter", "bike_id": "e8b1e8a134b5e5c05a4b1f23a1366c31", "name": "e8b1e8a134b5e5c05a4b1f23a1366c31"}, {"fusion_lat": 0.0, "is_reserved": 0, "is_disabled": 0, "rental_uris": {"android": "https://dc.lft.to/lastmile_qr_scan", "ios": "https://dc.lft.to/lastmile_qr_scan"}, "fusion_lon": 0.0, "lat": 38.89222733333333, "lon": -77.04198616666666, "type": "electric_scooter", "bike_id": "ebd3357bae4ddb9b2aed42e7eed295e9", "name": "ebd3357bae4ddb9b2aed42e7eed295e9"}, {"fusion_lat": 0.0, "is_reserved": 0, "is_disabled": 0, "rental_uris": {"android": "https://dc.lft.to/lastmile_qr_scan", "ios": "https://dc.lft.to/lastmile_qr_scan"}, "fusion_lon": 0.0, "lat": 38.91988116666667, "lon": -77.04160716666667, "type": "electric_scooter", "bike_id": "82caa930e93940a41d69fc8f6a631d66", "name": "82caa930e93940a41d69fc8f6a631d66"}, {"fusion_lat": 0.0, "is_reserved": 0, "is_disabled": 0, "rental_uris": {"android": "https://dc.lft.to/lastmile_qr_scan", "ios": "https://dc.lft.to/lastmile_qr_scan"}, "fusion_lon": 0.0, "lat": 38.911131166666664, "lon": -77.04505916666666, "type": "electric_scooter", "bike_id": "9eb43be8605a88b20a20d52151b1da2f", "name": "9eb43be8605a88b20a20d52151b1da2f"}, {"fusion_lat": 0.0, "is_reserved": 0, "is_disabled": 0, "rental_uris": {"android": "https://dc.lft.to/lastmile_qr_scan", "ios": "https://dc.lft.to/lastmile_qr_scan"}, "fusion_lon": 0.0, "lat": 38.90732466666667, "lon": -77.02544483333334, "type": "electric_scooter", "bike_id": "6f4f78648f85e173ff0b836a414f79ab", "name": "6f4f78648f85e173ff0b836a414f79ab"}, {"fusion_lat": 0.0, "is_reserved": 0, "is_disabled": 0, "rental_uris": {"android": "https://dc.lft.to/lastmile_qr_scan", "ios": "https://dc.lft.to/lastmile_qr_scan"}, "fusion_lon": 0.0, "lat": 38.88877433333333, "lon": -77.00120116666666, "type": "electric_scooter", "bike_id": "38a58f23a008112c214d3d5cea494fd7", "name": "38a58f23a008112c214d3d5cea494fd7"}, {"fusion_lat": 0.0, "is_reserved": 0, "is_disabled": 0, "rental_uris": {"android": "https://dc.lft.to/lastmile_qr_scan", "ios": "https://dc.lft.to/lastmile_qr_scan"}, "fusion_lon": 0.0, "lat": 38.914219, "lon": -77.03395716666667, "type": "electric_scooter", "bike_id": "258de2783dc36d92c781301c43b44f89", "name": "258de2783dc36d92c781301c43b44f89"}, {"fusion_lat": 0.0, "is_reserved": 0, "is_disabled": 0, "rental_uris": {"android": "https://dc.lft.to/lastmile_qr_scan", "ios": "https://dc.lft.to/lastmile_qr_scan"}, "fusion_lon": 0.0, "lat": 38.903719, "lon": -77.04876916666667, "type": "electric_scooter", "bike_id": "10966b5e772bb6fda20dd185cee23038", "name": "10966b5e772bb6fda20dd185cee23038"}, {"fusion_lat": 0.0, "is_reserved": 0, "is_disabled": 0, "rental_uris": {"android": "https://dc.lft.to/lastmile_qr_scan", "ios": "https://dc.lft.to/lastmile_qr_scan"}, "fusion_lon": 0.0, "lat": 38.9181355, "lon": -77.04168616666666, "type": "electric_scooter", "bike_id": "cf5b3aeccd63b9b17ade8625fe54bcf3", "name": "cf5b3aeccd63b9b17ade8625fe54bcf3"}, {"fusion_lat": 0.0, "is_reserved": 0, "is_disabled": 0, "rental_uris": {"android": "https://dc.lft.to/lastmile_qr_scan", "ios": "https://dc.lft.to/lastmile_qr_scan"}, "fusion_lon": 0.0, "lat": 38.906569833333336, "lon": -77.00822133333334, "type": "electric_scooter", "bike_id": "e3d8b431de0e28a56cf9befc39d2f5e8", "name": "e3d8b431de0e28a56cf9befc39d2f5e8"}, {"fusion_lat": 0.0, "is_reserved": 0, "is_disabled": 0, "rental_uris": {"android": "https://dc.lft.to/lastmile_qr_scan", "ios": "https://dc.lft.to/lastmile_qr_scan"}, "fusion_lon": 0.0, "lat": 38.866639166666666, "lon": -76.98903466666667, "type": "electric_scooter", "bike_id": "1ffd956a65e036710e0e50553f786e01", "name": "1ffd956a65e036710e0e50553f786e01"}, {"fusion_lat": 0.0, "is_reserved": 0, "is_disabled": 0, "rental_uris": {"android": "https://dc.lft.to/lastmile_qr_scan", "ios": "https://dc.lft.to/lastmile_qr_scan"}, "fusion_lon": 0.0, "lat": 38.92149783333333, "lon": -77.02416, "type": "electric_scooter", "bike_id": "4432591bb089adecddd0d7e3ddf7eb2f", "name": "4432591bb089adecddd0d7e3ddf7eb2f"}, {"fusion_lat": 0.0, "is_reserved": 0, "is_disabled": 0, "rental_uris": {"android": "https://dc.lft.to/lastmile_qr_scan", "ios": "https://dc.lft.to/lastmile_qr_scan"}, "fusion_lon": 0.0, "lat": 38.92969683333333, "lon": -77.03178866666667, "type": "electric_scooter", "bike_id": "887eba05244c567779ec2f1ab5cb6922", "name": "887eba05244c567779ec2f1ab5cb6922"}, {"fusion_lat": 0.0, "is_reserved": 0, "is_disabled": 0, "rental_uris": {"android": "https://dc.lft.to/lastmile_qr_scan", "ios": "https://dc.lft.to/lastmile_qr_scan"}, "fusion_lon": 0.0, "lat": 38.89222516666667, "lon": -77.0278075, "type": "electric_scooter", "bike_id": "3f2c5dbdae519f8d0797a88e61d3a16b", "name": "3f2c5dbdae519f8d0797a88e61d3a16b"}, {"fusion_lat": 0.0, "is_reserved": 0, "is_disabled": 0, "rental_uris": {"android": "https://dc.lft.to/lastmile_qr_scan", "ios": "https://dc.lft.to/lastmile_qr_scan"}, "fusion_lon": 0.0, "lat": 38.90561916666667, "lon": -77.0444085, "type": "electric_scooter", "bike_id": "e367e46e0822d1e2842ae1651b6a5dc9", "name": "e367e46e0822d1e2842ae1651b6a5dc9"}, {"fusion_lat": 0.0, "is_reserved": 0, "is_disabled": 0, "rental_uris": {"android": "https://dc.lft.to/lastmile_qr_scan", "ios": "https://dc.lft.to/lastmile_qr_scan"}, "fusion_lon": 0.0, "lat": 38.923713, "lon": -77.01913916666666, "type": "electric_scooter", "bike_id": "269d2291acc13d94b8de89db2d4ebac8", "name": "269d2291acc13d94b8de89db2d4ebac8"}, {"fusion_lat": 0.0, "is_reserved": 0, "is_disabled": 0, "rental_uris": {"android": "https://dc.lft.to/lastmile_qr_scan", "ios": "https://dc.lft.to/lastmile_qr_scan"}, "fusion_lon": 0.0, "lat": 38.85562083333333, "lon": -76.99491183333333, "type": "electric_scooter", "bike_id": "55519b791acba897ef1da0699ba7eb26", "name": "55519b791acba897ef1da0699ba7eb26"}, {"fusion_lat": 0.0, "is_reserved": 0, "is_disabled": 0, "rental_uris": {"android": "https://dc.lft.to/lastmile_qr_scan", "ios": "https://dc.lft.to/lastmile_qr_scan"}, "fusion_lon": 0.0, "lat": 38.902958, "lon": -77.0402405, "type": "electric_scooter", "bike_id": "007dd993ff74268dfbbcbda6ce713c07", "name": "007dd993ff74268dfbbcbda6ce713c07"}, {"fusion_lat": 0.0, "is_reserved": 0, "is_disabled": 0, "rental_uris": {"android": "https://dc.lft.to/lastmile_qr_scan", "ios": "https://dc.lft.to/lastmile_qr_scan"}, "fusion_lon": 0.0, "lat": 38.94451016666667, "lon": -77.02347033333334, "type": "electric_scooter", "bike_id": "4445db6987ecf74b4272992fd04239ff", "name": "4445db6987ecf74b4272992fd04239ff"}, {"fusion_lat": 0.0, "is_reserved": 0, "is_disabled": 0, "rental_uris": {"android": "https://dc.lft.to/lastmile_qr_scan", "ios": "https://dc.lft.to/lastmile_qr_scan"}, "fusion_lon": 0.0, "lat": 38.90589683333334, "lon": -77.04247866666667, "type": "electric_scooter", "bike_id": "7ebf75066767969624d1a8c4afcce083", "name": "7ebf75066767969624d1a8c4afcce083"}, {"fusion_lat": 0.0, "is_reserved": 0, "is_disabled": 0, "rental_uris": {"android": "https://dc.lft.to/lastmile_qr_scan", "ios": "https://dc.lft.to/lastmile_qr_scan"}, "fusion_lon": 0.0, "lat": 38.9053595, "lon": -77.00562766666667, "type": "electric_scooter", "bike_id": "438436854819f8451a6582ada81a2785", "name": "438436854819f8451a6582ada81a2785"}, {"fusion_lat": 0.0, "is_reserved": 0, "is_disabled": 0, "rental_uris": {"android": "https://dc.lft.to/lastmile_qr_scan", "ios": "https://dc.lft.to/lastmile_qr_scan"}, "fusion_lon": 0.0, "lat": 38.92656016666667, "lon": -77.03729833333334, "type": "electric_scooter", "bike_id": "0daefbf69ea0929be05f4b47693d8f70", "name": "0daefbf69ea0929be05f4b47693d8f70"}, {"fusion_lat": 0.0, "is_reserved": 0, "is_disabled": 0, "rental_uris": {"android": "https://dc.lft.to/lastmile_qr_scan", "ios": "https://dc.lft.to/lastmile_qr_scan"}, "fusion_lon": 0.0, "lat": 38.92176833333333, "lon": -77.03226333333333, "type": "electric_scooter", "bike_id": "1533bdcbe135f96d0c6e7c0b6431ed81", "name": "1533bdcbe135f96d0c6e7c0b6431ed81"}, {"fusion_lat": 0.0, "is_reserved": 0, "is_disabled": 0, "rental_uris": {"android": "https://dc.lft.to/lastmile_qr_scan", "ios": "https://dc.lft.to/lastmile_qr_scan"}, "fusion_lon": 0.0, "lat": 38.87669266666666, "lon": -77.01436066666666, "type": "electric_bike", "bike_id": "67dce020a6bae12122b58ba78687bd72", "name": "67dce020a6bae12122b58ba78687bd72"}, {"fusion_lat": 0.0, "is_reserved": 0, "is_disabled": 0, "rental_uris": {"android": "https://dc.lft.to/lastmile_qr_scan", "ios": "https://dc.lft.to/lastmile_qr_scan"}, "fusion_lon": 0.0, "lat": 38.89844216666667, "lon": -76.94479066666666, "type": "electric_scooter", "bike_id": "e03745bec44be0ee7a046dea905fd463", "name": "e03745bec44be0ee7a046dea905fd463"}, {"fusion_lat": 0.0, "is_reserved": 0, "is_disabled": 0, "rental_uris": {"android": "https://dc.lft.to/lastmile_qr_scan", "ios": "https://dc.lft.to/lastmile_qr_scan"}, "fusion_lon": 0.0, "lat": 38.89922166666667, "lon": -77.03989116666666, "type": "electric_scooter", "bike_id": "4d10c7a9c67768481d44a3f0d1b855b9", "name": "4d10c7a9c67768481d44a3f0d1b855b9"}, {"fusion_lat": 0.0, "is_reserved": 0, "is_disabled": 0, "rental_uris": {"android": "https://dc.lft.to/lastmile_qr_scan", "ios": "https://dc.lft.to/lastmile_qr_scan"}, "fusion_lon": 0.0, "lat": 38.887085166666665, "lon": -77.01375833333333, "type": "electric_scooter", "bike_id": "0b8b7146a218e4874f05f98083e059d3", "name": "0b8b7146a218e4874f05f98083e059d3"}, {"fusion_lat": 0.0, "is_reserved": 0, "is_disabled": 0, "rental_uris": {"android": "https://dc.lft.to/lastmile_qr_scan", "ios": "https://dc.lft.to/lastmile_qr_scan"}, "fusion_lon": 0.0, "lat": 38.930944333333336, "lon": -77.03768266666667, "type": "electric_scooter", "bike_id": "ee081abc93088b30fee64fbacb1db5e7", "name": "ee081abc93088b30fee64fbacb1db5e7"}, {"fusion_lat": 0.0, "is_reserved": 0, "is_disabled": 0, "rental_uris": {"android": "https://dc.lft.to/lastmile_qr_scan", "ios": "https://dc.lft.to/lastmile_qr_scan"}, "fusion_lon": 0.0, "lat": 39.09437466666667, "lon": -77.1345705, "type": "electric_bike", "bike_id": "da552f974fc311951e407d6ec8e23313", "name": "da552f974fc311951e407d6ec8e23313"}, {"fusion_lat": 0.0, "is_reserved": 0, "is_disabled": 0, "rental_uris": {"android": "https://dc.lft.to/lastmile_qr_scan", "ios": "https://dc.lft.to/lastmile_qr_scan"}, "fusion_lon": 0.0, "lat": 38.862858833333334, "lon": -76.99236916666666, "type": "electric_scooter", "bike_id": "0612308c13951a3725682893926a1625", "name": "0612308c13951a3725682893926a1625"}, {"fusion_lat": 0.0, "is_reserved": 0, "is_disabled": 0, "rental_uris": {"android": "https://dc.lft.to/lastmile_qr_scan", "ios": "https://dc.lft.to/lastmile_qr_scan"}, "fusion_lon": 0.0, "lat": 38.8763225, "lon": -76.96524666666667, "type": "electric_scooter", "bike_id": "2382fc9ccbc05101a701001bc01b7232", "name": "2382fc9ccbc05101a701001bc01b7232"}, {"fusion_lat": 0.0, "is_reserved": 0, "is_disabled": 0, "rental_uris": {"android": "https://dc.lft.to/lastmile_qr_scan", "ios": "https://dc.lft.to/lastmile_qr_scan"}, "fusion_lon": 0.0, "lat": 38.91206833333333, "lon": -77.036428, "type": "electric_scooter", "bike_id": "461bf5352609531afea6454dd8013138", "name": "461bf5352609531afea6454dd8013138"}, {"fusion_lat": 0.0, "is_reserved": 0, "is_disabled": 0, "rental_uris": {"android": "https://dc.lft.to/lastmile_qr_scan", "ios": "https://dc.lft.to/lastmile_qr_scan"}, "fusion_lon": 0.0, "lat": 38.9073475, "lon": -77.04779716666667, "type": "electric_scooter", "bike_id": "bfe29c6308fef190d4dfe5764f1ac46f", "name": "bfe29c6308fef190d4dfe5764f1ac46f"}, {"fusion_lat": 0.0, "is_reserved": 0, "is_disabled": 0, "rental_uris": {"android": "https://dc.lft.to/lastmile_qr_scan", "ios": "https://dc.lft.to/lastmile_qr_scan"}, "fusion_lon": 0.0, "lat": 38.899174, "lon": -77.04069083333333, "type": "electric_scooter", "bike_id": "48f20f674e54fe71a04a3563a5623f81", "name": "48f20f674e54fe71a04a3563a5623f81"}, {"fusion_lat": 0.0, "is_reserved": 0, "is_disabled": 0, "rental_uris": {"android": "https://dc.lft.to/lastmile_qr_scan", "ios": "https://dc.lft.to/lastmile_qr_scan"}, "fusion_lon": 0.0, "lat": 38.86241066666667, "lon": -76.99480466666667, "type": "electric_scooter", "bike_id": "730eeaba3d5b62fcbb1730b86258a1e3", "name": "730eeaba3d5b62fcbb1730b86258a1e3"}, {"fusion_lat": 0.0, "is_reserved": 0, "is_disabled": 0, "rental_uris": {"android": "https://dc.lft.to/lastmile_qr_scan", "ios": "https://dc.lft.to/lastmile_qr_scan"}, "fusion_lon": 0.0, "lat": 38.91877366666667, "lon": -77.02169333333333, "type": "electric_scooter", "bike_id": "c1576f5537fd2532a3fbc9f5a2d836aa", "name": "c1576f5537fd2532a3fbc9f5a2d836aa"}, {"fusion_lat": 0.0, "is_reserved": 0, "is_disabled": 0, "rental_uris": {"android": "https://dc.lft.to/lastmile_qr_scan", "ios": "https://dc.lft.to/lastmile_qr_scan"}, "fusion_lon": 0.0, "lat": 38.941761666666665, "lon": -77.02506066666666, "type": "electric_scooter", "bike_id": "2e7a2e616f1006438a1a9e1a3cb8fa33", "name": "2e7a2e616f1006438a1a9e1a3cb8fa33"}, {"fusion_lat": 0.0, "is_reserved": 0, "is_disabled": 0, "rental_uris": {"android": "https://dc.lft.to/lastmile_qr_scan", "ios": "https://dc.lft.to/lastmile_qr_scan"}, "fusion_lon": 0.0, "lat": 38.842972833333334, "lon": -76.99946766666666, "type": "electric_scooter", "bike_id": "c8b40efd80eed3886c18f2d24e691c60", "name": "c8b40efd80eed3886c18f2d24e691c60"}, {"fusion_lat": 0.0, "is_reserved": 0, "is_disabled": 0, "rental_uris": {"android": "https://dc.lft.to/lastmile_qr_scan", "ios": "https://dc.lft.to/lastmile_qr_scan"}, "fusion_lon": 0.0, "lat": 38.895097, "lon": -77.02173183333333, "type": "electric_scooter", "bike_id": "a44cb6944b07e9378717b873f6a7b517", "name": "a44cb6944b07e9378717b873f6a7b517"}, {"fusion_lat": 0.0, "is_reserved": 0, "is_disabled": 0, "rental_uris": {"android": "https://dc.lft.to/lastmile_qr_scan", "ios": "https://dc.lft.to/lastmile_qr_scan"}, "fusion_lon": 0.0, "lat": 38.94315816666666, "lon": -77.06167016666667, "type": "electric_scooter", "bike_id": "18b1776873100ea9a6a15e96b0bd5cba", "name": "18b1776873100ea9a6a15e96b0bd5cba"}, {"fusion_lat": 0.0, "is_reserved": 0, "is_disabled": 0, "rental_uris": {"android": "https://dc.lft.to/lastmile_qr_scan", "ios": "https://dc.lft.to/lastmile_qr_scan"}, "fusion_lon": 0.0, "lat": 38.9178705, "lon": -77.04026616666667, "type": "electric_scooter", "bike_id": "eb913c445cbef6d74c947768e592b399", "name": "eb913c445cbef6d74c947768e592b399"}, {"fusion_lat": 0.0, "is_reserved": 0, "is_disabled": 0, "rental_uris": {"android": "https://dc.lft.to/lastmile_qr_scan", "ios": "https://dc.lft.to/lastmile_qr_scan"}, "fusion_lon": 0.0, "lat": 38.9004425, "lon": -77.00206433333334, "type": "electric_scooter", "bike_id": "c4653439531759d95c56fc38ba22d3f7", "name": "c4653439531759d95c56fc38ba22d3f7"}, {"fusion_lat": 0.0, "is_reserved": 0, "is_disabled": 0, "rental_uris": {"android": "https://dc.lft.to/lastmile_qr_scan", "ios": "https://dc.lft.to/lastmile_qr_scan"}, "fusion_lon": 0.0, "lat": 38.942119, "lon": -77.01821083333333, "type": "electric_bike", "bike_id": "26675efa5ca53a6d51f5e625f5ecf891", "name": "26675efa5ca53a6d51f5e625f5ecf891"}, {"fusion_lat": 0.0, "is_reserved": 0, "is_disabled": 0, "rental_uris": {"android": "https://dc.lft.to/lastmile_qr_scan", "ios": "https://dc.lft.to/lastmile_qr_scan"}, "fusion_lon": 0.0, "lat": 38.858096, "lon": -76.986547, "type": "electric_scooter", "bike_id": "e0418e9457936ea634c2a53dec14c835", "name": "e0418e9457936ea634c2a53dec14c835"}, {"fusion_lat": 0.0, "is_reserved": 0, "is_disabled": 0, "rental_uris": {"android": "https://dc.lft.to/lastmile_qr_scan", "ios": "https://dc.lft.to/lastmile_qr_scan"}, "fusion_lon": 0.0, "lat": 38.94980183333333, "lon": -77.026985, "type": "electric_scooter", "bike_id": "1bc29e1fe59aa2408b5aa2e180fba326", "name": "1bc29e1fe59aa2408b5aa2e180fba326"}, {"fusion_lat": 0.0, "is_reserved": 0, "is_disabled": 0, "rental_uris": {"android": "https://dc.lft.to/lastmile_qr_scan", "ios": "https://dc.lft.to/lastmile_qr_scan"}, "fusion_lon": 0.0, "lat": 38.94396833333333, "lon": -77.026125, "type": "electric_scooter", "bike_id": "ba2bff1283a64cb6a4ed30ff217b2470", "name": "ba2bff1283a64cb6a4ed30ff217b2470"}, {"fusion_lat": 0.0, "is_reserved": 0, "is_disabled": 0, "rental_uris": {"android": "https://dc.lft.to/lastmile_qr_scan", "ios": "https://dc.lft.to/lastmile_qr_scan"}, "fusion_lon": 0.0, "lat": 38.90013116666667, "lon": -77.03357383333334, "type": "electric_scooter", "bike_id": "dc7b1e63c09c546a469b3f94540126e5", "name": "dc7b1e63c09c546a469b3f94540126e5"}, {"fusion_lat": 0.0, "is_reserved": 0, "is_disabled": 0, "rental_uris": {"android": "https://dc.lft.to/lastmile_qr_scan", "ios": "https://dc.lft.to/lastmile_qr_scan"}, "fusion_lon": 0.0, "lat": 38.895335833333334, "lon": -77.0322245, "type": "electric_scooter", "bike_id": "fc6ccecd56ba0e53c44bf69d4fe339e9", "name": "fc6ccecd56ba0e53c44bf69d4fe339e9"}, {"fusion_lat": 0.0, "is_reserved": 0, "is_disabled": 0, "rental_uris": {"android": "https://dc.lft.to/lastmile_qr_scan", "ios": "https://dc.lft.to/lastmile_qr_scan"}, "fusion_lon": 0.0, "lat": 38.892239833333335, "lon": -77.02445233333333, "type": "electric_scooter", "bike_id": "46cfe7f9322c7e804fda01f69d5f33b2", "name": "46cfe7f9322c7e804fda01f69d5f33b2"}, {"fusion_lat": 0.0, "is_reserved": 0, "is_disabled": 0, "rental_uris": {"android": "https://dc.lft.to/lastmile_qr_scan", "ios": "https://dc.lft.to/lastmile_qr_scan"}, "fusion_lon": 0.0, "lat": 38.912227333333334, "lon": -77.01207833333333, "type": "electric_scooter", "bike_id": "2945aa80c9ae4a270b1cc892c2efca1a", "name": "2945aa80c9ae4a270b1cc892c2efca1a"}, {"fusion_lat": 0.0, "is_reserved": 0, "is_disabled": 0, "rental_uris": {"android": "https://dc.lft.to/lastmile_qr_scan", "ios": "https://dc.lft.to/lastmile_qr_scan"}, "fusion_lon": 0.0, "lat": 38.91711266666667, "lon": -77.03880433333333, "type": "electric_scooter", "bike_id": "6ae2496df134948d6ed73356f88c0299", "name": "6ae2496df134948d6ed73356f88c0299"}, {"fusion_lat": 0.0, "is_reserved": 0, "is_disabled": 0, "rental_uris": {"android": "https://dc.lft.to/lastmile_qr_scan", "ios": "https://dc.lft.to/lastmile_qr_scan"}, "fusion_lon": 0.0, "lat": 38.922894, "lon": -77.0365605, "type": "electric_scooter", "bike_id": "71eab42a8236c48f098b95f9f62cca1c", "name": "71eab42a8236c48f098b95f9f62cca1c"}, {"fusion_lat": 0.0, "is_reserved": 0, "is_disabled": 0, "rental_uris": {"android": "https://dc.lft.to/lastmile_qr_scan", "ios": "https://dc.lft.to/lastmile_qr_scan"}, "fusion_lon": 0.0, "lat": 38.907221666666665, "lon": -77.0449605, "type": "electric_scooter", "bike_id": "8785ad6792e6f5efc003b2c2a8835b40", "name": "8785ad6792e6f5efc003b2c2a8835b40"}, {"fusion_lat": 0.0, "is_reserved": 0, "is_disabled": 0, "rental_uris": {"android": "https://dc.lft.to/lastmile_qr_scan", "ios": "https://dc.lft.to/lastmile_qr_scan"}, "fusion_lon": 0.0, "lat": 38.905048666666666, "lon": -77.04474566666667, "type": "electric_scooter", "bike_id": "770633bb2dbe713b750412683556e419", "name": "770633bb2dbe713b750412683556e419"}, {"fusion_lat": 0.0, "is_reserved": 0, "is_disabled": 0, "rental_uris": {"android": "https://dc.lft.to/lastmile_qr_scan", "ios": "https://dc.lft.to/lastmile_qr_scan"}, "fusion_lon": 0.0, "lat": 38.903941833333334, "lon": -77.041138, "type": "electric_scooter", "bike_id": "f046bd0f420cb88ad97ac899f3df256a", "name": "f046bd0f420cb88ad97ac899f3df256a"}, {"fusion_lat": 0.0, "is_reserved": 0, "is_disabled": 0, "rental_uris": {"android": "https://dc.lft.to/lastmile_qr_scan", "ios": "https://dc.lft.to/lastmile_qr_scan"}, "fusion_lon": 0.0, "lat": 38.91872733333334, "lon": -77.03553566666666, "type": "electric_scooter", "bike_id": "774ae9c9353e2c9c54631b5cc0f0b137", "name": "774ae9c9353e2c9c54631b5cc0f0b137"}, {"fusion_lat": 0.0, "is_reserved": 0, "is_disabled": 0, "rental_uris": {"android": "https://dc.lft.to/lastmile_qr_scan", "ios": "https://dc.lft.to/lastmile_qr_scan"}, "fusion_lon": 0.0, "lat": 38.92012883333334, "lon": -77.071226, "type": "electric_scooter", "bike_id": "40e60f9a03fa89a5b6dbc9557defe772", "name": "40e60f9a03fa89a5b6dbc9557defe772"}, {"fusion_lat": 0.0, "is_reserved": 0, "is_disabled": 0, "rental_uris": {"android": "https://dc.lft.to/lastmile_qr_scan", "ios": "https://dc.lft.to/lastmile_qr_scan"}, "fusion_lon": 0.0, "lat": 38.925638166666666, "lon": -77.0392265, "type": "electric_scooter", "bike_id": "9c8ce794a3130e3c11d9a44774b7272d", "name": "9c8ce794a3130e3c11d9a44774b7272d"}, {"fusion_lat": 0.0, "is_reserved": 0, "is_disabled": 0, "rental_uris": {"android": "https://dc.lft.to/lastmile_qr_scan", "ios": "https://dc.lft.to/lastmile_qr_scan"}, "fusion_lon": 0.0, "lat": 38.85650916666667, "lon": -77.11242433333334, "type": "electric_bike", "bike_id": "8c31e27e4fad2c4ba0b9431438c8b5e6", "name": "8c31e27e4fad2c4ba0b9431438c8b5e6"},