{"data": {"bikes": [{"fusion_lat": 0.0, "fusion_lon": 0.0, "rental_uris": {"android": "https://dc.lft.to/lastmile_qr_scan", "ios": "https://dc.lft.to/lastmile_qr_scan"}, "lon": -77.03707116666666, "name": "0c8878026bd9d38cb064fe8f5199f019", "is_disabled": 0, "is_reserved": 0, "bike_id": "0c8878026bd9d38cb064fe8f5199f019", "lat": 38.9023615, "type": "electric_scooter"}, {"fusion_lat": 0.0, "fusion_lon": 0.0, "rental_uris": {"android": "https://dc.lft.to/lastmile_qr_scan", "ios": "https://dc.lft.to/lastmile_qr_scan"}, "lon": -76.98336966666666, "name": "1618307e98f886c79962032d81954d34", "is_disabled": 0, "is_reserved": 0, "bike_id": "1618307e98f886c79962032d81954d34", "lat": 38.865635, "type": "electric_scooter"}, {"fusion_lat": 0.0, "fusion_lon": 0.0, "rental_uris": {"android": "https://dc.lft.to/lastmile_qr_scan", "ios": "https://dc.lft.to/lastmile_qr_scan"}, "lon": -77.05857566666667, "name": "7652a045ce7bf608de05d7e06db06fc1", "is_disabled": 0, "is_reserved": 0, "bike_id": "7652a045ce7bf608de05d7e06db06fc1", "lat": 38.9361035, "type": "electric_scooter"}, {"fusion_lat": 0.0, "fusion_lon": 0.0, "rental_uris": {"android": "https://dc.lft.to/lastmile_qr_scan", "ios": "https://dc.lft.to/lastmile_qr_scan"}, "lon": -77.04655883333334, "name": "71a6d3f6e8d7d8d3d7ff01ed1bab0c6f", "is_disabled": 0, "is_reserved": 0, "bike_id": "71a6d3f6e8d7d8d3d7ff01ed1bab0c6f", "lat": 38.90414283333333, "type": "electric_bike"}, {"fusion_lat": 0.0, "fusion_lon": 0.0, "rental_uris": {"android": "https://dc.lft.to/lastmile_qr_scan", "ios": "https://dc.lft.to/lastmile_qr_scan"}, "lon": -77.00736216666667, "name": "54526d91925effb4f96e938cc6d9a682", "is_disabled": 0, "is_reserved": 0, "bike_id": "54526d91925effb4f96e938cc6d9a682", "lat": 38.898252, "type": "electric_scooter"}, {"fusion_lat": 0.0, "fusion_lon": 0.0, "rental_uris": {"android": "https://dc.lft.to/lastmile_qr_scan", "ios": "https://dc.lft.to/lastmile_qr_scan"}, "lon": -76.99977283333334, "name": "e6690af984d650ab3dc81211bd9e7d4c", "is_disabled": 0, "is_reserved": 0, "bike_id": "e6690af984d650ab3dc81211bd9e7d4c", "lat": 38.874788333333335, "type": "electric_scooter"}, {"fusion_lat": 0.0, "fusion_lon": 0.0, "rental_uris": {"android": "https://dc.lft.to/lastmile_qr_scan", "ios": "https://dc.lft.to/lastmile_qr_scan"}, "lon": -77.052251, "name": "bc51ec2beb67fa3e2dc48ddc5a7f14e8", "is_disabled": 0, "is_reserved": 0, "bike_id": "bc51ec2beb67fa3e2dc48ddc5a7f14e8", "lat": 38.92445583333333, "type": "electric_scooter"}, {"fusion_lat": 0.0, "fusion_lon": 0.0, "rental_uris": {"android": "https://dc.lft.to/lastmile_qr_scan", "ios": "https://dc.lft.to/lastmile_qr_scan"}, "lon": -77.04871916666667, "name": "e7dc8805bc7c519f3c2b54644a57b853", "is_disabled": 0, "is_reserved": 0, "bike_id": "e7dc8805bc7c519f3c2b54644a57b853", "lat": 38.90211033333333, "type": "electric_scooter"}, {"fusion_lat": 0.0, "fusion_lon": 0.0, "rental_uris": {"android": "https://dc.lft.to/lastmile_qr_scan", "ios": "https://dc.lft.to/lastmile_qr_scan"}, "lon": -76.98209566666667, "name": "93429e6dc5d8eee9ef56ce6fafdcf7ec", "is_disabled": 0, "is_reserved": 0, "bike_id": "93429e6dc5d8eee9ef56ce6fafdcf7ec", "lat": 38.985047, "type": "electric_bike"}, {"fusion_lat": 0.0, "fusion_lon": 0.0, "rental_uris": {"android": "https://dc.lft.to/lastmile_qr_scan", "ios": "https://dc.lft.to/lastmile_qr_scan"}, "lon": -77.00374816666667, "name": "4f0a0356229ad8c2e372796b73682019", "is_disabled": 0, "is_reserved": 0, "bike_id": "4f0a0356229ad8c2e372796b73682019", "lat": 38.876365666666665, "type": "electric_scooter"}, {"fusion_lat": 0.0, "fusion_lon": 0.0, "rental_uris": {"android": "https://dc.lft.to/lastmile_qr_scan", "ios": "https://dc.lft.to/lastmile_qr_scan"}, "lon": -77.03588166666667, "name": "7d95b4803334e5e6e3c4a72858485101", "is_disabled": 0, "is_reserved": 0, "bike_id": "7d95b4803334e5e6e3c4a72858485101", "lat": 38.931498833333336, "type": "electric_scooter"}, {"fusion_lat": 0.0, "fusion_lon": 0.0, "rental_uris": {"android": "https://dc.lft.to/lastmile_qr_scan", "ios": "https://dc.lft.to/lastmile_qr_scan"}, "lon": -77.050067, "name": "191c34438a3fd835adedd838320b1b98", "is_disabled": 0, "is_reserved": 0, "bike_id": "191c34438a3fd835adedd838320b1b98", "lat": 38.904137, "type": "electric_scooter"}, {"fusion_lat": 0.0, "fusion_lon": 0.0, "rental_uris": {"android": "https://dc.lft.to/lastmile_qr_scan", "ios": "https://dc.lft.to/lastmile_qr_scan"}, "lon": -77.097141, "name": "942635a8c31c32ff9a45ffc5ed40c064", "is_disabled": 0, "is_reserved": 0, "bike_id": "942635a8c31c32ff9a45ffc5ed40c064", "lat": 38.950962833333335, "type": "electric_scooter"}, {"fusion_lat": 0.0, "fusion_lon": 0.0, "rental_uris": {"android": "https://dc.lft.to/lastmile_qr_scan", "ios": "https://dc.lft.to/lastmile_qr_scan"}, "lon": -77.02215133333333, "name": "2560a6c5401ba64b2b7fcd81c939634d", "is_disabled": 0, "is_reserved": 0, "bike_id": "2560a6c5401ba64b2b7fcd81c939634d", "lat": 38.924688833333335, "type": "electric_scooter"}, {"fusion_lat": 0.0, "fusion_lon": 0.0, "rental_uris": {"android": "https://dc.lft.to/lastmile_qr_scan", "ios": "https://dc.lft.to/lastmile_qr_scan"}, "lon": -77.04423316666667, "name": "61bee4e15f8a5e99d98934c08a0a5119", "is_disabled": 0, "is_reserved": 0, "bike_id": "61bee4e15f8a5e99d98934c08a0a5119", "lat": 38.91005166666667, "type": "electric_scooter"}, {"fusion_lat": 0.0, "fusion_lon": 0.0, "rental_uris": {"android": "https://dc.lft.to/lastmile_qr_scan", "ios": "https://dc.lft.to/lastmile_qr_scan"}, "lon": -77.03584483333333, "name": "81b9690c9520517aa12666fe2f2e18a5", "is_disabled": 0, "is_reserved": 0, "bike_id": "81b9690c9520517aa12666fe2f2e18a5", "lat": 38.931495, "type": "electric_scooter"}, {"fusion_lat": 0.0, "fusion_lon": 0.0, "rental_uris": {"android": "https://dc.lft.to/lastmile_qr_scan", "ios": "https://dc.lft.to/lastmile_qr_scan"}, "lon": -77.0271635, "name": "352e4b9678ba995b22fbe610a3f10bb6", "is_disabled": 0, "is_reserved": 0, "bike_id": "352e4b9678ba995b22fbe610a3f10bb6", "lat": 38.90779416666667, "type": "electric_scooter"}, {"fusion_lat": 0.0, "fusion_lon": 0.0, "rental_uris": {"android": "https://dc.lft.to/lastmile_qr_scan", "ios": "https://dc.lft.to/lastmile_qr_scan"}, "lon": -77.0238585, "name": "9c072631b6148f56f7f43f4353b24e1e", "is_disabled": 0, "is_reserved": 0, "bike_id": "9c072631b6148f56f7f43f4353b24e1e", "lat": 38.90689583333333, "type": "electric_scooter"}, {"fusion_lat": 0.0, "fusion_lon": 0.0, "rental_uris": {"android": "https://dc.lft.to/lastmile_qr_scan", "ios": "https://dc.lft.to/lastmile_qr_scan"}, "lon": -77.03558, "name": "688429af09da48c944a5c0afde86d117", "is_disabled": 0, "is_reserved": 0, "bike_id": "688429af09da48c944a5c0afde86d117", "lat": 38.90733616666667, "type": "electric_scooter"}, {"fusion_lat": 0.0, "fusion_lon": 0.0, "rental_uris": {"android": "https://dc.lft.to/lastmile_qr_scan", "ios": "https://dc.lft.to/lastmile_qr_scan"}, "lon": -76.96705816666666, "name": "acf1cdce6add9fdd72a4463c75c4878b", "is_disabled": 0, "is_reserved": 0, "bike_id": "acf1cdce6add9fdd72a4463c75c4878b", "lat": 38.86033483333333, "type": "electric_scooter"}, {"fusion_lat": 0.0, "fusion_lon": 0.0, "rental_uris": {"android": "https://dc.lft.to/lastmile_qr_scan", "ios": "https://dc.lft.to/lastmile_qr_scan"}, "lon": -77.00713766666667, "name": "7e362e2521affb8c239f1aff9b42cb99", "is_disabled": 0, "is_reserved": 0, "bike_id": "7e362e2521affb8c239f1aff9b42cb99", "lat": 38.88487516666667, "type": "electric_scooter"}, {"fusion_lat": 0.0, "fusion_lon": 0.0, "rental_uris": {"android": "https://dc.lft.to/lastmile_qr_scan", "ios": "https://dc.lft.to/lastmile_qr_scan"}, "lon": -77.04672016666666, "name": "779993d600ced7b47926874a20c2d132", "is_disabled": 0, "is_reserved": 0, "bike_id": "779993d600ced7b47926874a20c2d132", "lat": 38.898974, "type": "electric_scooter"}, {"fusion_lat": 0.0, "fusion_lon": 0.0, "rental_uris": {"android": "https://dc.lft.to/lastmile_qr_scan", "ios": "https://dc.lft.to/lastmile_qr_scan"}, "lon": -77.04245183333333, "name": "57c93b27fc39ebe37e43c741418c6b02", "is_disabled": 0, "is_reserved": 0, "bike_id": "57c93b27fc39ebe37e43c741418c6b02", "lat": 38.922739166666666, "type": "electric_scooter"}, {"fusion_lat": 0.0, "fusion_lon": 0.0, "rental_uris": {"android": "https://dc.lft.to/lastmile_qr_scan", "ios": "https://dc.lft.to/lastmile_qr_scan"}, "lon": -77.0504405, "name": "091f4d2bd4cabffd266dcc22ee34afb0", "is_disabled": 0, "is_reserved": 0, "bike_id": "091f4d2bd4cabffd266dcc22ee34afb0", "lat": 38.923601833333336, "type": "electric_scooter"}, {"fusion_lat": 0.0, "fusion_lon": 0.0, "rental_uris": {"android": "https://dc.lft.to/lastmile_qr_scan", "ios": "https://dc.lft.to/lastmile_qr_scan"}, "lon": -77.07164933333334, "name": "c5467320d05549faa19c1f315a08e72f", "is_disabled": 0, "is_reserved": 0, "bike_id": "c5467320d05549faa19c1f315a08e72f", "lat": 38.90773883333333, "type": "electric_scooter"}, {"fusion_lat": 0.0, "fusion_lon": 0.0, "rental_uris": {"android": "https://dc.lft.to/lastmile_qr_scan", "ios": "https://dc.lft.to/lastmile_qr_scan"}, "lon": -76.96525133333333, "name": "195ac5c864c316e756b69ab434084f95", "is_disabled": 0, "is_reserved": 0, "bike_id": "195ac5c864c316e756b69ab434084f95", "lat": 38.87625033333333, "type": "electric_scooter"}, {"fusion_lat": 0.0, "fusion_lon": 0.0, "rental_uris": {"android": "https://dc.lft.to/lastmile_qr_scan", "ios": "https://dc.lft.to/lastmile_qr_scan"}, "lon": -77.0313615, "name": "7cdc4d04190776778db5b9f73090ef7d", "is_disabled": 0, "is_reserved": 0, "bike_id": "7cdc4d04190776778db5b9f73090ef7d", "lat": 38.91815533333333, "type": "electric_scooter"}, {"fusion_lat": 0.0, "fusion_lon": 0.0, "rental_uris": {"android": "https://dc.lft.to/lastmile_qr_scan", "ios": "https://dc.lft.to/lastmile_qr_scan"}, "lon": -76.98608933333334, "name": "bfb254f43049278d5edad805a615d69a", "is_disabled": 0, "is_reserved": 0, "bike_id": "bfb254f43049278d5edad805a615d69a", "lat": 38.88289233333333, "type": "electric_scooter"}, {"fusion_lat": 0.0, "fusion_lon": 0.0, "rental_uris": {"android": "https://dc.lft.to/lastmile_qr_scan", "ios": "https://dc.lft.to/lastmile_qr_scan"}, "lon": -76.94642816666666, "name": "48bf1b7d93a4a7491ef82b3f748c0607", "is_disabled": 0, "is_reserved": 0, "bike_id": "48bf1b7d93a4a7491ef82b3f748c0607", "lat": 38.89862816666667, "type": "electric_scooter"}, {"fusion_lat": 0.0, "fusion_lon": 0.0, "rental_uris": {"android": "https://dc.lft.to/lastmile_qr_scan", "ios": "https://dc.lft.to/lastmile_qr_scan"}, "lon": -76.98765666666667, "name": "9cc875928db2e7117e16f113c59eed73", "is_disabled": 0, "is_reserved": 0, "bike_id": "9cc875928db2e7117e16f113c59eed73", "lat": 38.90027883333333, "type": "electric_scooter"}, {"fusion_lat": 0.0, "fusion_lon": 0.0, "rental_uris": {"android": "https://dc.lft.to/lastmile_qr_scan", "ios": "https://dc.lft.to/lastmile_qr_scan"}, "lon": -77.043825, "name": "d475521b078ac5afb5a77f674e466ecd", "is_disabled": 0, "is_reserved": 0, "bike_id": "d475521b078ac5afb5a77f674e466ecd", "lat": 38.90107, "type": "electric_bike"}, {"fusion_lat": 0.0, "fusion_lon": 0.0, "rental_uris": {"android": "https://dc.lft.to/lastmile_qr_scan", "ios": "https://dc.lft.to/lastmile_qr_scan"}, "lon": -77.02090333333334, "name": "f7c5d48807e9bd838c709834b58d034e", "is_disabled": 0, "is_reserved": 0, "bike_id": "f7c5d48807e9bd838c709834b58d034e", "lat": 38.881809833333335, "type": "electric_scooter"}, {"fusion_lat": 0.0, "fusion_lon": 0.0, "rental_uris": {"android": "https://dc.lft.to/lastmile_qr_scan", "ios": "https://dc.lft.to/lastmile_qr_scan"}, "lon": -77.04022383333333, "name": "12967da71e239d5bddffdbd6636ebbf5", "is_disabled": 0, "is_reserved": 0, "bike_id": "12967da71e239d5bddffdbd6636ebbf5", "lat": 38.921657, "type": "electric_scooter"}, {"fusion_lat": 0.0, "fusion_lon": 0.0, "rental_uris": {"android": "https://dc.lft.to/lastmile_qr_scan", "ios": "https://dc.lft.to/lastmile_qr_scan"}, "lon": -76.98598633333333, "name": "f5bd00aa1aaa2aac0970ae87612886fc", "is_disabled": 0, "is_reserved": 0, "bike_id": "f5bd00aa1aaa2aac0970ae87612886fc", "lat": 38.9001015, "type": "electric_scooter"}, {"fusion_lat": 0.0, "fusion_lon": 0.0, "rental_uris": {"android": "https://dc.lft.to/lastmile_qr_scan", "ios": "https://dc.lft.to/lastmile_qr_scan"}, "lon": -77.01350516666666, "name": "4b3478434bd7dd49243e85897d010017", "is_disabled": 0, "is_reserved": 0, "bike_id": "4b3478434bd7dd49243e85897d010017", "lat": 38.89218833333334, "type": "electric_scooter"}, {"fusion_lat": 0.0, "fusion_lon": 0.0, "rental_uris": {"android": "https://dc.lft.to/lastmile_qr_scan", "ios": "https://dc.lft.to/lastmile_qr_scan"}, "lon": -76.97548416666666, "name": "d7a7fb2fe5ef26b35ab427e1153bc4a3", "is_disabled": 0, "is_reserved": 0, "bike_id": "d7a7fb2fe5ef26b35ab427e1153bc4a3", "lat": 38.9032165, "type": "electric_scooter"}, {"fusion_lat": 0.0, "fusion_lon": 0.0, "rental_uris": {"android": "https://dc.lft.to/lastmile_qr_scan", "ios": "https://dc.lft.to/lastmile_qr_scan"}, "lon": -76.98563883333334, "name": "4c1cd22fa491c9e483d7e86172a59eb8", "is_disabled": 0, "is_reserved": 0, "bike_id": "4c1cd22fa491c9e483d7e86172a59eb8", "lat": 38.86678583333333, "type": "electric_scooter"}, {"fusion_lat": 0.0, "fusion_lon": 0.0, "rental_uris": {"android": "https://dc.lft.to/lastmile_qr_scan", "ios": "https://dc.lft.to/lastmile_qr_scan"}, "lon": -77.038376, "name": "94388cb4bd6688b17af28cd668928c82", "is_disabled": 0, "is_reserved": 0, "bike_id": "94388cb4bd6688b17af28cd668928c82", "lat": 38.903129666666665, "type": "electric_scooter"}, {"fusion_lat": 0.0, "fusion_lon": 0.0, "rental_uris": {"android": "https://dc.lft.to/lastmile_qr_scan", "ios": "https://dc.lft.to/lastmile_qr_scan"}, "lon": -77.04182633333333, "name": "ec3433f36f82800899943e7233bc5a19", "is_disabled": 0, "is_reserved": 0, "bike_id": "ec3433f36f82800899943e7233bc5a19", "lat": 38.9055975, "type": "electric_scooter"}, {"fusion_lat": 0.0, "fusion_lon": 0.0, "rental_uris": {"android": "https://dc.lft.to/lastmile_qr_scan", "ios": "https://dc.lft.to/lastmile_qr_scan"}, "lon": -77.03204483333333, "name": "f64617890d141bf6766e9838643a1196", "is_disabled": 0, "is_reserved": 0, "bike_id": "f64617890d141bf6766e9838643a1196", "lat": 38.91840933333334, "type": "electric_scooter"}, {"fusion_lat": 0.0, "fusion_lon": 0.0, "rental_uris": {"android": "https://dc.lft.to/lastmile_qr_scan", "ios": "https://dc.lft.to/lastmile_qr_scan"}, "lon": -76.990626, "name": "0242f03337bf10f1da09261e0aab7564", "is_disabled": 0, "is_reserved": 0, "bike_id": "0242f03337bf10f1da09261e0aab7564", "lat": 38.8637055, "type": "electric_scooter"}, {"fusion_lat": 0.0, "fusion_lon": 0.0, "rental_uris": {"android": "https://dc.lft.to/lastmile_qr_scan", "ios": "https://dc.lft.to/lastmile_qr_scan"}, "lon": -77.002106, "name": "0ee21609199d28dee26cc2a1f36ebb33", "is_disabled": 0, "is_reserved": 0, "bike_id": "0ee21609199d28dee26cc2a1f36ebb33", "lat": 38.904719166666666, "type": "electric_scooter"}, {"fusion_lat": 0.0, "fusion_lon": 0.0, "rental_uris": {"android": "https://dc.lft.to/lastmile_qr_scan", "ios": "https://dc.lft.to/lastmile_qr_scan"}, "lon": -77.040006, "name": "5cf9f0e1f9b037e857d21c79fb18c753", "is_disabled": 0, "is_reserved": 0, "bike_id": "5cf9f0e1f9b037e857d21c79fb18c753", "lat": 38.934321, "type": "electric_scooter"}, {"fusion_lat": 0.0, "fusion_lon": 0.0, "rental_uris": {"android": "https://dc.lft.to/lastmile_qr_scan", "ios": "https://dc.lft.to/lastmile_qr_scan"}, "lon": -77.02460516666666, "name": "7a64fb737b6e683f36b20375ad6853a1", "is_disabled": 0, "is_reserved": 0, "bike_id": "7a64fb737b6e683f36b20375ad6853a1", "lat": 38.91711316666667, "type": "electric_scooter"}, {"fusion_lat": 0.0, "fusion_lon": 0.0, "rental_uris": {"android": "https://dc.lft.to/lastmile_qr_scan", "ios": "https://dc.lft.to/lastmile_qr_scan"}, "lon": -77.03834166666667, "name": "75d3a6252db5eccf4442c495602f92da", "is_disabled": 0, "is_reserved": 0, "bike_id": "75d3a6252db5eccf4442c495602f92da", "lat": 38.91067833333334, "type": "electric_scooter"}, {"fusion_lat": 0.0, "fusion_lon": 0.0, "rental_uris": {"android": "https://dc.lft.to/lastmile_qr_scan", "ios": "https://dc.lft.to/lastmile_qr_scan"}, "lon": -76.987169, "name": "824de8713428526f3af3f03cdfa3ff6b", "is_disabled": 0, "is_reserved": 0, "bike_id": "824de8713428526f3af3f03cdfa3ff6b", "lat": 38.866265166666665, "type": "electric_scooter"}, {"fusion_lat": 0.0, "fusion_lon": 0.0, "rental_uris": {"android": "https://dc.lft.to/lastmile_qr_scan", "ios": "https://dc.lft.to/lastmile_qr_scan"}, "lon": -77.02127133333333, "name": "b04a3659b60f3fae2b17a9741ac885f8", "is_disabled": 0, "is_reserved": 0, "bike_id": "b04a3659b60f3fae2b17a9741ac885f8", "lat": 38.92323616666667, "type": "electric_scooter"}, {"fusion_lat": 0.0, "fusion_lon": 0.0, "rental_uris": {"android": "https://dc.lft.to/lastmile_qr_scan", "ios": "https://dc.lft.to/lastmile_qr_scan"}, "lon": -77.02216766666666, "name": "834ed85d57a65c0cbad5f73b15863188", "is_disabled": 0, "is_reserved": 0, "bike_id": "834ed85d57a65c0cbad5f73b15863188", "lat": 38.92469033333333, "type": "electric_scooter"}, {"fusion_lat": 0.0, "fusion_lon": 0.0, "rental_uris": {"android": "https://dc.lft.to/lastmile_qr_scan", "ios": "https://dc.lft.to/lastmile_qr_scan"}, "lon": -77.03181316666667, "name": "7432e6d4161ba8c39786b654d0645e21", "is_disabled": 0, "is_reserved": 0, "bike_id": "7432e6d4161ba8c39786b654d0645e21", "lat": 38.89617666666667, "type": "electric_scooter"}, {"fusion_lat": 0.0, "fusion_lon": 0.0, "rental_uris": {"android": "https://dc.lft.to/lastmile_qr_scan", "ios": "https://dc.lft.to/lastmile_qr_scan"}, "lon": -77.02975533333333, "name": "63332d16851505c28bebd09057480e46", "is_disabled": 0, "is_reserved": 0, "bike_id": "63332d16851505c28bebd09057480e46", "lat": 38.92227483333333, "type": "electric_scooter"}, {"fusion_lat": 0.0, "fusion_lon": 0.0, "rental_uris": {"android": "https://dc.lft.to/lastmile_qr_scan", "ios": "https://dc.lft.to/lastmile_qr_scan"}, "lon": -76.94960816666666, "name": "49bff689e6d3839c4b5c85141864b916", "is_disabled": 0, "is_reserved": 0, "bike_id": "49bff689e6d3839c4b5c85141864b916", "lat": 38.89464266666667, "type": "electric_scooter"}, {"fusion_lat": 0.0, "fusion_lon": 0.0, "rental_uris": {"android": "https://dc.lft.to/lastmile_qr_scan", "ios": "https://dc.lft.to/lastmile_qr_scan"}, "lon": -77.04839916666667, "name": "3ae99801fe13eec89fa221e474c3083b", "is_disabled": 0, "is_reserved": 0, "bike_id": "3ae99801fe13eec89fa221e474c3083b", "lat": 38.911732, "type": "electric_scooter"}, {"fusion_lat": 0.0, "fusion_lon": 0.0, "rental_uris": {"android": "https://dc.lft.to/lastmile_qr_scan", "ios": "https://dc.lft.to/lastmile_qr_scan"}, "lon": -77.03209516666666, "name": "14cad08537f31246e185b1726a7fae23", "is_disabled": 0, "is_reserved": 0, "bike_id": "14cad08537f31246e185b1726a7fae23", "lat": 38.89233566666667, "type": "electric_scooter"}, {"fusion_lat": 0.0, "fusion_lon": 0.0, "rental_uris": {"android": "https://dc.lft.to/lastmile_qr_scan", "ios": "https://dc.lft.to/lastmile_qr_scan"}, "lon": -77.03935866666667, "name": "bda298ea0e158c9dba2a78ea5645a0f5", "is_disabled": 0, "is_reserved": 0, "bike_id": "bda298ea0e158c9dba2a78ea5645a0f5", "lat": 38.90282716666667, "type": "electric_scooter"}, {"fusion_lat": 0.0, "fusion_lon": 0.0, "rental_uris": {"android": "https://dc.lft.to/lastmile_qr_scan", "ios": "https://dc.lft.to/lastmile_qr_scan"}, "lon": -76.99813833333333, "name": "eae06538a6b640bd750a64852801b380", "is_disabled": 0, "is_reserved": 0, "bike_id": "eae06538a6b640bd750a64852801b380", "lat": 38.81993166666667, "type": "electric_bike"}, {"fusion_lat": 0.0, "fusion_lon": 0.0, "rental_uris": {"android": "https://dc.lft.to/lastmile_qr_scan", "ios": "https://dc.lft.to/lastmile_qr_scan"}, "lon": -77.0054585, "name": "78f5874eb5e81ad616c17076e58fd27d", "is_disabled": 0, "is_reserved": 0, "bike_id": "78f5874eb5e81ad616c17076e58fd27d", "lat": 38.90255616666666, "type": "electric_scooter"}, {"fusion_lat": 0.0, "fusion_lon": 0.0, "rental_uris": {"android": "https://dc.lft.to/lastmile_qr_scan", "ios": "https://dc.lft.to/lastmile_qr_scan"}, "lon": -77.014552, "name": "06ac63a022fa11d05d52a143e5c5ec52", "is_disabled": 0, "is_reserved": 0, "bike_id": "06ac63a022fa11d05d52a143e5c5ec52", "lat": 38.91590333333333, "type": "electric_scooter"}, {"fusion_lat": 0.0, "fusion_lon": 0.0, "rental_uris": {"android": "https://dc.lft.to/lastmile_qr_scan", "ios": "https://dc.lft.to/lastmile_qr_scan"}, "lon": -77.03176216666667, "name": "5542d272adff9bace4376a6f9408d6be", "is_disabled": 0, "is_reserved": 0, "bike_id": "5542d272adff9bace4376a6f9408d6be", "lat": 38.91715333333333, "type": "electric_scooter"}, {"fusion_lat": 0.0, "fusion_lon": 0.0, "rental_uris": {"android": "https://dc.lft.to/lastmile_qr_scan", "ios": "https://dc.lft.to/lastmile_qr_scan"}, "lon": -77.02825316666667, "name": "86a47cd630ca07f739a3679438be2293", "is_disabled": 0, "is_reserved": 0, "bike_id": "86a47cd630ca07f739a3679438be2293", "lat": 38.9222155, "type": "electric_bike"}, {"fusion_lat": 0.0, "fusion_lon": 0.0, "rental_uris": {"android": "https://dc.lft.to/lastmile_qr_scan", "ios": "https://dc.lft.to/lastmile_qr_scan"}, "lon": -77.03177866666667, "name": "8499cea8c8417e69bc5796af824c8d64", "is_disabled": 0, "is_reserved": 0, "bike_id": "8499cea8c8417e69bc5796af824c8d64", "lat": 38.918553333333335, "type": "electric_scooter"}, {"fusion_lat": 0.0, "fusion_lon": 0.0, "rental_uris": {"android": "https://dc.lft.to/lastmile_qr_scan", "ios": "https://dc.lft.to/lastmile_qr_scan"}, "lon": -77.03841416666667, "name": "fcc1370ec2815e4421996947ca2294f6", "is_disabled": 0, "is_reserved": 0, "bike_id": "fcc1370ec2815e4421996947ca2294f6", "lat": 38.941888666666664, "type": "electric_scooter"}, {"fusion_lat": 0.0, "fusion_lon": 0.0, "rental_uris": {"android": "https://dc.lft.to/lastmile_qr_scan", "ios": "https://dc.lft.to/lastmile_qr_scan"}, "lon": -77.02975633333334, "name": "f4006b6e637fe93671fc235dd2b0b6eb", "is_disabled": 0, "is_reserved": 0, "bike_id": "f4006b6e637fe93671fc235dd2b0b6eb", "lat": 38.89036016666667, "type": "electric_scooter"}, {"fusion_lat": 0.0, "fusion_lon": 0.0, "rental_uris": {"android": "https://dc.lft.to/lastmile_qr_scan", "ios": "https://dc.lft.to/lastmile_qr_scan"}, "lon": -77.04707216666667, "name": "f434636abf513d97e074dc3c568e4d5d", "is_disabled": 0, "is_reserved": 0, "bike_id": "f434636abf513d97e074dc3c568e4d5d", "lat": 38.92181183333334, "type": "electric_scooter"}, {"fusion_lat": 0.0, "fusion_lon": 0.0, "rental_uris": {"android": "https://dc.lft.to/lastmile_qr_scan", "ios": "https://dc.lft.to/lastmile_qr_scan"}, "lon": -77.03072283333333, "name": "d6c406ab6af2452bd1967931978787bc", "is_disabled": 0, "is_reserved": 0, "bike_id": "d6c406ab6af2452bd1967931978787bc", "lat": 38.90272616666667, "type": "electric_scooter"}, {"fusion_lat": 0.0, "fusion_lon": 0.0, "rental_uris": {"android": "https://dc.lft.to/lastmile_qr_scan", "ios": "https://dc.lft.to/lastmile_qr_scan"}, "lon": -77.02221583333333, "name": "bab38eb6d54d87ad5ec319ada304991f", "is_disabled": 0, "is_reserved": 0, "bike_id": "bab38eb6d54d87ad5ec319ada304991f", "lat": 38.892178, "type": "electric_scooter"}, {"fusion_lat": 0.0, "fusion_lon": 0.0, "rental_uris": {"android": "https://dc.lft.to/lastmile_qr_scan", "ios": "https://dc.lft.to/lastmile_qr_scan"}, "lon": -77.02848583333333, "name": "3dc80c1217c53cc84f47755f42455a5c", "is_disabled": 0, "is_reserved": 0, "bike_id": "3dc80c1217c53cc84f47755f42455a5c", "lat": 38.89345133333333, "type": "electric_scooter"}, {"fusion_lat": 0.0, "fusion_lon": 0.0, "rental_uris": {"android": "https://dc.lft.to/lastmile_qr_scan", "ios": "https://dc.lft.to/lastmile_qr_scan"}, "lon": -77.00592766666666, "name": "0c819de5b617fb0f10fd7a0c44e6c448", "is_disabled": 0, "is_reserved": 0, "bike_id": "0c819de5b617fb0f10fd7a0c44e6c448", "lat": 38.87639433333333, "type": "electric_scooter"}, {"fusion_lat": 0.0, "fusion_lon": 0.0, "rental_uris": {"android": "https://dc.lft.to/lastmile_qr_scan", "ios": "https://dc.lft.to/lastmile_qr_scan"}, "lon": -77.05910066666667, "name": "8929b009b8127032a7d99e1070a2674c", "is_disabled": 0, "is_reserved": 0, "bike_id": "8929b009b8127032a7d99e1070a2674c", "lat": 38.902731833333334, "type": "electric_scooter"}, {"fusion_lat": 0.0, "fusion_lon": 0.0, "rental_uris": {"android": "https://dc.lft.to/lastmile_qr_scan", "ios": "https://dc.lft.to/lastmile_qr_scan"}, "lon": -77.04467866666667, "name": "1b70960b7e2a3a02c095963556dbcfbd", "is_disabled": 0, "is_reserved": 0, "bike_id": "1b70960b7e2a3a02c095963556dbcfbd", "lat": 38.91594716666667, "type": "electric_scooter"}, {"fusion_lat": 0.0, "fusion_lon": 0.0, "rental_uris": {"android": "https://dc.lft.to/lastmile_qr_scan", "ios": "https://dc.lft.to/lastmile_qr_scan"}, "lon": -77.08919516666667, "name": "e1c384c2e082c3001e181e0603ce077f", "is_disabled": 0, "is_reserved": 0, "bike_id": "e1c384c2e082c3001e181e0603ce077f", "lat": 38.863348333333334, "type": "electric_bike"}, {"fusion_lat": 0.0, "fusion_lon": 0.0, "rental_uris": {"android": "https://dc.lft.to/lastmile_qr_scan", "ios": "https://dc.lft.to/lastmile_qr_scan"}, "lon": -77.08655466666667, "name": "42399205670eb0df7c291cfa407ba4b7", "is_disabled": 0, "is_reserved": 0, "bike_id": "42399205670eb0df7c291cfa407ba4b7", "lat": 38.862445, "type": "electric_bike"}, {"fusion_lat": 0.0, "fusion_lon": 0.0, "rental_uris": {"android": "https://dc.lft.to/lastmile_qr_scan", "ios": "https://dc.lft.to/lastmile_qr_scan"}, "lon": -77.00864583333333, "name": "6790ac059c55ddd03a2e5366016a1f58", "is_disabled": 0, "is_reserved": 0, "bike_id": "6790ac059c55ddd03a2e5366016a1f58", "lat": 38.964593, "type": "electric_bike"}, {"fusion_lat": 0.0, "fusion_lon": 0.0, "rental_uris": {"android": "https://dc.lft.to/lastmile_qr_scan", "ios": "https://dc.lft.to/lastmile_qr_scan"}, "lon": -77.02416333333333, "name": "ac2500d746e5e7205340aaf911572a62", "is_disabled": 0, "is_reserved": 0, "bike_id": "ac2500d746e5e7205340aaf911572a62", "lat": 38.896884, "type": "electric_scooter"}, {"fusion_lat": 0.0, "fusion_lon": 0.0, "rental_uris": {"android": "https://dc.lft.to/lastmile_qr_scan", "ios": "https://dc.lft.to/lastmile_qr_scan"}, "lon": -76.95750283333334, "name": "1aba7c3c925f436e61a33d0a560b45e2", "is_disabled": 0, "is_reserved": 0, "bike_id": "1aba7c3c925f436e61a33d0a560b45e2", "lat": 38.88424916666666, "type": "electric_scooter"}, {"fusion_lat": 0.0, "fusion_lon": 0.0, "rental_uris": {"android": "https://dc.lft.to/lastmile_qr_scan", "ios": "https://dc.lft.to/lastmile_qr_scan"}, "lon": -77.03644016666667, "name": "d7f2beadd9dd94f130b9e7a114893233", "is_disabled": 0, "is_reserved": 0, "bike_id": "d7f2beadd9dd94f130b9e7a114893233", "lat": 38.91729766666667, "type": "electric_scooter"}, {"fusion_lat": 0.0, "fusion_lon": 0.0, "rental_uris": {"android": "https://dc.lft.to/lastmile_qr_scan", "ios": "https://dc.lft.to/lastmile_qr_scan"}, "lon": -76.9979125, "name": "7eb7d0bd51afc9617b3ae841ce0c2f4a", "is_disabled": 0, "is_reserved": 0, "bike_id": "7eb7d0bd51afc9617b3ae841ce0c2f4a", "lat": 38.950866833333336, "type": "electric_bike"}, {"fusion_lat": 0.0, "fusion_lon": 0.0, "rental_uris": {"android": "https://dc.lft.to/lastmile_qr_scan", "ios": "https://dc.lft.to/lastmile_qr_scan"}, "lon": -77.04022333333333, "name": "b866f5730aef296eb630af660c5aefee", "is_disabled": 0, "is_reserved": 0, "bike_id": "b866f5730aef296eb630af660c5aefee", "lat": 38.924492666666666, "type": "electric_scooter"}, {"fusion_lat": 0.0, "fusion_lon": 0.0, "rental_uris": {"android": "https://dc.lft.to/lastmile_qr_scan", "ios": "https://dc.lft.to/lastmile_qr_scan"}, "lon": -77.04386916666667, "name": "882c89d42a59c3a407256c7ebafaf020", "is_disabled": 0, "is_reserved": 0, "bike_id": "882c89d42a59c3a407256c7ebafaf020", "lat": 38.92131366666667, "type": "electric_scooter"}, {"fusion_lat": 0.0, "fusion_lon": 0.0, "rental_uris": {"android": "https://dc.lft.to/lastmile_qr_scan", "ios": "https://dc.lft.to/lastmile_qr_scan"}, "lon": -76.99067416666666, "name": "7180011d1e785f2e04fac618514ab53d", "is_disabled": 0, "is_reserved": 0, "bike_id": "7180011d1e785f2e04fac618514ab53d", "lat": 38.898087, "type": "electric_bike"}, {"fusion_lat": 0.0, "fusion_lon": 0.0, "rental_uris": {"android": "https://dc.lft.to/lastmile_qr_scan", "ios": "https://dc.lft.to/lastmile_qr_scan"}, "lon": -77.04142116666667, "name": "5068e8974577105cc65ccc672fb1f559", "is_disabled": 0, "is_reserved": 0, "bike_id": "5068e8974577105cc65ccc672fb1f559", "lat": 38.91974916666667, "type": "electric_scooter"}, {"fusion_lat": 0.0, "fusion_lon": 0.0, "rental_uris": {"android": "https://dc.lft.to/lastmile_qr_scan", "ios": "https://dc.lft.to/lastmile_qr_scan"}, "lon": -76.9465175, "name": "cc428e41a08a4db3c09cc0c2426df1a6", "is_disabled": 0, "is_reserved": 0, "bike_id": "cc428e41a08a4db3c09cc0c2426df1a6", "lat": 38.898261166666664, "type": "electric_scooter"}, {"fusion_lat": 0.0, "fusion_lon": 0.0, "rental_uris": {"android": "https://dc.lft.to/lastmile_qr_scan", "ios": "https://dc.lft.to/lastmile_qr_scan"}, "lon": -77.02978116666667, "name": "a3be63d58b9aff3af46d9ea2a998a37f", "is_disabled": 0, "is_reserved": 0, "bike_id": "a3be63d58b9aff3af46d9ea2a998a37f", "lat": 38.922647166666664, "type": "electric_scooter"}, {"fusion_lat": 0.0, "fusion_lon": 0.0, "rental_uris": {"android": "https://dc.lft.to/lastmile_qr_scan", "ios": "https://dc.lft.to/lastmile_qr_scan"}, "lon": -77.0434085, "name": "ebc8c05cc4e2d35999a1c4c77dd39622", "is_disabled": 0, "is_reserved": 0, "bike_id": "ebc8c05cc4e2d35999a1c4c77dd39622", "lat": 38.9003055, "type": "electric_scooter"}, {"fusion_lat": 0.0, "fusion_lon": 0.0, "rental_uris": {"android": "https://dc.lft.to/lastmile_qr_scan", "ios": "https://dc.lft.to/lastmile_qr_scan"}, "lon": -77.02123183333333, "name": "f6d9f504a1eae1c223db490a739fd1ee", "is_disabled": 0, "is_reserved": 0, "bike_id": "f6d9f504a1eae1c223db490a739fd1ee", "lat": 38.922381666666666, "type": "electric_scooter"}, {"fusion_lat": 0.0, "fusion_lon": 0.0, "rental_uris": {"android": "https://dc.lft.to/lastmile_qr_scan", "ios": "https://dc.lft.to/lastmile_qr_scan"}, "lon": -77.00582466666667, "name": "7fd96f9cc5be0bc54aa0efeffad73110", "is_disabled": 0, "is_reserved": 0, "bike_id": "7fd96f9cc5be0bc54aa0efeffad73110", "lat": 38.929352, "type": "electric_scooter"}, {"fusion_lat": 0.0, "fusion_lon": 0.0, "rental_uris": {"android": "https://dc.lft.to/lastmile_qr_scan", "ios": "https://dc.lft.to/lastmile_qr_scan"}, "lon": -77.00195216666667, "name": "8668eb45b17adfdee29074a333a486a7", "is_disabled": 0, "is_reserved": 0, "bike_id": "8668eb45b17adfdee29074a333a486a7", "lat": 38.8768015, "type": "electric_scooter"}, {"fusion_lat": 0.0, "fusion_lon": 0.0, "rental_uris": {"android": "https://dc.lft.to/lastmile_qr_scan", "ios": "https://dc.lft.to/lastmile_qr_scan"}, "lon": -76.97053866666667, "name": "16ff2b54870a97b51d80e23c0d9baf1a", "is_disabled": 0, "is_reserved": 0, "bike_id": "16ff2b54870a97b51d80e23c0d9baf1a", "lat": 38.98457233333333, "type": "electric_bike"}, {"fusion_lat": 0.0, "fusion_lon": 0.0, "rental_uris": {"android": "https://dc.lft.to/lastmile_qr_scan", "ios": "https://dc.lft.to/lastmile_qr_scan"}, "lon": -77.03993616666666, "name": "5f96cffaef8db5c54b1a8953150ee277", "is_disabled": 0, "is_reserved": 0, "bike_id": "5f96cffaef8db5c54b1a8953150ee277", "lat": 38.92437733333333, "type": "electric_scooter"}, {"fusion_lat": 0.0, "fusion_lon": 0.0, "rental_uris": {"android": "https://dc.lft.to/lastmile_qr_scan", "ios": "https://dc.lft.to/lastmile_qr_scan"}, "lon": -76.98623266666667, "name": "667ad99aa499cb16ac1de500cb613131", "is_disabled": 0, "is_reserved": 0, "bike_id": "667ad99aa499cb16ac1de500cb613131", "lat": 38.93283733333333, "type": "electric_scooter"}, {"fusion_lat": 0.0, "fusion_lon": 0.0, "rental_uris": {"android": "https://dc.lft.to/lastmile_qr_scan", "ios": "https://dc.lft.to/lastmile_qr_scan"}, "lon": -77.04351083333333, "name": "7667a18b47d4c4de4a25d00630057c90", "is_disabled": 0, "is_reserved": 0, "bike_id": "7667a18b47d4c4de4a25d00630057c90", "lat": 38.9041785, "type": "electric_scooter"}, {"fusion_lat": 0.0, "fusion_lon": 0.0, "rental_uris": {"android": "https://dc.lft.to/lastmile_qr_scan", "ios": "https://dc.lft.to/lastmile_qr_scan"}, "lon": -77.0123195, "name": "b4c0569abd215e2e4e2a42dba820e266", "is_disabled": 0, "is_reserved": 0, "bike_id": "b4c0569abd215e2e4e2a42dba820e266", "lat": 38.8720665, "type": "electric_scooter"}, {"fusion_lat": 0.0, "fusion_lon": 0.0, "rental_uris": {"android": "https://dc.lft.to/lastmile_qr_scan", "ios": "https://dc.lft.to/lastmile_qr_scan"}, "lon": -77.00657633333333, "name": "4819a49b8e634260df9ed753041c52be", "is_disabled": 0, "is_reserved": 0, "bike_id": "4819a49b8e634260df9ed753041c52be", "lat": 38.911896666666664, "type": "electric_scooter"}, {"fusion_lat": 0.0, "fusion_lon": 0.0, "rental_uris": {"android": "https://dc.lft.to/lastmile_qr_scan", "ios": "https://dc.lft.to/lastmile_qr_scan"}, "lon": -77.03663433333334, "name": "df277085de175a4330e0da44d9e8c7e1", "is_disabled": 0, "is_reserved": 0, "bike_id": "df277085de175a4330e0da44d9e8c7e1", "lat": 38.91001516666667, "type": "electric_scooter"}, {"fusion_lat": 0.0, "fusion_lon": 0.0, "rental_uris": {"android": "https://dc.lft.to/lastmile_qr_scan", "ios": "https://dc.lft.to/lastmile_qr_scan"}, "lon": -77.03895166666666, "name": "5adfbb12e40659941de51f7c98aa0227", "is_disabled": 0, "is_reserved": 0, "bike_id": "5adfbb12e40659941de51f7c98aa0227", "lat": 38.922557833333336, "type": "electric_scooter"}, {"fusion_lat": 0.0, "fusion_lon": 0.0, "rental_uris": {"android": "https://dc.lft.to/lastmile_qr_scan", "ios": "https://dc.lft.to/lastmile_qr_scan"}, "lon": -77.04342616666666, "name": "51ccc6f73c3f655942abdda4c1f611dc", "is_disabled": 0, "is_reserved": 0, "bike_id": "51ccc6f73c3f655942abdda4c1f611dc", "lat": 38.903567, "type": "electric_scooter"}, {"fusion_lat": 0.0, "fusion_lon": 0.0, "rental_uris": {"android": "https://dc.lft.to/lastmile_qr_scan", "ios": "https://dc.lft.to/lastmile_qr_scan"}, "lon": -76.98337683333334, "name": "1db1dce160d2ea3280d2a9b875efb841", "is_disabled": 0, "is_reserved": 0, "bike_id": "1db1dce160d2ea3280d2a9b875efb841", "lat": 38.865664833333334, "type": "electric_scooter"}, {"fusion_lat": 0.0, "fusion_lon": 0.0, "rental_uris": {"android": "https://dc.lft.to/lastmile_qr_scan", "ios": "https://dc.lft.to/lastmile_qr_scan"}, "lon": -77.04699166666667, "name": "7705ba96fcae3690696ed647021b7dc6", "is_disabled": 0, "is_reserved": 0, "bike_id": "7705ba96fcae3690696ed647021b7dc6", "lat": 38.903759, "type": "electric_scooter"}, {"fusion_lat": 0.0, "fusion_lon": 0.0, "rental_uris": {"android": "https://dc.lft.to/lastmile_qr_scan", "ios": "https://dc.lft.to/lastmile_qr_scan"}, "lon": -77.020923, "name": "c3b7b9ec1d864c1949967a67bf90e93c", "is_disabled": 0, "is_reserved": 0, "bike_id": "c3b7b9ec1d864c1949967a67bf90e93c", "lat": 38.92190166666666, "type": "electric_scooter"}, {"fusion_lat": 0.0, "fusion_lon": 0.0, "rental_uris": {"android": "https://dc.lft.to/lastmile_qr_scan", "ios": "https://dc.lft.to/lastmile_qr_scan"}, "lon": -77.02170316666667, "name": "9df8f15b5d601d1a110c98ff3d6f278e", "is_disabled": 0, "is_reserved": 0, "bike_id": "9df8f15b5d601d1a110c98ff3d6f278e", "lat": 38.94290133333333, "type": "electric_scooter"}, {"fusion_lat": 0.0, "fusion_lon": 0.0, "rental_uris": {"android": "https://dc.lft.to/lastmile_qr_scan", "ios": "https://dc.lft.to/lastmile_qr_scan"}, "lon": -77.02236066666667, "name": "8229050d7af018e43a926f9e48ac341b", "is_disabled": 0, "is_reserved": 0, "bike_id": "8229050d7af018e43a926f9e48ac341b", "lat": 38.92463866666667, "type": "electric_scooter"}, {"fusion_lat": 0.0, "fusion_lon": 0.0, "rental_uris": {"android": "https://dc.lft.to/lastmile_qr_scan", "ios": "https://dc.lft.to/lastmile_qr_scan"}, "lon": -77.04556933333333, "name": "692bba69c56c66d42302553f302ab888", "is_disabled": 0, "is_reserved": 0, "bike_id": "692bba69c56c66d42302553f302ab888", "lat": 38.91767016666667, "type": "electric_scooter"}, {"fusion_lat": 0.0, "fusion_lon": 0.0, "rental_uris": {"android": "https://dc.lft.to/lastmile_qr_scan", "ios": "https://dc.lft.to/lastmile_qr_scan"}, "lon": -77.03852466666666, "name": "9a4b54cae5d6a0d64e4541dcb2bbdeeb", "is_disabled": 0, "is_reserved": 0, "bike_id": "9a4b54cae5d6a0d64e4541dcb2bbdeeb", "lat": 38.902725, "type": "electric_scooter"}, {"fusion_lat": 0.0, "fusion_lon": 0.0, "rental_uris": {"android": "https://dc.lft.to/lastmile_qr_scan", "ios": "https://dc.lft.to/lastmile_qr_scan"}, "lon": -77.12977783333334, "name": "f0c4913b49fe3a724f8df0116d47186f", "is_disabled": 0, "is_reserved": 0, "bike_id": "f0c4913b49fe3a724f8df0116d47186f", "lat": 38.79984, "type": "electric_bike"}, {"fusion_lat": 0.0, "fusion_lon": 0.0, "rental_uris": {"android": "https://dc.lft.to/lastmile_qr_scan", "ios": "https://dc.lft.to/lastmile_qr_scan"}, "lon": -77.038852, "name": "410569903b820aa19d06813eec5d83fa", "is_disabled": 0, "is_reserved": 0, "bike_id": "410569903b820aa19d06813eec5d83fa", "lat": 38.90619133333333, "type": "electric_scooter"}, {"fusion_lat": 0.0, "fusion_lon": 0.0, "rental_uris": {"android": "https://dc.lft.to/lastmile_qr_scan", "ios": "https://dc.lft.to/lastmile_qr_scan"}, "lon": -77.04121433333333, "name": "812289bd7cc6a652b8d99905dbba330a", "is_disabled": 0, "is_reserved": 0, "bike_id": "812289bd7cc6a652b8d99905dbba330a", "lat": 38.93357683333333, "type": "electric_scooter"}, {"fusion_lat": 0.0, "fusion_lon": 0.0, "rental_uris": {"android": "https://dc.lft.to/lastmile_qr_scan", "ios": "https://dc.lft.to/lastmile_qr_scan"}, "lon": -77.055177, "name": "62a60c2cca6390491f690d2d62a2ece2", "is_disabled": 0, "is_reserved": 0, "bike_id": "62a60c2cca6390491f690d2d62a2ece2", "lat": 38.944131166666665, "type": "electric_scooter"}, {"fusion_lat": 0.0, "fusion_lon": 0.0, "rental_uris": {"android": "https://dc.lft.to/lastmile_qr_scan", "ios": "https://dc.lft.to/lastmile_qr_scan"}, "lon": -77.00776983333333, "name": "dc838fb9306ce5b08f531852be78d6f8", "is_disabled": 0, "is_reserved": 0, "bike_id": "dc838fb9306ce5b08f531852be78d6f8", "lat": 38.917387833333336, "type": "electric_scooter"}, {"fusion_lat": 0.0, "fusion_lon": 0.0, "rental_uris": {"android": "https://dc.lft.to/lastmile_qr_scan", "ios": "https://dc.lft.to/lastmile_qr_scan"}, "lon": -77.00066083333333, "name": "4a3b664ecfbd4c6a0a6284eff739516a", "is_disabled": 0, "is_reserved": 0, "bike_id": "4a3b664ecfbd4c6a0a6284eff739516a", "lat": 38.875495, "type": "electric_scooter"}, {"fusion_lat": 0.0, "fusion_lon": 0.0, "rental_uris": {"android": "https://dc.lft.to/lastmile_qr_scan", "ios": "https://dc.lft.to/lastmile_qr_scan"}, "lon": -76.935535, "name": "7aa5f1b2e686ae5a6ab0c0b9dba1e288", "is_disabled": 0, "is_reserved": 0, "bike_id": "7aa5f1b2e686ae5a6ab0c0b9dba1e288", "lat": 38.88258283333333, "type": "electric_scooter"}, {"fusion_lat": 0.0, "fusion_lon": 0.0, "rental_uris": {"android": "https://dc.lft.to/lastmile_qr_scan", "ios": "https://dc.lft.to/lastmile_qr_scan"}, "lon": -76.98586, "name": "10fb06263ac12312935a1ea8adbc5778", "is_disabled": 0, "is_reserved": 0, "bike_id": "10fb06263ac12312935a1ea8adbc5778", "lat": 38.8839625, "type": "electric_scooter"}, {"fusion_lat": 0.0, "fusion_lon": 0.0, "rental_uris": {"android": "https://dc.lft.to/lastmile_qr_scan", "ios": "https://dc.lft.to/lastmile_qr_scan"}, "lon": -77.002315, "name": "f31398c55583d779c5da4ede0bca4b36", "is_disabled": 0, "is_reserved": 0, "bike_id": "f31398c55583d779c5da4ede0bca4b36", "lat": 38.89488216666667, "type": "electric_scooter"}, {"fusion_lat": 0.0, "fusion_lon": 0.0, "rental_uris": {"android": "https://dc.lft.to/lastmile_qr_scan", "ios": "https://dc.lft.to/lastmile_qr_scan"}, "lon": -77.02489683333333, "name": "f88469e27d0dac8d9c604577675810d5", "is_disabled": 0, "is_reserved": 0, "bike_id": "f88469e27d0dac8d9c604577675810d5", "lat": 38.94179966666667, "type": "electric_scooter"}, {"fusion_lat": 0.0, "fusion_lon": 0.0, "rental_uris": {"android": "https://dc.lft.to/lastmile_qr_scan", "ios": "https://dc.lft.to/lastmile_qr_scan"}, "lon": -76.9966005, "name": "ee5fcec56cb6453d5c437c0ad48031e0", "is_disabled": 0, "is_reserved": 0, "bike_id": "ee5fcec56cb6453d5c437c0ad48031e0", "lat": 38.86004666666667, "type": "electric_scooter"}, {"fusion_lat": 0.0, "fusion_lon": 0.0, "rental_uris": {"android": "https://dc.lft.to/lastmile_qr_scan", "ios": "https://dc.lft.to/lastmile_qr_scan"}, "lon": -77.00210816666667, "name": "20c0ed700ef2e07cf5d6cc67c4003404", "is_disabled": 0, "is_reserved": 0, "bike_id": "20c0ed700ef2e07cf5d6cc67c4003404", "lat": 38.89511783333333, "type": "electric_scooter"}, {"fusion_lat": 0.0, "fusion_lon": 0.0, "rental_uris": {"android": "https://dc.lft.to/lastmile_qr_scan", "ios": "https://dc.lft.to/lastmile_qr_scan"}, "lon": -77.00460183333334, "name": "52dee527719c7f3accde26b3ed8af8d9", "is_disabled": 0, "is_reserved": 0, "bike_id": "52dee527719c7f3accde26b3ed8af8d9", "lat": 38.876597333333336, "type": "electric_scooter"}, {"fusion_lat": 0.0, "fusion_lon": 0.0, "rental_uris": {"android": "https://dc.lft.to/lastmile_qr_scan", "ios": "https://dc.lft.to/lastmile_qr_scan"}, "lon": -77.03666233333334, "name": "f66a82ed15a724818a7d422752533978", "is_disabled": 0, "is_reserved": 0, "bike_id": "f66a82ed15a724818a7d422752533978", "lat": 38.908250833333334, "type": "electric_scooter"}, {"fusion_lat": 0.0, "fusion_lon": 0.0, "rental_uris": {"android": "https://dc.lft.to/lastmile_qr_scan", "ios": "https://dc.lft.to/lastmile_qr_scan"}, "lon": -77.0727885, "name": "6427923f63b5759fd20df8cc62a2855c", "is_disabled": 0, "is_reserved": 0, "bike_id": "6427923f63b5759fd20df8cc62a2855c", "lat": 38.934699333333334, "type": "electric_scooter"}, {"fusion_lat": 0.0, "fusion_lon": 0.0, "rental_uris": {"android": "https://dc.lft.to/lastmile_qr_scan", "ios": "https://dc.lft.to/lastmile_qr_scan"}, "lon": -77.007393, "name": "3b8a690ede2b2a7453febe5c840a43e4", "is_disabled": 0, "is_reserved": 0, "bike_id": "3b8a690ede2b2a7453febe5c840a43e4", "lat": 38.8983945, "type": "electric_scooter"}, {"fusion_lat": 0.0, "fusion_lon": 0.0, "rental_uris": {"android": "https://dc.lft.to/lastmile_qr_scan", "ios": "https://dc.lft.to/lastmile_qr_scan"}, "lon": -77.051089, "name": "10ab5b99455020d2ae759202d05d2cc0", "is_disabled": 0, "is_reserved": 0, "bike_id": "10ab5b99455020d2ae759202d05d2cc0", "lat": 38.9236025, "type": "electric_scooter"}, {"fusion_lat": 0.0, "fusion_lon": 0.0, "rental_uris": {"android": "https://dc.lft.to/lastmile_qr_scan", "ios": "https://dc.lft.to/lastmile_qr_scan"}, "lon": -77.01699383333333, "name": "b2896c531fcdf000fb48bf3519b337bb", "is_disabled": 0, "is_reserved": 0, "bike_id": "b2896c531fcdf000fb48bf3519b337bb", "lat": 38.90253966666667, "type": "electric_scooter"}, {"fusion_lat": 0.0, "fusion_lon": 0.0, "rental_uris": {"android": "https://dc.lft.to/lastmile_qr_scan", "ios": "https://dc.lft.to/lastmile_qr_scan"}, "lon": -76.994912, "name": "f5e2cf689dca1ee9603e84b60845a39e", "is_disabled": 0, "is_reserved": 0, "bike_id": "f5e2cf689dca1ee9603e84b60845a39e", "lat": 38.862384, "type": "electric_scooter"}, {"fusion_lat": 0.0, "fusion_lon": 0.0, "rental_uris": {"android": "https://dc.lft.to/lastmile_qr_scan", "ios": "https://dc.lft.to/lastmile_qr_scan"}, "lon": -77.03626366666667, "name": "4d24d79e3be2c8ea928c26b8fc04fc0e", "is_disabled": 0, "is_reserved": 0, "bike_id": "4d24d79e3be2c8ea928c26b8fc04fc0e", "lat": 38.901292, "type": "electric_scooter"}, {"fusion_lat": 0.0, "fusion_lon": 0.0, "rental_uris": {"android": "https://dc.lft.to/lastmile_qr_scan", "ios": "https://dc.lft.to/lastmile_qr_scan"}, "lon": -77.02605766666667, "name": "d25afc3d9f14403230b6e5d83208c68e", "is_disabled": 0, "is_reserved": 0, "bike_id": "d25afc3d9f14403230b6e5d83208c68e", "lat": 38.9284645, "type": "electric_scooter"}, {"fusion_lat": 0.0, "fusion_lon": 0.0, "rental_uris": {"android": "https://dc.lft.to/lastmile_qr_scan", "ios": "https://dc.lft.to/lastmile_qr_scan"}, "lon": -77.04304016666667, "name": "67f372613591d71da62f46350c3fc283", "is_disabled": 0, "is_reserved": 0, "bike_id": "67f372613591d71da62f46350c3fc283", "lat": 38.923279, "type": "electric_scooter"}, {"fusion_lat": 0.0, "fusion_lon": 0.0, "rental_uris": {"android": "https://dc.lft.to/lastmile_qr_scan", "ios": "https://dc.lft.to/lastmile_qr_scan"}, "lon": -76.9334005, "name": "f394e6e0b7124d07e60647ebab7f303c", "is_disabled": 0, "is_reserved": 0, "bike_id": "f394e6e0b7124d07e60647ebab7f303c", "lat": 38.90869266666667, "type": "electric_scooter"}, {"fusion_lat": 0.0, "fusion_lon": 0.0, "rental_uris": {"android": "https://dc.lft.to/lastmile_qr_scan", "ios": "https://dc.lft.to/lastmile_qr_scan"}, "lon": -77.02331216666667, "name": "dea692ca9a499873e7879b4aa0f8e118", "is_disabled": 0, "is_reserved": 0, "bike_id": "dea692ca9a499873e7879b4aa0f8e118", "lat": 38.908716166666665, "type": "electric_scooter"}, {"fusion_lat": 0.0, "fusion_lon": 0.0, "rental_uris": {"android": "https://dc.lft.to/lastmile_qr_scan", "ios": "https://dc.lft.to/lastmile_qr_scan"}, "lon": -77.04891416666666, "name": "b7cb81dd6c12e8772e2ff6e604b4bff1", "is_disabled": 0, "is_reserved": 0, "bike_id": "b7cb81dd6c12e8772e2ff6e604b4bff1", "lat": 38.897521, "type": "electric_scooter"}, {"fusion_lat": 0.0, "fusion_lon": 0.0, "rental_uris": {"android": "https://dc.lft.to/lastmile_qr_scan", "ios": "https://dc.lft.to/lastmile_qr_scan"}, "lon": -77.22889683333334, "name": "002589d5ba4dd7ae98530d7fc47c700e", "is_disabled": 0, "is_reserved": 0, "bike_id": "002589d5ba4dd7ae98530d7fc47c700e", "lat": 38.909532666666664, "type": "electric_bike"}, {"fusion_lat": 0.0, "fusion_lon": 0.0, "rental_uris": {"android": "https://dc.lft.to/lastmile_qr_scan", "ios": "https://dc.lft.to/lastmile_qr_scan"}, "lon": -77.03388983333333, "name": "169ea1a8f41f6a01a545293991f345b4", "is_disabled": 0, "is_reserved": 0, "bike_id": "169ea1a8f41f6a01a545293991f345b4", "lat": 38.923510666666665, "type": "electric_scooter"}, {"fusion_lat": 0.0, "fusion_lon": 0.0, "rental_uris": {"android": "https://dc.lft.to/lastmile_qr_scan", "ios": "https://dc.lft.to/lastmile_qr_scan"}, "lon": -77.0024955, "name": "84f6c7facd59d24f62a2d9e8af629f56", "is_disabled": 0, "is_reserved": 0, "bike_id": "84f6c7facd59d24f62a2d9e8af629f56", "lat": 38.88010083333333, "type": "electric_scooter"}, {"fusion_lat": 0.0, "fusion_lon": 0.0, "rental_uris": {"android": "https://dc.lft.to/lastmile_qr_scan", "ios": "https://dc.lft.to/lastmile_qr_scan"}, "lon": -77.03312183333334, "name": "403bc03f88232af73c7a2489cf2b3d1f", "is_disabled": 0, "is_reserved": 0, "bike_id": "403bc03f88232af73c7a2489cf2b3d1f", "lat": 38.8981705, "type": "electric_scooter"}, {"fusion_lat": 0.0, "fusion_lon": 0.0, "rental_uris": {"android": "https://dc.lft.to/lastmile_qr_scan", "ios": "https://dc.lft.to/lastmile_qr_scan"}, "lon": -77.029687, "name": "0498fd2e857851b44c3478491f189513", "is_disabled": 0, "is_reserved": 0, "bike_id": "0498fd2e857851b44c3478491f189513", "lat": 38.923343, "type": "electric_scooter"}, {"fusion_lat": 0.0, "fusion_lon": 0.0, "rental_uris": {"android": "https://dc.lft.to/lastmile_qr_scan", "ios": "https://dc.lft.to/lastmile_qr_scan"}, "lon": -77.04403533333333, "name": "ba9074715fc3c5b27a35d13d52e3ba9b", "is_disabled": 0, "is_reserved": 0, "bike_id": "ba9074715fc3c5b27a35d13d52e3ba9b", "lat": 38.934165, "type": "electric_scooter"}, {"fusion_lat": 0.0, "fusion_lon": 0.0, "rental_uris": {"android": "https://dc.lft.to/lastmile_qr_scan", "ios": "https://dc.lft.to/lastmile_qr_scan"}, "lon": -77.044877, "name": "c3ad4b1f3cea6e92f423fa736df9b65b", "is_disabled": 0, "is_reserved": 0, "bike_id": "c3ad4b1f3cea6e92f423fa736df9b65b", "lat": 38.90384316666667, "type": "electric_bike"}, {"fusion_lat": 0.0, "fusion_lon": 0.0, "rental_uris": {"android": "https://dc.lft.to/lastmile_qr_scan", "ios": "https://dc.lft.to/lastmile_qr_scan"}, "lon": -77.01984616666667, "name": "befb6c093979a3e4fa9c09ce8b2ce499", "is_disabled": 0, "is_reserved": 0, "bike_id": "befb6c093979a3e4fa9c09ce8b2ce499", "lat": 38.90501866666666, "type": "electric_scooter"}, {"fusion_lat": 0.0, "fusion_lon": 0.0, "rental_uris": {"android": "https://dc.lft.to/lastmile_qr_scan", "ios": "https://dc.lft.to/lastmile_qr_scan"}, "lon": -77.0204975, "name": "f9fed17cbe2062be91ed658e9d034285", "is_disabled": 0, "is_reserved": 0, "bike_id": "f9fed17cbe2062be91ed658e9d034285", "lat": 38.923260666666664, "type": "electric_scooter"}, {"fusion_lat": 0.0, "fusion_lon": 0.0, "rental_uris": {"android": "https://dc.lft.to/lastmile_qr_scan", "ios": "https://dc.lft.to/lastmile_qr_scan"}, "lon": -76.9995755, "name": "558357cc0e2888861211e6182417870a", "is_disabled": 0, "is_reserved": 0, "bike_id": "558357cc0e2888861211e6182417870a", "lat": 38.908641, "type": "electric_scooter"}, {"fusion_lat": 0.0, "fusion_lon": 0.0, "rental_uris": {"android": "https://dc.lft.to/lastmile_qr_scan", "ios": "https://dc.lft.to/lastmile_qr_scan"}, "lon": -77.03327733333333, "name": "6c70b5b5a8a10aed86e5579b6d1afeaa", "is_disabled": 0, "is_reserved": 0, "bike_id": "6c70b5b5a8a10aed86e5579b6d1afeaa", "lat": 38.93889333333333, "type": "electric_scooter"}, {"fusion_lat": 0.0, "fusion_lon": 0.0, "rental_uris": {"android": "https://dc.lft.to/lastmile_qr_scan", "ios": "https://dc.lft.to/lastmile_qr_scan"}, "lon": -77.03089933333334, "name": "773606ffa4085caa26e78002b4d230cc", "is_disabled": 0, "is_reserved": 0, "bike_id": "773606ffa4085caa26e78002b4d230cc", "lat": 38.92378433333333, "type": "electric_scooter"}, {"fusion_lat": 0.0, "fusion_lon": 0.0, "rental_uris": {"android": "https://dc.lft.to/lastmile_qr_scan", "ios": "https://dc.lft.to/lastmile_qr_scan"}, "lon": -77.032194, "name": "ac841892d3c1152dbfe2806c564e152a", "is_disabled": 0, "is_reserved": 0, "bike_id": "ac841892d3c1152dbfe2806c564e152a", "lat": 38.9140295, "type": "electric_scooter"}, {"fusion_lat": 0.0, "fusion_lon": 0.0, "rental_uris": {"android": "https://dc.lft.to/lastmile_qr_scan", "ios": "https://dc.lft.to/lastmile_qr_scan"}, "lon": -76.97823383333333, "name": "95e87f3857e3384d7c6dadfb4fd5f095", "is_disabled": 0, "is_reserved": 0, "bike_id": "95e87f3857e3384d7c6dadfb4fd5f095", "lat": 38.8984125, "type": "electric_scooter"}, {"fusion_lat": 0.0, "fusion_lon": 0.0, "rental_uris": {"android": "https://dc.lft.to/lastmile_qr_scan", "ios": "https://dc.lft.to/lastmile_qr_scan"}, "lon": -76.98881733333333, "name": "1bcdec21c2297051785ae9cd3e555881", "is_disabled": 0, "is_reserved": 0, "bike_id": "1bcdec21c2297051785ae9cd3e555881", "lat": 38.866549166666665, "type": "electric_scooter"}, {"fusion_lat": 0.0, "fusion_lon": 0.0, "rental_uris": {"android": "https://dc.lft.to/lastmile_qr_scan", "ios": "https://dc.lft.to/lastmile_qr_scan"}, "lon": -77.02798083333333, "name": "d99b789c46456441eb231b5e7890f973", "is_disabled": 0, "is_reserved": 0, "bike_id": "d99b789c46456441eb231b5e7890f973", "lat": 38.930594166666666, "type": "electric_scooter"}, {"fusion_lat": 0.0, "fusion_lon": 0.0, "rental_uris": {"android": "https://dc.lft.to/lastmile_qr_scan", "ios": "https://dc.lft.to/lastmile_qr_scan"}, "lon": -76.9744015, "name": "71f37e8ad213535c6bdbd0c610bae012", "is_disabled": 0, "is_reserved": 0, "bike_id": "71f37e8ad213535c6bdbd0c610bae012", "lat": 38.90238883333333, "type": "electric_scooter"}, {"fusion_lat": 0.0, "fusion_lon": 0.0, "rental_uris": {"android": "https://dc.lft.to/lastmile_qr_scan", "ios": "https://dc.lft.to/lastmile_qr_scan"}, "lon": -76.9856355, "name": "9cf209dfa39f7c2d6de1938b44fc0bb0", "is_disabled": 0, "is_reserved": 0, "bike_id": "9cf209dfa39f7c2d6de1938b44fc0bb0", "lat": 38.866787333333335, "type": "electric_scooter"}, {"fusion_lat": 0.0, "fusion_lon": 0.0, "rental_uris": {"android": "https://dc.lft.to/lastmile_qr_scan", "ios": "https://dc.lft.to/lastmile_qr_scan"}, "lon": -76.98193783333333, "name": "4963a84485d78a1e065287891b5ded4d", "is_disabled": 0, "is_reserved": 0, "bike_id": "4963a84485d78a1e065287891b5ded4d", "lat": 38.9137345, "type": "electric_scooter"}, {"fusion_lat": 0.0, "fusion_lon": 0.0, "rental_uris": {"android": "https://dc.lft.to/lastmile_qr_scan", "ios": "https://dc.lft.to/lastmile_qr_scan"}, "lon": -76.99949783333334, "name": "b428dd61228353e88d3155148ccd0149", "is_disabled": 0, "is_reserved": 0, "bike_id": "b428dd61228353e88d3155148ccd0149", "lat": 38.84289666666667, "type": "electric_scooter"}, {"fusion_lat": 0.0, "fusion_lon": 0.0, "rental_uris": {"android": "https://dc.lft.to/lastmile_qr_scan", "ios": "https://dc.lft.to/lastmile_qr_scan"}, "lon": -77.00589233333334, "name": "0fc406ea313d988c96c85ba42be414a7", "is_disabled": 0, "is_reserved": 0, "bike_id": "0fc406ea313d988c96c85ba42be414a7", "lat": 38.876579166666666, "type": "electric_scooter"}, {"fusion_lat": 0.0, "fusion_lon": 0.0, "rental_uris": {"android": "https://dc.lft.to/lastmile_qr_scan", "ios": "https://dc.lft.to/lastmile_qr_scan"}, "lon": -76.99468433333334, "name": "ac2dabef00c3e3635440896cd2c8df2c", "is_disabled": 0, "is_reserved": 0, "bike_id": "ac2dabef00c3e3635440896cd2c8df2c", "lat": 38.905134833333335, "type": "electric_scooter"}, {"fusion_lat": 0.0, "fusion_lon": 0.0, "rental_uris": {"android": "https://dc.lft.to/lastmile_qr_scan", "ios": "https://dc.lft.to/lastmile_qr_scan"}, "lon": -77.04345383333333, "name": "0c6c2c9e4fb08c8b501352f4d39aba28", "is_disabled": 0, "is_reserved": 0, "bike_id": "0c6c2c9e4fb08c8b501352f4d39aba28", "lat": 38.9057285, "type": "electric_scooter"}, {"fusion_lat": 0.0, "fusion_lon": 0.0, "rental_uris": {"android": "https://dc.lft.to/lastmile_qr_scan", "ios": "https://dc.lft.to/lastmile_qr_scan"}, "lon": -77.03401733333334, "name": "9d5d7e695543e88f5d4cfd0014388c7b", "is_disabled": 0, "is_reserved": 0, "bike_id": "9d5d7e695543e88f5d4cfd0014388c7b", "lat": 38.9243625, "type": "electric_scooter"}, {"fusion_lat": 0.0, "fusion_lon": 0.0, "rental_uris": {"android": "https://dc.lft.to/lastmile_qr_scan", "ios": "https://dc.lft.to/lastmile_qr_scan"}, "lon": -77.04697616666667, "name": "470866d45343b9804a78c9ec52f9203d", "is_disabled": 0, "is_reserved": 0, "bike_id": "470866d45343b9804a78c9ec52f9203d", "lat": 38.898463666666665, "type": "electric_scooter"}, {"fusion_lat": 0.0, "fusion_lon": 0.0, "rental_uris": {"android": "https://dc.lft.to/lastmile_qr_scan", "ios": "https://dc.lft.to/lastmile_qr_scan"}, "lon": -77.023619, "name": "9fe4f219a06581ffe8f1087c33b2a366", "is_disabled": 0, "is_reserved": 0, "bike_id": "9fe4f219a06581ffe8f1087c33b2a366", "lat": 38.9251305, "type": "electric_scooter"}, {"fusion_lat": 0.0, "fusion_lon": 0.0, "rental_uris": {"android": "https://dc.lft.to/lastmile_qr_scan", "ios": "https://dc.lft.to/lastmile_qr_scan"}, "lon": -77.04509033333333, "name": "e87bb26ba7327857f39680c6b2877050", "is_disabled": 0, "is_reserved": 0, "bike_id": "e87bb26ba7327857f39680c6b2877050", "lat": 38.8996005, "type": "electric_scooter"}, {"fusion_lat": 0.0, "fusion_lon": 0.0, "rental_uris": {"android": "https://dc.lft.to/lastmile_qr_scan", "ios": "https://dc.lft.to/lastmile_qr_scan"}, "lon": -77.02908033333334, "name": "09c384887070fcb4e28645446b32ac93", "is_disabled": 0, "is_reserved": 0, "bike_id": "09c384887070fcb4e28645446b32ac93", "lat": 38.91714233333333, "type": "electric_scooter"}, {"fusion_lat": 0.0, "fusion_lon": 0.0, "rental_uris": {"android": "https://dc.lft.to/lastmile_qr_scan", "ios": "https://dc.lft.to/lastmile_qr_scan"}, "lon": -77.03106266666667, "name": "9c4e9edce0fd69aefb0061540172187c", "is_disabled": 0, "is_reserved": 0, "bike_id": "9c4e9edce0fd69aefb0061540172187c", "lat": 38.883173666666664, "type": "electric_scooter"}, {"fusion_lat": 0.0, "fusion_lon": 0.0, "rental_uris": {"android": "https://dc.lft.to/lastmile_qr_scan", "ios": "https://dc.lft.to/lastmile_qr_scan"}, "lon": -77.042589, "name": "bcfbd726597f64216e9a0d78528507e8", "is_disabled": 0, "is_reserved": 0, "bike_id": "bcfbd726597f64216e9a0d78528507e8", "lat": 38.9064865, "type": "electric_scooter"}, {"fusion_lat": 0.0, "fusion_lon": 0.0, "rental_uris": {"android": "https://dc.lft.to/lastmile_qr_scan", "ios": "https://dc.lft.to/lastmile_qr_scan"}, "lon": -77.03544116666667, "name": "e31e7e71217dbd977605b25955327cda", "is_disabled": 0, "is_reserved": 0, "bike_id": "e31e7e71217dbd977605b25955327cda", "lat": 38.90026266666667, "type": "electric_scooter"}, {"fusion_lat": 0.0, "fusion_lon": 0.0, "rental_uris": {"android": "https://dc.lft.to/lastmile_qr_scan", "ios": "https://dc.lft.to/lastmile_qr_scan"}, "lon": -77.02693933333333, "name": "052fe765df6e57f200dbde14264d45bc", "is_disabled": 0, "is_reserved": 0, "bike_id": "052fe765df6e57f200dbde14264d45bc", "lat": 38.94980733333333, "type": "electric_scooter"}, {"fusion_lat": 0.0, "fusion_lon": 0.0, "rental_uris": {"android": "https://dc.lft.to/lastmile_qr_scan", "ios": "https://dc.lft.to/lastmile_qr_scan"}, "lon": -77.04244833333334, "name": "4869bf58589cafc77ae0f2521d5a3e5f", "is_disabled": 0, "is_reserved": 0, "bike_id": "4869bf58589cafc77ae0f2521d5a3e5f", "lat": 38.922089166666666, "type": "electric_scooter"}, {"fusion_lat": 0.0, "fusion_lon": 0.0, "rental_uris": {"android": "https://dc.lft.to/lastmile_qr_scan", "ios": "https://dc.lft.to/lastmile_qr_scan"}, "lon": -76.98983, "name": "fca3f9cc3162b6107597e34ecb230250", "is_disabled": 0, "is_reserved": 0, "bike_id": "fca3f9cc3162b6107597e34ecb230250", "lat": 38.85876366666667, "type": "electric_scooter"}, {"fusion_lat": 0.0, "fusion_lon": 0.0, "rental_uris": {"android": "https://dc.lft.to/lastmile_qr_scan", "ios": "https://dc.lft.to/lastmile_qr_scan"}, "lon": -77.03512, "name": "1165641ea571182edfcd64195acb4e40", "is_disabled": 0, "is_reserved": 0, "bike_id": "1165641ea571182edfcd64195acb4e40", "lat": 38.92527616666667, "type": "electric_scooter"}, {"fusion_lat": 0.0, "fusion_lon": 0.0, "rental_uris": {"android": "https://dc.lft.to/lastmile_qr_scan", "ios": "https://dc.lft.to/lastmile_qr_scan"}, "lon": -77.0122205, "name": "0a5ff7095f4fa0794cc5e31eeec39a82", "is_disabled": 0, "is_reserved": 0, "bike_id": "0a5ff7095f4fa0794cc5e31eeec39a82", "lat": 38.913464833333336, "type": "electric_scooter"}, {"fusion_lat": 0.0, "fusion_lon": 0.0, "rental_uris": {"android": "https://dc.lft.to/lastmile_qr_scan", "ios": "https://dc.lft.to/lastmile_qr_scan"}, "lon": -77.0321685, "name": "0d9550bfe93d6731c0481b7dde5029cb", "is_disabled": 0, "is_reserved": 0, "bike_id": "0d9550bfe93d6731c0481b7dde5029cb", "lat": 38.9184115, "type": "electric_scooter"}, {"fusion_lat": 0.0, "fusion_lon": 0.0, "rental_uris": {"android": "https://dc.lft.to/lastmile_qr_scan", "ios": "https://dc.lft.to/lastmile_qr_scan"}, "lon": -77.031849, "name": "ed6a5898dd7c901235a6664001995a9c", "is_disabled": 0, "is_reserved": 0, "bike_id": "ed6a5898dd7c901235a6664001995a9c", "lat": 38.90138683333333, "type": "electric_scooter"}, {"fusion_lat": 0.0, "fusion_lon": 0.0, "rental_uris": {"android": "https://dc.lft.to/lastmile_qr_scan", "ios": "https://dc.lft.to/lastmile_qr_scan"}, "lon": -77.05001916666667, "name": "568be109e006381c38b68865d80518a3", "is_disabled": 0, "is_reserved": 0, "bike_id": "568be109e006381c38b68865d80518a3", "lat": 38.89392016666667, "type": "electric_scooter"}, {"fusion_lat": 0.0, "fusion_lon": 0.0, "rental_uris": {"android": "https://dc.lft.to/lastmile_qr_scan", "ios": "https://dc.lft.to/lastmile_qr_scan"}, "lon": -77.03825216666667, "name": "85655f8f9cf7be741d0571ed7f8fe3b7", "is_disabled": 0, "is_reserved": 0, "bike_id": "85655f8f9cf7be741d0571ed7f8fe3b7", "lat": 38.9047975, "type": "electric_scooter"}, {"fusion_lat": 0.0, "fusion_lon": 0.0, "rental_uris": {"android": "https://dc.lft.to/lastmile_qr_scan", "ios": "https://dc.lft.to/lastmile_qr_scan"}, "lon": -77.0340705, "name": "ce71b6802d371ce5b267e489dc0c9eaa", "is_disabled": 0, "is_reserved": 0, "bike_id": "ce71b6802d371ce5b267e489dc0c9eaa", "lat": 38.9226655, "type": "electric_scooter"}, {"fusion_lat": 0.0, "fusion_lon": 0.0, "rental_uris": {"android": "https://dc.lft.to/lastmile_qr_scan", "ios": "https://dc.lft.to/lastmile_qr_scan"}, "lon": -77.00515566666667, "name": "6f06c0b5e0eb62a9d1d6487ab9b035f0", "is_disabled": 0, "is_reserved": 0, "bike_id": "6f06c0b5e0eb62a9d1d6487ab9b035f0", "lat": 38.87469766666667, "type": "electric_scooter"}, {"fusion_lat": 0.0, "fusion_lon": 0.0, "rental_uris": {"android": "https://dc.lft.to/lastmile_qr_scan", "ios": "https://dc.lft.to/lastmile_qr_scan"}, "lon": -77.03429416666667, "name": "6d6c6a3c4dc922e5230838ae76f8e726", "is_disabled": 0, "is_reserved": 0, "bike_id": "6d6c6a3c4dc922e5230838ae76f8e726", "lat": 38.9031615, "type": "electric_scooter"}, {"fusion_lat": 0.0, "fusion_lon": 0.0, "rental_uris": {"android": "https://dc.lft.to/lastmile_qr_scan", "ios": "https://dc.lft.to/lastmile_qr_scan"}, "lon": -77.04333916666667, "name": "9df42d0bf43499be918b9cd704920ec9", "is_disabled": 0, "is_reserved": 0, "bike_id": "9df42d0bf43499be918b9cd704920ec9", "lat": 38.90874816666667, "type": "electric_scooter"}, {"fusion_lat": 0.0, "fusion_lon": 0.0, "rental_uris": {"android": "https://dc.lft.to/lastmile_qr_scan", "ios": "https://dc.lft.to/lastmile_qr_scan"}, "lon": -76.91064916666667, "name": "864a3903a066daf4e5b86530ff3ddced", "is_disabled": 0, "is_reserved": 0, "bike_id": "864a3903a066daf4e5b86530ff3ddced", "lat": 39.0107415, "type": "electric_bike"}, {"fusion_lat": 0.0, "fusion_lon": 0.0, "rental_uris": {"android": "https://dc.lft.to/lastmile_qr_scan", "ios": "https://dc.lft.to/lastmile_qr_scan"}, "lon": -77.04681716666667, "name": "87fd5ecc3cb8073b575cba69444daa80", "is_disabled": 0, "is_reserved": 0, "bike_id": "87fd5ecc3cb8073b575cba69444daa80", "lat": 38.9033805, "type": "electric_scooter"}, {"fusion_lat": 0.0, "fusion_lon": 0.0, "rental_uris": {"android": "https://dc.lft.to/lastmile_qr_scan", "ios": "https://dc.lft.to/lastmile_qr_scan"}, "lon": -77.02348333333333, "name": "7af101ed4c4bd062882d51184ca7449d", "is_disabled": 0, "is_reserved": 0, "bike_id": "7af101ed4c4bd062882d51184ca7449d", "lat": 38.884260833333336, "type": "electric_scooter"}, {"fusion_lat": 0.0, "fusion_lon": 0.0, "rental_uris": {"android": "https://dc.lft.to/lastmile_qr_scan", "ios": "https://dc.lft.to/lastmile_qr_scan"}, "lon": -77.03617516666667, "name": "31dbd61780bdd97f3cfb9070df60f3e6", "is_disabled": 0, "is_reserved": 0, "bike_id": "31dbd61780bdd97f3cfb9070df60f3e6", "lat": 38.917234666666666, "type": "electric_scooter"}, {"fusion_lat": 0.0, "fusion_lon": 0.0, "rental_uris": {"android": "https://dc.lft.to/lastmile_qr_scan", "ios": "https://dc.lft.to/lastmile_qr_scan"}, "lon": -77.02080466666666, "name": "adf3c3b700f35452ad89168a07f248d4", "is_disabled": 0, "is_reserved": 0, "bike_id": "adf3c3b700f35452ad89168a07f248d4", "lat": 38.8974265, "type": "electric_bike"}, {"fusion_lat": 0.0, "fusion_lon": 0.0, "rental_uris": {"android": "https://dc.lft.to/lastmile_qr_scan", "ios": "https://dc.lft.to/lastmile_qr_scan"}, "lon": -77.00682433333333, "name": "ccb7f77ebe162c7efef6da009b9f7d2a", "is_disabled": 0, "is_reserved": 0, "bike_id": "ccb7f77ebe162c7efef6da009b9f7d2a", "lat": 38.8717105, "type": "electric_scooter"}, {"fusion_lat": 0.0, "fusion_lon": 0.0, "rental_uris": {"android": "https://dc.lft.to/lastmile_qr_scan", "ios": "https://dc.lft.to/lastmile_qr_scan"}, "lon": -77.02168283333333, "name": "e97930b11683fb3e538bda4ac45ac07f", "is_disabled": 0, "is_reserved": 0, "bike_id": "e97930b11683fb3e538bda4ac45ac07f", "lat": 38.89728, "type": "electric_scooter"}, {"fusion_lat": 0.0, "fusion_lon": 0.0, "rental_uris": {"android": "https://dc.lft.to/lastmile_qr_scan", "ios": "https://dc.lft.to/lastmile_qr_scan"}, "lon": -76.939654, "name": "d8dd3b2f7e9c3ad51987d2f71bdcd8f8", "is_disabled": 0, "is_reserved": 0, "bike_id": "d8dd3b2f7e9c3ad51987d2f71bdcd8f8", "lat": 38.893421000000004, "type": "electric_scooter"}, {"fusion_lat": 0.0, "fusion_lon": 0.0, "rental_uris": {"android": "https://dc.lft.to/lastmile_qr_scan", "ios": "https://dc.lft.to/lastmile_qr_scan"}, "lon": -76.9836985, "name": "e491f04f702c9f36f5c389f7ebba82a5", "is_disabled": 0, "is_reserved": 0, "bike_id": "e491f04f702c9f36f5c389f7ebba82a5", "lat": 38.914962833333334, "type": "electric_scooter"}, {"fusion_lat": 0.0, "fusion_lon": 0.0, "rental_uris": {"android": "https://dc.lft.to/lastmile_qr_scan", "ios": "https://dc.lft.to/lastmile_qr_scan"}, "lon": -77.01510033333334, "name": "72d3c62dc23e07ae0bed461cb186c439", "is_disabled": 0, "is_reserved": 0, "bike_id": "72d3c62dc23e07ae0bed461cb186c439", "lat": 38.91316166666667, "type": "electric_scooter"}, {"fusion_lat": 0.0, "fusion_lon": 0.0, "rental_uris": {"android": "https://dc.lft.to/lastmile_qr_scan", "ios": "https://dc.lft.to/lastmile_qr_scan"}, "lon": -77.00581016666666, "name": "ded555cacd814805af9e1dcf501ae590", "is_disabled": 0, "is_reserved": 0, "bike_id": "ded555cacd814805af9e1dcf501ae590", "lat": 38.87574333333333, "type": "electric_scooter"}, {"fusion_lat": 0.0, "fusion_lon": 0.0, "rental_uris": {"android": "https://dc.lft.to/lastmile_qr_scan", "ios": "https://dc.lft.to/lastmile_qr_scan"}, "lon": -77.03446316666667, "name": "3ac1a1ed6a7328cd789279e0f189a8cd", "is_disabled": 0, "is_reserved": 0, "bike_id": "3ac1a1ed6a7328cd789279e0f189a8cd", "lat": 38.901760333333335, "type": "electric_scooter"}, {"fusion_lat": 0.0, "fusion_lon": 0.0, "rental_uris": {"android": "https://dc.lft.to/lastmile_qr_scan", "ios": "https://dc.lft.to/lastmile_qr_scan"}, "lon": -77.02548866666666, "name": "549b5c0785e748fadc51e336b9b5f9b8", "is_disabled": 0, "is_reserved": 0, "bike_id": "549b5c0785e748fadc51e336b9b5f9b8", "lat": 38.997108833333336, "type": "electric_bike"}, {"fusion_lat": 0.0, "fusion_lon": 0.0, "rental_uris": {"android": "https://dc.lft.to/lastmile_qr_scan", "ios": "https://dc.lft.to/lastmile_qr_scan"}, "lon": -77.02124433333333, "name": "0d9c7b5bb3562aade004d24a24849a73", "is_disabled": 0, "is_reserved": 0, "bike_id": "0d9c7b5bb3562aade004d24a24849a73", "lat": 38.922223333333335, "type": "electric_scooter"}, {"fusion_lat": 0.0, "fusion_lon": 0.0, "rental_uris": {"android": "https://dc.lft.to/lastmile_qr_scan", "ios": "https://dc.lft.to/lastmile_qr_scan"}, "lon": -77.07281116666667, "name": "5e6940ac95f3c32ae678cc7d588df3f1", "is_disabled": 0, "is_reserved": 0, "bike_id": "5e6940ac95f3c32ae678cc7d588df3f1", "lat": 38.934719, "type": "electric_scooter"}, {"fusion_lat": 0.0, "fusion_lon": 0.0, "rental_uris": {"android": "https://dc.lft.to/lastmile_qr_scan", "ios": "https://dc.lft.to/lastmile_qr_scan"}, "lon": -77.02171083333333, "name": "994249354abb6427dfe9320e865e6fc2", "is_disabled": 0, "is_reserved": 0, "bike_id": "994249354abb6427dfe9320e865e6fc2", "lat": 38.94290083333333, "type": "electric_scooter"}, {"fusion_lat": 0.0, "fusion_lon": 0.0, "rental_uris": {"android": "https://dc.lft.to/lastmile_qr_scan", "ios": "https://dc.lft.to/lastmile_qr_scan"}, "lon": -77.04008783333333, "name": "6695eea6db3f5b5fb557dad7f0807286", "is_disabled": 0, "is_reserved": 0, "bike_id": "6695eea6db3f5b5fb557dad7f0807286", "lat": 38.907305, "type": "electric_scooter"}, {"fusion_lat": 0.0, "fusion_lon": 0.0, "rental_uris": {"android": "https://dc.lft.to/lastmile_qr_scan", "ios": "https://dc.lft.to/lastmile_qr_scan"}, "lon": -77.02706916666666, "name": "4f2aefb76a35905de00b7287c0dd9bd6", "is_disabled": 0, "is_reserved": 0, "bike_id": "4f2aefb76a35905de00b7287c0dd9bd6", "lat": 38.897167833333334, "type": "electric_scooter"}, {"fusion_lat": 0.0, "fusion_lon": 0.0, "rental_uris": {"android": "https://dc.lft.to/lastmile_qr_scan", "ios": "https://dc.lft.to/lastmile_qr_scan"}, "lon": -77.01136533333333, "name": "fd97754baf974e848281cbc9e7a7c720", "is_disabled": 0, "is_reserved": 0, "bike_id": "fd97754baf974e848281cbc9e7a7c720", "lat": 38.900222166666666, "type": "electric_scooter"}, {"fusion_lat": 0.0, "fusion_lon": 0.0, "rental_uris": {"android": "https://dc.lft.to/lastmile_qr_scan", "ios": "https://dc.lft.to/lastmile_qr_scan"}, "lon": -76.98719116666666, "name": "b9c641af7c4f864f4a6a6d7b9f67beea", "is_disabled": 0, "is_reserved": 0, "bike_id": "b9c641af7c4f864f4a6a6d7b9f67beea", "lat": 38.86628866666667, "type": "electric_scooter"}, {"fusion_lat": 0.0, "fusion_lon": 0.0, "rental_uris": {"android": "https://dc.lft.to/lastmile_qr_scan", "ios": "https://dc.lft.to/lastmile_qr_scan"}, "lon": -77.04884883333334, "name": "6ba9c0e89d1629dd917c7b7ba2b798cb", "is_disabled": 0, "is_reserved": 0, "bike_id": "6ba9c0e89d1629dd917c7b7ba2b798cb", "lat": 38.9011585, "type": "electric_scooter"}, {"fusion_lat": 0.0, "fusion_lon": 0.0, "rental_uris": {"android": "https://dc.lft.to/lastmile_qr_scan", "ios": "https://dc.lft.to/lastmile_qr_scan"}, "lon": -77.038131, "name": "efa9fe8564cf29989868c4d98cc31a4b", "is_disabled": 0, "is_reserved": 0, "bike_id": "efa9fe8564cf29989868c4d98cc31a4b", "lat": 38.906704, "type": "electric_scooter"}, {"fusion_lat": 0.0, "fusion_lon": 0.0, "rental_uris": {"android": "https://dc.lft.to/lastmile_qr_scan", "ios": "https://dc.lft.to/lastmile_qr_scan"}, "lon": -77.071005, "name": "eea455f5c36d9e46633fc9571e1e68d6", "is_disabled": 0, "is_reserved": 0, "bike_id": "eea455f5c36d9e46633fc9571e1e68d6", "lat": 38.8963985, "type": "electric_scooter"}, {"fusion_lat": 0.0, "fusion_lon": 0.0, "rental_uris": {"android": "https://dc.lft.to/lastmile_qr_scan", "ios": "https://dc.lft.to/lastmile_qr_scan"}, "lon": -77.0221235, "name": "0c8ef9cdf1ce02478159aedf8cafbc9f", "is_disabled": 0, "is_reserved": 0, "bike_id": "0c8ef9cdf1ce02478159aedf8cafbc9f", "lat": 38.9096145, "type": "electric_scooter"}, {"fusion_lat": 0.0, "fusion_lon": 0.0, "rental_uris": {"android": "https://dc.lft.to/lastmile_qr_scan", "ios": "https://dc.lft.to/lastmile_qr_scan"}, "lon": -77.052588, "name": "9c3ee45a1b74727e5fe2121318b9d6fe", "is_disabled": 0, "is_reserved": 0, "bike_id": "9c3ee45a1b74727e5fe2121318b9d6fe", "lat": 38.92784983333333, "type": "electric_scooter"}, {"fusion_lat": 0.0, "fusion_lon": 0.0, "rental_uris": {"android": "https://dc.lft.to/lastmile_qr_scan", "ios": "https://dc.lft.to/lastmile_qr_scan"}, "lon": -77.03868, "name": "25f65cfeeeddfb48e7636ffdddd3e133", "is_disabled": 0, "is_reserved": 0, "bike_id": "25f65cfeeeddfb48e7636ffdddd3e133", "lat": 38.90326, "type": "electric_scooter"}, {"fusion_lat": 0.0, "fusion_lon": 0.0, "rental_uris": {"android": "https://dc.lft.to/lastmile_qr_scan", "ios": "https://dc.lft.to/lastmile_qr_scan"}, "lon": -77.06416583333333, "name": "91b4e340f5591301f4a8bcc98547b320", "is_disabled": 0, "is_reserved": 0, "bike_id": "91b4e340f5591301f4a8bcc98547b320", "lat": 38.9134345, "type": "electric_scooter"}, {"fusion_lat": 0.0, "fusion_lon": 0.0, "rental_uris": {"android": "https://dc.lft.to/lastmile_qr_scan", "ios": "https://dc.lft.to/lastmile_qr_scan"}, "lon": -76.94811583333333, "name": "4e2981da02eb08c97120263ad1a261e4", "is_disabled": 0, "is_reserved": 0, "bike_id": "4e2981da02eb08c97120263ad1a261e4", "lat": 38.89368416666667, "type": "electric_scooter"}, {"fusion_lat": 0.0, "fusion_lon": 0.0, "rental_uris": {"android": "https://dc.lft.to/lastmile_qr_scan", "ios": "https://dc.lft.to/lastmile_qr_scan"}, "lon": -77.02789933333334, "name": "76af1a5abeb8575dd40e308e7ed0f211", "is_disabled": 0, "is_reserved": 0, "bike_id": "76af1a5abeb8575dd40e308e7ed0f211", "lat": 38.91708416666667, "type": "electric_scooter"}, {"fusion_lat": 0.0, "fusion_lon": 0.0, "rental_uris": {"android": "https://dc.lft.to/lastmile_qr_scan", "ios": "https://dc.lft.to/lastmile_qr_scan"}, "lon": -76.94850783333334, "name": "02580fe39c0e8fb9ed388c05ac8932a3", "is_disabled": 0, "is_reserved": 0, "bike_id": "02580fe39c0e8fb9ed388c05ac8932a3", "lat": 38.88299083333333, "type": "electric_scooter"}, {"fusion_lat": 0.0, "fusion_lon": 0.0, "rental_uris": {"android": "https://dc.lft.to/lastmile_qr_scan", "ios": "https://dc.lft.to/lastmile_qr_scan"}, "lon": -77.0318515, "name": "3f897c4c946443342276cde6f9921f24", "is_disabled": 0, "is_reserved": 0, "bike_id": "3f897c4c946443342276cde6f9921f24", "lat": 38.89245716666667, "type": "electric_scooter"}, {"fusion_lat": 0.0, "fusion_lon": 0.0, "rental_uris": {"android": "https://dc.lft.to/lastmile_qr_scan", "ios": "https://dc.lft.to/lastmile_qr_scan"}, "lon": -77.03803516666666, "name": "c471e7afe4a2d12978654e4c0701b2da", "is_disabled": 0, "is_reserved": 0, "bike_id": "c471e7afe4a2d12978654e4c0701b2da", "lat": 38.906685833333334, "type": "electric_scooter"}, {"fusion_lat": 0.0, "fusion_lon": 0.0, "rental_uris": {"android": "https://dc.lft.to/lastmile_qr_scan", "ios": "https://dc.lft.to/lastmile_qr_scan"}, "lon": -77.04492766666667, "name": "5d11eac7abb2ec81a99ba731e5695de4", "is_disabled": 0, "is_reserved": 0, "bike_id": "5d11eac7abb2ec81a99ba731e5695de4", "lat": 38.913328666666665, "type": "electric_scooter"}, {"fusion_lat": 0.0, "fusion_lon": 0.0, "rental_uris": {"android": "https://dc.lft.to/lastmile_qr_scan", "ios": "https://dc.lft.to/lastmile_qr_scan"}, "lon": -77.04154633333333, "name": "95cb9643fdfffd868dd267b1cc619c42", "is_disabled": 0, "is_reserved": 0, "bike_id": "95cb9643fdfffd868dd267b1cc619c42", "lat": 38.89228816666667, "type": "electric_scooter"}, {"fusion_lat": 0.0, "fusion_lon": 0.0, "rental_uris": {"android": "https://dc.lft.to/lastmile_qr_scan", "ios": "https://dc.lft.to/lastmile_qr_scan"}, "lon": -76.99000266666667, "name": "e91cd5391458204e1c401f7c8b73e86f", "is_disabled": 0, "is_reserved": 0, "bike_id": "e91cd5391458204e1c401f7c8b73e86f", "lat": 38.86501766666667, "type": "electric_scooter"}, {"fusion_lat": 0.0, "fusion_lon": 0.0, "rental_uris": {"android": "https://dc.lft.to/lastmile_qr_scan", "ios": "https://dc.lft.to/lastmile_qr_scan"}, "lon": -77.02942216666666, "name": "3bd82a652ccbc6d7a41a6a97d963132c", "is_disabled": 0, "is_reserved": 0, "bike_id": "3bd82a652ccbc6d7a41a6a97d963132c", "lat": 38.916984666666664, "type": "electric_scooter"}, {"fusion_lat": 0.0, "fusion_lon": 0.0, "rental_uris": {"android": "https://dc.lft.to/lastmile_qr_scan", "ios": "https://dc.lft.to/lastmile_qr_scan"}, "lon": -77.02385316666667, "name": "f7d94265d8131ba0d54fe14fed7031d4", "is_disabled": 0, "is_reserved": 0, "bike_id": "f7d94265d8131ba0d54fe14fed7031d4", "lat": 38.892251333333334, "type": "electric_scooter"}, {"fusion_lat": 0.0, "fusion_lon": 0.0, "rental_uris": {"android": "https://dc.lft.to/lastmile_qr_scan", "ios": "https://dc.lft.to/lastmile_qr_scan"}, "lon": -77.02711383333333, "name": "c640b34c689144d7dd660d30d1fa6e7a", "is_disabled": 0, "is_reserved": 0, "bike_id": "c640b34c689144d7dd660d30d1fa6e7a", "lat": 38.9154625, "type": "electric_scooter"}, {"fusion_lat": 0.0, "fusion_lon": 0.0, "rental_uris": {"android": "https://dc.lft.to/lastmile_qr_scan", "ios": "https://dc.lft.to/lastmile_qr_scan"}, "lon": -76.94638216666667, "name": "e46fa8dd7564ac98de8a8654c655dbbd", "is_disabled": 0, "is_reserved": 0, "bike_id": "e46fa8dd7564ac98de8a8654c655dbbd", "lat": 38.89865666666667, "type": "electric_scooter"}, {"fusion_lat": 0.0, "fusion_lon": 0.0, "rental_uris": {"android": "https://dc.lft.to/lastmile_qr_scan", "ios": "https://dc.lft.to/lastmile_qr_scan"}, "lon": -76.9949415, "name": "22ea20c85fad6273202d9c18ad756ecf", "is_disabled": 0, "is_reserved": 0, "bike_id": "22ea20c85fad6273202d9c18ad756ecf", "lat": 38.86238133333333, "type": "electric_scooter"}, {"fusion_lat": 0.0, "fusion_lon": 0.0, "rental_uris": {"android": "https://dc.lft.to/lastmile_qr_scan", "ios": "https://dc.lft.to/lastmile_qr_scan"}, "lon": -77.03183766666666, "name": "be2c951de3e01c5c532899165b5686b3", "is_disabled": 0, "is_reserved": 0, "bike_id": "be2c951de3e01c5c532899165b5686b3", "lat": 38.91682383333333, "type": "electric_scooter"}, {"fusion_lat": 0.0, "fusion_lon": 0.0, "rental_uris": {"android": "https://dc.lft.to/lastmile_qr_scan", "ios": "https://dc.lft.to/lastmile_qr_scan"}, "lon": -77.0413355, "name": "c8354a89786d1a2836cf974508e0b921", "is_disabled": 0, "is_reserved": 0, "bike_id": "c8354a89786d1a2836cf974508e0b921", "lat": 38.90625433333334, "type": "electric_scooter"}, {"fusion_lat": 0.0, "fusion_lon": 0.0, "rental_uris": {"android": "https://dc.lft.to/lastmile_qr_scan", "ios": "https://dc.lft.to/lastmile_qr_scan"}, "lon": -77.045108, "name": "54975a6c21473c7a0a21865c48c7c2f2", "is_disabled": 0, "is_reserved": 0, "bike_id": "54975a6c21473c7a0a21865c48c7c2f2", "lat": 38.886027, "type": "electric_scooter"}, {"fusion_lat": 0.0, "fusion_lon": 0.0, "rental_uris": {"android": "https://dc.lft.to/lastmile_qr_scan", "ios": "https://dc.lft.to/lastmile_qr_scan"}, "lon": -76.97325333333333, "name": "f3599afdb5b2b8d52becfef46aa6d13f", "is_disabled": 0, "is_reserved": 0, "bike_id": "f3599afdb5b2b8d52becfef46aa6d13f", "lat": 38.8651635, "type": "electric_scooter"}, {"fusion_lat": 0.0, "fusion_lon": 0.0, "rental_uris": {"android": "https://dc.lft.to/lastmile_qr_scan", "ios": "https://dc.lft.to/lastmile_qr_scan"}, "lon": -77.042379, "name": "db7d8f024969f9b8e8540363d4cbc6bc", "is_disabled": 0, "is_reserved": 0, "bike_id": "db7d8f024969f9b8e8540363d4cbc6bc", "lat": 38.92265616666667, "type": "electric_scooter"}, {"fusion_lat": 0.0, "fusion_lon": 0.0, "rental_uris": {"android": "https://dc.lft.to/lastmile_qr_scan", "ios": "https://dc.lft.to/lastmile_qr_scan"}, "lon": -77.021303, "name": "9c2d17803051daba6776683befd43f09", "is_disabled": 0, "is_reserved": 0, "bike_id": "9c2d17803051daba6776683befd43f09", "lat": 38.923112833333334, "type": "electric_scooter"}, {"fusion_lat": 0.0, "fusion_lon": 0.0, "rental_uris": {"android": "https://dc.lft.to/lastmile_qr_scan", "ios": "https://dc.lft.to/lastmile_qr_scan"}, "lon": -77.03173316666667, "name": "350fa1bd36a0655425abcec6f5d0206e", "is_disabled": 0, "is_reserved": 0, "bike_id": "350fa1bd36a0655425abcec6f5d0206e", "lat": 38.915505333333336, "type": "electric_scooter"}, {"fusion_lat": 0.0, "fusion_lon": 0.0, "rental_uris": {"android": "https://dc.lft.to/lastmile_qr_scan", "ios": "https://dc.lft.to/lastmile_qr_scan"}, "lon": -77.02582833333334, "name": "0c92ef2e84000d140c40b3c3b9416f37", "is_disabled": 0, "is_reserved": 0, "bike_id": "0c92ef2e84000d140c40b3c3b9416f37", "lat": 38.91410333333334, "type": "electric_scooter"}, {"fusion_lat": 0.0, "fusion_lon": 0.0, "rental_uris": {"android": "https://dc.lft.to/lastmile_qr_scan", "ios": "https://dc.lft.to/lastmile_qr_scan"}, "lon": -76.97420766666667, "name": "a6b2ce6f17c6677489c1df641456d302", "is_disabled": 0, "is_reserved": 0, "bike_id": "a6b2ce6f17c6677489c1df641456d302", "lat": 38.932361, "type": "electric_bike"}, {"fusion_lat": 0.0, "fusion_lon": 0.0, "rental_uris": {"android": "https://dc.lft.to/lastmile_qr_scan", "ios": "https://dc.lft.to/lastmile_qr_scan"}, "lon": -76.99058116666667, "name": "fed026868aa0a63327df52c1a9d6b563", "is_disabled": 0, "is_reserved": 0, "bike_id": "fed026868aa0a63327df52c1a9d6b563", "lat": 38.93685216666667, "type": "electric_bike"}, {"fusion_lat": 0.0, "fusion_lon": 0.0, "rental_uris": {"android": "https://dc.lft.to/lastmile_qr_scan", "ios": "https://dc.lft.to/lastmile_qr_scan"}, "lon": -77.06123533333333, "name": "ab1e3d1762a10174e388033e631c70ce", "is_disabled": 0, "is_reserved": 0, "bike_id": "ab1e3d1762a10174e388033e631c70ce", "lat": 38.901972666666666, "type": "electric_scooter"}, {"fusion_lat": 0.0, "fusion_lon": 0.0, "rental_uris": {"android": "https://dc.lft.to/lastmile_qr_scan", "ios": "https://dc.lft.to/lastmile_qr_scan"}, "lon": -77.04132966666667, "name": "271a68fffcfa452146c6cb3c50b1698c", "is_disabled": 0, "is_reserved": 0, "bike_id": "271a68fffcfa452146c6cb3c50b1698c", "lat": 38.913781, "type": "electric_scooter"}, {"fusion_lat": 0.0, "fusion_lon": 0.0, "rental_uris": {"android": "https://dc.lft.to/lastmile_qr_scan", "ios": "https://dc.lft.to/lastmile_qr_scan"}, "lon": -77.04219766666667, "name": "dd7aaefedd3da7ffc633c9ab8dc17d6f", "is_disabled": 0, "is_reserved": 0, "bike_id": "dd7aaefedd3da7ffc633c9ab8dc17d6f", "lat": 38.903872, "type": "electric_scooter"}, {"fusion_lat": 0.0, "fusion_lon": 0.0, "rental_uris": {"android": "https://dc.lft.to/lastmile_qr_scan", "ios": "https://dc.lft.to/lastmile_qr_scan"}, "lon": -77.049873, "name": "aa87077ff3735842fe65b0a3ed62578d", "is_disabled": 0, "is_reserved": 0, "bike_id": "aa87077ff3735842fe65b0a3ed62578d", "lat": 38.892276, "type": "electric_scooter"}, {"fusion_lat": 0.0, "fusion_lon": 0.0, "rental_uris": {"android": "https://dc.lft.to/lastmile_qr_scan", "ios": "https://dc.lft.to/lastmile_qr_scan"}, "lon": -77.03064066666667, "name": "a3f8722abc0c69ffb5958585d10adf0b", "is_disabled": 0, "is_reserved": 0, "bike_id": "a3f8722abc0c69ffb5958585d10adf0b", "lat": 38.922343833333336, "type": "electric_bike"}, {"fusion_lat": 0.0, "fusion_lon": 0.0, "rental_uris": {"android": "https://dc.lft.to/lastmile_qr_scan", "ios": "https://dc.lft.to/lastmile_qr_scan"}, "lon": -76.90733166666666, "name": "963464f88b07cb943d7a4d634b3ad1de", "is_disabled": 0, "is_reserved": 0, "bike_id": "963464f88b07cb943d7a4d634b3ad1de", "lat": 38.89611983333333, "type": "electric_bike"}, {"fusion_lat": 0.0, "fusion_lon": 0.0, "rental_uris": {"android": "https://dc.lft.to/lastmile_qr_scan", "ios": "https://dc.lft.to/lastmile_qr_scan"}, "lon": -77.06351183333334, "name": "d154fa2840df805e1c0b42eecd01e71a", "is_disabled": 0, "is_reserved": 0, "bike_id": "d154fa2840df805e1c0b42eecd01e71a", "lat": 38.944365166666664, "type": "electric_scooter"}, {"fusion_lat": 0.0, "fusion_lon": 0.0, "rental_uris": {"android": "https://dc.lft.to/lastmile_qr_scan", "ios": "https://dc.lft.to/lastmile_qr_scan"}, "lon": -76.980803, "name": "c3a75b8a13d710fcdaf162f654900c6d", "is_disabled": 0, "is_reserved": 0, "bike_id": "c3a75b8a13d710fcdaf162f654900c6d", "lat": 38.865908833333336, "type": "electric_bike"}, {"fusion_lat": 0.0, "fusion_lon": 0.0, "rental_uris": {"android": "https://dc.lft.to/lastmile_qr_scan", "ios": "https://dc.lft.to/lastmile_qr_scan"}, "lon": -77.03264316666667, "name": "677719be4e3227374491e994f83dffc0", "is_disabled": 0, "is_reserved": 0, "bike_id": "677719be4e3227374491e994f83dffc0", "lat": 38.90145066666667, "type": "electric_scooter"}, {"fusion_lat": 0.0, "fusion_lon": 0.0, "rental_uris": {"android": "https://dc.lft.to/lastmile_qr_scan", "ios": "https://dc.lft.to/lastmile_qr_scan"}, "lon": -77.02290083333334, "name": "faaaa49bff257f20cc2460572aa47aa8", "is_disabled": 0, "is_reserved": 0, "bike_id": "faaaa49bff257f20cc2460572aa47aa8", "lat": 38.89703133333333, "type": "electric_scooter"}, {"fusion_lat": 0.0, "fusion_lon": 0.0, "rental_uris": {"android": "https://dc.lft.to/lastmile_qr_scan", "ios": "https://dc.lft.to/lastmile_qr_scan"}, "lon": -77.0488615, "name": "827bc1de268892a459b079cc8da70e6c", "is_disabled": 0, "is_reserved": 0, "bike_id": "827bc1de268892a459b079cc8da70e6c", "lat": 38.89862883333333, "type": "electric_scooter"}, {"fusion_lat": 0.0, "fusion_lon": 0.0, "rental_uris": {"android": "https://dc.lft.to/lastmile_qr_scan", "ios": "https://dc.lft.to/lastmile_qr_scan"}, "lon": -77.02560533333333, "name": "f55bfc5df6de52945825abb73c0a0cdd", "is_disabled": 0, "is_reserved": 0, "bike_id": "f55bfc5df6de52945825abb73c0a0cdd", "lat": 38.909601, "type": "electric_scooter"}, {"fusion_lat": 0.0, "fusion_lon": 0.0, "rental_uris": {"android": "https://dc.lft.to/lastmile_qr_scan", "ios": "https://dc.lft.to/lastmile_qr_scan"}, "lon": -77.038629, "name": "091f745a20af8a10e28c711482852b9f", "is_disabled": 0, "is_reserved": 0, "bike_id": "091f745a20af8a10e28c711482852b9f", "lat": 38.9036465, "type": "electric_scooter"}, {"fusion_lat": 0.0, "fusion_lon": 0.0, "rental_uris": {"android": "https://dc.lft.to/lastmile_qr_scan", "ios": "https://dc.lft.to/lastmile_qr_scan"}, "lon": -77.0034525, "name": "6c773db6ded32dc8057186390d0bdfdb", "is_disabled": 0, "is_reserved": 0, "bike_id": "6c773db6ded32dc8057186390d0bdfdb", "lat": 38.8946305, "type": "electric_scooter"}, {"fusion_lat": 0.0, "fusion_lon": 0.0, "rental_uris": {"android": "https://dc.lft.to/lastmile_qr_scan", "ios": "https://dc.lft.to/lastmile_qr_scan"}, "lon": -77.0324025, "name": "06ca1e60157ea01d962c34d6367964eb", "is_disabled": 0, "is_reserved": 0, "bike_id": "06ca1e60157ea01d962c34d6367964eb", "lat": 38.9272885, "type": "electric_scooter"}, {"fusion_lat": 0.0, "fusion_lon": 0.0, "rental_uris": {"android": "https://dc.lft.to/lastmile_qr_scan", "ios": "https://dc.lft.to/lastmile_qr_scan"}, "lon": -77.0058525, "name": "6773cfe91983e1ba2b49f8034da41d1f", "is_disabled": 0, "is_reserved": 0, "bike_id": "6773cfe91983e1ba2b49f8034da41d1f", "lat": 38.876585, "type": "electric_scooter"}, {"fusion_lat": 0.0, "fusion_lon": 0.0, "rental_uris": {"android": "https://dc.lft.to/lastmile_qr_scan", "ios": "https://dc.lft.to/lastmile_qr_scan"}, "lon": -76.97855, "name": "7ce3adb5c03886bf63fbe0f8570b392b", "is_disabled": 0, "is_reserved": 0, "bike_id": "7ce3adb5c03886bf63fbe0f8570b392b", "lat": 38.84465466666666, "type": "electric_bike"}, {"fusion_lat": 0.0, "fusion_lon": 0.0, "rental_uris": {"android": "https://dc.lft.to/lastmile_qr_scan", "ios": "https://dc.lft.to/lastmile_qr_scan"}, "lon": -76.9669835, "name": "86aab7a291ccf0e23f34040ebceb5088", "is_disabled": 0, "is_reserved": 0, "bike_id": "86aab7a291ccf0e23f34040ebceb5088", "lat": 38.85621066666667, "type": "electric_scooter"}, {"fusion_lat": 0.0, "fusion_lon": 0.0, "rental_uris": {"android": "https://dc.lft.to/lastmile_qr_scan", "ios": "https://dc.lft.to/lastmile_qr_scan"}, "lon": -76.99517216666666, "name": "28b8b239031c92ae6c01dff99fa74605", "is_disabled": 0, "is_reserved": 0, "bike_id": "28b8b239031c92ae6c01dff99fa74605", "lat": 38.879199, "type": "electric_scooter"}, {"fusion_lat": 0.0, "fusion_lon": 0.0, "rental_uris": {"android": "https://dc.lft.to/lastmile_qr_scan", "ios": "https://dc.lft.to/lastmile_qr_scan"}, "lon": -77.01212716666667, "name": "1e7ad6b7aef85d79aad022157cb5c04e", "is_disabled": 0, "is_reserved": 0, "bike_id": "1e7ad6b7aef85d79aad022157cb5c04e", "lat": 38.89687683333333, "type": "electric_scooter"}, {"fusion_lat": 0.0, "fusion_lon": 0.0, "rental_uris": {"android": "https://dc.lft.to/lastmile_qr_scan", "ios": "https://dc.lft.to/lastmile_qr_scan"}, "lon": -77.04323283333333, "name": "6081bcd489f2e5d7247054c5cff36d48", "is_disabled": 0, "is_reserved": 0, "bike_id": "6081bcd489f2e5d7247054c5cff36d48", "lat": 39.03426116666667, "type": "electric_bike"}, {"fusion_lat": 0.0, "fusion_lon": 0.0, "rental_uris": {"android": "https://dc.lft.to/lastmile_qr_scan", "ios": "https://dc.lft.to/lastmile_qr_scan"}, "lon": -77.03634883333334, "name": "3548317a7812e8e5c58b185994330ce2", "is_disabled": 0, "is_reserved": 0, "bike_id": "3548317a7812e8e5c58b185994330ce2", "lat": 38.92443466666667, "type": "electric_scooter"}, {"fusion_lat": 0.0, "fusion_lon": 0.0, "rental_uris": {"android": "https://dc.lft.to/lastmile_qr_scan", "ios": "https://dc.lft.to/lastmile_qr_scan"}, "lon": -77.02968216666666, "name": "f3cbbcaa24769705fb9c390ef651de92", "is_disabled": 0, "is_reserved": 0, "bike_id": "f3cbbcaa24769705fb9c390ef651de92", "lat": 38.922615666666665, "type": "electric_scooter"}, {"fusion_lat": 0.0, "fusion_lon": 0.0, "rental_uris": {"android": "https://dc.lft.to/lastmile_qr_scan", "ios": "https://dc.lft.to/lastmile_qr_scan"}, "lon": -77.029705, "name": "238267f6ba322ca64d61dceff9270fec", "is_disabled": 0, "is_reserved": 0, "bike_id": "238267f6ba322ca64d61dceff9270fec", "lat": 38.897273166666665, "type": "electric_scooter"}, {"fusion_lat": 0.0, "fusion_lon": 0.0, "rental_uris": {"android": "https://dc.lft.to/lastmile_qr_scan", "ios": "https://dc.lft.to/lastmile_qr_scan"}, "lon": -76.95660283333333, "name": "c68520678f8150c076b8673392e888a1", "is_disabled": 0, "is_reserved": 0, "bike_id": "c68520678f8150c076b8673392e888a1", "lat": 38.884698, "type": "electric_bike"}, {"fusion_lat": 0.0, "fusion_lon": 0.0, "rental_uris": {"android": "https://dc.lft.to/lastmile_qr_scan", "ios": "https://dc.lft.to/lastmile_qr_scan"}, "lon": -77.04525783333334, "name": "f9a454dfc7162e778308ec0bfc7b65c7", "is_disabled": 0, "is_reserved": 0, "bike_id": "f9a454dfc7162e778308ec0bfc7b65c7", "lat": 38.903786333333336, "type": "electric_scooter"}, {"fusion_lat": 0.0, "fusion_lon": 0.0, "rental_uris": {"android": "https://dc.lft.to/lastmile_qr_scan", "ios": "https://dc.lft.to/lastmile_qr_scan"}, "lon": -77.0427765, "name": "11a62e6582edb2a7ea590d48fe2d49d7", "is_disabled": 0, "is_reserved": 0, "bike_id": "11a62e6582edb2a7ea590d48fe2d49d7", "lat": 38.90553883333333, "type": "electric_scooter"}, {"fusion_lat": 0.0, "fusion_lon": 0.0, "rental_uris": {"android": "https://dc.lft.to/lastmile_qr_scan", "ios": "https://dc.lft.to/lastmile_qr_scan"}, "lon": -77.03852216666667, "name": "fc3fe4bdc773716548dbea48103593bb", "is_disabled": 0, "is_reserved": 0, "bike_id": "fc3fe4bdc773716548dbea48103593bb", "lat": 38.902815333333336, "type": "electric_scooter"}, {"fusion_lat": 0.0, "fusion_lon": 0.0, "rental_uris": {"android": "https://dc.lft.to/lastmile_qr_scan", "ios": "https://dc.lft.to/lastmile_qr_scan"}, "lon": -77.03797616666667, "name": "f819430c54715b443041435ff59b24d0", "is_disabled": 0, "is_reserved": 0, "bike_id": "f819430c54715b443041435ff59b24d0", "lat": 38.920682166666666, "type": "electric_scooter"}, {"fusion_lat": 0.0, "fusion_lon": 0.0, "rental_uris": {"android": "https://dc.lft.to/lastmile_qr_scan", "ios": "https://dc.lft.to/lastmile_qr_scan"}, "lon": -77.04698333333333, "name": "6349313b8011e13495dfe1c20f1d60f7", "is_disabled": 0, "is_reserved": 0, "bike_id": "6349313b8011e13495dfe1c20f1d60f7", "lat": 38.89736116666667, "type": "electric_scooter"}, {"fusion_lat": 0.0, "fusion_lon": 0.0, "rental_uris": {"android": "https://dc.lft.to/lastmile_qr_scan", "ios": "https://dc.lft.to/lastmile_qr_scan"}, "lon": -76.97781283333333, "name": "bacb3acc053dc9b5cc7c37d4682331e2", "is_disabled": 0, "is_reserved": 0, "bike_id": "bacb3acc053dc9b5cc7c37d4682331e2", "lat": 38.90565516666667, "type": "electric_scooter"}, {"fusion_lat": 0.0, "fusion_lon": 0.0, "rental_uris": {"android": "https://dc.lft.to/lastmile_qr_scan", "ios": "https://dc.lft.to/lastmile_qr_scan"}, "lon": -77.0435035, "name": "84f4027127e18da438831b0ae38fbfce", "is_disabled": 0, "is_reserved": 0, "bike_id": "84f4027127e18da438831b0ae38fbfce", "lat": 38.90496066666667, "type": "electric_scooter"}, {"fusion_lat": 0.0, "fusion_lon": 0.0, "rental_uris": {"android": "https://dc.lft.to/lastmile_qr_scan", "ios": "https://dc.lft.to/lastmile_qr_scan"}, "lon": -77.00062066666666, "name": "cea5f9132b0619f6f1c958b9fe1077aa", "is_disabled": 0, "is_reserved": 0, "bike_id": "cea5f9132b0619f6f1c958b9fe1077aa", "lat": 38.876848833333334, "type": "electric_scooter"}, {"fusion_lat": 0.0, "fusion_lon": 0.0, "rental_uris": {"android": "https://dc.lft.to/lastmile_qr_scan", "ios": "https://dc.lft.to/lastmile_qr_scan"}, "lon": -77.04670066666667, "name": "f5cf24b7dbc4ad565893b8a3b9837756", "is_disabled": 0, "is_reserved": 0, "bike_id": "f5cf24b7dbc4ad565893b8a3b9837756", "lat": 38.898989666666665, "type": "electric_scooter"}, {"fusion_lat": 0.0, "fusion_lon": 0.0, "rental_uris": {"android": "https://dc.lft.to/lastmile_qr_scan", "ios": "https://dc.lft.to/lastmile_qr_scan"}, "lon": -77.02876383333333, "name": "5e5d8911f140acfe146b13860a596109", "is_disabled": 0, "is_reserved": 0, "bike_id": "5e5d8911f140acfe146b13860a596109", "lat": 38.95723666666667, "type": "electric_scooter"}, {"fusion_lat": 0.0, "fusion_lon": 0.0, "rental_uris": {"android": "https://dc.lft.to/lastmile_qr_scan", "ios": "https://dc.lft.to/lastmile_qr_scan"}, "lon": -76.97954733333333, "name": "baee3b2edd6505b1627a5f2a0df825f2", "is_disabled": 0, "is_reserved": 0, "bike_id": "baee3b2edd6505b1627a5f2a0df825f2", "lat": 38.905013, "type": "electric_scooter"}, {"fusion_lat": 0.0, "fusion_lon": 0.0, "rental_uris": {"android": "https://dc.lft.to/lastmile_qr_scan", "ios": "https://dc.lft.to/lastmile_qr_scan"}, "lon": -77.0068125, "name": "af8ea97a3ccc738e3c6467df36a7524d", "is_disabled": 0, "is_reserved": 0, "bike_id": "af8ea97a3ccc738e3c6467df36a7524d", "lat": 38.87168366666667, "type": "electric_scooter"}, {"fusion_lat": 0.0, "fusion_lon": 0.0, "rental_uris": {"android": "https://dc.lft.to/lastmile_qr_scan", "ios": "https://dc.lft.to/lastmile_qr_scan"}, "lon": -77.03263783333334, "name": "2b8d4a6e9de283a0777c31fa6c1f7a2f", "is_disabled": 0, "is_reserved": 0, "bike_id": "2b8d4a6e9de283a0777c31fa6c1f7a2f", "lat": 38.929319166666666, "type": "electric_scooter"}, {"fusion_lat": 0.0, "fusion_lon": 0.0, "rental_uris": {"android": "https://dc.lft.to/lastmile_qr_scan", "ios": "https://dc.lft.to/lastmile_qr_scan"}, "lon": -77.04283816666667, "name": "44cd8eea092a20cf744a15a34cdc6721", "is_disabled": 0, "is_reserved": 0, "bike_id": "44cd8eea092a20cf744a15a34cdc6721", "lat": 38.908589166666665, "type": "electric_scooter"}, {"fusion_lat": 0.0, "fusion_lon": 0.0, "rental_uris": {"android": "https://dc.lft.to/lastmile_qr_scan", "ios": "https://dc.lft.to/lastmile_qr_scan"}, "lon": -77.02013416666667, "name": "21a16f7e31adfd62957425392bbebcdf", "is_disabled": 0, "is_reserved": 0, "bike_id": "21a16f7e31adfd62957425392bbebcdf", "lat": 38.895384666666665, "type": "electric_scooter"}, {"fusion_lat": 0.0, "fusion_lon": 0.0, "rental_uris": {"android": "https://dc.lft.to/lastmile_qr_scan", "ios": "https://dc.lft.to/lastmile_qr_scan"}, "lon": -77.0216065, "name": "28810aae95aa8660ee507fb7d1d095c6", "is_disabled": 0, "is_reserved": 0, "bike_id": "28810aae95aa8660ee507fb7d1d095c6", "lat": 38.9261155, "type": "electric_scooter"}, {"fusion_lat": 0.0, "fusion_lon": 0.0, "rental_uris": {"android": "https://dc.lft.to/lastmile_qr_scan", "ios": "https://dc.lft.to/lastmile_qr_scan"}, "lon": -77.11074216666667, "name": "60a712a8b940c1dc2fbc48462d3af98e", "is_disabled": 0, "is_reserved": 0, "bike_id": "60a712a8b940c1dc2fbc48462d3af98e", "lat": 39.01225633333333, "type": "electric_bike"}, {"fusion_lat": 0.0, "fusion_lon": 0.0, "rental_uris": {"android": "https://dc.lft.to/lastmile_qr_scan", "ios": "https://dc.lft.to/lastmile_qr_scan"}, "lon": -77.01764083333333, "name": "82ffd62e8ee32379e3038e297bd6f73c", "is_disabled": 0, "is_reserved": 0, "bike_id": "82ffd62e8ee32379e3038e297bd6f73c", "lat": 38.8772125, "type": "electric_scooter"}, {"fusion_lat": 0.0, "fusion_lon": 0.0, "rental_uris": {"android": "https://dc.lft.to/lastmile_qr_scan", "ios": "https://dc.lft.to/lastmile_qr_scan"}, "lon": -77.0242395, "name": "c146ef1798c1080738e84335e8cc9695", "is_disabled": 0, "is_reserved": 0, "bike_id": "c146ef1798c1080738e84335e8cc9695", "lat": 38.93706183333333, "type": "electric_scooter"}, {"fusion_lat": 0.0, "fusion_lon": 0.0, "rental_uris": {"android": "https://dc.lft.to/lastmile_qr_scan", "ios": "https://dc.lft.to/lastmile_qr_scan"}, "lon": -77.01557983333333, "name": "d6f291d29eb2c66468834f5c58d3f5b1", "is_disabled": 0, "is_reserved": 0, "bike_id": "d6f291d29eb2c66468834f5c58d3f5b1", "lat": 38.9267655, "type": "electric_scooter"}, {"fusion_lat": 0.0, "fusion_lon": 0.0, "rental_uris": {"android": "https://dc.lft.to/lastmile_qr_scan", "ios": "https://dc.lft.to/lastmile_qr_scan"}, "lon": -77.0600715, "name": "c950402282fcc611c79cf74648c5160a", "is_disabled": 0, "is_reserved": 0, "bike_id": "c950402282fcc611c79cf74648c5160a", "lat": 38.936391, "type": "electric_scooter"}, {"fusion_lat": 0.0, "fusion_lon": 0.0, "rental_uris": {"android": "https://dc.lft.to/lastmile_qr_scan", "ios": "https://dc.lft.to/lastmile_qr_scan"}, "lon": -77.0453215, "name": "e627344f4066386a957e740dc2e22802", "is_disabled": 0, "is_reserved": 0, "bike_id": "e627344f4066386a957e740dc2e22802", "lat": 38.894699333333335, "type": "electric_scooter"}, {"fusion_lat": 0.0, "fusion_lon": 0.0, "rental_uris": {"android": "https://dc.lft.to/lastmile_qr_scan", "ios": "https://dc.lft.to/lastmile_qr_scan"}, "lon": -77.01196866666666, "name": "e65ec0055400d3c051137fe68470098e", "is_disabled": 0, "is_reserved": 0, "bike_id": "e65ec0055400d3c051137fe68470098e", "lat": 38.917040166666666, "type": "electric_scooter"}, {"fusion_lat": 0.0, "fusion_lon": 0.0, "rental_uris": {"android": "https://dc.lft.to/lastmile_qr_scan", "ios": "https://dc.lft.to/lastmile_qr_scan"}, "lon": -77.025066, "name": "bac6619310f08152f38058dbf27af888", "is_disabled": 0, "is_reserved": 0, "bike_id": "bac6619310f08152f38058dbf27af888", "lat": 38.918050666666666, "type": "electric_scooter"}, {"fusion_lat": 0.0, "fusion_lon": 0.0, "rental_uris": {"android": "https://dc.lft.to/lastmile_qr_scan", "ios": "https://dc.lft.to/lastmile_qr_scan"}, "lon": -77.0354515, "name": "0d71be98679383b973fd0022a9796bdd", "is_disabled": 0, "is_reserved": 0, "bike_id": "0d71be98679383b973fd0022a9796bdd", "lat": 38.9188815, "type": "electric_scooter"}, {"fusion_lat": 0.0, "fusion_lon": 0.0, "rental_uris": {"android": "https://dc.lft.to/lastmile_qr_scan", "ios": "https://dc.lft.to/lastmile_qr_scan"}, "lon": -76.93732416666667, "name": "08ba57ed5814f3be02cfc814147e733f", "is_disabled": 0, "is_reserved": 0, "bike_id": "08ba57ed5814f3be02cfc814147e733f", "lat": 38.89013083333333, "type": "electric_scooter"}, {"fusion_lat": 0.0, "fusion_lon": 0.0, "rental_uris": {"android": "https://dc.lft.to/lastmile_qr_scan", "ios": "https://dc.lft.to/lastmile_qr_scan"}, "lon": -77.04593316666667, "name": "535d1c431dea114d84d36c5372991a80", "is_disabled": 0, "is_reserved": 0, "bike_id": "535d1c431dea114d84d36c5372991a80", "lat": 38.921398833333335, "type": "electric_scooter"}, {"fusion_lat": 0.0, "fusion_lon": 0.0, "rental_uris": {"android": "https://dc.lft.to/lastmile_qr_scan", "ios": "https://dc.lft.to/lastmile_qr_scan"}, "lon": -77.02712016666666, "name": "0f349fb044249c6e6fa4cf139a15dc6a", "is_disabled": 0, "is_reserved": 0, "bike_id": "0f349fb044249c6e6fa4cf139a15dc6a", "lat": 38.91720516666667, "type": "electric_scooter"}, {"fusion_lat": 0.0, "fusion_lon": 0.0, "rental_uris": {"android": "https://dc.lft.to/lastmile_qr_scan", "ios": "https://dc.lft.to/lastmile_qr_scan"}, "lon": -77.04341933333333, "name": "7486442a7b56058e663674eddeaa5b62", "is_disabled": 0, "is_reserved": 0, "bike_id": "7486442a7b56058e663674eddeaa5b62", "lat": 38.90619016666667, "type": "electric_scooter"}, {"fusion_lat": 0.0, "fusion_lon": 0.0, "rental_uris": {"android": "https://dc.lft.to/lastmile_qr_scan", "ios": "https://dc.lft.to/lastmile_qr_scan"}, "lon": -77.020091, "name": "fcda3f4ed5078445776ebb3a905b99ce", "is_disabled": 0, "is_reserved": 0, "bike_id": "fcda3f4ed5078445776ebb3a905b99ce", "lat": 38.897687166666664, "type": "electric_scooter"}, {"fusion_lat": 0.0, "fusion_lon": 0.0, "rental_uris": {"android": "https://dc.lft.to/lastmile_qr_scan", "ios": "https://dc.lft.to/lastmile_qr_scan"}, "lon": -76.904197, "name": "f13683c4297db34ab72bc105d258a22e", "is_disabled": 0, "is_reserved": 0, "bike_id": "f13683c4297db34ab72bc105d258a22e", "lat": 38.940486, "type": "electric_bike"}, {"fusion_lat": 0.0, "fusion_lon": 0.0, "rental_uris": {"android": "https://dc.lft.to/lastmile_qr_scan", "ios": "https://dc.lft.to/lastmile_qr_scan"}, "lon": -77.0382805, "name": "a3fc4e8a8291570dfb2ab1f61639b940", "is_disabled": 0, "is_reserved": 0, "bike_id": "a3fc4e8a8291570dfb2ab1f61639b940", "lat": 38.903241, "type": "electric_scooter"}, {"fusion_lat": 0.0, "fusion_lon": 0.0, "rental_uris": {"android": "https://dc.lft.to/lastmile_qr_scan", "ios": "https://dc.lft.to/lastmile_qr_scan"}, "lon": -77.01242083333334, "name": "f4ac7165fb27b9e23bf4490032532b64", "is_disabled": 0, "is_reserved": 0, "bike_id": "f4ac7165fb27b9e23bf4490032532b64", "lat": 38.931095, "type": "electric_scooter"}, {"fusion_lat": 0.0, "fusion_lon": 0.0, "rental_uris": {"android": "https://dc.lft.to/lastmile_qr_scan", "ios": "https://dc.lft.to/lastmile_qr_scan"}, "lon": -77.03049733333333, "name": "31cc69c20e5230f8a519d2f093190360", "is_disabled": 0, "is_reserved": 0, "bike_id": "31cc69c20e5230f8a519d2f093190360", "lat": 38.90529183333334, "type": "electric_scooter"}, {"fusion_lat": 0.0, "fusion_lon": 0.0, "rental_uris": {"android": "https://dc.lft.to/lastmile_qr_scan", "ios": "https://dc.lft.to/lastmile_qr_scan"}, "lon": -77.03464683333333, "name": "da4248d2b717a7bed654c8aa8a851a53", "is_disabled": 0, "is_reserved": 0, "bike_id": "da4248d2b717a7bed654c8aa8a851a53", "lat": 38.90261683333333, "type": "electric_scooter"}, {"fusion_lat": 0.0, "fusion_lon": 0.0, "rental_uris": {"android": "https://dc.lft.to/lastmile_qr_scan", "ios": "https://dc.lft.to/lastmile_qr_scan"}, "lon": -77.00817366666666, "name": "641b24e8c6e49338ac4f010712adcf36", "is_disabled": 0, "is_reserved": 0, "bike_id": "641b24e8c6e49338ac4f010712adcf36", "lat": 38.8315995, "type": "electric_scooter"},