{"data": {"bikes": [{"lon": -77.03276033333333, "rental_uris": {"android": "https://dc.lft.to/lastmile_qr_scan", "ios": "https://dc.lft.to/lastmile_qr_scan"}, "fusion_lon": 0.0, "is_reserved": 0, "is_disabled": 0, "fusion_lat": 0.0, "type": "electric_scooter", "name": "feba66bf9c25bd91b41fc221bb07500f", "lat": 38.8989775, "bike_id": "feba66bf9c25bd91b41fc221bb07500f"}, {"lon": -77.04137233333333, "rental_uris": {"android": "https://dc.lft.to/lastmile_qr_scan", "ios": "https://dc.lft.to/lastmile_qr_scan"}, "fusion_lon": 0.0, "is_reserved": 0, "is_disabled": 0, "fusion_lat": 0.0, "type": "electric_scooter", "name": "213b79f257d098204de0c82c325da690", "lat": 38.907371166666664, "bike_id": "213b79f257d098204de0c82c325da690"}, {"lon": -77.0313025, "rental_uris": {"android": "https://dc.lft.to/lastmile_qr_scan", "ios": "https://dc.lft.to/lastmile_qr_scan"}, "fusion_lon": 0.0, "is_reserved": 0, "is_disabled": 0, "fusion_lat": 0.0, "type": "electric_scooter", "name": "918f4e34d0300f45a93ea5a6aa311efa", "lat": 38.897360166666665, "bike_id": "918f4e34d0300f45a93ea5a6aa311efa"}, {"lon": -77.045378, "rental_uris": {"android": "https://dc.lft.to/lastmile_qr_scan", "ios": "https://dc.lft.to/lastmile_qr_scan"}, "fusion_lon": 0.0, "is_reserved": 0, "is_disabled": 0, "fusion_lat": 0.0, "type": "electric_scooter", "name": "6fe07a38aaab2d3e422a7ef8fabc7840", "lat": 38.911985, "bike_id": "6fe07a38aaab2d3e422a7ef8fabc7840"}, {"lon": -77.04334916666667, "rental_uris": {"android": "https://dc.lft.to/lastmile_qr_scan", "ios": "https://dc.lft.to/lastmile_qr_scan"}, "fusion_lon": 0.0, "is_reserved": 0, "is_disabled": 0, "fusion_lat": 0.0, "type": "electric_scooter", "name": "caf4f4f7e0567e8502611e44109d0706", "lat": 38.905522833333336, "bike_id": "caf4f4f7e0567e8502611e44109d0706"}, {"lon": -77.03284016666667, "rental_uris": {"android": "https://dc.lft.to/lastmile_qr_scan", "ios": "https://dc.lft.to/lastmile_qr_scan"}, "fusion_lon": 0.0, "is_reserved": 0, "is_disabled": 0, "fusion_lat": 0.0, "type": "electric_scooter", "name": "1366378d0d5082fe42a5d6790e167964", "lat": 38.937769833333334, "bike_id": "1366378d0d5082fe42a5d6790e167964"}, {"lon": -76.98650383333333, "rental_uris": {"android": "https://dc.lft.to/lastmile_qr_scan", "ios": "https://dc.lft.to/lastmile_qr_scan"}, "fusion_lon": 0.0, "is_reserved": 0, "is_disabled": 0, "fusion_lat": 0.0, "type": "electric_scooter", "name": "a0ea43c6e466d144b37042144b3e802a", "lat": 38.8975965, "bike_id": "a0ea43c6e466d144b37042144b3e802a"}, {"lon": -77.0247825, "rental_uris": {"android": "https://dc.lft.to/lastmile_qr_scan", "ios": "https://dc.lft.to/lastmile_qr_scan"}, "fusion_lon": 0.0, "is_reserved": 0, "is_disabled": 0, "fusion_lat": 0.0, "type": "electric_scooter", "name": "01672f35f24dd7768804ebb61464d914", "lat": 38.94201266666666, "bike_id": "01672f35f24dd7768804ebb61464d914"}, {"lon": -77.01941933333333, "rental_uris": {"android": "https://dc.lft.to/lastmile_qr_scan", "ios": "https://dc.lft.to/lastmile_qr_scan"}, "fusion_lon": 0.0, "is_reserved": 0, "is_disabled": 0, "fusion_lat": 0.0, "type": "electric_scooter", "name": "548c4970f821fde6c25f8c524076f65b", "lat": 38.922673833333334, "bike_id": "548c4970f821fde6c25f8c524076f65b"}, {"lon": -77.031753, "rental_uris": {"android": "https://dc.lft.to/lastmile_qr_scan", "ios": "https://dc.lft.to/lastmile_qr_scan"}, "fusion_lon": 0.0, "is_reserved": 0, "is_disabled": 0, "fusion_lat": 0.0, "type": "electric_scooter", "name": "c79e011bb401c05d1b5523b7240e2ed2", "lat": 38.91419116666667, "bike_id": "c79e011bb401c05d1b5523b7240e2ed2"}, {"lon": -77.02702633333334, "rental_uris": {"android": "https://dc.lft.to/lastmile_qr_scan", "ios": "https://dc.lft.to/lastmile_qr_scan"}, "fusion_lon": 0.0, "is_reserved": 0, "is_disabled": 0, "fusion_lat": 0.0, "type": "electric_scooter", "name": "eddbc6ab38c3fd1f63f6c50ead98548e", "lat": 38.906703, "bike_id": "eddbc6ab38c3fd1f63f6c50ead98548e"}, {"lon": -77.02827583333334, "rental_uris": {"android": "https://dc.lft.to/lastmile_qr_scan", "ios": "https://dc.lft.to/lastmile_qr_scan"}, "fusion_lon": 0.0, "is_reserved": 0, "is_disabled": 0, "fusion_lat": 0.0, "type": "electric_scooter", "name": "854ed2d43d837a52b33ff9ec6ac16b16", "lat": 38.886632166666665, "bike_id": "854ed2d43d837a52b33ff9ec6ac16b16"}, {"lon": -77.026023, "rental_uris": {"android": "https://dc.lft.to/lastmile_qr_scan", "ios": "https://dc.lft.to/lastmile_qr_scan"}, "fusion_lon": 0.0, "is_reserved": 0, "is_disabled": 0, "fusion_lat": 0.0, "type": "electric_scooter", "name": "71f0e3c0afae14318db1c5e05e79960b", "lat": 38.90597416666667, "bike_id": "71f0e3c0afae14318db1c5e05e79960b"}, {"lon": -77.02778633333334, "rental_uris": {"android": "https://dc.lft.to/lastmile_qr_scan", "ios": "https://dc.lft.to/lastmile_qr_scan"}, "fusion_lon": 0.0, "is_reserved": 0, "is_disabled": 0, "fusion_lat": 0.0, "type": "electric_scooter", "name": "46bd8ef4f6f0aba4f81105b7251daa5b", "lat": 38.89221966666667, "bike_id": "46bd8ef4f6f0aba4f81105b7251daa5b"}, {"lon": -77.02569066666666, "rental_uris": {"android": "https://dc.lft.to/lastmile_qr_scan", "ios": "https://dc.lft.to/lastmile_qr_scan"}, "fusion_lon": 0.0, "is_reserved": 0, "is_disabled": 0, "fusion_lat": 0.0, "type": "electric_scooter", "name": "f53221a07a5d0afb5ab97215215895c7", "lat": 38.901393166666665, "bike_id": "f53221a07a5d0afb5ab97215215895c7"}, {"lon": -77.06779033333333, "rental_uris": {"android": "https://dc.lft.to/lastmile_qr_scan", "ios": "https://dc.lft.to/lastmile_qr_scan"}, "fusion_lon": 0.0, "is_reserved": 0, "is_disabled": 0, "fusion_lat": 0.0, "type": "electric_scooter", "name": "fb0326c12cc60756e42870bb89a17174", "lat": 38.90885983333333, "bike_id": "fb0326c12cc60756e42870bb89a17174"}, {"lon": -77.02734933333333, "rental_uris": {"android": "https://dc.lft.to/lastmile_qr_scan", "ios": "https://dc.lft.to/lastmile_qr_scan"}, "fusion_lon": 0.0, "is_reserved": 0, "is_disabled": 0, "fusion_lat": 0.0, "type": "electric_scooter", "name": "eb5480bddc62376ebabbae850791e070", "lat": 38.952051, "bike_id": "eb5480bddc62376ebabbae850791e070"}, {"lon": -77.02261783333333, "rental_uris": {"android": "https://dc.lft.to/lastmile_qr_scan", "ios": "https://dc.lft.to/lastmile_qr_scan"}, "fusion_lon": 0.0, "is_reserved": 0, "is_disabled": 0, "fusion_lat": 0.0, "type": "electric_scooter", "name": "855eef16429f653bd1a4c25f98c839bd", "lat": 38.924117, "bike_id": "855eef16429f653bd1a4c25f98c839bd"}, {"lon": -77.043211, "rental_uris": {"android": "https://dc.lft.to/lastmile_qr_scan", "ios": "https://dc.lft.to/lastmile_qr_scan"}, "fusion_lon": 0.0, "is_reserved": 0, "is_disabled": 0, "fusion_lat": 0.0, "type": "electric_scooter", "name": "44e474faede19ba05869a5c2ab9ee750", "lat": 38.91026216666667, "bike_id": "44e474faede19ba05869a5c2ab9ee750"}, {"lon": -77.01763616666666, "rental_uris": {"android": "https://dc.lft.to/lastmile_qr_scan", "ios": "https://dc.lft.to/lastmile_qr_scan"}, "fusion_lon": 0.0, "is_reserved": 0, "is_disabled": 0, "fusion_lat": 0.0, "type": "electric_scooter", "name": "a89fd21d8d0de3e91d7a8b48beedf49d", "lat": 38.919417833333334, "bike_id": "a89fd21d8d0de3e91d7a8b48beedf49d"}, {"lon": -77.021595, "rental_uris": {"android": "https://dc.lft.to/lastmile_qr_scan", "ios": "https://dc.lft.to/lastmile_qr_scan"}, "fusion_lon": 0.0, "is_reserved": 0, "is_disabled": 0, "fusion_lat": 0.0, "type": "electric_scooter", "name": "a3b65ca822709314bd650d3ee22862cc", "lat": 38.895597, "bike_id": "a3b65ca822709314bd650d3ee22862cc"}, {"lon": -77.04944, "rental_uris": {"android": "https://dc.lft.to/lastmile_qr_scan", "ios": "https://dc.lft.to/lastmile_qr_scan"}, "fusion_lon": 0.0, "is_reserved": 0, "is_disabled": 0, "fusion_lat": 0.0, "type": "electric_scooter", "name": "127adb5107fa39fbc4943304ff9466a9", "lat": 38.90086483333333, "bike_id": "127adb5107fa39fbc4943304ff9466a9"}, {"lon": -77.04885383333334, "rental_uris": {"android": "https://dc.lft.to/lastmile_qr_scan", "ios": "https://dc.lft.to/lastmile_qr_scan"}, "fusion_lon": 0.0, "is_reserved": 0, "is_disabled": 0, "fusion_lat": 0.0, "type": "electric_scooter", "name": "b0021176cc272a85d458b299d15f447b", "lat": 38.9004055, "bike_id": "b0021176cc272a85d458b299d15f447b"}, {"lon": -77.0328155, "rental_uris": {"android": "https://dc.lft.to/lastmile_qr_scan", "ios": "https://dc.lft.to/lastmile_qr_scan"}, "fusion_lon": 0.0, "is_reserved": 0, "is_disabled": 0, "fusion_lat": 0.0, "type": "electric_scooter", "name": "b4fb4c5adb405d7ff6d25b47282c356c", "lat": 38.93882416666667, "bike_id": "b4fb4c5adb405d7ff6d25b47282c356c"}, {"lon": -77.03352133333334, "rental_uris": {"android": "https://dc.lft.to/lastmile_qr_scan", "ios": "https://dc.lft.to/lastmile_qr_scan"}, "fusion_lon": 0.0, "is_reserved": 0, "is_disabled": 0, "fusion_lat": 0.0, "type": "electric_scooter", "name": "06187b37a7a89edf6539966c0c9fc60c", "lat": 38.88771583333333, "bike_id": "06187b37a7a89edf6539966c0c9fc60c"}, {"lon": -77.02912116666667, "rental_uris": {"android": "https://dc.lft.to/lastmile_qr_scan", "ios": "https://dc.lft.to/lastmile_qr_scan"}, "fusion_lon": 0.0, "is_reserved": 0, "is_disabled": 0, "fusion_lat": 0.0, "type": "electric_scooter", "name": "9572c35028eadf77204d0f26dbfe4629", "lat": 38.933348333333335, "bike_id": "9572c35028eadf77204d0f26dbfe4629"}, {"lon": -76.98435066666667, "rental_uris": {"android": "https://dc.lft.to/lastmile_qr_scan", "ios": "https://dc.lft.to/lastmile_qr_scan"}, "fusion_lon": 0.0, "is_reserved": 0, "is_disabled": 0, "fusion_lat": 0.0, "type": "electric_scooter", "name": "23f4930cab814967a77b9532df13f9b1", "lat": 38.9327785, "bike_id": "23f4930cab814967a77b9532df13f9b1"}, {"lon": -77.0527465, "rental_uris": {"android": "https://dc.lft.to/lastmile_qr_scan", "ios": "https://dc.lft.to/lastmile_qr_scan"}, "fusion_lon": 0.0, "is_reserved": 0, "is_disabled": 0, "fusion_lat": 0.0, "type": "electric_scooter", "name": "922e33b855f666ff9a2d8d3f1bb423f7", "lat": 38.927663833333334, "bike_id": "922e33b855f666ff9a2d8d3f1bb423f7"}, {"lon": -77.018819, "rental_uris": {"android": "https://dc.lft.to/lastmile_qr_scan", "ios": "https://dc.lft.to/lastmile_qr_scan"}, "fusion_lon": 0.0, "is_reserved": 0, "is_disabled": 0, "fusion_lat": 0.0, "type": "electric_scooter", "name": "96715b26234d771b763c6b0881854f45", "lat": 38.922695833333336, "bike_id": "96715b26234d771b763c6b0881854f45"}, {"lon": -77.02377633333333, "rental_uris": {"android": "https://dc.lft.to/lastmile_qr_scan", "ios": "https://dc.lft.to/lastmile_qr_scan"}, "fusion_lon": 0.0, "is_reserved": 0, "is_disabled": 0, "fusion_lat": 0.0, "type": "electric_scooter", "name": "1042e7acda4aba593f26c93b0a58447e", "lat": 38.89197733333334, "bike_id": "1042e7acda4aba593f26c93b0a58447e"}, {"lon": -77.01015733333334, "rental_uris": {"android": "https://dc.lft.to/lastmile_qr_scan", "ios": "https://dc.lft.to/lastmile_qr_scan"}, "fusion_lon": 0.0, "is_reserved": 0, "is_disabled": 0, "fusion_lat": 0.0, "type": "electric_scooter", "name": "9fba292ac72b60818c2ea19f1eb10d73", "lat": 38.914101333333335, "bike_id": "9fba292ac72b60818c2ea19f1eb10d73"}, {"lon": -77.02155683333334, "rental_uris": {"android": "https://dc.lft.to/lastmile_qr_scan", "ios": "https://dc.lft.to/lastmile_qr_scan"}, "fusion_lon": 0.0, "is_reserved": 0, "is_disabled": 0, "fusion_lat": 0.0, "type": "electric_scooter", "name": "3adf020ee1e914dfb45aa7558da77403", "lat": 38.92603166666667, "bike_id": "3adf020ee1e914dfb45aa7558da77403"}, {"lon": -76.93176666666666, "rental_uris": {"android": "https://dc.lft.to/lastmile_qr_scan", "ios": "https://dc.lft.to/lastmile_qr_scan"}, "fusion_lon": 0.0, "is_reserved": 0, "is_disabled": 0, "fusion_lat": 0.0, "type": "electric_scooter", "name": "ff5a82e028516c8fd9f815a2c6b8b864", "lat": 38.898896, "bike_id": "ff5a82e028516c8fd9f815a2c6b8b864"}, {"lon": -77.0214695, "rental_uris": {"android": "https://dc.lft.to/lastmile_qr_scan", "ios": "https://dc.lft.to/lastmile_qr_scan"}, "fusion_lon": 0.0, "is_reserved": 0, "is_disabled": 0, "fusion_lat": 0.0, "type": "electric_bike", "name": "f755b0075b6b7ce1fc134986101f2038", "lat": 38.89564816666667, "bike_id": "f755b0075b6b7ce1fc134986101f2038"}, {"lon": -77.043513, "rental_uris": {"android": "https://dc.lft.to/lastmile_qr_scan", "ios": "https://dc.lft.to/lastmile_qr_scan"}, "fusion_lon": 0.0, "is_reserved": 0, "is_disabled": 0, "fusion_lat": 0.0, "type": "electric_scooter", "name": "c7ba3a8c4be8242752df2c97ee712183", "lat": 38.90373966666667, "bike_id": "c7ba3a8c4be8242752df2c97ee712183"}, {"lon": -77.01992583333333, "rental_uris": {"android": "https://dc.lft.to/lastmile_qr_scan", "ios": "https://dc.lft.to/lastmile_qr_scan"}, "fusion_lon": 0.0, "is_reserved": 0, "is_disabled": 0, "fusion_lat": 0.0, "type": "electric_scooter", "name": "2e66e94857496b8fabd74608b85a1408", "lat": 38.914924166666665, "bike_id": "2e66e94857496b8fabd74608b85a1408"}, {"lon": -77.042524, "rental_uris": {"android": "https://dc.lft.to/lastmile_qr_scan", "ios": "https://dc.lft.to/lastmile_qr_scan"}, "fusion_lon": 0.0, "is_reserved": 0, "is_disabled": 0, "fusion_lat": 0.0, "type": "electric_scooter", "name": "1bb845f8385704ebe05254c5c509a282", "lat": 38.92192466666667, "bike_id": "1bb845f8385704ebe05254c5c509a282"}, {"lon": -77.02796866666667, "rental_uris": {"android": "https://dc.lft.to/lastmile_qr_scan", "ios": "https://dc.lft.to/lastmile_qr_scan"}, "fusion_lon": 0.0, "is_reserved": 0, "is_disabled": 0, "fusion_lat": 0.0, "type": "electric_scooter", "name": "6000a9a5582bf16fd9cc4ed2611c0ce9", "lat": 38.94453633333333, "bike_id": "6000a9a5582bf16fd9cc4ed2611c0ce9"}, {"lon": -76.98296516666667, "rental_uris": {"android": "https://dc.lft.to/lastmile_qr_scan", "ios": "https://dc.lft.to/lastmile_qr_scan"}, "fusion_lon": 0.0, "is_reserved": 0, "is_disabled": 0, "fusion_lat": 0.0, "type": "electric_scooter", "name": "b01df3ae058b4aef53dfab8e5b13ef5f", "lat": 38.88769033333333, "bike_id": "b01df3ae058b4aef53dfab8e5b13ef5f"}, {"lon": -77.02475266666667, "rental_uris": {"android": "https://dc.lft.to/lastmile_qr_scan", "ios": "https://dc.lft.to/lastmile_qr_scan"}, "fusion_lon": 0.0, "is_reserved": 0, "is_disabled": 0, "fusion_lat": 0.0, "type": "electric_scooter", "name": "4e7285dbffce8515b22e6d37aec880ee", "lat": 38.91817983333333, "bike_id": "4e7285dbffce8515b22e6d37aec880ee"}, {"lon": -77.04492933333333, "rental_uris": {"android": "https://dc.lft.to/lastmile_qr_scan", "ios": "https://dc.lft.to/lastmile_qr_scan"}, "fusion_lon": 0.0, "is_reserved": 0, "is_disabled": 0, "fusion_lat": 0.0, "type": "electric_scooter", "name": "d93c14118df975fa4115bcd40fdac449", "lat": 38.8984345, "bike_id": "d93c14118df975fa4115bcd40fdac449"}, {"lon": -77.041899, "rental_uris": {"android": "https://dc.lft.to/lastmile_qr_scan", "ios": "https://dc.lft.to/lastmile_qr_scan"}, "fusion_lon": 0.0, "is_reserved": 0, "is_disabled": 0, "fusion_lat": 0.0, "type": "electric_scooter", "name": "e24a447357415df63b8a117500261080", "lat": 38.898048, "bike_id": "e24a447357415df63b8a117500261080"}, {"lon": -77.035771, "rental_uris": {"android": "https://dc.lft.to/lastmile_qr_scan", "ios": "https://dc.lft.to/lastmile_qr_scan"}, "fusion_lon": 0.0, "is_reserved": 0, "is_disabled": 0, "fusion_lat": 0.0, "type": "electric_scooter", "name": "1e3241284eba213bcbcb00ea9e2bfe1b", "lat": 38.906959, "bike_id": "1e3241284eba213bcbcb00ea9e2bfe1b"}, {"lon": -77.02889166666667, "rental_uris": {"android": "https://dc.lft.to/lastmile_qr_scan", "ios": "https://dc.lft.to/lastmile_qr_scan"}, "fusion_lon": 0.0, "is_reserved": 0, "is_disabled": 0, "fusion_lat": 0.0, "type": "electric_scooter", "name": "6ca972277311a4a9bc9437afbe235533", "lat": 38.904716, "bike_id": "6ca972277311a4a9bc9437afbe235533"}, {"lon": -77.01472783333334, "rental_uris": {"android": "https://dc.lft.to/lastmile_qr_scan", "ios": "https://dc.lft.to/lastmile_qr_scan"}, "fusion_lon": 0.0, "is_reserved": 0, "is_disabled": 0, "fusion_lat": 0.0, "type": "electric_scooter", "name": "eb1f591e864637f6c2f6a794ccc1e4d4", "lat": 38.91597316666667, "bike_id": "eb1f591e864637f6c2f6a794ccc1e4d4"}, {"lon": -77.0326195, "rental_uris": {"android": "https://dc.lft.to/lastmile_qr_scan", "ios": "https://dc.lft.to/lastmile_qr_scan"}, "fusion_lon": 0.0, "is_reserved": 0, "is_disabled": 0, "fusion_lat": 0.0, "type": "electric_scooter", "name": "426057d6222b4fe240ce46b707fe7cd6", "lat": 38.929763, "bike_id": "426057d6222b4fe240ce46b707fe7cd6"}, {"lon": -77.04678166666666, "rental_uris": {"android": "https://dc.lft.to/lastmile_qr_scan", "ios": "https://dc.lft.to/lastmile_qr_scan"}, "fusion_lon": 0.0, "is_reserved": 0, "is_disabled": 0, "fusion_lat": 0.0, "type": "electric_scooter", "name": "132d9cdb23e0cfd417bb96aeb39ce844", "lat": 38.892225, "bike_id": "132d9cdb23e0cfd417bb96aeb39ce844"}, {"lon": -77.0435535, "rental_uris": {"android": "https://dc.lft.to/lastmile_qr_scan", "ios": "https://dc.lft.to/lastmile_qr_scan"}, "fusion_lon": 0.0, "is_reserved": 0, "is_disabled": 0, "fusion_lat": 0.0, "type": "electric_scooter", "name": "3cd5ec6403415a1d49639e2a28ce4d5c", "lat": 38.90417766666667, "bike_id": "3cd5ec6403415a1d49639e2a28ce4d5c"}, {"lon": -77.0269725, "rental_uris": {"android": "https://dc.lft.to/lastmile_qr_scan", "ios": "https://dc.lft.to/lastmile_qr_scan"}, "fusion_lon": 0.0, "is_reserved": 0, "is_disabled": 0, "fusion_lat": 0.0, "type": "electric_scooter", "name": "1260b5ff4f88a79a055d5f3053603b3a", "lat": 38.9251685, "bike_id": "1260b5ff4f88a79a055d5f3053603b3a"}, {"lon": -77.01560683333334, "rental_uris": {"android": "https://dc.lft.to/lastmile_qr_scan", "ios": "https://dc.lft.to/lastmile_qr_scan"}, "fusion_lon": 0.0, "is_reserved": 0, "is_disabled": 0, "fusion_lat": 0.0, "type": "electric_scooter", "name": "598d8f08ef025078b22fd12c76026860", "lat": 38.9150915, "bike_id": "598d8f08ef025078b22fd12c76026860"}, {"lon": -77.02029416666667, "rental_uris": {"android": "https://dc.lft.to/lastmile_qr_scan", "ios": "https://dc.lft.to/lastmile_qr_scan"}, "fusion_lon": 0.0, "is_reserved": 0, "is_disabled": 0, "fusion_lat": 0.0, "type": "electric_scooter", "name": "001b9928601bbcaf5b8221485cdd22ea", "lat": 38.924482833333336, "bike_id": "001b9928601bbcaf5b8221485cdd22ea"}, {"lon": -77.02518383333333, "rental_uris": {"android": "https://dc.lft.to/lastmile_qr_scan", "ios": "https://dc.lft.to/lastmile_qr_scan"}, "fusion_lon": 0.0, "is_reserved": 0, "is_disabled": 0, "fusion_lat": 0.0, "type": "electric_scooter", "name": "8964a047c24b24f4b108d0ac11e3649d", "lat": 38.9211195, "bike_id": "8964a047c24b24f4b108d0ac11e3649d"}, {"lon": -77.06375416666667, "rental_uris": {"android": "https://dc.lft.to/lastmile_qr_scan", "ios": "https://dc.lft.to/lastmile_qr_scan"}, "fusion_lon": 0.0, "is_reserved": 0, "is_disabled": 0, "fusion_lat": 0.0, "type": "electric_scooter", "name": "eb7d97e46979947040a8f78401162800", "lat": 38.90611583333333, "bike_id": "eb7d97e46979947040a8f78401162800"}, {"lon": -77.21017683333334, "rental_uris": {"android": "https://dc.lft.to/lastmile_qr_scan", "ios": "https://dc.lft.to/lastmile_qr_scan"}, "fusion_lon": 0.0, "is_reserved": 0, "is_disabled": 0, "fusion_lat": 0.0, "type": "electric_bike", "name": "b17322853e9210a306c35e00918f2f33", "lat": 38.92600183333333, "bike_id": "b17322853e9210a306c35e00918f2f33"}, {"lon": -77.01354433333333, "rental_uris": {"android": "https://dc.lft.to/lastmile_qr_scan", "ios": "https://dc.lft.to/lastmile_qr_scan"}, "fusion_lon": 0.0, "is_reserved": 0, "is_disabled": 0, "fusion_lat": 0.0, "type": "electric_scooter", "name": "b3e027f31a7e8bd7195426c5b62f5ec8", "lat": 38.87161483333333, "bike_id": "b3e027f31a7e8bd7195426c5b62f5ec8"}, {"lon": -77.0238655, "rental_uris": {"android": "https://dc.lft.to/lastmile_qr_scan", "ios": "https://dc.lft.to/lastmile_qr_scan"}, "fusion_lon": 0.0, "is_reserved": 0, "is_disabled": 0, "fusion_lat": 0.0, "type": "electric_scooter", "name": "76bbc751872c836822770544dc504b12", "lat": 38.91962933333333, "bike_id": "76bbc751872c836822770544dc504b12"}, {"lon": -77.02210916666667, "rental_uris": {"android": "https://dc.lft.to/lastmile_qr_scan", "ios": "https://dc.lft.to/lastmile_qr_scan"}, "fusion_lon": 0.0, "is_reserved": 0, "is_disabled": 0, "fusion_lat": 0.0, "type": "electric_scooter", "name": "6c56b34a54c8301f4857f73c52ffaf5b", "lat": 38.922249666666666, "bike_id": "6c56b34a54c8301f4857f73c52ffaf5b"}, {"lon": -77.03380016666667, "rental_uris": {"android": "https://dc.lft.to/lastmile_qr_scan", "ios": "https://dc.lft.to/lastmile_qr_scan"}, "fusion_lon": 0.0, "is_reserved": 0, "is_disabled": 0, "fusion_lat": 0.0, "type": "electric_scooter", "name": "51bf54d9429beb2e737f82fa27ac8bc8", "lat": 38.938465, "bike_id": "51bf54d9429beb2e737f82fa27ac8bc8"}, {"lon": -77.04539916666667, "rental_uris": {"android": "https://dc.lft.to/lastmile_qr_scan", "ios": "https://dc.lft.to/lastmile_qr_scan"}, "fusion_lon": 0.0, "is_reserved": 0, "is_disabled": 0, "fusion_lat": 0.0, "type": "electric_scooter", "name": "f50785f4f46b2767ea6e94bfc05659bf", "lat": 38.911205, "bike_id": "f50785f4f46b2767ea6e94bfc05659bf"}, {"lon": -76.9994525, "rental_uris": {"android": "https://dc.lft.to/lastmile_qr_scan", "ios": "https://dc.lft.to/lastmile_qr_scan"}, "fusion_lon": 0.0, "is_reserved": 0, "is_disabled": 0, "fusion_lat": 0.0, "type": "electric_scooter", "name": "8714c6141e3f522f568536aab2e4f09e", "lat": 38.904309, "bike_id": "8714c6141e3f522f568536aab2e4f09e"}, {"lon": -77.03225716666667, "rental_uris": {"android": "https://dc.lft.to/lastmile_qr_scan", "ios": "https://dc.lft.to/lastmile_qr_scan"}, "fusion_lon": 0.0, "is_reserved": 0, "is_disabled": 0, "fusion_lat": 0.0, "type": "electric_scooter", "name": "b2328d4ee9d398e7b74a3864f8ad7d98", "lat": 38.917118, "bike_id": "b2328d4ee9d398e7b74a3864f8ad7d98"}, {"lon": -77.01978333333334, "rental_uris": {"android": "https://dc.lft.to/lastmile_qr_scan", "ios": "https://dc.lft.to/lastmile_qr_scan"}, "fusion_lon": 0.0, "is_reserved": 0, "is_disabled": 0, "fusion_lat": 0.0, "type": "electric_scooter", "name": "b1f3c85479c9b714a3c401e8d90b7855", "lat": 38.923377333333335, "bike_id": "b1f3c85479c9b714a3c401e8d90b7855"}, {"lon": -77.02651683333333, "rental_uris": {"android": "https://dc.lft.to/lastmile_qr_scan", "ios": "https://dc.lft.to/lastmile_qr_scan"}, "fusion_lon": 0.0, "is_reserved": 0, "is_disabled": 0, "fusion_lat": 0.0, "type": "electric_scooter", "name": "fe476c8111e7acef8804b0fb7bae880c", "lat": 38.892207666666664, "bike_id": "fe476c8111e7acef8804b0fb7bae880c"}, {"lon": -77.07341483333333, "rental_uris": {"android": "https://dc.lft.to/lastmile_qr_scan", "ios": "https://dc.lft.to/lastmile_qr_scan"}, "fusion_lon": 0.0, "is_reserved": 0, "is_disabled": 0, "fusion_lat": 0.0, "type": "electric_scooter", "name": "a38f1e70093b5ff99e4b7e8cc9850cad", "lat": 38.93491616666667, "bike_id": "a38f1e70093b5ff99e4b7e8cc9850cad"}, {"lon": -77.0419415, "rental_uris": {"android": "https://dc.lft.to/lastmile_qr_scan", "ios": "https://dc.lft.to/lastmile_qr_scan"}, "fusion_lon": 0.0, "is_reserved": 0, "is_disabled": 0, "fusion_lat": 0.0, "type": "electric_scooter", "name": "e76eea0e03df4514f73099487d6b3d53", "lat": 38.9271825, "bike_id": "e76eea0e03df4514f73099487d6b3d53"}, {"lon": -77.02257816666666, "rental_uris": {"android": "https://dc.lft.to/lastmile_qr_scan", "ios": "https://dc.lft.to/lastmile_qr_scan"}, "fusion_lon": 0.0, "is_reserved": 0, "is_disabled": 0, "fusion_lat": 0.0, "type": "electric_scooter", "name": "3c9f394adf6bb92a7ece954bff0b89b3", "lat": 38.924085166666664, "bike_id": "3c9f394adf6bb92a7ece954bff0b89b3"}, {"lon": -77.026648, "rental_uris": {"android": "https://dc.lft.to/lastmile_qr_scan", "ios": "https://dc.lft.to/lastmile_qr_scan"}, "fusion_lon": 0.0, "is_reserved": 0, "is_disabled": 0, "fusion_lat": 0.0, "type": "electric_scooter", "name": "9558adbc8c23080de5c6c55c65caa5fe", "lat": 38.92180666666667, "bike_id": "9558adbc8c23080de5c6c55c65caa5fe"}, {"lon": -77.018118, "rental_uris": {"android": "https://dc.lft.to/lastmile_qr_scan", "ios": "https://dc.lft.to/lastmile_qr_scan"}, "fusion_lon": 0.0, "is_reserved": 0, "is_disabled": 0, "fusion_lat": 0.0, "type": "electric_scooter", "name": "46b392baa4aa781dc9b3376cd6887a24", "lat": 38.92161633333333, "bike_id": "46b392baa4aa781dc9b3376cd6887a24"}, {"lon": -77.02148733333334, "rental_uris": {"android": "https://dc.lft.to/lastmile_qr_scan", "ios": "https://dc.lft.to/lastmile_qr_scan"}, "fusion_lon": 0.0, "is_reserved": 0, "is_disabled": 0, "fusion_lat": 0.0, "type": "electric_scooter", "name": "b4d36a1e79dfaee193352508158e5a6b", "lat": 38.92462416666667, "bike_id": "b4d36a1e79dfaee193352508158e5a6b"}, {"lon": -77.04489366666667, "rental_uris": {"android": "https://dc.lft.to/lastmile_qr_scan", "ios": "https://dc.lft.to/lastmile_qr_scan"}, "fusion_lon": 0.0, "is_reserved": 0, "is_disabled": 0, "fusion_lat": 0.0, "type": "electric_scooter", "name": "129be3d8e1979472bca555cf8af24649", "lat": 38.911247, "bike_id": "129be3d8e1979472bca555cf8af24649"}, {"lon": -77.03915683333334, "rental_uris": {"android": "https://dc.lft.to/lastmile_qr_scan", "ios": "https://dc.lft.to/lastmile_qr_scan"}, "fusion_lon": 0.0, "is_reserved": 0, "is_disabled": 0, "fusion_lat": 0.0, "type": "electric_scooter", "name": "57daf9b61d8bf21e0f7345c0235152b4", "lat": 38.9288525, "bike_id": "57daf9b61d8bf21e0f7345c0235152b4"}, {"lon": -77.0080075, "rental_uris": {"android": "https://dc.lft.to/lastmile_qr_scan", "ios": "https://dc.lft.to/lastmile_qr_scan"}, "fusion_lon": 0.0, "is_reserved": 0, "is_disabled": 0, "fusion_lat": 0.0, "type": "electric_bike", "name": "163d81ebaba75cde6e6001fb1b60d064", "lat": 38.94922283333333, "bike_id": "163d81ebaba75cde6e6001fb1b60d064"}, {"lon": -77.06381016666667, "rental_uris": {"android": "https://dc.lft.to/lastmile_qr_scan", "ios": "https://dc.lft.to/lastmile_qr_scan"}, "fusion_lon": 0.0, "is_reserved": 0, "is_disabled": 0, "fusion_lat": 0.0, "type": "electric_scooter", "name": "786de23d7db388bb3a575df280b23e76", "lat": 38.905148833333335, "bike_id": "786de23d7db388bb3a575df280b23e76"}, {"lon": -77.02834433333334, "rental_uris": {"android": "https://dc.lft.to/lastmile_qr_scan", "ios": "https://dc.lft.to/lastmile_qr_scan"}, "fusion_lon": 0.0, "is_reserved": 0, "is_disabled": 0, "fusion_lat": 0.0, "type": "electric_scooter", "name": "f61a5bd07fdd7e75cbf89e94b868f705", "lat": 38.887240166666665, "bike_id": "f61a5bd07fdd7e75cbf89e94b868f705"}, {"lon": -77.00193383333334, "rental_uris": {"android": "https://dc.lft.to/lastmile_qr_scan", "ios": "https://dc.lft.to/lastmile_qr_scan"}, "fusion_lon": 0.0, "is_reserved": 0, "is_disabled": 0, "fusion_lat": 0.0, "type": "electric_scooter", "name": "115bc041b9a249be1c609283aa2fa61c", "lat": 38.886767666666664, "bike_id": "115bc041b9a249be1c609283aa2fa61c"}, {"lon": -77.03898266666667, "rental_uris": {"android": "https://dc.lft.to/lastmile_qr_scan", "ios": "https://dc.lft.to/lastmile_qr_scan"}, "fusion_lon": 0.0, "is_reserved": 0, "is_disabled": 0, "fusion_lat": 0.0, "type": "electric_scooter", "name": "e48585c98d4aa9a922f75acb2b8a5ac1", "lat": 38.906620833333335, "bike_id": "e48585c98d4aa9a922f75acb2b8a5ac1"}, {"lon": -77.034399, "rental_uris": {"android": "https://dc.lft.to/lastmile_qr_scan", "ios": "https://dc.lft.to/lastmile_qr_scan"}, "fusion_lon": 0.0, "is_reserved": 0, "is_disabled": 0, "fusion_lat": 0.0, "type": "electric_scooter", "name": "55858399ee37425455bb2605287ebcb8", "lat": 38.906829333333334, "bike_id": "55858399ee37425455bb2605287ebcb8"}, {"lon": -77.0271005, "rental_uris": {"android": "https://dc.lft.to/lastmile_qr_scan", "ios": "https://dc.lft.to/lastmile_qr_scan"}, "fusion_lon": 0.0, "is_reserved": 0, "is_disabled": 0, "fusion_lat": 0.0, "type": "electric_scooter", "name": "47752692ef391a1fcc6de55387e90b4b", "lat": 38.918017166666665, "bike_id": "47752692ef391a1fcc6de55387e90b4b"}, {"lon": -77.03285616666666, "rental_uris": {"android": "https://dc.lft.to/lastmile_qr_scan", "ios": "https://dc.lft.to/lastmile_qr_scan"}, "fusion_lon": 0.0, "is_reserved": 0, "is_disabled": 0, "fusion_lat": 0.0, "type": "electric_scooter", "name": "f0c32053a9631a53d44cf8eb5033edc5", "lat": 38.9288095, "bike_id": "f0c32053a9631a53d44cf8eb5033edc5"}, {"lon": -77.0278555, "rental_uris": {"android": "https://dc.lft.to/lastmile_qr_scan", "ios": "https://dc.lft.to/lastmile_qr_scan"}, "fusion_lon": 0.0, "is_reserved": 0, "is_disabled": 0, "fusion_lat": 0.0, "type": "electric_scooter", "name": "0a85af735d81b25e443b26df49f42efa", "lat": 38.8922665, "bike_id": "0a85af735d81b25e443b26df49f42efa"}, {"lon": -77.023824, "rental_uris": {"android": "https://dc.lft.to/lastmile_qr_scan", "ios": "https://dc.lft.to/lastmile_qr_scan"}, "fusion_lon": 0.0, "is_reserved": 0, "is_disabled": 0, "fusion_lat": 0.0, "type": "electric_scooter", "name": "9d76b770cb95792afa4c4987dee8d62c", "lat": 38.887345833333335, "bike_id": "9d76b770cb95792afa4c4987dee8d62c"}, {"lon": -77.02379816666667, "rental_uris": {"android": "https://dc.lft.to/lastmile_qr_scan", "ios": "https://dc.lft.to/lastmile_qr_scan"}, "fusion_lon": 0.0, "is_reserved": 0, "is_disabled": 0, "fusion_lat": 0.0, "type": "electric_scooter", "name": "2d7a00b3af49ef55b298d9efaf84a262", "lat": 38.89199166666667, "bike_id": "2d7a00b3af49ef55b298d9efaf84a262"}, {"lon": -77.009222, "rental_uris": {"android": "https://dc.lft.to/lastmile_qr_scan", "ios": "https://dc.lft.to/lastmile_qr_scan"}, "fusion_lon": 0.0, "is_reserved": 0, "is_disabled": 0, "fusion_lat": 0.0, "type": "electric_scooter", "name": "bb49d4e5ab0bfc53182fa10a1fb685bf", "lat": 38.89604383333333, "bike_id": "bb49d4e5ab0bfc53182fa10a1fb685bf"}, {"lon": -77.03536966666667, "rental_uris": {"android": "https://dc.lft.to/lastmile_qr_scan", "ios": "https://dc.lft.to/lastmile_qr_scan"}, "fusion_lon": 0.0, "is_reserved": 0, "is_disabled": 0, "fusion_lat": 0.0, "type": "electric_scooter", "name": "c22603531c8001084b5b7958019f8902", "lat": 38.92589783333333, "bike_id": "c22603531c8001084b5b7958019f8902"}, {"lon": -76.9347875, "rental_uris": {"android": "https://dc.lft.to/lastmile_qr_scan", "ios": "https://dc.lft.to/lastmile_qr_scan"}, "fusion_lon": 0.0, "is_reserved": 0, "is_disabled": 0, "fusion_lat": 0.0, "type": "electric_bike", "name": "481d6b76dfd97781c5e2807003251539", "lat": 38.89103183333334, "bike_id": "481d6b76dfd97781c5e2807003251539"}, {"lon": -77.01358666666667, "rental_uris": {"android": "https://dc.lft.to/lastmile_qr_scan", "ios": "https://dc.lft.to/lastmile_qr_scan"}, "fusion_lon": 0.0, "is_reserved": 0, "is_disabled": 0, "fusion_lat": 0.0, "type": "electric_scooter", "name": "970a87b4a4ec400bafef663cf599c629", "lat": 38.9567855, "bike_id": "970a87b4a4ec400bafef663cf599c629"}, {"lon": -77.04376716666667, "rental_uris": {"android": "https://dc.lft.to/lastmile_qr_scan", "ios": "https://dc.lft.to/lastmile_qr_scan"}, "fusion_lon": 0.0, "is_reserved": 0, "is_disabled": 0, "fusion_lat": 0.0, "type": "electric_scooter", "name": "23a1b00eadf0911be0650e5830ea6ee7", "lat": 38.90397016666667, "bike_id": "23a1b00eadf0911be0650e5830ea6ee7"}, {"lon": -77.01964566666666, "rental_uris": {"android": "https://dc.lft.to/lastmile_qr_scan", "ios": "https://dc.lft.to/lastmile_qr_scan"}, "fusion_lon": 0.0, "is_reserved": 0, "is_disabled": 0, "fusion_lat": 0.0, "type": "electric_scooter", "name": "20f60de8a6f53e7206571ec7c591e8b1", "lat": 38.95654283333333, "bike_id": "20f60de8a6f53e7206571ec7c591e8b1"}, {"lon": -77.02985816666667, "rental_uris": {"android": "https://dc.lft.to/lastmile_qr_scan", "ios": "https://dc.lft.to/lastmile_qr_scan"}, "fusion_lon": 0.0, "is_reserved": 0, "is_disabled": 0, "fusion_lat": 0.0, "type": "electric_scooter", "name": "f2ef15ce89142e652ac926530a400eed", "lat": 38.9073765, "bike_id": "f2ef15ce89142e652ac926530a400eed"}, {"lon": -77.02433966666666, "rental_uris": {"android": "https://dc.lft.to/lastmile_qr_scan", "ios": "https://dc.lft.to/lastmile_qr_scan"}, "fusion_lon": 0.0, "is_reserved": 0, "is_disabled": 0, "fusion_lat": 0.0, "type": "electric_scooter", "name": "4f24079a1cf16082b5e0d4418bd77c5a", "lat": 38.96806083333333, "bike_id": "4f24079a1cf16082b5e0d4418bd77c5a"}, {"lon": -76.99651566666667, "rental_uris": {"android": "https://dc.lft.to/lastmile_qr_scan", "ios": "https://dc.lft.to/lastmile_qr_scan"}, "fusion_lon": 0.0, "is_reserved": 0, "is_disabled": 0, "fusion_lat": 0.0, "type": "electric_bike", "name": "eb2123b49d0cba1e67bf6a94fbabc76c", "lat": 38.838398166666664, "bike_id": "eb2123b49d0cba1e67bf6a94fbabc76c"}, {"lon": -76.983383, "rental_uris": {"android": "https://dc.lft.to/lastmile_qr_scan", "ios": "https://dc.lft.to/lastmile_qr_scan"}, "fusion_lon": 0.0, "is_reserved": 0, "is_disabled": 0, "fusion_lat": 0.0, "type": "electric_scooter", "name": "5b39b3c466e354ef79cefa9aa0cac848", "lat": 38.8954715, "bike_id": "5b39b3c466e354ef79cefa9aa0cac848"}, {"lon": -76.95755333333334, "rental_uris": {"android": "https://dc.lft.to/lastmile_qr_scan", "ios": "https://dc.lft.to/lastmile_qr_scan"}, "fusion_lon": 0.0, "is_reserved": 0, "is_disabled": 0, "fusion_lat": 0.0, "type": "electric_scooter", "name": "7b375ebe49b166c33023172cf07257f1", "lat": 38.884304666666665, "bike_id": "7b375ebe49b166c33023172cf07257f1"}, {"lon": -76.98251766666667, "rental_uris": {"android": "https://dc.lft.to/lastmile_qr_scan", "ios": "https://dc.lft.to/lastmile_qr_scan"}, "fusion_lon": 0.0, "is_reserved": 0, "is_disabled": 0, "fusion_lat": 0.0, "type": "electric_bike", "name": "173acafcf7092fca0a1bd59c4a0b5234", "lat": 38.9533035, "bike_id": "173acafcf7092fca0a1bd59c4a0b5234"}, {"lon": -77.0366475, "rental_uris": {"android": "https://dc.lft.to/lastmile_qr_scan", "ios": "https://dc.lft.to/lastmile_qr_scan"}, "fusion_lon": 0.0, "is_reserved": 0, "is_disabled": 0, "fusion_lat": 0.0, "type": "electric_scooter", "name": "40d5914011e8276184d6b5f7ac559eb7", "lat": 38.93202733333333, "bike_id": "40d5914011e8276184d6b5f7ac559eb7"}, {"lon": -76.93444416666667, "rental_uris": {"android": "https://dc.lft.to/lastmile_qr_scan", "ios": "https://dc.lft.to/lastmile_qr_scan"}, "fusion_lon": 0.0, "is_reserved": 0, "is_disabled": 0, "fusion_lat": 0.0, "type": "electric_scooter", "name": "219dc63f98caa89ab9a54927dbcd64d7", "lat": 38.908478, "bike_id": "219dc63f98caa89ab9a54927dbcd64d7"}, {"lon": -77.02494766666666, "rental_uris": {"android": "https://dc.lft.to/lastmile_qr_scan", "ios": "https://dc.lft.to/lastmile_qr_scan"}, "fusion_lon": 0.0, "is_reserved": 0, "is_disabled": 0, "fusion_lat": 0.0, "type": "electric_scooter", "name": "bc672a248027d1b121a353e089e2d4a0", "lat": 38.93040466666667, "bike_id": "bc672a248027d1b121a353e089e2d4a0"}, {"lon": -77.02737233333333, "rental_uris": {"android": "https://dc.lft.to/lastmile_qr_scan", "ios": "https://dc.lft.to/lastmile_qr_scan"}, "fusion_lon": 0.0, "is_reserved": 0, "is_disabled": 0, "fusion_lat": 0.0, "type": "electric_scooter", "name": "06938c5bb039cdd4a16bd6fa04f0a070", "lat": 38.89642416666667, "bike_id": "06938c5bb039cdd4a16bd6fa04f0a070"}, {"lon": -77.03197283333333, "rental_uris": {"android": "https://dc.lft.to/lastmile_qr_scan", "ios": "https://dc.lft.to/lastmile_qr_scan"}, "fusion_lon": 0.0, "is_reserved": 0, "is_disabled": 0, "fusion_lat": 0.0, "type": "electric_scooter", "name": "b47110f029f0d6fba343005f05a35d61", "lat": 38.884091, "bike_id": "b47110f029f0d6fba343005f05a35d61"}, {"lon": -77.04391733333334, "rental_uris": {"android": "https://dc.lft.to/lastmile_qr_scan", "ios": "https://dc.lft.to/lastmile_qr_scan"}, "fusion_lon": 0.0, "is_reserved": 0, "is_disabled": 0, "fusion_lat": 0.0, "type": "electric_scooter", "name": "a4462301e68ec55bee1ff06794c03772", "lat": 38.89747966666667, "bike_id": "a4462301e68ec55bee1ff06794c03772"}, {"lon": -77.02232883333333, "rental_uris": {"android": "https://dc.lft.to/lastmile_qr_scan", "ios": "https://dc.lft.to/lastmile_qr_scan"}, "fusion_lon": 0.0, "is_reserved": 0, "is_disabled": 0, "fusion_lat": 0.0, "type": "electric_scooter", "name": "e4100f77178d18b0342c0320655daf11", "lat": 38.914212166666665, "bike_id": "e4100f77178d18b0342c0320655daf11"}, {"lon": -77.030537, "rental_uris": {"android": "https://dc.lft.to/lastmile_qr_scan", "ios": "https://dc.lft.to/lastmile_qr_scan"}, "fusion_lon": 0.0, "is_reserved": 0, "is_disabled": 0, "fusion_lat": 0.0, "type": "electric_bike", "name": "2f223fa7a0db6db9a17c6598a34b1538", "lat": 38.959610166666664, "bike_id": "2f223fa7a0db6db9a17c6598a34b1538"}, {"lon": -77.036332, "rental_uris": {"android": "https://dc.lft.to/lastmile_qr_scan", "ios": "https://dc.lft.to/lastmile_qr_scan"}, "fusion_lon": 0.0, "is_reserved": 0, "is_disabled": 0, "fusion_lat": 0.0, "type": "electric_scooter", "name": "1fc2c1cda42cd23a4736fbc2758dccd5", "lat": 38.936666, "bike_id": "1fc2c1cda42cd23a4736fbc2758dccd5"}, {"lon": -77.07026883333333, "rental_uris": {"android": "https://dc.lft.to/lastmile_qr_scan", "ios": "https://dc.lft.to/lastmile_qr_scan"}, "fusion_lon": 0.0, "is_reserved": 0, "is_disabled": 0, "fusion_lat": 0.0, "type": "electric_scooter", "name": "9fb61ba6d076f622d363b1d09a4f5006", "lat": 38.956086666666664, "bike_id": "9fb61ba6d076f622d363b1d09a4f5006"}, {"lon": -76.95791016666666, "rental_uris": {"android": "https://dc.lft.to/lastmile_qr_scan", "ios": "https://dc.lft.to/lastmile_qr_scan"}, "fusion_lon": 0.0, "is_reserved": 0, "is_disabled": 0, "fusion_lat": 0.0, "type": "electric_bike", "name": "d8c1b4071ccd4de96f7465586b6ccea6", "lat": 38.9804555, "bike_id": "d8c1b4071ccd4de96f7465586b6ccea6"}, {"lon": -76.990132, "rental_uris": {"android": "https://dc.lft.to/lastmile_qr_scan", "ios": "https://dc.lft.to/lastmile_qr_scan"}, "fusion_lon": 0.0, "is_reserved": 0, "is_disabled": 0, "fusion_lat": 0.0, "type": "electric_scooter", "name": "757f04eab9e4e7c483195b8fbc769cb1", "lat": 38.8827195, "bike_id": "757f04eab9e4e7c483195b8fbc769cb1"}, {"lon": -77.03215783333333, "rental_uris": {"android": "https://dc.lft.to/lastmile_qr_scan", "ios": "https://dc.lft.to/lastmile_qr_scan"}, "fusion_lon": 0.0, "is_reserved": 0, "is_disabled": 0, "fusion_lat": 0.0, "type": "electric_scooter", "name": "5f1610ae5722ad1f5131c6ed0eaeb695", "lat": 38.91607116666667, "bike_id": "5f1610ae5722ad1f5131c6ed0eaeb695"}, {"lon": -77.02779783333334, "rental_uris": {"android": "https://dc.lft.to/lastmile_qr_scan", "ios": "https://dc.lft.to/lastmile_qr_scan"}, "fusion_lon": 0.0, "is_reserved": 0, "is_disabled": 0, "fusion_lat": 0.0, "type": "electric_scooter", "name": "d4d4def58dbc19d90ec1378adff2de2a", "lat": 38.96145516666667, "bike_id": "d4d4def58dbc19d90ec1378adff2de2a"}, {"lon": -77.002459, "rental_uris": {"android": "https://dc.lft.to/lastmile_qr_scan", "ios": "https://dc.lft.to/lastmile_qr_scan"}, "fusion_lon": 0.0, "is_reserved": 0, "is_disabled": 0, "fusion_lat": 0.0, "type": "electric_scooter", "name": "c857bfb83c7c2df151da087ad348ff97", "lat": 38.924507, "bike_id": "c857bfb83c7c2df151da087ad348ff97"}, {"lon": -77.01269933333333, "rental_uris": {"android": "https://dc.lft.to/lastmile_qr_scan", "ios": "https://dc.lft.to/lastmile_qr_scan"}, "fusion_lon": 0.0, "is_reserved": 0, "is_disabled": 0, "fusion_lat": 0.0, "type": "electric_scooter", "name": "4ef5c6edc02ac073373fd60c09fb790e", "lat": 38.89926883333333, "bike_id": "4ef5c6edc02ac073373fd60c09fb790e"}, {"lon": -77.044522, "rental_uris": {"android": "https://dc.lft.to/lastmile_qr_scan", "ios": "https://dc.lft.to/lastmile_qr_scan"}, "fusion_lon": 0.0, "is_reserved": 0, "is_disabled": 0, "fusion_lat": 0.0, "type": "electric_scooter", "name": "3f9850c23132974ce18f0815b6de55e2", "lat": 38.905795833333336, "bike_id": "3f9850c23132974ce18f0815b6de55e2"}, {"lon": -77.02830666666667, "rental_uris": {"android": "https://dc.lft.to/lastmile_qr_scan", "ios": "https://dc.lft.to/lastmile_qr_scan"}, "fusion_lon": 0.0, "is_reserved": 0, "is_disabled": 0, "fusion_lat": 0.0, "type": "electric_scooter", "name": "b51751c5ea63ed3efa5f49975362211c", "lat": 38.887110166666666, "bike_id": "b51751c5ea63ed3efa5f49975362211c"}, {"lon": -77.07433533333334, "rental_uris": {"android": "https://dc.lft.to/lastmile_qr_scan", "ios": "https://dc.lft.to/lastmile_qr_scan"}, "fusion_lon": 0.0, "is_reserved": 0, "is_disabled": 0, "fusion_lat": 0.0, "type": "electric_scooter", "name": "e7f5c3b0653069be3a8e3227189b9101", "lat": 38.91270333333333, "bike_id": "e7f5c3b0653069be3a8e3227189b9101"}, {"lon": -76.985492, "rental_uris": {"android": "https://dc.lft.to/lastmile_qr_scan", "ios": "https://dc.lft.to/lastmile_qr_scan"}, "fusion_lon": 0.0, "is_reserved": 0, "is_disabled": 0, "fusion_lat": 0.0, "type": "electric_scooter", "name": "6164abfc224ffbb7a8aed6ad6036f7f8", "lat": 38.89762533333333, "bike_id": "6164abfc224ffbb7a8aed6ad6036f7f8"}, {"lon": -76.9587685, "rental_uris": {"android": "https://dc.lft.to/lastmile_qr_scan", "ios": "https://dc.lft.to/lastmile_qr_scan"}, "fusion_lon": 0.0, "is_reserved": 0, "is_disabled": 0, "fusion_lat": 0.0, "type": "electric_scooter", "name": "1f2afb024c2e8a96296e0030050cb198", "lat": 38.859492833333334, "bike_id": "1f2afb024c2e8a96296e0030050cb198"}, {"lon": -77.03638883333333, "rental_uris": {"android": "https://dc.lft.to/lastmile_qr_scan", "ios": "https://dc.lft.to/lastmile_qr_scan"}, "fusion_lon": 0.0, "is_reserved": 0, "is_disabled": 0, "fusion_lat": 0.0, "type": "electric_scooter", "name": "102262287530c7b4a4567791e4cf2e9d", "lat": 38.92812466666667, "bike_id": "102262287530c7b4a4567791e4cf2e9d"}, {"lon": -77.03205216666667, "rental_uris": {"android": "https://dc.lft.to/lastmile_qr_scan", "ios": "https://dc.lft.to/lastmile_qr_scan"}, "fusion_lon": 0.0, "is_reserved": 0, "is_disabled": 0, "fusion_lat": 0.0, "type": "electric_scooter", "name": "25f72a3b0f8e9ccd3266407eef6f9026", "lat": 38.90787816666667, "bike_id": "25f72a3b0f8e9ccd3266407eef6f9026"}, {"lon": -77.02569166666666, "rental_uris": {"android": "https://dc.lft.to/lastmile_qr_scan", "ios": "https://dc.lft.to/lastmile_qr_scan"}, "fusion_lon": 0.0, "is_reserved": 0, "is_disabled": 0, "fusion_lat": 0.0, "type": "electric_scooter", "name": "87bf4dcf3656a9707865f1fa0a24b7b1", "lat": 38.9269145, "bike_id": "87bf4dcf3656a9707865f1fa0a24b7b1"}, {"lon": -76.93576566666667, "rental_uris": {"android": "https://dc.lft.to/lastmile_qr_scan", "ios": "https://dc.lft.to/lastmile_qr_scan"}, "fusion_lon": 0.0, "is_reserved": 0, "is_disabled": 0, "fusion_lat": 0.0, "type": "electric_scooter", "name": "203c5c274eeaff3e8ca3f35c871a3d95", "lat": 38.897067166666666, "bike_id": "203c5c274eeaff3e8ca3f35c871a3d95"}, {"lon": -77.02585983333333, "rental_uris": {"android": "https://dc.lft.to/lastmile_qr_scan", "ios": "https://dc.lft.to/lastmile_qr_scan"}, "fusion_lon": 0.0, "is_reserved": 0, "is_disabled": 0, "fusion_lat": 0.0, "type": "electric_scooter", "name": "f8c14ca69be41d35d7e5d3d5cd93f2e6", "lat": 38.963978833333336, "bike_id": "f8c14ca69be41d35d7e5d3d5cd93f2e6"}, {"lon": -77.01526666666666, "rental_uris": {"android": "https://dc.lft.to/lastmile_qr_scan", "ios": "https://dc.lft.to/lastmile_qr_scan"}, "fusion_lon": 0.0, "is_reserved": 0, "is_disabled": 0, "fusion_lat": 0.0, "type": "electric_scooter", "name": "228f409933f834b8543a3323759675a0", "lat": 38.88739616666667, "bike_id": "228f409933f834b8543a3323759675a0"}, {"lon": -77.03430083333333, "rental_uris": {"android": "https://dc.lft.to/lastmile_qr_scan", "ios": "https://dc.lft.to/lastmile_qr_scan"}, "fusion_lon": 0.0, "is_reserved": 0, "is_disabled": 0, "fusion_lat": 0.0, "type": "electric_scooter", "name": "0f654553787e727ddd174324bb05e264", "lat": 38.90962533333333, "bike_id": "0f654553787e727ddd174324bb05e264"}, {"lon": -77.050852, "rental_uris": {"android": "https://dc.lft.to/lastmile_qr_scan", "ios": "https://dc.lft.to/lastmile_qr_scan"}, "fusion_lon": 0.0, "is_reserved": 0, "is_disabled": 0, "fusion_lat": 0.0, "type": "electric_scooter", "name": "10d017d3fa0c6d5755e79458c0600b64", "lat": 38.92348616666666, "bike_id": "10d017d3fa0c6d5755e79458c0600b64"}, {"lon": -77.00921966666667, "rental_uris": {"android": "https://dc.lft.to/lastmile_qr_scan", "ios": "https://dc.lft.to/lastmile_qr_scan"}, "fusion_lon": 0.0, "is_reserved": 0, "is_disabled": 0, "fusion_lat": 0.0, "type": "electric_scooter", "name": "dbedcad9958f9973e21770f79dfbdea9", "lat": 38.895909333333336, "bike_id": "dbedcad9958f9973e21770f79dfbdea9"}, {"lon": -77.06095733333333, "rental_uris": {"android": "https://dc.lft.to/lastmile_qr_scan", "ios": "https://dc.lft.to/lastmile_qr_scan"}, "fusion_lon": 0.0, "is_reserved": 0, "is_disabled": 0, "fusion_lat": 0.0, "type": "electric_scooter", "name": "ffe40b348fee1c38afb6c1682881e961", "lat": 38.90242716666667, "bike_id": "ffe40b348fee1c38afb6c1682881e961"}, {"lon": -77.03659533333334, "rental_uris": {"android": "https://dc.lft.to/lastmile_qr_scan", "ios": "https://dc.lft.to/lastmile_qr_scan"}, "fusion_lon": 0.0, "is_reserved": 0, "is_disabled": 0, "fusion_lat": 0.0, "type": "electric_scooter", "name": "8364f3c1a503f14c7947b7b8626268fc", "lat": 38.923084833333334, "bike_id": "8364f3c1a503f14c7947b7b8626268fc"}, {"lon": -77.01371733333333, "rental_uris": {"android": "https://dc.lft.to/lastmile_qr_scan", "ios": "https://dc.lft.to/lastmile_qr_scan"}, "fusion_lon": 0.0, "is_reserved": 0, "is_disabled": 0, "fusion_lat": 0.0, "type": "electric_scooter", "name": "a142745316131e14caf2db10a44a2ccb", "lat": 38.896362833333335, "bike_id": "a142745316131e14caf2db10a44a2ccb"}, {"lon": -77.06369216666667, "rental_uris": {"android": "https://dc.lft.to/lastmile_qr_scan", "ios": "https://dc.lft.to/lastmile_qr_scan"}, "fusion_lon": 0.0, "is_reserved": 0, "is_disabled": 0, "fusion_lat": 0.0, "type": "electric_scooter", "name": "1d983e17c148b5c07d5f7dd6326b7431", "lat": 38.90821966666667, "bike_id": "1d983e17c148b5c07d5f7dd6326b7431"}, {"lon": -77.03224516666667, "rental_uris": {"android": "https://dc.lft.to/lastmile_qr_scan", "ios": "https://dc.lft.to/lastmile_qr_scan"}, "fusion_lon": 0.0, "is_reserved": 0, "is_disabled": 0, "fusion_lat": 0.0, "type": "electric_scooter", "name": "e0a628f05c1fe40d6664e8d8745ac5c1", "lat": 38.90868666666667, "bike_id": "e0a628f05c1fe40d6664e8d8745ac5c1"}, {"lon": -77.04080683333333, "rental_uris": {"android": "https://dc.lft.to/lastmile_qr_scan", "ios": "https://dc.lft.to/lastmile_qr_scan"}, "fusion_lon": 0.0, "is_reserved": 0, "is_disabled": 0, "fusion_lat": 0.0, "type": "electric_scooter", "name": "50a0b7d7bf02b6c82ea7419567c5bd25", "lat": 38.9238805, "bike_id": "50a0b7d7bf02b6c82ea7419567c5bd25"}, {"lon": -77.01965833333334, "rental_uris": {"android": "https://dc.lft.to/lastmile_qr_scan", "ios": "https://dc.lft.to/lastmile_qr_scan"}, "fusion_lon": 0.0, "is_reserved": 0, "is_disabled": 0, "fusion_lat": 0.0, "type": "electric_scooter", "name": "89d2afba4e0eeebb7a4af89dac3aebdd", "lat": 38.922560833333335, "bike_id": "89d2afba4e0eeebb7a4af89dac3aebdd"}, {"lon": -77.041425, "rental_uris": {"android": "https://dc.lft.to/lastmile_qr_scan", "ios": "https://dc.lft.to/lastmile_qr_scan"}, "fusion_lon": 0.0, "is_reserved": 0, "is_disabled": 0, "fusion_lat": 0.0, "type": "electric_scooter", "name": "3d4b702e295fb252bf2b70c42fcf6651", "lat": 38.8991775, "bike_id": "3d4b702e295fb252bf2b70c42fcf6651"}, {"lon": -77.055126, "rental_uris": {"android": "https://dc.lft.to/lastmile_qr_scan", "ios": "https://dc.lft.to/lastmile_qr_scan"}, "fusion_lon": 0.0, "is_reserved": 0, "is_disabled": 0, "fusion_lat": 0.0, "type": "electric_bike", "name": "4ea9cd6cce73448957bd1b33dc2e0794", "lat": 38.94411783333334, "bike_id": "4ea9cd6cce73448957bd1b33dc2e0794"}, {"lon": -77.0449165, "rental_uris": {"android": "https://dc.lft.to/lastmile_qr_scan", "ios": "https://dc.lft.to/lastmile_qr_scan"}, "fusion_lon": 0.0, "is_reserved": 0, "is_disabled": 0, "fusion_lat": 0.0, "type": "electric_scooter", "name": "a1113573ec77354f3c2e492203e03476", "lat": 38.89953116666667, "bike_id": "a1113573ec77354f3c2e492203e03476"}, {"lon": -76.99746966666666, "rental_uris": {"android": "https://dc.lft.to/lastmile_qr_scan", "ios": "https://dc.lft.to/lastmile_qr_scan"}, "fusion_lon": 0.0, "is_reserved": 0, "is_disabled": 0, "fusion_lat": 0.0, "type": "electric_scooter", "name": "e6bb97007b0af9e2298eea7cd8a03394", "lat": 38.92419966666667, "bike_id": "e6bb97007b0af9e2298eea7cd8a03394"}, {"lon": -77.053366, "rental_uris": {"android": "https://dc.lft.to/lastmile_qr_scan", "ios": "https://dc.lft.to/lastmile_qr_scan"}, "fusion_lon": 0.0, "is_reserved": 0, "is_disabled": 0, "fusion_lat": 0.0, "type": "electric_scooter", "name": "338f45f1e6e9df5108dfbb3d6dbb7cc6", "lat": 38.898829666666664, "bike_id": "338f45f1e6e9df5108dfbb3d6dbb7cc6"}, {"lon": -77.06344383333334, "rental_uris": {"android": "https://dc.lft.to/lastmile_qr_scan", "ios": "https://dc.lft.to/lastmile_qr_scan"}, "fusion_lon": 0.0, "is_reserved": 0, "is_disabled": 0, "fusion_lat": 0.0, "type": "electric_scooter", "name": "5071f7be97766c14fa444499d6d7d456", "lat": 38.9445985, "bike_id": "5071f7be97766c14fa444499d6d7d456"}, {"lon": -77.024606, "rental_uris": {"android": "https://dc.lft.to/lastmile_qr_scan", "ios": "https://dc.lft.to/lastmile_qr_scan"}, "fusion_lon": 0.0, "is_reserved": 0, "is_disabled": 0, "fusion_lat": 0.0, "type": "electric_scooter", "name": "cbe080e43ef50ebc66f2938af3b7216c", "lat": 38.91664866666667, "bike_id": "cbe080e43ef50ebc66f2938af3b7216c"}, {"lon": -77.00330666666666, "rental_uris": {"android": "https://dc.lft.to/lastmile_qr_scan", "ios": "https://dc.lft.to/lastmile_qr_scan"}, "fusion_lon": 0.0, "is_reserved": 0, "is_disabled": 0, "fusion_lat": 0.0, "type": "electric_scooter", "name": "509db120199726ea0337f3d00a795cad", "lat": 38.89364533333333, "bike_id": "509db120199726ea0337f3d00a795cad"}, {"lon": -77.07656516666667, "rental_uris": {"android": "https://dc.lft.to/lastmile_qr_scan", "ios": "https://dc.lft.to/lastmile_qr_scan"}, "fusion_lon": 0.0, "is_reserved": 0, "is_disabled": 0, "fusion_lat": 0.0, "type": "electric_bike", "name": "d8b7a6c921d500333b0a4c1cabb5bebd", "lat": 38.809802833333336, "bike_id": "d8b7a6c921d500333b0a4c1cabb5bebd"}, {"lon": -77.04335916666666, "rental_uris": {"android": "https://dc.lft.to/lastmile_qr_scan", "ios": "https://dc.lft.to/lastmile_qr_scan"}, "fusion_lon": 0.0, "is_reserved": 0, "is_disabled": 0, "fusion_lat": 0.0, "type": "electric_scooter", "name": "005c5c0f1656413b08be940d8259839f", "lat": 38.9036985, "bike_id": "005c5c0f1656413b08be940d8259839f"}, {"lon": -77.03994216666666, "rental_uris": {"android": "https://dc.lft.to/lastmile_qr_scan", "ios": "https://dc.lft.to/lastmile_qr_scan"}, "fusion_lon": 0.0, "is_reserved": 0, "is_disabled": 0, "fusion_lat": 0.0, "type": "electric_scooter", "name": "b5eee42e037608900ebd653d113a1e1b", "lat": 38.92464916666667, "bike_id": "b5eee42e037608900ebd653d113a1e1b"}, {"lon": -77.03206916666667, "rental_uris": {"android": "https://dc.lft.to/lastmile_qr_scan", "ios": "https://dc.lft.to/lastmile_qr_scan"}, "fusion_lon": 0.0, "is_reserved": 0, "is_disabled": 0, "fusion_lat": 0.0, "type": "electric_scooter", "name": "67ba7d19cb69be9b4ba4b1bab87f9ad6", "lat": 38.900436, "bike_id": "67ba7d19cb69be9b4ba4b1bab87f9ad6"}, {"lon": -76.98219633333333, "rental_uris": {"android": "https://dc.lft.to/lastmile_qr_scan", "ios": "https://dc.lft.to/lastmile_qr_scan"}, "fusion_lon": 0.0, "is_reserved": 0, "is_disabled": 0, "fusion_lat": 0.0, "type": "electric_scooter", "name": "47cdb0ab4a7e67f5bfdcaf45e9728e89", "lat": 38.895518833333334, "bike_id": "47cdb0ab4a7e67f5bfdcaf45e9728e89"}, {"lon": -77.01949133333333, "rental_uris": {"android": "https://dc.lft.to/lastmile_qr_scan", "ios": "https://dc.lft.to/lastmile_qr_scan"}, "fusion_lon": 0.0, "is_reserved": 0, "is_disabled": 0, "fusion_lat": 0.0, "type": "electric_scooter", "name": "ea05008ac7b3c381b5f73d58fcfd988e", "lat": 38.923288666666664, "bike_id": "ea05008ac7b3c381b5f73d58fcfd988e"}, {"lon": -77.04375233333333, "rental_uris": {"android": "https://dc.lft.to/lastmile_qr_scan", "ios": "https://dc.lft.to/lastmile_qr_scan"}, "fusion_lon": 0.0, "is_reserved": 0, "is_disabled": 0, "fusion_lat": 0.0, "type": "electric_scooter", "name": "ca0e2658c15be42638687160c7febd8f", "lat": 38.903893333333336, "bike_id": "ca0e2658c15be42638687160c7febd8f"}, {"lon": -76.988467, "rental_uris": {"android": "https://dc.lft.to/lastmile_qr_scan", "ios": "https://dc.lft.to/lastmile_qr_scan"}, "fusion_lon": 0.0, "is_reserved": 0, "is_disabled": 0, "fusion_lat": 0.0, "type": "electric_scooter", "name": "4b3540a8555e701c61507adec50834b5", "lat": 38.9002715, "bike_id": "4b3540a8555e701c61507adec50834b5"}, {"lon": -77.02876933333333, "rental_uris": {"android": "https://dc.lft.to/lastmile_qr_scan", "ios": "https://dc.lft.to/lastmile_qr_scan"}, "fusion_lon": 0.0, "is_reserved": 0, "is_disabled": 0, "fusion_lat": 0.0, "type": "electric_scooter", "name": "f77c97e331db57d487231e08ecc6aa5e", "lat": 38.9126605, "bike_id": "f77c97e331db57d487231e08ecc6aa5e"}, {"lon": -76.97230616666667, "rental_uris": {"android": "https://dc.lft.to/lastmile_qr_scan", "ios": "https://dc.lft.to/lastmile_qr_scan"}, "fusion_lon": 0.0, "is_reserved": 0, "is_disabled": 0, "fusion_lat": 0.0, "type": "electric_bike", "name": "fd1796b7cda39ea5e548ce92a64d7347", "lat": 38.90036666666666, "bike_id": "fd1796b7cda39ea5e548ce92a64d7347"}, {"lon": -77.03209583333333, "rental_uris": {"android": "https://dc.lft.to/lastmile_qr_scan", "ios": "https://dc.lft.to/lastmile_qr_scan"}, "fusion_lon": 0.0, "is_reserved": 0, "is_disabled": 0, "fusion_lat": 0.0, "type": "electric_scooter", "name": "b419ba7b2df0c04495d7a60fc21af092", "lat": 38.91925116666667, "bike_id": "b419ba7b2df0c04495d7a60fc21af092"}, {"lon": -77.0363605, "rental_uris": {"android": "https://dc.lft.to/lastmile_qr_scan", "ios": "https://dc.lft.to/lastmile_qr_scan"}, "fusion_lon": 0.0, "is_reserved": 0, "is_disabled": 0, "fusion_lat": 0.0, "type": "electric_scooter", "name": "56dc60d2d41631daeca2b53e9f574cbc", "lat": 38.93667583333333, "bike_id": "56dc60d2d41631daeca2b53e9f574cbc"}, {"lon": -77.0062655, "rental_uris": {"android": "https://dc.lft.to/lastmile_qr_scan", "ios": "https://dc.lft.to/lastmile_qr_scan"}, "fusion_lon": 0.0, "is_reserved": 0, "is_disabled": 0, "fusion_lat": 0.0, "type": "electric_scooter", "name": "6081c48bbb61aaccc5fbebd2a7d1ec8b", "lat": 38.912612333333335, "bike_id": "6081c48bbb61aaccc5fbebd2a7d1ec8b"}, {"lon": -76.9671045, "rental_uris": {"android": "https://dc.lft.to/lastmile_qr_scan", "ios": "https://dc.lft.to/lastmile_qr_scan"}, "fusion_lon": 0.0, "is_reserved": 0, "is_disabled": 0, "fusion_lat": 0.0, "type": "electric_scooter", "name": "b827ed80c332988426203571cfae36d3", "lat": 38.86063983333333, "bike_id": "b827ed80c332988426203571cfae36d3"}, {"lon": -77.04010066666666, "rental_uris": {"android": "https://dc.lft.to/lastmile_qr_scan", "ios": "https://dc.lft.to/lastmile_qr_scan"}, "fusion_lon": 0.0, "is_reserved": 0, "is_disabled": 0, "fusion_lat": 0.0, "type": "electric_scooter", "name": "1021c71fabd4bfc212e0bcc19cc332ec", "lat": 38.9084175, "bike_id": "1021c71fabd4bfc212e0bcc19cc332ec"}, {"lon": -77.03664333333333, "rental_uris": {"android": "https://dc.lft.to/lastmile_qr_scan", "ios": "https://dc.lft.to/lastmile_qr_scan"}, "fusion_lon": 0.0, "is_reserved": 0, "is_disabled": 0, "fusion_lat": 0.0, "type": "electric_scooter", "name": "60a5f57710c661e346c2411b487204f0", "lat": 38.93173516666667, "bike_id": "60a5f57710c661e346c2411b487204f0"}, {"lon": -77.01794066666666, "rental_uris": {"android": "https://dc.lft.to/lastmile_qr_scan", "ios": "https://dc.lft.to/lastmile_qr_scan"}, "fusion_lon": 0.0, "is_reserved": 0, "is_disabled": 0, "fusion_lat": 0.0, "type": "electric_scooter", "name": "f79d5344b84fa510ca44658abf2bb606", "lat": 38.90642666666667, "bike_id": "f79d5344b84fa510ca44658abf2bb606"}, {"lon": -77.053142, "rental_uris": {"android": "https://dc.lft.to/lastmile_qr_scan", "ios": "https://dc.lft.to/lastmile_qr_scan"}, "fusion_lon": 0.0, "is_reserved": 0, "is_disabled": 0, "fusion_lat": 0.0, "type": "electric_scooter", "name": "71b56487edf85872eed3769bb65aecef", "lat": 38.90268783333333, "bike_id": "71b56487edf85872eed3769bb65aecef"}, {"lon": -77.01745433333333, "rental_uris": {"android": "https://dc.lft.to/lastmile_qr_scan", "ios": "https://dc.lft.to/lastmile_qr_scan"}, "fusion_lon": 0.0, "is_reserved": 0, "is_disabled": 0, "fusion_lat": 0.0, "type": "electric_scooter", "name": "272104e766bde9c175fea822648b9b42", "lat": 38.87730783333333, "bike_id": "272104e766bde9c175fea822648b9b42"}, {"lon": -77.04153133333334, "rental_uris": {"android": "https://dc.lft.to/lastmile_qr_scan", "ios": "https://dc.lft.to/lastmile_qr_scan"}, "fusion_lon": 0.0, "is_reserved": 0, "is_disabled": 0, "fusion_lat": 0.0, "type": "electric_scooter", "name": "a6097d9b1e44892d8ed701e4b876adbe", "lat": 38.92358816666667, "bike_id": "a6097d9b1e44892d8ed701e4b876adbe"}, {"lon": -76.98456566666667, "rental_uris": {"android": "https://dc.lft.to/lastmile_qr_scan", "ios": "https://dc.lft.to/lastmile_qr_scan"}, "fusion_lon": 0.0, "is_reserved": 0, "is_disabled": 0, "fusion_lat": 0.0, "type": "electric_scooter", "name": "ff0df7bb002cbeda65e9fe9a3fbaf17d", "lat": 38.89772333333333, "bike_id": "ff0df7bb002cbeda65e9fe9a3fbaf17d"}, {"lon": -77.01702716666667, "rental_uris": {"android": "https://dc.lft.to/lastmile_qr_scan", "ios": "https://dc.lft.to/lastmile_qr_scan"}, "fusion_lon": 0.0, "is_reserved": 0, "is_disabled": 0, "fusion_lat": 0.0, "type": "electric_scooter", "name": "1c7bc2e3eff8c113e54a9a7da7cdc563", "lat": 38.92049033333333, "bike_id": "1c7bc2e3eff8c113e54a9a7da7cdc563"}, {"lon": -77.01749333333333, "rental_uris": {"android": "https://dc.lft.to/lastmile_qr_scan", "ios": "https://dc.lft.to/lastmile_qr_scan"}, "fusion_lon": 0.0, "is_reserved": 0, "is_disabled": 0, "fusion_lat": 0.0, "type": "electric_scooter", "name": "e315ec33bc94a2b8342bd06f6f8c7ff4", "lat": 38.904553666666665, "bike_id": "e315ec33bc94a2b8342bd06f6f8c7ff4"}, {"lon": -77.01766833333333, "rental_uris": {"android": "https://dc.lft.to/lastmile_qr_scan", "ios": "https://dc.lft.to/lastmile_qr_scan"}, "fusion_lon": 0.0, "is_reserved": 0, "is_disabled": 0, "fusion_lat": 0.0, "type": "electric_scooter", "name": "f9e4e0b4c0cc1b985ae13285e58e11fb", "lat": 38.892314666666664, "bike_id": "f9e4e0b4c0cc1b985ae13285e58e11fb"}, {"lon": -77.04236683333333, "rental_uris": {"android": "https://dc.lft.to/lastmile_qr_scan", "ios": "https://dc.lft.to/lastmile_qr_scan"}, "fusion_lon": 0.0, "is_reserved": 0, "is_disabled": 0, "fusion_lat": 0.0, "type": "electric_scooter", "name": "c76e8353e2095e6107dd990c4b381211", "lat": 38.922280666666666, "bike_id": "c76e8353e2095e6107dd990c4b381211"}, {"lon": -77.04325433333334, "rental_uris": {"android": "https://dc.lft.to/lastmile_qr_scan", "ios": "https://dc.lft.to/lastmile_qr_scan"}, "fusion_lon": 0.0, "is_reserved": 0, "is_disabled": 0, "fusion_lat": 0.0, "type": "electric_bike", "name": "e84add6d47b9e9c471df66992e61ef9e", "lat": 39.03425166666667, "bike_id": "e84add6d47b9e9c471df66992e61ef9e"}, {"lon": -77.037799, "rental_uris": {"android": "https://dc.lft.to/lastmile_qr_scan", "ios": "https://dc.lft.to/lastmile_qr_scan"}, "fusion_lon": 0.0, "is_reserved": 0, "is_disabled": 0, "fusion_lat": 0.0, "type": "electric_scooter", "name": "ea926fe3bc2a27b0e6cae6b7e1f9ab8f", "lat": 38.92192466666667, "bike_id": "ea926fe3bc2a27b0e6cae6b7e1f9ab8f"}, {"lon": -77.01827983333334, "rental_uris": {"android": "https://dc.lft.to/lastmile_qr_scan", "ios": "https://dc.lft.to/lastmile_qr_scan"}, "fusion_lon": 0.0, "is_reserved": 0, "is_disabled": 0, "fusion_lat": 0.0, "type": "electric_scooter", "name": "328c2c3dee9ebaba0e4aaa7556799b7d", "lat": 38.922605, "bike_id": "328c2c3dee9ebaba0e4aaa7556799b7d"}, {"lon": -77.07029366666667, "rental_uris": {"android": "https://dc.lft.to/lastmile_qr_scan", "ios": "https://dc.lft.to/lastmile_qr_scan"}, "fusion_lon": 0.0, "is_reserved": 0, "is_disabled": 0, "fusion_lat": 0.0, "type": "electric_scooter", "name": "734e10299307b14d44b7963e0c0797e0", "lat": 38.9191025, "bike_id": "734e10299307b14d44b7963e0c0797e0"}, {"lon": -77.00289266666667, "rental_uris": {"android": "https://dc.lft.to/lastmile_qr_scan", "ios": "https://dc.lft.to/lastmile_qr_scan"}, "fusion_lon": 0.0, "is_reserved": 0, "is_disabled": 0, "fusion_lat": 0.0, "type": "electric_scooter", "name": "a86a56cac9eb92483678179d7bb0ae99", "lat": 38.89232116666667, "bike_id": "a86a56cac9eb92483678179d7bb0ae99"}, {"lon": -77.04654666666667, "rental_uris": {"android": "https://dc.lft.to/lastmile_qr_scan", "ios": "https://dc.lft.to/lastmile_qr_scan"}, "fusion_lon": 0.0, "is_reserved": 0, "is_disabled": 0, "fusion_lat": 0.0, "type": "electric_scooter", "name": "420d8542713579264522e9681371e283", "lat": 38.910288, "bike_id": "420d8542713579264522e9681371e283"}, {"lon": -77.04518116666667, "rental_uris": {"android": "https://dc.lft.to/lastmile_qr_scan", "ios": "https://dc.lft.to/lastmile_qr_scan"}, "fusion_lon": 0.0, "is_reserved": 0, "is_disabled": 0, "fusion_lat": 0.0, "type": "electric_scooter", "name": "e949783e98145f9970c50c656e01ae0f", "lat": 38.9013805, "bike_id": "e949783e98145f9970c50c656e01ae0f"}, {"lon": -76.97327383333334, "rental_uris": {"android": "https://dc.lft.to/lastmile_qr_scan", "ios": "https://dc.lft.to/lastmile_qr_scan"}, "fusion_lon": 0.0, "is_reserved": 0, "is_disabled": 0, "fusion_lat": 0.0, "type": "electric_scooter", "name": "9da51ebb8e7de58601d928213f5b29da", "lat": 38.90411, "bike_id": "9da51ebb8e7de58601d928213f5b29da"}, {"lon": -77.0408025, "rental_uris": {"android": "https://dc.lft.to/lastmile_qr_scan", "ios": "https://dc.lft.to/lastmile_qr_scan"}, "fusion_lon": 0.0, "is_reserved": 0, "is_disabled": 0, "fusion_lat": 0.0, "type": "electric_scooter", "name": "82ba14c85b1a4c705e16e56692a2762e", "lat": 38.932827833333334, "bike_id": "82ba14c85b1a4c705e16e56692a2762e"}, {"lon": -76.984374, "rental_uris": {"android": "https://dc.lft.to/lastmile_qr_scan", "ios": "https://dc.lft.to/lastmile_qr_scan"}, "fusion_lon": 0.0, "is_reserved": 0, "is_disabled": 0, "fusion_lat": 0.0, "type": "electric_scooter", "name": "506f545ba94a5103ad19d2e9f798ce38", "lat": 38.91435633333333, "bike_id": "506f545ba94a5103ad19d2e9f798ce38"}, {"lon": -77.03567483333333, "rental_uris": {"android": "https://dc.lft.to/lastmile_qr_scan", "ios": "https://dc.lft.to/lastmile_qr_scan"}, "fusion_lon": 0.0, "is_reserved": 0, "is_disabled": 0, "fusion_lat": 0.0, "type": "electric_scooter", "name": "bc130904a96c14a8fef6a82d7fbae451", "lat": 38.926949, "bike_id": "bc130904a96c14a8fef6a82d7fbae451"}, {"lon": -77.02979316666666, "rental_uris": {"android": "https://dc.lft.to/lastmile_qr_scan", "ios": "https://dc.lft.to/lastmile_qr_scan"}, "fusion_lon": 0.0, "is_reserved": 0, "is_disabled": 0, "fusion_lat": 0.0, "type": "electric_scooter", "name": "47003bada4f2ec1ab779d5772c0108a4", "lat": 38.949793166666666, "bike_id": "47003bada4f2ec1ab779d5772c0108a4"}, {"lon": -76.99572666666667, "rental_uris": {"android": "https://dc.lft.to/lastmile_qr_scan", "ios": "https://dc.lft.to/lastmile_qr_scan"}, "fusion_lon": 0.0, "is_reserved": 0, "is_disabled": 0, "fusion_lat": 0.0, "type": "electric_scooter", "name": "23fd0aba1fed92f9a96f15087cea1522", "lat": 38.862732666666666, "bike_id": "23fd0aba1fed92f9a96f15087cea1522"}, {"lon": -77.021599, "rental_uris": {"android": "https://dc.lft.to/lastmile_qr_scan", "ios": "https://dc.lft.to/lastmile_qr_scan"}, "fusion_lon": 0.0, "is_reserved": 0, "is_disabled": 0, "fusion_lat": 0.0, "type": "electric_scooter", "name": "dcd13be72701fe5890cd86f0bd779fdc", "lat": 38.89885316666667, "bike_id": "dcd13be72701fe5890cd86f0bd779fdc"}, {"lon": -77.03180066666667, "rental_uris": {"android": "https://dc.lft.to/lastmile_qr_scan", "ios": "https://dc.lft.to/lastmile_qr_scan"}, "fusion_lon": 0.0, "is_reserved": 0, "is_disabled": 0, "fusion_lat": 0.0, "type": "electric_scooter", "name": "820ca7ae39e2368504ecd9f1f7c3c236", "lat": 38.887347, "bike_id": "820ca7ae39e2368504ecd9f1f7c3c236"}, {"lon": -77.02930616666667, "rental_uris": {"android": "https://dc.lft.to/lastmile_qr_scan", "ios": "https://dc.lft.to/lastmile_qr_scan"}, "fusion_lon": 0.0, "is_reserved": 0, "is_disabled": 0, "fusion_lat": 0.0, "type": "electric_scooter", "name": "2ce4fb868591a854af0b21c63daf7cdd", "lat": 38.942839166666666, "bike_id": "2ce4fb868591a854af0b21c63daf7cdd"}, {"lon": -77.041405, "rental_uris": {"android": "https://dc.lft.to/lastmile_qr_scan", "ios": "https://dc.lft.to/lastmile_qr_scan"}, "fusion_lon": 0.0, "is_reserved": 0, "is_disabled": 0, "fusion_lat": 0.0, "type": "electric_scooter", "name": "12facc2f55b0ca4373beb4a93041c2c5", "lat": 38.90509016666667, "bike_id": "12facc2f55b0ca4373beb4a93041c2c5"}, {"lon": -77.023241, "rental_uris": {"android": "https://dc.lft.to/lastmile_qr_scan", "ios": "https://dc.lft.to/lastmile_qr_scan"}, "fusion_lon": 0.0, "is_reserved": 0, "is_disabled": 0, "fusion_lat": 0.0, "type": "electric_scooter", "name": "78e631b60d57b754beec2cdeee376652", "lat": 38.898570666666664, "bike_id": "78e631b60d57b754beec2cdeee376652"}, {"lon": -77.04661766666666, "rental_uris": {"android": "https://dc.lft.to/lastmile_qr_scan", "ios": "https://dc.lft.to/lastmile_qr_scan"}, "fusion_lon": 0.0, "is_reserved": 0, "is_disabled": 0, "fusion_lat": 0.0, "type": "electric_scooter", "name": "e470c0376852e43049898c6dc5380c77", "lat": 38.903747833333334, "bike_id": "e470c0376852e43049898c6dc5380c77"}, {"lon": -77.04710033333333, "rental_uris": {"android": "https://dc.lft.to/lastmile_qr_scan", "ios": "https://dc.lft.to/lastmile_qr_scan"}, "fusion_lon": 0.0, "is_reserved": 0, "is_disabled": 0, "fusion_lat": 0.0, "type": "electric_bike", "name": "11e9948f81b316ef9aa1e46da6d87ea2", "lat": 38.9977605, "bike_id": "11e9948f81b316ef9aa1e46da6d87ea2"}, {"lon": -77.0343355, "rental_uris": {"android": "https://dc.lft.to/lastmile_qr_scan", "ios": "https://dc.lft.to/lastmile_qr_scan"}, "fusion_lon": 0.0, "is_reserved": 0, "is_disabled": 0, "fusion_lat": 0.0, "type": "electric_scooter", "name": "936bc32bc95d17f5ef63b41fbf044103", "lat": 38.90254133333333, "bike_id": "936bc32bc95d17f5ef63b41fbf044103"}, {"lon": -77.03739133333333, "rental_uris": {"android": "https://dc.lft.to/lastmile_qr_scan", "ios": "https://dc.lft.to/lastmile_qr_scan"}, "fusion_lon": 0.0, "is_reserved": 0, "is_disabled": 0, "fusion_lat": 0.0, "type": "electric_scooter", "name": "c43df8009009a674b4243f4090a0422f", "lat": 38.907677666666665, "bike_id": "c43df8009009a674b4243f4090a0422f"}, {"lon": -77.117655, "rental_uris": {"android": "https://dc.lft.to/lastmile_qr_scan", "ios": "https://dc.lft.to/lastmile_qr_scan"}, "fusion_lon": 0.0, "is_reserved": 0, "is_disabled": 0, "fusion_lat": 0.0, "type": "electric_bike", "name": "cd56b334c956aec46c2aa2c8bbd2c705", "lat": 38.81256283333333, "bike_id": "cd56b334c956aec46c2aa2c8bbd2c705"}, {"lon": -77.006862, "rental_uris": {"android": "https://dc.lft.to/lastmile_qr_scan", "ios": "https://dc.lft.to/lastmile_qr_scan"}, "fusion_lon": 0.0, "is_reserved": 0, "is_disabled": 0, "fusion_lat": 0.0, "type": "electric_scooter", "name": "57d4022e31f0cef2339c9bd181d06a47", "lat": 38.87147316666667, "bike_id": "57d4022e31f0cef2339c9bd181d06a47"}, {"lon": -76.97008916666667, "rental_uris": {"android": "https://dc.lft.to/lastmile_qr_scan", "ios": "https://dc.lft.to/lastmile_qr_scan"}, "fusion_lon": 0.0, "is_reserved": 0, "is_disabled": 0, "fusion_lat": 0.0, "type": "electric_bike", "name": "546f2fb7a7212a2215e2a717e046cc2a", "lat": 38.86372683333333, "bike_id": "546f2fb7a7212a2215e2a717e046cc2a"}, {"lon": -77.04244233333333, "rental_uris": {"android": "https://dc.lft.to/lastmile_qr_scan", "ios": "https://dc.lft.to/lastmile_qr_scan"}, "fusion_lon": 0.0, "is_reserved": 0, "is_disabled": 0, "fusion_lat": 0.0, "type": "electric_scooter", "name": "d73520403918f6868c2077b042741024", "lat": 38.924325333333336, "bike_id": "d73520403918f6868c2077b042741024"}, {"lon": -77.04400533333333, "rental_uris": {"android": "https://dc.lft.to/lastmile_qr_scan", "ios": "https://dc.lft.to/lastmile_qr_scan"}, "fusion_lon": 0.0, "is_reserved": 0, "is_disabled": 0, "fusion_lat": 0.0, "type": "electric_scooter", "name": "7a8cd3f5f331ddb305b56bd4bf2708be", "lat": 38.92019, "bike_id": "7a8cd3f5f331ddb305b56bd4bf2708be"}, {"lon": -77.04195366666667, "rental_uris": {"android": "https://dc.lft.to/lastmile_qr_scan", "ios": "https://dc.lft.to/lastmile_qr_scan"}, "fusion_lon": 0.0, "is_reserved": 0, "is_disabled": 0, "fusion_lat": 0.0, "type": "electric_scooter", "name": "e2a8aae7f500e1ca7eeac505f04a7f11", "lat": 38.926248333333334, "bike_id": "e2a8aae7f500e1ca7eeac505f04a7f11"}, {"lon": -77.129833, "rental_uris": {"android": "https://dc.lft.to/lastmile_qr_scan", "ios": "https://dc.lft.to/lastmile_qr_scan"}, "fusion_lon": 0.0, "is_reserved": 0, "is_disabled": 0, "fusion_lat": 0.0, "type": "electric_bike", "name": "392d7c6bdc779b9fbee93e10cc549ed4", "lat": 38.79984283333334, "bike_id": "392d7c6bdc779b9fbee93e10cc549ed4"}, {"lon": -77.05924, "rental_uris": {"android": "https://dc.lft.to/lastmile_qr_scan", "ios": "https://dc.lft.to/lastmile_qr_scan"}, "fusion_lon": 0.0, "is_reserved": 0, "is_disabled": 0, "fusion_lat": 0.0, "type": "electric_scooter", "name": "684ee67563fa9c23d288548e3466c0bd", "lat": 38.94303383333333, "bike_id": "684ee67563fa9c23d288548e3466c0bd"}, {"lon": -77.01395583333333, "rental_uris": {"android": "https://dc.lft.to/lastmile_qr_scan", "ios": "https://dc.lft.to/lastmile_qr_scan"}, "fusion_lon": 0.0, "is_reserved": 0, "is_disabled": 0, "fusion_lat": 0.0, "type": "electric_scooter", "name": "40e3410e5d845558b5015da7f35e17c5", "lat": 38.8922235, "bike_id": "40e3410e5d845558b5015da7f35e17c5"}, {"lon": -77.033843, "rental_uris": {"android": "https://dc.lft.to/lastmile_qr_scan", "ios": "https://dc.lft.to/lastmile_qr_scan"}, "fusion_lon": 0.0, "is_reserved": 0, "is_disabled": 0, "fusion_lat": 0.0, "type": "electric_scooter", "name": "1796458ab794a1914465410bf3840b79", "lat": 38.9037375, "bike_id": "1796458ab794a1914465410bf3840b79"}, {"lon": -77.04215316666667, "rental_uris": {"android": "https://dc.lft.to/lastmile_qr_scan", "ios": "https://dc.lft.to/lastmile_qr_scan"}, "fusion_lon": 0.0, "is_reserved": 0, "is_disabled": 0, "fusion_lat": 0.0, "type": "electric_scooter", "name": "2e8e7c6ff0b8ebd66aedf9940e7292ff", "lat": 38.899626833333336, "bike_id": "2e8e7c6ff0b8ebd66aedf9940e7292ff"}, {"lon": -77.03866216666667, "rental_uris": {"android": "https://dc.lft.to/lastmile_qr_scan", "ios": "https://dc.lft.to/lastmile_qr_scan"}, "fusion_lon": 0.0, "is_reserved": 0, "is_disabled": 0, "fusion_lat": 0.0, "type": "electric_scooter", "name": "203027e2c357264e85318340e1766792", "lat": 38.924449333333335, "bike_id": "203027e2c357264e85318340e1766792"}, {"lon": -77.01489583333333, "rental_uris": {"android": "https://dc.lft.to/lastmile_qr_scan", "ios": "https://dc.lft.to/lastmile_qr_scan"}, "fusion_lon": 0.0, "is_reserved": 0, "is_disabled": 0, "fusion_lat": 0.0, "type": "electric_scooter", "name": "809bf3838a4cb7397ef5fa31f14ff5d5", "lat": 38.9576165, "bike_id": "809bf3838a4cb7397ef5fa31f14ff5d5"}, {"lon": -77.06937833333333, "rental_uris": {"android": "https://dc.lft.to/lastmile_qr_scan", "ios": "https://dc.lft.to/lastmile_qr_scan"}, "fusion_lon": 0.0, "is_reserved": 0, "is_disabled": 0, "fusion_lat": 0.0, "type": "electric_scooter", "name": "8adba64c4b9daf31fc4d3b035657f1b2", "lat": 38.917454, "bike_id": "8adba64c4b9daf31fc4d3b035657f1b2"}, {"lon": -77.03401983333333, "rental_uris": {"android": "https://dc.lft.to/lastmile_qr_scan", "ios": "https://dc.lft.to/lastmile_qr_scan"}, "fusion_lon": 0.0, "is_reserved": 0, "is_disabled": 0, "fusion_lat": 0.0, "type": "electric_scooter", "name": "0417cb4ab06a8156f2d39292b412ae8d", "lat": 38.902671, "bike_id": "0417cb4ab06a8156f2d39292b412ae8d"}, {"lon": -77.04427333333334, "rental_uris": {"android": "https://dc.lft.to/lastmile_qr_scan", "ios": "https://dc.lft.to/lastmile_qr_scan"}, "fusion_lon": 0.0, "is_reserved": 0, "is_disabled": 0, "fusion_lat": 0.0, "type": "electric_bike", "name": "0e711fefb7a98ef744fd6f609eb9f53d", "lat": 38.90026533333333, "bike_id": "0e711fefb7a98ef744fd6f609eb9f53d"}, {"lon": -77.06757333333333, "rental_uris": {"android": "https://dc.lft.to/lastmile_qr_scan", "ios": "https://dc.lft.to/lastmile_qr_scan"}, "fusion_lon": 0.0, "is_reserved": 0, "is_disabled": 0, "fusion_lat": 0.0, "type": "electric_scooter", "name": "f2b89b81dcafef92a11b0f3394175354", "lat": 38.90512416666667, "bike_id": "f2b89b81dcafef92a11b0f3394175354"}, {"lon": -77.04045783333333, "rental_uris": {"android": "https://dc.lft.to/lastmile_qr_scan", "ios": "https://dc.lft.to/lastmile_qr_scan"}, "fusion_lon": 0.0, "is_reserved": 0, "is_disabled": 0, "fusion_lat": 0.0, "type": "electric_scooter", "name": "3c3b4cd459f5d468f1ba603153b69ed1", "lat": 38.90567633333333, "bike_id": "3c3b4cd459f5d468f1ba603153b69ed1"}, {"lon": -77.04311983333334, "rental_uris": {"android": "https://dc.lft.to/lastmile_qr_scan", "ios": "https://dc.lft.to/lastmile_qr_scan"}, "fusion_lon": 0.0, "is_reserved": 0, "is_disabled": 0, "fusion_lat": 0.0, "type": "electric_scooter", "name": "5c6713145dc2538e2e74b4c2a3114679", "lat": 38.90565333333333, "bike_id": "5c6713145dc2538e2e74b4c2a3114679"}, {"lon": -76.998864, "rental_uris": {"android": "https://dc.lft.to/lastmile_qr_scan", "ios": "https://dc.lft.to/lastmile_qr_scan"}, "fusion_lon": 0.0, "is_reserved": 0, "is_disabled": 0, "fusion_lat": 0.0, "type": "electric_scooter", "name": "bbf9da533b43bfc38a9656680921fa10", "lat": 38.8793125, "bike_id": "bbf9da533b43bfc38a9656680921fa10"}, {"lon": -77.04869783333334, "rental_uris": {"android": "https://dc.lft.to/lastmile_qr_scan", "ios": "https://dc.lft.to/lastmile_qr_scan"}, "fusion_lon": 0.0, "is_reserved": 0, "is_disabled": 0, "fusion_lat": 0.0, "type": "electric_scooter", "name": "dcaaecbe753a3cc9a0a8777d68f414a5", "lat": 38.916197333333336, "bike_id": "dcaaecbe753a3cc9a0a8777d68f414a5"}, {"lon": -77.03181683333334, "rental_uris": {"android": "https://dc.lft.to/lastmile_qr_scan", "ios": "https://dc.lft.to/lastmile_qr_scan"}, "fusion_lon": 0.0, "is_reserved": 0, "is_disabled": 0, "fusion_lat": 0.0, "type": "electric_scooter", "name": "600b02fcfed2bfad3e83265474d60308", "lat": 38.9177685, "bike_id": "600b02fcfed2bfad3e83265474d60308"}, {"lon": -77.02752883333334, "rental_uris": {"android": "https://dc.lft.to/lastmile_qr_scan", "ios": "https://dc.lft.to/lastmile_qr_scan"}, "fusion_lon": 0.0, "is_reserved": 0, "is_disabled": 0, "fusion_lat": 0.0, "type": "electric_scooter", "name": "49ec8292d664dc11d96fd7991125af59", "lat": 38.927786, "bike_id": "49ec8292d664dc11d96fd7991125af59"}, {"lon": -77.05310583333333, "rental_uris": {"android": "https://dc.lft.to/lastmile_qr_scan", "ios": "https://dc.lft.to/lastmile_qr_scan"}, "fusion_lon": 0.0, "is_reserved": 0, "is_disabled": 0, "fusion_lat": 0.0, "type": "electric_scooter", "name": "69d426b49a71b45f6bf7b94c0d03dc1e", "lat": 38.902681666666666, "bike_id": "69d426b49a71b45f6bf7b94c0d03dc1e"}, {"lon": -77.033578, "rental_uris": {"android": "https://dc.lft.to/lastmile_qr_scan", "ios": "https://dc.lft.to/lastmile_qr_scan"}, "fusion_lon": 0.0, "is_reserved": 0, "is_disabled": 0, "fusion_lat": 0.0, "type": "electric_scooter", "name": "586d475331b5a2f0402714ca86d7fea8", "lat": 38.945122166666664, "bike_id": "586d475331b5a2f0402714ca86d7fea8"}, {"lon": -77.04896166666667, "rental_uris": {"android": "https://dc.lft.to/lastmile_qr_scan", "ios": "https://dc.lft.to/lastmile_qr_scan"}, "fusion_lon": 0.0, "is_reserved": 0, "is_disabled": 0, "fusion_lat": 0.0, "type": "electric_scooter", "name": "d2a5cd752b58d94dc3d7ffc4f0802b08", "lat": 38.89227433333333, "bike_id": "d2a5cd752b58d94dc3d7ffc4f0802b08"}, {"lon": -77.02373066666667, "rental_uris": {"android": "https://dc.lft.to/lastmile_qr_scan", "ios": "https://dc.lft.to/lastmile_qr_scan"}, "fusion_lon": 0.0, "is_reserved": 0, "is_disabled": 0, "fusion_lat": 0.0, "type": "electric_scooter", "name": "2e31dcaed9a5e10a5cb0813f6f2eac15", "lat": 38.879261666666665, "bike_id": "2e31dcaed9a5e10a5cb0813f6f2eac15"}, {"lon": -77.03805033333333, "rental_uris": {"android": "https://dc.lft.to/lastmile_qr_scan", "ios": "https://dc.lft.to/lastmile_qr_scan"}, "fusion_lon": 0.0, "is_reserved": 0, "is_disabled": 0, "fusion_lat": 0.0, "type": "electric_scooter", "name": "5293c6974b5b53f5576e48be3a434011", "lat": 38.91554133333333, "bike_id": "5293c6974b5b53f5576e48be3a434011"}, {"lon": -77.02829033333333, "rental_uris": {"android": "https://dc.lft.to/lastmile_qr_scan", "ios": "https://dc.lft.to/lastmile_qr_scan"}, "fusion_lon": 0.0, "is_reserved": 0, "is_disabled": 0, "fusion_lat": 0.0, "type": "electric_scooter", "name": "6ee8846951aedc1d9d4f24444d45425e", "lat": 38.9224465, "bike_id": "6ee8846951aedc1d9d4f24444d45425e"}, {"lon": -77.0366325, "rental_uris": {"android": "https://dc.lft.to/lastmile_qr_scan", "ios": "https://dc.lft.to/lastmile_qr_scan"}, "fusion_lon": 0.0, "is_reserved": 0, "is_disabled": 0, "fusion_lat": 0.0, "type": "electric_scooter", "name": "b31cc759f9fcef932d3eac68c1c4b26d", "lat": 38.91136133333333, "bike_id": "b31cc759f9fcef932d3eac68c1c4b26d"}, {"lon": -77.23668883333333, "rental_uris": {"android": "https://dc.lft.to/lastmile_qr_scan", "ios": "https://dc.lft.to/lastmile_qr_scan"}, "fusion_lon": 0.0, "is_reserved": 0, "is_disabled": 0, "fusion_lat": 0.0, "type": "electric_bike", "name": "9ef3c68df86551506f9f4e3cfed82c48", "lat": 38.92121733333333, "bike_id": "9ef3c68df86551506f9f4e3cfed82c48"}, {"lon": -77.07264566666667, "rental_uris": {"android": "https://dc.lft.to/lastmile_qr_scan", "ios": "https://dc.lft.to/lastmile_qr_scan"}, "fusion_lon": 0.0, "is_reserved": 0, "is_disabled": 0, "fusion_lat": 0.0, "type": "electric_scooter", "name": "181be88853cc686281a9dc8393c7ea4e", "lat": 38.90906533333333, "bike_id": "181be88853cc686281a9dc8393c7ea4e"}, {"lon": -77.00874733333333, "rental_uris": {"android": "https://dc.lft.to/lastmile_qr_scan", "ios": "https://dc.lft.to/lastmile_qr_scan"}, "fusion_lon": 0.0, "is_reserved": 0, "is_disabled": 0, "fusion_lat": 0.0, "type": "electric_scooter", "name": "b1f336b4b04c6e57ec4a5a5b5bf2becd", "lat": 38.9056515, "bike_id": "b1f336b4b04c6e57ec4a5a5b5bf2becd"}, {"lon": -77.03389733333333, "rental_uris": {"android": "https://dc.lft.to/lastmile_qr_scan", "ios": "https://dc.lft.to/lastmile_qr_scan"}, "fusion_lon": 0.0, "is_reserved": 0, "is_disabled": 0, "fusion_lat": 0.0, "type": "electric_scooter", "name": "f2d20af4b219864c3beb553212f68f10", "lat": 38.938554333333336, "bike_id": "f2d20af4b219864c3beb553212f68f10"}, {"lon": -76.98719016666666, "rental_uris": {"android": "https://dc.lft.to/lastmile_qr_scan", "ios": "https://dc.lft.to/lastmile_qr_scan"}, "fusion_lon": 0.0, "is_reserved": 0, "is_disabled": 0, "fusion_lat": 0.0, "type": "electric_bike", "name": "17675c4d50d06802203fd5b1d5c54262", "lat": 38.863311333333336, "bike_id": "17675c4d50d06802203fd5b1d5c54262"}, {"lon": -77.00299966666667, "rental_uris": {"android": "https://dc.lft.to/lastmile_qr_scan", "ios": "https://dc.lft.to/lastmile_qr_scan"}, "fusion_lon": 0.0, "is_reserved": 0, "is_disabled": 0, "fusion_lat": 0.0, "type": "electric_scooter", "name": "9b2df65f275572b41ce040933ee89623", "lat": 38.876731166666666, "bike_id": "9b2df65f275572b41ce040933ee89623"}, {"lon": -77.01903183333333, "rental_uris": {"android": "https://dc.lft.to/lastmile_qr_scan", "ios": "https://dc.lft.to/lastmile_qr_scan"}, "fusion_lon": 0.0, "is_reserved": 0, "is_disabled": 0, "fusion_lat": 0.0, "type": "electric_scooter", "name": "af268e20e6fec3298cb881d90579eeae", "lat": 38.91919383333333, "bike_id": "af268e20e6fec3298cb881d90579eeae"}, {"lon": -77.071643, "rental_uris": {"android": "https://dc.lft.to/lastmile_qr_scan", "ios": "https://dc.lft.to/lastmile_qr_scan"}, "fusion_lon": 0.0, "is_reserved": 0, "is_disabled": 0, "fusion_lat": 0.0, "type": "electric_bike", "name": "a2db9420c9f9b1321e176310a3d9eb16", "lat": 38.907770166666666, "bike_id": "a2db9420c9f9b1321e176310a3d9eb16"}, {"lon": -77.0081495, "rental_uris": {"android": "https://dc.lft.to/lastmile_qr_scan", "ios": "https://dc.lft.to/lastmile_qr_scan"}, "fusion_lon": 0.0, "is_reserved": 0, "is_disabled": 0, "fusion_lat": 0.0, "type": "electric_scooter", "name": "e56da86497267837ec157dd9c0bcd121", "lat": 38.906322, "bike_id": "e56da86497267837ec157dd9c0bcd121"}, {"lon": -77.00035133333333, "rental_uris": {"android": "https://dc.lft.to/lastmile_qr_scan", "ios": "https://dc.lft.to/lastmile_qr_scan"}, "fusion_lon": 0.0, "is_reserved": 0, "is_disabled": 0, "fusion_lat": 0.0, "type": "electric_scooter", "name": "0f8e40c35f4a72ba281acf454f98110c", "lat": 38.87489866666667, "bike_id": "0f8e40c35f4a72ba281acf454f98110c"}, {"lon": -77.04702016666667, "rental_uris": {"android": "https://dc.lft.to/lastmile_qr_scan", "ios": "https://dc.lft.to/lastmile_qr_scan"}, "fusion_lon": 0.0, "is_reserved": 0, "is_disabled": 0, "fusion_lat": 0.0, "type": "electric_scooter", "name": "84efd155df8339838ea5838dd9673cd8", "lat": 38.921384333333336, "bike_id": "84efd155df8339838ea5838dd9673cd8"}, {"lon": -77.04487816666666, "rental_uris": {"android": "https://dc.lft.to/lastmile_qr_scan", "ios": "https://dc.lft.to/lastmile_qr_scan"}, "fusion_lon": 0.0, "is_reserved": 0, "is_disabled": 0, "fusion_lat": 0.0, "type": "electric_scooter", "name": "23487e5120ffdeaffda227e569aee0b2", "lat": 38.89956216666667, "bike_id": "23487e5120ffdeaffda227e569aee0b2"}, {"lon": -77.0250835, "rental_uris": {"android": "https://dc.lft.to/lastmile_qr_scan", "ios": "https://dc.lft.to/lastmile_qr_scan"}, "fusion_lon": 0.0, "is_reserved": 0, "is_disabled": 0, "fusion_lat": 0.0, "type": "electric_scooter", "name": "55787a5afe9733ebbacaf748c72094f9", "lat": 38.921140666666666, "bike_id": "55787a5afe9733ebbacaf748c72094f9"}, {"lon": -77.01823616666667, "rental_uris": {"android": "https://dc.lft.to/lastmile_qr_scan", "ios": "https://dc.lft.to/lastmile_qr_scan"}, "fusion_lon": 0.0, "is_reserved": 0, "is_disabled": 0, "fusion_lat": 0.0, "type": "electric_scooter", "name": "def0e86850af34a9709a474026b43bb8", "lat": 38.92238533333333, "bike_id": "def0e86850af34a9709a474026b43bb8"}, {"lon": -77.03853966666667, "rental_uris": {"android": "https://dc.lft.to/lastmile_qr_scan", "ios": "https://dc.lft.to/lastmile_qr_scan"}, "fusion_lon": 0.0, "is_reserved": 0, "is_disabled": 0, "fusion_lat": 0.0, "type": "electric_scooter", "name": "9abc7885aec6d1e599f29fcaced55322", "lat": 38.9093165, "bike_id": "9abc7885aec6d1e599f29fcaced55322"}, {"lon": -77.03286833333334, "rental_uris": {"android": "https://dc.lft.to/lastmile_qr_scan", "ios": "https://dc.lft.to/lastmile_qr_scan"}, "fusion_lon": 0.0, "is_reserved": 0, "is_disabled": 0, "fusion_lat": 0.0, "type": "electric_scooter", "name": "11b45dad424cec7bea745a73028913a1", "lat": 38.9375915, "bike_id": "11b45dad424cec7bea745a73028913a1"}, {"lon": -77.045, "rental_uris": {"android": "https://dc.lft.to/lastmile_qr_scan", "ios": "https://dc.lft.to/lastmile_qr_scan"}, "fusion_lon": 0.0, "is_reserved": 0, "is_disabled": 0, "fusion_lat": 0.0, "type": "electric_scooter", "name": "91d68defc4c0f747cf7d7502e2e74392", "lat": 38.903655666666666, "bike_id": "91d68defc4c0f747cf7d7502e2e74392"}, {"lon": -77.03475616666667, "rental_uris": {"android": "https://dc.lft.to/lastmile_qr_scan", "ios": "https://dc.lft.to/lastmile_qr_scan"}, "fusion_lon": 0.0, "is_reserved": 0, "is_disabled": 0, "fusion_lat": 0.0, "type": "electric_scooter", "name": "1e64566e9de150af3a79e5f4fa1ebb30", "lat": 38.906965666666665, "bike_id": "1e64566e9de150af3a79e5f4fa1ebb30"}, {"lon": -77.07247566666666, "rental_uris": {"android": "https://dc.lft.to/lastmile_qr_scan", "ios": "https://dc.lft.to/lastmile_qr_scan"}, "fusion_lon": 0.0, "is_reserved": 0, "is_disabled": 0, "fusion_lat": 0.0, "type": "electric_scooter", "name": "720e327195314c56fac080faf82699d9", "lat": 38.907884, "bike_id": "720e327195314c56fac080faf82699d9"}, {"lon": -77.04185166666667, "rental_uris": {"android": "https://dc.lft.to/lastmile_qr_scan", "ios": "https://dc.lft.to/lastmile_qr_scan"}, "fusion_lon": 0.0, "is_reserved": 0, "is_disabled": 0, "fusion_lat": 0.0, "type": "electric_scooter", "name": "a3117995af53f5ce1632e0a06616fb07", "lat": 38.922118, "bike_id": "a3117995af53f5ce1632e0a06616fb07"}, {"lon": -76.97665633333334, "rental_uris": {"android": "https://dc.lft.to/lastmile_qr_scan", "ios": "https://dc.lft.to/lastmile_qr_scan"}, "fusion_lon": 0.0, "is_reserved": 0, "is_disabled": 0, "fusion_lat": 0.0, "type": "electric_scooter", "name": "3b0481f83f74bd822e29222ee4964c62", "lat": 38.840561666666666, "bike_id": "3b0481f83f74bd822e29222ee4964c62"}, {"lon": -77.06289466666666, "rental_uris": {"android": "https://dc.lft.to/lastmile_qr_scan", "ios": "https://dc.lft.to/lastmile_qr_scan"}, "fusion_lon": 0.0, "is_reserved": 0, "is_disabled": 0, "fusion_lat": 0.0, "type": "electric_scooter", "name": "d15034fc6dcec13b988cc2b7f6cd22a4", "lat": 38.91246833333334, "bike_id": "d15034fc6dcec13b988cc2b7f6cd22a4"}, {"lon": -77.02114316666666, "rental_uris": {"android": "https://dc.lft.to/lastmile_qr_scan", "ios": "https://dc.lft.to/lastmile_qr_scan"}, "fusion_lon": 0.0, "is_reserved": 0, "is_disabled": 0, "fusion_lat": 0.0, "type": "electric_scooter", "name": "68351958a0eaf8960ff99269a77c9297", "lat": 38.926716666666664, "bike_id": "68351958a0eaf8960ff99269a77c9297"}, {"lon": -77.04339366666666, "rental_uris": {"android": "https://dc.lft.to/lastmile_qr_scan", "ios": "https://dc.lft.to/lastmile_qr_scan"}, "fusion_lon": 0.0, "is_reserved": 0, "is_disabled": 0, "fusion_lat": 0.0, "type": "electric_scooter", "name": "2a6981232aa02a16a6c665edc0add3c3", "lat": 38.90686183333333, "bike_id": "2a6981232aa02a16a6c665edc0add3c3"}, {"lon": -77.02466383333334, "rental_uris": {"android": "https://dc.lft.to/lastmile_qr_scan", "ios": "https://dc.lft.to/lastmile_qr_scan"}, "fusion_lon": 0.0, "is_reserved": 0, "is_disabled": 0, "fusion_lat": 0.0, "type": "electric_bike", "name": "a710662cc34bf1be45f2f5b4989abac4", "lat": 38.89842083333333, "bike_id": "a710662cc34bf1be45f2f5b4989abac4"}, {"lon": -76.99312083333334, "rental_uris": {"android": "https://dc.lft.to/lastmile_qr_scan", "ios": "https://dc.lft.to/lastmile_qr_scan"}, "fusion_lon": 0.0, "is_reserved": 0, "is_disabled": 0, "fusion_lat": 0.0, "type": "electric_bike", "name": "3edb01311f74f9f329587801dabf2295", "lat": 38.94636166666667, "bike_id": "3edb01311f74f9f329587801dabf2295"}, {"lon": -77.03196833333334, "rental_uris": {"android": "https://dc.lft.to/lastmile_qr_scan", "ios": "https://dc.lft.to/lastmile_qr_scan"}, "fusion_lon": 0.0, "is_reserved": 0, "is_disabled": 0, "fusion_lat": 0.0, "type": "electric_scooter", "name": "dfa0e1951e332c88bd48c3c5c3dd8acf", "lat": 38.90516216666666, "bike_id": "dfa0e1951e332c88bd48c3c5c3dd8acf"}, {"lon": -77.0030305, "rental_uris": {"android": "https://dc.lft.to/lastmile_qr_scan", "ios": "https://dc.lft.to/lastmile_qr_scan"}, "fusion_lon": 0.0, "is_reserved": 0, "is_disabled": 0, "fusion_lat": 0.0, "type": "electric_scooter", "name": "733030c3d2c3fb2b8126e5da977caf87", "lat": 38.876784666666666, "bike_id": "733030c3d2c3fb2b8126e5da977caf87"}, {"lon": -77.02307116666667, "rental_uris": {"android": "https://dc.lft.to/lastmile_qr_scan", "ios": "https://dc.lft.to/lastmile_qr_scan"}, "fusion_lon": 0.0, "is_reserved": 0, "is_disabled": 0, "fusion_lat": 0.0, "type": "electric_scooter", "name": "4f55b58c9524bd338146caa7dcd0a2eb", "lat": 38.91785016666667, "bike_id": "4f55b58c9524bd338146caa7dcd0a2eb"}, {"lon": -76.97979583333333, "rental_uris": {"android": "https://dc.lft.to/lastmile_qr_scan", "ios": "https://dc.lft.to/lastmile_qr_scan"}, "fusion_lon": 0.0, "is_reserved": 0, "is_disabled": 0, "fusion_lat": 0.0, "type": "electric_scooter", "name": "2d8a2850e05bcd7f5670eb4ce0a23902", "lat": 38.907383333333335, "bike_id": "2d8a2850e05bcd7f5670eb4ce0a23902"}, {"lon": -77.023109, "rental_uris": {"android": "https://dc.lft.to/lastmile_qr_scan", "ios": "https://dc.lft.to/lastmile_qr_scan"}, "fusion_lon": 0.0, "is_reserved": 0, "is_disabled": 0, "fusion_lat": 0.0, "type": "electric_scooter", "name": "91d1625d77b668f8703af685385bb1cb", "lat": 38.9178335, "bike_id": "91d1625d77b668f8703af685385bb1cb"}, {"lon": -77.02687883333333, "rental_uris": {"android": "https://dc.lft.to/lastmile_qr_scan", "ios": "https://dc.lft.to/lastmile_qr_scan"}, "fusion_lon": 0.0, "is_reserved": 0, "is_disabled": 0, "fusion_lat": 0.0, "type": "electric_scooter", "name": "92dfe975064840f89263d291f152fb9c", "lat": 38.894781333333334, "bike_id": "92dfe975064840f89263d291f152fb9c"}, {"lon": -77.031717, "rental_uris": {"android": "https://dc.lft.to/lastmile_qr_scan", "ios": "https://dc.lft.to/lastmile_qr_scan"}, "fusion_lon": 0.0, "is_reserved": 0, "is_disabled": 0, "fusion_lat": 0.0, "type": "electric_scooter", "name": "2db6ffcc8417b91ad3c348b52826c32c", "lat": 38.89954683333333, "bike_id": "2db6ffcc8417b91ad3c348b52826c32c"}, {"lon": -77.03095216666667, "rental_uris": {"android": "https://dc.lft.to/lastmile_qr_scan", "ios": "https://dc.lft.to/lastmile_qr_scan"}, "fusion_lon": 0.0, "is_reserved": 0, "is_disabled": 0, "fusion_lat": 0.0, "type": "electric_scooter", "name": "267f8fb123b6924c6f06b196f227fbca", "lat": 38.91058183333333, "bike_id": "267f8fb123b6924c6f06b196f227fbca"}, {"lon": -77.032144, "rental_uris": {"android": "https://dc.lft.to/lastmile_qr_scan", "ios": "https://dc.lft.to/lastmile_qr_scan"}, "fusion_lon": 0.0, "is_reserved": 0, "is_disabled": 0, "fusion_lat": 0.0, "type": "electric_scooter", "name": "0fcbdf7b17377de66b4bf0913e1c7f38", "lat": 38.89223883333333, "bike_id": "0fcbdf7b17377de66b4bf0913e1c7f38"}, {"lon": -77.02575333333333, "rental_uris": {"android": "https://dc.lft.to/lastmile_qr_scan", "ios": "https://dc.lft.to/lastmile_qr_scan"}, "fusion_lon": 0.0, "is_reserved": 0, "is_disabled": 0, "fusion_lat": 0.0, "type": "electric_scooter", "name": "ff1b7759f8e067306f5e5dd9a17ecd4c", "lat": 38.898594333333335, "bike_id": "ff1b7759f8e067306f5e5dd9a17ecd4c"}, {"lon": -76.95817816666667, "rental_uris": {"android": "https://dc.lft.to/lastmile_qr_scan", "ios": "https://dc.lft.to/lastmile_qr_scan"}, "fusion_lon": 0.0, "is_reserved": 0, "is_disabled": 0, "fusion_lat": 0.0, "type": "electric_bike", "name": "9917a3e1db44352de3baa587c623e0de", "lat": 38.9199535, "bike_id": "9917a3e1db44352de3baa587c623e0de"}, {"lon": -77.0294985, "rental_uris": {"android": "https://dc.lft.to/lastmile_qr_scan", "ios": "https://dc.lft.to/lastmile_qr_scan"}, "fusion_lon": 0.0, "is_reserved": 0, "is_disabled": 0, "fusion_lat": 0.0, "type": "electric_scooter", "name": "3878798ebde7588ac872e97a0caaa5a7", "lat": 38.91177533333333, "bike_id": "3878798ebde7588ac872e97a0caaa5a7"}, {"lon": -77.06099166666667, "rental_uris": {"android": "https://dc.lft.to/lastmile_qr_scan", "ios": "https://dc.lft.to/lastmile_qr_scan"}, "fusion_lon": 0.0, "is_reserved": 0, "is_disabled": 0, "fusion_lat": 0.0, "type": "electric_scooter", "name": "1b8f5e8d86b205e32875f7541a60e48c", "lat": 38.90245866666667, "bike_id": "1b8f5e8d86b205e32875f7541a60e48c"}, {"lon": -77.00203833333333, "rental_uris": {"android": "https://dc.lft.to/lastmile_qr_scan", "ios": "https://dc.lft.to/lastmile_qr_scan"}, "fusion_lon": 0.0, "is_reserved": 0, "is_disabled": 0, "fusion_lat": 0.0, "type": "electric_scooter", "name": "475cc9a666936b652c8bb7c2c06018a1", "lat": 38.90032716666666, "bike_id": "475cc9a666936b652c8bb7c2c06018a1"}, {"lon": -77.02213066666667, "rental_uris": {"android": "https://dc.lft.to/lastmile_qr_scan", "ios": "https://dc.lft.to/lastmile_qr_scan"}, "fusion_lon": 0.0, "is_reserved": 0, "is_disabled": 0, "fusion_lat": 0.0, "type": "electric_scooter", "name": "7323ec427bda2368c9c4a8c8db5d24fb", "lat": 38.903606333333336, "bike_id": "7323ec427bda2368c9c4a8c8db5d24fb"}, {"lon": -77.0390555, "rental_uris": {"android": "https://dc.lft.to/lastmile_qr_scan", "ios": "https://dc.lft.to/lastmile_qr_scan"}, "fusion_lon": 0.0, "is_reserved": 0, "is_disabled": 0, "fusion_lat": 0.0, "type": "electric_scooter", "name": "cef55d7760bb47096d9ffc86b6842101", "lat": 38.903735, "bike_id": "cef55d7760bb47096d9ffc86b6842101"}, {"lon": -77.0401625, "rental_uris": {"android": "https://dc.lft.to/lastmile_qr_scan", "ios": "https://dc.lft.to/lastmile_qr_scan"}, "fusion_lon": 0.0, "is_reserved": 0, "is_disabled": 0, "fusion_lat": 0.0, "type": "electric_scooter", "name": "7bf410cc2c049b5a076a1249eb9a314d", "lat": 38.89864383333333, "bike_id": "7bf410cc2c049b5a076a1249eb9a314d"}, {"lon": -76.93181233333334, "rental_uris": {"android": "https://dc.lft.to/lastmile_qr_scan", "ios": "https://dc.lft.to/lastmile_qr_scan"}, "fusion_lon": 0.0, "is_reserved": 0, "is_disabled": 0, "fusion_lat": 0.0, "type": "electric_scooter", "name": "a6f14510c576f543b82886896ba6b451", "lat": 38.89876866666667, "bike_id": "a6f14510c576f543b82886896ba6b451"}, {"lon": -77.02946683333333, "rental_uris": {"android": "https://dc.lft.to/lastmile_qr_scan", "ios": "https://dc.lft.to/lastmile_qr_scan"}, "fusion_lon": 0.0, "is_reserved": 0, "is_disabled": 0, "fusion_lat": 0.0, "type": "electric_scooter", "name": "a131b462ad6073ab85f2b704e7ecd6d5", "lat": 38.91694183333333, "bike_id": "a131b462ad6073ab85f2b704e7ecd6d5"}, {"lon": -77.02696816666666, "rental_uris": {"android": "https://dc.lft.to/lastmile_qr_scan", "ios": "https://dc.lft.to/lastmile_qr_scan"}, "fusion_lon": 0.0, "is_reserved": 0, "is_disabled": 0, "fusion_lat": 0.0, "type": "electric_scooter", "name": "196c00fba6f574e6474ac47a6c7ec8eb", "lat": 38.917311166666664, "bike_id": "196c00fba6f574e6474ac47a6c7ec8eb"}, {"lon": -77.02138016666666, "rental_uris": {"android": "https://dc.lft.to/lastmile_qr_scan", "ios": "https://dc.lft.to/lastmile_qr_scan"}, "fusion_lon": 0.0, "is_reserved": 0, "is_disabled": 0, "fusion_lat": 0.0, "type": "electric_scooter", "name": "fd1cee5a355ecd6a4977c0be266c2474", "lat": 38.915539833333334, "bike_id": "fd1cee5a355ecd6a4977c0be266c2474"}, {"lon": -76.977711, "rental_uris": {"android": "https://dc.lft.to/lastmile_qr_scan", "ios": "https://dc.lft.to/lastmile_qr_scan"}, "fusion_lon": 0.0, "is_reserved": 0, "is_disabled": 0, "fusion_lat": 0.0, "type": "electric_bike", "name": "5a93fd3472fff29fdc1542f73e585102", "lat": 38.85726116666667, "bike_id": "5a93fd3472fff29fdc1542f73e585102"}, {"lon": -77.03060583333334, "rental_uris": {"android": "https://dc.lft.to/lastmile_qr_scan", "ios": "https://dc.lft.to/lastmile_qr_scan"}, "fusion_lon": 0.0, "is_reserved": 0, "is_disabled": 0, "fusion_lat": 0.0, "type": "electric_scooter", "name": "27c50ef923d021910f2242d7954d2a30", "lat": 38.91703566666666, "bike_id": "27c50ef923d021910f2242d7954d2a30"}, {"lon": -77.03210183333333, "rental_uris": {"android": "https://dc.lft.to/lastmile_qr_scan", "ios": "https://dc.lft.to/lastmile_qr_scan"}, "fusion_lon": 0.0, "is_reserved": 0, "is_disabled": 0, "fusion_lat": 0.0, "type": "electric_scooter", "name": "40b3b25a030bda8eb95eddd469b0c0ec", "lat": 38.89225283333333, "bike_id": "40b3b25a030bda8eb95eddd469b0c0ec"}, {"lon": -77.038341, "rental_uris": {"android": "https://dc.lft.to/lastmile_qr_scan", "ios": "https://dc.lft.to/lastmile_qr_scan"}, "fusion_lon": 0.0, "is_reserved": 0, "is_disabled": 0, "fusion_lat": 0.0, "type": "electric_scooter", "name": "10e74258477761bf9b2e8cb416804079", "lat": 38.919029333333334, "bike_id": "10e74258477761bf9b2e8cb416804079"}, {"lon": -77.03389566666667, "rental_uris": {"android": "https://dc.lft.to/lastmile_qr_scan", "ios": "https://dc.lft.to/lastmile_qr_scan"}, "fusion_lon": 0.0, "is_reserved": 0, "is_disabled": 0, "fusion_lat": 0.0, "type": "electric_scooter", "name": "e298e1cadc5b688534e2125d8264a02c", "lat": 38.886586333333334, "bike_id": "e298e1cadc5b688534e2125d8264a02c"}, {"lon": -77.0291785, "rental_uris": {"android": "https://dc.lft.to/lastmile_qr_scan", "ios": "https://dc.lft.to/lastmile_qr_scan"}, "fusion_lon": 0.0, "is_reserved": 0, "is_disabled": 0, "fusion_lat": 0.0, "type": "electric_scooter", "name": "ae7f07ce8269152dc8a00ef8565acb4e", "lat": 38.899273, "bike_id": "ae7f07ce8269152dc8a00ef8565acb4e"}, {"lon": -77.0793925, "rental_uris": {"android": "https://dc.lft.to/lastmile_qr_scan", "ios": "https://dc.lft.to/lastmile_qr_scan"}, "fusion_lon": 0.0, "is_reserved": 0, "is_disabled": 0, "fusion_lat": 0.0, "type": "electric_scooter", "name": "0282bb885823179d2abe2273068e3965", "lat": 38.919240333333335, "bike_id": "0282bb885823179d2abe2273068e3965"}, {"lon": -77.02329066666667, "rental_uris": {"android": "https://dc.lft.to/lastmile_qr_scan", "ios": "https://dc.lft.to/lastmile_qr_scan"}, "fusion_lon": 0.0, "is_reserved": 0, "is_disabled": 0, "fusion_lat": 0.0, "type": "electric_scooter", "name": "89e5994adc67fcb5781124facf7f63b1", "lat": 38.92301033333333, "bike_id": "89e5994adc67fcb5781124facf7f63b1"}, {"lon": -77.02164516666667, "rental_uris": {"android": "https://dc.lft.to/lastmile_qr_scan", "ios": "https://dc.lft.to/lastmile_qr_scan"}, "fusion_lon": 0.0, "is_reserved": 0, "is_disabled": 0, "fusion_lat": 0.0, "type": "electric_scooter", "name": "2f59337010858c0c89f98d5b82d92ee6", "lat": 38.942899, "bike_id": "2f59337010858c0c89f98d5b82d92ee6"}, {"lon": -76.995016, "rental_uris": {"android": "https://dc.lft.to/lastmile_qr_scan", "ios": "https://dc.lft.to/lastmile_qr_scan"}, "fusion_lon": 0.0, "is_reserved": 0, "is_disabled": 0, "fusion_lat": 0.0, "type": "electric_scooter", "name": "ecc3a845aeb2e706bd7d2f15adc4706b", "lat": 38.904693, "bike_id": "ecc3a845aeb2e706bd7d2f15adc4706b"}, {"lon": -77.01981166666667, "rental_uris": {"android": "https://dc.lft.to/lastmile_qr_scan", "ios": "https://dc.lft.to/lastmile_qr_scan"}, "fusion_lon": 0.0, "is_reserved": 0, "is_disabled": 0, "fusion_lat": 0.0, "type": "electric_scooter", "name": "c55bd50daf23c5c5f57f078eb39f6811", "lat": 38.91195533333333, "bike_id": "c55bd50daf23c5c5f57f078eb39f6811"}, {"lon": -77.00195533333333, "rental_uris": {"android": "https://dc.lft.to/lastmile_qr_scan", "ios": "https://dc.lft.to/lastmile_qr_scan"}, "fusion_lon": 0.0, "is_reserved": 0, "is_disabled": 0, "fusion_lat": 0.0, "type": "electric_scooter", "name": "90747da97625d8e32c5f68f618d23098", "lat": 38.88680033333333, "bike_id": "90747da97625d8e32c5f68f618d23098"}, {"lon": -77.02275883333333, "rental_uris": {"android": "https://dc.lft.to/lastmile_qr_scan", "ios": "https://dc.lft.to/lastmile_qr_scan"}, "fusion_lon": 0.0, "is_reserved": 0, "is_disabled": 0, "fusion_lat": 0.0, "type": "electric_scooter", "name": "f361fc833d04ed8132ce49c29da096dd", "lat": 38.9170035, "bike_id": "f361fc833d04ed8132ce49c29da096dd"}, {"lon": -77.04393533333334, "rental_uris": {"android": "https://dc.lft.to/lastmile_qr_scan", "ios": "https://dc.lft.to/lastmile_qr_scan"}, "fusion_lon": 0.0, "is_reserved": 0, "is_disabled": 0, "fusion_lat": 0.0, "type": "electric_scooter", "name": "f6f3db654d590417444e64d1d328f984", "lat": 38.9149475, "bike_id": "f6f3db654d590417444e64d1d328f984"}, {"lon": -77.06286833333333, "rental_uris": {"android": "https://dc.lft.to/lastmile_qr_scan", "ios": "https://dc.lft.to/lastmile_qr_scan"}, "fusion_lon": 0.0, "is_reserved": 0, "is_disabled": 0, "fusion_lat": 0.0, "type": "electric_scooter", "name": "e347646720aee11b47c4324d5c5bab92", "lat": 38.90279483333333, "bike_id": "e347646720aee11b47c4324d5c5bab92"}, {"lon": -77.0181915, "rental_uris": {"android": "https://dc.lft.to/lastmile_qr_scan", "ios": "https://dc.lft.to/lastmile_qr_scan"}, "fusion_lon": 0.0, "is_reserved": 0, "is_disabled": 0, "fusion_lat": 0.0, "type": "electric_scooter", "name": "8c15c01eb6c129580e908ec086bf932c", "lat": 38.9223975, "bike_id": "8c15c01eb6c129580e908ec086bf932c"}, {"lon": -77.05741433333333, "rental_uris": {"android": "https://dc.lft.to/lastmile_qr_scan", "ios": "https://dc.lft.to/lastmile_qr_scan"}, "fusion_lon": 0.0, "is_reserved": 0, "is_disabled": 0, "fusion_lat": 0.0, "type": "electric_scooter", "name": "6cf36ff7dfb01e3e28b4418b380cbf6d", "lat": 38.93542866666667, "bike_id": "6cf36ff7dfb01e3e28b4418b380cbf6d"}, {"lon": -77.02745366666667, "rental_uris": {"android": "https://dc.lft.to/lastmile_qr_scan", "ios": "https://dc.lft.to/lastmile_qr_scan"}, "fusion_lon": 0.0, "is_reserved": 0, "is_disabled": 0, "fusion_lat": 0.0, "type": "electric_scooter", "name": "5897fa3441596bab34491a8f30338e81", "lat": 38.96609816666667, "bike_id": "5897fa3441596bab34491a8f30338e81"}, {"lon": -77.00450466666666, "rental_uris": {"android": "https://dc.lft.to/lastmile_qr_scan", "ios": "https://dc.lft.to/lastmile_qr_scan"},