{"data": {"bikes": [{"lon": -77.02742633333334, "bike_id": "18ec75d613cdfdedf7ceded70cc5b019", "lat": 38.88159366666667, "fusion_lon": 0.0, "fusion_lat": 0.0, "type": "electric_scooter", "name": "18ec75d613cdfdedf7ceded70cc5b019", "is_disabled": 0, "rental_uris": {"ios": "https://dc.lft.to/lastmile_qr_scan", "android": "https://dc.lft.to/lastmile_qr_scan"}, "is_reserved": 0}, {"lon": -77.02800783333333, "bike_id": "40f56eedb9cf26ab119865cb36046123", "lat": 38.933005, "fusion_lon": 0.0, "fusion_lat": 0.0, "type": "electric_scooter", "name": "40f56eedb9cf26ab119865cb36046123", "is_disabled": 0, "rental_uris": {"ios": "https://dc.lft.to/lastmile_qr_scan", "android": "https://dc.lft.to/lastmile_qr_scan"}, "is_reserved": 0}, {"lon": -77.03248033333334, "bike_id": "1871a0b09c93219c4b3f0bfb125056ab", "lat": 38.937673333333336, "fusion_lon": 0.0, "fusion_lat": 0.0, "type": "electric_scooter", "name": "1871a0b09c93219c4b3f0bfb125056ab", "is_disabled": 0, "rental_uris": {"ios": "https://dc.lft.to/lastmile_qr_scan", "android": "https://dc.lft.to/lastmile_qr_scan"}, "is_reserved": 0}, {"lon": -77.02151766666667, "bike_id": "8e4da7c9abd973815aa38cfc7baa1fb7", "lat": 38.91264616666667, "fusion_lon": 0.0, "fusion_lat": 0.0, "type": "electric_scooter", "name": "8e4da7c9abd973815aa38cfc7baa1fb7", "is_disabled": 0, "rental_uris": {"ios": "https://dc.lft.to/lastmile_qr_scan", "android": "https://dc.lft.to/lastmile_qr_scan"}, "is_reserved": 0}, {"lon": -77.05540433333333, "bike_id": "254823b9d7079c081fa8ed8e65ca3f0b", "lat": 38.934319333333335, "fusion_lon": 0.0, "fusion_lat": 0.0, "type": "electric_scooter", "name": "254823b9d7079c081fa8ed8e65ca3f0b", "is_disabled": 0, "rental_uris": {"ios": "https://dc.lft.to/lastmile_qr_scan", "android": "https://dc.lft.to/lastmile_qr_scan"}, "is_reserved": 0}, {"lon": -77.03476983333333, "bike_id": "58d868b7788a529e507dfe12a2554e4c", "lat": 38.925420333333335, "fusion_lon": 0.0, "fusion_lat": 0.0, "type": "electric_scooter", "name": "58d868b7788a529e507dfe12a2554e4c", "is_disabled": 0, "rental_uris": {"ios": "https://dc.lft.to/lastmile_qr_scan", "android": "https://dc.lft.to/lastmile_qr_scan"}, "is_reserved": 0}, {"lon": -77.01319416666666, "bike_id": "af8ccafd2eec0c6fbc9dcc6f3e659d19", "lat": 38.879387333333334, "fusion_lon": 0.0, "fusion_lat": 0.0, "type": "electric_scooter", "name": "af8ccafd2eec0c6fbc9dcc6f3e659d19", "is_disabled": 0, "rental_uris": {"ios": "https://dc.lft.to/lastmile_qr_scan", "android": "https://dc.lft.to/lastmile_qr_scan"}, "is_reserved": 0}, {"lon": -77.04145333333334, "bike_id": "bca42fe4af3bce16aa1bc8dd37780569", "lat": 38.9168745, "fusion_lon": 0.0, "fusion_lat": 0.0, "type": "electric_scooter", "name": "bca42fe4af3bce16aa1bc8dd37780569", "is_disabled": 0, "rental_uris": {"ios": "https://dc.lft.to/lastmile_qr_scan", "android": "https://dc.lft.to/lastmile_qr_scan"}, "is_reserved": 0}, {"lon": -77.03496583333333, "bike_id": "1e6622ac703cb4de179e9454a331fb35", "lat": 38.91713, "fusion_lon": 0.0, "fusion_lat": 0.0, "type": "electric_scooter", "name": "1e6622ac703cb4de179e9454a331fb35", "is_disabled": 0, "rental_uris": {"ios": "https://dc.lft.to/lastmile_qr_scan", "android": "https://dc.lft.to/lastmile_qr_scan"}, "is_reserved": 0}, {"lon": -77.02222733333333, "bike_id": "dfae05d5dc252689c2160a5637f1cd17", "lat": 38.9350515, "fusion_lon": 0.0, "fusion_lat": 0.0, "type": "electric_bike", "name": "dfae05d5dc252689c2160a5637f1cd17", "is_disabled": 0, "rental_uris": {"ios": "https://dc.lft.to/lastmile_qr_scan", "android": "https://dc.lft.to/lastmile_qr_scan"}, "is_reserved": 0}, {"lon": -77.024139, "bike_id": "492fa2720c174eb98699e682afef6385", "lat": 38.90970933333333, "fusion_lon": 0.0, "fusion_lat": 0.0, "type": "electric_scooter", "name": "492fa2720c174eb98699e682afef6385", "is_disabled": 0, "rental_uris": {"ios": "https://dc.lft.to/lastmile_qr_scan", "android": "https://dc.lft.to/lastmile_qr_scan"}, "is_reserved": 0}, {"lon": -77.08457316666667, "bike_id": "95531e89977379fa3ca537b13f494668", "lat": 38.848191666666665, "fusion_lon": 0.0, "fusion_lat": 0.0, "type": "electric_bike", "name": "95531e89977379fa3ca537b13f494668", "is_disabled": 0, "rental_uris": {"ios": "https://dc.lft.to/lastmile_qr_scan", "android": "https://dc.lft.to/lastmile_qr_scan"}, "is_reserved": 0}, {"lon": -77.18741233333333, "bike_id": "7e976e8e570409a270a3252f679812be", "lat": 38.89349216666667, "fusion_lon": 0.0, "fusion_lat": 0.0, "type": "electric_bike", "name": "7e976e8e570409a270a3252f679812be", "is_disabled": 0, "rental_uris": {"ios": "https://dc.lft.to/lastmile_qr_scan", "android": "https://dc.lft.to/lastmile_qr_scan"}, "is_reserved": 0}, {"lon": -77.05437983333333, "bike_id": "a1d8045364375df191eebbfa29d01e5a", "lat": 38.89603266666667, "fusion_lon": 0.0, "fusion_lat": 0.0, "type": "electric_scooter", "name": "a1d8045364375df191eebbfa29d01e5a", "is_disabled": 0, "rental_uris": {"ios": "https://dc.lft.to/lastmile_qr_scan", "android": "https://dc.lft.to/lastmile_qr_scan"}, "is_reserved": 0}, {"lon": -77.03416, "bike_id": "d2161784a68c6d368506126d288e56da", "lat": 38.92256366666667, "fusion_lon": 0.0, "fusion_lat": 0.0, "type": "electric_scooter", "name": "d2161784a68c6d368506126d288e56da", "is_disabled": 0, "rental_uris": {"ios": "https://dc.lft.to/lastmile_qr_scan", "android": "https://dc.lft.to/lastmile_qr_scan"}, "is_reserved": 0}, {"lon": -77.03252, "bike_id": "a727c176d4b9cf6c9d8e212884e68438", "lat": 38.91566133333333, "fusion_lon": 0.0, "fusion_lat": 0.0, "type": "electric_scooter", "name": "a727c176d4b9cf6c9d8e212884e68438", "is_disabled": 0, "rental_uris": {"ios": "https://dc.lft.to/lastmile_qr_scan", "android": "https://dc.lft.to/lastmile_qr_scan"}, "is_reserved": 0}, {"lon": -77.0239795, "bike_id": "38163c41bf74779bb23710ab3b4ce450", "lat": 38.907072666666664, "fusion_lon": 0.0, "fusion_lat": 0.0, "type": "electric_scooter", "name": "38163c41bf74779bb23710ab3b4ce450", "is_disabled": 0, "rental_uris": {"ios": "https://dc.lft.to/lastmile_qr_scan", "android": "https://dc.lft.to/lastmile_qr_scan"}, "is_reserved": 0}, {"lon": -77.0285125, "bike_id": "62f7e01b4087347dfe44ca1b764aa5e5", "lat": 38.93242983333333, "fusion_lon": 0.0, "fusion_lat": 0.0, "type": "electric_scooter", "name": "62f7e01b4087347dfe44ca1b764aa5e5", "is_disabled": 0, "rental_uris": {"ios": "https://dc.lft.to/lastmile_qr_scan", "android": "https://dc.lft.to/lastmile_qr_scan"}, "is_reserved": 0}, {"lon": -77.02142316666666, "bike_id": "3ab12328913fa90f67da5c57b963d82d", "lat": 38.914089833333335, "fusion_lon": 0.0, "fusion_lat": 0.0, "type": "electric_scooter", "name": "3ab12328913fa90f67da5c57b963d82d", "is_disabled": 0, "rental_uris": {"ios": "https://dc.lft.to/lastmile_qr_scan", "android": "https://dc.lft.to/lastmile_qr_scan"}, "is_reserved": 0}, {"lon": -77.026101, "bike_id": "d3ffa98cf6a09ba101fc9c6851837887", "lat": 38.9140325, "fusion_lon": 0.0, "fusion_lat": 0.0, "type": "electric_scooter", "name": "d3ffa98cf6a09ba101fc9c6851837887", "is_disabled": 0, "rental_uris": {"ios": "https://dc.lft.to/lastmile_qr_scan", "android": "https://dc.lft.to/lastmile_qr_scan"}, "is_reserved": 0}, {"lon": -77.07264666666667, "bike_id": "9eb42ca0672cd42d7ef9581bb08bebda", "lat": 38.91269283333333, "fusion_lon": 0.0, "fusion_lat": 0.0, "type": "electric_scooter", "name": "9eb42ca0672cd42d7ef9581bb08bebda", "is_disabled": 0, "rental_uris": {"ios": "https://dc.lft.to/lastmile_qr_scan", "android": "https://dc.lft.to/lastmile_qr_scan"}, "is_reserved": 0}, {"lon": -77.042061, "bike_id": "8e39842e62606f45fa04ac8d714b2e0a", "lat": 38.92108966666667, "fusion_lon": 0.0, "fusion_lat": 0.0, "type": "electric_scooter", "name": "8e39842e62606f45fa04ac8d714b2e0a", "is_disabled": 0, "rental_uris": {"ios": "https://dc.lft.to/lastmile_qr_scan", "android": "https://dc.lft.to/lastmile_qr_scan"}, "is_reserved": 0}, {"lon": -77.02617816666667, "bike_id": "499b10cf955ed312828d715123d1b4e7", "lat": 38.91404966666666, "fusion_lon": 0.0, "fusion_lat": 0.0, "type": "electric_scooter", "name": "499b10cf955ed312828d715123d1b4e7", "is_disabled": 0, "rental_uris": {"ios": "https://dc.lft.to/lastmile_qr_scan", "android": "https://dc.lft.to/lastmile_qr_scan"}, "is_reserved": 0}, {"lon": -76.983931, "bike_id": "1cb9682d3c3565543fa2cde6b694ef55", "lat": 38.9047015, "fusion_lon": 0.0, "fusion_lat": 0.0, "type": "electric_scooter", "name": "1cb9682d3c3565543fa2cde6b694ef55", "is_disabled": 0, "rental_uris": {"ios": "https://dc.lft.to/lastmile_qr_scan", "android": "https://dc.lft.to/lastmile_qr_scan"}, "is_reserved": 0}, {"lon": -77.10156483333333, "bike_id": "925b56e6537892f994742c91d184bd3c", "lat": 38.925268833333334, "fusion_lon": 0.0, "fusion_lat": 0.0, "type": "electric_scooter", "name": "925b56e6537892f994742c91d184bd3c", "is_disabled": 0, "rental_uris": {"ios": "https://dc.lft.to/lastmile_qr_scan", "android": "https://dc.lft.to/lastmile_qr_scan"}, "is_reserved": 0}, {"lon": -77.01812083333333, "bike_id": "67562db9feca7a69c19f9007a18fde71", "lat": 38.90972766666667, "fusion_lon": 0.0, "fusion_lat": 0.0, "type": "electric_scooter", "name": "67562db9feca7a69c19f9007a18fde71", "is_disabled": 0, "rental_uris": {"ios": "https://dc.lft.to/lastmile_qr_scan", "android": "https://dc.lft.to/lastmile_qr_scan"}, "is_reserved": 0}, {"lon": -77.02214716666667, "bike_id": "af8dcf22c53c1b4c41c4572768f9b9f6", "lat": 38.951090666666666, "fusion_lon": 0.0, "fusion_lat": 0.0, "type": "electric_scooter", "name": "af8dcf22c53c1b4c41c4572768f9b9f6", "is_disabled": 0, "rental_uris": {"ios": "https://dc.lft.to/lastmile_qr_scan", "android": "https://dc.lft.to/lastmile_qr_scan"}, "is_reserved": 0}, {"lon": -76.980286, "bike_id": "b50a5ee4cc3f195cce37831d59ff907a", "lat": 38.868246166666665, "fusion_lon": 0.0, "fusion_lat": 0.0, "type": "electric_bike", "name": "b50a5ee4cc3f195cce37831d59ff907a", "is_disabled": 0, "rental_uris": {"ios": "https://dc.lft.to/lastmile_qr_scan", "android": "https://dc.lft.to/lastmile_qr_scan"}, "is_reserved": 0}, {"lon": -77.04533933333333, "bike_id": "538931c585e62880e92baf54ef07a70e", "lat": 38.91325466666667, "fusion_lon": 0.0, "fusion_lat": 0.0, "type": "electric_scooter", "name": "538931c585e62880e92baf54ef07a70e", "is_disabled": 0, "rental_uris": {"ios": "https://dc.lft.to/lastmile_qr_scan", "android": "https://dc.lft.to/lastmile_qr_scan"}, "is_reserved": 0}, {"lon": -76.988701, "bike_id": "5ea6b82d7eca5ab0f0eb424a949a356b", "lat": 38.900279833333336, "fusion_lon": 0.0, "fusion_lat": 0.0, "type": "electric_scooter", "name": "5ea6b82d7eca5ab0f0eb424a949a356b", "is_disabled": 0, "rental_uris": {"ios": "https://dc.lft.to/lastmile_qr_scan", "android": "https://dc.lft.to/lastmile_qr_scan"}, "is_reserved": 0}, {"lon": -77.00985233333333, "bike_id": "612b0286ed38cc68c5f6e33909f3bb21", "lat": 38.872929, "fusion_lon": 0.0, "fusion_lat": 0.0, "type": "electric_scooter", "name": "612b0286ed38cc68c5f6e33909f3bb21", "is_disabled": 0, "rental_uris": {"ios": "https://dc.lft.to/lastmile_qr_scan", "android": "https://dc.lft.to/lastmile_qr_scan"}, "is_reserved": 0}, {"lon": -76.93871966666667, "bike_id": "88f4ce592e66f89c85d47f50014f05af", "lat": 38.95640216666666, "fusion_lon": 0.0, "fusion_lat": 0.0, "type": "electric_bike", "name": "88f4ce592e66f89c85d47f50014f05af", "is_disabled": 0, "rental_uris": {"ios": "https://dc.lft.to/lastmile_qr_scan", "android": "https://dc.lft.to/lastmile_qr_scan"}, "is_reserved": 0}, {"lon": -77.02630733333334, "bike_id": "0e0125ff5fadbd0d08c8c2fd100d0d6c", "lat": 38.898319666666666, "fusion_lon": 0.0, "fusion_lat": 0.0, "type": "electric_scooter", "name": "0e0125ff5fadbd0d08c8c2fd100d0d6c", "is_disabled": 0, "rental_uris": {"ios": "https://dc.lft.to/lastmile_qr_scan", "android": "https://dc.lft.to/lastmile_qr_scan"}, "is_reserved": 0}, {"lon": -77.08031083333333, "bike_id": "51817628a5ce9933cfd44e6c93b242fe", "lat": 38.923846, "fusion_lon": 0.0, "fusion_lat": 0.0, "type": "electric_scooter", "name": "51817628a5ce9933cfd44e6c93b242fe", "is_disabled": 0, "rental_uris": {"ios": "https://dc.lft.to/lastmile_qr_scan", "android": "https://dc.lft.to/lastmile_qr_scan"}, "is_reserved": 0}, {"lon": -77.02152966666667, "bike_id": "c6c9bd546cb4ae2c5201ed517faf0b34", "lat": 38.924434833333336, "fusion_lon": 0.0, "fusion_lat": 0.0, "type": "electric_scooter", "name": "c6c9bd546cb4ae2c5201ed517faf0b34", "is_disabled": 0, "rental_uris": {"ios": "https://dc.lft.to/lastmile_qr_scan", "android": "https://dc.lft.to/lastmile_qr_scan"}, "is_reserved": 0}, {"lon": -77.0290495, "bike_id": "3ada38c75ff98a380d8e8780882ce611", "lat": 38.92817566666667, "fusion_lon": 0.0, "fusion_lat": 0.0, "type": "electric_scooter", "name": "3ada38c75ff98a380d8e8780882ce611", "is_disabled": 0, "rental_uris": {"ios": "https://dc.lft.to/lastmile_qr_scan", "android": "https://dc.lft.to/lastmile_qr_scan"}, "is_reserved": 0}, {"lon": -77.00268816666667, "bike_id": "736dd08251fe34c2d68805a3e5f848f2", "lat": 38.911125166666665, "fusion_lon": 0.0, "fusion_lat": 0.0, "type": "electric_scooter", "name": "736dd08251fe34c2d68805a3e5f848f2", "is_disabled": 0, "rental_uris": {"ios": "https://dc.lft.to/lastmile_qr_scan", "android": "https://dc.lft.to/lastmile_qr_scan"}, "is_reserved": 0}, {"lon": -76.99879483333333, "bike_id": "028081ed61e2bc6356096ce8e6041f5b", "lat": 38.901295833333336, "fusion_lon": 0.0, "fusion_lat": 0.0, "type": "electric_scooter", "name": "028081ed61e2bc6356096ce8e6041f5b", "is_disabled": 0, "rental_uris": {"ios": "https://dc.lft.to/lastmile_qr_scan", "android": "https://dc.lft.to/lastmile_qr_scan"}, "is_reserved": 0}, {"lon": -77.0434695, "bike_id": "58ffcacea0a386f2ba8a7194236f3cea", "lat": 38.921682833333335, "fusion_lon": 0.0, "fusion_lat": 0.0, "type": "electric_scooter", "name": "58ffcacea0a386f2ba8a7194236f3cea", "is_disabled": 0, "rental_uris": {"ios": "https://dc.lft.to/lastmile_qr_scan", "android": "https://dc.lft.to/lastmile_qr_scan"}, "is_reserved": 0}, {"lon": -76.98018483333334, "bike_id": "9cc6768a2b09be24be7448f670deb983", "lat": 38.902890666666664, "fusion_lon": 0.0, "fusion_lat": 0.0, "type": "electric_scooter", "name": "9cc6768a2b09be24be7448f670deb983", "is_disabled": 0, "rental_uris": {"ios": "https://dc.lft.to/lastmile_qr_scan", "android": "https://dc.lft.to/lastmile_qr_scan"}, "is_reserved": 0}, {"lon": -77.00770916666667, "bike_id": "bdc8e898b037fd80b7b597c18a9dc616", "lat": 38.981358166666666, "fusion_lon": 0.0, "fusion_lat": 0.0, "type": "electric_bike", "name": "bdc8e898b037fd80b7b597c18a9dc616", "is_disabled": 0, "rental_uris": {"ios": "https://dc.lft.to/lastmile_qr_scan", "android": "https://dc.lft.to/lastmile_qr_scan"}, "is_reserved": 0}, {"lon": -77.00198316666666, "bike_id": "1a07bab00f94a331226a44f16545789f", "lat": 38.902413, "fusion_lon": 0.0, "fusion_lat": 0.0, "type": "electric_scooter", "name": "1a07bab00f94a331226a44f16545789f", "is_disabled": 0, "rental_uris": {"ios": "https://dc.lft.to/lastmile_qr_scan", "android": "https://dc.lft.to/lastmile_qr_scan"}, "is_reserved": 0}, {"lon": -77.035002, "bike_id": "96ee2ff45dc311096482adcbeca227d0", "lat": 38.935392, "fusion_lon": 0.0, "fusion_lat": 0.0, "type": "electric_scooter", "name": "96ee2ff45dc311096482adcbeca227d0", "is_disabled": 0, "rental_uris": {"ios": "https://dc.lft.to/lastmile_qr_scan", "android": "https://dc.lft.to/lastmile_qr_scan"}, "is_reserved": 0}, {"lon": -77.02157066666666, "bike_id": "1d58cc9c1ccc5e55945bd3242c96118b", "lat": 38.924878, "fusion_lon": 0.0, "fusion_lat": 0.0, "type": "electric_scooter", "name": "1d58cc9c1ccc5e55945bd3242c96118b", "is_disabled": 0, "rental_uris": {"ios": "https://dc.lft.to/lastmile_qr_scan", "android": "https://dc.lft.to/lastmile_qr_scan"}, "is_reserved": 0}, {"lon": -77.05465433333333, "bike_id": "676561eb502962294d6483645c5482bf", "lat": 38.90220883333333, "fusion_lon": 0.0, "fusion_lat": 0.0, "type": "electric_bike", "name": "676561eb502962294d6483645c5482bf", "is_disabled": 0, "rental_uris": {"ios": "https://dc.lft.to/lastmile_qr_scan", "android": "https://dc.lft.to/lastmile_qr_scan"}, "is_reserved": 0}, {"lon": -77.03299633333333, "bike_id": "411cf7c03c21e1d82dbdc7d5b7d9d6b3", "lat": 38.907453833333335, "fusion_lon": 0.0, "fusion_lat": 0.0, "type": "electric_scooter", "name": "411cf7c03c21e1d82dbdc7d5b7d9d6b3", "is_disabled": 0, "rental_uris": {"ios": "https://dc.lft.to/lastmile_qr_scan", "android": "https://dc.lft.to/lastmile_qr_scan"}, "is_reserved": 0}, {"lon": -77.02617283333333, "bike_id": "6affa4557b7ef6dfd10bb6610b5fe847", "lat": 38.91416183333333, "fusion_lon": 0.0, "fusion_lat": 0.0, "type": "electric_scooter", "name": "6affa4557b7ef6dfd10bb6610b5fe847", "is_disabled": 0, "rental_uris": {"ios": "https://dc.lft.to/lastmile_qr_scan", "android": "https://dc.lft.to/lastmile_qr_scan"}, "is_reserved": 0}, {"lon": -76.9907925, "bike_id": "7c2a21fe44408e67278909db82e9e461", "lat": 38.84289283333333, "fusion_lon": 0.0, "fusion_lat": 0.0, "type": "electric_scooter", "name": "7c2a21fe44408e67278909db82e9e461", "is_disabled": 0, "rental_uris": {"ios": "https://dc.lft.to/lastmile_qr_scan", "android": "https://dc.lft.to/lastmile_qr_scan"}, "is_reserved": 0}, {"lon": -77.02116966666667, "bike_id": "6169295fb4451186faae00931e9451f5", "lat": 38.924764, "fusion_lon": 0.0, "fusion_lat": 0.0, "type": "electric_scooter", "name": "6169295fb4451186faae00931e9451f5", "is_disabled": 0, "rental_uris": {"ios": "https://dc.lft.to/lastmile_qr_scan", "android": "https://dc.lft.to/lastmile_qr_scan"}, "is_reserved": 0}, {"lon": -77.03191016666666, "bike_id": "ac9e21b1fdaf41acd48c25793ad491e5", "lat": 38.908462166666666, "fusion_lon": 0.0, "fusion_lat": 0.0, "type": "electric_scooter", "name": "ac9e21b1fdaf41acd48c25793ad491e5", "is_disabled": 0, "rental_uris": {"ios": "https://dc.lft.to/lastmile_qr_scan", "android": "https://dc.lft.to/lastmile_qr_scan"}, "is_reserved": 0}, {"lon": -77.03456583333333, "bike_id": "ba17b3531a73ab9d357362ee77bf5b2a", "lat": 38.90250183333333, "fusion_lon": 0.0, "fusion_lat": 0.0, "type": "electric_scooter", "name": "ba17b3531a73ab9d357362ee77bf5b2a", "is_disabled": 0, "rental_uris": {"ios": "https://dc.lft.to/lastmile_qr_scan", "android": "https://dc.lft.to/lastmile_qr_scan"}, "is_reserved": 0}, {"lon": -77.02399733333333, "bike_id": "dedfe9467982f6967742ba1b7fba0cbd", "lat": 38.9571015, "fusion_lon": 0.0, "fusion_lat": 0.0, "type": "electric_scooter", "name": "dedfe9467982f6967742ba1b7fba0cbd", "is_disabled": 0, "rental_uris": {"ios": "https://dc.lft.to/lastmile_qr_scan", "android": "https://dc.lft.to/lastmile_qr_scan"}, "is_reserved": 0}, {"lon": -77.050388, "bike_id": "46e8a3e6904e6594a16c71ddfb8bc42a", "lat": 38.92368666666667, "fusion_lon": 0.0, "fusion_lat": 0.0, "type": "electric_scooter", "name": "46e8a3e6904e6594a16c71ddfb8bc42a", "is_disabled": 0, "rental_uris": {"ios": "https://dc.lft.to/lastmile_qr_scan", "android": "https://dc.lft.to/lastmile_qr_scan"}, "is_reserved": 0}, {"lon": -77.04152283333333, "bike_id": "d25c3ccb876f499416cb10122635b41b", "lat": 38.91947483333333, "fusion_lon": 0.0, "fusion_lat": 0.0, "type": "electric_scooter", "name": "d25c3ccb876f499416cb10122635b41b", "is_disabled": 0, "rental_uris": {"ios": "https://dc.lft.to/lastmile_qr_scan", "android": "https://dc.lft.to/lastmile_qr_scan"}, "is_reserved": 0}, {"lon": -77.02294833333333, "bike_id": "3b3b32561ec39b6d972109a61081c882", "lat": 38.944762833333336, "fusion_lon": 0.0, "fusion_lat": 0.0, "type": "electric_bike", "name": "3b3b32561ec39b6d972109a61081c882", "is_disabled": 0, "rental_uris": {"ios": "https://dc.lft.to/lastmile_qr_scan", "android": "https://dc.lft.to/lastmile_qr_scan"}, "is_reserved": 0}, {"lon": -76.99390183333334, "bike_id": "92ba5683dd8865d66c7389af13d66138", "lat": 38.897306, "fusion_lon": 0.0, "fusion_lat": 0.0, "type": "electric_scooter", "name": "92ba5683dd8865d66c7389af13d66138", "is_disabled": 0, "rental_uris": {"ios": "https://dc.lft.to/lastmile_qr_scan", "android": "https://dc.lft.to/lastmile_qr_scan"}, "is_reserved": 0}, {"lon": -77.10329033333333, "bike_id": "bcc3e4ce0400fc6f864f4aaf056963fc", "lat": 38.874173666666664, "fusion_lon": 0.0, "fusion_lat": 0.0, "type": "electric_bike", "name": "bcc3e4ce0400fc6f864f4aaf056963fc", "is_disabled": 0, "rental_uris": {"ios": "https://dc.lft.to/lastmile_qr_scan", "android": "https://dc.lft.to/lastmile_qr_scan"}, "is_reserved": 0}, {"lon": -77.007768, "bike_id": "f17a3ea0d0b2fdea111dd19985b92fbc", "lat": 38.90661333333333, "fusion_lon": 0.0, "fusion_lat": 0.0, "type": "electric_scooter", "name": "f17a3ea0d0b2fdea111dd19985b92fbc", "is_disabled": 0, "rental_uris": {"ios": "https://dc.lft.to/lastmile_qr_scan", "android": "https://dc.lft.to/lastmile_qr_scan"}, "is_reserved": 0}, {"lon": -77.03487766666667, "bike_id": "5ebee3f9ad3c7d96577839256f4fd3e6", "lat": 38.92485466666667, "fusion_lon": 0.0, "fusion_lat": 0.0, "type": "electric_scooter", "name": "5ebee3f9ad3c7d96577839256f4fd3e6", "is_disabled": 0, "rental_uris": {"ios": "https://dc.lft.to/lastmile_qr_scan", "android": "https://dc.lft.to/lastmile_qr_scan"}, "is_reserved": 0}, {"lon": -77.02416116666667, "bike_id": "30d47ca07f095f77390c9bd97669ab4d", "lat": 38.9097325, "fusion_lon": 0.0, "fusion_lat": 0.0, "type": "electric_scooter", "name": "30d47ca07f095f77390c9bd97669ab4d", "is_disabled": 0, "rental_uris": {"ios": "https://dc.lft.to/lastmile_qr_scan", "android": "https://dc.lft.to/lastmile_qr_scan"}, "is_reserved": 0}, {"lon": -76.9276175, "bike_id": "d8c5ca5efd4f389cf34958e10369a6eb", "lat": 38.88055816666667, "fusion_lon": 0.0, "fusion_lat": 0.0, "type": "electric_scooter", "name": "d8c5ca5efd4f389cf34958e10369a6eb", "is_disabled": 0, "rental_uris": {"ios": "https://dc.lft.to/lastmile_qr_scan", "android": "https://dc.lft.to/lastmile_qr_scan"}, "is_reserved": 0}, {"lon": -77.02494083333333, "bike_id": "2bd6d723ecf352d005a7b59b724e0c6f", "lat": 38.919253499999996, "fusion_lon": 0.0, "fusion_lat": 0.0, "type": "electric_scooter", "name": "2bd6d723ecf352d005a7b59b724e0c6f", "is_disabled": 0, "rental_uris": {"ios": "https://dc.lft.to/lastmile_qr_scan", "android": "https://dc.lft.to/lastmile_qr_scan"}, "is_reserved": 0}, {"lon": -77.022006, "bike_id": "e30899253911be12d83a8941510f5f88", "lat": 38.8986855, "fusion_lon": 0.0, "fusion_lat": 0.0, "type": "electric_scooter", "name": "e30899253911be12d83a8941510f5f88", "is_disabled": 0, "rental_uris": {"ios": "https://dc.lft.to/lastmile_qr_scan", "android": "https://dc.lft.to/lastmile_qr_scan"}, "is_reserved": 0}, {"lon": -77.02300866666667, "bike_id": "07572a54aa15d70e65d34e6c76fce2e3", "lat": 38.90900833333333, "fusion_lon": 0.0, "fusion_lat": 0.0, "type": "electric_scooter", "name": "07572a54aa15d70e65d34e6c76fce2e3", "is_disabled": 0, "rental_uris": {"ios": "https://dc.lft.to/lastmile_qr_scan", "android": "https://dc.lft.to/lastmile_qr_scan"}, "is_reserved": 0}, {"lon": -77.05265516666667, "bike_id": "da43eab9803ba4e03b1c6dec92f738fc", "lat": 38.910181333333334, "fusion_lon": 0.0, "fusion_lat": 0.0, "type": "electric_scooter", "name": "da43eab9803ba4e03b1c6dec92f738fc", "is_disabled": 0, "rental_uris": {"ios": "https://dc.lft.to/lastmile_qr_scan", "android": "https://dc.lft.to/lastmile_qr_scan"}, "is_reserved": 0}, {"lon": -77.02811483333333, "bike_id": "5e38d225d0a254dd0003e6cc67b7195d", "lat": 38.912206, "fusion_lon": 0.0, "fusion_lat": 0.0, "type": "electric_scooter", "name": "5e38d225d0a254dd0003e6cc67b7195d", "is_disabled": 0, "rental_uris": {"ios": "https://dc.lft.to/lastmile_qr_scan", "android": "https://dc.lft.to/lastmile_qr_scan"}, "is_reserved": 0}, {"lon": -77.03479566666667, "bike_id": "aca675d1ecf3b573e0e9d0d5a8d69e07", "lat": 38.906566833333336, "fusion_lon": 0.0, "fusion_lat": 0.0, "type": "electric_scooter", "name": "aca675d1ecf3b573e0e9d0d5a8d69e07", "is_disabled": 0, "rental_uris": {"ios": "https://dc.lft.to/lastmile_qr_scan", "android": "https://dc.lft.to/lastmile_qr_scan"}, "is_reserved": 0}, {"lon": -76.99679933333333, "bike_id": "e86d9acebf00540fa0e014907c693d70", "lat": 38.881238, "fusion_lon": 0.0, "fusion_lat": 0.0, "type": "electric_scooter", "name": "e86d9acebf00540fa0e014907c693d70", "is_disabled": 0, "rental_uris": {"ios": "https://dc.lft.to/lastmile_qr_scan", "android": "https://dc.lft.to/lastmile_qr_scan"}, "is_reserved": 0}, {"lon": -77.02398666666667, "bike_id": "0b8a2a6e4d36eecce94d4dd0c5979655", "lat": 38.907067, "fusion_lon": 0.0, "fusion_lat": 0.0, "type": "electric_scooter", "name": "0b8a2a6e4d36eecce94d4dd0c5979655", "is_disabled": 0, "rental_uris": {"ios": "https://dc.lft.to/lastmile_qr_scan", "android": "https://dc.lft.to/lastmile_qr_scan"}, "is_reserved": 0}, {"lon": -77.03774966666667, "bike_id": "59555ba7718a7d5bd87f0eed60f8614b", "lat": 38.917022, "fusion_lon": 0.0, "fusion_lat": 0.0, "type": "electric_scooter", "name": "59555ba7718a7d5bd87f0eed60f8614b", "is_disabled": 0, "rental_uris": {"ios": "https://dc.lft.to/lastmile_qr_scan", "android": "https://dc.lft.to/lastmile_qr_scan"}, "is_reserved": 0}, {"lon": -76.94712566666666, "bike_id": "ed9e063550b1c3bd2f9f92d2023b476d", "lat": 38.889957, "fusion_lon": 0.0, "fusion_lat": 0.0, "type": "electric_scooter", "name": "ed9e063550b1c3bd2f9f92d2023b476d", "is_disabled": 0, "rental_uris": {"ios": "https://dc.lft.to/lastmile_qr_scan", "android": "https://dc.lft.to/lastmile_qr_scan"}, "is_reserved": 0}, {"lon": -77.034521, "bike_id": "43b7ccd8b7f6272594192be1ed270adb", "lat": 38.90558516666667, "fusion_lon": 0.0, "fusion_lat": 0.0, "type": "electric_scooter", "name": "43b7ccd8b7f6272594192be1ed270adb", "is_disabled": 0, "rental_uris": {"ios": "https://dc.lft.to/lastmile_qr_scan", "android": "https://dc.lft.to/lastmile_qr_scan"}, "is_reserved": 0}, {"lon": -77.046671, "bike_id": "a2d342275e83dd4eb4102f5f75e002ba", "lat": 38.892234, "fusion_lon": 0.0, "fusion_lat": 0.0, "type": "electric_scooter", "name": "a2d342275e83dd4eb4102f5f75e002ba", "is_disabled": 0, "rental_uris": {"ios": "https://dc.lft.to/lastmile_qr_scan", "android": "https://dc.lft.to/lastmile_qr_scan"}, "is_reserved": 0}, {"lon": -76.91968466666667, "bike_id": "964cc6f3d0d273438656343f7f213d0f", "lat": 38.900287166666665, "fusion_lon": 0.0, "fusion_lat": 0.0, "type": "electric_scooter", "name": "964cc6f3d0d273438656343f7f213d0f", "is_disabled": 0, "rental_uris": {"ios": "https://dc.lft.to/lastmile_qr_scan", "android": "https://dc.lft.to/lastmile_qr_scan"}, "is_reserved": 0}, {"lon": -77.02825616666667, "bike_id": "d4c98023b6acf6f563b8db43172911ab", "lat": 38.8985235, "fusion_lon": 0.0, "fusion_lat": 0.0, "type": "electric_scooter", "name": "d4c98023b6acf6f563b8db43172911ab", "is_disabled": 0, "rental_uris": {"ios": "https://dc.lft.to/lastmile_qr_scan", "android": "https://dc.lft.to/lastmile_qr_scan"}, "is_reserved": 0}, {"lon": -77.07585016666667, "bike_id": "ec4509000d7e7f1cc4a36074e0f1f89b", "lat": 38.91268316666667, "fusion_lon": 0.0, "fusion_lat": 0.0, "type": "electric_scooter", "name": "ec4509000d7e7f1cc4a36074e0f1f89b", "is_disabled": 0, "rental_uris": {"ios": "https://dc.lft.to/lastmile_qr_scan", "android": "https://dc.lft.to/lastmile_qr_scan"}, "is_reserved": 0}, {"lon": -77.041445, "bike_id": "8237a25e4d1731d75f4ff782446da5c3", "lat": 38.92299166666667, "fusion_lon": 0.0, "fusion_lat": 0.0, "type": "electric_scooter", "name": "8237a25e4d1731d75f4ff782446da5c3", "is_disabled": 0, "rental_uris": {"ios": "https://dc.lft.to/lastmile_qr_scan", "android": "https://dc.lft.to/lastmile_qr_scan"}, "is_reserved": 0}, {"lon": -77.02276583333334, "bike_id": "bc35c99a802b105896d9bdefa3757560", "lat": 38.91609183333333, "fusion_lon": 0.0, "fusion_lat": 0.0, "type": "electric_scooter", "name": "bc35c99a802b105896d9bdefa3757560", "is_disabled": 0, "rental_uris": {"ios": "https://dc.lft.to/lastmile_qr_scan", "android": "https://dc.lft.to/lastmile_qr_scan"}, "is_reserved": 0}, {"lon": -77.04644733333333, "bike_id": "bcbb771006533adc2ae7b3d3c59d2757", "lat": 38.903468833333335, "fusion_lon": 0.0, "fusion_lat": 0.0, "type": "electric_scooter", "name": "bcbb771006533adc2ae7b3d3c59d2757", "is_disabled": 0, "rental_uris": {"ios": "https://dc.lft.to/lastmile_qr_scan", "android": "https://dc.lft.to/lastmile_qr_scan"}, "is_reserved": 0}, {"lon": -77.024332, "bike_id": "d87cf264a02d9a0716001b4c8e86a89e", "lat": 38.914098, "fusion_lon": 0.0, "fusion_lat": 0.0, "type": "electric_scooter", "name": "d87cf264a02d9a0716001b4c8e86a89e", "is_disabled": 0, "rental_uris": {"ios": "https://dc.lft.to/lastmile_qr_scan", "android": "https://dc.lft.to/lastmile_qr_scan"}, "is_reserved": 0}, {"lon": -77.03322016666667, "bike_id": "9ac23cecb11eac7184f07ec557833e9e", "lat": 38.91708666666667, "fusion_lon": 0.0, "fusion_lat": 0.0, "type": "electric_scooter", "name": "9ac23cecb11eac7184f07ec557833e9e", "is_disabled": 0, "rental_uris": {"ios": "https://dc.lft.to/lastmile_qr_scan", "android": "https://dc.lft.to/lastmile_qr_scan"}, "is_reserved": 0}, {"lon": -77.04501333333333, "bike_id": "0814a977dcc3d3907818e3013a8bde35", "lat": 38.90721933333333, "fusion_lon": 0.0, "fusion_lat": 0.0, "type": "electric_scooter", "name": "0814a977dcc3d3907818e3013a8bde35", "is_disabled": 0, "rental_uris": {"ios": "https://dc.lft.to/lastmile_qr_scan", "android": "https://dc.lft.to/lastmile_qr_scan"}, "is_reserved": 0}, {"lon": -77.01225633333334, "bike_id": "e9b758f19679dce7d44679668e971a82", "lat": 38.890266, "fusion_lon": 0.0, "fusion_lat": 0.0, "type": "electric_scooter", "name": "e9b758f19679dce7d44679668e971a82", "is_disabled": 0, "rental_uris": {"ios": "https://dc.lft.to/lastmile_qr_scan", "android": "https://dc.lft.to/lastmile_qr_scan"}, "is_reserved": 0}, {"lon": -77.048219, "bike_id": "168bc586823e3a1bfa70b2319e0843ba", "lat": 38.913359, "fusion_lon": 0.0, "fusion_lat": 0.0, "type": "electric_scooter", "name": "168bc586823e3a1bfa70b2319e0843ba", "is_disabled": 0, "rental_uris": {"ios": "https://dc.lft.to/lastmile_qr_scan", "android": "https://dc.lft.to/lastmile_qr_scan"}, "is_reserved": 0}, {"lon": -76.98526616666666, "bike_id": "b25d67790bc543341730662e6c08a8e9", "lat": 38.8665775, "fusion_lon": 0.0, "fusion_lat": 0.0, "type": "electric_scooter", "name": "b25d67790bc543341730662e6c08a8e9", "is_disabled": 0, "rental_uris": {"ios": "https://dc.lft.to/lastmile_qr_scan", "android": "https://dc.lft.to/lastmile_qr_scan"}, "is_reserved": 0}, {"lon": -77.04928733333334, "bike_id": "78b65685421ce5231d56e392d0b0c523", "lat": 39.0293455, "fusion_lon": 0.0, "fusion_lat": 0.0, "type": "electric_bike", "name": "78b65685421ce5231d56e392d0b0c523", "is_disabled": 0, "rental_uris": {"ios": "https://dc.lft.to/lastmile_qr_scan", "android": "https://dc.lft.to/lastmile_qr_scan"}, "is_reserved": 0}, {"lon": -76.98968916666666, "bike_id": "fa37426ef16010513a54b7a62c3f767e", "lat": 38.902465, "fusion_lon": 0.0, "fusion_lat": 0.0, "type": "electric_scooter", "name": "fa37426ef16010513a54b7a62c3f767e", "is_disabled": 0, "rental_uris": {"ios": "https://dc.lft.to/lastmile_qr_scan", "android": "https://dc.lft.to/lastmile_qr_scan"}, "is_reserved": 0}, {"lon": -77.02511616666666, "bike_id": "48dab37e9af39f187371b498558f423b", "lat": 38.93968983333333, "fusion_lon": 0.0, "fusion_lat": 0.0, "type": "electric_scooter", "name": "48dab37e9af39f187371b498558f423b", "is_disabled": 0, "rental_uris": {"ios": "https://dc.lft.to/lastmile_qr_scan", "android": "https://dc.lft.to/lastmile_qr_scan"}, "is_reserved": 0}, {"lon": -77.03843083333334, "bike_id": "411912a832f92e874fe6c97360ec3c2a", "lat": 38.909703, "fusion_lon": 0.0, "fusion_lat": 0.0, "type": "electric_scooter", "name": "411912a832f92e874fe6c97360ec3c2a", "is_disabled": 0, "rental_uris": {"ios": "https://dc.lft.to/lastmile_qr_scan", "android": "https://dc.lft.to/lastmile_qr_scan"}, "is_reserved": 0}, {"lon": -77.02806983333333, "bike_id": "b27ca3d1f49832e8bbe918a7e268c2b7", "lat": 38.90976233333333, "fusion_lon": 0.0, "fusion_lat": 0.0, "type": "electric_scooter", "name": "b27ca3d1f49832e8bbe918a7e268c2b7", "is_disabled": 0, "rental_uris": {"ios": "https://dc.lft.to/lastmile_qr_scan", "android": "https://dc.lft.to/lastmile_qr_scan"}, "is_reserved": 0}, {"lon": -77.02588666666666, "bike_id": "28bb0a690b1a1fc56a3c5987686e62a1", "lat": 38.898456333333336, "fusion_lon": 0.0, "fusion_lat": 0.0, "type": "electric_scooter", "name": "28bb0a690b1a1fc56a3c5987686e62a1", "is_disabled": 0, "rental_uris": {"ios": "https://dc.lft.to/lastmile_qr_scan", "android": "https://dc.lft.to/lastmile_qr_scan"}, "is_reserved": 0}, {"lon": -76.98013716666667, "bike_id": "808290457fe5331f7f70cd025fc769ff", "lat": 38.90089716666667, "fusion_lon": 0.0, "fusion_lat": 0.0, "type": "electric_scooter", "name": "808290457fe5331f7f70cd025fc769ff", "is_disabled": 0, "rental_uris": {"ios": "https://dc.lft.to/lastmile_qr_scan", "android": "https://dc.lft.to/lastmile_qr_scan"}, "is_reserved": 0}, {"lon": -77.02833683333333, "bike_id": "634a73a5d74309284a77910894fc5199", "lat": 38.9026905, "fusion_lon": 0.0, "fusion_lat": 0.0, "type": "electric_scooter", "name": "634a73a5d74309284a77910894fc5199", "is_disabled": 0, "rental_uris": {"ios": "https://dc.lft.to/lastmile_qr_scan", "android": "https://dc.lft.to/lastmile_qr_scan"}, "is_reserved": 0}, {"lon": -77.023004, "bike_id": "db9b3e8db1d1cfaf240d85bc3f10d8ef", "lat": 38.9283575, "fusion_lon": 0.0, "fusion_lat": 0.0, "type": "electric_scooter", "name": "db9b3e8db1d1cfaf240d85bc3f10d8ef", "is_disabled": 0, "rental_uris": {"ios": "https://dc.lft.to/lastmile_qr_scan", "android": "https://dc.lft.to/lastmile_qr_scan"}, "is_reserved": 0}, {"lon": -77.02474133333334, "bike_id": "00737a9f004dafb8841f2fa5eebb53ac", "lat": 38.939085, "fusion_lon": 0.0, "fusion_lat": 0.0, "type": "electric_scooter", "name": "00737a9f004dafb8841f2fa5eebb53ac", "is_disabled": 0, "rental_uris": {"ios": "https://dc.lft.to/lastmile_qr_scan", "android": "https://dc.lft.to/lastmile_qr_scan"}, "is_reserved": 0}, {"lon": -77.04476233333334, "bike_id": "e4fdb00926f2be7b7942913c97092ad9", "lat": 38.915432333333335, "fusion_lon": 0.0, "fusion_lat": 0.0, "type": "electric_scooter", "name": "e4fdb00926f2be7b7942913c97092ad9", "is_disabled": 0, "rental_uris": {"ios": "https://dc.lft.to/lastmile_qr_scan", "android": "https://dc.lft.to/lastmile_qr_scan"}, "is_reserved": 0}, {"lon": -77.030395, "bike_id": "c1aa2d221d532fc3f9fa0af752650415", "lat": 38.917104, "fusion_lon": 0.0, "fusion_lat": 0.0, "type": "electric_scooter", "name": "c1aa2d221d532fc3f9fa0af752650415", "is_disabled": 0, "rental_uris": {"ios": "https://dc.lft.to/lastmile_qr_scan", "android": "https://dc.lft.to/lastmile_qr_scan"}, "is_reserved": 0}, {"lon": -76.980631, "bike_id": "a58026ecb8ac6e50e0b769f4bbf705ec", "lat": 38.884951666666666, "fusion_lon": 0.0, "fusion_lat": 0.0, "type": "electric_scooter", "name": "a58026ecb8ac6e50e0b769f4bbf705ec", "is_disabled": 0, "rental_uris": {"ios": "https://dc.lft.to/lastmile_qr_scan", "android": "https://dc.lft.to/lastmile_qr_scan"}, "is_reserved": 0}, {"lon": -77.0279205, "bike_id": "3125431c753624071da87ddca7b88148", "lat": 38.91233716666667, "fusion_lon": 0.0, "fusion_lat": 0.0, "type": "electric_scooter", "name": "3125431c753624071da87ddca7b88148", "is_disabled": 0, "rental_uris": {"ios": "https://dc.lft.to/lastmile_qr_scan", "android": "https://dc.lft.to/lastmile_qr_scan"}, "is_reserved": 0}, {"lon": -76.97397483333333, "bike_id": "a83d6a10be08871cee4a6f8a68079653", "lat": 38.90297433333333, "fusion_lon": 0.0, "fusion_lat": 0.0, "type": "electric_scooter", "name": "a83d6a10be08871cee4a6f8a68079653", "is_disabled": 0, "rental_uris": {"ios": "https://dc.lft.to/lastmile_qr_scan", "android": "https://dc.lft.to/lastmile_qr_scan"}, "is_reserved": 0}, {"lon": -77.09050316666666, "bike_id": "667f1220db2c057f6b961a3f1808795f", "lat": 38.849718333333335, "fusion_lon": 0.0, "fusion_lat": 0.0, "type": "electric_bike", "name": "667f1220db2c057f6b961a3f1808795f", "is_disabled": 0, "rental_uris": {"ios": "https://dc.lft.to/lastmile_qr_scan", "android": "https://dc.lft.to/lastmile_qr_scan"}, "is_reserved": 0}, {"lon": -77.02473966666666, "bike_id": "e6a4a0c985fd9357e904e80761a010c3", "lat": 38.93712433333334, "fusion_lon": 0.0, "fusion_lat": 0.0, "type": "electric_scooter", "name": "e6a4a0c985fd9357e904e80761a010c3", "is_disabled": 0, "rental_uris": {"ios": "https://dc.lft.to/lastmile_qr_scan", "android": "https://dc.lft.to/lastmile_qr_scan"}, "is_reserved": 0}, {"lon": -77.05564, "bike_id": "29c798716eae86cb00620900bd50e19f", "lat": 38.908517333333336, "fusion_lon": 0.0, "fusion_lat": 0.0, "type": "electric_scooter", "name": "29c798716eae86cb00620900bd50e19f", "is_disabled": 0, "rental_uris": {"ios": "https://dc.lft.to/lastmile_qr_scan", "android": "https://dc.lft.to/lastmile_qr_scan"}, "is_reserved": 0}, {"lon": -77.01820933333333, "bike_id": "e6a9dd7651eb95e151cd1642daae3e81", "lat": 38.930443, "fusion_lon": 0.0, "fusion_lat": 0.0, "type": "electric_scooter", "name": "e6a9dd7651eb95e151cd1642daae3e81", "is_disabled": 0, "rental_uris": {"ios": "https://dc.lft.to/lastmile_qr_scan", "android": "https://dc.lft.to/lastmile_qr_scan"}, "is_reserved": 0}, {"lon": -77.07421433333333, "bike_id": "cc349ab26e0ddfd4737e945cfdbdde10", "lat": 38.92888816666667, "fusion_lon": 0.0, "fusion_lat": 0.0, "type": "electric_scooter", "name": "cc349ab26e0ddfd4737e945cfdbdde10", "is_disabled": 0, "rental_uris": {"ios": "https://dc.lft.to/lastmile_qr_scan", "android": "https://dc.lft.to/lastmile_qr_scan"}, "is_reserved": 0}, {"lon": -77.00054483333334, "bike_id": "397fddb80038654f8ac1fd05219e0016", "lat": 38.90006266666666, "fusion_lon": 0.0, "fusion_lat": 0.0, "type": "electric_scooter", "name": "397fddb80038654f8ac1fd05219e0016", "is_disabled": 0, "rental_uris": {"ios": "https://dc.lft.to/lastmile_qr_scan", "android": "https://dc.lft.to/lastmile_qr_scan"}, "is_reserved": 0}, {"lon": -76.9901445, "bike_id": "8c17c99cc766185d802f715238ad90ce", "lat": 38.864319, "fusion_lon": 0.0, "fusion_lat": 0.0, "type": "electric_scooter", "name": "8c17c99cc766185d802f715238ad90ce", "is_disabled": 0, "rental_uris": {"ios": "https://dc.lft.to/lastmile_qr_scan", "android": "https://dc.lft.to/lastmile_qr_scan"}, "is_reserved": 0}, {"lon": -76.989191, "bike_id": "e0622ae454980f126e91f947c0be173d", "lat": 38.8649305, "fusion_lon": 0.0, "fusion_lat": 0.0, "type": "electric_scooter", "name": "e0622ae454980f126e91f947c0be173d", "is_disabled": 0, "rental_uris": {"ios": "https://dc.lft.to/lastmile_qr_scan", "android": "https://dc.lft.to/lastmile_qr_scan"}, "is_reserved": 0}, {"lon": -77.02269933333334, "bike_id": "b2d6ca7f6ecd2e43c42524c067b657ea", "lat": 38.91627716666667, "fusion_lon": 0.0, "fusion_lat": 0.0, "type": "electric_scooter", "name": "b2d6ca7f6ecd2e43c42524c067b657ea", "is_disabled": 0, "rental_uris": {"ios": "https://dc.lft.to/lastmile_qr_scan", "android": "https://dc.lft.to/lastmile_qr_scan"}, "is_reserved": 0}, {"lon": -77.05527566666666, "bike_id": "0e8d4f27fd889be0de8390d9a8f552f6", "lat": 38.897307833333336, "fusion_lon": 0.0, "fusion_lat": 0.0, "type": "electric_scooter", "name": "0e8d4f27fd889be0de8390d9a8f552f6", "is_disabled": 0, "rental_uris": {"ios": "https://dc.lft.to/lastmile_qr_scan", "android": "https://dc.lft.to/lastmile_qr_scan"}, "is_reserved": 0}, {"lon": -76.94596316666667, "bike_id": "6af7c7d3c18566f20ddf891fd6109e6f", "lat": 38.90149316666667, "fusion_lon": 0.0, "fusion_lat": 0.0, "type": "electric_scooter", "name": "6af7c7d3c18566f20ddf891fd6109e6f", "is_disabled": 0, "rental_uris": {"ios": "https://dc.lft.to/lastmile_qr_scan", "android": "https://dc.lft.to/lastmile_qr_scan"}, "is_reserved": 0}, {"lon": -76.93493483333333, "bike_id": "5df5b2dacfc242e69750e4b34f6f4164", "lat": 38.90588666666667, "fusion_lon": 0.0, "fusion_lat": 0.0, "type": "electric_scooter", "name": "5df5b2dacfc242e69750e4b34f6f4164", "is_disabled": 0, "rental_uris": {"ios": "https://dc.lft.to/lastmile_qr_scan", "android": "https://dc.lft.to/lastmile_qr_scan"}, "is_reserved": 0}, {"lon": -77.04007166666666, "bike_id": "f416ed27138536f6db6edac09a0fbcd8", "lat": 38.934339333333334, "fusion_lon": 0.0, "fusion_lat": 0.0, "type": "electric_scooter", "name": "f416ed27138536f6db6edac09a0fbcd8", "is_disabled": 0, "rental_uris": {"ios": "https://dc.lft.to/lastmile_qr_scan", "android": "https://dc.lft.to/lastmile_qr_scan"}, "is_reserved": 0}, {"lon": -77.01859416666667, "bike_id": "f97aa4706eb953d0fa8cacb132a828da", "lat": 38.91496866666667, "fusion_lon": 0.0, "fusion_lat": 0.0, "type": "electric_scooter", "name": "f97aa4706eb953d0fa8cacb132a828da", "is_disabled": 0, "rental_uris": {"ios": "https://dc.lft.to/lastmile_qr_scan", "android": "https://dc.lft.to/lastmile_qr_scan"}, "is_reserved": 0}, {"lon": -77.03939816666667, "bike_id": "878ecbe94075938d5f7131200aeb4695", "lat": 38.915609333333336, "fusion_lon": 0.0, "fusion_lat": 0.0, "type": "electric_scooter", "name": "878ecbe94075938d5f7131200aeb4695", "is_disabled": 0, "rental_uris": {"ios": "https://dc.lft.to/lastmile_qr_scan", "android": "https://dc.lft.to/lastmile_qr_scan"}, "is_reserved": 0}, {"lon": -77.02812216666666, "bike_id": "30384f43dd3faeb131d809855e424e3d", "lat": 38.93083633333333, "fusion_lon": 0.0, "fusion_lat": 0.0, "type": "electric_scooter", "name": "30384f43dd3faeb131d809855e424e3d", "is_disabled": 0, "rental_uris": {"ios": "https://dc.lft.to/lastmile_qr_scan", "android": "https://dc.lft.to/lastmile_qr_scan"}, "is_reserved": 0}, {"lon": -77.0418125, "bike_id": "0d5bacc8fdacc70f4841e8d3d9cbeaee", "lat": 38.906741, "fusion_lon": 0.0, "fusion_lat": 0.0, "type": "electric_scooter", "name": "0d5bacc8fdacc70f4841e8d3d9cbeaee", "is_disabled": 0, "rental_uris": {"ios": "https://dc.lft.to/lastmile_qr_scan", "android": "https://dc.lft.to/lastmile_qr_scan"}, "is_reserved": 0}, {"lon": -77.0224235, "bike_id": "e2468186b92e2217cd18c91e8b3c82c8", "lat": 38.926181666666665, "fusion_lon": 0.0, "fusion_lat": 0.0, "type": "electric_scooter", "name": "e2468186b92e2217cd18c91e8b3c82c8", "is_disabled": 0, "rental_uris": {"ios": "https://dc.lft.to/lastmile_qr_scan", "android": "https://dc.lft.to/lastmile_qr_scan"}, "is_reserved": 0}, {"lon": -77.079238, "bike_id": "03f4152982a05fcf6f7f8d4281f1fa8b", "lat": 38.948116166666665, "fusion_lon": 0.0, "fusion_lat": 0.0, "type": "electric_scooter", "name": "03f4152982a05fcf6f7f8d4281f1fa8b", "is_disabled": 0, "rental_uris": {"ios": "https://dc.lft.to/lastmile_qr_scan", "android": "https://dc.lft.to/lastmile_qr_scan"}, "is_reserved": 0}, {"lon": -77.0439325, "bike_id": "6532e8d258c6d8a4bf5e9e724dfc23ed", "lat": 39.04722, "fusion_lon": 0.0, "fusion_lat": 0.0, "type": "electric_bike", "name": "6532e8d258c6d8a4bf5e9e724dfc23ed", "is_disabled": 0, "rental_uris": {"ios": "https://dc.lft.to/lastmile_qr_scan", "android": "https://dc.lft.to/lastmile_qr_scan"}, "is_reserved": 0}, {"lon": -77.0453175, "bike_id": "7b5ab5d717b3a19b81e6a42bfcb16db5", "lat": 38.913244166666665, "fusion_lon": 0.0, "fusion_lat": 0.0, "type": "electric_scooter", "name": "7b5ab5d717b3a19b81e6a42bfcb16db5", "is_disabled": 0, "rental_uris": {"ios": "https://dc.lft.to/lastmile_qr_scan", "android": "https://dc.lft.to/lastmile_qr_scan"}, "is_reserved": 0}, {"lon": -77.02611416666667, "bike_id": "20fe0119f897a1516ff7cdecaffaa991", "lat": 38.90254083333333, "fusion_lon": 0.0, "fusion_lat": 0.0, "type": "electric_scooter", "name": "20fe0119f897a1516ff7cdecaffaa991", "is_disabled": 0, "rental_uris": {"ios": "https://dc.lft.to/lastmile_qr_scan", "android": "https://dc.lft.to/lastmile_qr_scan"}, "is_reserved": 0}, {"lon": -77.02599033333334, "bike_id": "391893906f890f1a43c39bfae7914116", "lat": 38.982899333333336, "fusion_lon": 0.0, "fusion_lat": 0.0, "type": "electric_bike", "name": "391893906f890f1a43c39bfae7914116", "is_disabled": 0, "rental_uris": {"ios": "https://dc.lft.to/lastmile_qr_scan", "android": "https://dc.lft.to/lastmile_qr_scan"}, "is_reserved": 0}, {"lon": -77.023034, "bike_id": "b410be311031cd7173eb5de76b12b588", "lat": 38.91416533333334, "fusion_lon": 0.0, "fusion_lat": 0.0, "type": "electric_scooter", "name": "b410be311031cd7173eb5de76b12b588", "is_disabled": 0, "rental_uris": {"ios": "https://dc.lft.to/lastmile_qr_scan", "android": "https://dc.lft.to/lastmile_qr_scan"}, "is_reserved": 0}, {"lon": -77.04403783333333, "bike_id": "40ad2da27a3772573a5b8053e150cda7", "lat": 38.924594, "fusion_lon": 0.0, "fusion_lat": 0.0, "type": "electric_scooter", "name": "40ad2da27a3772573a5b8053e150cda7", "is_disabled": 0, "rental_uris": {"ios": "https://dc.lft.to/lastmile_qr_scan", "android": "https://dc.lft.to/lastmile_qr_scan"}, "is_reserved": 0}, {"lon": -77.0333585, "bike_id": "549d7b5790ef231997cd4c562072a637", "lat": 38.928835666666664, "fusion_lon": 0.0, "fusion_lat": 0.0, "type": "electric_scooter", "name": "549d7b5790ef231997cd4c562072a637", "is_disabled": 0, "rental_uris": {"ios": "https://dc.lft.to/lastmile_qr_scan", "android": "https://dc.lft.to/lastmile_qr_scan"}, "is_reserved": 0}, {"lon": -77.02436783333333, "bike_id": "9d016f1d630fb2ba7bbf5f0cdbdd54b8", "lat": 38.907378333333334, "fusion_lon": 0.0, "fusion_lat": 0.0, "type": "electric_scooter", "name": "9d016f1d630fb2ba7bbf5f0cdbdd54b8", "is_disabled": 0, "rental_uris": {"ios": "https://dc.lft.to/lastmile_qr_scan", "android": "https://dc.lft.to/lastmile_qr_scan"}, "is_reserved": 0}, {"lon": -76.989261, "bike_id": "4614b663e9bbe8d425201f20f9b77e44", "lat": 38.85808433333333, "fusion_lon": 0.0, "fusion_lat": 0.0, "type": "electric_scooter", "name": "4614b663e9bbe8d425201f20f9b77e44", "is_disabled": 0, "rental_uris": {"ios": "https://dc.lft.to/lastmile_qr_scan", "android": "https://dc.lft.to/lastmile_qr_scan"}, "is_reserved": 0}, {"lon": -76.98836766666666, "bike_id": "10a442346c65f97dffece8b33d30a704", "lat": 38.890502, "fusion_lon": 0.0, "fusion_lat": 0.0, "type": "electric_bike", "name": "10a442346c65f97dffece8b33d30a704", "is_disabled": 0, "rental_uris": {"ios": "https://dc.lft.to/lastmile_qr_scan", "android": "https://dc.lft.to/lastmile_qr_scan"}, "is_reserved": 0}, {"lon": -76.97971666666666, "bike_id": "0986f4200c9dc6d72346577d100c7faa", "lat": 38.9537495, "fusion_lon": 0.0, "fusion_lat": 0.0, "type": "electric_bike", "name": "0986f4200c9dc6d72346577d100c7faa", "is_disabled": 0, "rental_uris": {"ios": "https://dc.lft.to/lastmile_qr_scan", "android": "https://dc.lft.to/lastmile_qr_scan"}, "is_reserved": 0}, {"lon": -77.1157865, "bike_id": "a083586cd48e0fed99599b09793af5da", "lat": 38.9934495, "fusion_lon": 0.0, "fusion_lat": 0.0, "type": "electric_bike", "name": "a083586cd48e0fed99599b09793af5da", "is_disabled": 0, "rental_uris": {"ios": "https://dc.lft.to/lastmile_qr_scan", "android": "https://dc.lft.to/lastmile_qr_scan"}, "is_reserved": 0}, {"lon": -77.019699, "bike_id": "17c5fd03f2a6bcaf7bead849c71cc9e9", "lat": 38.956523833333335, "fusion_lon": 0.0, "fusion_lat": 0.0, "type": "electric_scooter", "name": "17c5fd03f2a6bcaf7bead849c71cc9e9", "is_disabled": 0, "rental_uris": {"ios": "https://dc.lft.to/lastmile_qr_scan", "android": "https://dc.lft.to/lastmile_qr_scan"}, "is_reserved": 0}, {"lon": -77.04184833333333, "bike_id": "31d5a25b69e5c4b9addfb4a61e148349", "lat": 38.9140835, "fusion_lon": 0.0, "fusion_lat": 0.0, "type": "electric_scooter", "name": "31d5a25b69e5c4b9addfb4a61e148349", "is_disabled": 0, "rental_uris": {"ios": "https://dc.lft.to/lastmile_qr_scan", "android": "https://dc.lft.to/lastmile_qr_scan"}, "is_reserved": 0}, {"lon": -77.03878166666667, "bike_id": "2d028325c76f328c251d18062c329ef3", "lat": 38.93188816666667, "fusion_lon": 0.0, "fusion_lat": 0.0, "type": "electric_scooter", "name": "2d028325c76f328c251d18062c329ef3", "is_disabled": 0, "rental_uris": {"ios": "https://dc.lft.to/lastmile_qr_scan", "android": "https://dc.lft.to/lastmile_qr_scan"}, "is_reserved": 0}, {"lon": -76.98023166666667, "bike_id": "d989384ff7dd0be0aea89784f18594d4", "lat": 38.888695, "fusion_lon": 0.0, "fusion_lat": 0.0, "type": "electric_scooter", "name": "d989384ff7dd0be0aea89784f18594d4", "is_disabled": 0, "rental_uris": {"ios": "https://dc.lft.to/lastmile_qr_scan", "android": "https://dc.lft.to/lastmile_qr_scan"}, "is_reserved": 0}, {"lon": -77.05917083333334, "bike_id": "ee4e88fbe0662f645dd3c0cd2b75e621", "lat": 38.9038735, "fusion_lon": 0.0, "fusion_lat": 0.0, "type": "electric_scooter", "name": "ee4e88fbe0662f645dd3c0cd2b75e621", "is_disabled": 0, "rental_uris": {"ios": "https://dc.lft.to/lastmile_qr_scan", "android": "https://dc.lft.to/lastmile_qr_scan"}, "is_reserved": 0}, {"lon": -77.04422, "bike_id": "9e627f82b8917317ba7074a4561847fd", "lat": 38.92117416666667, "fusion_lon": 0.0, "fusion_lat": 0.0, "type": "electric_scooter", "name": "9e627f82b8917317ba7074a4561847fd", "is_disabled": 0, "rental_uris": {"ios": "https://dc.lft.to/lastmile_qr_scan", "android": "https://dc.lft.to/lastmile_qr_scan"}, "is_reserved": 0}, {"lon": -77.03462383333333, "bike_id": "07c9d170c77db90dd402273ab1ea6efe", "lat": 38.91695383333333, "fusion_lon": 0.0, "fusion_lat": 0.0, "type": "electric_scooter", "name": "07c9d170c77db90dd402273ab1ea6efe", "is_disabled": 0, "rental_uris": {"ios": "https://dc.lft.to/lastmile_qr_scan", "android": "https://dc.lft.to/lastmile_qr_scan"}, "is_reserved": 0}, {"lon": -77.01290216666666, "bike_id": "3a4e824c401cbb3a21600e07ff195cfc", "lat": 38.8947475, "fusion_lon": 0.0, "fusion_lat": 0.0, "type": "electric_scooter", "name": "3a4e824c401cbb3a21600e07ff195cfc", "is_disabled": 0, "rental_uris": {"ios": "https://dc.lft.to/lastmile_qr_scan", "android": "https://dc.lft.to/lastmile_qr_scan"}, "is_reserved": 0}, {"lon": -77.02607133333333, "bike_id": "694fe52f3d688038ed55cafeeb798ca4", "lat": 38.9058045, "fusion_lon": 0.0, "fusion_lat": 0.0, "type": "electric_scooter", "name": "694fe52f3d688038ed55cafeeb798ca4", "is_disabled": 0, "rental_uris": {"ios": "https://dc.lft.to/lastmile_qr_scan", "android": "https://dc.lft.to/lastmile_qr_scan"}, "is_reserved": 0}, {"lon": -76.97140633333333, "bike_id": "e5284fa0a583b5c13c38dc92dbda4bc3", "lat": 38.92357533333333, "fusion_lon": 0.0, "fusion_lat": 0.0, "type": "electric_bike", "name": "e5284fa0a583b5c13c38dc92dbda4bc3", "is_disabled": 0, "rental_uris": {"ios": "https://dc.lft.to/lastmile_qr_scan", "android": "https://dc.lft.to/lastmile_qr_scan"}, "is_reserved": 0}, {"lon": -77.008954, "bike_id": "9ecf2d27a4b293a317b28bf67d75984d", "lat": 38.968175, "fusion_lon": 0.0, "fusion_lat": 0.0, "type": "electric_scooter", "name": "9ecf2d27a4b293a317b28bf67d75984d", "is_disabled": 0, "rental_uris": {"ios": "https://dc.lft.to/lastmile_qr_scan", "android": "https://dc.lft.to/lastmile_qr_scan"}, "is_reserved": 0}, {"lon": -77.027115, "bike_id": "f76c485f631be5efd5432c01663c5cb4", "lat": 38.90671433333333, "fusion_lon": 0.0, "fusion_lat": 0.0, "type": "electric_scooter", "name": "f76c485f631be5efd5432c01663c5cb4", "is_disabled": 0, "rental_uris": {"ios": "https://dc.lft.to/lastmile_qr_scan", "android": "https://dc.lft.to/lastmile_qr_scan"}, "is_reserved": 0}, {"lon": -77.02686066666666, "bike_id": "a8befdc7fda6cb6dd752db4b267a5e8b", "lat": 38.984866, "fusion_lon": 0.0, "fusion_lat": 0.0, "type": "electric_scooter", "name": "a8befdc7fda6cb6dd752db4b267a5e8b", "is_disabled": 0, "rental_uris": {"ios": "https://dc.lft.to/lastmile_qr_scan", "android": "https://dc.lft.to/lastmile_qr_scan"}, "is_reserved": 0}, {"lon": -77.002267, "bike_id": "83151b09dc3785b53f77cb72d80f487b", "lat": 38.8920205, "fusion_lon": 0.0, "fusion_lat": 0.0, "type": "electric_scooter", "name": "83151b09dc3785b53f77cb72d80f487b", "is_disabled": 0, "rental_uris": {"ios": "https://dc.lft.to/lastmile_qr_scan", "android": "https://dc.lft.to/lastmile_qr_scan"}, "is_reserved": 0}, {"lon": -77.0341595, "bike_id": "9542988c864fc66edaf3b5fa1d62a4ed", "lat": 38.91924616666667, "fusion_lon": 0.0, "fusion_lat": 0.0, "type": "electric_scooter", "name": "9542988c864fc66edaf3b5fa1d62a4ed", "is_disabled": 0, "rental_uris": {"ios": "https://dc.lft.to/lastmile_qr_scan", "android": "https://dc.lft.to/lastmile_qr_scan"}, "is_reserved": 0}, {"lon": -77.0361895, "bike_id": "7020f6ab5c6ff4baff01f4332a82013a", "lat": 38.91722333333333, "fusion_lon": 0.0, "fusion_lat": 0.0, "type": "electric_scooter", "name": "7020f6ab5c6ff4baff01f4332a82013a", "is_disabled": 0, "rental_uris": {"ios": "https://dc.lft.to/lastmile_qr_scan", "android": "https://dc.lft.to/lastmile_qr_scan"}, "is_reserved": 0}, {"lon": -77.0240465, "bike_id": "58225e185588ae2e891ea314f7ab8a01", "lat": 38.9095665, "fusion_lon": 0.0, "fusion_lat": 0.0, "type": "electric_scooter", "name": "58225e185588ae2e891ea314f7ab8a01", "is_disabled": 0, "rental_uris": {"ios": "https://dc.lft.to/lastmile_qr_scan", "android": "https://dc.lft.to/lastmile_qr_scan"}, "is_reserved": 0}, {"lon": -77.02703, "bike_id": "9c1837c759505af66b33bf22ca28ebf7", "lat": 38.94883433333333, "fusion_lon": 0.0, "fusion_lat": 0.0, "type": "electric_scooter", "name": "9c1837c759505af66b33bf22ca28ebf7", "is_disabled": 0, "rental_uris": {"ios": "https://dc.lft.to/lastmile_qr_scan", "android": "https://dc.lft.to/lastmile_qr_scan"}, "is_reserved": 0}, {"lon": -77.015522, "bike_id": "7a18a4bfbe89e47976e15a9b12f437eb", "lat": 38.883268, "fusion_lon": 0.0, "fusion_lat": 0.0, "type": "electric_scooter", "name": "7a18a4bfbe89e47976e15a9b12f437eb", "is_disabled": 0, "rental_uris": {"ios": "https://dc.lft.to/lastmile_qr_scan", "android": "https://dc.lft.to/lastmile_qr_scan"}, "is_reserved": 0}, {"lon": -77.03169683333333, "bike_id": "b348abc917f66ca30dd3bee4f9511028", "lat": 38.88413933333333, "fusion_lon": 0.0, "fusion_lat": 0.0, "type": "electric_scooter", "name": "b348abc917f66ca30dd3bee4f9511028", "is_disabled": 0, "rental_uris": {"ios": "https://dc.lft.to/lastmile_qr_scan", "android": "https://dc.lft.to/lastmile_qr_scan"}, "is_reserved": 0}, {"lon": -77.02507, "bike_id": "1a22e30f9aa4550585c365454070eee2", "lat": 38.91946516666667, "fusion_lon": 0.0, "fusion_lat": 0.0, "type": "electric_scooter", "name": "1a22e30f9aa4550585c365454070eee2", "is_disabled": 0, "rental_uris": {"ios": "https://dc.lft.to/lastmile_qr_scan", "android": "https://dc.lft.to/lastmile_qr_scan"}, "is_reserved": 0}, {"lon": -77.00142966666667, "bike_id": "5d184cacbb649f337c610a549e1b1bbe", "lat": 38.842841, "fusion_lon": 0.0, "fusion_lat": 0.0, "type": "electric_scooter", "name": "5d184cacbb649f337c610a549e1b1bbe", "is_disabled": 0, "rental_uris": {"ios": "https://dc.lft.to/lastmile_qr_scan", "android": "https://dc.lft.to/lastmile_qr_scan"}, "is_reserved": 0}, {"lon": -77.01467666666667, "bike_id": "1d41883534612f05277c0e8980fe7e75", "lat": 38.927050666666666, "fusion_lon": 0.0, "fusion_lat": 0.0, "type": "electric_scooter", "name": "1d41883534612f05277c0e8980fe7e75", "is_disabled": 0, "rental_uris": {"ios": "https://dc.lft.to/lastmile_qr_scan", "android": "https://dc.lft.to/lastmile_qr_scan"}, "is_reserved": 0}, {"lon": -76.98619066666667, "bike_id": "e334c563c706ec349af58afaad1987c4", "lat": 38.90588916666667, "fusion_lon": 0.0, "fusion_lat": 0.0, "type": "electric_scooter", "name": "e334c563c706ec349af58afaad1987c4", "is_disabled": 0, "rental_uris": {"ios": "https://dc.lft.to/lastmile_qr_scan", "android": "https://dc.lft.to/lastmile_qr_scan"}, "is_reserved": 0}, {"lon": -76.98538233333333, "bike_id": "c636f13b183c8066ecd1c12adf07ac33", "lat": 38.91025116666667, "fusion_lon": 0.0, "fusion_lat": 0.0, "type": "electric_scooter", "name": "c636f13b183c8066ecd1c12adf07ac33", "is_disabled": 0, "rental_uris": {"ios": "https://dc.lft.to/lastmile_qr_scan", "android": "https://dc.lft.to/lastmile_qr_scan"}, "is_reserved": 0}, {"lon": -77.04508616666666, "bike_id": "2a5522a0562f1acf03311fe4bd0a8890", "lat": 38.90735383333333, "fusion_lon": 0.0, "fusion_lat": 0.0, "type": "electric_scooter", "name": "2a5522a0562f1acf03311fe4bd0a8890", "is_disabled": 0, "rental_uris": {"ios": "https://dc.lft.to/lastmile_qr_scan", "android": "https://dc.lft.to/lastmile_qr_scan"}, "is_reserved": 0}, {"lon": -77.03214666666666, "bike_id": "4cb5db53103ad7a8559f04411ab70470", "lat": 38.89791666666667, "fusion_lon": 0.0, "fusion_lat": 0.0, "type": "electric_scooter", "name": "4cb5db53103ad7a8559f04411ab70470", "is_disabled": 0, "rental_uris": {"ios": "https://dc.lft.to/lastmile_qr_scan", "android": "https://dc.lft.to/lastmile_qr_scan"}, "is_reserved": 0}, {"lon": -77.06303483333333, "bike_id": "bd1696d8d07278afe99918b2453baac0", "lat": 38.906974166666664, "fusion_lon": 0.0, "fusion_lat": 0.0, "type": "electric_scooter", "name": "bd1696d8d07278afe99918b2453baac0", "is_disabled": 0, "rental_uris": {"ios": "https://dc.lft.to/lastmile_qr_scan", "android": "https://dc.lft.to/lastmile_qr_scan"}, "is_reserved": 0}, {"lon": -77.043345, "bike_id": "951084fa50ec514aee369c5388392f1d", "lat": 38.92222366666667, "fusion_lon": 0.0, "fusion_lat": 0.0, "type": "electric_scooter", "name": "951084fa50ec514aee369c5388392f1d", "is_disabled": 0, "rental_uris": {"ios": "https://dc.lft.to/lastmile_qr_scan", "android": "https://dc.lft.to/lastmile_qr_scan"}, "is_reserved": 0}, {"lon": -76.950248, "bike_id": "15be9c0e5bf71776110d860039658b55", "lat": 38.89399733333333, "fusion_lon": 0.0, "fusion_lat": 0.0, "type": "electric_scooter", "name": "15be9c0e5bf71776110d860039658b55", "is_disabled": 0, "rental_uris": {"ios": "https://dc.lft.to/lastmile_qr_scan", "android": "https://dc.lft.to/lastmile_qr_scan"}, "is_reserved": 0}, {"lon": -76.96467133333333, "bike_id": "3b98722822e7c2cb913be4ced06b1f1f", "lat": 38.93449833333333, "fusion_lon": 0.0, "fusion_lat": 0.0, "type": "electric_scooter", "name": "3b98722822e7c2cb913be4ced06b1f1f", "is_disabled": 0, "rental_uris": {"ios": "https://dc.lft.to/lastmile_qr_scan", "android": "https://dc.lft.to/lastmile_qr_scan"}, "is_reserved": 0}, {"lon": -77.02640466666666, "bike_id": "6dce9be7e80a4d32e774a0fc7b129f4f", "lat": 38.929204166666665, "fusion_lon": 0.0, "fusion_lat": 0.0, "type": "electric_scooter", "name": "6dce9be7e80a4d32e774a0fc7b129f4f", "is_disabled": 0, "rental_uris": {"ios": "https://dc.lft.to/lastmile_qr_scan", "android": "https://dc.lft.to/lastmile_qr_scan"}, "is_reserved": 0}, {"lon": -77.032638, "bike_id": "f1209f539048ac77bc33e7c88b404508", "lat": 38.937203833333335, "fusion_lon": 0.0, "fusion_lat": 0.0, "type": "electric_scooter", "name": "f1209f539048ac77bc33e7c88b404508", "is_disabled": 0, "rental_uris": {"ios": "https://dc.lft.to/lastmile_qr_scan", "android": "https://dc.lft.to/lastmile_qr_scan"}, "is_reserved": 0}, {"lon": -77.03328916666666, "bike_id": "670088c0902309a70352fe9eb6970a59", "lat": 38.915650166666666, "fusion_lon": 0.0, "fusion_lat": 0.0, "type": "electric_scooter", "name": "670088c0902309a70352fe9eb6970a59", "is_disabled": 0, "rental_uris": {"ios": "https://dc.lft.to/lastmile_qr_scan", "android": "https://dc.lft.to/lastmile_qr_scan"}, "is_reserved": 0}, {"lon": -77.06835333333333, "bike_id": "0b49d19552f08f89c122303b7bfde2a4", "lat": 38.8057135, "fusion_lon": 0.0, "fusion_lat": 0.0, "type": "electric_bike", "name": "0b49d19552f08f89c122303b7bfde2a4", "is_disabled": 0, "rental_uris": {"ios": "https://dc.lft.to/lastmile_qr_scan", "android": "https://dc.lft.to/lastmile_qr_scan"}, "is_reserved": 0}, {"lon": -77.0276395, "bike_id": "e89cccc587d74c0ed4d4d1a21a5f9290", "lat": 38.95420716666667, "fusion_lon": 0.0, "fusion_lat": 0.0, "type": "electric_scooter", "name": "e89cccc587d74c0ed4d4d1a21a5f9290", "is_disabled": 0, "rental_uris": {"ios": "https://dc.lft.to/lastmile_qr_scan", "android": "https://dc.lft.to/lastmile_qr_scan"}, "is_reserved": 0}, {"lon": -77.04414183333333, "bike_id": "66b6e5b5019c016e2267d4d1f080c1ed", "lat": 38.919612666666666, "fusion_lon": 0.0, "fusion_lat": 0.0, "type": "electric_scooter", "name": "66b6e5b5019c016e2267d4d1f080c1ed", "is_disabled": 0, "rental_uris": {"ios": "https://dc.lft.to/lastmile_qr_scan", "android": "https://dc.lft.to/lastmile_qr_scan"}, "is_reserved": 0}, {"lon": -77.02705716666667, "bike_id": "fa35d2c3d7479aae53190d1d85a73f27", "lat": 38.8949485, "fusion_lon": 0.0, "fusion_lat": 0.0, "type": "electric_scooter", "name": "fa35d2c3d7479aae53190d1d85a73f27", "is_disabled": 0, "rental_uris": {"ios": "https://dc.lft.to/lastmile_qr_scan", "android": "https://dc.lft.to/lastmile_qr_scan"}, "is_reserved": 0}, {"lon": -77.04438716666667, "bike_id": "2ad260f023fed24de3258d492b667c6e", "lat": 38.90580166666667, "fusion_lon": 0.0, "fusion_lat": 0.0, "type": "electric_scooter", "name": "2ad260f023fed24de3258d492b667c6e", "is_disabled": 0, "rental_uris": {"ios": "https://dc.lft.to/lastmile_qr_scan", "android": "https://dc.lft.to/lastmile_qr_scan"}, "is_reserved": 0}, {"lon": -77.0648875, "bike_id": "106f550c50fed14c84562d43f808a53a", "lat": 38.9098205, "fusion_lon": 0.0, "fusion_lat": 0.0, "type": "electric_scooter", "name": "106f550c50fed14c84562d43f808a53a", "is_disabled": 0, "rental_uris": {"ios": "https://dc.lft.to/lastmile_qr_scan", "android": "https://dc.lft.to/lastmile_qr_scan"}, "is_reserved": 0}, {"lon": -76.98084466666667, "bike_id": "a4a92dbcfe3cb74570a7b930a1190d5f", "lat": 38.907097, "fusion_lon": 0.0, "fusion_lat": 0.0, "type": "electric_scooter", "name": "a4a92dbcfe3cb74570a7b930a1190d5f", "is_disabled": 0, "rental_uris": {"ios": "https://dc.lft.to/lastmile_qr_scan", "android": "https://dc.lft.to/lastmile_qr_scan"}, "is_reserved": 0}, {"lon": -77.029649, "bike_id": "5d73ad914cba2a745188bde553abefb5", "lat": 38.896219, "fusion_lon": 0.0, "fusion_lat": 0.0, "type": "electric_scooter", "name": "5d73ad914cba2a745188bde553abefb5", "is_disabled": 0, "rental_uris": {"ios": "https://dc.lft.to/lastmile_qr_scan", "android": "https://dc.lft.to/lastmile_qr_scan"}, "is_reserved": 0}, {"lon": -77.03308183333333, "bike_id": "8f026af0d9e7f0e3540bab40454a0176", "lat": 38.956411333333335, "fusion_lon": 0.0, "fusion_lat": 0.0, "type": "electric_scooter", "name": "8f026af0d9e7f0e3540bab40454a0176", "is_disabled": 0, "rental_uris": {"ios": "https://dc.lft.to/lastmile_qr_scan", "android": "https://dc.lft.to/lastmile_qr_scan"}, "is_reserved": 0}, {"lon": -76.9908505, "bike_id": "2204ed32afcb7e3b12f9b1e983ce2dbf", "lat": 38.862361, "fusion_lon": 0.0, "fusion_lat": 0.0, "type": "electric_bike", "name": "2204ed32afcb7e3b12f9b1e983ce2dbf", "is_disabled": 0, "rental_uris": {"ios": "https://dc.lft.to/lastmile_qr_scan", "android": "https://dc.lft.to/lastmile_qr_scan"}, "is_reserved": 0}, {"lon": -77.0241545, "bike_id": "37eadcb91fb4b2c64ebea00d77505c97", "lat": 38.91526183333333, "fusion_lon": 0.0, "fusion_lat": 0.0, "type": "electric_scooter", "name": "37eadcb91fb4b2c64ebea00d77505c97", "is_disabled": 0, "rental_uris": {"ios": "https://dc.lft.to/lastmile_qr_scan", "android": "https://dc.lft.to/lastmile_qr_scan"}, "is_reserved": 0}, {"lon": -77.045125, "bike_id": "073f83e354cec09554c3787d61854bcb", "lat": 38.907355333333335, "fusion_lon": 0.0, "fusion_lat": 0.0, "type": "electric_scooter", "name": "073f83e354cec09554c3787d61854bcb", "is_disabled": 0, "rental_uris": {"ios": "https://dc.lft.to/lastmile_qr_scan", "android": "https://dc.lft.to/lastmile_qr_scan"}, "is_reserved": 0}, {"lon": -77.02500883333333, "bike_id": "1ad216da11d381f6716e489e012297e9", "lat": 38.91809116666667, "fusion_lon": 0.0, "fusion_lat": 0.0, "type": "electric_scooter", "name": "1ad216da11d381f6716e489e012297e9", "is_disabled": 0, "rental_uris": {"ios": "https://dc.lft.to/lastmile_qr_scan", "android": "https://dc.lft.to/lastmile_qr_scan"}, "is_reserved": 0}, {"lon": -77.0296295, "bike_id": "08304b77f3519aa9462307ecc6e5da6f", "lat": 38.905421833333335, "fusion_lon": 0.0, "fusion_lat": 0.0, "type": "electric_scooter", "name": "08304b77f3519aa9462307ecc6e5da6f", "is_disabled": 0, "rental_uris": {"ios": "https://dc.lft.to/lastmile_qr_scan", "android": "https://dc.lft.to/lastmile_qr_scan"}, "is_reserved": 0}, {"lon": -77.04218116666667, "bike_id": "42a225c24ab60ea6b1b13810da7ac3db", "lat": 38.89271316666667, "fusion_lon": 0.0, "fusion_lat": 0.0, "type": "electric_scooter", "name": "42a225c24ab60ea6b1b13810da7ac3db", "is_disabled": 0, "rental_uris": {"ios": "https://dc.lft.to/lastmile_qr_scan", "android": "https://dc.lft.to/lastmile_qr_scan"}, "is_reserved": 0}, {"lon": -77.00028666666667, "bike_id": "a0daccb3927fc98e0dea894f0df0e69f", "lat": 38.873819833333336, "fusion_lon": 0.0, "fusion_lat": 0.0, "type": "electric_scooter", "name": "a0daccb3927fc98e0dea894f0df0e69f", "is_disabled": 0, "rental_uris": {"ios": "https://dc.lft.to/lastmile_qr_scan", "android": "https://dc.lft.to/lastmile_qr_scan"}, "is_reserved": 0}, {"lon": -76.99141616666667, "bike_id": "91a08f3da273cd7f1b06fc23d8595071", "lat": 38.90118183333333, "fusion_lon": 0.0, "fusion_lat": 0.0, "type": "electric_scooter", "name": "91a08f3da273cd7f1b06fc23d8595071", "is_disabled": 0, "rental_uris": {"ios": "https://dc.lft.to/lastmile_qr_scan", "android": "https://dc.lft.to/lastmile_qr_scan"}, "is_reserved": 0}, {"lon": -77.12530566666666, "bike_id": "427a6b4b4e022cc21acb0ab5ac99c91c", "lat": 39.05636116666667, "fusion_lon": 0.0, "fusion_lat": 0.0, "type": "electric_bike", "name": "427a6b4b4e022cc21acb0ab5ac99c91c", "is_disabled": 0, "rental_uris": {"ios": "https://dc.lft.to/lastmile_qr_scan", "android": "https://dc.lft.to/lastmile_qr_scan"}, "is_reserved": 0}, {"lon": -77.07552933333334, "bike_id": "f413e899a506625f510e532afd90fb5a", "lat": 38.894803333333336, "fusion_lon": 0.0, "fusion_lat": 0.0, "type": "electric_scooter", "name": "f413e899a506625f510e532afd90fb5a", "is_disabled": 0, "rental_uris": {"ios": "https://dc.lft.to/lastmile_qr_scan", "android": "https://dc.lft.to/lastmile_qr_scan"}, "is_reserved": 0}, {"lon": -77.05906583333334, "bike_id": "2a43fe0067a6cf22b90e40a495bc734a", "lat": 38.903600833333336, "fusion_lon": 0.0, "fusion_lat": 0.0, "type": "electric_scooter", "name": "2a43fe0067a6cf22b90e40a495bc734a", "is_disabled": 0, "rental_uris": {"ios": "https://dc.lft.to/lastmile_qr_scan", "android": "https://dc.lft.to/lastmile_qr_scan"}, "is_reserved": 0}, {"lon": -77.0246065, "bike_id": "e4dbeda495b9b89ba27a6ef1e857b930", "lat": 38.920428, "fusion_lon": 0.0, "fusion_lat": 0.0, "type": "electric_scooter", "name": "e4dbeda495b9b89ba27a6ef1e857b930", "is_disabled": 0, "rental_uris": {"ios": "https://dc.lft.to/lastmile_qr_scan", "android": "https://dc.lft.to/lastmile_qr_scan"}, "is_reserved": 0}, {"lon": -76.97634266666667, "bike_id": "c7d4d36a14443c5efd1003bab3b57be6", "lat": 38.90572216666666, "fusion_lon": 0.0, "fusion_lat": 0.0, "type": "electric_scooter", "name": "c7d4d36a14443c5efd1003bab3b57be6", "is_disabled": 0, "rental_uris": {"ios": "https://dc.lft.to/lastmile_qr_scan", "android": "https://dc.lft.to/lastmile_qr_scan"}, "is_reserved": 0}, {"lon": -77.0280375, "bike_id": "47f7c2a1c1ff9c22041733acc1de9fda", "lat": 38.928695, "fusion_lon": 0.0, "fusion_lat": 0.0, "type": "electric_scooter", "name": "47f7c2a1c1ff9c22041733acc1de9fda", "is_disabled": 0, "rental_uris": {"ios": "https://dc.lft.to/lastmile_qr_scan", "android": "https://dc.lft.to/lastmile_qr_scan"}, "is_reserved": 0}, {"lon": -77.05884633333334, "bike_id": "d5917dc41cee9fcc0c91e5a44c5f975c", "lat": 38.936383, "fusion_lon": 0.0, "fusion_lat": 0.0, "type": "electric_scooter", "name": "d5917dc41cee9fcc0c91e5a44c5f975c", "is_disabled": 0, "rental_uris": {"ios": "https://dc.lft.to/lastmile_qr_scan", "android": "https://dc.lft.to/lastmile_qr_scan"}, "is_reserved": 0}, {"lon": -76.994288, "bike_id": "d4f6f03e14fef7b8cd63fd4a5a3272bd", "lat": 38.83606, "fusion_lon": 0.0, "fusion_lat": 0.0, "type": "electric_scooter", "name": "d4f6f03e14fef7b8cd63fd4a5a3272bd", "is_disabled": 0, "rental_uris": {"ios": "https://dc.lft.to/lastmile_qr_scan", "android": "https://dc.lft.to/lastmile_qr_scan"}, "is_reserved": 0}, {"lon": -77.02558383333333, "bike_id": "44132fdd4b9a182eff9499c90d01fb3a", "lat": 38.94136, "fusion_lon": 0.0, "fusion_lat": 0.0, "type": "electric_scooter", "name": "44132fdd4b9a182eff9499c90d01fb3a", "is_disabled": 0, "rental_uris": {"ios": "https://dc.lft.to/lastmile_qr_scan", "android": "https://dc.lft.to/lastmile_qr_scan"}, "is_reserved": 0}, {"lon": -76.9950745, "bike_id": "72114cb26a06d464e238fecbc7260089", "lat": 38.88352183333333, "fusion_lon": 0.0, "fusion_lat": 0.0, "type": "electric_scooter", "name": "72114cb26a06d464e238fecbc7260089", "is_disabled": 0, "rental_uris": {"ios": "https://dc.lft.to/lastmile_qr_scan", "android": "https://dc.lft.to/lastmile_qr_scan"}, "is_reserved": 0}, {"lon": -76.9442415, "bike_id": "d8026389c31b53afd29a867f2547767e", "lat": 38.96621116666667, "fusion_lon": 0.0, "fusion_lat": 0.0, "type": "electric_bike", "name": "d8026389c31b53afd29a867f2547767e", "is_disabled": 0, "rental_uris": {"ios": "https://dc.lft.to/lastmile_qr_scan", "android": "https://dc.lft.to/lastmile_qr_scan"}, "is_reserved": 0}, {"lon": -77.09168916666667, "bike_id": "7665532b13319f89cbfbd37473ec9576", "lat": 38.945610333333335, "fusion_lon": 0.0, "fusion_lat": 0.0, "type": "electric_scooter", "name": "7665532b13319f89cbfbd37473ec9576", "is_disabled": 0, "rental_uris": {"ios": "https://dc.lft.to/lastmile_qr_scan", "android": "https://dc.lft.to/lastmile_qr_scan"}, "is_reserved": 0}, {"lon": -77.02416783333334, "bike_id": "88b500c3fdf51d1fd09898653695ecf4", "lat": 38.906905, "fusion_lon": 0.0, "fusion_lat": 0.0, "type": "electric_scooter", "name": "88b500c3fdf51d1fd09898653695ecf4", "is_disabled": 0, "rental_uris": {"ios": "https://dc.lft.to/lastmile_qr_scan", "android": "https://dc.lft.to/lastmile_qr_scan"}, "is_reserved": 0}, {"lon": -76.9884325, "bike_id": "d128614467daaf2cc385e9bc71ed2d52", "lat": 38.84277933333333, "fusion_lon": 0.0, "fusion_lat": 0.0, "type": "electric_bike", "name": "d128614467daaf2cc385e9bc71ed2d52", "is_disabled": 0, "rental_uris": {"ios": "https://dc.lft.to/lastmile_qr_scan", "android": "https://dc.lft.to/lastmile_qr_scan"}, "is_reserved": 0}, {"lon": -77.03829983333334, "bike_id": "754f8d52f57a3b34d585ce9a55589741", "lat": 38.91040566666667, "fusion_lon": 0.0, "fusion_lat": 0.0, "type": "electric_scooter", "name": "754f8d52f57a3b34d585ce9a55589741", "is_disabled": 0, "rental_uris": {"ios": "https://dc.lft.to/lastmile_qr_scan", "android": "https://dc.lft.to/lastmile_qr_scan"}, "is_reserved": 0}, {"lon": -77.0331895, "bike_id": "fff248c29ad014fd62f34e04d86c93ba", "lat": 38.928614, "fusion_lon": 0.0, "fusion_lat": 0.0, "type": "electric_scooter", "name": "fff248c29ad014fd62f34e04d86c93ba", "is_disabled": 0, "rental_uris": {"ios": "https://dc.lft.to/lastmile_qr_scan", "android": "https://dc.lft.to/lastmile_qr_scan"}, "is_reserved": 0}, {"lon": -77.1784675, "bike_id": "57f262ba1731d5db8230a6bea5afa8fd", "lat": 39.08862416666667, "fusion_lon": 0.0, "fusion_lat": 0.0, "type": "electric_bike", "name": "57f262ba1731d5db8230a6bea5afa8fd", "is_disabled": 0, "rental_uris": {"ios": "https://dc.lft.to/lastmile_qr_scan", "android": "https://dc.lft.to/lastmile_qr_scan"}, "is_reserved": 0}, {"lon": -77.04745383333334, "bike_id": "e6d9f164b377bb0e9adfeb6333324d74", "lat": 38.889799833333335, "fusion_lon": 0.0, "fusion_lat": 0.0, "type": "electric_scooter", "name": "e6d9f164b377bb0e9adfeb6333324d74", "is_disabled": 0, "rental_uris": {"ios": "https://dc.lft.to/lastmile_qr_scan", "android": "https://dc.lft.to/lastmile_qr_scan"}, "is_reserved": 0}, {"lon": -76.9917545, "bike_id": "72e794726add4cd1522f7065b7b0afce", "lat": 38.90965, "fusion_lon": 0.0, "fusion_lat": 0.0, "type": "electric_scooter", "name": "72e794726add4cd1522f7065b7b0afce", "is_disabled": 0, "rental_uris": {"ios": "https://dc.lft.to/lastmile_qr_scan", "android": "https://dc.lft.to/lastmile_qr_scan"}, "is_reserved": 0}, {"lon": -76.99629666666667, "bike_id": "fac00b7d8eafe044bb2b4f3b13de94eb", "lat": 38.9003155, "fusion_lon": 0.0, "fusion_lat": 0.0, "type": "electric_scooter", "name": "fac00b7d8eafe044bb2b4f3b13de94eb", "is_disabled": 0, "rental_uris": {"ios": "https://dc.lft.to/lastmile_qr_scan", "android": "https://dc.lft.to/lastmile_qr_scan"}, "is_reserved": 0}, {"lon": -77.03283366666666, "bike_id": "3af4d3f56053f7844e4f948bd5d5baf2", "lat": 38.93642466666667, "fusion_lon": 0.0, "fusion_lat": 0.0, "type": "electric_scooter", "name": "3af4d3f56053f7844e4f948bd5d5baf2", "is_disabled": 0, "rental_uris": {"ios": "https://dc.lft.to/lastmile_qr_scan", "android": "https://dc.lft.to/lastmile_qr_scan"}, "is_reserved": 0}, {"lon": -77.02231266666666, "bike_id": "017a2fe27cb2932a248d016232b3efff", "lat": 38.8874595, "fusion_lon": 0.0, "fusion_lat": 0.0, "type": "electric_scooter", "name": "017a2fe27cb2932a248d016232b3efff", "is_disabled": 0, "rental_uris": {"ios": "https://dc.lft.to/lastmile_qr_scan", "android": "https://dc.lft.to/lastmile_qr_scan"}, "is_reserved": 0}, {"lon": -76.9565175, "bike_id": "2e3bf7f1d99e1bf184836498044ba25a", "lat": 38.89554433333333, "fusion_lon": 0.0, "fusion_lat": 0.0, "type": "electric_scooter", "name": "2e3bf7f1d99e1bf184836498044ba25a", "is_disabled": 0, "rental_uris": {"ios": "https://dc.lft.to/lastmile_qr_scan", "android": "https://dc.lft.to/lastmile_qr_scan"}, "is_reserved": 0}, {"lon": -77.05942516666667, "bike_id": "23d194c7cb5afb948ec82bf343d549ac", "lat": 38.911938, "fusion_lon": 0.0, "fusion_lat": 0.0, "type": "electric_bike", "name": "23d194c7cb5afb948ec82bf343d549ac", "is_disabled": 0, "rental_uris": {"ios": "https://dc.lft.to/lastmile_qr_scan", "android": "https://dc.lft.to/lastmile_qr_scan"}, "is_reserved": 0}, {"lon": -77.02625133333333, "bike_id": "6bbfa3ef1ed150ce1f15ab6277e48b28", "lat": 38.902496, "fusion_lon": 0.0, "fusion_lat": 0.0, "type": "electric_scooter", "name": "6bbfa3ef1ed150ce1f15ab6277e48b28", "is_disabled": 0, "rental_uris": {"ios": "https://dc.lft.to/lastmile_qr_scan", "android": "https://dc.lft.to/lastmile_qr_scan"}, "is_reserved": 0}, {"lon": -77.04222383333334, "bike_id": "c53da46b964f39ed55e2c61571128bb1", "lat": 38.92315633333333, "fusion_lon": 0.0, "fusion_lat": 0.0, "type": "electric_scooter", "name": "c53da46b964f39ed55e2c61571128bb1", "is_disabled": 0, "rental_uris": {"ios": "https://dc.lft.to/lastmile_qr_scan", "android": "https://dc.lft.to/lastmile_qr_scan"}, "is_reserved": 0}, {"lon": -76.97655616666667, "bike_id": "737122c0a22435144045ee37d0db35c5", "lat": 38.88777983333333, "fusion_lon": 0.0, "fusion_lat": 0.0, "type": "electric_scooter", "name": "737122c0a22435144045ee37d0db35c5", "is_disabled": 0, "rental_uris": {"ios": "https://dc.lft.to/lastmile_qr_scan", "android": "https://dc.lft.to/lastmile_qr_scan"}, "is_reserved": 0}, {"lon": -77.046129, "bike_id": "ddb996c67c945f1bc2822e964190775d", "lat": 38.9025435, "fusion_lon": 0.0, "fusion_lat": 0.0, "type": "electric_scooter", "name": "ddb996c67c945f1bc2822e964190775d", "is_disabled": 0, "rental_uris": {"ios": "https://dc.lft.to/lastmile_qr_scan", "android": "https://dc.lft.to/lastmile_qr_scan"}, "is_reserved": 0}, {"lon": -77.00622316666667, "bike_id": "31aad3b0c5da89e7c1597fb4dfb6bad5", "lat": 38.908530666666664, "fusion_lon": 0.0, "fusion_lat": 0.0, "type": "electric_scooter", "name": "31aad3b0c5da89e7c1597fb4dfb6bad5", "is_disabled": 0, "rental_uris": {"ios": "https://dc.lft.to/lastmile_qr_scan", "android": "https://dc.lft.to/lastmile_qr_scan"}, "is_reserved": 0}, {"lon": -77.03215683333333, "bike_id": "98bcffb80bf15c87a00cc020960cfcd0", "lat": 38.89675616666667, "fusion_lon": 0.0, "fusion_lat": 0.0, "type": "electric_scooter", "name": "98bcffb80bf15c87a00cc020960cfcd0", "is_disabled": 0, "rental_uris": {"ios": "https://dc.lft.to/lastmile_qr_scan", "android": "https://dc.lft.to/lastmile_qr_scan"}, "is_reserved": 0}, {"lon": -77.0522125, "bike_id": "4d7837bcdb2eb6d62bf0e1fe77a1cbf4", "lat": 38.924968666666665, "fusion_lon": 0.0, "fusion_lat": 0.0, "type": "electric_scooter", "name": "4d7837bcdb2eb6d62bf0e1fe77a1cbf4", "is_disabled": 0, "rental_uris": {"ios": "https://dc.lft.to/lastmile_qr_scan", "android": "https://dc.lft.to/lastmile_qr_scan"}, "is_reserved": 0}, {"lon": -77.05238366666667, "bike_id": "b4b591e8a2a9ad8b04e276981fbb47e4", "lat": 38.925233166666665, "fusion_lon": 0.0, "fusion_lat": 0.0, "type": "electric_scooter", "name": "b4b591e8a2a9ad8b04e276981fbb47e4", "is_disabled": 0, "rental_uris": {"ios": "https://dc.lft.to/lastmile_qr_scan", "android": "https://dc.lft.to/lastmile_qr_scan"}, "is_reserved": 0}, {"lon": -77.03779233333333, "bike_id": "bf87f968282d2d434a2d685accf3e7df", "lat": 38.925721333333335, "fusion_lon": 0.0, "fusion_lat": 0.0, "type": "electric_scooter", "name": "bf87f968282d2d434a2d685accf3e7df", "is_disabled": 0, "rental_uris": {"ios": "https://dc.lft.to/lastmile_qr_scan", "android": "https://dc.lft.to/lastmile_qr_scan"}, "is_reserved": 0}, {"lon": -76.99789, "bike_id": "82ee254e167196b4ca8846045e58c6b5", "lat": 38.9105255, "fusion_lon": 0.0, "fusion_lat": 0.0, "type": "electric_scooter", "name": "82ee254e167196b4ca8846045e58c6b5", "is_disabled": 0, "rental_uris": {"ios": "https://dc.lft.to/lastmile_qr_scan", "android": "https://dc.lft.to/lastmile_qr_scan"}, "is_reserved": 0}, {"lon": -76.92917583333333, "bike_id": "2c6e6a22e7cfaeb08823528071e8ed15", "lat": 38.892945, "fusion_lon": 0.0, "fusion_lat": 0.0, "type": "electric_scooter", "name": "2c6e6a22e7cfaeb08823528071e8ed15", "is_disabled": 0, "rental_uris": {"ios": "https://dc.lft.to/lastmile_qr_scan", "android": "https://dc.lft.to/lastmile_qr_scan"}, "is_reserved": 0}, {"lon": -77.03640983333334, "bike_id": "dd89162c1f9ca3f8a282f7ad0bdf6f7a", "lat": 38.903720666666665, "fusion_lon": 0.0, "fusion_lat": 0.0, "type": "electric_scooter", "name": "dd89162c1f9ca3f8a282f7ad0bdf6f7a", "is_disabled": 0, "rental_uris": {"ios": "https://dc.lft.to/lastmile_qr_scan", "android": "https://dc.lft.to/lastmile_qr_scan"}, "is_reserved": 0}, {"lon": -77.02298816666666, "bike_id": "d22b78641dc0b46fabe365bd8be2c989", "lat": 38.923300833333336, "fusion_lon": 0.0, "fusion_lat": 0.0, "type": "electric_bike", "name": "d22b78641dc0b46fabe365bd8be2c989", "is_disabled": 0, "rental_uris": {"ios": "https://dc.lft.to/lastmile_qr_scan", "android": "https://dc.lft.to/lastmile_qr_scan"}, "is_reserved": 0}, {"lon": -77.01204333333334, "bike_id": "d79ce6d4ccba729adef9e15fde9e028c", "lat": 38.893159, "fusion_lon": 0.0, "fusion_lat": 0.0, "type": "electric_scooter", "name": "d79ce6d4ccba729adef9e15fde9e028c", "is_disabled": 0, "rental_uris": {"ios": "https://dc.lft.to/lastmile_qr_scan", "android": "https://dc.lft.to/lastmile_qr_scan"}, "is_reserved": 0}, {"lon": -77.04216716666667, "bike_id": "bfa3a58e0f2c511cc05e6b6a3b373011", "lat": 38.89271733333333, "fusion_lon": 0.0, "fusion_lat": 0.0, "type": "electric_scooter", "name": "bfa3a58e0f2c511cc05e6b6a3b373011", "is_disabled": 0, "rental_uris": {"ios": "https://dc.lft.to/lastmile_qr_scan", "android": "https://dc.lft.to/lastmile_qr_scan"}, "is_reserved": 0}, {"lon": -77.02492666666667, "bike_id": "8d10ecc3f04987ae5683216b3352451d", "lat": 38.94184466666667, "fusion_lon": 0.0, "fusion_lat": 0.0, "type": "electric_scooter", "name": "8d10ecc3f04987ae5683216b3352451d", "is_disabled": 0, "rental_uris": {"ios": "https://dc.lft.to/lastmile_qr_scan", "android": "https://dc.lft.to/lastmile_qr_scan"}, "is_reserved": 0}, {"lon": -77.00465233333334, "bike_id": "7281eb0f1334835bc24c7c4ea50ea616", "lat": 38.877429666666664, "fusion_lon": 0.0, "fusion_lat": 0.0, "type": "electric_scooter", "name": "7281eb0f1334835bc24c7c4ea50ea616", "is_disabled": 0, "rental_uris": {"ios": "https://dc.lft.to/lastmile_qr_scan", "android": "https://dc.lft.to/lastmile_qr_scan"}, "is_reserved": 0}, {"lon": -77.00930183333334, "bike_id": "cece6f6f788c397276fe1f288a55b621", "lat": 38.918109666666666, "fusion_lon": 0.0, "fusion_lat": 0.0, "type": "electric_scooter", "name": "cece6f6f788c397276fe1f288a55b621", "is_disabled": 0, "rental_uris": {"ios": "https://dc.lft.to/lastmile_qr_scan", "android": "https://dc.lft.to/lastmile_qr_scan"}, "is_reserved": 0}, {"lon": -77.02927233333334, "bike_id": "5d8cfc63db22342ce0f99d431f49de1e", "lat": 38.900020166666664, "fusion_lon": 0.0, "fusion_lat": 0.0, "type": "electric_scooter", "name": "5d8cfc63db22342ce0f99d431f49de1e", "is_disabled": 0, "rental_uris": {"ios": "https://dc.lft.to/lastmile_qr_scan", "android": "https://dc.lft.to/lastmile_qr_scan"}, "is_reserved": 0}, {"lon": -77.023066, "bike_id": "e96ca77a112bfbe61d26349f4c40c13a", "lat": 38.92705933333333, "fusion_lon": 0.0, "fusion_lat": 0.0, "type": "electric_scooter", "name": "e96ca77a112bfbe61d26349f4c40c13a", "is_disabled": 0, "rental_uris": {"ios": "https://dc.lft.to/lastmile_qr_scan", "android": "https://dc.lft.to/lastmile_qr_scan"}, "is_reserved": 0}, {"lon": -77.0439835, "bike_id": "6e15b84eac9ec5e1db8d931df67d478d", "lat": 38.9227905, "fusion_lon": 0.0, "fusion_lat": 0.0, "type": "electric_scooter", "name": "6e15b84eac9ec5e1db8d931df67d478d", "is_disabled": 0, "rental_uris": {"ios": "https://dc.lft.to/lastmile_qr_scan", "android": "https://dc.lft.to/lastmile_qr_scan"}, "is_reserved": 0}, {"lon": -77.0779455, "bike_id": "208183c436d070bb7af77699651f72ea", "lat": 38.996037333333334, "fusion_lon": 0.0, "fusion_lat": 0.0, "type": "electric_bike", "name": "208183c436d070bb7af77699651f72ea", "is_disabled": 0, "rental_uris": {"ios": "https://dc.lft.to/lastmile_qr_scan", "android": "https://dc.lft.to/lastmile_qr_scan"}, "is_reserved": 0}, {"lon": -76.99541233333333, "bike_id": "56f0d65aef601e446e27a8f95f8f5eb6", "lat": 38.8622005, "fusion_lon": 0.0, "fusion_lat": 0.0, "type": "electric_scooter", "name": "56f0d65aef601e446e27a8f95f8f5eb6", "is_disabled": 0, "rental_uris": {"ios": "https://dc.lft.to/lastmile_qr_scan", "android": "https://dc.lft.to/lastmile_qr_scan"}, "is_reserved": 0}, {"lon": -77.0686815, "bike_id": "57d7ebb48344520f043252f58dd6aacc", "lat": 38.91706666666666, "fusion_lon": 0.0, "fusion_lat": 0.0, "type": "electric_scooter", "name": "57d7ebb48344520f043252f58dd6aacc", "is_disabled": 0, "rental_uris": {"ios": "https://dc.lft.to/lastmile_qr_scan", "android": "https://dc.lft.to/lastmile_qr_scan"}, "is_reserved": 0}, {"lon": -77.02587366666667, "bike_id": "ee813e282fc100224f1f91a8d0c74991", "lat": 38.92035033333333, "fusion_lon": 0.0, "fusion_lat": 0.0, "type": "electric_scooter", "name": "ee813e282fc100224f1f91a8d0c74991", "is_disabled": 0, "rental_uris": {"ios": "https://dc.lft.to/lastmile_qr_scan", "android": "https://dc.lft.to/lastmile_qr_scan"}, "is_reserved": 0}, {"lon": -77.024372, "bike_id": "37a1509586a2a57a8934b803853d5efe", "lat": 38.914116166666666, "fusion_lon": 0.0, "fusion_lat": 0.0, "type": "electric_scooter", "name": "37a1509586a2a57a8934b803853d5efe", "is_disabled": 0, "rental_uris": {"ios": "https://dc.lft.to/lastmile_qr_scan", "android": "https://dc.lft.to/lastmile_qr_scan"}, "is_reserved": 0}, {"lon": -77.04612316666666, "bike_id": "93d6e91d6cba67311edfba7203099857", "lat": 38.91600833333333, "fusion_lon": 0.0, "fusion_lat": 0.0, "type": "electric_scooter", "name": "93d6e91d6cba67311edfba7203099857", "is_disabled": 0, "rental_uris": {"ios": "https://dc.lft.to/lastmile_qr_scan", "android": "https://dc.lft.to/lastmile_qr_scan"}, "is_reserved": 0}, {"lon": -77.0325885, "bike_id": "880f9a8996536379234047ee69e77007", "lat": 38.93972683333333, "fusion_lon": 0.0, "fusion_lat": 0.0, "type": "electric_scooter", "name": "880f9a8996536379234047ee69e77007", "is_disabled": 0, "rental_uris": {"ios": "https://dc.lft.to/lastmile_qr_scan", "android": "https://dc.lft.to/lastmile_qr_scan"}, "is_reserved": 0}, {"lon": -77.04202016666666, "bike_id": "4fcdab59f58cbd8432d646b778749cfa", "lat": 38.90578683333333, "fusion_lon": 0.0, "fusion_lat": 0.0, "type": "electric_scooter", "name": "4fcdab59f58cbd8432d646b778749cfa", "is_disabled": 0, "rental_uris": {"ios": "https://dc.lft.to/lastmile_qr_scan", "android": "https://dc.lft.to/lastmile_qr_scan"}, "is_reserved": 0}, {"lon": -77.02522016666667, "bike_id": "f7d39a090a6ec4e3731088f0bf688287", "lat": 38.90341983333333, "fusion_lon": 0.0, "fusion_lat": 0.0, "type": "electric_scooter", "name": "f7d39a090a6ec4e3731088f0bf688287", "is_disabled": 0, "rental_uris": {"ios": "https://dc.lft.to/lastmile_qr_scan", "android": "https://dc.lft.to/lastmile_qr_scan"}, "is_reserved": 0}, {"lon": -77.04428783333333, "bike_id": "8e17301d2f0f6718a722c7554c973d5f", "lat": 38.8983315, "fusion_lon": 0.0, "fusion_lat": 0.0, "type": "electric_scooter", "name": "8e17301d2f0f6718a722c7554c973d5f", "is_disabled": 0, "rental_uris": {"ios": "https://dc.lft.to/lastmile_qr_scan", "android": "https://dc.lft.to/lastmile_qr_scan"}, "is_reserved": 0}, {"lon": -77.04623983333333, "bike_id": "caa434a3e9f8803a893faf0b42007683", "lat": 38.923309333333336, "fusion_lon": 0.0, "fusion_lat": 0.0, "type": "electric_scooter", "name": "caa434a3e9f8803a893faf0b42007683", "is_disabled": 0, "rental_uris": {"ios": "https://dc.lft.to/lastmile_qr_scan", "android": "https://dc.lft.to/lastmile_qr_scan"}, "is_reserved": 0}, {"lon": -77.03215583333333, "bike_id": "bd0cf8e0e66e4efa7a2e3bf4c9e89b6f", "lat": 38.91404633333333, "fusion_lon": 0.0, "fusion_lat": 0.0, "type": "electric_scooter", "name": "bd0cf8e0e66e4efa7a2e3bf4c9e89b6f", "is_disabled": 0, "rental_uris": {"ios": "https://dc.lft.to/lastmile_qr_scan", "android": "https://dc.lft.to/lastmile_qr_scan"}, "is_reserved": 0}, {"lon": -77.042927, "bike_id": "403aed965b9a92fe47cdf7b7ea54ef63", "lat": 38.9166515, "fusion_lon": 0.0, "fusion_lat": 0.0, "type": "electric_scooter", "name": "403aed965b9a92fe47cdf7b7ea54ef63", "is_disabled": 0, "rental_uris": {"ios": "https://dc.lft.to/lastmile_qr_scan", "android": "https://dc.lft.to/lastmile_qr_scan"}, "is_reserved": 0}, {"lon": -77.01333633333333, "bike_id": "216c908f52ce102d4305eac5f036bce3", "lat": 38.87324133333333, "fusion_lon": 0.0, "fusion_lat": 0.0, "type": "electric_scooter", "name": "216c908f52ce102d4305eac5f036bce3", "is_disabled": 0, "rental_uris": {"ios": "https://dc.lft.to/lastmile_qr_scan", "android": "https://dc.lft.to/lastmile_qr_scan"}, "is_reserved": 0}, {"lon": -77.01514433333334, "bike_id": "f16b0e4a0e3623ba9fded47400254bed", "lat": 38.8865345, "fusion_lon": 0.0, "fusion_lat": 0.0, "type": "electric_scooter", "name": "f16b0e4a0e3623ba9fded47400254bed", "is_disabled": 0, "rental_uris": {"ios": "https://dc.lft.to/lastmile_qr_scan", "android": "https://dc.lft.to/lastmile_qr_scan"}, "is_reserved": 0}, {"lon": -77.043583, "bike_id": "9747f18cedebb2d1001841f1935c6103", "lat": 38.9057935, "fusion_lon": 0.0, "fusion_lat": 0.0, "type": "electric_scooter", "name": "9747f18cedebb2d1001841f1935c6103", "is_disabled": 0, "rental_uris": {"ios": "https://dc.lft.to/lastmile_qr_scan", "android": "https://dc.lft.to/lastmile_qr_scan"}, "is_reserved": 0}, {"lon": -77.032583, "bike_id": "f031f75a6bd75b25362239013b2adad8", "lat": 38.91196166666667, "fusion_lon": 0.0, "fusion_lat": 0.0, "type": "electric_scooter", "name": "f031f75a6bd75b25362239013b2adad8", "is_disabled": 0, "rental_uris": {"ios": "https://dc.lft.to/lastmile_qr_scan", "android": "https://dc.lft.to/lastmile_qr_scan"}, "is_reserved": 0}, {"lon": -77.01190633333333, "bike_id": "82e4ef104f2b8d239e8b3706c281e439", "lat": 38.915514, "fusion_lon": 0.0, "fusion_lat": 0.0, "type": "electric_scooter", "name": "82e4ef104f2b8d239e8b3706c281e439", "is_disabled": 0, "rental_uris": {"ios": "https://dc.lft.to/lastmile_qr_scan", "android": "https://dc.lft.to/lastmile_qr_scan"}, "is_reserved": 0}, {"lon": -77.0074105, "bike_id": "5644c685483afd457930045f709d1334", "lat": 38.90263433333333, "fusion_lon": 0.0, "fusion_lat": 0.0, "type": "electric_scooter", "name": "5644c685483afd457930045f709d1334", "is_disabled": 0, "rental_uris": {"ios": "https://dc.lft.to/lastmile_qr_scan", "android": "https://dc.lft.to/lastmile_qr_scan"}, "is_reserved": 0}, {"lon": -76.98208716666667, "bike_id": "9b7ca1eadb0557c0b91b73d3a8b93622", "lat": 38.866247, "fusion_lon": 0.0, "fusion_lat": 0.0, "type": "electric_scooter", "name": "9b7ca1eadb0557c0b91b73d3a8b93622", "is_disabled": 0, "rental_uris": {"ios": "https://dc.lft.to/lastmile_qr_scan", "android": "https://dc.lft.to/lastmile_qr_scan"}, "is_reserved": 0}, {"lon": -77.04561966666667, "bike_id": "1dbf368f911434a6606e7d6714a38ad9", "lat": 38.91829116666667, "fusion_lon": 0.0, "fusion_lat": 0.0, "type": "electric_scooter", "name": "1dbf368f911434a6606e7d6714a38ad9", "is_disabled": 0, "rental_uris": {"ios": "https://dc.lft.to/lastmile_qr_scan", "android": "https://dc.lft.to/lastmile_qr_scan"}, "is_reserved": 0}, {"lon": -77.0328065, "bike_id": "acfd2854dd3a9a087dc319d229dfb65c", "lat": 38.93207, "fusion_lon": 0.0, "fusion_lat": 0.0, "type": "electric_scooter", "name": "acfd2854dd3a9a087dc319d229dfb65c", "is_disabled": 0, "rental_uris": {"ios": "https://dc.lft.to/lastmile_qr_scan", "android": "https://dc.lft.to/lastmile_qr_scan"}, "is_reserved": 0}, {"lon": -76.92535616666666, "bike_id": "897cd57450d4f7888f4031c8aa4ab393", "lat": 38.889752, "fusion_lon": 0.0, "fusion_lat": 0.0, "type": "electric_bike", "name": "897cd57450d4f7888f4031c8aa4ab393", "is_disabled": 0, "rental_uris": {"ios": "https://dc.lft.to/lastmile_qr_scan", "android": "https://dc.lft.to/lastmile_qr_scan"}, "is_reserved": 0}, {"lon": -77.04354633333334, "bike_id": "0c4ea15b8f049a2e41c229e93b76638e", "lat": 38.921610333333334, "fusion_lon": 0.0, "fusion_lat": 0.0, "type": "electric_scooter", "name": "0c4ea15b8f049a2e41c229e93b76638e", "is_disabled": 0, "rental_uris": {"ios": "https://dc.lft.to/lastmile_qr_scan", "android": "https://dc.lft.to/lastmile_qr_scan"}, "is_reserved": 0}, {"lon": -77.058946, "bike_id": "8a23922d4aeb6c1d2cdb9b5542d67196", "lat": 38.94243383333333, "fusion_lon": 0.0, "fusion_lat": 0.0, "type": "electric_scooter", "name": "8a23922d4aeb6c1d2cdb9b5542d67196", "is_disabled": 0, "rental_uris": {"ios": "https://dc.lft.to/lastmile_qr_scan", "android": "https://dc.lft.to/lastmile_qr_scan"}, "is_reserved": 0}, {"lon": -77.01562616666666, "bike_id": "82243d3f52824e382aa71c2c520eb0b0", "lat": 38.88032233333333, "fusion_lon": 0.0, "fusion_lat": 0.0, "type": "electric_scooter", "name": "82243d3f52824e382aa71c2c520eb0b0", "is_disabled": 0, "rental_uris": {"ios": "https://dc.lft.to/lastmile_qr_scan", "android": "https://dc.lft.to/lastmile_qr_scan"}, "is_reserved": 0}, {"lon": -77.07351383333334, "bike_id": "f09d7519095d919606ecbf32ff40b371", "lat": 38.91100616666667, "fusion_lon": 0.0, "fusion_lat": 0.0, "type": "electric_scooter", "name": "f09d7519095d919606ecbf32ff40b371", "is_disabled": 0, "rental_uris": {"ios": "https://dc.lft.to/lastmile_qr_scan", "android": "https://dc.lft.to/lastmile_qr_scan"}, "is_reserved": 0}, {"lon": -77.0173455, "bike_id": "877f1c2a6482b1c99fdfca415b0735e9", "lat": 38.872760666666665, "fusion_lon": 0.0, "fusion_lat": 0.0, "type": "electric_scooter", "name": "877f1c2a6482b1c99fdfca415b0735e9", "is_disabled": 0, "rental_uris": {"ios": "https://dc.lft.to/lastmile_qr_scan", "android": "https://dc.lft.to/lastmile_qr_scan"}, "is_reserved": 0}, {"lon": -77.03253216666667, "bike_id": "8c41e2f73fb2adc1e918b7ef5075d6da", "lat": 38.9156635, "fusion_lon": 0.0, "fusion_lat": 0.0, "type": "electric_scooter", "name": "8c41e2f73fb2adc1e918b7ef5075d6da", "is_disabled": 0, "rental_uris": {"ios": "https://dc.lft.to/lastmile_qr_scan", "android": "https://dc.lft.to/lastmile_qr_scan"}, "is_reserved": 0}, {"lon": -77.00772566666667, "bike_id": "1aca432fed6b8683286f0cfca49727be", "lat": 38.8794085, "fusion_lon": 0.0, "fusion_lat": 0.0, "type": "electric_scooter", "name": "1aca432fed6b8683286f0cfca49727be", "is_disabled": 0, "rental_uris": {"ios": "https://dc.lft.to/lastmile_qr_scan", "android": "https://dc.lft.to/lastmile_qr_scan"}, "is_reserved": 0}, {"lon": -77.03137133333334, "bike_id": "67d910ef9bfc1c7b80cb46c3699f53d4", "lat": 38.915568, "fusion_lon": 0.0, "fusion_lat": 0.0, "type": "electric_scooter", "name": "67d910ef9bfc1c7b80cb46c3699f53d4", "is_disabled": 0, "rental_uris": {"ios": "https://dc.lft.to/lastmile_qr_scan", "android": "https://dc.lft.to/lastmile_qr_scan"}, "is_reserved": 0}, {"lon": -77.06049383333334, "bike_id": "a58309ec709a448f4171ada523f81fe3", "lat": 38.938248333333334, "fusion_lon": 0.0, "fusion_lat": 0.0, "type": "electric_scooter", "name": "a58309ec709a448f4171ada523f81fe3", "is_disabled": 0, "rental_uris": {"ios": "https://dc.lft.to/lastmile_qr_scan", "android": "https://dc.lft.to/lastmile_qr_scan"}, "is_reserved": 0}, {"lon": -77.0271045, "bike_id": "fd1fa4120227ee1d1467f11a896d3673", "lat": 38.90461283333333, "fusion_lon": 0.0, "fusion_lat": 0.0, "type": "electric_scooter", "name": "fd1fa4120227ee1d1467f11a896d3673", "is_disabled": 0, "rental_uris": {"ios": "https://dc.lft.to/lastmile_qr_scan", "android": "https://dc.lft.to/lastmile_qr_scan"}, "is_reserved": 0}, {"lon": -76.99844816666666, "bike_id": "f1716734bd65fcf35d70fb06db922b44", "lat": 38.90237916666667, "fusion_lon": 0.0, "fusion_lat": 0.0, "type": "electric_scooter", "name": "f1716734bd65fcf35d70fb06db922b44", "is_disabled": 0, "rental_uris": {"ios": "https://dc.lft.to/lastmile_qr_scan", "android": "https://dc.lft.to/lastmile_qr_scan"}, "is_reserved": 0}, {"lon": -76.93370233333333, "bike_id": "99b0d1b4bd1177852b284f125d272b5d", "lat": 38.899168, "fusion_lon": 0.0, "fusion_lat": 0.0, "type": "electric_scooter", "name": "99b0d1b4bd1177852b284f125d272b5d", "is_disabled": 0, "rental_uris": {"ios": "https://dc.lft.to/lastmile_qr_scan", "android": "https://dc.lft.to/lastmile_qr_scan"}, "is_reserved": 0}, {"lon": -76.9947475, "bike_id": "192676224d02cc331ae52502019758c1", "lat": 38.86218316666667, "fusion_lon": 0.0, "fusion_lat": 0.0, "type": "electric_scooter", "name": "192676224d02cc331ae52502019758c1", "is_disabled": 0, "rental_uris": {"ios": "https://dc.lft.to/lastmile_qr_scan", "android": "https://dc.lft.to/lastmile_qr_scan"}, "is_reserved": 0}, {"lon": -77.02386, "bike_id": "b24aa877873d2c60eae72fccb9405614", "lat": 38.918332666666664, "fusion_lon": 0.0, "fusion_lat": 0.0, "type": "electric_scooter", "name": "b24aa877873d2c60eae72fccb9405614", "is_disabled": 0, "rental_uris": {"ios": "https://dc.lft.to/lastmile_qr_scan", "android": "https://dc.lft.to/lastmile_qr_scan"}, "is_reserved": 0}, {"lon": -77.02193483333333, "bike_id": "c3a0e9fd41131a4677490a61825fadb2", "lat": 38.895025833333335, "fusion_lon": 0.0, "fusion_lat": 0.0, "type": "electric_scooter", "name": "c3a0e9fd41131a4677490a61825fadb2", "is_disabled": 0, "rental_uris": {"ios": "https://dc.lft.to/lastmile_qr_scan", "android": "https://dc.lft.to/lastmile_qr_scan"}, "is_reserved": 0}, {"lon": -77.04199216666666, "bike_id": "426abeebcd4085819c0b1dc3d57e7e82", "lat": 38.926238, "fusion_lon": 0.0, "fusion_lat": 0.0, "type": "electric_scooter", "name": "426abeebcd4085819c0b1dc3d57e7e82", "is_disabled": 0, "rental_uris": {"ios": "https://dc.lft.to/lastmile_qr_scan", "android": "https://dc.lft.to/lastmile_qr_scan"}, "is_reserved": 0}, {"lon": -77.03649433333334, "bike_id": "c17f9ae395ff9f76fef492671a2757d8", "lat": 38.902932166666666, "fusion_lon": 0.0, "fusion_lat": 0.0, "type": "electric_scooter", "name": "c17f9ae395ff9f76fef492671a2757d8", "is_disabled": 0, "rental_uris": {"ios": "https://dc.lft.to/lastmile_qr_scan", "android": "https://dc.lft.to/lastmile_qr_scan"}, "is_reserved": 0}, {"lon": -77.01730533333334, "bike_id": "be1c623a72e74d648e5530c0e6f57324", "lat": 38.91503133333333, "fusion_lon": 0.0, "fusion_lat": 0.0, "type": "electric_scooter", "name": "be1c623a72e74d648e5530c0e6f57324", "is_disabled": 0, "rental_uris": {"ios": "https://dc.lft.to/lastmile_qr_scan", "android": "https://dc.lft.to/lastmile_qr_scan"}, "is_reserved": 0}, {"lon": -77.03250766666666, "bike_id": "a43c75f38db8b8629f50848992159d15", "lat": 38.9291085, "fusion_lon": 0.0, "fusion_lat": 0.0, "type": "electric_scooter", "name": "a43c75f38db8b8629f50848992159d15", "is_disabled": 0, "rental_uris": {"ios": "https://dc.lft.to/lastmile_qr_scan", "android": "https://dc.lft.to/lastmile_qr_scan"}, "is_reserved": 0}, {"lon": -76.94985016666666, "bike_id": "5031f0a25479b23e41b7b915cc149f88", "lat": 38.894460333333335, "fusion_lon": 0.0, "fusion_lat": 0.0, "type": "electric_scooter", "name": "5031f0a25479b23e41b7b915cc149f88", "is_disabled": 0, "rental_uris": {"ios": "https://dc.lft.to/lastmile_qr_scan", "android": "https://dc.lft.to/lastmile_qr_scan"}, "is_reserved": 0}, {"lon": -77.02381383333334, "bike_id": "dae7bca45de54da0271c8069a1322287", "lat": 38.9095185, "fusion_lon": 0.0, "fusion_lat": 0.0, "type": "electric_scooter", "name": "dae7bca45de54da0271c8069a1322287", "is_disabled": 0, "rental_uris": {"ios": "https://dc.lft.to/lastmile_qr_scan", "android": "https://dc.lft.to/lastmile_qr_scan"}, "is_reserved": 0}, {"lon": -76.9519705, "bike_id": "f810e8e8e9b96bdf2eb9d031107bfcfe", "lat": 38.900077333333336, "fusion_lon": 0.0, "fusion_lat": 0.0, "type": "electric_scooter", "name": "f810e8e8e9b96bdf2eb9d031107bfcfe", "is_disabled": 0, "rental_uris": {"ios": "https://dc.lft.to/lastmile_qr_scan", "android": "https://dc.lft.to/lastmile_qr_scan"}, "is_reserved": 0}, {"lon": -77.02515866666667, "bike_id": "ad66bbdc28b6751a23b80659c0cf7f22", "lat": 38.91760416666666, "fusion_lon": 0.0, "fusion_lat": 0.0, "type": "electric_scooter", "name": "ad66bbdc28b6751a23b80659c0cf7f22", "is_disabled": 0, "rental_uris": {"ios": "https://dc.lft.to/lastmile_qr_scan", "android": "https://dc.lft.to/lastmile_qr_scan"}, "is_reserved": 0}, {"lon": -77.0471985, "bike_id": "d43b732866409e2697ac6f2c58742634", "lat": 38.92232383333333, "fusion_lon": 0.0, "fusion_lat": 0.0, "type": "electric_scooter", "name": "d43b732866409e2697ac6f2c58742634", "is_disabled": 0, "rental_uris": {"ios": "https://dc.lft.to/lastmile_qr_scan", "android": "https://dc.lft.to/lastmile_qr_scan"}, "is_reserved": 0}, {"lon": -76.98093066666667, "bike_id": "fd80620d05601e90c6bd421d64846df7", "lat": 38.881372999999996, "fusion_lon": 0.0, "fusion_lat": 0.0, "type": "electric_bike", "name": "fd80620d05601e90c6bd421d64846df7", "is_disabled": 0, "rental_uris": {"ios": "https://dc.lft.to/lastmile_qr_scan", "android": "https://dc.lft.to/lastmile_qr_scan"}, "is_reserved": 0}, {"lon": -76.99372466666667, "bike_id": "0ed80d9da819725630d6df48224e603f", "lat": 38.8833995, "fusion_lon": 0.0, "fusion_lat": 0.0, "type": "electric_scooter", "name": "0ed80d9da819725630d6df48224e603f", "is_disabled": 0, "rental_uris": {"ios": "https://dc.lft.to/lastmile_qr_scan", "android": "https://dc.lft.to/lastmile_qr_scan"}, "is_reserved": 0}, {"lon": -77.04103666666667, "bike_id": "712d0ac0da695747075128cc8af85706", "lat": 38.918550833333335, "fusion_lon": 0.0, "fusion_lat": 0.0, "type": "electric_scooter", "name": "712d0ac0da695747075128cc8af85706", "is_disabled": 0, "rental_uris": {"ios": "https://dc.lft.to/lastmile_qr_scan", "android": "https://dc.lft.to/lastmile_qr_scan"}, "is_reserved": 0}, {"lon": -77.05954316666667, "bike_id": "267cac8a186083be2bc0b021ea1efc89", "lat": 38.9010445, "fusion_lon": 0.0, "fusion_lat": 0.0, "type": "electric_scooter", "name": "267cac8a186083be2bc0b021ea1efc89", "is_disabled": 0, "rental_uris": {"ios": "https://dc.lft.to/lastmile_qr_scan", "android": "https://dc.lft.to/lastmile_qr_scan"}, "is_reserved": 0}, {"lon": -77.046537, "bike_id": "fc724d59d2267ee9389f04fcf26cf49b", "lat": 38.90966366666667, "fusion_lon": 0.0, "fusion_lat": 0.0, "type": "electric_scooter", "name": "fc724d59d2267ee9389f04fcf26cf49b", "is_disabled": 0, "rental_uris": {"ios": "https://dc.lft.to/lastmile_qr_scan", "android": "https://dc.lft.to/lastmile_qr_scan"}, "is_reserved": 0}, {"lon": -77.00753333333333, "bike_id": "96159def376af8fbe71afa787f99f130", "lat": 38.89730433333333, "fusion_lon": 0.0, "fusion_lat": 0.0, "type": "electric_scooter", "name": "96159def376af8fbe71afa787f99f130", "is_disabled": 0, "rental_uris": {"ios": "https://dc.lft.to/lastmile_qr_scan", "android": "https://dc.lft.to/lastmile_qr_scan"}, "is_reserved": 0}, {"lon": -77.05889116666667, "bike_id": "2000be47f64d1be388cc8cd463139363", "lat": 38.93639616666667, "fusion_lon": 0.0, "fusion_lat": 0.0, "type": "electric_scooter", "name": "2000be47f64d1be388cc8cd463139363", "is_disabled": 0, "rental_uris": {"ios": "https://dc.lft.to/lastmile_qr_scan", "android": "https://dc.lft.to/lastmile_qr_scan"}, "is_reserved": 0}, {"lon": -77.02544116666667, "bike_id": "0a91e3b81f7ee3d0895d464ab9a50b65", "lat": 38.914801833333335, "fusion_lon": 0.0, "fusion_lat": 0.0, "type": "electric_scooter", "name": "0a91e3b81f7ee3d0895d464ab9a50b65", "is_disabled": 0, "rental_uris": {"ios": "https://dc.lft.to/lastmile_qr_scan", "android": "https://dc.lft.to/lastmile_qr_scan"}, "is_reserved": 0},