{"data": {"bikes": [{"is_disabled": 0, "fusion_lat": 0.0, "lat": 38.899584, "type": "electric_bike", "lon": -77.05496566666666, "is_reserved": 0, "fusion_lon": 0.0, "bike_id": "28e787963d390a987bd254d8ed23dc2a", "name": "28e787963d390a987bd254d8ed23dc2a", "rental_uris": {"ios": "https://dc.lft.to/lastmile_qr_scan", "android": "https://dc.lft.to/lastmile_qr_scan"}}, {"is_disabled": 0, "fusion_lat": 0.0, "lat": 38.884191333333334, "type": "electric_scooter", "lon": -77.03057683333333, "is_reserved": 0, "fusion_lon": 0.0, "bike_id": "1b2824f4bcf71def5f444e2d0b670401", "name": "1b2824f4bcf71def5f444e2d0b670401", "rental_uris": {"ios": "https://dc.lft.to/lastmile_qr_scan", "android": "https://dc.lft.to/lastmile_qr_scan"}}, {"is_disabled": 0, "fusion_lat": 0.0, "lat": 38.905058, "type": "electric_scooter", "lon": -77.04326383333333, "is_reserved": 0, "fusion_lon": 0.0, "bike_id": "92955fb7fae0040dfff1e5d48b25223b", "name": "92955fb7fae0040dfff1e5d48b25223b", "rental_uris": {"ios": "https://dc.lft.to/lastmile_qr_scan", "android": "https://dc.lft.to/lastmile_qr_scan"}}, {"is_disabled": 0, "fusion_lat": 0.0, "lat": 38.9155345, "type": "electric_scooter", "lon": -77.03173116666666, "is_reserved": 0, "fusion_lon": 0.0, "bike_id": "b1179a30593cd6e2bf03ea759d85bea6", "name": "b1179a30593cd6e2bf03ea759d85bea6", "rental_uris": {"ios": "https://dc.lft.to/lastmile_qr_scan", "android": "https://dc.lft.to/lastmile_qr_scan"}}, {"is_disabled": 0, "fusion_lat": 0.0, "lat": 38.91550766666667, "type": "electric_scooter", "lon": -77.03844933333333, "is_reserved": 0, "fusion_lon": 0.0, "bike_id": "3360e1a7973ca65d6af6db361c2f1b15", "name": "3360e1a7973ca65d6af6db361c2f1b15", "rental_uris": {"ios": "https://dc.lft.to/lastmile_qr_scan", "android": "https://dc.lft.to/lastmile_qr_scan"}}, {"is_disabled": 0, "fusion_lat": 0.0, "lat": 39.08859116666667, "type": "electric_bike", "lon": -77.17841816666666, "is_reserved": 0, "fusion_lon": 0.0, "bike_id": "3b141bd8be6db2fb58dc7bee73426f27", "name": "3b141bd8be6db2fb58dc7bee73426f27", "rental_uris": {"ios": "https://dc.lft.to/lastmile_qr_scan", "android": "https://dc.lft.to/lastmile_qr_scan"}}, {"is_disabled": 0, "fusion_lat": 0.0, "lat": 38.929513166666666, "type": "electric_bike", "lon": -77.044015, "is_reserved": 0, "fusion_lon": 0.0, "bike_id": "11d39fa8a62e41cf7926d61ec2e28b3c", "name": "11d39fa8a62e41cf7926d61ec2e28b3c", "rental_uris": {"ios": "https://dc.lft.to/lastmile_qr_scan", "android": "https://dc.lft.to/lastmile_qr_scan"}}, {"is_disabled": 0, "fusion_lat": 0.0, "lat": 38.911031, "type": "electric_scooter", "lon": -77.0482315, "is_reserved": 0, "fusion_lon": 0.0, "bike_id": "ad6128c72a320fca52e52aa6897b293a", "name": "ad6128c72a320fca52e52aa6897b293a", "rental_uris": {"ios": "https://dc.lft.to/lastmile_qr_scan", "android": "https://dc.lft.to/lastmile_qr_scan"}}, {"is_disabled": 0, "fusion_lat": 0.0, "lat": 38.9295525, "type": "electric_bike", "lon": -77.03774166666666, "is_reserved": 0, "fusion_lon": 0.0, "bike_id": "b72464b7361c69ad7f7745b684be2d17", "name": "b72464b7361c69ad7f7745b684be2d17", "rental_uris": {"ios": "https://dc.lft.to/lastmile_qr_scan", "android": "https://dc.lft.to/lastmile_qr_scan"}}, {"is_disabled": 0, "fusion_lat": 0.0, "lat": 38.923271166666666, "type": "electric_scooter", "lon": -77.0451935, "is_reserved": 0, "fusion_lon": 0.0, "bike_id": "3650e299adec8786c68cdcce059f7923", "name": "3650e299adec8786c68cdcce059f7923", "rental_uris": {"ios": "https://dc.lft.to/lastmile_qr_scan", "android": "https://dc.lft.to/lastmile_qr_scan"}}, {"is_disabled": 0, "fusion_lat": 0.0, "lat": 38.94058916666667, "type": "electric_bike", "lon": -76.95385216666666, "is_reserved": 0, "fusion_lon": 0.0, "bike_id": "26cc2dd31e8d98b4a8f084b0d8dc4078", "name": "26cc2dd31e8d98b4a8f084b0d8dc4078", "rental_uris": {"ios": "https://dc.lft.to/lastmile_qr_scan", "android": "https://dc.lft.to/lastmile_qr_scan"}}, {"is_disabled": 0, "fusion_lat": 0.0, "lat": 38.9015965, "type": "electric_scooter", "lon": -76.97628016666667, "is_reserved": 0, "fusion_lon": 0.0, "bike_id": "68a43c0d778fde73f0e35d44ebf963ee", "name": "68a43c0d778fde73f0e35d44ebf963ee", "rental_uris": {"ios": "https://dc.lft.to/lastmile_qr_scan", "android": "https://dc.lft.to/lastmile_qr_scan"}}, {"is_disabled": 0, "fusion_lat": 0.0, "lat": 38.92848883333333, "type": "electric_bike", "lon": -77.020559, "is_reserved": 0, "fusion_lon": 0.0, "bike_id": "ac3b72dc32b8340b7eba22cf665195cf", "name": "ac3b72dc32b8340b7eba22cf665195cf", "rental_uris": {"ios": "https://dc.lft.to/lastmile_qr_scan", "android": "https://dc.lft.to/lastmile_qr_scan"}}, {"is_disabled": 0, "fusion_lat": 0.0, "lat": 38.919258, "type": "electric_scooter", "lon": -77.03196233333334, "is_reserved": 0, "fusion_lon": 0.0, "bike_id": "a4280f612c7d3798d98e1afae09ec38c", "name": "a4280f612c7d3798d98e1afae09ec38c", "rental_uris": {"ios": "https://dc.lft.to/lastmile_qr_scan", "android": "https://dc.lft.to/lastmile_qr_scan"}}, {"is_disabled": 0, "fusion_lat": 0.0, "lat": 38.9285935, "type": "electric_bike", "lon": -77.2222585, "is_reserved": 0, "fusion_lon": 0.0, "bike_id": "3e3432a67dcdf596a8a6d7736df8c89c", "name": "3e3432a67dcdf596a8a6d7736df8c89c", "rental_uris": {"ios": "https://dc.lft.to/lastmile_qr_scan", "android": "https://dc.lft.to/lastmile_qr_scan"}}, {"is_disabled": 0, "fusion_lat": 0.0, "lat": 38.887271, "type": "electric_scooter", "lon": -77.03215966666667, "is_reserved": 0, "fusion_lon": 0.0, "bike_id": "b47a94e0ffca49eeab029f55ed9b8dff", "name": "b47a94e0ffca49eeab029f55ed9b8dff", "rental_uris": {"ios": "https://dc.lft.to/lastmile_qr_scan", "android": "https://dc.lft.to/lastmile_qr_scan"}}, {"is_disabled": 0, "fusion_lat": 0.0, "lat": 38.983673, "type": "electric_scooter", "lon": -77.02643433333333, "is_reserved": 0, "fusion_lon": 0.0, "bike_id": "270e42b4f26ddb4c76340233fc8551f1", "name": "270e42b4f26ddb4c76340233fc8551f1", "rental_uris": {"ios": "https://dc.lft.to/lastmile_qr_scan", "android": "https://dc.lft.to/lastmile_qr_scan"}}, {"is_disabled": 0, "fusion_lat": 0.0, "lat": 38.90371966666667, "type": "electric_scooter", "lon": -77.04258883333334, "is_reserved": 0, "fusion_lon": 0.0, "bike_id": "fd10f2251cfcf70b35266226ef80d2e9", "name": "fd10f2251cfcf70b35266226ef80d2e9", "rental_uris": {"ios": "https://dc.lft.to/lastmile_qr_scan", "android": "https://dc.lft.to/lastmile_qr_scan"}}, {"is_disabled": 0, "fusion_lat": 0.0, "lat": 38.90114966666667, "type": "electric_scooter", "lon": -77.043102, "is_reserved": 0, "fusion_lon": 0.0, "bike_id": "d34d5a3a09635769a36dc538729ad32a", "name": "d34d5a3a09635769a36dc538729ad32a", "rental_uris": {"ios": "https://dc.lft.to/lastmile_qr_scan", "android": "https://dc.lft.to/lastmile_qr_scan"}}, {"is_disabled": 0, "fusion_lat": 0.0, "lat": 38.8983445, "type": "electric_scooter", "lon": -77.05025683333334, "is_reserved": 0, "fusion_lon": 0.0, "bike_id": "ab3f57e857ac678f08426f912ccebde0", "name": "ab3f57e857ac678f08426f912ccebde0", "rental_uris": {"ios": "https://dc.lft.to/lastmile_qr_scan", "android": "https://dc.lft.to/lastmile_qr_scan"}}, {"is_disabled": 0, "fusion_lat": 0.0, "lat": 38.90221833333333, "type": "electric_bike", "lon": -76.95054283333333, "is_reserved": 0, "fusion_lon": 0.0, "bike_id": "a3012f3a7e3dcb20af8d1f355952dade", "name": "a3012f3a7e3dcb20af8d1f355952dade", "rental_uris": {"ios": "https://dc.lft.to/lastmile_qr_scan", "android": "https://dc.lft.to/lastmile_qr_scan"}}, {"is_disabled": 0, "fusion_lat": 0.0, "lat": 38.932477166666665, "type": "electric_scooter", "lon": -77.03287116666667, "is_reserved": 0, "fusion_lon": 0.0, "bike_id": "0aab8d2f9b8a3627d708ca05b139204d", "name": "0aab8d2f9b8a3627d708ca05b139204d", "rental_uris": {"ios": "https://dc.lft.to/lastmile_qr_scan", "android": "https://dc.lft.to/lastmile_qr_scan"}}, {"is_disabled": 0, "fusion_lat": 0.0, "lat": 38.911448, "type": "electric_bike", "lon": -77.04889233333333, "is_reserved": 0, "fusion_lon": 0.0, "bike_id": "8c36d8abd78af0a88bdd6f87603ca9e5", "name": "8c36d8abd78af0a88bdd6f87603ca9e5", "rental_uris": {"ios": "https://dc.lft.to/lastmile_qr_scan", "android": "https://dc.lft.to/lastmile_qr_scan"}}, {"is_disabled": 0, "fusion_lat": 0.0, "lat": 38.9220615, "type": "electric_scooter", "lon": -77.040215, "is_reserved": 0, "fusion_lon": 0.0, "bike_id": "6dca15bcc87aec1a89718b5399df9a10", "name": "6dca15bcc87aec1a89718b5399df9a10", "rental_uris": {"ios": "https://dc.lft.to/lastmile_qr_scan", "android": "https://dc.lft.to/lastmile_qr_scan"}}, {"is_disabled": 0, "fusion_lat": 0.0, "lat": 38.93139016666667, "type": "electric_scooter", "lon": -77.05622016666666, "is_reserved": 0, "fusion_lon": 0.0, "bike_id": "5e080575294eeb1d9166295cf0fc5873", "name": "5e080575294eeb1d9166295cf0fc5873", "rental_uris": {"ios": "https://dc.lft.to/lastmile_qr_scan", "android": "https://dc.lft.to/lastmile_qr_scan"}}, {"is_disabled": 0, "fusion_lat": 0.0, "lat": 38.90383966666667, "type": "electric_scooter", "lon": -77.05336833333334, "is_reserved": 0, "fusion_lon": 0.0, "bike_id": "1ba554c6d107cb4bf42c35733784f33f", "name": "1ba554c6d107cb4bf42c35733784f33f", "rental_uris": {"ios": "https://dc.lft.to/lastmile_qr_scan", "android": "https://dc.lft.to/lastmile_qr_scan"}}, {"is_disabled": 0, "fusion_lat": 0.0, "lat": 38.90336666666666, "type": "electric_scooter", "lon": -77.06579016666667, "is_reserved": 0, "fusion_lon": 0.0, "bike_id": "de8b2fc96fa3b3bcd1234ee0a62fea4f", "name": "de8b2fc96fa3b3bcd1234ee0a62fea4f", "rental_uris": {"ios": "https://dc.lft.to/lastmile_qr_scan", "android": "https://dc.lft.to/lastmile_qr_scan"}}, {"is_disabled": 0, "fusion_lat": 0.0, "lat": 38.909222666666665, "type": "electric_scooter", "lon": -76.99283, "is_reserved": 0, "fusion_lon": 0.0, "bike_id": "870b3b5cea9e5b947f8b03d8ef228b28", "name": "870b3b5cea9e5b947f8b03d8ef228b28", "rental_uris": {"ios": "https://dc.lft.to/lastmile_qr_scan", "android": "https://dc.lft.to/lastmile_qr_scan"}}, {"is_disabled": 0, "fusion_lat": 0.0, "lat": 38.9178835, "type": "electric_scooter", "lon": -77.03420833333334, "is_reserved": 0, "fusion_lon": 0.0, "bike_id": "2278e894dbd5422d3b9c9bde0951ece7", "name": "2278e894dbd5422d3b9c9bde0951ece7", "rental_uris": {"ios": "https://dc.lft.to/lastmile_qr_scan", "android": "https://dc.lft.to/lastmile_qr_scan"}}, {"is_disabled": 0, "fusion_lat": 0.0, "lat": 38.917335, "type": "electric_scooter", "lon": -77.03658233333333, "is_reserved": 0, "fusion_lon": 0.0, "bike_id": "bd73689175ce29f96792e4372a91d08d", "name": "bd73689175ce29f96792e4372a91d08d", "rental_uris": {"ios": "https://dc.lft.to/lastmile_qr_scan", "android": "https://dc.lft.to/lastmile_qr_scan"}}, {"is_disabled": 0, "fusion_lat": 0.0, "lat": 38.9173235, "type": "electric_scooter", "lon": -77.03664533333334, "is_reserved": 0, "fusion_lon": 0.0, "bike_id": "b0ebca2b3fa505b12abf0f97d484c34c", "name": "b0ebca2b3fa505b12abf0f97d484c34c", "rental_uris": {"ios": "https://dc.lft.to/lastmile_qr_scan", "android": "https://dc.lft.to/lastmile_qr_scan"}}, {"is_disabled": 0, "fusion_lat": 0.0, "lat": 38.908441, "type": "electric_scooter", "lon": -77.03296333333333, "is_reserved": 0, "fusion_lon": 0.0, "bike_id": "8d2a57048bc3a8a8e300f44c5961fa75", "name": "8d2a57048bc3a8a8e300f44c5961fa75", "rental_uris": {"ios": "https://dc.lft.to/lastmile_qr_scan", "android": "https://dc.lft.to/lastmile_qr_scan"}}, {"is_disabled": 0, "fusion_lat": 0.0, "lat": 38.845737166666666, "type": "electric_bike", "lon": -77.09622816666666, "is_reserved": 0, "fusion_lon": 0.0, "bike_id": "514fcc9a2bcdbfe1cc876dd24474f29b", "name": "514fcc9a2bcdbfe1cc876dd24474f29b", "rental_uris": {"ios": "https://dc.lft.to/lastmile_qr_scan", "android": "https://dc.lft.to/lastmile_qr_scan"}}, {"is_disabled": 0, "fusion_lat": 0.0, "lat": 38.926961, "type": "electric_scooter", "lon": -77.01494733333334, "is_reserved": 0, "fusion_lon": 0.0, "bike_id": "6b4a4902ace423d9d545751841a9b74a", "name": "6b4a4902ace423d9d545751841a9b74a", "rental_uris": {"ios": "https://dc.lft.to/lastmile_qr_scan", "android": "https://dc.lft.to/lastmile_qr_scan"}}, {"is_disabled": 0, "fusion_lat": 0.0, "lat": 38.90136, "type": "electric_scooter", "lon": -77.0419255, "is_reserved": 0, "fusion_lon": 0.0, "bike_id": "f3df71bd149d6e7fe8abb1d43a15a196", "name": "f3df71bd149d6e7fe8abb1d43a15a196", "rental_uris": {"ios": "https://dc.lft.to/lastmile_qr_scan", "android": "https://dc.lft.to/lastmile_qr_scan"}}, {"is_disabled": 0, "fusion_lat": 0.0, "lat": 38.92412483333333, "type": "electric_bike", "lon": -77.20813433333333, "is_reserved": 0, "fusion_lon": 0.0, "bike_id": "87c149cb72ff5bb67ba404ba4542a7ec", "name": "87c149cb72ff5bb67ba404ba4542a7ec", "rental_uris": {"ios": "https://dc.lft.to/lastmile_qr_scan", "android": "https://dc.lft.to/lastmile_qr_scan"}}, {"is_disabled": 0, "fusion_lat": 0.0, "lat": 38.871605, "type": "electric_scooter", "lon": -77.0135335, "is_reserved": 0, "fusion_lon": 0.0, "bike_id": "a21aefdff8853a9c9e893fa8e1488b3a", "name": "a21aefdff8853a9c9e893fa8e1488b3a", "rental_uris": {"ios": "https://dc.lft.to/lastmile_qr_scan", "android": "https://dc.lft.to/lastmile_qr_scan"}}, {"is_disabled": 0, "fusion_lat": 0.0, "lat": 38.865214333333334, "type": "electric_bike", "lon": -76.97348916666667, "is_reserved": 0, "fusion_lon": 0.0, "bike_id": "a089a80c64645bc7a2274d2ef982e0c2", "name": "a089a80c64645bc7a2274d2ef982e0c2", "rental_uris": {"ios": "https://dc.lft.to/lastmile_qr_scan", "android": "https://dc.lft.to/lastmile_qr_scan"}}, {"is_disabled": 0, "fusion_lat": 0.0, "lat": 38.93945183333334, "type": "electric_scooter", "lon": -77.06109533333333, "is_reserved": 0, "fusion_lon": 0.0, "bike_id": "05b7f74b7082c2cf8c6b774021749417", "name": "05b7f74b7082c2cf8c6b774021749417", "rental_uris": {"ios": "https://dc.lft.to/lastmile_qr_scan", "android": "https://dc.lft.to/lastmile_qr_scan"}}, {"is_disabled": 0, "fusion_lat": 0.0, "lat": 38.90059683333333, "type": "electric_scooter", "lon": -77.05074083333334, "is_reserved": 0, "fusion_lon": 0.0, "bike_id": "820c8c70ec6cad3568b995f613d6724f", "name": "820c8c70ec6cad3568b995f613d6724f", "rental_uris": {"ios": "https://dc.lft.to/lastmile_qr_scan", "android": "https://dc.lft.to/lastmile_qr_scan"}}, {"is_disabled": 0, "fusion_lat": 0.0, "lat": 38.9081485, "type": "electric_scooter", "lon": -77.04333083333333, "is_reserved": 0, "fusion_lon": 0.0, "bike_id": "eae23616de6c460fc6fe137385175bc7", "name": "eae23616de6c460fc6fe137385175bc7", "rental_uris": {"ios": "https://dc.lft.to/lastmile_qr_scan", "android": "https://dc.lft.to/lastmile_qr_scan"}}, {"is_disabled": 0, "fusion_lat": 0.0, "lat": 38.8922435, "type": "electric_scooter", "lon": -77.0487005, "is_reserved": 0, "fusion_lon": 0.0, "bike_id": "1479f8b94bcb300ecef17b36901c23be", "name": "1479f8b94bcb300ecef17b36901c23be", "rental_uris": {"ios": "https://dc.lft.to/lastmile_qr_scan", "android": "https://dc.lft.to/lastmile_qr_scan"}}, {"is_disabled": 0, "fusion_lat": 0.0, "lat": 38.861835166666665, "type": "electric_scooter", "lon": -76.99430183333334, "is_reserved": 0, "fusion_lon": 0.0, "bike_id": "aad058191f2ac7ee7869f232b60a709d", "name": "aad058191f2ac7ee7869f232b60a709d", "rental_uris": {"ios": "https://dc.lft.to/lastmile_qr_scan", "android": "https://dc.lft.to/lastmile_qr_scan"}}, {"is_disabled": 0, "fusion_lat": 0.0, "lat": 38.8652475, "type": "electric_scooter", "lon": -76.990446, "is_reserved": 0, "fusion_lon": 0.0, "bike_id": "91ca740826c0b54f4fdd5810eaac6982", "name": "91ca740826c0b54f4fdd5810eaac6982", "rental_uris": {"ios": "https://dc.lft.to/lastmile_qr_scan", "android": "https://dc.lft.to/lastmile_qr_scan"}}, {"is_disabled": 0, "fusion_lat": 0.0, "lat": 38.907298, "type": "electric_scooter", "lon": -77.02314433333333, "is_reserved": 0, "fusion_lon": 0.0, "bike_id": "1c4609b1d63d177feef15beb270f7a84", "name": "1c4609b1d63d177feef15beb270f7a84", "rental_uris": {"ios": "https://dc.lft.to/lastmile_qr_scan", "android": "https://dc.lft.to/lastmile_qr_scan"}}, {"is_disabled": 0, "fusion_lat": 0.0, "lat": 38.903713, "type": "electric_scooter", "lon": -77.02638466666667, "is_reserved": 0, "fusion_lon": 0.0, "bike_id": "d7613848f4da6b53f7e97b670da130b0", "name": "d7613848f4da6b53f7e97b670da130b0", "rental_uris": {"ios": "https://dc.lft.to/lastmile_qr_scan", "android": "https://dc.lft.to/lastmile_qr_scan"}}, {"is_disabled": 0, "fusion_lat": 0.0, "lat": 38.9386975, "type": "electric_bike", "lon": -77.02620583333334, "is_reserved": 0, "fusion_lon": 0.0, "bike_id": "a391c8c6955315b0a5e20338dc03ceb6", "name": "a391c8c6955315b0a5e20338dc03ceb6", "rental_uris": {"ios": "https://dc.lft.to/lastmile_qr_scan", "android": "https://dc.lft.to/lastmile_qr_scan"}}, {"is_disabled": 0, "fusion_lat": 0.0, "lat": 38.8928105, "type": "electric_scooter", "lon": -77.02594416666666, "is_reserved": 0, "fusion_lon": 0.0, "bike_id": "96ebd22ae1b1f5e1394390d332916d92", "name": "96ebd22ae1b1f5e1394390d332916d92", "rental_uris": {"ios": "https://dc.lft.to/lastmile_qr_scan", "android": "https://dc.lft.to/lastmile_qr_scan"}}, {"is_disabled": 0, "fusion_lat": 0.0, "lat": 38.91760083333333, "type": "electric_scooter", "lon": -77.03184933333333, "is_reserved": 0, "fusion_lon": 0.0, "bike_id": "4f5cbc924b43228d7b79f3d2a1fba079", "name": "4f5cbc924b43228d7b79f3d2a1fba079", "rental_uris": {"ios": "https://dc.lft.to/lastmile_qr_scan", "android": "https://dc.lft.to/lastmile_qr_scan"}}, {"is_disabled": 0, "fusion_lat": 0.0, "lat": 38.918383, "type": "electric_scooter", "lon": -77.03198966666666, "is_reserved": 0, "fusion_lon": 0.0, "bike_id": "e3e3a8f9d221ce3262ec41795fa190ce", "name": "e3e3a8f9d221ce3262ec41795fa190ce", "rental_uris": {"ios": "https://dc.lft.to/lastmile_qr_scan", "android": "https://dc.lft.to/lastmile_qr_scan"}}, {"is_disabled": 0, "fusion_lat": 0.0, "lat": 38.90250183333333, "type": "electric_scooter", "lon": -77.01745483333333, "is_reserved": 0, "fusion_lon": 0.0, "bike_id": "f2aa2de8a34f007a22f91c396f2a38e6", "name": "f2aa2de8a34f007a22f91c396f2a38e6", "rental_uris": {"ios": "https://dc.lft.to/lastmile_qr_scan", "android": "https://dc.lft.to/lastmile_qr_scan"}}, {"is_disabled": 0, "fusion_lat": 0.0, "lat": 38.92770616666667, "type": "electric_scooter", "lon": -77.02707566666666, "is_reserved": 0, "fusion_lon": 0.0, "bike_id": "3989217f57f8b2388201b1ca135893f7", "name": "3989217f57f8b2388201b1ca135893f7", "rental_uris": {"ios": "https://dc.lft.to/lastmile_qr_scan", "android": "https://dc.lft.to/lastmile_qr_scan"}}, {"is_disabled": 0, "fusion_lat": 0.0, "lat": 38.90040966666667, "type": "electric_scooter", "lon": -76.99753016666666, "is_reserved": 0, "fusion_lon": 0.0, "bike_id": "9c2d4f588ebe365b0bb8876c86c993ce", "name": "9c2d4f588ebe365b0bb8876c86c993ce", "rental_uris": {"ios": "https://dc.lft.to/lastmile_qr_scan", "android": "https://dc.lft.to/lastmile_qr_scan"}}, {"is_disabled": 0, "fusion_lat": 0.0, "lat": 38.83685416666667, "type": "electric_scooter", "lon": -77.00593633333334, "is_reserved": 0, "fusion_lon": 0.0, "bike_id": "02111d28a218ad04ad2951aea6fbe3ef", "name": "02111d28a218ad04ad2951aea6fbe3ef", "rental_uris": {"ios": "https://dc.lft.to/lastmile_qr_scan", "android": "https://dc.lft.to/lastmile_qr_scan"}}, {"is_disabled": 0, "fusion_lat": 0.0, "lat": 38.93624066666667, "type": "electric_scooter", "lon": -77.08182183333334, "is_reserved": 0, "fusion_lon": 0.0, "bike_id": "4cc8227bff80c99db031d23e537bec16", "name": "4cc8227bff80c99db031d23e537bec16", "rental_uris": {"ios": "https://dc.lft.to/lastmile_qr_scan", "android": "https://dc.lft.to/lastmile_qr_scan"}}, {"is_disabled": 0, "fusion_lat": 0.0, "lat": 38.93855383333333, "type": "electric_scooter", "lon": -77.03393733333333, "is_reserved": 0, "fusion_lon": 0.0, "bike_id": "7aa4f8fabe23116e6e2cf0ead5f75422", "name": "7aa4f8fabe23116e6e2cf0ead5f75422", "rental_uris": {"ios": "https://dc.lft.to/lastmile_qr_scan", "android": "https://dc.lft.to/lastmile_qr_scan"}}, {"is_disabled": 0, "fusion_lat": 0.0, "lat": 38.923613333333336, "type": "electric_scooter", "lon": -77.0509105, "is_reserved": 0, "fusion_lon": 0.0, "bike_id": "a756fe22bd976c92712f9742e1671d40", "name": "a756fe22bd976c92712f9742e1671d40", "rental_uris": {"ios": "https://dc.lft.to/lastmile_qr_scan", "android": "https://dc.lft.to/lastmile_qr_scan"}}, {"is_disabled": 0, "fusion_lat": 0.0, "lat": 38.934993666666664, "type": "electric_scooter", "lon": -77.058052, "is_reserved": 0, "fusion_lon": 0.0, "bike_id": "7796857398f032c9f456bf60a912a7d0", "name": "7796857398f032c9f456bf60a912a7d0", "rental_uris": {"ios": "https://dc.lft.to/lastmile_qr_scan", "android": "https://dc.lft.to/lastmile_qr_scan"}}, {"is_disabled": 0, "fusion_lat": 0.0, "lat": 38.936758833333336, "type": "electric_bike", "lon": -76.9522435, "is_reserved": 0, "fusion_lon": 0.0, "bike_id": "45b15164c6979b08b4e768e27b6ececc", "name": "45b15164c6979b08b4e768e27b6ececc", "rental_uris": {"ios": "https://dc.lft.to/lastmile_qr_scan", "android": "https://dc.lft.to/lastmile_qr_scan"}}, {"is_disabled": 0, "fusion_lat": 0.0, "lat": 38.87017566666667, "type": "electric_bike", "lon": -76.9602085, "is_reserved": 0, "fusion_lon": 0.0, "bike_id": "5a3e68f274f6458d84578e588c0c55b7", "name": "5a3e68f274f6458d84578e588c0c55b7", "rental_uris": {"ios": "https://dc.lft.to/lastmile_qr_scan", "android": "https://dc.lft.to/lastmile_qr_scan"}}, {"is_disabled": 0, "fusion_lat": 0.0, "lat": 38.8803835, "type": "electric_scooter", "lon": -77.019304, "is_reserved": 0, "fusion_lon": 0.0, "bike_id": "b1ba163cc8be6b5b4089b002406ec4dc", "name": "b1ba163cc8be6b5b4089b002406ec4dc", "rental_uris": {"ios": "https://dc.lft.to/lastmile_qr_scan", "android": "https://dc.lft.to/lastmile_qr_scan"}}, {"is_disabled": 0, "fusion_lat": 0.0, "lat": 38.90503133333333, "type": "electric_scooter", "lon": -76.97924833333333, "is_reserved": 0, "fusion_lon": 0.0, "bike_id": "4f3b8d197ad5b3cfe67c9bf95558e76a", "name": "4f3b8d197ad5b3cfe67c9bf95558e76a", "rental_uris": {"ios": "https://dc.lft.to/lastmile_qr_scan", "android": "https://dc.lft.to/lastmile_qr_scan"}}, {"is_disabled": 0, "fusion_lat": 0.0, "lat": 38.937189000000004, "type": "electric_scooter", "lon": -77.03266233333333, "is_reserved": 0, "fusion_lon": 0.0, "bike_id": "8bdad7a9d26cb17fd50a38d6f359b38b", "name": "8bdad7a9d26cb17fd50a38d6f359b38b", "rental_uris": {"ios": "https://dc.lft.to/lastmile_qr_scan", "android": "https://dc.lft.to/lastmile_qr_scan"}}, {"is_disabled": 0, "fusion_lat": 0.0, "lat": 38.9213775, "type": "electric_scooter", "lon": -77.04422033333333, "is_reserved": 0, "fusion_lon": 0.0, "bike_id": "3748815387f666ea4d5a96a5cafc2505", "name": "3748815387f666ea4d5a96a5cafc2505", "rental_uris": {"ios": "https://dc.lft.to/lastmile_qr_scan", "android": "https://dc.lft.to/lastmile_qr_scan"}}, {"is_disabled": 0, "fusion_lat": 0.0, "lat": 38.863478, "type": "electric_scooter", "lon": -76.99002183333333, "is_reserved": 0, "fusion_lon": 0.0, "bike_id": "7551f5e8d607ae2fc56716935f50f256", "name": "7551f5e8d607ae2fc56716935f50f256", "rental_uris": {"ios": "https://dc.lft.to/lastmile_qr_scan", "android": "https://dc.lft.to/lastmile_qr_scan"}}, {"is_disabled": 0, "fusion_lat": 0.0, "lat": 38.89809283333334, "type": "electric_scooter", "lon": -77.03291316666666, "is_reserved": 0, "fusion_lon": 0.0, "bike_id": "ba1b9e02c5458bbcaaf67c4b79c7b062", "name": "ba1b9e02c5458bbcaaf67c4b79c7b062", "rental_uris": {"ios": "https://dc.lft.to/lastmile_qr_scan", "android": "https://dc.lft.to/lastmile_qr_scan"}}, {"is_disabled": 0, "fusion_lat": 0.0, "lat": 38.92792633333333, "type": "electric_scooter", "lon": -77.02722033333333, "is_reserved": 0, "fusion_lon": 0.0, "bike_id": "576d737a12ad7f9a9b926155ac6c25cf", "name": "576d737a12ad7f9a9b926155ac6c25cf", "rental_uris": {"ios": "https://dc.lft.to/lastmile_qr_scan", "android": "https://dc.lft.to/lastmile_qr_scan"}}, {"is_disabled": 0, "fusion_lat": 0.0, "lat": 38.90606366666667, "type": "electric_scooter", "lon": -77.01319783333334, "is_reserved": 0, "fusion_lon": 0.0, "bike_id": "4a2141d61a76e45bbb2bb360d1f1acb6", "name": "4a2141d61a76e45bbb2bb360d1f1acb6", "rental_uris": {"ios": "https://dc.lft.to/lastmile_qr_scan", "android": "https://dc.lft.to/lastmile_qr_scan"}}, {"is_disabled": 0, "fusion_lat": 0.0, "lat": 38.924970333333334, "type": "electric_scooter", "lon": -77.057601, "is_reserved": 0, "fusion_lon": 0.0, "bike_id": "dc6fd3a3b0fb90d8d16665bcaffc684a", "name": "dc6fd3a3b0fb90d8d16665bcaffc684a", "rental_uris": {"ios": "https://dc.lft.to/lastmile_qr_scan", "android": "https://dc.lft.to/lastmile_qr_scan"}}, {"is_disabled": 0, "fusion_lat": 0.0, "lat": 38.90725233333333, "type": "electric_scooter", "lon": -77.02503416666667, "is_reserved": 0, "fusion_lon": 0.0, "bike_id": "7e6d8b0bdf413b2b8e41f5e7d8dfbc8c", "name": "7e6d8b0bdf413b2b8e41f5e7d8dfbc8c", "rental_uris": {"ios": "https://dc.lft.to/lastmile_qr_scan", "android": "https://dc.lft.to/lastmile_qr_scan"}}, {"is_disabled": 0, "fusion_lat": 0.0, "lat": 38.903284, "type": "electric_scooter", "lon": -77.06596433333333, "is_reserved": 0, "fusion_lon": 0.0, "bike_id": "808a580e5a24813cd24d2b287c0ff90f", "name": "808a580e5a24813cd24d2b287c0ff90f", "rental_uris": {"ios": "https://dc.lft.to/lastmile_qr_scan", "android": "https://dc.lft.to/lastmile_qr_scan"}}, {"is_disabled": 0, "fusion_lat": 0.0, "lat": 38.89919866666666, "type": "electric_scooter", "lon": -76.93380616666667, "is_reserved": 0, "fusion_lon": 0.0, "bike_id": "f96fe92616d88e0dde72ed39798bc8ba", "name": "f96fe92616d88e0dde72ed39798bc8ba", "rental_uris": {"ios": "https://dc.lft.to/lastmile_qr_scan", "android": "https://dc.lft.to/lastmile_qr_scan"}}, {"is_disabled": 0, "fusion_lat": 0.0, "lat": 38.842962, "type": "electric_scooter", "lon": -76.999486, "is_reserved": 0, "fusion_lon": 0.0, "bike_id": "da66fb6f562d5c13161ef29fb6122f97", "name": "da66fb6f562d5c13161ef29fb6122f97", "rental_uris": {"ios": "https://dc.lft.to/lastmile_qr_scan", "android": "https://dc.lft.to/lastmile_qr_scan"}}, {"is_disabled": 0, "fusion_lat": 0.0, "lat": 38.955592, "type": "electric_bike", "lon": -76.93542083333334, "is_reserved": 0, "fusion_lon": 0.0, "bike_id": "048efabdcc0382f2a9f713cee357b87f", "name": "048efabdcc0382f2a9f713cee357b87f", "rental_uris": {"ios": "https://dc.lft.to/lastmile_qr_scan", "android": "https://dc.lft.to/lastmile_qr_scan"}}, {"is_disabled": 0, "fusion_lat": 0.0, "lat": 38.89368983333333, "type": "electric_scooter", "lon": -76.94963433333334, "is_reserved": 0, "fusion_lon": 0.0, "bike_id": "d7f37979c02867209bec23fdb7f2ba5f", "name": "d7f37979c02867209bec23fdb7f2ba5f", "rental_uris": {"ios": "https://dc.lft.to/lastmile_qr_scan", "android": "https://dc.lft.to/lastmile_qr_scan"}}, {"is_disabled": 0, "fusion_lat": 0.0, "lat": 38.92705383333333, "type": "electric_scooter", "lon": -77.020806, "is_reserved": 0, "fusion_lon": 0.0, "bike_id": "8104a14afb27d5ca9a11acc6ec47cc88", "name": "8104a14afb27d5ca9a11acc6ec47cc88", "rental_uris": {"ios": "https://dc.lft.to/lastmile_qr_scan", "android": "https://dc.lft.to/lastmile_qr_scan"}}, {"is_disabled": 0, "fusion_lat": 0.0, "lat": 38.90961016666667, "type": "electric_scooter", "lon": -77.04052016666667, "is_reserved": 0, "fusion_lon": 0.0, "bike_id": "b4bea74122bd57c0b439f1accf291494", "name": "b4bea74122bd57c0b439f1accf291494", "rental_uris": {"ios": "https://dc.lft.to/lastmile_qr_scan", "android": "https://dc.lft.to/lastmile_qr_scan"}}, {"is_disabled": 0, "fusion_lat": 0.0, "lat": 38.933096666666664, "type": "electric_scooter", "lon": -77.03264933333334, "is_reserved": 0, "fusion_lon": 0.0, "bike_id": "cecae72d7c59b992ece819a7c5bbf962", "name": "cecae72d7c59b992ece819a7c5bbf962", "rental_uris": {"ios": "https://dc.lft.to/lastmile_qr_scan", "android": "https://dc.lft.to/lastmile_qr_scan"}}, {"is_disabled": 0, "fusion_lat": 0.0, "lat": 38.87189766666667, "type": "electric_bike", "lon": -77.0840275, "is_reserved": 0, "fusion_lon": 0.0, "bike_id": "0d18672f3c789856f2670a83dea3b3eb", "name": "0d18672f3c789856f2670a83dea3b3eb", "rental_uris": {"ios": "https://dc.lft.to/lastmile_qr_scan", "android": "https://dc.lft.to/lastmile_qr_scan"}}, {"is_disabled": 0, "fusion_lat": 0.0, "lat": 38.932498833333334, "type": "electric_scooter", "lon": -77.032847, "is_reserved": 0, "fusion_lon": 0.0, "bike_id": "417e33f815c29843c47e20bfe06816bf", "name": "417e33f815c29843c47e20bfe06816bf", "rental_uris": {"ios": "https://dc.lft.to/lastmile_qr_scan", "android": "https://dc.lft.to/lastmile_qr_scan"}}, {"is_disabled": 0, "fusion_lat": 0.0, "lat": 38.928559166666666, "type": "electric_scooter", "lon": -77.0542065, "is_reserved": 0, "fusion_lon": 0.0, "bike_id": "4ff0655bc49d8398543d19718c6d936a", "name": "4ff0655bc49d8398543d19718c6d936a", "rental_uris": {"ios": "https://dc.lft.to/lastmile_qr_scan", "android": "https://dc.lft.to/lastmile_qr_scan"}}, {"is_disabled": 0, "fusion_lat": 0.0, "lat": 38.932881333333334, "type": "electric_scooter", "lon": -77.03977383333333, "is_reserved": 0, "fusion_lon": 0.0, "bike_id": "fe17dbf55014e248ea0fb8b08d3e67a5", "name": "fe17dbf55014e248ea0fb8b08d3e67a5", "rental_uris": {"ios": "https://dc.lft.to/lastmile_qr_scan", "android": "https://dc.lft.to/lastmile_qr_scan"}}, {"is_disabled": 0, "fusion_lat": 0.0, "lat": 38.8962425, "type": "electric_scooter", "lon": -76.9985385, "is_reserved": 0, "fusion_lon": 0.0, "bike_id": "ded0182becbce44cee513c1e79199ad2", "name": "ded0182becbce44cee513c1e79199ad2", "rental_uris": {"ios": "https://dc.lft.to/lastmile_qr_scan", "android": "https://dc.lft.to/lastmile_qr_scan"}}, {"is_disabled": 0, "fusion_lat": 0.0, "lat": 38.91112533333333, "type": "electric_scooter", "lon": -77.04840066666667, "is_reserved": 0, "fusion_lon": 0.0, "bike_id": "348b08fcabcf10d8924ac8c43a678f74", "name": "348b08fcabcf10d8924ac8c43a678f74", "rental_uris": {"ios": "https://dc.lft.to/lastmile_qr_scan", "android": "https://dc.lft.to/lastmile_qr_scan"}}, {"is_disabled": 0, "fusion_lat": 0.0, "lat": 38.869158, "type": "electric_bike", "lon": -77.13175916666667, "is_reserved": 0, "fusion_lon": 0.0, "bike_id": "4c5e901aca569d651bf38142d431c4a7", "name": "4c5e901aca569d651bf38142d431c4a7", "rental_uris": {"ios": "https://dc.lft.to/lastmile_qr_scan", "android": "https://dc.lft.to/lastmile_qr_scan"}}, {"is_disabled": 0, "fusion_lat": 0.0, "lat": 38.898253, "type": "electric_scooter", "lon": -77.033216, "is_reserved": 0, "fusion_lon": 0.0, "bike_id": "b3f43ab291e18a3e05b0d3c605b66ab7", "name": "b3f43ab291e18a3e05b0d3c605b66ab7", "rental_uris": {"ios": "https://dc.lft.to/lastmile_qr_scan", "android": "https://dc.lft.to/lastmile_qr_scan"}}, {"is_disabled": 0, "fusion_lat": 0.0, "lat": 38.90573366666667, "type": "electric_scooter", "lon": -77.03068366666666, "is_reserved": 0, "fusion_lon": 0.0, "bike_id": "cc06ba449df49d4fe67ca1b1d0fcd4d4", "name": "cc06ba449df49d4fe67ca1b1d0fcd4d4", "rental_uris": {"ios": "https://dc.lft.to/lastmile_qr_scan", "android": "https://dc.lft.to/lastmile_qr_scan"}}, {"is_disabled": 0, "fusion_lat": 0.0, "lat": 38.929075833333336, "type": "electric_scooter", "lon": -77.03187966666667, "is_reserved": 0, "fusion_lon": 0.0, "bike_id": "ce935bb1b1b1f289e594b39050d9b34a", "name": "ce935bb1b1b1f289e594b39050d9b34a", "rental_uris": {"ios": "https://dc.lft.to/lastmile_qr_scan", "android": "https://dc.lft.to/lastmile_qr_scan"}}, {"is_disabled": 0, "fusion_lat": 0.0, "lat": 38.892239833333335, "type": "electric_scooter", "lon": -77.04643033333333, "is_reserved": 0, "fusion_lon": 0.0, "bike_id": "f73b6c0503d00d3b0f2fc0cb32e1aa42", "name": "f73b6c0503d00d3b0f2fc0cb32e1aa42", "rental_uris": {"ios": "https://dc.lft.to/lastmile_qr_scan", "android": "https://dc.lft.to/lastmile_qr_scan"}}, {"is_disabled": 0, "fusion_lat": 0.0, "lat": 38.819976, "type": "electric_bike", "lon": -76.998106, "is_reserved": 0, "fusion_lon": 0.0, "bike_id": "387d687b578cd736b49bddc3671b6870", "name": "387d687b578cd736b49bddc3671b6870", "rental_uris": {"ios": "https://dc.lft.to/lastmile_qr_scan", "android": "https://dc.lft.to/lastmile_qr_scan"}}, {"is_disabled": 0, "fusion_lat": 0.0, "lat": 38.941482, "type": "electric_scooter", "lon": -77.02979316666666, "is_reserved": 0, "fusion_lon": 0.0, "bike_id": "8b413830b2da9182691dbb8b1f991eaa", "name": "8b413830b2da9182691dbb8b1f991eaa", "rental_uris": {"ios": "https://dc.lft.to/lastmile_qr_scan", "android": "https://dc.lft.to/lastmile_qr_scan"}}, {"is_disabled": 0, "fusion_lat": 0.0, "lat": 38.927710833333336, "type": "electric_scooter", "lon": -77.0270945, "is_reserved": 0, "fusion_lon": 0.0, "bike_id": "130e6a936cd8bef4cd5d2d08911d6995", "name": "130e6a936cd8bef4cd5d2d08911d6995", "rental_uris": {"ios": "https://dc.lft.to/lastmile_qr_scan", "android": "https://dc.lft.to/lastmile_qr_scan"}}, {"is_disabled": 0, "fusion_lat": 0.0, "lat": 38.93250883333333, "type": "electric_scooter", "lon": -77.03108533333334, "is_reserved": 0, "fusion_lon": 0.0, "bike_id": "dd662c0c98923271bc1d82877486fa7d", "name": "dd662c0c98923271bc1d82877486fa7d", "rental_uris": {"ios": "https://dc.lft.to/lastmile_qr_scan", "android": "https://dc.lft.to/lastmile_qr_scan"}}, {"is_disabled": 0, "fusion_lat": 0.0, "lat": 38.898843666666664, "type": "electric_scooter", "lon": -77.03307616666666, "is_reserved": 0, "fusion_lon": 0.0, "bike_id": "b2ca7595f0153dcc84c676bb79bda5ca", "name": "b2ca7595f0153dcc84c676bb79bda5ca", "rental_uris": {"ios": "https://dc.lft.to/lastmile_qr_scan", "android": "https://dc.lft.to/lastmile_qr_scan"}}, {"is_disabled": 0, "fusion_lat": 0.0, "lat": 38.892276333333335, "type": "electric_scooter", "lon": -77.04640616666667, "is_reserved": 0, "fusion_lon": 0.0, "bike_id": "e9e9679551bd67dac52eabf47a1de469", "name": "e9e9679551bd67dac52eabf47a1de469", "rental_uris": {"ios": "https://dc.lft.to/lastmile_qr_scan", "android": "https://dc.lft.to/lastmile_qr_scan"}}, {"is_disabled": 0, "fusion_lat": 0.0, "lat": 38.9141495, "type": "electric_scooter", "lon": -77.0196165, "is_reserved": 0, "fusion_lon": 0.0, "bike_id": "51510e1432d2381795fdfc5b2c630e67", "name": "51510e1432d2381795fdfc5b2c630e67", "rental_uris": {"ios": "https://dc.lft.to/lastmile_qr_scan", "android": "https://dc.lft.to/lastmile_qr_scan"}}, {"is_disabled": 0, "fusion_lat": 0.0, "lat": 38.95272766666667, "type": "electric_bike", "lon": -77.06982483333333, "is_reserved": 0, "fusion_lon": 0.0, "bike_id": "2386c88b7bdf961f2caf89e87695752e", "name": "2386c88b7bdf961f2caf89e87695752e", "rental_uris": {"ios": "https://dc.lft.to/lastmile_qr_scan", "android": "https://dc.lft.to/lastmile_qr_scan"}}, {"is_disabled": 0, "fusion_lat": 0.0, "lat": 38.857908, "type": "electric_bike", "lon": -77.09962083333333, "is_reserved": 0, "fusion_lon": 0.0, "bike_id": "56378e7089d77bac15bc0d74c7e8142c", "name": "56378e7089d77bac15bc0d74c7e8142c", "rental_uris": {"ios": "https://dc.lft.to/lastmile_qr_scan", "android": "https://dc.lft.to/lastmile_qr_scan"}}, {"is_disabled": 0, "fusion_lat": 0.0, "lat": 38.876744333333335, "type": "electric_scooter", "lon": -77.00408433333334, "is_reserved": 0, "fusion_lon": 0.0, "bike_id": "b0213eef268004bd20ca08154b6946d2", "name": "b0213eef268004bd20ca08154b6946d2", "rental_uris": {"ios": "https://dc.lft.to/lastmile_qr_scan", "android": "https://dc.lft.to/lastmile_qr_scan"}}, {"is_disabled": 0, "fusion_lat": 0.0, "lat": 38.90035683333333, "type": "electric_scooter", "lon": -76.99830833333333, "is_reserved": 0, "fusion_lon": 0.0, "bike_id": "024911f6d743ebdded5fe4424bda80e0", "name": "024911f6d743ebdded5fe4424bda80e0", "rental_uris": {"ios": "https://dc.lft.to/lastmile_qr_scan", "android": "https://dc.lft.to/lastmile_qr_scan"}}, {"is_disabled": 0, "fusion_lat": 0.0, "lat": 38.9191575, "type": "electric_scooter", "lon": -77.04626233333333, "is_reserved": 0, "fusion_lon": 0.0, "bike_id": "af2aa17cd3772eed059697c017d0d488", "name": "af2aa17cd3772eed059697c017d0d488", "rental_uris": {"ios": "https://dc.lft.to/lastmile_qr_scan", "android": "https://dc.lft.to/lastmile_qr_scan"}}, {"is_disabled": 0, "fusion_lat": 0.0, "lat": 38.917149, "type": "electric_scooter", "lon": -77.0088795, "is_reserved": 0, "fusion_lon": 0.0, "bike_id": "c4648a02741a178174a41cc2173a77db", "name": "c4648a02741a178174a41cc2173a77db", "rental_uris": {"ios": "https://dc.lft.to/lastmile_qr_scan", "android": "https://dc.lft.to/lastmile_qr_scan"}}, {"is_disabled": 0, "fusion_lat": 0.0, "lat": 38.935935, "type": "electric_scooter", "lon": -77.03511, "is_reserved": 0, "fusion_lon": 0.0, "bike_id": "318191a0e2f38e94c1511822540a8191", "name": "318191a0e2f38e94c1511822540a8191", "rental_uris": {"ios": "https://dc.lft.to/lastmile_qr_scan", "android": "https://dc.lft.to/lastmile_qr_scan"}}, {"is_disabled": 0, "fusion_lat": 0.0, "lat": 38.9391045, "type": "electric_scooter", "lon": -77.06039033333333, "is_reserved": 0, "fusion_lon": 0.0, "bike_id": "f95ff26a25cfaac6d8d23e3d3e19aad1", "name": "f95ff26a25cfaac6d8d23e3d3e19aad1", "rental_uris": {"ios": "https://dc.lft.to/lastmile_qr_scan", "android": "https://dc.lft.to/lastmile_qr_scan"}}, {"is_disabled": 0, "fusion_lat": 0.0, "lat": 38.91207433333334, "type": "electric_scooter", "lon": -77.03840316666667, "is_reserved": 0, "fusion_lon": 0.0, "bike_id": "1ee0e2231c86b375130561ecba7a695f", "name": "1ee0e2231c86b375130561ecba7a695f", "rental_uris": {"ios": "https://dc.lft.to/lastmile_qr_scan", "android": "https://dc.lft.to/lastmile_qr_scan"}}, {"is_disabled": 0, "fusion_lat": 0.0, "lat": 38.863781333333336, "type": "electric_scooter", "lon": -76.99061, "is_reserved": 0, "fusion_lon": 0.0, "bike_id": "98aa2207e91032b9ee7f29eb3168f6c5", "name": "98aa2207e91032b9ee7f29eb3168f6c5", "rental_uris": {"ios": "https://dc.lft.to/lastmile_qr_scan", "android": "https://dc.lft.to/lastmile_qr_scan"}}, {"is_disabled": 0, "fusion_lat": 0.0, "lat": 38.86524566666667, "type": "electric_scooter", "lon": -76.99032533333333, "is_reserved": 0, "fusion_lon": 0.0, "bike_id": "948f8c34109f652bf63acc7204aa6c65", "name": "948f8c34109f652bf63acc7204aa6c65", "rental_uris": {"ios": "https://dc.lft.to/lastmile_qr_scan", "android": "https://dc.lft.to/lastmile_qr_scan"}}, {"is_disabled": 0, "fusion_lat": 0.0, "lat": 38.91392333333334, "type": "electric_scooter", "lon": -76.98414966666667, "is_reserved": 0, "fusion_lon": 0.0, "bike_id": "a57f2f9165f341e516e2e49381bd6e26", "name": "a57f2f9165f341e516e2e49381bd6e26", "rental_uris": {"ios": "https://dc.lft.to/lastmile_qr_scan", "android": "https://dc.lft.to/lastmile_qr_scan"}}, {"is_disabled": 0, "fusion_lat": 0.0, "lat": 38.902030333333336, "type": "electric_scooter", "lon": -77.02369066666667, "is_reserved": 0, "fusion_lon": 0.0, "bike_id": "2ad146436c29aa8f16a9df8c966826a1", "name": "2ad146436c29aa8f16a9df8c966826a1", "rental_uris": {"ios": "https://dc.lft.to/lastmile_qr_scan", "android": "https://dc.lft.to/lastmile_qr_scan"}}, {"is_disabled": 0, "fusion_lat": 0.0, "lat": 38.9247345, "type": "electric_scooter", "lon": -77.03536416666667, "is_reserved": 0, "fusion_lon": 0.0, "bike_id": "a90e39bbfa17a61cc3188b13ae9f8263", "name": "a90e39bbfa17a61cc3188b13ae9f8263", "rental_uris": {"ios": "https://dc.lft.to/lastmile_qr_scan", "android": "https://dc.lft.to/lastmile_qr_scan"}}, {"is_disabled": 0, "fusion_lat": 0.0, "lat": 38.8893915, "type": "electric_scooter", "lon": -77.01506216666667, "is_reserved": 0, "fusion_lon": 0.0, "bike_id": "6b6e478de6266b48cfa63d6efc129784", "name": "6b6e478de6266b48cfa63d6efc129784", "rental_uris": {"ios": "https://dc.lft.to/lastmile_qr_scan", "android": "https://dc.lft.to/lastmile_qr_scan"}}, {"is_disabled": 0, "fusion_lat": 0.0, "lat": 38.917103166666664, "type": "electric_scooter", "lon": -77.00963183333333, "is_reserved": 0, "fusion_lon": 0.0, "bike_id": "01afe67fc36b8fe032d056a014604ce0", "name": "01afe67fc36b8fe032d056a014604ce0", "rental_uris": {"ios": "https://dc.lft.to/lastmile_qr_scan", "android": "https://dc.lft.to/lastmile_qr_scan"}}, {"is_disabled": 0, "fusion_lat": 0.0, "lat": 38.94595533333333, "type": "electric_scooter", "lon": -77.029835, "is_reserved": 0, "fusion_lon": 0.0, "bike_id": "c754ed4f1e3c468b033da9a00c4e9f69", "name": "c754ed4f1e3c468b033da9a00c4e9f69", "rental_uris": {"ios": "https://dc.lft.to/lastmile_qr_scan", "android": "https://dc.lft.to/lastmile_qr_scan"}}, {"is_disabled": 0, "fusion_lat": 0.0, "lat": 38.866687166666665, "type": "electric_scooter", "lon": -76.9891675, "is_reserved": 0, "fusion_lon": 0.0, "bike_id": "2feeb7d8a1054af5fb34ff3e0dec3729", "name": "2feeb7d8a1054af5fb34ff3e0dec3729", "rental_uris": {"ios": "https://dc.lft.to/lastmile_qr_scan", "android": "https://dc.lft.to/lastmile_qr_scan"}}, {"is_disabled": 0, "fusion_lat": 0.0, "lat": 38.91634283333333, "type": "electric_scooter", "lon": -77.01376216666667, "is_reserved": 0, "fusion_lon": 0.0, "bike_id": "3c68f0cb5ca8f69002d07e1c66146254", "name": "3c68f0cb5ca8f69002d07e1c66146254", "rental_uris": {"ios": "https://dc.lft.to/lastmile_qr_scan", "android": "https://dc.lft.to/lastmile_qr_scan"}}, {"is_disabled": 0, "fusion_lat": 0.0, "lat": 38.874618166666664, "type": "electric_scooter", "lon": -77.00495783333334, "is_reserved": 0, "fusion_lon": 0.0, "bike_id": "997b1ed635c5b8c3da1a70f54a176804", "name": "997b1ed635c5b8c3da1a70f54a176804", "rental_uris": {"ios": "https://dc.lft.to/lastmile_qr_scan", "android": "https://dc.lft.to/lastmile_qr_scan"}}, {"is_disabled": 0, "fusion_lat": 0.0, "lat": 38.92362466666667, "type": "electric_scooter", "lon": -77.05049366666667, "is_reserved": 0, "fusion_lon": 0.0, "bike_id": "804df7a997954851657e3e0ba5bcbd47", "name": "804df7a997954851657e3e0ba5bcbd47", "rental_uris": {"ios": "https://dc.lft.to/lastmile_qr_scan", "android": "https://dc.lft.to/lastmile_qr_scan"}}, {"is_disabled": 0, "fusion_lat": 0.0, "lat": 38.898354833333336, "type": "electric_scooter", "lon": -76.9463645, "is_reserved": 0, "fusion_lon": 0.0, "bike_id": "9a2936c8c40e4e80eb02273dbab31ce7", "name": "9a2936c8c40e4e80eb02273dbab31ce7", "rental_uris": {"ios": "https://dc.lft.to/lastmile_qr_scan", "android": "https://dc.lft.to/lastmile_qr_scan"}}, {"is_disabled": 0, "fusion_lat": 0.0, "lat": 38.8843715, "type": "electric_scooter", "lon": -76.95754416666666, "is_reserved": 0, "fusion_lon": 0.0, "bike_id": "0fa219829de6c09536c5777bafa3bd4e", "name": "0fa219829de6c09536c5777bafa3bd4e", "rental_uris": {"ios": "https://dc.lft.to/lastmile_qr_scan", "android": "https://dc.lft.to/lastmile_qr_scan"}}, {"is_disabled": 0, "fusion_lat": 0.0, "lat": 38.896335, "type": "electric_scooter", "lon": -77.03956383333333, "is_reserved": 0, "fusion_lon": 0.0, "bike_id": "1b81fd0b6c3b9f121ab63dfa14fad172", "name": "1b81fd0b6c3b9f121ab63dfa14fad172", "rental_uris": {"ios": "https://dc.lft.to/lastmile_qr_scan", "android": "https://dc.lft.to/lastmile_qr_scan"}}, {"is_disabled": 0, "fusion_lat": 0.0, "lat": 38.9147075, "type": "electric_scooter", "lon": -77.0239275, "is_reserved": 0, "fusion_lon": 0.0, "bike_id": "9e801f668440d1eb4049b8c2dcca8052", "name": "9e801f668440d1eb4049b8c2dcca8052", "rental_uris": {"ios": "https://dc.lft.to/lastmile_qr_scan", "android": "https://dc.lft.to/lastmile_qr_scan"}}, {"is_disabled": 0, "fusion_lat": 0.0, "lat": 38.92297333333333, "type": "electric_scooter", "lon": -77.02425133333334, "is_reserved": 0, "fusion_lon": 0.0, "bike_id": "7af58ae1272111ff73aeca513c4e7935", "name": "7af58ae1272111ff73aeca513c4e7935", "rental_uris": {"ios": "https://dc.lft.to/lastmile_qr_scan", "android": "https://dc.lft.to/lastmile_qr_scan"}}, {"is_disabled": 0, "fusion_lat": 0.0, "lat": 38.88973716666667, "type": "electric_scooter", "lon": -76.937363, "is_reserved": 0, "fusion_lon": 0.0, "bike_id": "340ea1a964dc2879538f8bfcd0e27425", "name": "340ea1a964dc2879538f8bfcd0e27425", "rental_uris": {"ios": "https://dc.lft.to/lastmile_qr_scan", "android": "https://dc.lft.to/lastmile_qr_scan"}}, {"is_disabled": 0, "fusion_lat": 0.0, "lat": 38.96495766666666, "type": "electric_bike", "lon": -77.06490933333333, "is_reserved": 0, "fusion_lon": 0.0, "bike_id": "1d94eb98c4c415c5a6bcf135f2430f80", "name": "1d94eb98c4c415c5a6bcf135f2430f80", "rental_uris": {"ios": "https://dc.lft.to/lastmile_qr_scan", "android": "https://dc.lft.to/lastmile_qr_scan"}}, {"is_disabled": 0, "fusion_lat": 0.0, "lat": 38.9095165, "type": "electric_scooter", "lon": -77.0466185, "is_reserved": 0, "fusion_lon": 0.0, "bike_id": "8f37d4f1f06546be531798b8f27ff805", "name": "8f37d4f1f06546be531798b8f27ff805", "rental_uris": {"ios": "https://dc.lft.to/lastmile_qr_scan", "android": "https://dc.lft.to/lastmile_qr_scan"}}, {"is_disabled": 0, "fusion_lat": 0.0, "lat": 38.90741416666667, "type": "electric_scooter", "lon": -76.99839066666667, "is_reserved": 0, "fusion_lon": 0.0, "bike_id": "c4b6c71f8b8361a6c8766d68c0f904f5", "name": "c4b6c71f8b8361a6c8766d68c0f904f5", "rental_uris": {"ios": "https://dc.lft.to/lastmile_qr_scan", "android": "https://dc.lft.to/lastmile_qr_scan"}}, {"is_disabled": 0, "fusion_lat": 0.0, "lat": 39.05634033333333, "type": "electric_bike", "lon": -77.12528316666666, "is_reserved": 0, "fusion_lon": 0.0, "bike_id": "a8e649d9bbb5d6b282b0d5a97bbc6a30", "name": "a8e649d9bbb5d6b282b0d5a97bbc6a30", "rental_uris": {"ios": "https://dc.lft.to/lastmile_qr_scan", "android": "https://dc.lft.to/lastmile_qr_scan"}}, {"is_disabled": 0, "fusion_lat": 0.0, "lat": 38.916365, "type": "electric_scooter", "lon": -77.03255733333333, "is_reserved": 0, "fusion_lon": 0.0, "bike_id": "7bf2397afee836793e0fac2a4bf73baf", "name": "7bf2397afee836793e0fac2a4bf73baf", "rental_uris": {"ios": "https://dc.lft.to/lastmile_qr_scan", "android": "https://dc.lft.to/lastmile_qr_scan"}}, {"is_disabled": 0, "fusion_lat": 0.0, "lat": 38.92372016666667, "type": "electric_scooter", "lon": -77.04134166666667, "is_reserved": 0, "fusion_lon": 0.0, "bike_id": "40be16dad460c881fe6480ed3b18e1a5", "name": "40be16dad460c881fe6480ed3b18e1a5", "rental_uris": {"ios": "https://dc.lft.to/lastmile_qr_scan", "android": "https://dc.lft.to/lastmile_qr_scan"}}, {"is_disabled": 0, "fusion_lat": 0.0, "lat": 38.90490883333333, "type": "electric_scooter", "lon": -77.0281175, "is_reserved": 0, "fusion_lon": 0.0, "bike_id": "e6c9be8ccf389caa681a11c5cc622acf", "name": "e6c9be8ccf389caa681a11c5cc622acf", "rental_uris": {"ios": "https://dc.lft.to/lastmile_qr_scan", "android": "https://dc.lft.to/lastmile_qr_scan"}}, {"is_disabled": 0, "fusion_lat": 0.0, "lat": 38.8851025, "type": "electric_scooter", "lon": -77.00571533333333, "is_reserved": 0, "fusion_lon": 0.0, "bike_id": "96e47a3ec28a6c851a9f9b807372a0a3", "name": "96e47a3ec28a6c851a9f9b807372a0a3", "rental_uris": {"ios": "https://dc.lft.to/lastmile_qr_scan", "android": "https://dc.lft.to/lastmile_qr_scan"}}, {"is_disabled": 0, "fusion_lat": 0.0, "lat": 38.8864045, "type": "electric_bike", "lon": -76.954711, "is_reserved": 0, "fusion_lon": 0.0, "bike_id": "9ca6017d174990adad7a7a35105e261e", "name": "9ca6017d174990adad7a7a35105e261e", "rental_uris": {"ios": "https://dc.lft.to/lastmile_qr_scan", "android": "https://dc.lft.to/lastmile_qr_scan"}}, {"is_disabled": 0, "fusion_lat": 0.0, "lat": 38.91707366666667, "type": "electric_scooter", "lon": -77.03193216666666, "is_reserved": 0, "fusion_lon": 0.0, "bike_id": "33ebd2ecf0b36b8747a00f48c28e38ca", "name": "33ebd2ecf0b36b8747a00f48c28e38ca", "rental_uris": {"ios": "https://dc.lft.to/lastmile_qr_scan", "android": "https://dc.lft.to/lastmile_qr_scan"}}, {"is_disabled": 0, "fusion_lat": 0.0, "lat": 38.925274333333334, "type": "electric_scooter", "lon": -77.03852083333334, "is_reserved": 0, "fusion_lon": 0.0, "bike_id": "0d97702d814b6329b3ec23a02022b3ee", "name": "0d97702d814b6329b3ec23a02022b3ee", "rental_uris": {"ios": "https://dc.lft.to/lastmile_qr_scan", "android": "https://dc.lft.to/lastmile_qr_scan"}}, {"is_disabled": 0, "fusion_lat": 0.0, "lat": 38.91401466666667, "type": "electric_scooter", "lon": -77.03924416666666, "is_reserved": 0, "fusion_lon": 0.0, "bike_id": "508b38be8ea8fe180a9dd2fb4cbf21ed", "name": "508b38be8ea8fe180a9dd2fb4cbf21ed", "rental_uris": {"ios": "https://dc.lft.to/lastmile_qr_scan", "android": "https://dc.lft.to/lastmile_qr_scan"}}, {"is_disabled": 0, "fusion_lat": 0.0, "lat": 38.918157, "type": "electric_scooter", "lon": -77.0329985, "is_reserved": 0, "fusion_lon": 0.0, "bike_id": "88a3639be04c6c7e1289d9e32b4a2675", "name": "88a3639be04c6c7e1289d9e32b4a2675", "rental_uris": {"ios": "https://dc.lft.to/lastmile_qr_scan", "android": "https://dc.lft.to/lastmile_qr_scan"}}, {"is_disabled": 0, "fusion_lat": 0.0, "lat": 38.923151833333336, "type": "electric_scooter", "lon": -77.039155, "is_reserved": 0, "fusion_lon": 0.0, "bike_id": "7824a7d0ec3f9bfc6247711e510aa3da", "name": "7824a7d0ec3f9bfc6247711e510aa3da", "rental_uris": {"ios": "https://dc.lft.to/lastmile_qr_scan", "android": "https://dc.lft.to/lastmile_qr_scan"}}, {"is_disabled": 0, "fusion_lat": 0.0, "lat": 38.892207166666665, "type": "electric_scooter", "lon": -77.04653133333333, "is_reserved": 0, "fusion_lon": 0.0, "bike_id": "d467aa3e9120e4aab0a2c24feab40e48", "name": "d467aa3e9120e4aab0a2c24feab40e48", "rental_uris": {"ios": "https://dc.lft.to/lastmile_qr_scan", "android": "https://dc.lft.to/lastmile_qr_scan"}}, {"is_disabled": 0, "fusion_lat": 0.0, "lat": 38.878426166666664, "type": "electric_scooter", "lon": -77.01965916666667, "is_reserved": 0, "fusion_lon": 0.0, "bike_id": "6ebdd0d5c4d84a5995db1690fef2a7ce", "name": "6ebdd0d5c4d84a5995db1690fef2a7ce", "rental_uris": {"ios": "https://dc.lft.to/lastmile_qr_scan", "android": "https://dc.lft.to/lastmile_qr_scan"}}, {"is_disabled": 0, "fusion_lat": 0.0, "lat": 38.91301433333334, "type": "electric_scooter", "lon": -77.01963566666667, "is_reserved": 0, "fusion_lon": 0.0, "bike_id": "410664b223380708be01c75412f25048", "name": "410664b223380708be01c75412f25048", "rental_uris": {"ios": "https://dc.lft.to/lastmile_qr_scan", "android": "https://dc.lft.to/lastmile_qr_scan"}}, {"is_disabled": 0, "fusion_lat": 0.0, "lat": 38.916981666666665, "type": "electric_scooter", "lon": -77.04597333333334, "is_reserved": 0, "fusion_lon": 0.0, "bike_id": "c088e91342592e92eb28cccc35f3c232", "name": "c088e91342592e92eb28cccc35f3c232", "rental_uris": {"ios": "https://dc.lft.to/lastmile_qr_scan", "android": "https://dc.lft.to/lastmile_qr_scan"}}, {"is_disabled": 0, "fusion_lat": 0.0, "lat": 38.939754666666666, "type": "electric_scooter", "lon": -77.02889933333333, "is_reserved": 0, "fusion_lon": 0.0, "bike_id": "d45fab07eb0c2057397b02294910874a", "name": "d45fab07eb0c2057397b02294910874a", "rental_uris": {"ios": "https://dc.lft.to/lastmile_qr_scan", "android": "https://dc.lft.to/lastmile_qr_scan"}}, {"is_disabled": 0, "fusion_lat": 0.0, "lat": 38.92485033333333, "type": "electric_scooter", "lon": -77.02632166666666, "is_reserved": 0, "fusion_lon": 0.0, "bike_id": "a6060eb2150a7249f3d9926b18d5279f", "name": "a6060eb2150a7249f3d9926b18d5279f", "rental_uris": {"ios": "https://dc.lft.to/lastmile_qr_scan", "android": "https://dc.lft.to/lastmile_qr_scan"}}, {"is_disabled": 0, "fusion_lat": 0.0, "lat": 38.85962466666667, "type": "electric_scooter", "lon": -76.99108783333334, "is_reserved": 0, "fusion_lon": 0.0, "bike_id": "ac3e8ebb2b1f15d08737d338a0296872", "name": "ac3e8ebb2b1f15d08737d338a0296872", "rental_uris": {"ios": "https://dc.lft.to/lastmile_qr_scan", "android": "https://dc.lft.to/lastmile_qr_scan"}}, {"is_disabled": 0, "fusion_lat": 0.0, "lat": 38.94452283333333, "type": "electric_scooter", "lon": -77.0635645, "is_reserved": 0, "fusion_lon": 0.0, "bike_id": "98176085dabd08a30170cc4fbd0d826f", "name": "98176085dabd08a30170cc4fbd0d826f", "rental_uris": {"ios": "https://dc.lft.to/lastmile_qr_scan", "android": "https://dc.lft.to/lastmile_qr_scan"}}, {"is_disabled": 0, "fusion_lat": 0.0, "lat": 38.90504216666667, "type": "electric_scooter", "lon": -77.0628235, "is_reserved": 0, "fusion_lon": 0.0, "bike_id": "fb6bf59ebf37c7c673395cc1fbec61ee", "name": "fb6bf59ebf37c7c673395cc1fbec61ee", "rental_uris": {"ios": "https://dc.lft.to/lastmile_qr_scan", "android": "https://dc.lft.to/lastmile_qr_scan"}}, {"is_disabled": 0, "fusion_lat": 0.0, "lat": 38.897781, "type": "electric_scooter", "lon": -76.977265, "is_reserved": 0, "fusion_lon": 0.0, "bike_id": "039f3ae27cd9bae9c41888766f8ac627", "name": "039f3ae27cd9bae9c41888766f8ac627", "rental_uris": {"ios": "https://dc.lft.to/lastmile_qr_scan", "android": "https://dc.lft.to/lastmile_qr_scan"}}, {"is_disabled": 0, "fusion_lat": 0.0, "lat": 38.917781, "type": "electric_scooter", "lon": -76.9734275, "is_reserved": 0, "fusion_lon": 0.0, "bike_id": "cdd96dc88f8eb1990280d01d388c092e", "name": "cdd96dc88f8eb1990280d01d388c092e", "rental_uris": {"ios": "https://dc.lft.to/lastmile_qr_scan", "android": "https://dc.lft.to/lastmile_qr_scan"}}, {"is_disabled": 0, "fusion_lat": 0.0, "lat": 38.887105166666665, "type": "electric_scooter", "lon": -77.00153583333334, "is_reserved": 0, "fusion_lon": 0.0, "bike_id": "0585508807665a9f03a745f55f2b331d", "name": "0585508807665a9f03a745f55f2b331d", "rental_uris": {"ios": "https://dc.lft.to/lastmile_qr_scan", "android": "https://dc.lft.to/lastmile_qr_scan"}}, {"is_disabled": 0, "fusion_lat": 0.0, "lat": 38.921825166666665, "type": "electric_scooter", "lon": -77.04234366666667, "is_reserved": 0, "fusion_lon": 0.0, "bike_id": "eb9367d9688bf28240bc1b75e0678fe9", "name": "eb9367d9688bf28240bc1b75e0678fe9", "rental_uris": {"ios": "https://dc.lft.to/lastmile_qr_scan", "android": "https://dc.lft.to/lastmile_qr_scan"}}, {"is_disabled": 0, "fusion_lat": 0.0, "lat": 38.92333766666667, "type": "electric_scooter", "lon": -77.03891883333333, "is_reserved": 0, "fusion_lon": 0.0, "bike_id": "a3c9f96be8d11b6b84faa7c258b96363", "name": "a3c9f96be8d11b6b84faa7c258b96363", "rental_uris": {"ios": "https://dc.lft.to/lastmile_qr_scan", "android": "https://dc.lft.to/lastmile_qr_scan"}}, {"is_disabled": 0, "fusion_lat": 0.0, "lat": 38.894705, "type": "electric_scooter", "lon": -76.993803, "is_reserved": 0, "fusion_lon": 0.0, "bike_id": "9f8b862db9959d8cb7e3a2a917e586e3", "name": "9f8b862db9959d8cb7e3a2a917e586e3", "rental_uris": {"ios": "https://dc.lft.to/lastmile_qr_scan", "android": "https://dc.lft.to/lastmile_qr_scan"}}, {"is_disabled": 0, "fusion_lat": 0.0, "lat": 38.92313716666666, "type": "electric_scooter", "lon": -77.02120133333334, "is_reserved": 0, "fusion_lon": 0.0, "bike_id": "b918ec07ac0b49b921e8a99180e8787f", "name": "b918ec07ac0b49b921e8a99180e8787f", "rental_uris": {"ios": "https://dc.lft.to/lastmile_qr_scan", "android": "https://dc.lft.to/lastmile_qr_scan"}}, {"is_disabled": 0, "fusion_lat": 0.0, "lat": 38.91556816666667, "type": "electric_scooter", "lon": -77.0350895, "is_reserved": 0, "fusion_lon": 0.0, "bike_id": "f45d09f4a78c7f94ad7f530112a0db6a", "name": "f45d09f4a78c7f94ad7f530112a0db6a", "rental_uris": {"ios": "https://dc.lft.to/lastmile_qr_scan", "android": "https://dc.lft.to/lastmile_qr_scan"}}, {"is_disabled": 0, "fusion_lat": 0.0, "lat": 38.91720766666667, "type": "electric_scooter", "lon": -77.028933, "is_reserved": 0, "fusion_lon": 0.0, "bike_id": "4e139f83001ff0c6e54e950caf2663f2", "name": "4e139f83001ff0c6e54e950caf2663f2", "rental_uris": {"ios": "https://dc.lft.to/lastmile_qr_scan", "android": "https://dc.lft.to/lastmile_qr_scan"}}, {"is_disabled": 0, "fusion_lat": 0.0, "lat": 39.03050016666667, "type": "electric_bike", "lon": -77.09482866666667, "is_reserved": 0, "fusion_lon": 0.0, "bike_id": "51ca25f16aa5e2fbe12e69561c3f3c87", "name": "51ca25f16aa5e2fbe12e69561c3f3c87", "rental_uris": {"ios": "https://dc.lft.to/lastmile_qr_scan", "android": "https://dc.lft.to/lastmile_qr_scan"}}, {"is_disabled": 0, "fusion_lat": 0.0, "lat": 38.907213, "type": "electric_scooter", "lon": -77.03320183333334, "is_reserved": 0, "fusion_lon": 0.0, "bike_id": "e2c170cf1256d8c7edc793b1f0c02834", "name": "e2c170cf1256d8c7edc793b1f0c02834", "rental_uris": {"ios": "https://dc.lft.to/lastmile_qr_scan", "android": "https://dc.lft.to/lastmile_qr_scan"}}, {"is_disabled": 0, "fusion_lat": 0.0, "lat": 38.8924985, "type": "electric_bike", "lon": -76.9854125, "is_reserved": 0, "fusion_lon": 0.0, "bike_id": "94a2057f2e9f584fe1899fc219464b79", "name": "94a2057f2e9f584fe1899fc219464b79", "rental_uris": {"ios": "https://dc.lft.to/lastmile_qr_scan", "android": "https://dc.lft.to/lastmile_qr_scan"}}, {"is_disabled": 0, "fusion_lat": 0.0, "lat": 38.91338433333333, "type": "electric_scooter", "lon": -77.0301255, "is_reserved": 0, "fusion_lon": 0.0, "bike_id": "f61ce800e738857b181c7caa4058aac4", "name": "f61ce800e738857b181c7caa4058aac4", "rental_uris": {"ios": "https://dc.lft.to/lastmile_qr_scan", "android": "https://dc.lft.to/lastmile_qr_scan"}}, {"is_disabled": 0, "fusion_lat": 0.0, "lat": 38.863905833333334, "type": "electric_bike", "lon": -76.9898815, "is_reserved": 0, "fusion_lon": 0.0, "bike_id": "f2e96e7c5aa6b4d34f8c1dc07cfd49fa", "name": "f2e96e7c5aa6b4d34f8c1dc07cfd49fa", "rental_uris": {"ios": "https://dc.lft.to/lastmile_qr_scan", "android": "https://dc.lft.to/lastmile_qr_scan"}}, {"is_disabled": 0, "fusion_lat": 0.0, "lat": 38.94170366666667, "type": "electric_scooter", "lon": -77.041304, "is_reserved": 0, "fusion_lon": 0.0, "bike_id": "d8bfdeed5f8cdbf61e5e27fa5888471c", "name": "d8bfdeed5f8cdbf61e5e27fa5888471c", "rental_uris": {"ios": "https://dc.lft.to/lastmile_qr_scan", "android": "https://dc.lft.to/lastmile_qr_scan"}}, {"is_disabled": 0, "fusion_lat": 0.0, "lat": 38.911316166666666, "type": "electric_scooter", "lon": -77.04452083333334, "is_reserved": 0, "fusion_lon": 0.0, "bike_id": "2d128f2fdb5128b350043689cb369f26", "name": "2d128f2fdb5128b350043689cb369f26", "rental_uris": {"ios": "https://dc.lft.to/lastmile_qr_scan", "android": "https://dc.lft.to/lastmile_qr_scan"}}, {"is_disabled": 0, "fusion_lat": 0.0, "lat": 38.90691266666666, "type": "electric_scooter", "lon": -77.0635625, "is_reserved": 0, "fusion_lon": 0.0, "bike_id": "5bd6050e3e4988f857253392b54c925d", "name": "5bd6050e3e4988f857253392b54c925d", "rental_uris": {"ios": "https://dc.lft.to/lastmile_qr_scan", "android": "https://dc.lft.to/lastmile_qr_scan"}}, {"is_disabled": 0, "fusion_lat": 0.0, "lat": 38.96506133333333, "type": "electric_bike", "lon": -77.02818766666667, "is_reserved": 0, "fusion_lon": 0.0, "bike_id": "205959532d906d2ce16c13a0139248ae", "name": "205959532d906d2ce16c13a0139248ae", "rental_uris": {"ios": "https://dc.lft.to/lastmile_qr_scan", "android": "https://dc.lft.to/lastmile_qr_scan"}}, {"is_disabled": 0, "fusion_lat": 0.0, "lat": 38.93319616666667, "type": "electric_scooter", "lon": -77.03285283333334, "is_reserved": 0, "fusion_lon": 0.0, "bike_id": "52dc6b81a07dd8e2906857606b00df0b", "name": "52dc6b81a07dd8e2906857606b00df0b", "rental_uris": {"ios": "https://dc.lft.to/lastmile_qr_scan", "android": "https://dc.lft.to/lastmile_qr_scan"}}, {"is_disabled": 0, "fusion_lat": 0.0, "lat": 38.925522, "type": "electric_scooter", "lon": -77.053021, "is_reserved": 0, "fusion_lon": 0.0, "bike_id": "5e769a65f67da910fa1200c6a2d1d35c", "name": "5e769a65f67da910fa1200c6a2d1d35c", "rental_uris": {"ios": "https://dc.lft.to/lastmile_qr_scan", "android": "https://dc.lft.to/lastmile_qr_scan"}}, {"is_disabled": 0, "fusion_lat": 0.0, "lat": 38.95197, "type": "electric_bike", "lon": -76.9672415, "is_reserved": 0, "fusion_lon": 0.0, "bike_id": "fa71c2954e0af7def0ad07033d61fa9b", "name": "fa71c2954e0af7def0ad07033d61fa9b", "rental_uris": {"ios": "https://dc.lft.to/lastmile_qr_scan", "android": "https://dc.lft.to/lastmile_qr_scan"}}, {"is_disabled": 0, "fusion_lat": 0.0, "lat": 38.9038775, "type": "electric_scooter", "lon": -77.01102033333333, "is_reserved": 0, "fusion_lon": 0.0, "bike_id": "918b36bbb0aabd341a962e26fd820e36", "name": "918b36bbb0aabd341a962e26fd820e36", "rental_uris": {"ios": "https://dc.lft.to/lastmile_qr_scan", "android": "https://dc.lft.to/lastmile_qr_scan"}}, {"is_disabled": 0, "fusion_lat": 0.0, "lat": 38.90349033333333, "type": "electric_scooter", "lon": -76.9756205, "is_reserved": 0, "fusion_lon": 0.0, "bike_id": "e8874bc39ad17ac0fa64163f770e7df9", "name": "e8874bc39ad17ac0fa64163f770e7df9", "rental_uris": {"ios": "https://dc.lft.to/lastmile_qr_scan", "android": "https://dc.lft.to/lastmile_qr_scan"}}, {"is_disabled": 0, "fusion_lat": 0.0, "lat": 38.998233666666664, "type": "electric_bike", "lon": -76.88375383333333, "is_reserved": 0, "fusion_lon": 0.0, "bike_id": "c85538d3e2cc56ecc8fb637cac69b285", "name": "c85538d3e2cc56ecc8fb637cac69b285", "rental_uris": {"ios": "https://dc.lft.to/lastmile_qr_scan", "android": "https://dc.lft.to/lastmile_qr_scan"}}, {"is_disabled": 0, "fusion_lat": 0.0, "lat": 38.87248916666667, "type": "electric_scooter", "lon": -76.97727833333333, "is_reserved": 0, "fusion_lon": 0.0, "bike_id": "c19c1050147fe10cfb2d18256c5dedc7", "name": "c19c1050147fe10cfb2d18256c5dedc7", "rental_uris": {"ios": "https://dc.lft.to/lastmile_qr_scan", "android": "https://dc.lft.to/lastmile_qr_scan"}}, {"is_disabled": 0, "fusion_lat": 0.0, "lat": 38.90181883333333, "type": "electric_scooter", "lon": -76.98076716666667, "is_reserved": 0, "fusion_lon": 0.0, "bike_id": "b828d6d0fa9cbf014168a9e9f2d569ce", "name": "b828d6d0fa9cbf014168a9e9f2d569ce", "rental_uris": {"ios": "https://dc.lft.to/lastmile_qr_scan", "android": "https://dc.lft.to/lastmile_qr_scan"}}, {"is_disabled": 0, "fusion_lat": 0.0, "lat": 38.921326666666666, "type": "electric_scooter", "lon": -77.01785716666667, "is_reserved": 0, "fusion_lon": 0.0, "bike_id": "872ffeefb2053edc7e58d49679e828b1", "name": "872ffeefb2053edc7e58d49679e828b1", "rental_uris": {"ios": "https://dc.lft.to/lastmile_qr_scan", "android": "https://dc.lft.to/lastmile_qr_scan"}}, {"is_disabled": 0, "fusion_lat": 0.0, "lat": 38.895377, "type": "electric_scooter", "lon": -76.94886916666667, "is_reserved": 0, "fusion_lon": 0.0, "bike_id": "9105f0035d1fbbc1cb3e442dae23d690", "name": "9105f0035d1fbbc1cb3e442dae23d690", "rental_uris": {"ios": "https://dc.lft.to/lastmile_qr_scan", "android": "https://dc.lft.to/lastmile_qr_scan"}}, {"is_disabled": 0, "fusion_lat": 0.0, "lat": 38.855312, "type": "electric_scooter", "lon": -76.969144, "is_reserved": 0, "fusion_lon": 0.0, "bike_id": "75df49bd8956a9feb4976db82ed4212c", "name": "75df49bd8956a9feb4976db82ed4212c", "rental_uris": {"ios": "https://dc.lft.to/lastmile_qr_scan", "android": "https://dc.lft.to/lastmile_qr_scan"}}, {"is_disabled": 0, "fusion_lat": 0.0, "lat": 38.892262333333335, "type": "electric_scooter", "lon": -77.044447, "is_reserved": 0, "fusion_lon": 0.0, "bike_id": "2d63c78262ec2101c8d1a51ceb15e500", "name": "2d63c78262ec2101c8d1a51ceb15e500", "rental_uris": {"ios": "https://dc.lft.to/lastmile_qr_scan", "android": "https://dc.lft.to/lastmile_qr_scan"}}, {"is_disabled": 0, "fusion_lat": 0.0, "lat": 38.914269, "type": "electric_scooter", "lon": -77.0319215, "is_reserved": 0, "fusion_lon": 0.0, "bike_id": "47df1b34c345c3ab7296f425c0619f9b", "name": "47df1b34c345c3ab7296f425c0619f9b", "rental_uris": {"ios": "https://dc.lft.to/lastmile_qr_scan", "android": "https://dc.lft.to/lastmile_qr_scan"}}, {"is_disabled": 0, "fusion_lat": 0.0, "lat": 38.917630333333335, "type": "electric_scooter", "lon": -77.00398133333333, "is_reserved": 0, "fusion_lon": 0.0, "bike_id": "58186f9a4ec6578907837b96038b6afd", "name": "58186f9a4ec6578907837b96038b6afd", "rental_uris": {"ios": "https://dc.lft.to/lastmile_qr_scan", "android": "https://dc.lft.to/lastmile_qr_scan"}}, {"is_disabled": 0, "fusion_lat": 0.0, "lat": 38.90794866666667, "type": "electric_scooter", "lon": -77.03857183333334, "is_reserved": 0, "fusion_lon": 0.0, "bike_id": "3921fef66c98e09bfcf7ffaed841e321", "name": "3921fef66c98e09bfcf7ffaed841e321", "rental_uris": {"ios": "https://dc.lft.to/lastmile_qr_scan", "android": "https://dc.lft.to/lastmile_qr_scan"}}, {"is_disabled": 0, "fusion_lat": 0.0, "lat": 38.9236165, "type": "electric_scooter", "lon": -77.051295, "is_reserved": 0, "fusion_lon": 0.0, "bike_id": "f84f23f4ed7b68c57a35b2ae0643c74e", "name": "f84f23f4ed7b68c57a35b2ae0643c74e", "rental_uris": {"ios": "https://dc.lft.to/lastmile_qr_scan", "android": "https://dc.lft.to/lastmile_qr_scan"}}, {"is_disabled": 0, "fusion_lat": 0.0, "lat": 38.91398983333333, "type": "electric_scooter", "lon": -77.039251, "is_reserved": 0, "fusion_lon": 0.0, "bike_id": "a1edc04723a713e134c46edfed23e06d", "name": "a1edc04723a713e134c46edfed23e06d", "rental_uris": {"ios": "https://dc.lft.to/lastmile_qr_scan", "android": "https://dc.lft.to/lastmile_qr_scan"}}, {"is_disabled": 0, "fusion_lat": 0.0, "lat": 38.895231833333334, "type": "electric_scooter", "lon": -76.980774, "is_reserved": 0, "fusion_lon": 0.0, "bike_id": "fff736b762970fff245e32d8228203c7", "name": "fff736b762970fff245e32d8228203c7", "rental_uris": {"ios": "https://dc.lft.to/lastmile_qr_scan", "android": "https://dc.lft.to/lastmile_qr_scan"}}, {"is_disabled": 0, "fusion_lat": 0.0, "lat": 38.905826, "type": "electric_scooter", "lon": -77.02211583333333, "is_reserved": 0, "fusion_lon": 0.0, "bike_id": "4ee83a8851f2605475b471e5532a5220", "name": "4ee83a8851f2605475b471e5532a5220", "rental_uris": {"ios": "https://dc.lft.to/lastmile_qr_scan", "android": "https://dc.lft.to/lastmile_qr_scan"}}, {"is_disabled": 0, "fusion_lat": 0.0, "lat": 38.92110683333333, "type": "electric_scooter", "lon": -77.04214983333334, "is_reserved": 0, "fusion_lon": 0.0, "bike_id": "8ffda7865db1ffdd1cfbc195cf7d2d02", "name": "8ffda7865db1ffdd1cfbc195cf7d2d02", "rental_uris": {"ios": "https://dc.lft.to/lastmile_qr_scan", "android": "https://dc.lft.to/lastmile_qr_scan"}}, {"is_disabled": 0, "fusion_lat": 0.0, "lat": 38.967057833333335, "type": "electric_bike", "lon": -77.10220416666667, "is_reserved": 0, "fusion_lon": 0.0, "bike_id": "6e13c1b1ac9249fd4e8bbe8a98f80c54", "name": "6e13c1b1ac9249fd4e8bbe8a98f80c54", "rental_uris": {"ios": "https://dc.lft.to/lastmile_qr_scan", "android": "https://dc.lft.to/lastmile_qr_scan"}}, {"is_disabled": 0, "fusion_lat": 0.0, "lat": 38.902157333333335, "type": "electric_scooter", "lon": -77.021624, "is_reserved": 0, "fusion_lon": 0.0, "bike_id": "1252872a48328d08d60df3395714be15", "name": "1252872a48328d08d60df3395714be15", "rental_uris": {"ios": "https://dc.lft.to/lastmile_qr_scan", "android": "https://dc.lft.to/lastmile_qr_scan"}}, {"is_disabled": 0, "fusion_lat": 0.0, "lat": 38.914070833333334, "type": "electric_scooter", "lon": -77.02053116666667, "is_reserved": 0, "fusion_lon": 0.0, "bike_id": "963fdbfc3c290850d5ee0c93e5827021", "name": "963fdbfc3c290850d5ee0c93e5827021", "rental_uris": {"ios": "https://dc.lft.to/lastmile_qr_scan", "android": "https://dc.lft.to/lastmile_qr_scan"}}, {"is_disabled": 0, "fusion_lat": 0.0, "lat": 38.86166033333333, "type": "electric_bike", "lon": -77.13093133333334, "is_reserved": 0, "fusion_lon": 0.0, "bike_id": "95d2982db7a339833de619b6b1d1328d", "name": "95d2982db7a339833de619b6b1d1328d", "rental_uris": {"ios": "https://dc.lft.to/lastmile_qr_scan", "android": "https://dc.lft.to/lastmile_qr_scan"}}, {"is_disabled": 0, "fusion_lat": 0.0, "lat": 38.897634333333336, "type": "electric_scooter", "lon": -77.02682216666666, "is_reserved": 0, "fusion_lon": 0.0, "bike_id": "f5a93efab23b45115f7d37a2a34687d1", "name": "f5a93efab23b45115f7d37a2a34687d1", "rental_uris": {"ios": "https://dc.lft.to/lastmile_qr_scan", "android": "https://dc.lft.to/lastmile_qr_scan"}}, {"is_disabled": 0, "fusion_lat": 0.0, "lat": 38.91988683333334, "type": "electric_scooter", "lon": -77.04159766666666, "is_reserved": 0, "fusion_lon": 0.0, "bike_id": "31bcb56559eade9907fc2a6fe9d245a9", "name": "31bcb56559eade9907fc2a6fe9d245a9", "rental_uris": {"ios": "https://dc.lft.to/lastmile_qr_scan", "android": "https://dc.lft.to/lastmile_qr_scan"}}, {"is_disabled": 0, "fusion_lat": 0.0, "lat": 38.93238216666666, "type": "electric_bike", "lon": -76.97427883333333, "is_reserved": 0, "fusion_lon": 0.0, "bike_id": "cfc3cb8fb8e9419faced727237407797", "name": "cfc3cb8fb8e9419faced727237407797", "rental_uris": {"ios": "https://dc.lft.to/lastmile_qr_scan", "android": "https://dc.lft.to/lastmile_qr_scan"}}, {"is_disabled": 0, "fusion_lat": 0.0, "lat": 38.9037915, "type": "electric_scooter", "lon": -77.04183266666666, "is_reserved": 0, "fusion_lon": 0.0, "bike_id": "074dd7cefc755441cec4aa80874a01ac", "name": "074dd7cefc755441cec4aa80874a01ac", "rental_uris": {"ios": "https://dc.lft.to/lastmile_qr_scan", "android": "https://dc.lft.to/lastmile_qr_scan"}}, {"is_disabled": 0, "fusion_lat": 0.0, "lat": 38.914797, "type": "electric_scooter", "lon": -76.98434, "is_reserved": 0, "fusion_lon": 0.0, "bike_id": "9c2e8e84d91a16fcff474d65a4cf7835", "name": "9c2e8e84d91a16fcff474d65a4cf7835", "rental_uris": {"ios": "https://dc.lft.to/lastmile_qr_scan", "android": "https://dc.lft.to/lastmile_qr_scan"}}, {"is_disabled": 0, "fusion_lat": 0.0, "lat": 38.921299166666664, "type": "electric_scooter", "lon": -77.0456825, "is_reserved": 0, "fusion_lon": 0.0, "bike_id": "1ea875893e7181449b3f08b273300784", "name": "1ea875893e7181449b3f08b273300784", "rental_uris": {"ios": "https://dc.lft.to/lastmile_qr_scan", "android": "https://dc.lft.to/lastmile_qr_scan"}}, {"is_disabled": 0, "fusion_lat": 0.0, "lat": 38.87631716666667, "type": "electric_scooter", "lon": -76.96523933333333, "is_reserved": 0, "fusion_lon": 0.0, "bike_id": "f6069d3170ccb73d3b5e24de1cfa5049", "name": "f6069d3170ccb73d3b5e24de1cfa5049", "rental_uris": {"ios": "https://dc.lft.to/lastmile_qr_scan", "android": "https://dc.lft.to/lastmile_qr_scan"}}, {"is_disabled": 0, "fusion_lat": 0.0, "lat": 38.9196115, "type": "electric_scooter", "lon": -77.02722166666666, "is_reserved": 0, "fusion_lon": 0.0, "bike_id": "29816447e107f2793aacc680ee67b580", "name": "29816447e107f2793aacc680ee67b580", "rental_uris": {"ios": "https://dc.lft.to/lastmile_qr_scan", "android": "https://dc.lft.to/lastmile_qr_scan"}}, {"is_disabled": 0, "fusion_lat": 0.0, "lat": 38.91267066666666, "type": "electric_scooter", "lon": -77.03381966666667, "is_reserved": 0, "fusion_lon": 0.0, "bike_id": "51608192fea4c08b17d3c0451a11d956", "name": "51608192fea4c08b17d3c0451a11d956", "rental_uris": {"ios": "https://dc.lft.to/lastmile_qr_scan", "android": "https://dc.lft.to/lastmile_qr_scan"}}, {"is_disabled": 0, "fusion_lat": 0.0, "lat": 38.8666655, "type": "electric_scooter", "lon": -76.98906683333334, "is_reserved": 0, "fusion_lon": 0.0, "bike_id": "e5dc6d1f80a24e1bbcad13edeb7f23a5", "name": "e5dc6d1f80a24e1bbcad13edeb7f23a5", "rental_uris": {"ios": "https://dc.lft.to/lastmile_qr_scan", "android": "https://dc.lft.to/lastmile_qr_scan"}}, {"is_disabled": 0, "fusion_lat": 0.0, "lat": 38.838117, "type": "electric_bike", "lon": -77.09523783333333, "is_reserved": 0, "fusion_lon": 0.0, "bike_id": "2be65da3bdaae4aafdca6330ad5f35a1", "name": "2be65da3bdaae4aafdca6330ad5f35a1", "rental_uris": {"ios": "https://dc.lft.to/lastmile_qr_scan", "android": "https://dc.lft.to/lastmile_qr_scan"}}, {"is_disabled": 0, "fusion_lat": 0.0, "lat": 38.83870816666666, "type": "electric_bike", "lon": -76.99697983333333, "is_reserved": 0, "fusion_lon": 0.0, "bike_id": "c514cd9e8789dd0db043b2078016e562", "name": "c514cd9e8789dd0db043b2078016e562", "rental_uris": {"ios": "https://dc.lft.to/lastmile_qr_scan", "android": "https://dc.lft.to/lastmile_qr_scan"}}, {"is_disabled": 0, "fusion_lat": 0.0, "lat": 38.86528366666667, "type": "electric_scooter", "lon": -76.99028766666666, "is_reserved": 0, "fusion_lon": 0.0, "bike_id": "3e1dfbcb04d8329f9f0f7cfd821d7e52", "name": "3e1dfbcb04d8329f9f0f7cfd821d7e52", "rental_uris": {"ios": "https://dc.lft.to/lastmile_qr_scan", "android": "https://dc.lft.to/lastmile_qr_scan"}}, {"is_disabled": 0, "fusion_lat": 0.0, "lat": 38.94637316666667, "type": "electric_scooter", "lon": -77.01845516666667, "is_reserved": 0, "fusion_lon": 0.0, "bike_id": "592148e34e5d80387dde6991f27f2ba1", "name": "592148e34e5d80387dde6991f27f2ba1", "rental_uris": {"ios": "https://dc.lft.to/lastmile_qr_scan", "android": "https://dc.lft.to/lastmile_qr_scan"}}, {"is_disabled": 0, "fusion_lat": 0.0, "lat": 38.92570833333333, "type": "electric_scooter", "lon": -77.05256966666667, "is_reserved": 0, "fusion_lon": 0.0, "bike_id": "262945f91c587de297e41e5cfd7e9b92", "name": "262945f91c587de297e41e5cfd7e9b92", "rental_uris": {"ios": "https://dc.lft.to/lastmile_qr_scan", "android": "https://dc.lft.to/lastmile_qr_scan"}}, {"is_disabled": 0, "fusion_lat": 0.0, "lat": 38.897396, "type": "electric_scooter", "lon": -76.93840966666667, "is_reserved": 0, "fusion_lon": 0.0, "bike_id": "09db2af935efc1a789606454cb20d848", "name": "09db2af935efc1a789606454cb20d848", "rental_uris": {"ios": "https://dc.lft.to/lastmile_qr_scan", "android": "https://dc.lft.to/lastmile_qr_scan"}}, {"is_disabled": 0, "fusion_lat": 0.0, "lat": 38.8552415, "type": "electric_bike", "lon": -77.12021616666667, "is_reserved": 0, "fusion_lon": 0.0, "bike_id": "cca10b26d72824bb1d50ffa9fe0cdb58", "name": "cca10b26d72824bb1d50ffa9fe0cdb58", "rental_uris": {"ios": "https://dc.lft.to/lastmile_qr_scan", "android": "https://dc.lft.to/lastmile_qr_scan"}}, {"is_disabled": 0, "fusion_lat": 0.0, "lat": 38.909697666666666, "type": "electric_scooter", "lon": -77.039764, "is_reserved": 0, "fusion_lon": 0.0, "bike_id": "73521928e80570e348d585efddcbf2d9", "name": "73521928e80570e348d585efddcbf2d9", "rental_uris": {"ios": "https://dc.lft.to/lastmile_qr_scan", "android": "https://dc.lft.to/lastmile_qr_scan"}}, {"is_disabled": 0, "fusion_lat": 0.0, "lat": 38.902908333333336, "type": "electric_scooter", "lon": -77.041276, "is_reserved": 0, "fusion_lon": 0.0, "bike_id": "0035a3979f402b24d204e9565b3060c3", "name": "0035a3979f402b24d204e9565b3060c3", "rental_uris": {"ios": "https://dc.lft.to/lastmile_qr_scan", "android": "https://dc.lft.to/lastmile_qr_scan"}}, {"is_disabled": 0, "fusion_lat": 0.0, "lat": 38.99941066666667, "type": "electric_bike", "lon": -77.01767616666666, "is_reserved": 0, "fusion_lon": 0.0, "bike_id": "6d3d56302694e9d396cedf1c00b4c35e", "name": "6d3d56302694e9d396cedf1c00b4c35e", "rental_uris": {"ios": "https://dc.lft.to/lastmile_qr_scan", "android": "https://dc.lft.to/lastmile_qr_scan"}}, {"is_disabled": 0, "fusion_lat": 0.0, "lat": 38.91637683333333, "type": "electric_scooter", "lon": -77.04818016666667, "is_reserved": 0, "fusion_lon": 0.0, "bike_id": "dc84b5b8d945a2ea75fc7180fd2b533f", "name": "dc84b5b8d945a2ea75fc7180fd2b533f", "rental_uris": {"ios": "https://dc.lft.to/lastmile_qr_scan", "android": "https://dc.lft.to/lastmile_qr_scan"}}, {"is_disabled": 0, "fusion_lat": 0.0, "lat": 38.905705166666664, "type": "electric_scooter", "lon": -77.034622, "is_reserved": 0, "fusion_lon": 0.0, "bike_id": "9965cd85597b96f0ecf9fa3edb3b3865", "name": "9965cd85597b96f0ecf9fa3edb3b3865", "rental_uris": {"ios": "https://dc.lft.to/lastmile_qr_scan", "android": "https://dc.lft.to/lastmile_qr_scan"}}, {"is_disabled": 0, "fusion_lat": 0.0, "lat": 38.90261016666667, "type": "electric_scooter", "lon": -76.98687466666667, "is_reserved": 0, "fusion_lon": 0.0, "bike_id": "c887bf6b20a483481bbfa65864164155", "name": "c887bf6b20a483481bbfa65864164155", "rental_uris": {"ios": "https://dc.lft.to/lastmile_qr_scan", "android": "https://dc.lft.to/lastmile_qr_scan"}}, {"is_disabled": 0, "fusion_lat": 0.0, "lat": 38.93524416666666, "type": "electric_scooter", "lon": -77.03260983333334, "is_reserved": 0, "fusion_lon": 0.0, "bike_id": "18eb16d9eafd35cabb009f337900eed3", "name": "18eb16d9eafd35cabb009f337900eed3", "rental_uris": {"ios": "https://dc.lft.to/lastmile_qr_scan", "android": "https://dc.lft.to/lastmile_qr_scan"}}, {"is_disabled": 0, "fusion_lat": 0.0, "lat": 38.9021725, "type": "electric_scooter", "lon": -77.0336945, "is_reserved": 0, "fusion_lon": 0.0, "bike_id": "50f061e0e592b7bb98f692b535566843", "name": "50f061e0e592b7bb98f692b535566843", "rental_uris": {"ios": "https://dc.lft.to/lastmile_qr_scan", "android": "https://dc.lft.to/lastmile_qr_scan"}}, {"is_disabled": 0, "fusion_lat": 0.0, "lat": 38.916846166666666, "type": "electric_scooter", "lon": -77.03206966666667, "is_reserved": 0, "fusion_lon": 0.0, "bike_id": "78a1421d1505e9cba275e644fddcb525", "name": "78a1421d1505e9cba275e644fddcb525", "rental_uris": {"ios": "https://dc.lft.to/lastmile_qr_scan", "android": "https://dc.lft.to/lastmile_qr_scan"}}, {"is_disabled": 0, "fusion_lat": 0.0, "lat": 38.89457216666667, "type": "electric_bike", "lon": -76.9703475, "is_reserved": 0, "fusion_lon": 0.0, "bike_id": "4b2b8afaa2e568cd4206d6e7cf433362", "name": "4b2b8afaa2e568cd4206d6e7cf433362", "rental_uris": {"ios": "https://dc.lft.to/lastmile_qr_scan", "android": "https://dc.lft.to/lastmile_qr_scan"}}, {"is_disabled": 0, "fusion_lat": 0.0, "lat": 38.91933216666666, "type": "electric_scooter", "lon": -77.03069233333333, "is_reserved": 0, "fusion_lon": 0.0, "bike_id": "ac83c064e1db3afd4e82d2eb790adef4", "name": "ac83c064e1db3afd4e82d2eb790adef4", "rental_uris": {"ios": "https://dc.lft.to/lastmile_qr_scan", "android": "https://dc.lft.to/lastmile_qr_scan"}}, {"is_disabled": 0, "fusion_lat": 0.0, "lat": 38.87290766666667, "type": "electric_scooter", "lon": -76.9772965, "is_reserved": 0, "fusion_lon": 0.0, "bike_id": "48bcc4d119cf748c186a545045d74c8b", "name": "48bcc4d119cf748c186a545045d74c8b", "rental_uris": {"ios": "https://dc.lft.to/lastmile_qr_scan", "android": "https://dc.lft.to/lastmile_qr_scan"}}, {"is_disabled": 0, "fusion_lat": 0.0, "lat": 38.898195333333334, "type": "electric_scooter", "lon": -77.03301366666666, "is_reserved": 0, "fusion_lon": 0.0, "bike_id": "9ea63e164b16615661f9861918b363c3", "name": "9ea63e164b16615661f9861918b363c3", "rental_uris": {"ios": "https://dc.lft.to/lastmile_qr_scan", "android": "https://dc.lft.to/lastmile_qr_scan"}}, {"is_disabled": 0, "fusion_lat": 0.0, "lat": 38.842716833333334, "type": "electric_bike", "lon": -76.988428, "is_reserved": 0, "fusion_lon": 0.0, "bike_id": "c942ec89656df962a4d8a30cd915fcce", "name": "c942ec89656df962a4d8a30cd915fcce", "rental_uris": {"ios": "https://dc.lft.to/lastmile_qr_scan", "android": "https://dc.lft.to/lastmile_qr_scan"}}, {"is_disabled": 0, "fusion_lat": 0.0, "lat": 38.88130183333333, "type": "electric_scooter", "lon": -77.00096166666667, "is_reserved": 0, "fusion_lon": 0.0, "bike_id": "b3661560109feeb00666d9453331ea67", "name": "b3661560109feeb00666d9453331ea67", "rental_uris": {"ios": "https://dc.lft.to/lastmile_qr_scan", "android": "https://dc.lft.to/lastmile_qr_scan"}}, {"is_disabled": 0, "fusion_lat": 0.0, "lat": 38.8849365, "type": "electric_scooter", "lon": -77.00726733333333, "is_reserved": 0, "fusion_lon": 0.0, "bike_id": "38b85603c766fe62b3b3654c54b87732", "name": "38b85603c766fe62b3b3654c54b87732", "rental_uris": {"ios": "https://dc.lft.to/lastmile_qr_scan", "android": "https://dc.lft.to/lastmile_qr_scan"}}, {"is_disabled": 0, "fusion_lat": 0.0, "lat": 38.9170795, "type": "electric_scooter", "lon": -77.03202433333334, "is_reserved": 0, "fusion_lon": 0.0, "bike_id": "d8005854e431d1a7533a763c0fbf5e4c", "name": "d8005854e431d1a7533a763c0fbf5e4c", "rental_uris": {"ios": "https://dc.lft.to/lastmile_qr_scan", "android": "https://dc.lft.to/lastmile_qr_scan"}}, {"is_disabled": 0, "fusion_lat": 0.0, "lat": 38.88135966666667, "type": "electric_bike", "lon": -76.98093, "is_reserved": 0, "fusion_lon": 0.0, "bike_id": "40b1b844bc2c0eedfe928a79a108ac55", "name": "40b1b844bc2c0eedfe928a79a108ac55", "rental_uris": {"ios": "https://dc.lft.to/lastmile_qr_scan", "android": "https://dc.lft.to/lastmile_qr_scan"}}, {"is_disabled": 0, "fusion_lat": 0.0, "lat": 38.935592666666665, "type": "electric_scooter", "lon": -77.0296455, "is_reserved": 0, "fusion_lon": 0.0, "bike_id": "902401f718aa59c4462a62f4726b1584", "name": "902401f718aa59c4462a62f4726b1584", "rental_uris": {"ios": "https://dc.lft.to/lastmile_qr_scan", "android": "https://dc.lft.to/lastmile_qr_scan"}}, {"is_disabled": 0, "fusion_lat": 0.0, "lat": 38.898983333333334, "type": "electric_scooter", "lon": -76.93301166666667, "is_reserved": 0, "fusion_lon": 0.0, "bike_id": "37ef90c5ea1aa5600e50b34447cd5d6d", "name": "37ef90c5ea1aa5600e50b34447cd5d6d", "rental_uris": {"ios": "https://dc.lft.to/lastmile_qr_scan", "android": "https://dc.lft.to/lastmile_qr_scan"}}, {"is_disabled": 0, "fusion_lat": 0.0, "lat": 38.91572633333333, "type": "electric_scooter", "lon": -77.01196066666667, "is_reserved": 0, "fusion_lon": 0.0, "bike_id": "95759ad9ce3839acd136373bdf27f3f5", "name": "95759ad9ce3839acd136373bdf27f3f5", "rental_uris": {"ios": "https://dc.lft.to/lastmile_qr_scan", "android": "https://dc.lft.to/lastmile_qr_scan"}}, {"is_disabled": 0, "fusion_lat": 0.0, "lat": 38.91984883333333, "type": "electric_scooter", "lon": -77.04165116666667, "is_reserved": 0, "fusion_lon": 0.0, "bike_id": "a23839159de468bf47976581a234995d", "name": "a23839159de468bf47976581a234995d", "rental_uris": {"ios": "https://dc.lft.to/lastmile_qr_scan", "android": "https://dc.lft.to/lastmile_qr_scan"}}, {"is_disabled": 0, "fusion_lat": 0.0, "lat": 38.8998645, "type": "electric_scooter", "lon": -77.05236416666666, "is_reserved": 0, "fusion_lon": 0.0, "bike_id": "d78e10f6c052ec55841884ab5de60452", "name": "d78e10f6c052ec55841884ab5de60452", "rental_uris": {"ios": "https://dc.lft.to/lastmile_qr_scan", "android": "https://dc.lft.to/lastmile_qr_scan"}}, {"is_disabled": 0, "fusion_lat": 0.0, "lat": 38.866589, "type": "electric_scooter", "lon": -76.990141, "is_reserved": 0, "fusion_lon": 0.0, "bike_id": "703c9da82047ad21a7abaf179096a93e", "name": "703c9da82047ad21a7abaf179096a93e", "rental_uris": {"ios": "https://dc.lft.to/lastmile_qr_scan", "android": "https://dc.lft.to/lastmile_qr_scan"}}, {"is_disabled": 0, "fusion_lat": 0.0, "lat": 38.917394, "type": "electric_scooter", "lon": -77.0269665, "is_reserved": 0, "fusion_lon": 0.0, "bike_id": "2a899d3f59e22873c8143a7f7db2b389", "name": "2a899d3f59e22873c8143a7f7db2b389", "rental_uris": {"ios": "https://dc.lft.to/lastmile_qr_scan", "android": "https://dc.lft.to/lastmile_qr_scan"}}, {"is_disabled": 0, "fusion_lat": 0.0, "lat": 38.8398735, "type": "electric_bike", "lon": -77.00567733333334, "is_reserved": 0, "fusion_lon": 0.0, "bike_id": "5a6ddf6d344869bc611e0f75fe07de18", "name": "5a6ddf6d344869bc611e0f75fe07de18", "rental_uris": {"ios": "https://dc.lft.to/lastmile_qr_scan", "android": "https://dc.lft.to/lastmile_qr_scan"}}, {"is_disabled": 0, "fusion_lat": 0.0, "lat": 38.92538866666666, "type": "electric_scooter", "lon": -77.03362766666666, "is_reserved": 0, "fusion_lon": 0.0, "bike_id": "420590cd7895504a8f72e53eed70d264", "name": "420590cd7895504a8f72e53eed70d264", "rental_uris": {"ios": "https://dc.lft.to/lastmile_qr_scan", "android": "https://dc.lft.to/lastmile_qr_scan"}}, {"is_disabled": 0, "fusion_lat": 0.0, "lat": 38.92452816666667, "type": "electric_scooter", "lon": -77.02031, "is_reserved": 0, "fusion_lon": 0.0, "bike_id": "6e7da8ccdbb2a859cd4c06beed2c50ba", "name": "6e7da8ccdbb2a859cd4c06beed2c50ba", "rental_uris": {"ios": "https://dc.lft.to/lastmile_qr_scan", "android": "https://dc.lft.to/lastmile_qr_scan"}}, {"is_disabled": 0, "fusion_lat": 0.0, "lat": 38.91752066666667, "type": "electric_scooter", "lon": -77.03186983333333, "is_reserved": 0, "fusion_lon": 0.0, "bike_id": "030c94b53aa8205c51f9672c358a5591", "name": "030c94b53aa8205c51f9672c358a5591", "rental_uris": {"ios": "https://dc.lft.to/lastmile_qr_scan", "android": "https://dc.lft.to/lastmile_qr_scan"}}, {"is_disabled": 0, "fusion_lat": 0.0, "lat": 38.91581, "type": "electric_scooter", "lon": -77.04693383333333, "is_reserved": 0, "fusion_lon": 0.0, "bike_id": "7b903ef64bb9ae03cf78975d2cba4e97", "name": "7b903ef64bb9ae03cf78975d2cba4e97", "rental_uris": {"ios": "https://dc.lft.to/lastmile_qr_scan", "android": "https://dc.lft.to/lastmile_qr_scan"}}, {"is_disabled": 0, "fusion_lat": 0.0, "lat": 38.91118, "type": "electric_scooter", "lon": -77.038347, "is_reserved": 0, "fusion_lon": 0.0, "bike_id": "a9daefa13b1b9dea6cd5a1cf76ad3526", "name": "a9daefa13b1b9dea6cd5a1cf76ad3526", "rental_uris": {"ios": "https://dc.lft.to/lastmile_qr_scan", "android": "https://dc.lft.to/lastmile_qr_scan"}}, {"is_disabled": 0, "fusion_lat": 0.0, "lat": 38.86463966666667, "type": "electric_scooter", "lon": -76.98245316666667, "is_reserved": 0, "fusion_lon": 0.0, "bike_id": "2a447eb194fd340b3aa6ed6fc6adf322", "name": "2a447eb194fd340b3aa6ed6fc6adf322", "rental_uris": {"ios": "https://dc.lft.to/lastmile_qr_scan", "android": "https://dc.lft.to/lastmile_qr_scan"}}, {"is_disabled": 0, "fusion_lat": 0.0, "lat": 38.92740666666667, "type": "electric_scooter", "lon": -77.0356245, "is_reserved": 0, "fusion_lon": 0.0, "bike_id": "07584d9454ce4bc071eebe04c7438ed5", "name": "07584d9454ce4bc071eebe04c7438ed5", "rental_uris": {"ios": "https://dc.lft.to/lastmile_qr_scan", "android": "https://dc.lft.to/lastmile_qr_scan"}}, {"is_disabled": 0, "fusion_lat": 0.0, "lat": 38.9788175, "type": "electric_scooter", "lon": -77.02550366666667, "is_reserved": 0, "fusion_lon": 0.0, "bike_id": "f24847c1ca16d5a8ef96e17db7761b56", "name": "f24847c1ca16d5a8ef96e17db7761b56", "rental_uris": {"ios": "https://dc.lft.to/lastmile_qr_scan", "android": "https://dc.lft.to/lastmile_qr_scan"}}, {"is_disabled": 0, "fusion_lat": 0.0, "lat": 38.909242166666665, "type": "electric_scooter", "lon": -77.04381833333333, "is_reserved": 0, "fusion_lon": 0.0, "bike_id": "94bb005e943c9ffd7121885c05c1ea27", "name": "94bb005e943c9ffd7121885c05c1ea27", "rental_uris": {"ios": "https://dc.lft.to/lastmile_qr_scan", "android": "https://dc.lft.to/lastmile_qr_scan"}}, {"is_disabled": 0, "fusion_lat": 0.0, "lat": 38.91117083333334, "type": "electric_scooter", "lon": -77.04501316666666, "is_reserved": 0, "fusion_lon": 0.0, "bike_id": "75d55a5ffb0136456051a183e9c290d1", "name": "75d55a5ffb0136456051a183e9c290d1", "rental_uris": {"ios": "https://dc.lft.to/lastmile_qr_scan", "android": "https://dc.lft.to/lastmile_qr_scan"}}, {"is_disabled": 0, "fusion_lat": 0.0, "lat": 38.889974333333335, "type": "electric_scooter", "lon": -76.94705516666667, "is_reserved": 0, "fusion_lon": 0.0, "bike_id": "13d182630a7495a06900474164c9f5b9", "name": "13d182630a7495a06900474164c9f5b9", "rental_uris": {"ios": "https://dc.lft.to/lastmile_qr_scan", "android": "https://dc.lft.to/lastmile_qr_scan"}}, {"is_disabled": 0, "fusion_lat": 0.0, "lat": 38.905938666666664, "type": "electric_scooter", "lon": -77.0325155, "is_reserved": 0, "fusion_lon": 0.0, "bike_id": "43d496ade7877435e26a2adf270c1cae", "name": "43d496ade7877435e26a2adf270c1cae", "rental_uris": {"ios": "https://dc.lft.to/lastmile_qr_scan", "android": "https://dc.lft.to/lastmile_qr_scan"}}, {"is_disabled": 0, "fusion_lat": 0.0, "lat": 38.905512, "type": "electric_bike", "lon": -77.00217316666667, "is_reserved": 0, "fusion_lon": 0.0, "bike_id": "b68fd6db570685a7f1a261b61b51cd34", "name": "b68fd6db570685a7f1a261b61b51cd34", "rental_uris": {"ios": "https://dc.lft.to/lastmile_qr_scan", "android": "https://dc.lft.to/lastmile_qr_scan"}}, {"is_disabled": 0, "fusion_lat": 0.0, "lat": 38.8323945, "type": "electric_bike", "lon": -76.94626866666667, "is_reserved": 0, "fusion_lon": 0.0, "bike_id": "fd509f8c3a0f2af8366ea3dd1fa754ca", "name": "fd509f8c3a0f2af8366ea3dd1fa754ca", "rental_uris": {"ios": "https://dc.lft.to/lastmile_qr_scan", "android": "https://dc.lft.to/lastmile_qr_scan"}}, {"is_disabled": 0, "fusion_lat": 0.0, "lat": 38.91671733333333, "type": "electric_scooter", "lon": -77.0416205, "is_reserved": 0, "fusion_lon": 0.0, "bike_id": "bfd0dca469776aa6396db9323102a7fc", "name": "bfd0dca469776aa6396db9323102a7fc", "rental_uris": {"ios": "https://dc.lft.to/lastmile_qr_scan", "android": "https://dc.lft.to/lastmile_qr_scan"}}, {"is_disabled": 0, "fusion_lat": 0.0, "lat": 38.89030266666666, "type": "electric_scooter", "lon": -76.93727566666666, "is_reserved": 0, "fusion_lon": 0.0, "bike_id": "a9bebd648af1ed939b51732baa8188fb", "name": "a9bebd648af1ed939b51732baa8188fb", "rental_uris": {"ios": "https://dc.lft.to/lastmile_qr_scan", "android": "https://dc.lft.to/lastmile_qr_scan"}}, {"is_disabled": 0, "fusion_lat": 0.0, "lat": 38.924669333333334, "type": "electric_scooter", "lon": -77.05755916666666, "is_reserved": 0, "fusion_lon": 0.0, "bike_id": "08ac15cece6ea958fb26b05521575348", "name": "08ac15cece6ea958fb26b05521575348", "rental_uris": {"ios": "https://dc.lft.to/lastmile_qr_scan", "android": "https://dc.lft.to/lastmile_qr_scan"}}, {"is_disabled": 0, "fusion_lat": 0.0, "lat": 38.915277, "type": "electric_scooter", "lon": -77.01996416666667, "is_reserved": 0, "fusion_lon": 0.0, "bike_id": "65bc243272eef9d4e7fb52e8d82acc17", "name": "65bc243272eef9d4e7fb52e8d82acc17", "rental_uris": {"ios": "https://dc.lft.to/lastmile_qr_scan", "android": "https://dc.lft.to/lastmile_qr_scan"}}, {"is_disabled": 0, "fusion_lat": 0.0, "lat": 38.92124316666667, "type": "electric_scooter", "lon": -77.04117183333334, "is_reserved": 0, "fusion_lon": 0.0, "bike_id": "c7a7cebf1a2b0393f6c951d67d765831", "name": "c7a7cebf1a2b0393f6c951d67d765831", "rental_uris": {"ios": "https://dc.lft.to/lastmile_qr_scan", "android": "https://dc.lft.to/lastmile_qr_scan"}}, {"is_disabled": 0, "fusion_lat": 0.0, "lat": 38.924678666666665, "type": "electric_scooter", "lon": -77.0338505, "is_reserved": 0, "fusion_lon": 0.0, "bike_id": "c183e40972b458f4cf190de79beeef2b", "name": "c183e40972b458f4cf190de79beeef2b", "rental_uris": {"ios": "https://dc.lft.to/lastmile_qr_scan", "android": "https://dc.lft.to/lastmile_qr_scan"}}, {"is_disabled": 0, "fusion_lat": 0.0, "lat": 38.8960565, "type": "electric_scooter", "lon": -76.95521816666667, "is_reserved": 0, "fusion_lon": 0.0, "bike_id": "c39da060f236204d78e0e24b0a25a958", "name": "c39da060f236204d78e0e24b0a25a958", "rental_uris": {"ios": "https://dc.lft.to/lastmile_qr_scan", "android": "https://dc.lft.to/lastmile_qr_scan"}}, {"is_disabled": 0, "fusion_lat": 0.0, "lat": 38.921133, "type": "electric_scooter", "lon": -77.04222016666667, "is_reserved": 0, "fusion_lon": 0.0, "bike_id": "3be44410e7376942203f3b888a4ac349", "name": "3be44410e7376942203f3b888a4ac349", "rental_uris": {"ios": "https://dc.lft.to/lastmile_qr_scan", "android": "https://dc.lft.to/lastmile_qr_scan"}}, {"is_disabled": 0, "fusion_lat": 0.0, "lat": 38.88890133333334, "type": "electric_scooter", "lon": -76.93152233333333, "is_reserved": 0, "fusion_lon": 0.0, "bike_id": "95128f742600183fa4a373d26d3f203d", "name": "95128f742600183fa4a373d26d3f203d", "rental_uris": {"ios": "https://dc.lft.to/lastmile_qr_scan", "android": "https://dc.lft.to/lastmile_qr_scan"}}, {"is_disabled": 0, "fusion_lat": 0.0, "lat": 38.9168745, "type": "electric_scooter", "lon": -77.0348055, "is_reserved": 0, "fusion_lon": 0.0, "bike_id": "ec816cf31c889d8306ae8b886bd5e9c1", "name": "ec816cf31c889d8306ae8b886bd5e9c1", "rental_uris": {"ios": "https://dc.lft.to/lastmile_qr_scan", "android": "https://dc.lft.to/lastmile_qr_scan"}}, {"is_disabled": 0, "fusion_lat": 0.0, "lat": 38.91924733333333, "type": "electric_scooter", "lon": -77.04630366666666, "is_reserved": 0, "fusion_lon": 0.0, "bike_id": "c79176aacf82f2d37155e9485d3edfe3", "name": "c79176aacf82f2d37155e9485d3edfe3", "rental_uris": {"ios": "https://dc.lft.to/lastmile_qr_scan", "android": "https://dc.lft.to/lastmile_qr_scan"}}, {"is_disabled": 0, "fusion_lat": 0.0, "lat": 38.9087435, "type": "electric_scooter", "lon": -76.99785466666667, "is_reserved": 0, "fusion_lon": 0.0, "bike_id": "5a940191f5121dbab1f3e5b7e05fc9ad", "name": "5a940191f5121dbab1f3e5b7e05fc9ad", "rental_uris": {"ios": "https://dc.lft.to/lastmile_qr_scan", "android": "https://dc.lft.to/lastmile_qr_scan"}}, {"is_disabled": 0, "fusion_lat": 0.0, "lat": 38.92375283333333, "type": "electric_scooter", "lon": -77.0191165, "is_reserved": 0, "fusion_lon": 0.0, "bike_id": "e27c68b428344cff17b27287de49b243", "name": "e27c68b428344cff17b27287de49b243", "rental_uris": {"ios": "https://dc.lft.to/lastmile_qr_scan", "android": "https://dc.lft.to/lastmile_qr_scan"}}, {"is_disabled": 0, "fusion_lat": 0.0, "lat": 38.884812, "type": "electric_scooter", "lon": -76.945992, "is_reserved": 0, "fusion_lon": 0.0, "bike_id": "52da782422a34d3ea013c9f4bfe2e79c", "name": "52da782422a34d3ea013c9f4bfe2e79c", "rental_uris": {"ios": "https://dc.lft.to/lastmile_qr_scan", "android": "https://dc.lft.to/lastmile_qr_scan"}}, {"is_disabled": 0, "fusion_lat": 0.0, "lat": 38.880591833333334, "type": "electric_scooter", "lon": -77.00550966666667, "is_reserved": 0, "fusion_lon": 0.0, "bike_id": "952486d6465b505083ef1b326d23ace7", "name": "952486d6465b505083ef1b326d23ace7", "rental_uris": {"ios": "https://dc.lft.to/lastmile_qr_scan", "android": "https://dc.lft.to/lastmile_qr_scan"}}, {"is_disabled": 0, "fusion_lat": 0.0, "lat": 38.923199, "type": "electric_scooter", "lon": -77.03800516666666, "is_reserved": 0, "fusion_lon": 0.0, "bike_id": "6dc5b3c6fc96bad233af16a6bc963aea", "name": "6dc5b3c6fc96bad233af16a6bc963aea", "rental_uris": {"ios": "https://dc.lft.to/lastmile_qr_scan", "android": "https://dc.lft.to/lastmile_qr_scan"}}, {"is_disabled": 0, "fusion_lat": 0.0, "lat": 38.91050966666667, "type": "electric_scooter", "lon": -77.01513516666667, "is_reserved": 0, "fusion_lon": 0.0, "bike_id": "09aad030bd2cf277feb3334490f54331", "name": "09aad030bd2cf277feb3334490f54331", "rental_uris": {"ios": "https://dc.lft.to/lastmile_qr_scan", "android": "https://dc.lft.to/lastmile_qr_scan"}}, {"is_disabled": 0, "fusion_lat": 0.0, "lat": 38.91272333333333, "type": "electric_scooter", "lon": -77.03866583333334, "is_reserved": 0, "fusion_lon": 0.0, "bike_id": "2a428ffc4bad47ab1358977073616a23", "name": "2a428ffc4bad47ab1358977073616a23", "rental_uris": {"ios": "https://dc.lft.to/lastmile_qr_scan", "android": "https://dc.lft.to/lastmile_qr_scan"}}, {"is_disabled": 0, "fusion_lat": 0.0, "lat": 38.916684333333336, "type": "electric_scooter", "lon": -77.03846466666667, "is_reserved": 0, "fusion_lon": 0.0, "bike_id": "3eec87b585b551f0a2eccd31cdc228ba", "name": "3eec87b585b551f0a2eccd31cdc228ba", "rental_uris": {"ios": "https://dc.lft.to/lastmile_qr_scan", "android": "https://dc.lft.to/lastmile_qr_scan"}}, {"is_disabled": 0, "fusion_lat": 0.0, "lat": 38.93351083333334, "type": "electric_scooter", "lon": -77.058654, "is_reserved": 0, "fusion_lon": 0.0, "bike_id": "209b0934e90fdf352345f61c45e6c6f3", "name": "209b0934e90fdf352345f61c45e6c6f3", "rental_uris": {"ios": "https://dc.lft.to/lastmile_qr_scan", "android": "https://dc.lft.to/lastmile_qr_scan"}}, {"is_disabled": 0, "fusion_lat": 0.0, "lat": 38.911161666666665, "type": "electric_scooter", "lon": -77.038381, "is_reserved": 0, "fusion_lon": 0.0, "bike_id": "909e98d2d9938aed0de9b6254e0e278a", "name": "909e98d2d9938aed0de9b6254e0e278a", "rental_uris": {"ios": "https://dc.lft.to/lastmile_qr_scan", "android": "https://dc.lft.to/lastmile_qr_scan"}}, {"is_disabled": 0, "fusion_lat": 0.0, "lat": 38.920645666666665, "type": "electric_scooter", "lon": -77.03185166666667, "is_reserved": 0, "fusion_lon": 0.0, "bike_id": "2255dd5dd9e3bb13ae73cc8efb160b93", "name": "2255dd5dd9e3bb13ae73cc8efb160b93", "rental_uris": {"ios": "https://dc.lft.to/lastmile_qr_scan", "android": "https://dc.lft.to/lastmile_qr_scan"}}, {"is_disabled": 0, "fusion_lat": 0.0, "lat": 38.899171, "type": "electric_scooter", "lon": -76.93384416666666, "is_reserved": 0, "fusion_lon": 0.0, "bike_id": "de68b9a7e71c99014a75cebb7e666608", "name": "de68b9a7e71c99014a75cebb7e666608", "rental_uris": {"ios": "https://dc.lft.to/lastmile_qr_scan", "android": "https://dc.lft.to/lastmile_qr_scan"}}, {"is_disabled": 0, "fusion_lat": 0.0, "lat": 38.928334666666665, "type": "electric_scooter", "lon": -77.031645, "is_reserved": 0, "fusion_lon": 0.0, "bike_id": "4925fd109144dd8012ef4314068c24eb", "name": "4925fd109144dd8012ef4314068c24eb", "rental_uris": {"ios": "https://dc.lft.to/lastmile_qr_scan", "android": "https://dc.lft.to/lastmile_qr_scan"}}, {"is_disabled": 0, "fusion_lat": 0.0, "lat": 38.9195445, "type": "electric_scooter", "lon": -77.03178316666667, "is_reserved": 0, "fusion_lon": 0.0, "bike_id": "c34f94858ea9f8a15b989d9dd01db50b", "name": "c34f94858ea9f8a15b989d9dd01db50b", "rental_uris": {"ios": "https://dc.lft.to/lastmile_qr_scan", "android": "https://dc.lft.to/lastmile_qr_scan"}}, {"is_disabled": 0, "fusion_lat": 0.0, "lat": 38.89888533333333, "type": "electric_scooter", "lon": -77.00722766666667, "is_reserved": 0, "fusion_lon": 0.0, "bike_id": "672babd74a50b7250d8c70edad2b0004", "name": "672babd74a50b7250d8c70edad2b0004", "rental_uris": {"ios": "https://dc.lft.to/lastmile_qr_scan", "android": "https://dc.lft.to/lastmile_qr_scan"}}, {"is_disabled": 0, "fusion_lat": 0.0, "lat": 38.9526565, "type": "electric_bike", "lon": -77.06986833333333, "is_reserved": 0, "fusion_lon": 0.0, "bike_id": "41ce4fb825733b29715aadaecd5d3e60", "name": "41ce4fb825733b29715aadaecd5d3e60", "rental_uris": {"ios": "https://dc.lft.to/lastmile_qr_scan", "android": "https://dc.lft.to/lastmile_qr_scan"}}, {"is_disabled": 0, "fusion_lat": 0.0, "lat": 38.90797516666667, "type": "electric_scooter", "lon": -77.04467516666666, "is_reserved": 0, "fusion_lon": 0.0, "bike_id": "389aa706b89c4b4873a10cff2855efe5", "name": "389aa706b89c4b4873a10cff2855efe5", "rental_uris": {"ios": "https://dc.lft.to/lastmile_qr_scan", "android": "https://dc.lft.to/lastmile_qr_scan"}}, {"is_disabled": 0, "fusion_lat": 0.0, "lat": 38.92645483333333, "type": "electric_scooter", "lon": -77.01343666666666, "is_reserved": 0, "fusion_lon": 0.0, "bike_id": "649d068885161e0ea6126eda2a89fc7d", "name": "649d068885161e0ea6126eda2a89fc7d", "rental_uris": {"ios": "https://dc.lft.to/lastmile_qr_scan", "android": "https://dc.lft.to/lastmile_qr_scan"}}, {"is_disabled": 0, "fusion_lat": 0.0, "lat": 38.8208725, "type": "electric_bike", "lon": -77.05365866666666, "is_reserved": 0, "fusion_lon": 0.0, "bike_id": "9fc771bc2827e93cb661dcd05cbdac38", "name": "9fc771bc2827e93cb661dcd05cbdac38", "rental_uris": {"ios": "https://dc.lft.to/lastmile_qr_scan", "android": "https://dc.lft.to/lastmile_qr_scan"}}, {"is_disabled": 0, "fusion_lat": 0.0, "lat": 38.92613683333333, "type": "electric_scooter", "lon": -77.05691033333333, "is_reserved": 0, "fusion_lon": 0.0, "bike_id": "c72bc6dc92314bbcf2c37cb2b548c677", "name": "c72bc6dc92314bbcf2c37cb2b548c677", "rental_uris": {"ios": "https://dc.lft.to/lastmile_qr_scan", "android": "https://dc.lft.to/lastmile_qr_scan"}}, {"is_disabled": 0, "fusion_lat": 0.0, "lat": 38.923257666666665, "type": "electric_scooter", "lon": -77.03895783333333, "is_reserved": 0, "fusion_lon": 0.0, "bike_id": "904b0578dceeb2fd29433b9de148d401", "name": "904b0578dceeb2fd29433b9de148d401", "rental_uris": {"ios": "https://dc.lft.to/lastmile_qr_scan", "android": "https://dc.lft.to/lastmile_qr_scan"}}, {"is_disabled": 0, "fusion_lat": 0.0, "lat": 38.93770033333333, "type": "electric_scooter", "lon": -77.0211095, "is_reserved": 0, "fusion_lon": 0.0, "bike_id": "750ebdca35b5df818856a54fc0673995", "name": "750ebdca35b5df818856a54fc0673995", "rental_uris": {"ios": "https://dc.lft.to/lastmile_qr_scan", "android": "https://dc.lft.to/lastmile_qr_scan"}}, {"is_disabled": 0, "fusion_lat": 0.0, "lat": 38.91823616666667, "type": "electric_scooter", "lon": -77.03527016666666, "is_reserved": 0, "fusion_lon": 0.0, "bike_id": "e04600035c313584c02c98ffc29ba593", "name": "e04600035c313584c02c98ffc29ba593", "rental_uris": {"ios": "https://dc.lft.to/lastmile_qr_scan", "android": "https://dc.lft.to/lastmile_qr_scan"}}, {"is_disabled": 0, "fusion_lat": 0.0, "lat": 38.9408885, "type": "electric_scooter", "lon": -77.02717916666667, "is_reserved": 0, "fusion_lon": 0.0, "bike_id": "6192251039fcb8f893e3d8d21219452b", "name": "6192251039fcb8f893e3d8d21219452b", "rental_uris": {"ios": "https://dc.lft.to/lastmile_qr_scan", "android": "https://dc.lft.to/lastmile_qr_scan"}}, {"is_disabled": 0, "fusion_lat": 0.0, "lat": 38.95085383333333, "type": "electric_scooter", "lon": -77.028342, "is_reserved": 0, "fusion_lon": 0.0, "bike_id": "d003486d7d50957f5755a26e56c1e043", "name": "d003486d7d50957f5755a26e56c1e043", "rental_uris": {"ios": "https://dc.lft.to/lastmile_qr_scan", "android": "https://dc.lft.to/lastmile_qr_scan"}}, {"is_disabled": 0, "fusion_lat": 0.0, "lat": 38.909745, "type": "electric_scooter", "lon": -77.03869883333333, "is_reserved": 0, "fusion_lon": 0.0, "bike_id": "2274e671b691affa4de221e0e149592a", "name": "2274e671b691affa4de221e0e149592a", "rental_uris": {"ios": "https://dc.lft.to/lastmile_qr_scan", "android": "https://dc.lft.to/lastmile_qr_scan"}},