{"data": {"bikes": [{"type": "electric_bike", "name": "5d6872a2e1fdbece84735c760c1e49db", "fusion_lat": 0.0, "fusion_lon": 0.0, "lon": -76.97535866666666, "is_disabled": 0, "bike_id": "5d6872a2e1fdbece84735c760c1e49db", "is_reserved": 0, "rental_uris": {"android": "https://dc.lft.to/lastmile_qr_scan", "ios": "https://dc.lft.to/lastmile_qr_scan"}, "lat": 38.9033165}, {"type": "electric_scooter", "name": "5964c561e1ee5a2eca714c54d2865e38", "fusion_lat": 0.0, "fusion_lon": 0.0, "lon": -77.03506183333333, "is_disabled": 0, "bike_id": "5964c561e1ee5a2eca714c54d2865e38", "is_reserved": 0, "rental_uris": {"android": "https://dc.lft.to/lastmile_qr_scan", "ios": "https://dc.lft.to/lastmile_qr_scan"}, "lat": 38.921591666666664}, {"type": "electric_bike", "name": "a071d095b3f644d8fc134857c3c45390", "fusion_lat": 0.0, "fusion_lon": 0.0, "lon": -77.0037735, "is_disabled": 0, "bike_id": "a071d095b3f644d8fc134857c3c45390", "is_reserved": 0, "rental_uris": {"android": "https://dc.lft.to/lastmile_qr_scan", "ios": "https://dc.lft.to/lastmile_qr_scan"}, "lat": 38.836061}, {"type": "electric_scooter", "name": "9ae5e871b55ad647b9190314484d609e", "fusion_lat": 0.0, "fusion_lon": 0.0, "lon": -77.01855383333333, "is_disabled": 0, "bike_id": "9ae5e871b55ad647b9190314484d609e", "is_reserved": 0, "rental_uris": {"android": "https://dc.lft.to/lastmile_qr_scan", "ios": "https://dc.lft.to/lastmile_qr_scan"}, "lat": 38.9492145}, {"type": "electric_scooter", "name": "15bc5ff5dc2bc0d73c2b71e3d107ca9b", "fusion_lat": 0.0, "fusion_lon": 0.0, "lon": -76.998393, "is_disabled": 0, "bike_id": "15bc5ff5dc2bc0d73c2b71e3d107ca9b", "is_reserved": 0, "rental_uris": {"android": "https://dc.lft.to/lastmile_qr_scan", "ios": "https://dc.lft.to/lastmile_qr_scan"}, "lat": 38.900648833333335}, {"type": "electric_scooter", "name": "7d07c53b52abf329465458175c7fba9a", "fusion_lat": 0.0, "fusion_lon": 0.0, "lon": -77.03729483333333, "is_disabled": 0, "bike_id": "7d07c53b52abf329465458175c7fba9a", "is_reserved": 0, "rental_uris": {"android": "https://dc.lft.to/lastmile_qr_scan", "ios": "https://dc.lft.to/lastmile_qr_scan"}, "lat": 38.92031466666667}, {"type": "electric_scooter", "name": "084fd88adf23cd704cbc65d1df8478e8", "fusion_lat": 0.0, "fusion_lon": 0.0, "lon": -77.01373733333334, "is_disabled": 0, "bike_id": "084fd88adf23cd704cbc65d1df8478e8", "is_reserved": 0, "rental_uris": {"android": "https://dc.lft.to/lastmile_qr_scan", "ios": "https://dc.lft.to/lastmile_qr_scan"}, "lat": 38.87607916666666}, {"type": "electric_scooter", "name": "a64309844db5a7bfe023861b50847bcf", "fusion_lat": 0.0, "fusion_lon": 0.0, "lon": -76.994936, "is_disabled": 0, "bike_id": "a64309844db5a7bfe023861b50847bcf", "is_reserved": 0, "rental_uris": {"android": "https://dc.lft.to/lastmile_qr_scan", "ios": "https://dc.lft.to/lastmile_qr_scan"}, "lat": 38.92582683333333}, {"type": "electric_scooter", "name": "7a42b4981adb234583fd4c690d86ab62", "fusion_lat": 0.0, "fusion_lon": 0.0, "lon": -76.993497, "is_disabled": 0, "bike_id": "7a42b4981adb234583fd4c690d86ab62", "is_reserved": 0, "rental_uris": {"android": "https://dc.lft.to/lastmile_qr_scan", "ios": "https://dc.lft.to/lastmile_qr_scan"}, "lat": 38.90013033333334}, {"type": "electric_scooter", "name": "7e6b3cadac8604590684052b2bceb851", "fusion_lat": 0.0, "fusion_lon": 0.0, "lon": -77.0498535, "is_disabled": 0, "bike_id": "7e6b3cadac8604590684052b2bceb851", "is_reserved": 0, "rental_uris": {"android": "https://dc.lft.to/lastmile_qr_scan", "ios": "https://dc.lft.to/lastmile_qr_scan"}, "lat": 38.901368833333336}, {"type": "electric_bike", "name": "535b6eaa786382566d963e3ad730878f", "fusion_lat": 0.0, "fusion_lon": 0.0, "lon": -76.963236, "is_disabled": 0, "bike_id": "535b6eaa786382566d963e3ad730878f", "is_reserved": 0, "rental_uris": {"android": "https://dc.lft.to/lastmile_qr_scan", "ios": "https://dc.lft.to/lastmile_qr_scan"}, "lat": 38.938987166666664}, {"type": "electric_scooter", "name": "1dcd3284b877eb70ece5f58ffd985f8d", "fusion_lat": 0.0, "fusion_lon": 0.0, "lon": -77.0282145, "is_disabled": 0, "bike_id": "1dcd3284b877eb70ece5f58ffd985f8d", "is_reserved": 0, "rental_uris": {"android": "https://dc.lft.to/lastmile_qr_scan", "ios": "https://dc.lft.to/lastmile_qr_scan"}, "lat": 38.899327}, {"type": "electric_scooter", "name": "cf8a67b05f83589f24cc7e7b9799a809", "fusion_lat": 0.0, "fusion_lon": 0.0, "lon": -77.03643966666667, "is_disabled": 0, "bike_id": "cf8a67b05f83589f24cc7e7b9799a809", "is_reserved": 0, "rental_uris": {"android": "https://dc.lft.to/lastmile_qr_scan", "ios": "https://dc.lft.to/lastmile_qr_scan"}, "lat": 38.9173715}, {"type": "electric_scooter", "name": "2f332df6dd27f488fadd3cb3791f9bd6", "fusion_lat": 0.0, "fusion_lon": 0.0, "lon": -77.02073933333334, "is_disabled": 0, "bike_id": "2f332df6dd27f488fadd3cb3791f9bd6", "is_reserved": 0, "rental_uris": {"android": "https://dc.lft.to/lastmile_qr_scan", "ios": "https://dc.lft.to/lastmile_qr_scan"}, "lat": 38.930271166666664}, {"type": "electric_scooter", "name": "4294e23a812d04e0775ccd5b5b3c16aa", "fusion_lat": 0.0, "fusion_lon": 0.0, "lon": -76.99034933333333, "is_disabled": 0, "bike_id": "4294e23a812d04e0775ccd5b5b3c16aa", "is_reserved": 0, "rental_uris": {"android": "https://dc.lft.to/lastmile_qr_scan", "ios": "https://dc.lft.to/lastmile_qr_scan"}, "lat": 38.888754166666665}, {"type": "electric_scooter", "name": "4a1d808ea10c182705a16af178327958", "fusion_lat": 0.0, "fusion_lon": 0.0, "lon": -77.022872, "is_disabled": 0, "bike_id": "4a1d808ea10c182705a16af178327958", "is_reserved": 0, "rental_uris": {"android": "https://dc.lft.to/lastmile_qr_scan", "ios": "https://dc.lft.to/lastmile_qr_scan"}, "lat": 38.926817}, {"type": "electric_scooter", "name": "f452e3b7a87cc35d470ac1a63891661d", "fusion_lat": 0.0, "fusion_lon": 0.0, "lon": -77.01336483333333, "is_disabled": 0, "bike_id": "f452e3b7a87cc35d470ac1a63891661d", "is_reserved": 0, "rental_uris": {"android": "https://dc.lft.to/lastmile_qr_scan", "ios": "https://dc.lft.to/lastmile_qr_scan"}, "lat": 38.88125566666667}, {"type": "electric_scooter", "name": "c78825702985d19b8cebaf00720f74c9", "fusion_lat": 0.0, "fusion_lon": 0.0, "lon": -77.0256595, "is_disabled": 0, "bike_id": "c78825702985d19b8cebaf00720f74c9", "is_reserved": 0, "rental_uris": {"android": "https://dc.lft.to/lastmile_qr_scan", "ios": "https://dc.lft.to/lastmile_qr_scan"}, "lat": 38.941992166666665}, {"type": "electric_scooter", "name": "e503fa98305e72f24c165e20b62b2641", "fusion_lat": 0.0, "fusion_lon": 0.0, "lon": -77.0436335, "is_disabled": 0, "bike_id": "e503fa98305e72f24c165e20b62b2641", "is_reserved": 0, "rental_uris": {"android": "https://dc.lft.to/lastmile_qr_scan", "ios": "https://dc.lft.to/lastmile_qr_scan"}, "lat": 38.904663666666664}, {"type": "electric_scooter", "name": "ad5741a348533d0ccb7087dca9d8c8ca", "fusion_lat": 0.0, "fusion_lon": 0.0, "lon": -77.02300816666667, "is_disabled": 0, "bike_id": "ad5741a348533d0ccb7087dca9d8c8ca", "is_reserved": 0, "rental_uris": {"android": "https://dc.lft.to/lastmile_qr_scan", "ios": "https://dc.lft.to/lastmile_qr_scan"}, "lat": 38.920847333333334}, {"type": "electric_scooter", "name": "ec5a90ee72a00fb314bb386b025a45c7", "fusion_lat": 0.0, "fusion_lon": 0.0, "lon": -76.98035766666666, "is_disabled": 0, "bike_id": "ec5a90ee72a00fb314bb386b025a45c7", "is_reserved": 0, "rental_uris": {"android": "https://dc.lft.to/lastmile_qr_scan", "ios": "https://dc.lft.to/lastmile_qr_scan"}, "lat": 38.907912}, {"type": "electric_scooter", "name": "03567cdfe7d548b69f3f96dddfb0d92d", "fusion_lat": 0.0, "fusion_lon": 0.0, "lon": -77.03507483333334, "is_disabled": 0, "bike_id": "03567cdfe7d548b69f3f96dddfb0d92d", "is_reserved": 0, "rental_uris": {"android": "https://dc.lft.to/lastmile_qr_scan", "ios": "https://dc.lft.to/lastmile_qr_scan"}, "lat": 38.9215105}, {"type": "electric_scooter", "name": "ee2cdf38d12f6359b99dae470ab80ea7", "fusion_lat": 0.0, "fusion_lon": 0.0, "lon": -77.0326535, "is_disabled": 0, "bike_id": "ee2cdf38d12f6359b99dae470ab80ea7", "is_reserved": 0, "rental_uris": {"android": "https://dc.lft.to/lastmile_qr_scan", "ios": "https://dc.lft.to/lastmile_qr_scan"}, "lat": 38.9330575}, {"type": "electric_bike", "name": "35f0112367ed53ce5ccac093148f8764", "fusion_lat": 0.0, "fusion_lon": 0.0, "lon": -77.09554933333334, "is_disabled": 0, "bike_id": "35f0112367ed53ce5ccac093148f8764", "is_reserved": 0, "rental_uris": {"android": "https://dc.lft.to/lastmile_qr_scan", "ios": "https://dc.lft.to/lastmile_qr_scan"}, "lat": 38.85878316666667}, {"type": "electric_scooter", "name": "967cdedad648076835d18cce6d04f74a", "fusion_lat": 0.0, "fusion_lon": 0.0, "lon": -77.03966433333333, "is_disabled": 0, "bike_id": "967cdedad648076835d18cce6d04f74a", "is_reserved": 0, "rental_uris": {"android": "https://dc.lft.to/lastmile_qr_scan", "ios": "https://dc.lft.to/lastmile_qr_scan"}, "lat": 38.898920833333335}, {"type": "electric_scooter", "name": "bd010402eaf2ad745c8211b4784c53b3", "fusion_lat": 0.0, "fusion_lon": 0.0, "lon": -77.027741, "is_disabled": 0, "bike_id": "bd010402eaf2ad745c8211b4784c53b3", "is_reserved": 0, "rental_uris": {"android": "https://dc.lft.to/lastmile_qr_scan", "ios": "https://dc.lft.to/lastmile_qr_scan"}, "lat": 38.9658425}, {"type": "electric_scooter", "name": "6b6c8c0f9035bade97fd193c48e30d6f", "fusion_lat": 0.0, "fusion_lon": 0.0, "lon": -76.94889283333333, "is_disabled": 0, "bike_id": "6b6c8c0f9035bade97fd193c48e30d6f", "is_reserved": 0, "rental_uris": {"android": "https://dc.lft.to/lastmile_qr_scan", "ios": "https://dc.lft.to/lastmile_qr_scan"}, "lat": 38.8954005}, {"type": "electric_scooter", "name": "a25ed91429d3ccdabfaeef15a9cc2da1", "fusion_lat": 0.0, "fusion_lon": 0.0, "lon": -76.9856895, "is_disabled": 0, "bike_id": "a25ed91429d3ccdabfaeef15a9cc2da1", "is_reserved": 0, "rental_uris": {"android": "https://dc.lft.to/lastmile_qr_scan", "ios": "https://dc.lft.to/lastmile_qr_scan"}, "lat": 38.896176833333335}, {"type": "electric_scooter", "name": "1ef131715e7c8978edfab578510de376", "fusion_lat": 0.0, "fusion_lon": 0.0, "lon": -77.02907583333334, "is_disabled": 0, "bike_id": "1ef131715e7c8978edfab578510de376", "is_reserved": 0, "rental_uris": {"android": "https://dc.lft.to/lastmile_qr_scan", "ios": "https://dc.lft.to/lastmile_qr_scan"}, "lat": 38.9529735}, {"type": "electric_scooter", "name": "d6d01518e1faa51bfb5aa31e2b5871fd", "fusion_lat": 0.0, "fusion_lon": 0.0, "lon": -77.02511883333334, "is_disabled": 0, "bike_id": "d6d01518e1faa51bfb5aa31e2b5871fd", "is_reserved": 0, "rental_uris": {"android": "https://dc.lft.to/lastmile_qr_scan", "ios": "https://dc.lft.to/lastmile_qr_scan"}, "lat": 38.920789166666665}, {"type": "electric_scooter", "name": "e5fd07e5fddda7f2a56a34b4afb17c72", "fusion_lat": 0.0, "fusion_lon": 0.0, "lon": -77.073766, "is_disabled": 0, "bike_id": "e5fd07e5fddda7f2a56a34b4afb17c72", "is_reserved": 0, "rental_uris": {"android": "https://dc.lft.to/lastmile_qr_scan", "ios": "https://dc.lft.to/lastmile_qr_scan"}, "lat": 38.89602683333333}, {"type": "electric_scooter", "name": "deb68e80dec8257f26b405b23c1a41bb", "fusion_lat": 0.0, "fusion_lon": 0.0, "lon": -76.98371083333333, "is_disabled": 0, "bike_id": "deb68e80dec8257f26b405b23c1a41bb", "is_reserved": 0, "rental_uris": {"android": "https://dc.lft.to/lastmile_qr_scan", "ios": "https://dc.lft.to/lastmile_qr_scan"}, "lat": 38.89265733333333}, {"type": "electric_scooter", "name": "3f088bb3da28cfa2a2ab6e5029ad1e33", "fusion_lat": 0.0, "fusion_lon": 0.0, "lon": -77.03627316666666, "is_disabled": 0, "bike_id": "3f088bb3da28cfa2a2ab6e5029ad1e33", "is_reserved": 0, "rental_uris": {"android": "https://dc.lft.to/lastmile_qr_scan", "ios": "https://dc.lft.to/lastmile_qr_scan"}, "lat": 38.903727}, {"type": "electric_bike", "name": "8f8afa76123d465962111f130d9495b8", "fusion_lat": 0.0, "fusion_lon": 0.0, "lon": -77.028087, "is_disabled": 0, "bike_id": "8f8afa76123d465962111f130d9495b8", "is_reserved": 0, "rental_uris": {"android": "https://dc.lft.to/lastmile_qr_scan", "ios": "https://dc.lft.to/lastmile_qr_scan"}, "lat": 38.9660625}, {"type": "electric_scooter", "name": "5cc1943d895e21d656ef1eaeef1a8e25", "fusion_lat": 0.0, "fusion_lon": 0.0, "lon": -77.01999816666667, "is_disabled": 0, "bike_id": "5cc1943d895e21d656ef1eaeef1a8e25", "is_reserved": 0, "rental_uris": {"android": "https://dc.lft.to/lastmile_qr_scan", "ios": "https://dc.lft.to/lastmile_qr_scan"}, "lat": 38.911623666666664}, {"type": "electric_scooter", "name": "1af720276029e7b3b257f561aa8223a8", "fusion_lat": 0.0, "fusion_lon": 0.0, "lon": -77.03185033333334, "is_disabled": 0, "bike_id": "1af720276029e7b3b257f561aa8223a8", "is_reserved": 0, "rental_uris": {"android": "https://dc.lft.to/lastmile_qr_scan", "ios": "https://dc.lft.to/lastmile_qr_scan"}, "lat": 38.91346766666667}, {"type": "electric_bike", "name": "a25b72ed76d9e2a7e5f8e5807da6985e", "fusion_lat": 0.0, "fusion_lon": 0.0, "lon": -77.12737916666667, "is_disabled": 0, "bike_id": "a25b72ed76d9e2a7e5f8e5807da6985e", "is_reserved": 0, "rental_uris": {"android": "https://dc.lft.to/lastmile_qr_scan", "ios": "https://dc.lft.to/lastmile_qr_scan"}, "lat": 38.895658166666664}, {"type": "electric_scooter", "name": "ba972a1bbf69837fa601f5a16c52e432", "fusion_lat": 0.0, "fusion_lon": 0.0, "lon": -77.028094, "is_disabled": 0, "bike_id": "ba972a1bbf69837fa601f5a16c52e432", "is_reserved": 0, "rental_uris": {"android": "https://dc.lft.to/lastmile_qr_scan", "ios": "https://dc.lft.to/lastmile_qr_scan"}, "lat": 38.89943733333333}, {"type": "electric_bike", "name": "1dbbf8098fd1857225284f6ab268ded6", "fusion_lat": 0.0, "fusion_lon": 0.0, "lon": -77.03879166666667, "is_disabled": 0, "bike_id": "1dbbf8098fd1857225284f6ab268ded6", "is_reserved": 0, "rental_uris": {"android": "https://dc.lft.to/lastmile_qr_scan", "ios": "https://dc.lft.to/lastmile_qr_scan"}, "lat": 39.02621533333333}, {"type": "electric_scooter", "name": "31c79275768599377626de5ba6c06135", "fusion_lat": 0.0, "fusion_lon": 0.0, "lon": -77.04349433333333, "is_disabled": 0, "bike_id": "31c79275768599377626de5ba6c06135", "is_reserved": 0, "rental_uris": {"android": "https://dc.lft.to/lastmile_qr_scan", "ios": "https://dc.lft.to/lastmile_qr_scan"}, "lat": 38.91304366666667}, {"type": "electric_scooter", "name": "cde84a8102ae3a9c0f8176fd28e8507e", "fusion_lat": 0.0, "fusion_lon": 0.0, "lon": -77.02540816666667, "is_disabled": 0, "bike_id": "cde84a8102ae3a9c0f8176fd28e8507e", "is_reserved": 0, "rental_uris": {"android": "https://dc.lft.to/lastmile_qr_scan", "ios": "https://dc.lft.to/lastmile_qr_scan"}, "lat": 38.92093166666667}, {"type": "electric_scooter", "name": "d3e6619b6e5617b5d5653289deea6eb0", "fusion_lat": 0.0, "fusion_lon": 0.0, "lon": -77.01132666666666, "is_disabled": 0, "bike_id": "d3e6619b6e5617b5d5653289deea6eb0", "is_reserved": 0, "rental_uris": {"android": "https://dc.lft.to/lastmile_qr_scan", "ios": "https://dc.lft.to/lastmile_qr_scan"}, "lat": 38.8967265}, {"type": "electric_bike", "name": "a601428967e0ca89874e83ff1bc025f3", "fusion_lat": 0.0, "fusion_lon": 0.0, "lon": -77.09623666666667, "is_disabled": 0, "bike_id": "a601428967e0ca89874e83ff1bc025f3", "is_reserved": 0, "rental_uris": {"android": "https://dc.lft.to/lastmile_qr_scan", "ios": "https://dc.lft.to/lastmile_qr_scan"}, "lat": 38.95255083333333}, {"type": "electric_scooter", "name": "e496864f480df53a2d8810d9211418bf", "fusion_lat": 0.0, "fusion_lon": 0.0, "lon": -76.9457705, "is_disabled": 0, "bike_id": "e496864f480df53a2d8810d9211418bf", "is_reserved": 0, "rental_uris": {"android": "https://dc.lft.to/lastmile_qr_scan", "ios": "https://dc.lft.to/lastmile_qr_scan"}, "lat": 38.899223}, {"type": "electric_scooter", "name": "a95831e24b49ac50f847b81ead47c950", "fusion_lat": 0.0, "fusion_lon": 0.0, "lon": -77.02381516666667, "is_disabled": 0, "bike_id": "a95831e24b49ac50f847b81ead47c950", "is_reserved": 0, "rental_uris": {"android": "https://dc.lft.to/lastmile_qr_scan", "ios": "https://dc.lft.to/lastmile_qr_scan"}, "lat": 38.89197466666667}, {"type": "electric_scooter", "name": "4e132dcb866d86022ba6d289fa7a9a7a", "fusion_lat": 0.0, "fusion_lon": 0.0, "lon": -77.03481233333333, "is_disabled": 0, "bike_id": "4e132dcb866d86022ba6d289fa7a9a7a", "is_reserved": 0, "rental_uris": {"android": "https://dc.lft.to/lastmile_qr_scan", "ios": "https://dc.lft.to/lastmile_qr_scan"}, "lat": 38.928812666666666}, {"type": "electric_scooter", "name": "cbb43a574a4914f4f9c82d93a80dd9d1", "fusion_lat": 0.0, "fusion_lon": 0.0, "lon": -77.03419716666667, "is_disabled": 0, "bike_id": "cbb43a574a4914f4f9c82d93a80dd9d1", "is_reserved": 0, "rental_uris": {"android": "https://dc.lft.to/lastmile_qr_scan", "ios": "https://dc.lft.to/lastmile_qr_scan"}, "lat": 38.90271283333333}, {"type": "electric_scooter", "name": "85109eb77f7838e5b5448a2b5175b025", "fusion_lat": 0.0, "fusion_lon": 0.0, "lon": -77.03405483333333, "is_disabled": 0, "bike_id": "85109eb77f7838e5b5448a2b5175b025", "is_reserved": 0, "rental_uris": {"android": "https://dc.lft.to/lastmile_qr_scan", "ios": "https://dc.lft.to/lastmile_qr_scan"}, "lat": 38.9255605}, {"type": "electric_scooter", "name": "d8248ee542b93e434ac622157308c4f3", "fusion_lat": 0.0, "fusion_lon": 0.0, "lon": -77.00583366666666, "is_disabled": 0, "bike_id": "d8248ee542b93e434ac622157308c4f3", "is_reserved": 0, "rental_uris": {"android": "https://dc.lft.to/lastmile_qr_scan", "ios": "https://dc.lft.to/lastmile_qr_scan"}, "lat": 38.9056025}, {"type": "electric_scooter", "name": "3b872b4ff59044be8c2ae6e2c7f31fe4", "fusion_lat": 0.0, "fusion_lon": 0.0, "lon": -76.996333, "is_disabled": 0, "bike_id": "3b872b4ff59044be8c2ae6e2c7f31fe4", "is_reserved": 0, "rental_uris": {"android": "https://dc.lft.to/lastmile_qr_scan", "ios": "https://dc.lft.to/lastmile_qr_scan"}, "lat": 38.90532733333333}, {"type": "electric_scooter", "name": "eee024073e9294489cca88f5c4332649", "fusion_lat": 0.0, "fusion_lon": 0.0, "lon": -77.04330016666667, "is_disabled": 0, "bike_id": "eee024073e9294489cca88f5c4332649", "is_reserved": 0, "rental_uris": {"android": "https://dc.lft.to/lastmile_qr_scan", "ios": "https://dc.lft.to/lastmile_qr_scan"}, "lat": 38.922262833333335}, {"type": "electric_scooter", "name": "15f69b672054bc84c756ae4d28979093", "fusion_lat": 0.0, "fusion_lon": 0.0, "lon": -77.03262316666667, "is_disabled": 0, "bike_id": "15f69b672054bc84c756ae4d28979093", "is_reserved": 0, "rental_uris": {"android": "https://dc.lft.to/lastmile_qr_scan", "ios": "https://dc.lft.to/lastmile_qr_scan"}, "lat": 38.91990366666667}, {"type": "electric_scooter", "name": "015b62c5bd2436e71c733ee4abe1e2e5", "fusion_lat": 0.0, "fusion_lon": 0.0, "lon": -77.04335716666667, "is_disabled": 0, "bike_id": "015b62c5bd2436e71c733ee4abe1e2e5", "is_reserved": 0, "rental_uris": {"android": "https://dc.lft.to/lastmile_qr_scan", "ios": "https://dc.lft.to/lastmile_qr_scan"}, "lat": 38.92166366666667}, {"type": "electric_scooter", "name": "b8fb15ac644263db1d2827214bf12d9d", "fusion_lat": 0.0, "fusion_lon": 0.0, "lon": -77.03072883333333, "is_disabled": 0, "bike_id": "b8fb15ac644263db1d2827214bf12d9d", "is_reserved": 0, "rental_uris": {"android": "https://dc.lft.to/lastmile_qr_scan", "ios": "https://dc.lft.to/lastmile_qr_scan"}, "lat": 38.92250283333333}, {"type": "electric_scooter", "name": "89d121173d7fa0315a461cd52aa2c64a", "fusion_lat": 0.0, "fusion_lon": 0.0, "lon": -77.04248766666667, "is_disabled": 0, "bike_id": "89d121173d7fa0315a461cd52aa2c64a", "is_reserved": 0, "rental_uris": {"android": "https://dc.lft.to/lastmile_qr_scan", "ios": "https://dc.lft.to/lastmile_qr_scan"}, "lat": 38.919689166666664}, {"type": "electric_scooter", "name": "66fbf15a193039873484255fc316af25", "fusion_lat": 0.0, "fusion_lon": 0.0, "lon": -76.980991, "is_disabled": 0, "bike_id": "66fbf15a193039873484255fc316af25", "is_reserved": 0, "rental_uris": {"android": "https://dc.lft.to/lastmile_qr_scan", "ios": "https://dc.lft.to/lastmile_qr_scan"}, "lat": 38.8572045}, {"type": "electric_scooter", "name": "38c5724d237791cd92b919dfd6d533a2", "fusion_lat": 0.0, "fusion_lon": 0.0, "lon": -77.04175383333333, "is_disabled": 0, "bike_id": "38c5724d237791cd92b919dfd6d533a2", "is_reserved": 0, "rental_uris": {"android": "https://dc.lft.to/lastmile_qr_scan", "ios": "https://dc.lft.to/lastmile_qr_scan"}, "lat": 38.915562333333334}, {"type": "electric_scooter", "name": "2535198e3c29c9a003e67b6e5f69781d", "fusion_lat": 0.0, "fusion_lon": 0.0, "lon": -76.99102166666667, "is_disabled": 0, "bike_id": "2535198e3c29c9a003e67b6e5f69781d", "is_reserved": 0, "rental_uris": {"android": "https://dc.lft.to/lastmile_qr_scan", "ios": "https://dc.lft.to/lastmile_qr_scan"}, "lat": 38.857308333333336}, {"type": "electric_scooter", "name": "07a8e0a222df0c568534c98fbbc4caf3", "fusion_lat": 0.0, "fusion_lon": 0.0, "lon": -77.00598383333333, "is_disabled": 0, "bike_id": "07a8e0a222df0c568534c98fbbc4caf3", "is_reserved": 0, "rental_uris": {"android": "https://dc.lft.to/lastmile_qr_scan", "ios": "https://dc.lft.to/lastmile_qr_scan"}, "lat": 38.9056415}, {"type": "electric_scooter", "name": "7b487168894fe1b95d35dcd6628137bf", "fusion_lat": 0.0, "fusion_lon": 0.0, "lon": -77.0250675, "is_disabled": 0, "bike_id": "7b487168894fe1b95d35dcd6628137bf", "is_reserved": 0, "rental_uris": {"android": "https://dc.lft.to/lastmile_qr_scan", "ios": "https://dc.lft.to/lastmile_qr_scan"}, "lat": 38.935507}, {"type": "electric_bike", "name": "2aa27c3edaa9b17935c09ddc3a2010f7", "fusion_lat": 0.0, "fusion_lon": 0.0, "lon": -77.12674683333333, "is_disabled": 0, "bike_id": "2aa27c3edaa9b17935c09ddc3a2010f7", "is_reserved": 0, "rental_uris": {"android": "https://dc.lft.to/lastmile_qr_scan", "ios": "https://dc.lft.to/lastmile_qr_scan"}, "lat": 38.81921466666667}, {"type": "electric_scooter", "name": "3a2649c324feab84a8a90d7ba42c6858", "fusion_lat": 0.0, "fusion_lon": 0.0, "lon": -77.0320465, "is_disabled": 0, "bike_id": "3a2649c324feab84a8a90d7ba42c6858", "is_reserved": 0, "rental_uris": {"android": "https://dc.lft.to/lastmile_qr_scan", "ios": "https://dc.lft.to/lastmile_qr_scan"}, "lat": 38.91315783333334}, {"type": "electric_scooter", "name": "f055a3f65dada9bca836b986c6318f65", "fusion_lat": 0.0, "fusion_lon": 0.0, "lon": -77.04401583333333, "is_disabled": 0, "bike_id": "f055a3f65dada9bca836b986c6318f65", "is_reserved": 0, "rental_uris": {"android": "https://dc.lft.to/lastmile_qr_scan", "ios": "https://dc.lft.to/lastmile_qr_scan"}, "lat": 38.920615}, {"type": "electric_bike", "name": "c00f95a70a9ee1664fbcbcc7fa61e585", "fusion_lat": 0.0, "fusion_lon": 0.0, "lon": -77.08529183333333, "is_disabled": 0, "bike_id": "c00f95a70a9ee1664fbcbcc7fa61e585", "is_reserved": 0, "rental_uris": {"android": "https://dc.lft.to/lastmile_qr_scan", "ios": "https://dc.lft.to/lastmile_qr_scan"}, "lat": 38.856523}, {"type": "electric_scooter", "name": "754e69ed8a93e0312b4c02a8d6577916", "fusion_lat": 0.0, "fusion_lon": 0.0, "lon": -77.0054685, "is_disabled": 0, "bike_id": "754e69ed8a93e0312b4c02a8d6577916", "is_reserved": 0, "rental_uris": {"android": "https://dc.lft.to/lastmile_qr_scan", "ios": "https://dc.lft.to/lastmile_qr_scan"}, "lat": 38.8764525}, {"type": "electric_scooter", "name": "e5d0797457c982679194644444e33cab", "fusion_lat": 0.0, "fusion_lon": 0.0, "lon": -77.03429166666666, "is_disabled": 0, "bike_id": "e5d0797457c982679194644444e33cab", "is_reserved": 0, "rental_uris": {"android": "https://dc.lft.to/lastmile_qr_scan", "ios": "https://dc.lft.to/lastmile_qr_scan"}, "lat": 38.909741833333335}, {"type": "electric_scooter", "name": "9c86dffcd344a85849b8fecc0d4810d8", "fusion_lat": 0.0, "fusion_lon": 0.0, "lon": -77.01091183333334, "is_disabled": 0, "bike_id": "9c86dffcd344a85849b8fecc0d4810d8", "is_reserved": 0, "rental_uris": {"android": "https://dc.lft.to/lastmile_qr_scan", "ios": "https://dc.lft.to/lastmile_qr_scan"}, "lat": 38.916319333333334}, {"type": "electric_scooter", "name": "5bc996b6942e267b2d65b24b76050be8", "fusion_lat": 0.0, "fusion_lon": 0.0, "lon": -77.04437516666667, "is_disabled": 0, "bike_id": "5bc996b6942e267b2d65b24b76050be8", "is_reserved": 0, "rental_uris": {"android": "https://dc.lft.to/lastmile_qr_scan", "ios": "https://dc.lft.to/lastmile_qr_scan"}, "lat": 38.922291666666666}, {"type": "electric_scooter", "name": "432f5c171ebd62b13aabd362a5005d2c", "fusion_lat": 0.0, "fusion_lon": 0.0, "lon": -76.99751833333333, "is_disabled": 0, "bike_id": "432f5c171ebd62b13aabd362a5005d2c", "is_reserved": 0, "rental_uris": {"android": "https://dc.lft.to/lastmile_qr_scan", "ios": "https://dc.lft.to/lastmile_qr_scan"}, "lat": 38.90037683333333}, {"type": "electric_scooter", "name": "1e003fb1f36a02ff4314ac4bff4a5756", "fusion_lat": 0.0, "fusion_lon": 0.0, "lon": -77.02273716666667, "is_disabled": 0, "bike_id": "1e003fb1f36a02ff4314ac4bff4a5756", "is_reserved": 0, "rental_uris": {"android": "https://dc.lft.to/lastmile_qr_scan", "ios": "https://dc.lft.to/lastmile_qr_scan"}, "lat": 38.89860216666667}, {"type": "electric_scooter", "name": "ba4bd7cd54a223410720a749d814919a", "fusion_lat": 0.0, "fusion_lon": 0.0, "lon": -76.9991185, "is_disabled": 0, "bike_id": "ba4bd7cd54a223410720a749d814919a", "is_reserved": 0, "rental_uris": {"android": "https://dc.lft.to/lastmile_qr_scan", "ios": "https://dc.lft.to/lastmile_qr_scan"}, "lat": 38.924560666666665}, {"type": "electric_bike", "name": "5e3b176053bb220349e6c463f8e449ed", "fusion_lat": 0.0, "fusion_lon": 0.0, "lon": -77.1284105, "is_disabled": 0, "bike_id": "5e3b176053bb220349e6c463f8e449ed", "is_reserved": 0, "rental_uris": {"android": "https://dc.lft.to/lastmile_qr_scan", "ios": "https://dc.lft.to/lastmile_qr_scan"}, "lat": 38.8005355}, {"type": "electric_scooter", "name": "5685cf559130238dee324508966d286c", "fusion_lat": 0.0, "fusion_lon": 0.0, "lon": -77.04292833333334, "is_disabled": 0, "bike_id": "5685cf559130238dee324508966d286c", "is_reserved": 0, "rental_uris": {"android": "https://dc.lft.to/lastmile_qr_scan", "ios": "https://dc.lft.to/lastmile_qr_scan"}, "lat": 38.931844166666664}, {"type": "electric_scooter", "name": "7fc873080d75981972ddc9b27cff5d46", "fusion_lat": 0.0, "fusion_lon": 0.0, "lon": -77.01992916666667, "is_disabled": 0, "bike_id": "7fc873080d75981972ddc9b27cff5d46", "is_reserved": 0, "rental_uris": {"android": "https://dc.lft.to/lastmile_qr_scan", "ios": "https://dc.lft.to/lastmile_qr_scan"}, "lat": 38.87615783333333}, {"type": "electric_scooter", "name": "08f067c0b942bcc3b9854d87522babb3", "fusion_lat": 0.0, "fusion_lon": 0.0, "lon": -77.00473733333334, "is_disabled": 0, "bike_id": "08f067c0b942bcc3b9854d87522babb3", "is_reserved": 0, "rental_uris": {"android": "https://dc.lft.to/lastmile_qr_scan", "ios": "https://dc.lft.to/lastmile_qr_scan"}, "lat": 38.87842966666667}, {"type": "electric_scooter", "name": "8b84b431efc57e8cfd15a0e808aac734", "fusion_lat": 0.0, "fusion_lon": 0.0, "lon": -77.00441233333333, "is_disabled": 0, "bike_id": "8b84b431efc57e8cfd15a0e808aac734", "is_reserved": 0, "rental_uris": {"android": "https://dc.lft.to/lastmile_qr_scan", "ios": "https://dc.lft.to/lastmile_qr_scan"}, "lat": 38.911953}, {"type": "electric_scooter", "name": "a02cb6e70d862f0648d26c6fab7f08a5", "fusion_lat": 0.0, "fusion_lon": 0.0, "lon": -77.03956583333333, "is_disabled": 0, "bike_id": "a02cb6e70d862f0648d26c6fab7f08a5", "is_reserved": 0, "rental_uris": {"android": "https://dc.lft.to/lastmile_qr_scan", "ios": "https://dc.lft.to/lastmile_qr_scan"}, "lat": 38.8924175}, {"type": "electric_scooter", "name": "1817b53d1e1c051fa1b12f347101e41a", "fusion_lat": 0.0, "fusion_lon": 0.0, "lon": -77.002254, "is_disabled": 0, "bike_id": "1817b53d1e1c051fa1b12f347101e41a", "is_reserved": 0, "rental_uris": {"android": "https://dc.lft.to/lastmile_qr_scan", "ios": "https://dc.lft.to/lastmile_qr_scan"}, "lat": 38.90026816666666}, {"type": "electric_scooter", "name": "8bf0591218f3f2826b284e430766fb3a", "fusion_lat": 0.0, "fusion_lon": 0.0, "lon": -77.0417505, "is_disabled": 0, "bike_id": "8bf0591218f3f2826b284e430766fb3a", "is_reserved": 0, "rental_uris": {"android": "https://dc.lft.to/lastmile_qr_scan", "ios": "https://dc.lft.to/lastmile_qr_scan"}, "lat": 38.913992}, {"type": "electric_scooter", "name": "d31e6285e5e968296dc11dca323e4dc9", "fusion_lat": 0.0, "fusion_lon": 0.0, "lon": -76.98184666666667, "is_disabled": 0, "bike_id": "d31e6285e5e968296dc11dca323e4dc9", "is_reserved": 0, "rental_uris": {"android": "https://dc.lft.to/lastmile_qr_scan", "ios": "https://dc.lft.to/lastmile_qr_scan"}, "lat": 38.90580533333333}, {"type": "electric_scooter", "name": "82d9d63f4ea05209b1950e973e2b144c", "fusion_lat": 0.0, "fusion_lon": 0.0, "lon": -77.01636733333333, "is_disabled": 0, "bike_id": "82d9d63f4ea05209b1950e973e2b144c", "is_reserved": 0, "rental_uris": {"android": "https://dc.lft.to/lastmile_qr_scan", "ios": "https://dc.lft.to/lastmile_qr_scan"}, "lat": 38.903826333333335}, {"type": "electric_scooter", "name": "7d69d418ea2d366810cbe211ae1f3b74", "fusion_lat": 0.0, "fusion_lon": 0.0, "lon": -77.01918366666666, "is_disabled": 0, "bike_id": "7d69d418ea2d366810cbe211ae1f3b74", "is_reserved": 0, "rental_uris": {"android": "https://dc.lft.to/lastmile_qr_scan", "ios": "https://dc.lft.to/lastmile_qr_scan"}, "lat": 38.917326}, {"type": "electric_scooter", "name": "1c63355a14dba4df77f89002e0f64dc9", "fusion_lat": 0.0, "fusion_lon": 0.0, "lon": -76.98544366666667, "is_disabled": 0, "bike_id": "1c63355a14dba4df77f89002e0f64dc9", "is_reserved": 0, "rental_uris": {"android": "https://dc.lft.to/lastmile_qr_scan", "ios": "https://dc.lft.to/lastmile_qr_scan"}, "lat": 38.907060666666666}, {"type": "electric_scooter", "name": "d7300a970f49849512c976747d177876", "fusion_lat": 0.0, "fusion_lon": 0.0, "lon": -77.018392, "is_disabled": 0, "bike_id": "d7300a970f49849512c976747d177876", "is_reserved": 0, "rental_uris": {"android": "https://dc.lft.to/lastmile_qr_scan", "ios": "https://dc.lft.to/lastmile_qr_scan"}, "lat": 38.921434}, {"type": "electric_scooter", "name": "f6d5a38335a72088aa57778982e4f3f5", "fusion_lat": 0.0, "fusion_lon": 0.0, "lon": -77.02203416666667, "is_disabled": 0, "bike_id": "f6d5a38335a72088aa57778982e4f3f5", "is_reserved": 0, "rental_uris": {"android": "https://dc.lft.to/lastmile_qr_scan", "ios": "https://dc.lft.to/lastmile_qr_scan"}, "lat": 38.914371333333335}, {"type": "electric_scooter", "name": "c05c16bc6d0db74000a8a19b3ef3b387", "fusion_lat": 0.0, "fusion_lon": 0.0, "lon": -77.01560933333333, "is_disabled": 0, "bike_id": "c05c16bc6d0db74000a8a19b3ef3b387", "is_reserved": 0, "rental_uris": {"android": "https://dc.lft.to/lastmile_qr_scan", "ios": "https://dc.lft.to/lastmile_qr_scan"}, "lat": 38.88343016666666}, {"type": "electric_scooter", "name": "b3216a732e9111f1cb85d27e88f8f156", "fusion_lat": 0.0, "fusion_lon": 0.0, "lon": -77.04989733333333, "is_disabled": 0, "bike_id": "b3216a732e9111f1cb85d27e88f8f156", "is_reserved": 0, "rental_uris": {"android": "https://dc.lft.to/lastmile_qr_scan", "ios": "https://dc.lft.to/lastmile_qr_scan"}, "lat": 38.901257666666666}, {"type": "electric_bike", "name": "d977fefbd0fef6fda6ea2fe96eb92dd3", "fusion_lat": 0.0, "fusion_lon": 0.0, "lon": -76.95062083333333, "is_disabled": 0, "bike_id": "d977fefbd0fef6fda6ea2fe96eb92dd3", "is_reserved": 0, "rental_uris": {"android": "https://dc.lft.to/lastmile_qr_scan", "ios": "https://dc.lft.to/lastmile_qr_scan"}, "lat": 39.08510583333333}, {"type": "electric_scooter", "name": "935a118e92a863cb4efe2f1110db8c51", "fusion_lat": 0.0, "fusion_lon": 0.0, "lon": -77.07333516666667, "is_disabled": 0, "bike_id": "935a118e92a863cb4efe2f1110db8c51", "is_reserved": 0, "rental_uris": {"android": "https://dc.lft.to/lastmile_qr_scan", "ios": "https://dc.lft.to/lastmile_qr_scan"}, "lat": 38.926121}, {"type": "electric_scooter", "name": "05499e1ac7fb5a2b94f906672b81e78b", "fusion_lat": 0.0, "fusion_lon": 0.0, "lon": -77.01995616666666, "is_disabled": 0, "bike_id": "05499e1ac7fb5a2b94f906672b81e78b", "is_reserved": 0, "rental_uris": {"android": "https://dc.lft.to/lastmile_qr_scan", "ios": "https://dc.lft.to/lastmile_qr_scan"}, "lat": 38.9305455}, {"type": "electric_scooter", "name": "0160e1eb4a5efa6489b7c30d0f5e5906", "fusion_lat": 0.0, "fusion_lon": 0.0, "lon": -77.034833, "is_disabled": 0, "bike_id": "0160e1eb4a5efa6489b7c30d0f5e5906", "is_reserved": 0, "rental_uris": {"android": "https://dc.lft.to/lastmile_qr_scan", "ios": "https://dc.lft.to/lastmile_qr_scan"}, "lat": 38.9248765}, {"type": "electric_bike", "name": "f522c46f9102a20005f8115d734285db", "fusion_lat": 0.0, "fusion_lon": 0.0, "lon": -77.04648416666667, "is_disabled": 0, "bike_id": "f522c46f9102a20005f8115d734285db", "is_reserved": 0, "rental_uris": {"android": "https://dc.lft.to/lastmile_qr_scan", "ios": "https://dc.lft.to/lastmile_qr_scan"}, "lat": 38.815482833333334}, {"type": "electric_scooter", "name": "b457551c356f11982fce5d7084dc8442", "fusion_lat": 0.0, "fusion_lon": 0.0, "lon": -77.01386633333334, "is_disabled": 0, "bike_id": "b457551c356f11982fce5d7084dc8442", "is_reserved": 0, "rental_uris": {"android": "https://dc.lft.to/lastmile_qr_scan", "ios": "https://dc.lft.to/lastmile_qr_scan"}, "lat": 38.91113383333333}, {"type": "electric_scooter", "name": "162947bbed29775f3c286d58e8cb51c6", "fusion_lat": 0.0, "fusion_lon": 0.0, "lon": -77.032118, "is_disabled": 0, "bike_id": "162947bbed29775f3c286d58e8cb51c6", "is_reserved": 0, "rental_uris": {"android": "https://dc.lft.to/lastmile_qr_scan", "ios": "https://dc.lft.to/lastmile_qr_scan"}, "lat": 38.920762833333335}, {"type": "electric_scooter", "name": "80db417e08ada40afb994b4585e4e6bb", "fusion_lat": 0.0, "fusion_lon": 0.0, "lon": -77.02251866666667, "is_disabled": 0, "bike_id": "80db417e08ada40afb994b4585e4e6bb", "is_reserved": 0, "rental_uris": {"android": "https://dc.lft.to/lastmile_qr_scan", "ios": "https://dc.lft.to/lastmile_qr_scan"}, "lat": 38.8997045}, {"type": "electric_bike", "name": "ed71cd017073f5cc21ffe24e55afcf13", "fusion_lat": 0.0, "fusion_lon": 0.0, "lon": -77.12977966666666, "is_disabled": 0, "bike_id": "ed71cd017073f5cc21ffe24e55afcf13", "is_reserved": 0, "rental_uris": {"android": "https://dc.lft.to/lastmile_qr_scan", "ios": "https://dc.lft.to/lastmile_qr_scan"}, "lat": 38.799881166666665}, {"type": "electric_scooter", "name": "be320dca2b2883343ed55a91309612ec", "fusion_lat": 0.0, "fusion_lon": 0.0, "lon": -76.9880555, "is_disabled": 0, "bike_id": "be320dca2b2883343ed55a91309612ec", "is_reserved": 0, "rental_uris": {"android": "https://dc.lft.to/lastmile_qr_scan", "ios": "https://dc.lft.to/lastmile_qr_scan"}, "lat": 38.89361683333333}, {"type": "electric_scooter", "name": "c63692ae3103fe15b06e27712903aae2", "fusion_lat": 0.0, "fusion_lon": 0.0, "lon": -76.97960333333333, "is_disabled": 0, "bike_id": "c63692ae3103fe15b06e27712903aae2", "is_reserved": 0, "rental_uris": {"android": "https://dc.lft.to/lastmile_qr_scan", "ios": "https://dc.lft.to/lastmile_qr_scan"}, "lat": 38.897896}, {"type": "electric_bike", "name": "cecc71a0b9bff6de0f8313ccd0a7adb2", "fusion_lat": 0.0, "fusion_lon": 0.0, "lon": -76.95249416666667, "is_disabled": 0, "bike_id": "cecc71a0b9bff6de0f8313ccd0a7adb2", "is_reserved": 0, "rental_uris": {"android": "https://dc.lft.to/lastmile_qr_scan", "ios": "https://dc.lft.to/lastmile_qr_scan"}, "lat": 38.906985}, {"type": "electric_scooter", "name": "30181a30a1cb151d82cd383d88cbdbcf", "fusion_lat": 0.0, "fusion_lon": 0.0, "lon": -76.97993366666667, "is_disabled": 0, "bike_id": "30181a30a1cb151d82cd383d88cbdbcf", "is_reserved": 0, "rental_uris": {"android": "https://dc.lft.to/lastmile_qr_scan", "ios": "https://dc.lft.to/lastmile_qr_scan"}, "lat": 38.894459833333336}, {"type": "electric_scooter", "name": "576d6adfcbe7d7cd23f8f5726e5f10d2", "fusion_lat": 0.0, "fusion_lon": 0.0, "lon": -77.0264225, "is_disabled": 0, "bike_id": "576d6adfcbe7d7cd23f8f5726e5f10d2", "is_reserved": 0, "rental_uris": {"android": "https://dc.lft.to/lastmile_qr_scan", "ios": "https://dc.lft.to/lastmile_qr_scan"}, "lat": 38.902755}, {"type": "electric_scooter", "name": "0d88076d8915c49071ea58f193995f8a", "fusion_lat": 0.0, "fusion_lon": 0.0, "lon": -77.00015916666666, "is_disabled": 0, "bike_id": "0d88076d8915c49071ea58f193995f8a", "is_reserved": 0, "rental_uris": {"android": "https://dc.lft.to/lastmile_qr_scan", "ios": "https://dc.lft.to/lastmile_qr_scan"}, "lat": 38.873984166666666}, {"type": "electric_scooter", "name": "296838b755a204a62af558eeca3c1061", "fusion_lat": 0.0, "fusion_lon": 0.0, "lon": -77.03068666666667, "is_disabled": 0, "bike_id": "296838b755a204a62af558eeca3c1061", "is_reserved": 0, "rental_uris": {"android": "https://dc.lft.to/lastmile_qr_scan", "ios": "https://dc.lft.to/lastmile_qr_scan"}, "lat": 38.905721666666665}, {"type": "electric_scooter", "name": "27d1067da651dd4984d55f82658b1c7a", "fusion_lat": 0.0, "fusion_lon": 0.0, "lon": -77.0328705, "is_disabled": 0, "bike_id": "27d1067da651dd4984d55f82658b1c7a", "is_reserved": 0, "rental_uris": {"android": "https://dc.lft.to/lastmile_qr_scan", "ios": "https://dc.lft.to/lastmile_qr_scan"}, "lat": 38.93155216666667}, {"type": "electric_scooter", "name": "17293f8eacf5822a58c1856d910a9f33", "fusion_lat": 0.0, "fusion_lon": 0.0, "lon": -77.02176483333334, "is_disabled": 0, "bike_id": "17293f8eacf5822a58c1856d910a9f33", "is_reserved": 0, "rental_uris": {"android": "https://dc.lft.to/lastmile_qr_scan", "ios": "https://dc.lft.to/lastmile_qr_scan"}, "lat": 38.920018}, {"type": "electric_scooter", "name": "9ced5f8a3a729c4cb8d8a596e4cb5b35", "fusion_lat": 0.0, "fusion_lon": 0.0, "lon": -77.01822783333333, "is_disabled": 0, "bike_id": "9ced5f8a3a729c4cb8d8a596e4cb5b35", "is_reserved": 0, "rental_uris": {"android": "https://dc.lft.to/lastmile_qr_scan", "ios": "https://dc.lft.to/lastmile_qr_scan"}, "lat": 38.92215983333333}, {"type": "electric_scooter", "name": "3a4032de0e40d602a1b5215cf0ae0ad0", "fusion_lat": 0.0, "fusion_lon": 0.0, "lon": -77.0317455, "is_disabled": 0, "bike_id": "3a4032de0e40d602a1b5215cf0ae0ad0", "is_reserved": 0, "rental_uris": {"android": "https://dc.lft.to/lastmile_qr_scan", "ios": "https://dc.lft.to/lastmile_qr_scan"}, "lat": 38.91833366666667}, {"type": "electric_scooter", "name": "20a06be00a433ada1f9d8129264d31f8", "fusion_lat": 0.0, "fusion_lon": 0.0, "lon": -77.03604, "is_disabled": 0, "bike_id": "20a06be00a433ada1f9d8129264d31f8", "is_reserved": 0, "rental_uris": {"android": "https://dc.lft.to/lastmile_qr_scan", "ios": "https://dc.lft.to/lastmile_qr_scan"}, "lat": 38.92783766666667}, {"type": "electric_scooter", "name": "2c26cd7ffc021ed8fea1f15296f1e7b7", "fusion_lat": 0.0, "fusion_lon": 0.0, "lon": -77.01898016666667, "is_disabled": 0, "bike_id": "2c26cd7ffc021ed8fea1f15296f1e7b7", "is_reserved": 0, "rental_uris": {"android": "https://dc.lft.to/lastmile_qr_scan", "ios": "https://dc.lft.to/lastmile_qr_scan"}, "lat": 38.899531833333334}, {"type": "electric_scooter", "name": "3f3df0dbd928b8c39f11400d507c9ece", "fusion_lat": 0.0, "fusion_lon": 0.0, "lon": -77.01544733333333, "is_disabled": 0, "bike_id": "3f3df0dbd928b8c39f11400d507c9ece", "is_reserved": 0, "rental_uris": {"android": "https://dc.lft.to/lastmile_qr_scan", "ios": "https://dc.lft.to/lastmile_qr_scan"}, "lat": 38.90263366666667}, {"type": "electric_bike", "name": "45abfb13fcfc3e164a4905e80b7e7263", "fusion_lat": 0.0, "fusion_lon": 0.0, "lon": -77.1072155, "is_disabled": 0, "bike_id": "45abfb13fcfc3e164a4905e80b7e7263", "is_reserved": 0, "rental_uris": {"android": "https://dc.lft.to/lastmile_qr_scan", "ios": "https://dc.lft.to/lastmile_qr_scan"}, "lat": 38.855359666666665}, {"type": "electric_scooter", "name": "13850991b21362277474361cebdd7d7e", "fusion_lat": 0.0, "fusion_lon": 0.0, "lon": -77.01463283333334, "is_disabled": 0, "bike_id": "13850991b21362277474361cebdd7d7e", "is_reserved": 0, "rental_uris": {"android": "https://dc.lft.to/lastmile_qr_scan", "ios": "https://dc.lft.to/lastmile_qr_scan"}, "lat": 38.9266765}, {"type": "electric_scooter", "name": "3d95c28c63037c1b5bcc308263179165", "fusion_lat": 0.0, "fusion_lon": 0.0, "lon": -77.053372, "is_disabled": 0, "bike_id": "3d95c28c63037c1b5bcc308263179165", "is_reserved": 0, "rental_uris": {"android": "https://dc.lft.to/lastmile_qr_scan", "ios": "https://dc.lft.to/lastmile_qr_scan"}, "lat": 38.92323}, {"type": "electric_scooter", "name": "bb64e5a5b6a1166facebf1d07609c64d", "fusion_lat": 0.0, "fusion_lon": 0.0, "lon": -77.03435366666666, "is_disabled": 0, "bike_id": "bb64e5a5b6a1166facebf1d07609c64d", "is_reserved": 0, "rental_uris": {"android": "https://dc.lft.to/lastmile_qr_scan", "ios": "https://dc.lft.to/lastmile_qr_scan"}, "lat": 38.9180685}, {"type": "electric_scooter", "name": "7ff63a90879b496fa26e934519908300", "fusion_lat": 0.0, "fusion_lon": 0.0, "lon": -77.01335533333334, "is_disabled": 0, "bike_id": "7ff63a90879b496fa26e934519908300", "is_reserved": 0, "rental_uris": {"android": "https://dc.lft.to/lastmile_qr_scan", "ios": "https://dc.lft.to/lastmile_qr_scan"}, "lat": 38.881324166666666}, {"type": "electric_scooter", "name": "c5140f2ed8dd4b88a42d1ec30b9c3c55", "fusion_lat": 0.0, "fusion_lon": 0.0, "lon": -77.0180245, "is_disabled": 0, "bike_id": "c5140f2ed8dd4b88a42d1ec30b9c3c55", "is_reserved": 0, "rental_uris": {"android": "https://dc.lft.to/lastmile_qr_scan", "ios": "https://dc.lft.to/lastmile_qr_scan"}, "lat": 38.9212445}, {"type": "electric_scooter", "name": "8eb224fd215f703659be53d39f9d588e", "fusion_lat": 0.0, "fusion_lon": 0.0, "lon": -77.03792683333333, "is_disabled": 0, "bike_id": "8eb224fd215f703659be53d39f9d588e", "is_reserved": 0, "rental_uris": {"android": "https://dc.lft.to/lastmile_qr_scan", "ios": "https://dc.lft.to/lastmile_qr_scan"}, "lat": 38.933241833333334}, {"type": "electric_scooter", "name": "d819c0e1f05b74bd1f76b342f46e41a7", "fusion_lat": 0.0, "fusion_lon": 0.0, "lon": -77.02311183333333, "is_disabled": 0, "bike_id": "d819c0e1f05b74bd1f76b342f46e41a7", "is_reserved": 0, "rental_uris": {"android": "https://dc.lft.to/lastmile_qr_scan", "ios": "https://dc.lft.to/lastmile_qr_scan"}, "lat": 38.917852}, {"type": "electric_scooter", "name": "43e5647537b1023a9647aba4acaf6dd3", "fusion_lat": 0.0, "fusion_lon": 0.0, "lon": -77.00580033333334, "is_disabled": 0, "bike_id": "43e5647537b1023a9647aba4acaf6dd3", "is_reserved": 0, "rental_uris": {"android": "https://dc.lft.to/lastmile_qr_scan", "ios": "https://dc.lft.to/lastmile_qr_scan"}, "lat": 38.902680833333335}, {"type": "electric_scooter", "name": "f3d490e892f90fcfb89faf7afc97e522", "fusion_lat": 0.0, "fusion_lon": 0.0, "lon": -77.03448283333333, "is_disabled": 0, "bike_id": "f3d490e892f90fcfb89faf7afc97e522", "is_reserved": 0, "rental_uris": {"android": "https://dc.lft.to/lastmile_qr_scan", "ios": "https://dc.lft.to/lastmile_qr_scan"}, "lat": 38.90718366666667}, {"type": "electric_bike", "name": "b85b7902862a90af473d56e64d798553", "fusion_lat": 0.0, "fusion_lon": 0.0, "lon": -76.9789705, "is_disabled": 0, "bike_id": "b85b7902862a90af473d56e64d798553", "is_reserved": 0, "rental_uris": {"android": "https://dc.lft.to/lastmile_qr_scan", "ios": "https://dc.lft.to/lastmile_qr_scan"}, "lat": 38.926969}, {"type": "electric_scooter", "name": "7bdf48ea75ab41cec3c82124b9a96e19", "fusion_lat": 0.0, "fusion_lon": 0.0, "lon": -77.010303, "is_disabled": 0, "bike_id": "7bdf48ea75ab41cec3c82124b9a96e19", "is_reserved": 0, "rental_uris": {"android": "https://dc.lft.to/lastmile_qr_scan", "ios": "https://dc.lft.to/lastmile_qr_scan"}, "lat": 38.911409}, {"type": "electric_scooter", "name": "e1d98c0411d4de7453fd5436bc81fae7", "fusion_lat": 0.0, "fusion_lon": 0.0, "lon": -77.0092575, "is_disabled": 0, "bike_id": "e1d98c0411d4de7453fd5436bc81fae7", "is_reserved": 0, "rental_uris": {"android": "https://dc.lft.to/lastmile_qr_scan", "ios": "https://dc.lft.to/lastmile_qr_scan"}, "lat": 38.91627183333333}, {"type": "electric_scooter", "name": "775a524e438ee86c8f256098359f7f9d", "fusion_lat": 0.0, "fusion_lon": 0.0, "lon": -77.01064916666667, "is_disabled": 0, "bike_id": "775a524e438ee86c8f256098359f7f9d", "is_reserved": 0, "rental_uris": {"android": "https://dc.lft.to/lastmile_qr_scan", "ios": "https://dc.lft.to/lastmile_qr_scan"}, "lat": 38.91193166666667}, {"type": "electric_scooter", "name": "9ff60ae382482eabad9f766b985c5f0d", "fusion_lat": 0.0, "fusion_lon": 0.0, "lon": -77.02801533333333, "is_disabled": 0, "bike_id": "9ff60ae382482eabad9f766b985c5f0d", "is_reserved": 0, "rental_uris": {"android": "https://dc.lft.to/lastmile_qr_scan", "ios": "https://dc.lft.to/lastmile_qr_scan"}, "lat": 38.893609}, {"type": "electric_scooter", "name": "b0ae878f11e52938176f8e196457ae49", "fusion_lat": 0.0, "fusion_lon": 0.0, "lon": -77.0354445, "is_disabled": 0, "bike_id": "b0ae878f11e52938176f8e196457ae49", "is_reserved": 0, "rental_uris": {"android": "https://dc.lft.to/lastmile_qr_scan", "ios": "https://dc.lft.to/lastmile_qr_scan"}, "lat": 38.92346}, {"type": "electric_scooter", "name": "78ab55c93e620b261d94592890791e52", "fusion_lat": 0.0, "fusion_lon": 0.0, "lon": -77.0462085, "is_disabled": 0, "bike_id": "78ab55c93e620b261d94592890791e52", "is_reserved": 0, "rental_uris": {"android": "https://dc.lft.to/lastmile_qr_scan", "ios": "https://dc.lft.to/lastmile_qr_scan"}, "lat": 38.906668333333336}, {"type": "electric_scooter", "name": "0ecb3198f26fc7e443aff17454bad1ba", "fusion_lat": 0.0, "fusion_lon": 0.0, "lon": -76.97548383333333, "is_disabled": 0, "bike_id": "0ecb3198f26fc7e443aff17454bad1ba", "is_reserved": 0, "rental_uris": {"android": "https://dc.lft.to/lastmile_qr_scan", "ios": "https://dc.lft.to/lastmile_qr_scan"}, "lat": 38.87578666666667}, {"type": "electric_bike", "name": "c9d05565efc72b4a008f77acb4758bfd", "fusion_lat": 0.0, "fusion_lon": 0.0, "lon": -76.96058816666667, "is_disabled": 0, "bike_id": "c9d05565efc72b4a008f77acb4758bfd", "is_reserved": 0, "rental_uris": {"android": "https://dc.lft.to/lastmile_qr_scan", "ios": "https://dc.lft.to/lastmile_qr_scan"}, "lat": 38.88329516666667}, {"type": "electric_scooter", "name": "aecc584b61e9de193e01e1ca88879c0c", "fusion_lat": 0.0, "fusion_lon": 0.0, "lon": -77.03027916666667, "is_disabled": 0, "bike_id": "aecc584b61e9de193e01e1ca88879c0c", "is_reserved": 0, "rental_uris": {"android": "https://dc.lft.to/lastmile_qr_scan", "ios": "https://dc.lft.to/lastmile_qr_scan"}, "lat": 38.9266955}, {"type": "electric_bike", "name": "9d47e18a3208a37e764ccd1ecabb4a48", "fusion_lat": 0.0, "fusion_lon": 0.0, "lon": -77.095226, "is_disabled": 0, "bike_id": "9d47e18a3208a37e764ccd1ecabb4a48", "is_reserved": 0, "rental_uris": {"android": "https://dc.lft.to/lastmile_qr_scan", "ios": "https://dc.lft.to/lastmile_qr_scan"}, "lat": 38.838149666666666}, {"type": "electric_scooter", "name": "555674e9ca9b6c6521b1b21b2739bcf0", "fusion_lat": 0.0, "fusion_lon": 0.0, "lon": -77.04032, "is_disabled": 0, "bike_id": "555674e9ca9b6c6521b1b21b2739bcf0", "is_reserved": 0, "rental_uris": {"android": "https://dc.lft.to/lastmile_qr_scan", "ios": "https://dc.lft.to/lastmile_qr_scan"}, "lat": 38.911893}, {"type": "electric_scooter", "name": "9240752f73459e536158a2f00ba9d257", "fusion_lat": 0.0, "fusion_lon": 0.0, "lon": -76.93006033333333, "is_disabled": 0, "bike_id": "9240752f73459e536158a2f00ba9d257", "is_reserved": 0, "rental_uris": {"android": "https://dc.lft.to/lastmile_qr_scan", "ios": "https://dc.lft.to/lastmile_qr_scan"}, "lat": 38.9071865}, {"type": "electric_scooter", "name": "f102f2dc3c28cba2346e18f3321f53b4", "fusion_lat": 0.0, "fusion_lon": 0.0, "lon": -77.028559, "is_disabled": 0, "bike_id": "f102f2dc3c28cba2346e18f3321f53b4", "is_reserved": 0, "rental_uris": {"android": "https://dc.lft.to/lastmile_qr_scan", "ios": "https://dc.lft.to/lastmile_qr_scan"}, "lat": 38.902652833333335}, {"type": "electric_scooter", "name": "21c92adc07f1671a99109378340d923e", "fusion_lat": 0.0, "fusion_lon": 0.0, "lon": -77.0502435, "is_disabled": 0, "bike_id": "21c92adc07f1671a99109378340d923e", "is_reserved": 0, "rental_uris": {"android": "https://dc.lft.to/lastmile_qr_scan", "ios": "https://dc.lft.to/lastmile_qr_scan"}, "lat": 38.90532816666666}, {"type": "electric_scooter", "name": "c19e3be47b152e88670ecae0c2526417", "fusion_lat": 0.0, "fusion_lon": 0.0, "lon": -76.94382333333333, "is_disabled": 0, "bike_id": "c19e3be47b152e88670ecae0c2526417", "is_reserved": 0, "rental_uris": {"android": "https://dc.lft.to/lastmile_qr_scan", "ios": "https://dc.lft.to/lastmile_qr_scan"}, "lat": 38.891194166666665}, {"type": "electric_scooter", "name": "097682f09f23f1c346f5ec4f240bd511", "fusion_lat": 0.0, "fusion_lon": 0.0, "lon": -77.00580566666666, "is_disabled": 0, "bike_id": "097682f09f23f1c346f5ec4f240bd511", "is_reserved": 0, "rental_uris": {"android": "https://dc.lft.to/lastmile_qr_scan", "ios": "https://dc.lft.to/lastmile_qr_scan"}, "lat": 38.90251666666666}, {"type": "electric_scooter", "name": "c2eaea410253c28fef12dba5311d3d97", "fusion_lat": 0.0, "fusion_lon": 0.0, "lon": -77.026896, "is_disabled": 0, "bike_id": "c2eaea410253c28fef12dba5311d3d97", "is_reserved": 0, "rental_uris": {"android": "https://dc.lft.to/lastmile_qr_scan", "ios": "https://dc.lft.to/lastmile_qr_scan"}, "lat": 38.908744166666665}, {"type": "electric_scooter", "name": "33e0b3e2e5e1213767037c99cb43f481", "fusion_lat": 0.0, "fusion_lon": 0.0, "lon": -77.01184533333333, "is_disabled": 0, "bike_id": "33e0b3e2e5e1213767037c99cb43f481", "is_reserved": 0, "rental_uris": {"android": "https://dc.lft.to/lastmile_qr_scan", "ios": "https://dc.lft.to/lastmile_qr_scan"}, "lat": 38.90034266666667}, {"type": "electric_bike", "name": "6640368e11a8a5441e44b687e6be91a7", "fusion_lat": 0.0, "fusion_lon": 0.0, "lon": -76.9770445, "is_disabled": 0, "bike_id": "6640368e11a8a5441e44b687e6be91a7", "is_reserved": 0, "rental_uris": {"android": "https://dc.lft.to/lastmile_qr_scan", "ios": "https://dc.lft.to/lastmile_qr_scan"}, "lat": 38.822086}, {"type": "electric_scooter", "name": "ab76707be99281fa08a31567a5d00531", "fusion_lat": 0.0, "fusion_lon": 0.0, "lon": -77.03535966666666, "is_disabled": 0, "bike_id": "ab76707be99281fa08a31567a5d00531", "is_reserved": 0, "rental_uris": {"android": "https://dc.lft.to/lastmile_qr_scan", "ios": "https://dc.lft.to/lastmile_qr_scan"}, "lat": 38.92339666666667}, {"type": "electric_bike", "name": "f70edda083e76cd456a4a2628200553e", "fusion_lat": 0.0, "fusion_lon": 0.0, "lon": -77.08321266666667, "is_disabled": 0, "bike_id": "f70edda083e76cd456a4a2628200553e", "is_reserved": 0, "rental_uris": {"android": "https://dc.lft.to/lastmile_qr_scan", "ios": "https://dc.lft.to/lastmile_qr_scan"}, "lat": 38.854467666666665}, {"type": "electric_scooter", "name": "a8a3a321ad42b28dd9abbcb03f5da2d6", "fusion_lat": 0.0, "fusion_lon": 0.0, "lon": -77.02842416666667, "is_disabled": 0, "bike_id": "a8a3a321ad42b28dd9abbcb03f5da2d6", "is_reserved": 0, "rental_uris": {"android": "https://dc.lft.to/lastmile_qr_scan", "ios": "https://dc.lft.to/lastmile_qr_scan"}, "lat": 38.930668}, {"type": "electric_scooter", "name": "ed5bb98b58fde4411b1dcd3f260666c1", "fusion_lat": 0.0, "fusion_lon": 0.0, "lon": -77.05021133333334, "is_disabled": 0, "bike_id": "ed5bb98b58fde4411b1dcd3f260666c1", "is_reserved": 0, "rental_uris": {"android": "https://dc.lft.to/lastmile_qr_scan", "ios": "https://dc.lft.to/lastmile_qr_scan"}, "lat": 38.90535333333333}, {"type": "electric_scooter", "name": "2c02d026dee7c047295383505bbb7a3b", "fusion_lat": 0.0, "fusion_lon": 0.0, "lon": -76.93524483333333, "is_disabled": 0, "bike_id": "2c02d026dee7c047295383505bbb7a3b", "is_reserved": 0, "rental_uris": {"android": "https://dc.lft.to/lastmile_qr_scan", "ios": "https://dc.lft.to/lastmile_qr_scan"}, "lat": 38.878992833333335}, {"type": "electric_scooter", "name": "f7b055a234928a7c949918d016712a2f", "fusion_lat": 0.0, "fusion_lon": 0.0, "lon": -76.99729233333333, "is_disabled": 0, "bike_id": "f7b055a234928a7c949918d016712a2f", "is_reserved": 0, "rental_uris": {"android": "https://dc.lft.to/lastmile_qr_scan", "ios": "https://dc.lft.to/lastmile_qr_scan"}, "lat": 38.92045733333333}, {"type": "electric_scooter", "name": "802522a8eda868f3f8589ed28c894a6e", "fusion_lat": 0.0, "fusion_lon": 0.0, "lon": -77.04010766666667, "is_disabled": 0, "bike_id": "802522a8eda868f3f8589ed28c894a6e", "is_reserved": 0, "rental_uris": {"android": "https://dc.lft.to/lastmile_qr_scan", "ios": "https://dc.lft.to/lastmile_qr_scan"}, "lat": 38.907306}, {"type": "electric_scooter", "name": "c5b98a0e60d9b373a4bd3b425d46fb6a", "fusion_lat": 0.0, "fusion_lon": 0.0, "lon": -77.02890533333333, "is_disabled": 0, "bike_id": "c5b98a0e60d9b373a4bd3b425d46fb6a", "is_reserved": 0, "rental_uris": {"android": "https://dc.lft.to/lastmile_qr_scan", "ios": "https://dc.lft.to/lastmile_qr_scan"}, "lat": 38.936038}, {"type": "electric_scooter", "name": "92502e3deda54736c6814cc910d92fa1", "fusion_lat": 0.0, "fusion_lon": 0.0, "lon": -77.03571833333334, "is_disabled": 0, "bike_id": "92502e3deda54736c6814cc910d92fa1", "is_reserved": 0, "rental_uris": {"android": "https://dc.lft.to/lastmile_qr_scan", "ios": "https://dc.lft.to/lastmile_qr_scan"}, "lat": 38.908356}, {"type": "electric_scooter", "name": "74a093ea55f302e79c30c81af0ffcfb1", "fusion_lat": 0.0, "fusion_lon": 0.0, "lon": -77.02798116666666, "is_disabled": 0, "bike_id": "74a093ea55f302e79c30c81af0ffcfb1", "is_reserved": 0, "rental_uris": {"android": "https://dc.lft.to/lastmile_qr_scan", "ios": "https://dc.lft.to/lastmile_qr_scan"}, "lat": 38.93183783333333}, {"type": "electric_scooter", "name": "1a324cf7b35c7bb5c7fddf9052129b4f", "fusion_lat": 0.0, "fusion_lon": 0.0, "lon": -77.02693516666666, "is_disabled": 0, "bike_id": "1a324cf7b35c7bb5c7fddf9052129b4f", "is_reserved": 0, "rental_uris": {"android": "https://dc.lft.to/lastmile_qr_scan", "ios": "https://dc.lft.to/lastmile_qr_scan"}, "lat": 38.91273233333333}, {"type": "electric_bike", "name": "8df77951dc28c6083014e7b8bf186b8d", "fusion_lat": 0.0, "fusion_lon": 0.0, "lon": -77.0765775, "is_disabled": 0, "bike_id": "8df77951dc28c6083014e7b8bf186b8d", "is_reserved": 0, "rental_uris": {"android": "https://dc.lft.to/lastmile_qr_scan", "ios": "https://dc.lft.to/lastmile_qr_scan"}, "lat": 38.8097895}, {"type": "electric_scooter", "name": "6477695c10dd2bddfc64bd49991c0b71", "fusion_lat": 0.0, "fusion_lon": 0.0, "lon": -77.02299466666666, "is_disabled": 0, "bike_id": "6477695c10dd2bddfc64bd49991c0b71", "is_reserved": 0, "rental_uris": {"android": "https://dc.lft.to/lastmile_qr_scan", "ios": "https://dc.lft.to/lastmile_qr_scan"}, "lat": 38.92825066666666}, {"type": "electric_scooter", "name": "83aeddc0a0f791388b23636f7f1f8c99", "fusion_lat": 0.0, "fusion_lon": 0.0, "lon": -77.010967, "is_disabled": 0, "bike_id": "83aeddc0a0f791388b23636f7f1f8c99", "is_reserved": 0, "rental_uris": {"android": "https://dc.lft.to/lastmile_qr_scan", "ios": "https://dc.lft.to/lastmile_qr_scan"}, "lat": 38.895484}, {"type": "electric_scooter", "name": "01eb691d7869b95c3351b82c5ad5856e", "fusion_lat": 0.0, "fusion_lon": 0.0, "lon": -77.0365965, "is_disabled": 0, "bike_id": "01eb691d7869b95c3351b82c5ad5856e", "is_reserved": 0, "rental_uris": {"android": "https://dc.lft.to/lastmile_qr_scan", "ios": "https://dc.lft.to/lastmile_qr_scan"}, "lat": 38.922882}, {"type": "electric_scooter", "name": "e3a12248e2821c04d35693e6a115369b", "fusion_lat": 0.0, "fusion_lon": 0.0, "lon": -77.06280683333334, "is_disabled": 0, "bike_id": "e3a12248e2821c04d35693e6a115369b", "is_reserved": 0, "rental_uris": {"android": "https://dc.lft.to/lastmile_qr_scan", "ios": "https://dc.lft.to/lastmile_qr_scan"}, "lat": 38.90317366666667}, {"type": "electric_bike", "name": "906a7d957335a8562f36ad942ef6808f", "fusion_lat": 0.0, "fusion_lon": 0.0, "lon": -77.02068183333333, "is_disabled": 0, "bike_id": "906a7d957335a8562f36ad942ef6808f", "is_reserved": 0, "rental_uris": {"android": "https://dc.lft.to/lastmile_qr_scan", "ios": "https://dc.lft.to/lastmile_qr_scan"}, "lat": 38.964471333333336}, {"type": "electric_scooter", "name": "4f8c584678a2fc3f8a16e06f4b85c8d1", "fusion_lat": 0.0, "fusion_lon": 0.0, "lon": -76.99030433333333, "is_disabled": 0, "bike_id": "4f8c584678a2fc3f8a16e06f4b85c8d1", "is_reserved": 0, "rental_uris": {"android": "https://dc.lft.to/lastmile_qr_scan", "ios": "https://dc.lft.to/lastmile_qr_scan"}, "lat": 38.8888175}, {"type": "electric_scooter", "name": "0f78e6adcf6e0af2f36e3a51ab1ac6be", "fusion_lat": 0.0, "fusion_lon": 0.0, "lon": -76.94186033333334, "is_disabled": 0, "bike_id": "0f78e6adcf6e0af2f36e3a51ab1ac6be", "is_reserved": 0, "rental_uris": {"android": "https://dc.lft.to/lastmile_qr_scan", "ios": "https://dc.lft.to/lastmile_qr_scan"}, "lat": 38.8976205}, {"type": "electric_scooter", "name": "6979a0cd1e2cec7256afb8f8d6889add", "fusion_lat": 0.0, "fusion_lon": 0.0, "lon": -77.035595, "is_disabled": 0, "bike_id": "6979a0cd1e2cec7256afb8f8d6889add", "is_reserved": 0, "rental_uris": {"android": "https://dc.lft.to/lastmile_qr_scan", "ios": "https://dc.lft.to/lastmile_qr_scan"}, "lat": 38.924795333333336}, {"type": "electric_scooter", "name": "2f3e58f95e5a026107cc92742027d6b1", "fusion_lat": 0.0, "fusion_lon": 0.0, "lon": -77.0337775, "is_disabled": 0, "bike_id": "2f3e58f95e5a026107cc92742027d6b1", "is_reserved": 0, "rental_uris": {"android": "https://dc.lft.to/lastmile_qr_scan", "ios": "https://dc.lft.to/lastmile_qr_scan"}, "lat": 38.90150516666667}, {"type": "electric_scooter", "name": "c294d1e50a58dc69a4b648938e6ba92d", "fusion_lat": 0.0, "fusion_lon": 0.0, "lon": -77.01435566666666, "is_disabled": 0, "bike_id": "c294d1e50a58dc69a4b648938e6ba92d", "is_reserved": 0, "rental_uris": {"android": "https://dc.lft.to/lastmile_qr_scan", "ios": "https://dc.lft.to/lastmile_qr_scan"}, "lat": 38.9131495}, {"type": "electric_scooter", "name": "f7074d891e74b0f8b761a0fa9e2366bf", "fusion_lat": 0.0, "fusion_lon": 0.0, "lon": -76.9974275, "is_disabled": 0, "bike_id": "f7074d891e74b0f8b761a0fa9e2366bf", "is_reserved": 0, "rental_uris": {"android": "https://dc.lft.to/lastmile_qr_scan", "ios": "https://dc.lft.to/lastmile_qr_scan"}, "lat": 38.900264166666666}, {"type": "electric_scooter", "name": "1ea3ed22e4f66701f7882443b0661c42", "fusion_lat": 0.0, "fusion_lon": 0.0, "lon": -77.02693266666667, "is_disabled": 0, "bike_id": "1ea3ed22e4f66701f7882443b0661c42", "is_reserved": 0, "rental_uris": {"android": "https://dc.lft.to/lastmile_qr_scan", "ios": "https://dc.lft.to/lastmile_qr_scan"}, "lat": 38.912764}, {"type": "electric_scooter", "name": "59a8c549f6c46d6695b043e644c9e66f", "fusion_lat": 0.0, "fusion_lon": 0.0, "lon": -77.0418925, "is_disabled": 0, "bike_id": "59a8c549f6c46d6695b043e644c9e66f", "is_reserved": 0, "rental_uris": {"android": "https://dc.lft.to/lastmile_qr_scan", "ios": "https://dc.lft.to/lastmile_qr_scan"}, "lat": 38.920163333333335}, {"type": "electric_scooter", "name": "33217eb768fc60cbd44c908c68d8e863", "fusion_lat": 0.0, "fusion_lon": 0.0, "lon": -77.0175785, "is_disabled": 0, "bike_id": "33217eb768fc60cbd44c908c68d8e863", "is_reserved": 0, "rental_uris": {"android": "https://dc.lft.to/lastmile_qr_scan", "ios": "https://dc.lft.to/lastmile_qr_scan"}, "lat": 38.902742333333336}, {"type": "electric_scooter", "name": "cf0ce99fa6de554b0c031be93e476a30", "fusion_lat": 0.0, "fusion_lon": 0.0, "lon": -76.98358483333334, "is_disabled": 0, "bike_id": "cf0ce99fa6de554b0c031be93e476a30", "is_reserved": 0, "rental_uris": {"android": "https://dc.lft.to/lastmile_qr_scan", "ios": "https://dc.lft.to/lastmile_qr_scan"}, "lat": 38.88752083333333}, {"type": "electric_scooter", "name": "6619eea338e1f8cc301ce39654b63644", "fusion_lat": 0.0, "fusion_lon": 0.0, "lon": -77.03385666666667, "is_disabled": 0, "bike_id": "6619eea338e1f8cc301ce39654b63644", "is_reserved": 0, "rental_uris": {"android": "https://dc.lft.to/lastmile_qr_scan", "ios": "https://dc.lft.to/lastmile_qr_scan"}, "lat": 38.901364}, {"type": "electric_scooter", "name": "efb4f8d6d4dcbf20cb3693133d79582f", "fusion_lat": 0.0, "fusion_lon": 0.0, "lon": -77.02256866666667, "is_disabled": 0, "bike_id": "efb4f8d6d4dcbf20cb3693133d79582f", "is_reserved": 0, "rental_uris": {"android": "https://dc.lft.to/lastmile_qr_scan", "ios": "https://dc.lft.to/lastmile_qr_scan"}, "lat": 38.894649}, {"type": "electric_scooter", "name": "d0c6c1e2012f30bed7e8d60c1d8f98ff", "fusion_lat": 0.0, "fusion_lon": 0.0, "lon": -77.022276, "is_disabled": 0, "bike_id": "d0c6c1e2012f30bed7e8d60c1d8f98ff", "is_reserved": 0, "rental_uris": {"android": "https://dc.lft.to/lastmile_qr_scan", "ios": "https://dc.lft.to/lastmile_qr_scan"}, "lat": 38.91274583333333}, {"type": "electric_scooter", "name": "f4feb43a30fea813e1312aa7d4622ee4", "fusion_lat": 0.0, "fusion_lon": 0.0, "lon": -76.999106, "is_disabled": 0, "bike_id": "f4feb43a30fea813e1312aa7d4622ee4", "is_reserved": 0, "rental_uris": {"android": "https://dc.lft.to/lastmile_qr_scan", "ios": "https://dc.lft.to/lastmile_qr_scan"}, "lat": 38.937473833333335}, {"type": "electric_scooter", "name": "7adae66a2035d4ef95476d4d5ce114fe", "fusion_lat": 0.0, "fusion_lon": 0.0, "lon": -77.04870733333334, "is_disabled": 0, "bike_id": "7adae66a2035d4ef95476d4d5ce114fe", "is_reserved": 0, "rental_uris": {"android": "https://dc.lft.to/lastmile_qr_scan", "ios": "https://dc.lft.to/lastmile_qr_scan"}, "lat": 38.911041833333336}, {"type": "electric_bike", "name": "3e0f73cb7de8e24475dc391d9f1c0005", "fusion_lat": 0.0, "fusion_lon": 0.0, "lon": -76.98686933333333, "is_disabled": 0, "bike_id": "3e0f73cb7de8e24475dc391d9f1c0005", "is_reserved": 0, "rental_uris": {"android": "https://dc.lft.to/lastmile_qr_scan", "ios": "https://dc.lft.to/lastmile_qr_scan"}, "lat": 38.94477}, {"type": "electric_scooter", "name": "5e198d1e6e9240443c4da5da67e778b3", "fusion_lat": 0.0, "fusion_lon": 0.0, "lon": -77.0232255, "is_disabled": 0, "bike_id": "5e198d1e6e9240443c4da5da67e778b3", "is_reserved": 0, "rental_uris": {"android": "https://dc.lft.to/lastmile_qr_scan", "ios": "https://dc.lft.to/lastmile_qr_scan"}, "lat": 38.9305865}, {"type": "electric_scooter", "name": "f4d07a6829d9a2e7c5091797b17c63a4", "fusion_lat": 0.0, "fusion_lon": 0.0, "lon": -77.03461483333334, "is_disabled": 0, "bike_id": "f4d07a6829d9a2e7c5091797b17c63a4", "is_reserved": 0, "rental_uris": {"android": "https://dc.lft.to/lastmile_qr_scan", "ios": "https://dc.lft.to/lastmile_qr_scan"}, "lat": 38.917182333333336}, {"type": "electric_scooter", "name": "94a17547daec73a88642ebcf4b323eb6", "fusion_lat": 0.0, "fusion_lon": 0.0, "lon": -77.0362975, "is_disabled": 0, "bike_id": "94a17547daec73a88642ebcf4b323eb6", "is_reserved": 0, "rental_uris": {"android": "https://dc.lft.to/lastmile_qr_scan", "ios": "https://dc.lft.to/lastmile_qr_scan"}, "lat": 38.93310783333333}, {"type": "electric_scooter", "name": "0bfc44f40598312a5ca594de051819a8", "fusion_lat": 0.0, "fusion_lon": 0.0, "lon": -77.04777683333333, "is_disabled": 0, "bike_id": "0bfc44f40598312a5ca594de051819a8", "is_reserved": 0, "rental_uris": {"android": "https://dc.lft.to/lastmile_qr_scan", "ios": "https://dc.lft.to/lastmile_qr_scan"}, "lat": 38.908584833333336}, {"type": "electric_scooter", "name": "270937d86120bfaee92ba7c446ee5563", "fusion_lat": 0.0, "fusion_lon": 0.0, "lon": -77.03784733333333, "is_disabled": 0, "bike_id": "270937d86120bfaee92ba7c446ee5563", "is_reserved": 0, "rental_uris": {"android": "https://dc.lft.to/lastmile_qr_scan", "ios": "https://dc.lft.to/lastmile_qr_scan"}, "lat": 38.902396833333334}, {"type": "electric_scooter", "name": "6a9fb11e20d8664c5e7f3312c674c6cd", "fusion_lat": 0.0, "fusion_lon": 0.0, "lon": -77.017083, "is_disabled": 0, "bike_id": "6a9fb11e20d8664c5e7f3312c674c6cd", "is_reserved": 0, "rental_uris": {"android": "https://dc.lft.to/lastmile_qr_scan", "ios": "https://dc.lft.to/lastmile_qr_scan"}, "lat": 38.87297566666667}, {"type": "electric_scooter", "name": "4f7fec488d6562b58b791943499bea78", "fusion_lat": 0.0, "fusion_lon": 0.0, "lon": -77.017578, "is_disabled": 0, "bike_id": "4f7fec488d6562b58b791943499bea78", "is_reserved": 0, "rental_uris": {"android": "https://dc.lft.to/lastmile_qr_scan", "ios": "https://dc.lft.to/lastmile_qr_scan"}, "lat": 38.87688383333333}, {"type": "electric_scooter", "name": "aa9a1ecf10c20fe949e5c3766e5f093a", "fusion_lat": 0.0, "fusion_lon": 0.0, "lon": -77.0393085, "is_disabled": 0, "bike_id": "aa9a1ecf10c20fe949e5c3766e5f093a", "is_reserved": 0, "rental_uris": {"android": "https://dc.lft.to/lastmile_qr_scan", "ios": "https://dc.lft.to/lastmile_qr_scan"}, "lat": 38.9211665}, {"type": "electric_scooter", "name": "3fafaef11d22ce007b5ee12958a62821", "fusion_lat": 0.0, "fusion_lon": 0.0, "lon": -77.03618233333333, "is_disabled": 0, "bike_id": "3fafaef11d22ce007b5ee12958a62821", "is_reserved": 0, "rental_uris": {"android": "https://dc.lft.to/lastmile_qr_scan", "ios": "https://dc.lft.to/lastmile_qr_scan"}, "lat": 38.903831833333335}, {"type": "electric_scooter", "name": "99f3322a5c7cf47689e4a54fb3b40a13", "fusion_lat": 0.0, "fusion_lon": 0.0, "lon": -76.92626533333333, "is_disabled": 0, "bike_id": "99f3322a5c7cf47689e4a54fb3b40a13", "is_reserved": 0, "rental_uris": {"android": "https://dc.lft.to/lastmile_qr_scan", "ios": "https://dc.lft.to/lastmile_qr_scan"}, "lat": 38.88378616666667}, {"type": "electric_scooter", "name": "bf1285883d1011711801adf8e9b5aa89", "fusion_lat": 0.0, "fusion_lon": 0.0, "lon": -77.03381216666666, "is_disabled": 0, "bike_id": "bf1285883d1011711801adf8e9b5aa89", "is_reserved": 0, "rental_uris": {"android": "https://dc.lft.to/lastmile_qr_scan", "ios": "https://dc.lft.to/lastmile_qr_scan"}, "lat": 38.909654}, {"type": "electric_scooter", "name": "7657aa3e9ada37df06438e1a914f3e90", "fusion_lat": 0.0, "fusion_lon": 0.0, "lon": -76.92505083333333, "is_disabled": 0, "bike_id": "7657aa3e9ada37df06438e1a914f3e90", "is_reserved": 0, "rental_uris": {"android": "https://dc.lft.to/lastmile_qr_scan", "ios": "https://dc.lft.to/lastmile_qr_scan"}, "lat": 38.886031}, {"type": "electric_scooter", "name": "f0bfb51ebe1d141f6f68ac03e2745d6d", "fusion_lat": 0.0, "fusion_lon": 0.0, "lon": -77.02721616666666, "is_disabled": 0, "bike_id": "f0bfb51ebe1d141f6f68ac03e2745d6d", "is_reserved": 0, "rental_uris": {"android": "https://dc.lft.to/lastmile_qr_scan", "ios": "https://dc.lft.to/lastmile_qr_scan"}, "lat": 38.9038915}, {"type": "electric_scooter", "name": "94637a92b11b5bdc94bea468b7ec036d", "fusion_lat": 0.0, "fusion_lon": 0.0, "lon": -77.016565, "is_disabled": 0, "bike_id": "94637a92b11b5bdc94bea468b7ec036d", "is_reserved": 0, "rental_uris": {"android": "https://dc.lft.to/lastmile_qr_scan", "ios": "https://dc.lft.to/lastmile_qr_scan"}, "lat": 38.94207333333333}, {"type": "electric_scooter", "name": "fc9b1543df0b3ee93ab73665e28f5e26", "fusion_lat": 0.0, "fusion_lon": 0.0, "lon": -77.02800966666666, "is_disabled": 0, "bike_id": "fc9b1543df0b3ee93ab73665e28f5e26", "is_reserved": 0, "rental_uris": {"android": "https://dc.lft.to/lastmile_qr_scan", "ios": "https://dc.lft.to/lastmile_qr_scan"}, "lat": 38.897203}, {"type": "electric_scooter", "name": "fd7f9ab49f603fab0fbcadc693955117", "fusion_lat": 0.0, "fusion_lon": 0.0, "lon": -76.94067033333333, "is_disabled": 0, "bike_id": "fd7f9ab49f603fab0fbcadc693955117", "is_reserved": 0, "rental_uris": {"android": "https://dc.lft.to/lastmile_qr_scan", "ios": "https://dc.lft.to/lastmile_qr_scan"}, "lat": 38.885971166666664}, {"type": "electric_scooter", "name": "81428aecc11b0507e7cff8ccf66f35e9", "fusion_lat": 0.0, "fusion_lon": 0.0, "lon": -76.99507216666666, "is_disabled": 0, "bike_id": "81428aecc11b0507e7cff8ccf66f35e9", "is_reserved": 0, "rental_uris": {"android": "https://dc.lft.to/lastmile_qr_scan", "ios": "https://dc.lft.to/lastmile_qr_scan"}, "lat": 38.909829}, {"type": "electric_scooter", "name": "816f6fd44273b36953e099f896d730d9", "fusion_lat": 0.0, "fusion_lon": 0.0, "lon": -76.9808465, "is_disabled": 0, "bike_id": "816f6fd44273b36953e099f896d730d9", "is_reserved": 0, "rental_uris": {"android": "https://dc.lft.to/lastmile_qr_scan", "ios": "https://dc.lft.to/lastmile_qr_scan"}, "lat": 38.901671666666665}, {"type": "electric_scooter", "name": "9b518495adfb8c251ded0e07618528a8", "fusion_lat": 0.0, "fusion_lon": 0.0, "lon": -77.01793066666667, "is_disabled": 0, "bike_id": "9b518495adfb8c251ded0e07618528a8", "is_reserved": 0, "rental_uris": {"android": "https://dc.lft.to/lastmile_qr_scan", "ios": "https://dc.lft.to/lastmile_qr_scan"}, "lat": 38.89237466666667}, {"type": "electric_scooter", "name": "35911fbb51b26e70455a0fb04ad6ecfe", "fusion_lat": 0.0, "fusion_lon": 0.0, "lon": -77.02399533333333, "is_disabled": 0, "bike_id": "35911fbb51b26e70455a0fb04ad6ecfe", "is_reserved": 0, "rental_uris": {"android": "https://dc.lft.to/lastmile_qr_scan", "ios": "https://dc.lft.to/lastmile_qr_scan"}, "lat": 38.930961333333336}, {"type": "electric_scooter", "name": "d80562dc0b16757abcd995bb57ab735e", "fusion_lat": 0.0, "fusion_lon": 0.0, "lon": -76.93393016666667, "is_disabled": 0, "bike_id": "d80562dc0b16757abcd995bb57ab735e", "is_reserved": 0, "rental_uris": {"android": "https://dc.lft.to/lastmile_qr_scan", "ios": "https://dc.lft.to/lastmile_qr_scan"}, "lat": 38.899111}, {"type": "electric_scooter", "name": "ad724321e04693dc227b956bb892e388", "fusion_lat": 0.0, "fusion_lon": 0.0, "lon": -77.045501, "is_disabled": 0, "bike_id": "ad724321e04693dc227b956bb892e388", "is_reserved": 0, "rental_uris": {"android": "https://dc.lft.to/lastmile_qr_scan", "ios": "https://dc.lft.to/lastmile_qr_scan"}, "lat": 38.902295333333335}, {"type": "electric_scooter", "name": "0f0766805abca4e98e1e96a0ccbdde15", "fusion_lat": 0.0, "fusion_lon": 0.0, "lon": -77.0004535, "is_disabled": 0, "bike_id": "0f0766805abca4e98e1e96a0ccbdde15", "is_reserved": 0, "rental_uris": {"android": "https://dc.lft.to/lastmile_qr_scan", "ios": "https://dc.lft.to/lastmile_qr_scan"}, "lat": 38.87500933333333}, {"type": "electric_scooter", "name": "7572634e52de2a2bfecc50220e1528c8", "fusion_lat": 0.0, "fusion_lon": 0.0, "lon": -77.029648, "is_disabled": 0, "bike_id": "7572634e52de2a2bfecc50220e1528c8", "is_reserved": 0, "rental_uris": {"android": "https://dc.lft.to/lastmile_qr_scan", "ios": "https://dc.lft.to/lastmile_qr_scan"}, "lat": 38.90484333333333}, {"type": "electric_scooter", "name": "b29f4a965f9bbbb6abbe689c9b37b26b", "fusion_lat": 0.0, "fusion_lon": 0.0, "lon": -77.030332, "is_disabled": 0, "bike_id": "b29f4a965f9bbbb6abbe689c9b37b26b", "is_reserved": 0, "rental_uris": {"android": "https://dc.lft.to/lastmile_qr_scan", "ios": "https://dc.lft.to/lastmile_qr_scan"}, "lat": 38.909399666666665}, {"type": "electric_scooter", "name": "1792dbb036b26e44779ca57a632b8833", "fusion_lat": 0.0, "fusion_lon": 0.0, "lon": -77.03078083333334, "is_disabled": 0, "bike_id": "1792dbb036b26e44779ca57a632b8833", "is_reserved": 0, "rental_uris": {"android": "https://dc.lft.to/lastmile_qr_scan", "ios": "https://dc.lft.to/lastmile_qr_scan"}, "lat": 38.920235}, {"type": "electric_scooter", "name": "5d95766b7966d22d35118f07b3341f6a", "fusion_lat": 0.0, "fusion_lon": 0.0, "lon": -77.031864, "is_disabled": 0, "bike_id": "5d95766b7966d22d35118f07b3341f6a", "is_reserved": 0, "rental_uris": {"android": "https://dc.lft.to/lastmile_qr_scan", "ios": "https://dc.lft.to/lastmile_qr_scan"}, "lat": 38.921271833333336}, {"type": "electric_bike", "name": "df46d7e50514f8ace097b6e9e8ee9022", "fusion_lat": 0.0, "fusion_lon": 0.0, "lon": -77.078974, "is_disabled": 0, "bike_id": "df46d7e50514f8ace097b6e9e8ee9022", "is_reserved": 0, "rental_uris": {"android": "https://dc.lft.to/lastmile_qr_scan", "ios": "https://dc.lft.to/lastmile_qr_scan"}, "lat": 38.925488}, {"type": "electric_scooter", "name": "fa8ab02d14398bc782d590f9617575e8", "fusion_lat": 0.0, "fusion_lon": 0.0, "lon": -77.02807183333333, "is_disabled": 0, "bike_id": "fa8ab02d14398bc782d590f9617575e8", "is_reserved": 0, "rental_uris": {"android": "https://dc.lft.to/lastmile_qr_scan", "ios": "https://dc.lft.to/lastmile_qr_scan"}, "lat": 38.930846833333334}, {"type": "electric_bike", "name": "23de3afce60f76055bfe3946767c7ad6", "fusion_lat": 0.0, "fusion_lon": 0.0, "lon": -77.03758166666667, "is_disabled": 0, "bike_id": "23de3afce60f76055bfe3946767c7ad6", "is_reserved": 0, "rental_uris": {"android": "https://dc.lft.to/lastmile_qr_scan", "ios": "https://dc.lft.to/lastmile_qr_scan"}, "lat": 38.916985}, {"type": "electric_scooter", "name": "f3cbde224833e5627c19adcb7f1ce3a8", "fusion_lat": 0.0, "fusion_lon": 0.0, "lon": -77.02422683333333, "is_disabled": 0, "bike_id": "f3cbde224833e5627c19adcb7f1ce3a8", "is_reserved": 0, "rental_uris": {"android": "https://dc.lft.to/lastmile_qr_scan", "ios": "https://dc.lft.to/lastmile_qr_scan"}, "lat": 38.92064333333333}, {"type": "electric_bike", "name": "1440a0a566920460db65136637265d79", "fusion_lat": 0.0, "fusion_lon": 0.0, "lon": -77.01987433333333, "is_disabled": 0, "bike_id": "1440a0a566920460db65136637265d79", "is_reserved": 0, "rental_uris": {"android": "https://dc.lft.to/lastmile_qr_scan", "ios": "https://dc.lft.to/lastmile_qr_scan"}, "lat": 38.89781166666667}, {"type": "electric_scooter", "name": "8ea723373b25ef74c8f34c6f86ad4bdc", "fusion_lat": 0.0, "fusion_lon": 0.0, "lon": -77.01460866666666, "is_disabled": 0, "bike_id": "8ea723373b25ef74c8f34c6f86ad4bdc", "is_reserved": 0, "rental_uris": {"android": "https://dc.lft.to/lastmile_qr_scan", "ios": "https://dc.lft.to/lastmile_qr_scan"}, "lat": 38.906516}, {"type": "electric_scooter", "name": "efee7b5a3afd1978a00f22b2000b2d51", "fusion_lat": 0.0, "fusion_lon": 0.0, "lon": -77.02586916666667, "is_disabled": 0, "bike_id": "efee7b5a3afd1978a00f22b2000b2d51", "is_reserved": 0, "rental_uris": {"android": "https://dc.lft.to/lastmile_qr_scan", "ios": "https://dc.lft.to/lastmile_qr_scan"}, "lat": 38.920352333333334}, {"type": "electric_scooter", "name": "a765ac6b3e04f772a0a3a9b804db0669", "fusion_lat": 0.0, "fusion_lon": 0.0, "lon": -77.044601, "is_disabled": 0, "bike_id": "a765ac6b3e04f772a0a3a9b804db0669", "is_reserved": 0, "rental_uris": {"android": "https://dc.lft.to/lastmile_qr_scan", "ios": "https://dc.lft.to/lastmile_qr_scan"}, "lat": 38.924675666666666}, {"type": "electric_scooter", "name": "57d2bb56a39d2dca97d4f9bccac3dcf0", "fusion_lat": 0.0, "fusion_lon": 0.0, "lon": -76.98371333333333, "is_disabled": 0, "bike_id": "57d2bb56a39d2dca97d4f9bccac3dcf0", "is_reserved": 0, "rental_uris": {"android": "https://dc.lft.to/lastmile_qr_scan", "ios": "https://dc.lft.to/lastmile_qr_scan"}, "lat": 38.899813333333334}, {"type": "electric_scooter", "name": "4492eff426c008d84ea042c8e3f2b446", "fusion_lat": 0.0, "fusion_lon": 0.0, "lon": -77.0294915, "is_disabled": 0, "bike_id": "4492eff426c008d84ea042c8e3f2b446", "is_reserved": 0, "rental_uris": {"android": "https://dc.lft.to/lastmile_qr_scan", "ios": "https://dc.lft.to/lastmile_qr_scan"}, "lat": 38.904960333333335}, {"type": "electric_scooter", "name": "1bbb0d3d3a4cc4975812ce0dc99e9102", "fusion_lat": 0.0, "fusion_lon": 0.0, "lon": -77.0363395, "is_disabled": 0, "bike_id": "1bbb0d3d3a4cc4975812ce0dc99e9102", "is_reserved": 0, "rental_uris": {"android": "https://dc.lft.to/lastmile_qr_scan", "ios": "https://dc.lft.to/lastmile_qr_scan"}, "lat": 38.90261183333333}, {"type": "electric_bike", "name": "003e203c51c4e99b60963fbedb5c0a90", "fusion_lat": 0.0, "fusion_lon": 0.0, "lon": -76.98769416666667, "is_disabled": 0, "bike_id": "003e203c51c4e99b60963fbedb5c0a90", "is_reserved": 0, "rental_uris": {"android": "https://dc.lft.to/lastmile_qr_scan", "ios": "https://dc.lft.to/lastmile_qr_scan"}, "lat": 38.857752}, {"type": "electric_scooter", "name": "fb9305ff41356ef37f566d8ad53580d0", "fusion_lat": 0.0, "fusion_lon": 0.0, "lon": -77.04509866666666, "is_disabled": 0, "bike_id": "fb9305ff41356ef37f566d8ad53580d0", "is_reserved": 0, "rental_uris": {"android": "https://dc.lft.to/lastmile_qr_scan", "ios": "https://dc.lft.to/lastmile_qr_scan"}, "lat": 38.90243733333333}, {"type": "electric_scooter", "name": "511da9d7d938c4e8fc9c9bc9d4bf8da7", "fusion_lat": 0.0, "fusion_lon": 0.0, "lon": -77.01109233333334, "is_disabled": 0, "bike_id": "511da9d7d938c4e8fc9c9bc9d4bf8da7", "is_reserved": 0, "rental_uris": {"android": "https://dc.lft.to/lastmile_qr_scan", "ios": "https://dc.lft.to/lastmile_qr_scan"}, "lat": 38.895567666666665}, {"type": "electric_scooter", "name": "e7eba4d1d5dfc7699cb2d38b951ac66a", "fusion_lat": 0.0, "fusion_lon": 0.0, "lon": -77.02693383333333, "is_disabled": 0, "bike_id": "e7eba4d1d5dfc7699cb2d38b951ac66a", "is_reserved": 0, "rental_uris": {"android": "https://dc.lft.to/lastmile_qr_scan", "ios": "https://dc.lft.to/lastmile_qr_scan"}, "lat": 38.908676666666665}, {"type": "electric_scooter", "name": "6885ea96abbbf0a2bf6476b8c9f69c40", "fusion_lat": 0.0, "fusion_lon": 0.0, "lon": -77.03504283333334, "is_disabled": 0, "bike_id": "6885ea96abbbf0a2bf6476b8c9f69c40", "is_reserved": 0, "rental_uris": {"android": "https://dc.lft.to/lastmile_qr_scan", "ios": "https://dc.lft.to/lastmile_qr_scan"}, "lat": 38.91878066666666}, {"type": "electric_scooter", "name": "52c3a752963ba77c7b6e8ba3df4b13fd", "fusion_lat": 0.0, "fusion_lon": 0.0, "lon": -77.02550283333333, "is_disabled": 0, "bike_id": "52c3a752963ba77c7b6e8ba3df4b13fd", "is_reserved": 0, "rental_uris": {"android": "https://dc.lft.to/lastmile_qr_scan", "ios": "https://dc.lft.to/lastmile_qr_scan"}, "lat": 38.91634583333333}, {"type": "electric_scooter", "name": "8432635a1e6fd1619805e3f8d5a18ec8", "fusion_lat": 0.0, "fusion_lon": 0.0, "lon": -77.06297216666667, "is_disabled": 0, "bike_id": "8432635a1e6fd1619805e3f8d5a18ec8", "is_reserved": 0, "rental_uris": {"android": "https://dc.lft.to/lastmile_qr_scan", "ios": "https://dc.lft.to/lastmile_qr_scan"}, "lat": 38.9040185}, {"type": "electric_scooter", "name": "94b4d82fdc81d31315d51c36e6c03542", "fusion_lat": 0.0, "fusion_lon": 0.0, "lon": -77.047917, "is_disabled": 0, "bike_id": "94b4d82fdc81d31315d51c36e6c03542", "is_reserved": 0, "rental_uris": {"android": "https://dc.lft.to/lastmile_qr_scan", "ios": "https://dc.lft.to/lastmile_qr_scan"}, "lat": 38.89955483333333}, {"type": "electric_scooter", "name": "6cbbd36c80f082838d78fdf95eedcef2", "fusion_lat": 0.0, "fusion_lon": 0.0, "lon": -77.0344675, "is_disabled": 0, "bike_id": "6cbbd36c80f082838d78fdf95eedcef2", "is_reserved": 0, "rental_uris": {"android": "https://dc.lft.to/lastmile_qr_scan", "ios": "https://dc.lft.to/lastmile_qr_scan"}, "lat": 38.90446216666667}, {"type": "electric_bike", "name": "506daa03e549ca5d8994fe8fa115cadd", "fusion_lat": 0.0, "fusion_lon": 0.0, "lon": -77.01202183333334, "is_disabled": 0, "bike_id": "506daa03e549ca5d8994fe8fa115cadd", "is_reserved": 0, "rental_uris": {"android": "https://dc.lft.to/lastmile_qr_scan", "ios": "https://dc.lft.to/lastmile_qr_scan"}, "lat": 38.95074433333333}, {"type": "electric_scooter", "name": "fc8ace7fe50a03f1a9b9593f5cc3d0a5", "fusion_lat": 0.0, "fusion_lon": 0.0, "lon": -77.0434985, "is_disabled": 0, "bike_id": "fc8ace7fe50a03f1a9b9593f5cc3d0a5", "is_reserved": 0, "rental_uris": {"android": "https://dc.lft.to/lastmile_qr_scan", "ios": "https://dc.lft.to/lastmile_qr_scan"}, "lat": 38.904032}, {"type": "electric_scooter", "name": "a5d1d39867e065be74e626b9dd57096a", "fusion_lat": 0.0, "fusion_lon": 0.0, "lon": -77.0198225, "is_disabled": 0, "bike_id": "a5d1d39867e065be74e626b9dd57096a", "is_reserved": 0, "rental_uris": {"android": "https://dc.lft.to/lastmile_qr_scan", "ios": "https://dc.lft.to/lastmile_qr_scan"}, "lat": 38.887201}, {"type": "electric_scooter", "name": "61f56e4cd19bcfa9714f20faa133277c", "fusion_lat": 0.0, "fusion_lon": 0.0, "lon": -77.0114755, "is_disabled": 0, "bike_id": "61f56e4cd19bcfa9714f20faa133277c", "is_reserved": 0, "rental_uris": {"android": "https://dc.lft.to/lastmile_qr_scan", "ios": "https://dc.lft.to/lastmile_qr_scan"}, "lat": 38.92963666666667}, {"type": "electric_scooter", "name": "d3922fb8e261d2eeaacdefa7a97e2a90", "fusion_lat": 0.0, "fusion_lon": 0.0, "lon": -77.059886, "is_disabled": 0, "bike_id": "d3922fb8e261d2eeaacdefa7a97e2a90", "is_reserved": 0, "rental_uris": {"android": "https://dc.lft.to/lastmile_qr_scan", "ios": "https://dc.lft.to/lastmile_qr_scan"}, "lat": 38.93823966666667}, {"type": "electric_bike", "name": "640d25a807ee08d55d7693192fd6da97", "fusion_lat": 0.0, "fusion_lon": 0.0, "lon": -77.03431533333334, "is_disabled": 0, "bike_id": "640d25a807ee08d55d7693192fd6da97", "is_reserved": 0, "rental_uris": {"android": "https://dc.lft.to/lastmile_qr_scan", "ios": "https://dc.lft.to/lastmile_qr_scan"}, "lat": 38.966192}, {"type": "electric_scooter", "name": "aed42c96fd6e6a44257e6223416a5d93", "fusion_lat": 0.0, "fusion_lon": 0.0, "lon": -77.00893516666666, "is_disabled": 0, "bike_id": "aed42c96fd6e6a44257e6223416a5d93", "is_reserved": 0, "rental_uris": {"android": "https://dc.lft.to/lastmile_qr_scan", "ios": "https://dc.lft.to/lastmile_qr_scan"}, "lat": 38.90237483333333}, {"type": "electric_bike", "name": "3ef52fa74ecefc69fceb889f8341f143", "fusion_lat": 0.0, "fusion_lon": 0.0, "lon": -76.90305166666667, "is_disabled": 0, "bike_id": "3ef52fa74ecefc69fceb889f8341f143", "is_reserved": 0, "rental_uris": {"android": "https://dc.lft.to/lastmile_qr_scan", "ios": "https://dc.lft.to/lastmile_qr_scan"}, "lat": 39.002930666666664}, {"type": "electric_scooter", "name": "2161f0a8500d264091120ffb420973aa", "fusion_lat": 0.0, "fusion_lon": 0.0, "lon": -77.03665, "is_disabled": 0, "bike_id": "2161f0a8500d264091120ffb420973aa", "is_reserved": 0, "rental_uris": {"android": "https://dc.lft.to/lastmile_qr_scan", "ios": "https://dc.lft.to/lastmile_qr_scan"}, "lat": 38.921262166666665}, {"type": "electric_scooter", "name": "dd655d01feeddff72d23a03de8c3a244", "fusion_lat": 0.0, "fusion_lon": 0.0, "lon": -76.99409916666667, "is_disabled": 0, "bike_id": "dd655d01feeddff72d23a03de8c3a244", "is_reserved": 0, "rental_uris": {"android": "https://dc.lft.to/lastmile_qr_scan", "ios": "https://dc.lft.to/lastmile_qr_scan"}, "lat": 38.8779095}, {"type": "electric_scooter", "name": "00e586b6f67b382ce6298efc712fb8f3", "fusion_lat": 0.0, "fusion_lon": 0.0, "lon": -77.05792383333333, "is_disabled": 0, "bike_id": "00e586b6f67b382ce6298efc712fb8f3", "is_reserved": 0, "rental_uris": {"android": "https://dc.lft.to/lastmile_qr_scan", "ios": "https://dc.lft.to/lastmile_qr_scan"}, "lat": 38.934813166666665}, {"type": "electric_scooter", "name": "c79ae6a16c84a0a91fa8069771b2cc63", "fusion_lat": 0.0, "fusion_lon": 0.0, "lon": -77.00318683333333, "is_disabled": 0, "bike_id": "c79ae6a16c84a0a91fa8069771b2cc63", "is_reserved": 0, "rental_uris": {"android": "https://dc.lft.to/lastmile_qr_scan", "ios": "https://dc.lft.to/lastmile_qr_scan"}, "lat": 38.91341833333333}, {"type": "electric_scooter", "name": "4506cd7607668c829c7c89527277db37", "fusion_lat": 0.0, "fusion_lon": 0.0, "lon": -77.04660233333334, "is_disabled": 0, "bike_id": "4506cd7607668c829c7c89527277db37", "is_reserved": 0, "rental_uris": {"android": "https://dc.lft.to/lastmile_qr_scan", "ios": "https://dc.lft.to/lastmile_qr_scan"}, "lat": 38.89748433333333}, {"type": "electric_scooter", "name": "7021b611fe306b029b8e637fd1e4b3db", "fusion_lat": 0.0, "fusion_lon": 0.0, "lon": -76.99844733333333, "is_disabled": 0, "bike_id": "7021b611fe306b029b8e637fd1e4b3db", "is_reserved": 0, "rental_uris": {"android": "https://dc.lft.to/lastmile_qr_scan", "ios": "https://dc.lft.to/lastmile_qr_scan"}, "lat": 38.9064625}, {"type": "electric_scooter", "name": "6480df57700a0ab8e3033f558edbbbf3", "fusion_lat": 0.0, "fusion_lon": 0.0, "lon": -77.07137983333334, "is_disabled": 0, "bike_id": "6480df57700a0ab8e3033f558edbbbf3", "is_reserved": 0, "rental_uris": {"android": "https://dc.lft.to/lastmile_qr_scan", "ios": "https://dc.lft.to/lastmile_qr_scan"}, "lat": 38.926238}, {"type": "electric_scooter", "name": "d35fd3f1c031b5c8989d553400f3d805", "fusion_lat": 0.0, "fusion_lon": 0.0, "lon": -77.0021425, "is_disabled": 0, "bike_id": "d35fd3f1c031b5c8989d553400f3d805", "is_reserved": 0, "rental_uris": {"android": "https://dc.lft.to/lastmile_qr_scan", "ios": "https://dc.lft.to/lastmile_qr_scan"}, "lat": 38.9003405}, {"type": "electric_scooter", "name": "1c046ef1965bde8e37a3b1069a166fd0", "fusion_lat": 0.0, "fusion_lon": 0.0, "lon": -77.016378, "is_disabled": 0, "bike_id": "1c046ef1965bde8e37a3b1069a166fd0", "is_reserved": 0, "rental_uris": {"android": "https://dc.lft.to/lastmile_qr_scan", "ios": "https://dc.lft.to/lastmile_qr_scan"}, "lat": 38.90566483333333}, {"type": "electric_scooter", "name": "4d55df2979ee2a1842b408e9b20726a1", "fusion_lat": 0.0, "fusion_lon": 0.0, "lon": -77.021564, "is_disabled": 0, "bike_id": "4d55df2979ee2a1842b408e9b20726a1", "is_reserved": 0, "rental_uris": {"android": "https://dc.lft.to/lastmile_qr_scan", "ios": "https://dc.lft.to/lastmile_qr_scan"}, "lat": 38.941359}, {"type": "electric_scooter", "name": "e51d0fb3859325d246fcb86f2379cb4c", "fusion_lat": 0.0, "fusion_lon": 0.0, "lon": -76.946522, "is_disabled": 0, "bike_id": "e51d0fb3859325d246fcb86f2379cb4c", "is_reserved": 0, "rental_uris": {"android": "https://dc.lft.to/lastmile_qr_scan", "ios": "https://dc.lft.to/lastmile_qr_scan"}, "lat": 38.898256333333336}, {"type": "electric_scooter", "name": "a94752ba84f7978d3fd3df5972cc7341", "fusion_lat": 0.0, "fusion_lon": 0.0, "lon": -77.02301533333333, "is_disabled": 0, "bike_id": "a94752ba84f7978d3fd3df5972cc7341", "is_reserved": 0, "rental_uris": {"android": "https://dc.lft.to/lastmile_qr_scan", "ios": "https://dc.lft.to/lastmile_qr_scan"}, "lat": 38.92824183333333}, {"type": "electric_scooter", "name": "19b539e5d66d05ddc4dd2e1c995e952e", "fusion_lat": 0.0, "fusion_lon": 0.0, "lon": -77.03222983333333, "is_disabled": 0, "bike_id": "19b539e5d66d05ddc4dd2e1c995e952e", "is_reserved": 0, "rental_uris": {"android": "https://dc.lft.to/lastmile_qr_scan", "ios": "https://dc.lft.to/lastmile_qr_scan"}, "lat": 38.9287205}, {"type": "electric_scooter", "name": "757d87227b6c38f713c2b04c17405c34", "fusion_lat": 0.0, "fusion_lon": 0.0, "lon": -77.02657083333334, "is_disabled": 0, "bike_id": "757d87227b6c38f713c2b04c17405c34", "is_reserved": 0, "rental_uris": {"android": "https://dc.lft.to/lastmile_qr_scan", "ios": "https://dc.lft.to/lastmile_qr_scan"}, "lat": 38.92783583333333}, {"type": "electric_scooter", "name": "80b81733a07aa2488e6d7c11a7e48de6", "fusion_lat": 0.0, "fusion_lon": 0.0, "lon": -76.98698483333334, "is_disabled": 0, "bike_id": "80b81733a07aa2488e6d7c11a7e48de6", "is_reserved": 0, "rental_uris": {"android": "https://dc.lft.to/lastmile_qr_scan", "ios": "https://dc.lft.to/lastmile_qr_scan"}, "lat": 38.888430166666666}, {"type": "electric_scooter", "name": "069c09de4a5069f1dc069ce2bbfd6a46", "fusion_lat": 0.0, "fusion_lon": 0.0, "lon": -77.0336435, "is_disabled": 0, "bike_id": "069c09de4a5069f1dc069ce2bbfd6a46", "is_reserved": 0, "rental_uris": {"android": "https://dc.lft.to/lastmile_qr_scan", "ios": "https://dc.lft.to/lastmile_qr_scan"}, "lat": 38.9004605}, {"type": "electric_scooter", "name": "dd775defda24ea34f5d79af32fca0c55", "fusion_lat": 0.0, "fusion_lon": 0.0, "lon": -77.03565766666667, "is_disabled": 0, "bike_id": "dd775defda24ea34f5d79af32fca0c55", "is_reserved": 0, "rental_uris": {"android": "https://dc.lft.to/lastmile_qr_scan", "ios": "https://dc.lft.to/lastmile_qr_scan"}, "lat": 38.92484533333333}, {"type": "electric_scooter", "name": "0b30c9e97758cad41da4d85bd7740183", "fusion_lat": 0.0, "fusion_lon": 0.0, "lon": -77.02975433333333, "is_disabled": 0, "bike_id": "0b30c9e97758cad41da4d85bd7740183", "is_reserved": 0, "rental_uris": {"android": "https://dc.lft.to/lastmile_qr_scan", "ios": "https://dc.lft.to/lastmile_qr_scan"}, "lat": 38.922905}, {"type": "electric_scooter", "name": "a73b35aa6764b8608dcaadef41d09c4b", "fusion_lat": 0.0, "fusion_lon": 0.0, "lon": -77.03428916666667, "is_disabled": 0, "bike_id": "a73b35aa6764b8608dcaadef41d09c4b", "is_reserved": 0, "rental_uris": {"android": "https://dc.lft.to/lastmile_qr_scan", "ios": "https://dc.lft.to/lastmile_qr_scan"}, "lat": 38.90270616666667}, {"type": "electric_bike", "name": "eeda1df9b3c3ed4a265fa3867db7828c", "fusion_lat": 0.0, "fusion_lon": 0.0, "lon": -77.0995995, "is_disabled": 0, "bike_id": "eeda1df9b3c3ed4a265fa3867db7828c", "is_reserved": 0, "rental_uris": {"android": "https://dc.lft.to/lastmile_qr_scan", "ios": "https://dc.lft.to/lastmile_qr_scan"}, "lat": 38.85792433333334}, {"type": "electric_scooter", "name": "73a851c7c20c4032c1ffd4ef4b60cd50", "fusion_lat": 0.0, "fusion_lon": 0.0, "lon": -77.0433685, "is_disabled": 0, "bike_id": "73a851c7c20c4032c1ffd4ef4b60cd50", "is_reserved": 0, "rental_uris": {"android": "https://dc.lft.to/lastmile_qr_scan", "ios": "https://dc.lft.to/lastmile_qr_scan"}, "lat": 38.90683533333333}, {"type": "electric_scooter", "name": "d4c40464fef6e1edf49d35167b7ebc9d", "fusion_lat": 0.0, "fusion_lon": 0.0, "lon": -76.9446535, "is_disabled": 0, "bike_id": "d4c40464fef6e1edf49d35167b7ebc9d", "is_reserved": 0, "rental_uris": {"android": "https://dc.lft.to/lastmile_qr_scan", "ios": "https://dc.lft.to/lastmile_qr_scan"}, "lat": 38.89030416666667}, {"type": "electric_bike", "name": "3256ddd8f3f2ee064a8a761e69ae0867", "fusion_lat": 0.0, "fusion_lon": 0.0, "lon": -77.06052366666667, "is_disabled": 0, "bike_id": "3256ddd8f3f2ee064a8a761e69ae0867", "is_reserved": 0, "rental_uris": {"android": "https://dc.lft.to/lastmile_qr_scan", "ios": "https://dc.lft.to/lastmile_qr_scan"}, "lat": 38.94335783333333}, {"type": "electric_scooter", "name": "01271b62b9f88ff9730852b7d037a465", "fusion_lat": 0.0, "fusion_lon": 0.0, "lon": -77.046104, "is_disabled": 0, "bike_id": "01271b62b9f88ff9730852b7d037a465", "is_reserved": 0, "rental_uris": {"android": "https://dc.lft.to/lastmile_qr_scan", "ios": "https://dc.lft.to/lastmile_qr_scan"}, "lat": 38.9328995}, {"type": "electric_scooter", "name": "c366c7b3d4442720c0678bfc2e2026c0", "fusion_lat": 0.0, "fusion_lon": 0.0, "lon": -77.036706, "is_disabled": 0, "bike_id": "c366c7b3d4442720c0678bfc2e2026c0", "is_reserved": 0, "rental_uris": {"android": "https://dc.lft.to/lastmile_qr_scan", "ios": "https://dc.lft.to/lastmile_qr_scan"}, "lat": 38.918171666666666}, {"type": "electric_scooter", "name": "5a28886b3c7480da21b96982a72335da", "fusion_lat": 0.0, "fusion_lon": 0.0, "lon": -77.07261883333334, "is_disabled": 0, "bike_id": "5a28886b3c7480da21b96982a72335da", "is_reserved": 0, "rental_uris": {"android": "https://dc.lft.to/lastmile_qr_scan", "ios": "https://dc.lft.to/lastmile_qr_scan"}, "lat": 38.93483883333333}, {"type": "electric_scooter", "name": "b94227d4dccbb939ee44f5793bb2464c", "fusion_lat": 0.0, "fusion_lon": 0.0, "lon": -77.034023, "is_disabled": 0, "bike_id": "b94227d4dccbb939ee44f5793bb2464c", "is_reserved": 0, "rental_uris": {"android": "https://dc.lft.to/lastmile_qr_scan", "ios": "https://dc.lft.to/lastmile_qr_scan"}, "lat": 38.9244045}, {"type": "electric_scooter", "name": "9ff93952d15668de80aef122c1190833", "fusion_lat": 0.0, "fusion_lon": 0.0, "lon": -77.02197983333333, "is_disabled": 0, "bike_id": "9ff93952d15668de80aef122c1190833", "is_reserved": 0, "rental_uris": {"android": "https://dc.lft.to/lastmile_qr_scan", "ios": "https://dc.lft.to/lastmile_qr_scan"}, "lat": 38.907886500000004}, {"type": "electric_scooter", "name": "90d1b9e360937412bfffb2b7d94d156c", "fusion_lat": 0.0, "fusion_lon": 0.0, "lon": -77.03476383333333, "is_disabled": 0, "bike_id": "90d1b9e360937412bfffb2b7d94d156c", "is_reserved": 0, "rental_uris": {"android": "https://dc.lft.to/lastmile_qr_scan", "ios": "https://dc.lft.to/lastmile_qr_scan"}, "lat": 38.93532966666667}, {"type": "electric_scooter", "name": "6b2ca34f7bd346c46aece8034b07073e", "fusion_lat": 0.0, "fusion_lon": 0.0, "lon": -77.0551165, "is_disabled": 0, "bike_id": "6b2ca34f7bd346c46aece8034b07073e", "is_reserved": 0, "rental_uris": {"android": "https://dc.lft.to/lastmile_qr_scan", "ios": "https://dc.lft.to/lastmile_qr_scan"}, "lat": 38.9283605}, {"type": "electric_scooter", "name": "95b9b762cb8c393e719a37e4e34a6a85", "fusion_lat": 0.0, "fusion_lon": 0.0, "lon": -77.03453716666667, "is_disabled": 0, "bike_id": "95b9b762cb8c393e719a37e4e34a6a85", "is_reserved": 0, "rental_uris": {"android": "https://dc.lft.to/lastmile_qr_scan", "ios": "https://dc.lft.to/lastmile_qr_scan"}, "lat": 38.916036}, {"type": "electric_scooter", "name": "2963125919bd9b8e3e10529a9c843f4a", "fusion_lat": 0.0, "fusion_lon": 0.0, "lon": -77.00054466666667, "is_disabled": 0, "bike_id": "2963125919bd9b8e3e10529a9c843f4a", "is_reserved": 0, "rental_uris": {"android": "https://dc.lft.to/lastmile_qr_scan", "ios": "https://dc.lft.to/lastmile_qr_scan"}, "lat": 38.87881383333333}, {"type": "electric_scooter", "name": "2cd71b843a108d4c81f9473f3d1d02dc", "fusion_lat": 0.0, "fusion_lon": 0.0, "lon": -77.06452683333333, "is_disabled": 0, "bike_id": "2cd71b843a108d4c81f9473f3d1d02dc", "is_reserved": 0, "rental_uris": {"android": "https://dc.lft.to/lastmile_qr_scan", "ios": "https://dc.lft.to/lastmile_qr_scan"}, "lat": 38.948983166666665}, {"type": "electric_scooter", "name": "0f9e9fda487c993911484ad90b72ed23", "fusion_lat": 0.0, "fusion_lon": 0.0, "lon": -77.0320535, "is_disabled": 0, "bike_id": "0f9e9fda487c993911484ad90b72ed23", "is_reserved": 0, "rental_uris": {"android": "https://dc.lft.to/lastmile_qr_scan", "ios": "https://dc.lft.to/lastmile_qr_scan"}, "lat": 38.91196766666667}, {"type": "electric_scooter", "name": "c06599576ac080bf781fa7613c595643", "fusion_lat": 0.0, "fusion_lon": 0.0, "lon": -76.93001416666667, "is_disabled": 0, "bike_id": "c06599576ac080bf781fa7613c595643", "is_reserved": 0, "rental_uris": {"android": "https://dc.lft.to/lastmile_qr_scan", "ios": "https://dc.lft.to/lastmile_qr_scan"}, "lat": 38.8899205}, {"type": "electric_scooter", "name": "2459debc31e240c2727db23fa512249f", "fusion_lat": 0.0, "fusion_lon": 0.0, "lon": -77.00344683333333, "is_disabled": 0, "bike_id": "2459debc31e240c2727db23fa512249f", "is_reserved": 0, "rental_uris": {"android": "https://dc.lft.to/lastmile_qr_scan", "ios": "https://dc.lft.to/lastmile_qr_scan"}, "lat": 38.87660833333333}, {"type": "electric_scooter", "name": "b7606af4b7b1a0daa5d0d1d24158d102", "fusion_lat": 0.0, "fusion_lon": 0.0, "lon": -77.0056735, "is_disabled": 0, "bike_id": "b7606af4b7b1a0daa5d0d1d24158d102", "is_reserved": 0, "rental_uris": {"android": "https://dc.lft.to/lastmile_qr_scan", "ios": "https://dc.lft.to/lastmile_qr_scan"}, "lat": 38.8806625}, {"type": "electric_scooter", "name": "4fa2431786977a51cf9b39ced1b21fda", "fusion_lat": 0.0, "fusion_lon": 0.0, "lon": -77.0611245, "is_disabled": 0, "bike_id": "4fa2431786977a51cf9b39ced1b21fda", "is_reserved": 0, "rental_uris": {"android": "https://dc.lft.to/lastmile_qr_scan", "ios": "https://dc.lft.to/lastmile_qr_scan"}, "lat": 38.91288183333333}, {"type": "electric_scooter", "name": "afceff585bede276f2e8c9b678e1f18e", "fusion_lat": 0.0, "fusion_lon": 0.0, "lon": -77.02283283333334, "is_disabled": 0, "bike_id": "afceff585bede276f2e8c9b678e1f18e", "is_reserved": 0, "rental_uris": {"android": "https://dc.lft.to/lastmile_qr_scan", "ios": "https://dc.lft.to/lastmile_qr_scan"}, "lat": 38.89506316666667}, {"type": "electric_scooter", "name": "7c2554705770a5c3da57484dbc09966e", "fusion_lat": 0.0, "fusion_lon": 0.0, "lon": -76.99157933333333, "is_disabled": 0, "bike_id": "7c2554705770a5c3da57484dbc09966e", "is_reserved": 0, "rental_uris": {"android": "https://dc.lft.to/lastmile_qr_scan", "ios": "https://dc.lft.to/lastmile_qr_scan"}, "lat": 38.900372}, {"type": "electric_scooter", "name": "85e086e8ecf666c7f1c8aba43c90959e", "fusion_lat": 0.0, "fusion_lon": 0.0, "lon": -77.01829183333334, "is_disabled": 0, "bike_id": "85e086e8ecf666c7f1c8aba43c90959e", "is_reserved": 0, "rental_uris": {"android": "https://dc.lft.to/lastmile_qr_scan", "ios": "https://dc.lft.to/lastmile_qr_scan"}, "lat": 38.9095815}, {"type": "electric_bike", "name": "c2b165b939077f44d4a35f7a1400884c", "fusion_lat": 0.0, "fusion_lon": 0.0, "lon": -77.04996583333333, "is_disabled": 0, "bike_id": "c2b165b939077f44d4a35f7a1400884c", "is_reserved": 0, "rental_uris": {"android": "https://dc.lft.to/lastmile_qr_scan", "ios": "https://dc.lft.to/lastmile_qr_scan"}, "lat": 38.805316833333336}, {"type": "electric_scooter", "name": "475a0ac06752abeccba467ce7cf6f8c3", "fusion_lat": 0.0, "fusion_lon": 0.0, "lon": -77.024079, "is_disabled": 0, "bike_id": "475a0ac06752abeccba467ce7cf6f8c3", "is_reserved": 0, "rental_uris": {"android": "https://dc.lft.to/lastmile_qr_scan", "ios": "https://dc.lft.to/lastmile_qr_scan"}, "lat": 38.920820166666665}, {"type": "electric_scooter", "name": "96814d97a534078145ebcf005bc91919", "fusion_lat": 0.0, "fusion_lon": 0.0, "lon": -77.02628133333333, "is_disabled": 0, "bike_id": "96814d97a534078145ebcf005bc91919", "is_reserved": 0, "rental_uris": {"android": "https://dc.lft.to/lastmile_qr_scan", "ios": "https://dc.lft.to/lastmile_qr_scan"}, "lat": 38.93870233333333}, {"type": "electric_scooter", "name": "aa3aabbfeaaf4240659ecaca9a668da2", "fusion_lat": 0.0, "fusion_lon": 0.0, "lon": -76.9976605, "is_disabled": 0, "bike_id": "aa3aabbfeaaf4240659ecaca9a668da2", "is_reserved": 0, "rental_uris": {"android": "https://dc.lft.to/lastmile_qr_scan", "ios": "https://dc.lft.to/lastmile_qr_scan"}, "lat": 38.9112045}, {"type": "electric_scooter", "name": "19558afa59960d0c8e1c290f995fb1c6", "fusion_lat": 0.0, "fusion_lon": 0.0, "lon": -77.04611783333333, "is_disabled": 0, "bike_id": "19558afa59960d0c8e1c290f995fb1c6", "is_reserved": 0, "rental_uris": {"android": "https://dc.lft.to/lastmile_qr_scan", "ios": "https://dc.lft.to/lastmile_qr_scan"}, "lat": 38.90660416666667}, {"type": "electric_scooter", "name": "e2ae67b5b971ad12f65b60ab0b28f2d3", "fusion_lat": 0.0, "fusion_lon": 0.0, "lon": -77.00055383333333, "is_disabled": 0, "bike_id": "e2ae67b5b971ad12f65b60ab0b28f2d3", "is_reserved": 0, "rental_uris": {"android": "https://dc.lft.to/lastmile_qr_scan", "ios": "https://dc.lft.to/lastmile_qr_scan"}, "lat": 38.878804}, {"type": "electric_scooter", "name": "150e143c67e0e45abe464e2017f70480", "fusion_lat": 0.0, "fusion_lon": 0.0, "lon": -77.02103116666666, "is_disabled": 0, "bike_id": "150e143c67e0e45abe464e2017f70480", "is_reserved": 0, "rental_uris": {"android": "https://dc.lft.to/lastmile_qr_scan", "ios": "https://dc.lft.to/lastmile_qr_scan"}, "lat": 38.896149333333334}, {"type": "electric_scooter", "name": "722050d708ff69f55bba01dcc215197d", "fusion_lat": 0.0, "fusion_lon": 0.0, "lon": -77.05332966666667, "is_disabled": 0, "bike_id": "722050d708ff69f55bba01dcc215197d", "is_reserved": 0, "rental_uris": {"android": "https://dc.lft.to/lastmile_qr_scan", "ios": "https://dc.lft.to/lastmile_qr_scan"}, "lat": 38.904565833333336}, {"type": "electric_scooter", "name": "3c8d9812b6c00610b0d53f7fa957bc92", "fusion_lat": 0.0, "fusion_lon": 0.0, "lon": -77.0456595, "is_disabled": 0, "bike_id": "3c8d9812b6c00610b0d53f7fa957bc92", "is_reserved": 0, "rental_uris": {"android": "https://dc.lft.to/lastmile_qr_scan", "ios": "https://dc.lft.to/lastmile_qr_scan"}, "lat": 38.90377683333333}, {"type": "electric_scooter", "name": "c0ebcb494288ca3826da066900b75e05", "fusion_lat": 0.0, "fusion_lon": 0.0, "lon": -77.02428283333333, "is_disabled": 0, "bike_id": "c0ebcb494288ca3826da066900b75e05", "is_reserved": 0, "rental_uris": {"android": "https://dc.lft.to/lastmile_qr_scan", "ios": "https://dc.lft.to/lastmile_qr_scan"}, "lat": 38.91552683333333}, {"type": "electric_scooter", "name": "b6abcc5493d4c691a752c8f179934fdf", "fusion_lat": 0.0, "fusion_lon": 0.0, "lon": -77.0027515, "is_disabled": 0, "bike_id": "b6abcc5493d4c691a752c8f179934fdf", "is_reserved": 0, "rental_uris": {"android": "https://dc.lft.to/lastmile_qr_scan", "ios": "https://dc.lft.to/lastmile_qr_scan"}, "lat": 38.90576933333333}, {"type": "electric_scooter", "name": "63d087deab90b3e7486ef150a9fd23ab", "fusion_lat": 0.0, "fusion_lon": 0.0, "lon": -76.998712, "is_disabled": 0, "bike_id": "63d087deab90b3e7486ef150a9fd23ab", "is_reserved": 0, "rental_uris": {"android": "https://dc.lft.to/lastmile_qr_scan", "ios": "https://dc.lft.to/lastmile_qr_scan"}, "lat": 38.900300333333334}, {"type": "electric_scooter", "name": "58f8e8a0c176a11da7693d0ad2214081", "fusion_lat": 0.0, "fusion_lon": 0.0, "lon": -77.03446483333333, "is_disabled": 0, "bike_id": "58f8e8a0c176a11da7693d0ad2214081", "is_reserved": 0, "rental_uris": {"android": "https://dc.lft.to/lastmile_qr_scan", "ios": "https://dc.lft.to/lastmile_qr_scan"}, "lat": 38.913956},