{"data": {"bikes": [{"bike_id": "f4a7dfde13e1d96303cabe466f2d8ff1", "lat": 38.883706333333336, "is_reserved": 0, "fusion_lat": 0.0, "rental_uris": {"android": "https://dc.lft.to/lastmile_qr_scan", "ios": "https://dc.lft.to/lastmile_qr_scan"}, "fusion_lon": 0.0, "name": "f4a7dfde13e1d96303cabe466f2d8ff1", "lon": -76.995466, "is_disabled": 0, "type": "electric_scooter"}, {"bike_id": "4ef422185062211a3f42318c98567455", "lat": 38.844686333333335, "is_reserved": 0, "fusion_lat": 0.0, "rental_uris": {"android": "https://dc.lft.to/lastmile_qr_scan", "ios": "https://dc.lft.to/lastmile_qr_scan"}, "fusion_lon": 0.0, "name": "4ef422185062211a3f42318c98567455", "lon": -76.978599, "is_disabled": 0, "type": "electric_bike"}, {"bike_id": "c45217daa604fb91151297af6b7f0bb5", "lat": 38.900424, "is_reserved": 0, "fusion_lat": 0.0, "rental_uris": {"android": "https://dc.lft.to/lastmile_qr_scan", "ios": "https://dc.lft.to/lastmile_qr_scan"}, "fusion_lon": 0.0, "name": "c45217daa604fb91151297af6b7f0bb5", "lon": -76.98288683333334, "is_disabled": 0, "type": "electric_scooter"}, {"bike_id": "7252dd136949d630366282cb40aa778a", "lat": 38.9077425, "is_reserved": 0, "fusion_lat": 0.0, "rental_uris": {"android": "https://dc.lft.to/lastmile_qr_scan", "ios": "https://dc.lft.to/lastmile_qr_scan"}, "fusion_lon": 0.0, "name": "7252dd136949d630366282cb40aa778a", "lon": -77.03770633333333, "is_disabled": 0, "type": "electric_scooter"}, {"bike_id": "003e8ad8bbcb9f7d9e576d4e4f83b398", "lat": 38.89602216666667, "is_reserved": 0, "fusion_lat": 0.0, "rental_uris": {"android": "https://dc.lft.to/lastmile_qr_scan", "ios": "https://dc.lft.to/lastmile_qr_scan"}, "fusion_lon": 0.0, "name": "003e8ad8bbcb9f7d9e576d4e4f83b398", "lon": -77.01221333333334, "is_disabled": 0, "type": "electric_scooter"}, {"bike_id": "724539c673c08133a2e006fa643f0a9b", "lat": 38.884829333333336, "is_reserved": 0, "fusion_lat": 0.0, "rental_uris": {"android": "https://dc.lft.to/lastmile_qr_scan", "ios": "https://dc.lft.to/lastmile_qr_scan"}, "fusion_lon": 0.0, "name": "724539c673c08133a2e006fa643f0a9b", "lon": -77.03480683333333, "is_disabled": 0, "type": "electric_scooter"}, {"bike_id": "56ecc714c9e7ae32a2f68135e58b513a", "lat": 38.923383, "is_reserved": 0, "fusion_lat": 0.0, "rental_uris": {"android": "https://dc.lft.to/lastmile_qr_scan", "ios": "https://dc.lft.to/lastmile_qr_scan"}, "fusion_lon": 0.0, "name": "56ecc714c9e7ae32a2f68135e58b513a", "lon": -77.035108, "is_disabled": 0, "type": "electric_scooter"}, {"bike_id": "d2f6af018bf0dc913dd4c9f0afb8988b", "lat": 38.972057666666664, "is_reserved": 0, "fusion_lat": 0.0, "rental_uris": {"android": "https://dc.lft.to/lastmile_qr_scan", "ios": "https://dc.lft.to/lastmile_qr_scan"}, "fusion_lon": 0.0, "name": "d2f6af018bf0dc913dd4c9f0afb8988b", "lon": -77.03330033333333, "is_disabled": 0, "type": "electric_bike"}, {"bike_id": "cb61f33838ccfae0c67304af6c6d0fc2", "lat": 38.90567216666667, "is_reserved": 0, "fusion_lat": 0.0, "rental_uris": {"android": "https://dc.lft.to/lastmile_qr_scan", "ios": "https://dc.lft.to/lastmile_qr_scan"}, "fusion_lon": 0.0, "name": "cb61f33838ccfae0c67304af6c6d0fc2", "lon": -77.03433483333333, "is_disabled": 0, "type": "electric_scooter"}, {"bike_id": "33077965276bc7c8f8a8cf3d930f9096", "lat": 38.901900499999996, "is_reserved": 0, "fusion_lat": 0.0, "rental_uris": {"android": "https://dc.lft.to/lastmile_qr_scan", "ios": "https://dc.lft.to/lastmile_qr_scan"}, "fusion_lon": 0.0, "name": "33077965276bc7c8f8a8cf3d930f9096", "lon": -76.97886166666666, "is_disabled": 0, "type": "electric_scooter"}, {"bike_id": "6da5a07301ff0c4681172aae8f457a23", "lat": 38.91856883333333, "is_reserved": 0, "fusion_lat": 0.0, "rental_uris": {"android": "https://dc.lft.to/lastmile_qr_scan", "ios": "https://dc.lft.to/lastmile_qr_scan"}, "fusion_lon": 0.0, "name": "6da5a07301ff0c4681172aae8f457a23", "lon": -77.041744, "is_disabled": 0, "type": "electric_scooter"}, {"bike_id": "89e751d31d47ba4723b06f3d22d8246c", "lat": 38.932271, "is_reserved": 0, "fusion_lat": 0.0, "rental_uris": {"android": "https://dc.lft.to/lastmile_qr_scan", "ios": "https://dc.lft.to/lastmile_qr_scan"}, "fusion_lon": 0.0, "name": "89e751d31d47ba4723b06f3d22d8246c", "lon": -76.99514783333333, "is_disabled": 0, "type": "electric_scooter"}, {"bike_id": "cdf484fe7c31384ef621d1a738a65e6c", "lat": 38.914470333333334, "is_reserved": 0, "fusion_lat": 0.0, "rental_uris": {"android": "https://dc.lft.to/lastmile_qr_scan", "ios": "https://dc.lft.to/lastmile_qr_scan"}, "fusion_lon": 0.0, "name": "cdf484fe7c31384ef621d1a738a65e6c", "lon": -77.022192, "is_disabled": 0, "type": "electric_scooter"}, {"bike_id": "41ae7362ecc8659faaed6bd859280a35", "lat": 38.9156145, "is_reserved": 0, "fusion_lat": 0.0, "rental_uris": {"android": "https://dc.lft.to/lastmile_qr_scan", "ios": "https://dc.lft.to/lastmile_qr_scan"}, "fusion_lon": 0.0, "name": "41ae7362ecc8659faaed6bd859280a35", "lon": -77.031411, "is_disabled": 0, "type": "electric_scooter"}, {"bike_id": "c16e53af2466fea80428501f3206bc0d", "lat": 38.89222483333333, "is_reserved": 0, "fusion_lat": 0.0, "rental_uris": {"android": "https://dc.lft.to/lastmile_qr_scan", "ios": "https://dc.lft.to/lastmile_qr_scan"}, "fusion_lon": 0.0, "name": "c16e53af2466fea80428501f3206bc0d", "lon": -77.04865916666667, "is_disabled": 0, "type": "electric_scooter"}, {"bike_id": "419f05a0317cc88826b583552e9bdc18", "lat": 38.9262205, "is_reserved": 0, "fusion_lat": 0.0, "rental_uris": {"android": "https://dc.lft.to/lastmile_qr_scan", "ios": "https://dc.lft.to/lastmile_qr_scan"}, "fusion_lon": 0.0, "name": "419f05a0317cc88826b583552e9bdc18", "lon": -77.037846, "is_disabled": 0, "type": "electric_scooter"}, {"bike_id": "c393da6d055c2fc16fc0c88286c787b6", "lat": 38.883146833333335, "is_reserved": 0, "fusion_lat": 0.0, "rental_uris": {"android": "https://dc.lft.to/lastmile_qr_scan", "ios": "https://dc.lft.to/lastmile_qr_scan"}, "fusion_lon": 0.0, "name": "c393da6d055c2fc16fc0c88286c787b6", "lon": -77.00347283333333, "is_disabled": 0, "type": "electric_scooter"}, {"bike_id": "7f7242092c7f064ff9b0cb77e5f12fde", "lat": 38.88497733333333, "is_reserved": 0, "fusion_lat": 0.0, "rental_uris": {"android": "https://dc.lft.to/lastmile_qr_scan", "ios": "https://dc.lft.to/lastmile_qr_scan"}, "fusion_lon": 0.0, "name": "7f7242092c7f064ff9b0cb77e5f12fde", "lon": -77.00730683333333, "is_disabled": 0, "type": "electric_scooter"}, {"bike_id": "0139a79b8c663c701497c85160c697af", "lat": 38.916698, "is_reserved": 0, "fusion_lat": 0.0, "rental_uris": {"android": "https://dc.lft.to/lastmile_qr_scan", "ios": "https://dc.lft.to/lastmile_qr_scan"}, "fusion_lon": 0.0, "name": "0139a79b8c663c701497c85160c697af", "lon": -76.98180133333334, "is_disabled": 0, "type": "electric_scooter"}, {"bike_id": "1cb40606d65d4494f09feb4719731b0c", "lat": 38.908901666666665, "is_reserved": 0, "fusion_lat": 0.0, "rental_uris": {"android": "https://dc.lft.to/lastmile_qr_scan", "ios": "https://dc.lft.to/lastmile_qr_scan"}, "fusion_lon": 0.0, "name": "1cb40606d65d4494f09feb4719731b0c", "lon": -77.03204666666667, "is_disabled": 0, "type": "electric_scooter"}, {"bike_id": "6994bc4aeed0b19437fa66fcf70d61ab", "lat": 38.9071795, "is_reserved": 0, "fusion_lat": 0.0, "rental_uris": {"android": "https://dc.lft.to/lastmile_qr_scan", "ios": "https://dc.lft.to/lastmile_qr_scan"}, "fusion_lon": 0.0, "name": "6994bc4aeed0b19437fa66fcf70d61ab", "lon": -77.00215166666666, "is_disabled": 0, "type": "electric_scooter"}, {"bike_id": "0d7ac19dde03ed27d57b110fc56b33ef", "lat": 38.8924345, "is_reserved": 0, "fusion_lat": 0.0, "rental_uris": {"android": "https://dc.lft.to/lastmile_qr_scan", "ios": "https://dc.lft.to/lastmile_qr_scan"}, "fusion_lon": 0.0, "name": "0d7ac19dde03ed27d57b110fc56b33ef", "lon": -77.04511033333333, "is_disabled": 0, "type": "electric_scooter"}, {"bike_id": "70a6c3a573b7ea7c4cd4c37522306fd3", "lat": 38.87813966666667, "is_reserved": 0, "fusion_lat": 0.0, "rental_uris": {"android": "https://dc.lft.to/lastmile_qr_scan", "ios": "https://dc.lft.to/lastmile_qr_scan"}, "fusion_lon": 0.0, "name": "70a6c3a573b7ea7c4cd4c37522306fd3", "lon": -76.971761, "is_disabled": 0, "type": "electric_scooter"}, {"bike_id": "2baddb9836b4f31c26aff26a0785dc8c", "lat": 38.9909915, "is_reserved": 0, "fusion_lat": 0.0, "rental_uris": {"android": "https://dc.lft.to/lastmile_qr_scan", "ios": "https://dc.lft.to/lastmile_qr_scan"}, "fusion_lon": 0.0, "name": "2baddb9836b4f31c26aff26a0785dc8c", "lon": -76.99367033333333, "is_disabled": 0, "type": "electric_bike"}, {"bike_id": "33e82004f970c7d1ac7be1871df2136c", "lat": 38.8589485, "is_reserved": 0, "fusion_lat": 0.0, "rental_uris": {"android": "https://dc.lft.to/lastmile_qr_scan", "ios": "https://dc.lft.to/lastmile_qr_scan"}, "fusion_lon": 0.0, "name": "33e82004f970c7d1ac7be1871df2136c", "lon": -76.9973215, "is_disabled": 0, "type": "electric_scooter"}, {"bike_id": "169f013d545f8653caa8f9407b98322f", "lat": 38.90011533333333, "is_reserved": 0, "fusion_lat": 0.0, "rental_uris": {"android": "https://dc.lft.to/lastmile_qr_scan", "ios": "https://dc.lft.to/lastmile_qr_scan"}, "fusion_lon": 0.0, "name": "169f013d545f8653caa8f9407b98322f", "lon": -77.021994, "is_disabled": 0, "type": "electric_scooter"}, {"bike_id": "443c8219e5be9cbbe7a00ecbc8cd862e", "lat": 38.89386066666667, "is_reserved": 0, "fusion_lat": 0.0, "rental_uris": {"android": "https://dc.lft.to/lastmile_qr_scan", "ios": "https://dc.lft.to/lastmile_qr_scan"}, "fusion_lon": 0.0, "name": "443c8219e5be9cbbe7a00ecbc8cd862e", "lon": -77.02269166666666, "is_disabled": 0, "type": "electric_scooter"}, {"bike_id": "09d80ef020fc6013293f2d9ec02a414a", "lat": 38.91425666666667, "is_reserved": 0, "fusion_lat": 0.0, "rental_uris": {"android": "https://dc.lft.to/lastmile_qr_scan", "ios": "https://dc.lft.to/lastmile_qr_scan"}, "fusion_lon": 0.0, "name": "09d80ef020fc6013293f2d9ec02a414a", "lon": -77.03192683333333, "is_disabled": 0, "type": "electric_scooter"}, {"bike_id": "213f7dff6af136ce41db350be20e98cd", "lat": 38.918235, "is_reserved": 0, "fusion_lat": 0.0, "rental_uris": {"android": "https://dc.lft.to/lastmile_qr_scan", "ios": "https://dc.lft.to/lastmile_qr_scan"}, "fusion_lon": 0.0, "name": "213f7dff6af136ce41db350be20e98cd", "lon": -77.049287, "is_disabled": 0, "type": "electric_scooter"}, {"bike_id": "e8b09d58e3b01cb8913f5286ab2afb5a", "lat": 38.8983485, "is_reserved": 0, "fusion_lat": 0.0, "rental_uris": {"android": "https://dc.lft.to/lastmile_qr_scan", "ios": "https://dc.lft.to/lastmile_qr_scan"}, "fusion_lon": 0.0, "name": "e8b09d58e3b01cb8913f5286ab2afb5a", "lon": -77.033366, "is_disabled": 0, "type": "electric_scooter"}, {"bike_id": "1554313e690edf101f97e63822c3dc3a", "lat": 38.90090216666667, "is_reserved": 0, "fusion_lat": 0.0, "rental_uris": {"android": "https://dc.lft.to/lastmile_qr_scan", "ios": "https://dc.lft.to/lastmile_qr_scan"}, "fusion_lon": 0.0, "name": "1554313e690edf101f97e63822c3dc3a", "lon": -77.04679266666666, "is_disabled": 0, "type": "electric_scooter"}, {"bike_id": "4937fc9f8b37608d742164f5838b6c97", "lat": 38.877120166666664, "is_reserved": 0, "fusion_lat": 0.0, "rental_uris": {"android": "https://dc.lft.to/lastmile_qr_scan", "ios": "https://dc.lft.to/lastmile_qr_scan"}, "fusion_lon": 0.0, "name": "4937fc9f8b37608d742164f5838b6c97", "lon": -77.0176555, "is_disabled": 0, "type": "electric_scooter"}, {"bike_id": "38f27b341ea8755912caf53d04c8869c", "lat": 38.862109, "is_reserved": 0, "fusion_lat": 0.0, "rental_uris": {"android": "https://dc.lft.to/lastmile_qr_scan", "ios": "https://dc.lft.to/lastmile_qr_scan"}, "fusion_lon": 0.0, "name": "38f27b341ea8755912caf53d04c8869c", "lon": -76.99481633333333, "is_disabled": 0, "type": "electric_scooter"}, {"bike_id": "ce580b48f28119fe2484bf5f91163919", "lat": 38.93052683333333, "is_reserved": 0, "fusion_lat": 0.0, "rental_uris": {"android": "https://dc.lft.to/lastmile_qr_scan", "ios": "https://dc.lft.to/lastmile_qr_scan"}, "fusion_lon": 0.0, "name": "ce580b48f28119fe2484bf5f91163919", "lon": -77.04258183333333, "is_disabled": 0, "type": "electric_scooter"}, {"bike_id": "812485c3cc179acb2f324914ec665be6", "lat": 38.907491, "is_reserved": 0, "fusion_lat": 0.0, "rental_uris": {"android": "https://dc.lft.to/lastmile_qr_scan", "ios": "https://dc.lft.to/lastmile_qr_scan"}, "fusion_lon": 0.0, "name": "812485c3cc179acb2f324914ec665be6", "lon": -77.0321845, "is_disabled": 0, "type": "electric_scooter"}, {"bike_id": "133d90a4aba96b7930ef8ba663b3b656", "lat": 38.9214915, "is_reserved": 0, "fusion_lat": 0.0, "rental_uris": {"android": "https://dc.lft.to/lastmile_qr_scan", "ios": "https://dc.lft.to/lastmile_qr_scan"}, "fusion_lon": 0.0, "name": "133d90a4aba96b7930ef8ba663b3b656", "lon": -77.03868283333334, "is_disabled": 0, "type": "electric_scooter"}, {"bike_id": "a90300f5cbe9975ba740f661cf1497e5", "lat": 38.920325, "is_reserved": 0, "fusion_lat": 0.0, "rental_uris": {"android": "https://dc.lft.to/lastmile_qr_scan", "ios": "https://dc.lft.to/lastmile_qr_scan"}, "fusion_lon": 0.0, "name": "a90300f5cbe9975ba740f661cf1497e5", "lon": -77.033553, "is_disabled": 0, "type": "electric_scooter"}, {"bike_id": "24993aaf63f5b460468ee451c2e20661", "lat": 38.925089666666665, "is_reserved": 0, "fusion_lat": 0.0, "rental_uris": {"android": "https://dc.lft.to/lastmile_qr_scan", "ios": "https://dc.lft.to/lastmile_qr_scan"}, "fusion_lon": 0.0, "name": "24993aaf63f5b460468ee451c2e20661", "lon": -77.00226983333333, "is_disabled": 0, "type": "electric_scooter"}, {"bike_id": "305282cf331e9d04d970375f996b3a49", "lat": 38.910566333333335, "is_reserved": 0, "fusion_lat": 0.0, "rental_uris": {"android": "https://dc.lft.to/lastmile_qr_scan", "ios": "https://dc.lft.to/lastmile_qr_scan"}, "fusion_lon": 0.0, "name": "305282cf331e9d04d970375f996b3a49", "lon": -77.0552365, "is_disabled": 0, "type": "electric_bike"}, {"bike_id": "9732e7907e0ba21f375d3ae8b48d1f7d", "lat": 38.89848333333333, "is_reserved": 0, "fusion_lat": 0.0, "rental_uris": {"android": "https://dc.lft.to/lastmile_qr_scan", "ios": "https://dc.lft.to/lastmile_qr_scan"}, "fusion_lon": 0.0, "name": "9732e7907e0ba21f375d3ae8b48d1f7d", "lon": -76.92909133333333, "is_disabled": 0, "type": "electric_scooter"}, {"bike_id": "aee2ae1848213b064c25e64fa646abeb", "lat": 38.948209166666665, "is_reserved": 0, "fusion_lat": 0.0, "rental_uris": {"android": "https://dc.lft.to/lastmile_qr_scan", "ios": "https://dc.lft.to/lastmile_qr_scan"}, "fusion_lon": 0.0, "name": "aee2ae1848213b064c25e64fa646abeb", "lon": -77.02490283333333, "is_disabled": 0, "type": "electric_scooter"}, {"bike_id": "6e24c67585a1d72616343edc9c116f5b", "lat": 38.9023925, "is_reserved": 0, "fusion_lat": 0.0, "rental_uris": {"android": "https://dc.lft.to/lastmile_qr_scan", "ios": "https://dc.lft.to/lastmile_qr_scan"}, "fusion_lon": 0.0, "name": "6e24c67585a1d72616343edc9c116f5b", "lon": -77.03431216666667, "is_disabled": 0, "type": "electric_scooter"}, {"bike_id": "6f99f75354d7ec478b2df34ea1c44de7", "lat": 38.91821783333333, "is_reserved": 0, "fusion_lat": 0.0, "rental_uris": {"android": "https://dc.lft.to/lastmile_qr_scan", "ios": "https://dc.lft.to/lastmile_qr_scan"}, "fusion_lon": 0.0, "name": "6f99f75354d7ec478b2df34ea1c44de7", "lon": -77.01206916666666, "is_disabled": 0, "type": "electric_scooter"}, {"bike_id": "8f72bf1e55729032c61d1f1aebb3e363", "lat": 38.90264666666667, "is_reserved": 0, "fusion_lat": 0.0, "rental_uris": {"android": "https://dc.lft.to/lastmile_qr_scan", "ios": "https://dc.lft.to/lastmile_qr_scan"}, "fusion_lon": 0.0, "name": "8f72bf1e55729032c61d1f1aebb3e363", "lon": -77.03955483333333, "is_disabled": 0, "type": "electric_scooter"}, {"bike_id": "0f869668e48b6fa7899d83652a742944", "lat": 38.920361666666665, "is_reserved": 0, "fusion_lat": 0.0, "rental_uris": {"android": "https://dc.lft.to/lastmile_qr_scan", "ios": "https://dc.lft.to/lastmile_qr_scan"}, "fusion_lon": 0.0, "name": "0f869668e48b6fa7899d83652a742944", "lon": -77.0177955, "is_disabled": 0, "type": "electric_scooter"}, {"bike_id": "a86e0596951e0fbc6de2c79307957b5c", "lat": 38.92855983333333, "is_reserved": 0, "fusion_lat": 0.0, "rental_uris": {"android": "https://dc.lft.to/lastmile_qr_scan", "ios": "https://dc.lft.to/lastmile_qr_scan"}, "fusion_lon": 0.0, "name": "a86e0596951e0fbc6de2c79307957b5c", "lon": -77.0301965, "is_disabled": 0, "type": "electric_scooter"}, {"bike_id": "1fc378d98b6ab6dc6d2daa777efc1d57", "lat": 38.88520916666667, "is_reserved": 0, "fusion_lat": 0.0, "rental_uris": {"android": "https://dc.lft.to/lastmile_qr_scan", "ios": "https://dc.lft.to/lastmile_qr_scan"}, "fusion_lon": 0.0, "name": "1fc378d98b6ab6dc6d2daa777efc1d57", "lon": -76.990937, "is_disabled": 0, "type": "electric_scooter"}, {"bike_id": "88518d70f48dbe5178e4052f1d1099c4", "lat": 38.838090333333334, "is_reserved": 0, "fusion_lat": 0.0, "rental_uris": {"android": "https://dc.lft.to/lastmile_qr_scan", "ios": "https://dc.lft.to/lastmile_qr_scan"}, "fusion_lon": 0.0, "name": "88518d70f48dbe5178e4052f1d1099c4", "lon": -77.0952665, "is_disabled": 0, "type": "electric_bike"}, {"bike_id": "ed21660ae185a8e6203a309b0749386b", "lat": 38.88121233333333, "is_reserved": 0, "fusion_lat": 0.0, "rental_uris": {"android": "https://dc.lft.to/lastmile_qr_scan", "ios": "https://dc.lft.to/lastmile_qr_scan"}, "fusion_lon": 0.0, "name": "ed21660ae185a8e6203a309b0749386b", "lon": -77.01661033333333, "is_disabled": 0, "type": "electric_bike"}, {"bike_id": "a3ab97254037145e56eefe3538c9650f", "lat": 38.899775166666664, "is_reserved": 0, "fusion_lat": 0.0, "rental_uris": {"android": "https://dc.lft.to/lastmile_qr_scan", "ios": "https://dc.lft.to/lastmile_qr_scan"}, "fusion_lon": 0.0, "name": "a3ab97254037145e56eefe3538c9650f", "lon": -76.99612716666667, "is_disabled": 0, "type": "electric_scooter"}, {"bike_id": "9760adb6b8c613532feaff1373694cb3", "lat": 38.90872816666667, "is_reserved": 0, "fusion_lat": 0.0, "rental_uris": {"android": "https://dc.lft.to/lastmile_qr_scan", "ios": "https://dc.lft.to/lastmile_qr_scan"}, "fusion_lon": 0.0, "name": "9760adb6b8c613532feaff1373694cb3", "lon": -76.99791883333333, "is_disabled": 0, "type": "electric_scooter"}, {"bike_id": "fd3ed14ce74ef5b0b663b137e87c5ae2", "lat": 38.90561916666667, "is_reserved": 0, "fusion_lat": 0.0, "rental_uris": {"android": "https://dc.lft.to/lastmile_qr_scan", "ios": "https://dc.lft.to/lastmile_qr_scan"}, "fusion_lon": 0.0, "name": "fd3ed14ce74ef5b0b663b137e87c5ae2", "lon": -77.04470166666667, "is_disabled": 0, "type": "electric_scooter"}, {"bike_id": "be2264e1a188b1f9875598c4d2441cf0", "lat": 38.965479, "is_reserved": 0, "fusion_lat": 0.0, "rental_uris": {"android": "https://dc.lft.to/lastmile_qr_scan", "ios": "https://dc.lft.to/lastmile_qr_scan"}, "fusion_lon": 0.0, "name": "be2264e1a188b1f9875598c4d2441cf0", "lon": -77.03627266666666, "is_disabled": 0, "type": "electric_scooter"}, {"bike_id": "b1cd11472f55cc1ae1deb03ec464fd97", "lat": 38.89875933333333, "is_reserved": 0, "fusion_lat": 0.0, "rental_uris": {"android": "https://dc.lft.to/lastmile_qr_scan", "ios": "https://dc.lft.to/lastmile_qr_scan"}, "fusion_lon": 0.0, "name": "b1cd11472f55cc1ae1deb03ec464fd97", "lon": -77.03289066666666, "is_disabled": 0, "type": "electric_scooter"}, {"bike_id": "76dd40049a86060dcc9750b51a49cf30", "lat": 38.9168365, "is_reserved": 0, "fusion_lat": 0.0, "rental_uris": {"android": "https://dc.lft.to/lastmile_qr_scan", "ios": "https://dc.lft.to/lastmile_qr_scan"}, "fusion_lon": 0.0, "name": "76dd40049a86060dcc9750b51a49cf30", "lon": -77.029732, "is_disabled": 0, "type": "electric_scooter"}, {"bike_id": "a0206c65f5225b21fce17517c7bdacf3", "lat": 38.916926333333336, "is_reserved": 0, "fusion_lat": 0.0, "rental_uris": {"android": "https://dc.lft.to/lastmile_qr_scan", "ios": "https://dc.lft.to/lastmile_qr_scan"}, "fusion_lon": 0.0, "name": "a0206c65f5225b21fce17517c7bdacf3", "lon": -77.0377655, "is_disabled": 0, "type": "electric_scooter"}, {"bike_id": "04f0344b635b01a2216773e884e1a6b8", "lat": 38.91109983333333, "is_reserved": 0, "fusion_lat": 0.0, "rental_uris": {"android": "https://dc.lft.to/lastmile_qr_scan", "ios": "https://dc.lft.to/lastmile_qr_scan"}, "fusion_lon": 0.0, "name": "04f0344b635b01a2216773e884e1a6b8", "lon": -77.04372666666667, "is_disabled": 0, "type": "electric_scooter"}, {"bike_id": "11c24407d1cc5c6e55a00c509007242b", "lat": 38.9140375, "is_reserved": 0, "fusion_lat": 0.0, "rental_uris": {"android": "https://dc.lft.to/lastmile_qr_scan", "ios": "https://dc.lft.to/lastmile_qr_scan"}, "fusion_lon": 0.0, "name": "11c24407d1cc5c6e55a00c509007242b", "lon": -77.023839, "is_disabled": 0, "type": "electric_scooter"}, {"bike_id": "daa5b2116543cbc6e9345a4b01679b70", "lat": 38.94171733333334, "is_reserved": 0, "fusion_lat": 0.0, "rental_uris": {"android": "https://dc.lft.to/lastmile_qr_scan", "ios": "https://dc.lft.to/lastmile_qr_scan"}, "fusion_lon": 0.0, "name": "daa5b2116543cbc6e9345a4b01679b70", "lon": -76.99262783333333, "is_disabled": 0, "type": "electric_bike"}, {"bike_id": "83d2c60e6dafb76d28d882e425bce8f1", "lat": 38.87417633333333, "is_reserved": 0, "fusion_lat": 0.0, "rental_uris": {"android": "https://dc.lft.to/lastmile_qr_scan", "ios": "https://dc.lft.to/lastmile_qr_scan"}, "fusion_lon": 0.0, "name": "83d2c60e6dafb76d28d882e425bce8f1", "lon": -77.08578533333333, "is_disabled": 0, "type": "electric_bike"}, {"bike_id": "114f39cace515668b5321ce126373ef6", "lat": 38.927891333333335, "is_reserved": 0, "fusion_lat": 0.0, "rental_uris": {"android": "https://dc.lft.to/lastmile_qr_scan", "ios": "https://dc.lft.to/lastmile_qr_scan"}, "fusion_lon": 0.0, "name": "114f39cace515668b5321ce126373ef6", "lon": -77.053592, "is_disabled": 0, "type": "electric_scooter"}, {"bike_id": "c15c8baa5b3090cec25e290125d59a35", "lat": 38.90475766666667, "is_reserved": 0, "fusion_lat": 0.0, "rental_uris": {"android": "https://dc.lft.to/lastmile_qr_scan", "ios": "https://dc.lft.to/lastmile_qr_scan"}, "fusion_lon": 0.0, "name": "c15c8baa5b3090cec25e290125d59a35", "lon": -77.00215816666666, "is_disabled": 0, "type": "electric_scooter"}, {"bike_id": "7fed75250e5c96ec7b9b9ca57ef00a9f", "lat": 38.887138, "is_reserved": 0, "fusion_lat": 0.0, "rental_uris": {"android": "https://dc.lft.to/lastmile_qr_scan", "ios": "https://dc.lft.to/lastmile_qr_scan"}, "fusion_lon": 0.0, "name": "7fed75250e5c96ec7b9b9ca57ef00a9f", "lon": -76.9962955, "is_disabled": 0, "type": "electric_scooter"}, {"bike_id": "139601002dc1b3721b09feace49208ef", "lat": 38.942895666666665, "is_reserved": 0, "fusion_lat": 0.0, "rental_uris": {"android": "https://dc.lft.to/lastmile_qr_scan", "ios": "https://dc.lft.to/lastmile_qr_scan"}, "fusion_lon": 0.0, "name": "139601002dc1b3721b09feace49208ef", "lon": -77.02175933333334, "is_disabled": 0, "type": "electric_scooter"}, {"bike_id": "1731e705d4e71d79e4344df0e6bde365", "lat": 38.92303733333333, "is_reserved": 0, "fusion_lat": 0.0, "rental_uris": {"android": "https://dc.lft.to/lastmile_qr_scan", "ios": "https://dc.lft.to/lastmile_qr_scan"}, "fusion_lon": 0.0, "name": "1731e705d4e71d79e4344df0e6bde365", "lon": -77.04461433333333, "is_disabled": 0, "type": "electric_scooter"}, {"bike_id": "67a3de218de3de781329ed11443d8c84", "lat": 38.895013166666665, "is_reserved": 0, "fusion_lat": 0.0, "rental_uris": {"android": "https://dc.lft.to/lastmile_qr_scan", "ios": "https://dc.lft.to/lastmile_qr_scan"}, "fusion_lon": 0.0, "name": "67a3de218de3de781329ed11443d8c84", "lon": -77.01124566666667, "is_disabled": 0, "type": "electric_scooter"}, {"bike_id": "569adeb4e1121559676c306575977736", "lat": 38.885011666666664, "is_reserved": 0, "fusion_lat": 0.0, "rental_uris": {"android": "https://dc.lft.to/lastmile_qr_scan", "ios": "https://dc.lft.to/lastmile_qr_scan"}, "fusion_lon": 0.0, "name": "569adeb4e1121559676c306575977736", "lon": -77.00895483333333, "is_disabled": 0, "type": "electric_scooter"}, {"bike_id": "5fa5b06a3dafbd4d7dc532f6c69b1e8f", "lat": 38.89592233333333, "is_reserved": 0, "fusion_lat": 0.0, "rental_uris": {"android": "https://dc.lft.to/lastmile_qr_scan", "ios": "https://dc.lft.to/lastmile_qr_scan"}, "fusion_lon": 0.0, "name": "5fa5b06a3dafbd4d7dc532f6c69b1e8f", "lon": -77.02360416666667, "is_disabled": 0, "type": "electric_scooter"}, {"bike_id": "970041df37e4a52eaaebcc03ab1d5cc0", "lat": 38.907204, "is_reserved": 0, "fusion_lat": 0.0, "rental_uris": {"android": "https://dc.lft.to/lastmile_qr_scan", "ios": "https://dc.lft.to/lastmile_qr_scan"}, "fusion_lon": 0.0, "name": "970041df37e4a52eaaebcc03ab1d5cc0", "lon": -77.04085866666667, "is_disabled": 0, "type": "electric_scooter"}, {"bike_id": "db29fd04eccef82a5360a8d332cbaed3", "lat": 38.89837033333333, "is_reserved": 0, "fusion_lat": 0.0, "rental_uris": {"android": "https://dc.lft.to/lastmile_qr_scan", "ios": "https://dc.lft.to/lastmile_qr_scan"}, "fusion_lon": 0.0, "name": "db29fd04eccef82a5360a8d332cbaed3", "lon": -77.0443805, "is_disabled": 0, "type": "electric_scooter"}, {"bike_id": "082fde53f6571e54885b485f96d14a7f", "lat": 38.911170166666665, "is_reserved": 0, "fusion_lat": 0.0, "rental_uris": {"android": "https://dc.lft.to/lastmile_qr_scan", "ios": "https://dc.lft.to/lastmile_qr_scan"}, "fusion_lon": 0.0, "name": "082fde53f6571e54885b485f96d14a7f", "lon": -77.03281033333333, "is_disabled": 0, "type": "electric_scooter"}, {"bike_id": "015bec1a3fbc4669cef96908f30fa331", "lat": 38.926231333333334, "is_reserved": 0, "fusion_lat": 0.0, "rental_uris": {"android": "https://dc.lft.to/lastmile_qr_scan", "ios": "https://dc.lft.to/lastmile_qr_scan"}, "fusion_lon": 0.0, "name": "015bec1a3fbc4669cef96908f30fa331", "lon": -77.042247, "is_disabled": 0, "type": "electric_scooter"}, {"bike_id": "241f0ebd2069e04b9384ed7c1bb02f96", "lat": 38.8959645, "is_reserved": 0, "fusion_lat": 0.0, "rental_uris": {"android": "https://dc.lft.to/lastmile_qr_scan", "ios": "https://dc.lft.to/lastmile_qr_scan"}, "fusion_lon": 0.0, "name": "241f0ebd2069e04b9384ed7c1bb02f96", "lon": -77.02620016666667, "is_disabled": 0, "type": "electric_scooter"}, {"bike_id": "d546f0c91753a84da201b106c6f85cea", "lat": 38.87388716666667, "is_reserved": 0, "fusion_lat": 0.0, "rental_uris": {"android": "https://dc.lft.to/lastmile_qr_scan", "ios": "https://dc.lft.to/lastmile_qr_scan"}, "fusion_lon": 0.0, "name": "d546f0c91753a84da201b106c6f85cea", "lon": -77.043302, "is_disabled": 0, "type": "electric_scooter"}, {"bike_id": "c1c77e0c4c29590c238886ade94077f7", "lat": 38.92249416666667, "is_reserved": 0, "fusion_lat": 0.0, "rental_uris": {"android": "https://dc.lft.to/lastmile_qr_scan", "ios": "https://dc.lft.to/lastmile_qr_scan"}, "fusion_lon": 0.0, "name": "c1c77e0c4c29590c238886ade94077f7", "lon": -77.01953566666667, "is_disabled": 0, "type": "electric_scooter"}, {"bike_id": "b654680be712ed747e57355e52e43935", "lat": 38.8771985, "is_reserved": 0, "fusion_lat": 0.0, "rental_uris": {"android": "https://dc.lft.to/lastmile_qr_scan", "ios": "https://dc.lft.to/lastmile_qr_scan"}, "fusion_lon": 0.0, "name": "b654680be712ed747e57355e52e43935", "lon": -77.003165, "is_disabled": 0, "type": "electric_scooter"}, {"bike_id": "887e272801b92175c0132a8d8bca7847", "lat": 38.88748616666667, "is_reserved": 0, "fusion_lat": 0.0, "rental_uris": {"android": "https://dc.lft.to/lastmile_qr_scan", "ios": "https://dc.lft.to/lastmile_qr_scan"}, "fusion_lon": 0.0, "name": "887e272801b92175c0132a8d8bca7847", "lon": -77.02849966666666, "is_disabled": 0, "type": "electric_scooter"}, {"bike_id": "220f3729c7096b9aaa8043aa9f42db98", "lat": 38.916251, "is_reserved": 0, "fusion_lat": 0.0, "rental_uris": {"android": "https://dc.lft.to/lastmile_qr_scan", "ios": "https://dc.lft.to/lastmile_qr_scan"}, "fusion_lon": 0.0, "name": "220f3729c7096b9aaa8043aa9f42db98", "lon": -77.03189616666667, "is_disabled": 0, "type": "electric_scooter"}, {"bike_id": "83d10a48d51a1154d161c648d375ef63", "lat": 38.906051833333336, "is_reserved": 0, "fusion_lat": 0.0, "rental_uris": {"android": "https://dc.lft.to/lastmile_qr_scan", "ios": "https://dc.lft.to/lastmile_qr_scan"}, "fusion_lon": 0.0, "name": "83d10a48d51a1154d161c648d375ef63", "lon": -77.02573883333334, "is_disabled": 0, "type": "electric_scooter"}, {"bike_id": "25754978ca5cf54fde72a971a66ed84a", "lat": 38.9265675, "is_reserved": 0, "fusion_lat": 0.0, "rental_uris": {"android": "https://dc.lft.to/lastmile_qr_scan", "ios": "https://dc.lft.to/lastmile_qr_scan"}, "fusion_lon": 0.0, "name": "25754978ca5cf54fde72a971a66ed84a", "lon": -77.02329816666666, "is_disabled": 0, "type": "electric_scooter"}, {"bike_id": "a4f25339d7afccbaddffb5a0946f6758", "lat": 38.923284, "is_reserved": 0, "fusion_lat": 0.0, "rental_uris": {"android": "https://dc.lft.to/lastmile_qr_scan", "ios": "https://dc.lft.to/lastmile_qr_scan"}, "fusion_lon": 0.0, "name": "a4f25339d7afccbaddffb5a0946f6758", "lon": -77.0243255, "is_disabled": 0, "type": "electric_scooter"}, {"bike_id": "1841569033aae334d04f763473ba50e4", "lat": 38.8932935, "is_reserved": 0, "fusion_lat": 0.0, "rental_uris": {"android": "https://dc.lft.to/lastmile_qr_scan", "ios": "https://dc.lft.to/lastmile_qr_scan"}, "fusion_lon": 0.0, "name": "1841569033aae334d04f763473ba50e4", "lon": -76.9505745, "is_disabled": 0, "type": "electric_scooter"}, {"bike_id": "026f5ee9ba4e549b30c03f5c133cf6ff", "lat": 38.993132, "is_reserved": 0, "fusion_lat": 0.0, "rental_uris": {"android": "https://dc.lft.to/lastmile_qr_scan", "ios": "https://dc.lft.to/lastmile_qr_scan"}, "fusion_lon": 0.0, "name": "026f5ee9ba4e549b30c03f5c133cf6ff", "lon": -77.02316166666667, "is_disabled": 0, "type": "electric_bike"}, {"bike_id": "71f7a3e10febc13daf2ef7386cbd91b5", "lat": 38.88656233333333, "is_reserved": 0, "fusion_lat": 0.0, "rental_uris": {"android": "https://dc.lft.to/lastmile_qr_scan", "ios": "https://dc.lft.to/lastmile_qr_scan"}, "fusion_lon": 0.0, "name": "71f7a3e10febc13daf2ef7386cbd91b5", "lon": -77.0283005, "is_disabled": 0, "type": "electric_scooter"}, {"bike_id": "7e78cad6a3c43e5baff265b5b06f63db", "lat": 38.899409, "is_reserved": 0, "fusion_lat": 0.0, "rental_uris": {"android": "https://dc.lft.to/lastmile_qr_scan", "ios": "https://dc.lft.to/lastmile_qr_scan"}, "fusion_lon": 0.0, "name": "7e78cad6a3c43e5baff265b5b06f63db", "lon": -77.01503516666666, "is_disabled": 0, "type": "electric_scooter"}, {"bike_id": "a958add74266cc2a282cbf532ca7344e", "lat": 38.80974533333333, "is_reserved": 0, "fusion_lat": 0.0, "rental_uris": {"android": "https://dc.lft.to/lastmile_qr_scan", "ios": "https://dc.lft.to/lastmile_qr_scan"}, "fusion_lon": 0.0, "name": "a958add74266cc2a282cbf532ca7344e", "lon": -77.08633, "is_disabled": 0, "type": "electric_bike"}, {"bike_id": "3b50b7abeba0debf3db1c76f64ae5af6", "lat": 38.8939025, "is_reserved": 0, "fusion_lat": 0.0, "rental_uris": {"android": "https://dc.lft.to/lastmile_qr_scan", "ios": "https://dc.lft.to/lastmile_qr_scan"}, "fusion_lon": 0.0, "name": "3b50b7abeba0debf3db1c76f64ae5af6", "lon": -77.010993, "is_disabled": 0, "type": "electric_scooter"}, {"bike_id": "ff16f839d5a7b17422393876cc5fbffd", "lat": 38.93526, "is_reserved": 0, "fusion_lat": 0.0, "rental_uris": {"android": "https://dc.lft.to/lastmile_qr_scan", "ios": "https://dc.lft.to/lastmile_qr_scan"}, "fusion_lon": 0.0, "name": "ff16f839d5a7b17422393876cc5fbffd", "lon": -76.96451333333333, "is_disabled": 0, "type": "electric_bike"}, {"bike_id": "d15a61dd292015caa410e699f4aa41b8", "lat": 38.917634, "is_reserved": 0, "fusion_lat": 0.0, "rental_uris": {"android": "https://dc.lft.to/lastmile_qr_scan", "ios": "https://dc.lft.to/lastmile_qr_scan"}, "fusion_lon": 0.0, "name": "d15a61dd292015caa410e699f4aa41b8", "lon": -77.04768916666667, "is_disabled": 0, "type": "electric_scooter"}, {"bike_id": "a7eefd9ae3f76561ff6800915f7fd690", "lat": 38.92150316666667, "is_reserved": 0, "fusion_lat": 0.0, "rental_uris": {"android": "https://dc.lft.to/lastmile_qr_scan", "ios": "https://dc.lft.to/lastmile_qr_scan"}, "fusion_lon": 0.0, "name": "a7eefd9ae3f76561ff6800915f7fd690", "lon": -77.0322745, "is_disabled": 0, "type": "electric_scooter"}, {"bike_id": "34b74d12277c9307080c4e68e4b6fb2e", "lat": 38.922761666666666, "is_reserved": 0, "fusion_lat": 0.0, "rental_uris": {"android": "https://dc.lft.to/lastmile_qr_scan", "ios": "https://dc.lft.to/lastmile_qr_scan"}, "fusion_lon": 0.0, "name": "34b74d12277c9307080c4e68e4b6fb2e", "lon": -77.036563, "is_disabled": 0, "type": "electric_scooter"}, {"bike_id": "1a1fa6fad8dd88abbd1443ee3f478f80", "lat": 38.92484833333334, "is_reserved": 0, "fusion_lat": 0.0, "rental_uris": {"android": "https://dc.lft.to/lastmile_qr_scan", "ios": "https://dc.lft.to/lastmile_qr_scan"}, "fusion_lon": 0.0, "name": "1a1fa6fad8dd88abbd1443ee3f478f80", "lon": -77.031837, "is_disabled": 0, "type": "electric_scooter"}, {"bike_id": "467f958bf53cdc19e81af7568877b1dd", "lat": 38.91110916666667, "is_reserved": 0, "fusion_lat": 0.0, "rental_uris": {"android": "https://dc.lft.to/lastmile_qr_scan", "ios": "https://dc.lft.to/lastmile_qr_scan"}, "fusion_lon": 0.0, "name": "467f958bf53cdc19e81af7568877b1dd", "lon": -77.031501, "is_disabled": 0, "type": "electric_scooter"}, {"bike_id": "494ecc19b060c46a0d0e480af0a5f44a", "lat": 38.909486, "is_reserved": 0, "fusion_lat": 0.0, "rental_uris": {"android": "https://dc.lft.to/lastmile_qr_scan", "ios": "https://dc.lft.to/lastmile_qr_scan"}, "fusion_lon": 0.0, "name": "494ecc19b060c46a0d0e480af0a5f44a", "lon": -77.03183166666666, "is_disabled": 0, "type": "electric_scooter"}, {"bike_id": "2510c6bfacd633735e03e03fad4a74c8", "lat": 38.904778, "is_reserved": 0, "fusion_lat": 0.0, "rental_uris": {"android": "https://dc.lft.to/lastmile_qr_scan", "ios": "https://dc.lft.to/lastmile_qr_scan"}, "fusion_lon": 0.0, "name": "2510c6bfacd633735e03e03fad4a74c8", "lon": -77.0447745, "is_disabled": 0, "type": "electric_scooter"}, {"bike_id": "aa78e60776dd901cce81253ba5b70168", "lat": 38.91689183333333, "is_reserved": 0, "fusion_lat": 0.0, "rental_uris": {"android": "https://dc.lft.to/lastmile_qr_scan", "ios": "https://dc.lft.to/lastmile_qr_scan"}, "fusion_lon": 0.0, "name": "aa78e60776dd901cce81253ba5b70168", "lon": -77.02375616666667, "is_disabled": 0, "type": "electric_scooter"}, {"bike_id": "53e8bbe6178ecdf851f479a892da3a30", "lat": 38.90314433333333, "is_reserved": 0, "fusion_lat": 0.0, "rental_uris": {"android": "https://dc.lft.to/lastmile_qr_scan", "ios": "https://dc.lft.to/lastmile_qr_scan"}, "fusion_lon": 0.0, "name": "53e8bbe6178ecdf851f479a892da3a30", "lon": -76.99132, "is_disabled": 0, "type": "electric_scooter"}, {"bike_id": "417b7103fc4ee9cb4bb36ae3999f90de", "lat": 38.92102766666667, "is_reserved": 0, "fusion_lat": 0.0, "rental_uris": {"android": "https://dc.lft.to/lastmile_qr_scan", "ios": "https://dc.lft.to/lastmile_qr_scan"}, "fusion_lon": 0.0, "name": "417b7103fc4ee9cb4bb36ae3999f90de", "lon": -77.0415585, "is_disabled": 0, "type": "electric_scooter"}, {"bike_id": "418241f952028726d1445894674c5fd8", "lat": 38.918026833333336, "is_reserved": 0, "fusion_lat": 0.0, "rental_uris": {"android": "https://dc.lft.to/lastmile_qr_scan", "ios": "https://dc.lft.to/lastmile_qr_scan"}, "fusion_lon": 0.0, "name": "418241f952028726d1445894674c5fd8", "lon": -77.00933166666667, "is_disabled": 0, "type": "electric_scooter"}, {"bike_id": "ea693511e59ed045c4671221a6360bed", "lat": 38.86058533333333, "is_reserved": 0, "fusion_lat": 0.0, "rental_uris": {"android": "https://dc.lft.to/lastmile_qr_scan", "ios": "https://dc.lft.to/lastmile_qr_scan"}, "fusion_lon": 0.0, "name": "ea693511e59ed045c4671221a6360bed", "lon": -76.98512533333333, "is_disabled": 0, "type": "electric_scooter"}, {"bike_id": "0b6418f31cc096354bb881bb9b90a41e", "lat": 38.87714233333333, "is_reserved": 0, "fusion_lat": 0.0, "rental_uris": {"android": "https://dc.lft.to/lastmile_qr_scan", "ios": "https://dc.lft.to/lastmile_qr_scan"}, "fusion_lon": 0.0, "name": "0b6418f31cc096354bb881bb9b90a41e", "lon": -77.00343816666667, "is_disabled": 0, "type": "electric_scooter"}, {"bike_id": "8303afb4469c37774a17b7e3f077c50a", "lat": 38.94180683333333, "is_reserved": 0, "fusion_lat": 0.0, "rental_uris": {"android": "https://dc.lft.to/lastmile_qr_scan", "ios": "https://dc.lft.to/lastmile_qr_scan"}, "fusion_lon": 0.0, "name": "8303afb4469c37774a17b7e3f077c50a", "lon": -77.02488933333333, "is_disabled": 0, "type": "electric_scooter"}, {"bike_id": "bd52a7076a994774abad90bac7f518a8", "lat": 38.903759666666666, "is_reserved": 0, "fusion_lat": 0.0, "rental_uris": {"android": "https://dc.lft.to/lastmile_qr_scan", "ios": "https://dc.lft.to/lastmile_qr_scan"}, "fusion_lon": 0.0, "name": "bd52a7076a994774abad90bac7f518a8", "lon": -77.04031083333334, "is_disabled": 0, "type": "electric_scooter"}, {"bike_id": "f101b8ae4f9ac25cc8092b9f98793267", "lat": 38.89577533333333, "is_reserved": 0, "fusion_lat": 0.0, "rental_uris": {"android": "https://dc.lft.to/lastmile_qr_scan", "ios": "https://dc.lft.to/lastmile_qr_scan"}, "fusion_lon": 0.0, "name": "f101b8ae4f9ac25cc8092b9f98793267", "lon": -77.0236595, "is_disabled": 0, "type": "electric_scooter"}, {"bike_id": "f3eddbbfed242f94f712ac58c7b51519", "lat": 38.915711, "is_reserved": 0, "fusion_lat": 0.0, "rental_uris": {"android": "https://dc.lft.to/lastmile_qr_scan", "ios": "https://dc.lft.to/lastmile_qr_scan"}, "fusion_lon": 0.0, "name": "f3eddbbfed242f94f712ac58c7b51519", "lon": -77.019554, "is_disabled": 0, "type": "electric_scooter"}, {"bike_id": "e7bd9eba28758290e0ae11891cafb53c", "lat": 38.914061333333336, "is_reserved": 0, "fusion_lat": 0.0, "rental_uris": {"android": "https://dc.lft.to/lastmile_qr_scan", "ios": "https://dc.lft.to/lastmile_qr_scan"}, "fusion_lon": 0.0, "name": "e7bd9eba28758290e0ae11891cafb53c", "lon": -77.02008233333333, "is_disabled": 0, "type": "electric_scooter"}, {"bike_id": "5122079faa30e13b635076ac956fa580", "lat": 38.914192, "is_reserved": 0, "fusion_lat": 0.0, "rental_uris": {"android": "https://dc.lft.to/lastmile_qr_scan", "ios": "https://dc.lft.to/lastmile_qr_scan"}, "fusion_lon": 0.0, "name": "5122079faa30e13b635076ac956fa580", "lon": -77.02413233333333, "is_disabled": 0, "type": "electric_scooter"}, {"bike_id": "79c88fdbd8e5ecaaba05e03fab1c0001", "lat": 38.91732733333333, "is_reserved": 0, "fusion_lat": 0.0, "rental_uris": {"android": "https://dc.lft.to/lastmile_qr_scan", "ios": "https://dc.lft.to/lastmile_qr_scan"}, "fusion_lon": 0.0, "name": "79c88fdbd8e5ecaaba05e03fab1c0001", "lon": -77.03216083333334, "is_disabled": 0, "type": "electric_scooter"}, {"bike_id": "d78bd47dd14cfecb27b08655cf787935", "lat": 38.8669325, "is_reserved": 0, "fusion_lat": 0.0, "rental_uris": {"android": "https://dc.lft.to/lastmile_qr_scan", "ios": "https://dc.lft.to/lastmile_qr_scan"}, "fusion_lon": 0.0, "name": "d78bd47dd14cfecb27b08655cf787935", "lon": -76.98547883333333, "is_disabled": 0, "type": "electric_scooter"}, {"bike_id": "f305a8e64618f47f70c506a81d2af06d", "lat": 38.9234515, "is_reserved": 0, "fusion_lat": 0.0, "rental_uris": {"android": "https://dc.lft.to/lastmile_qr_scan", "ios": "https://dc.lft.to/lastmile_qr_scan"}, "fusion_lon": 0.0, "name": "f305a8e64618f47f70c506a81d2af06d", "lon": -77.05123866666666, "is_disabled": 0, "type": "electric_scooter"}, {"bike_id": "3f250988d36fbc1bf3aa4e537bc4defe", "lat": 38.842807666666666, "is_reserved": 0, "fusion_lat": 0.0, "rental_uris": {"android": "https://dc.lft.to/lastmile_qr_scan", "ios": "https://dc.lft.to/lastmile_qr_scan"}, "fusion_lon": 0.0, "name": "3f250988d36fbc1bf3aa4e537bc4defe", "lon": -76.98842466666666, "is_disabled": 0, "type": "electric_bike"}, {"bike_id": "ce513791a96cb7fe8d223c386ce6fa01", "lat": 38.9374695, "is_reserved": 0, "fusion_lat": 0.0, "rental_uris": {"android": "https://dc.lft.to/lastmile_qr_scan", "ios": "https://dc.lft.to/lastmile_qr_scan"}, "fusion_lon": 0.0, "name": "ce513791a96cb7fe8d223c386ce6fa01", "lon": -77.02444666666666, "is_disabled": 0, "type": "electric_scooter"}, {"bike_id": "a0ebf6dd7c4de7f8fd1d93f194826446", "lat": 38.89844733333334, "is_reserved": 0, "fusion_lat": 0.0, "rental_uris": {"android": "https://dc.lft.to/lastmile_qr_scan", "ios": "https://dc.lft.to/lastmile_qr_scan"}, "fusion_lon": 0.0, "name": "a0ebf6dd7c4de7f8fd1d93f194826446", "lon": -77.03112116666667, "is_disabled": 0, "type": "electric_scooter"}, {"bike_id": "a3f67fea1f69e1aff48ea80195f87f6a", "lat": 38.91567466666667, "is_reserved": 0, "fusion_lat": 0.0, "rental_uris": {"android": "https://dc.lft.to/lastmile_qr_scan", "ios": "https://dc.lft.to/lastmile_qr_scan"}, "fusion_lon": 0.0, "name": "a3f67fea1f69e1aff48ea80195f87f6a", "lon": -77.022916, "is_disabled": 0, "type": "electric_scooter"}, {"bike_id": "423b7feb0d793d2520ea69d9e82157ee", "lat": 38.8947945, "is_reserved": 0, "fusion_lat": 0.0, "rental_uris": {"android": "https://dc.lft.to/lastmile_qr_scan", "ios": "https://dc.lft.to/lastmile_qr_scan"}, "fusion_lon": 0.0, "name": "423b7feb0d793d2520ea69d9e82157ee", "lon": -77.02183, "is_disabled": 0, "type": "electric_scooter"}, {"bike_id": "e8767deb96b1f35444caf8b240d85498", "lat": 38.87355783333334, "is_reserved": 0, "fusion_lat": 0.0, "rental_uris": {"android": "https://dc.lft.to/lastmile_qr_scan", "ios": "https://dc.lft.to/lastmile_qr_scan"}, "fusion_lon": 0.0, "name": "e8767deb96b1f35444caf8b240d85498", "lon": -76.9702935, "is_disabled": 0, "type": "electric_scooter"}, {"bike_id": "bfc79d960fe05e8c639eb7061ac7b7c7", "lat": 38.93401133333333, "is_reserved": 0, "fusion_lat": 0.0, "rental_uris": {"android": "https://dc.lft.to/lastmile_qr_scan", "ios": "https://dc.lft.to/lastmile_qr_scan"}, "fusion_lon": 0.0, "name": "bfc79d960fe05e8c639eb7061ac7b7c7", "lon": -77.03271716666667, "is_disabled": 0, "type": "electric_scooter"}, {"bike_id": "e3bd6d05551a9cefcf339a078a84e1a0", "lat": 38.90593766666667, "is_reserved": 0, "fusion_lat": 0.0, "rental_uris": {"android": "https://dc.lft.to/lastmile_qr_scan", "ios": "https://dc.lft.to/lastmile_qr_scan"}, "fusion_lon": 0.0, "name": "e3bd6d05551a9cefcf339a078a84e1a0", "lon": -77.021922, "is_disabled": 0, "type": "electric_scooter"}, {"bike_id": "5fbfc761cb3f3aefe79ac44f5ac323c2", "lat": 38.89911266666667, "is_reserved": 0, "fusion_lat": 0.0, "rental_uris": {"android": "https://dc.lft.to/lastmile_qr_scan", "ios": "https://dc.lft.to/lastmile_qr_scan"}, "fusion_lon": 0.0, "name": "5fbfc761cb3f3aefe79ac44f5ac323c2", "lon": -76.933721, "is_disabled": 0, "type": "electric_scooter"}, {"bike_id": "a85c3f03b9966828898176e491eedd36", "lat": 38.91400133333333, "is_reserved": 0, "fusion_lat": 0.0, "rental_uris": {"android": "https://dc.lft.to/lastmile_qr_scan", "ios": "https://dc.lft.to/lastmile_qr_scan"}, "fusion_lon": 0.0, "name": "a85c3f03b9966828898176e491eedd36", "lon": -77.03183116666666, "is_disabled": 0, "type": "electric_scooter"}, {"bike_id": "8777c60ece3077fa094abc3054b8b9e9", "lat": 38.872976, "is_reserved": 0, "fusion_lat": 0.0, "rental_uris": {"android": "https://dc.lft.to/lastmile_qr_scan", "ios": "https://dc.lft.to/lastmile_qr_scan"}, "fusion_lon": 0.0, "name": "8777c60ece3077fa094abc3054b8b9e9", "lon": -77.139327, "is_disabled": 0, "type": "electric_bike"}, {"bike_id": "ecd718f183d4fd920f006588481f103e", "lat": 38.89380083333333, "is_reserved": 0, "fusion_lat": 0.0, "rental_uris": {"android": "https://dc.lft.to/lastmile_qr_scan", "ios": "https://dc.lft.to/lastmile_qr_scan"}, "fusion_lon": 0.0, "name": "ecd718f183d4fd920f006588481f103e", "lon": -77.022741, "is_disabled": 0, "type": "electric_scooter"}, {"bike_id": "1af2861c5491cebd31d31d3ceb422102", "lat": 38.896225666666666, "is_reserved": 0, "fusion_lat": 0.0, "rental_uris": {"android": "https://dc.lft.to/lastmile_qr_scan", "ios": "https://dc.lft.to/lastmile_qr_scan"}, "fusion_lon": 0.0, "name": "1af2861c5491cebd31d31d3ceb422102", "lon": -77.04501666666667, "is_disabled": 0, "type": "electric_scooter"}, {"bike_id": "82900796298745e4bd5b54a4093f00d8", "lat": 38.92070916666667, "is_reserved": 0, "fusion_lat": 0.0, "rental_uris": {"android": "https://dc.lft.to/lastmile_qr_scan", "ios": "https://dc.lft.to/lastmile_qr_scan"}, "fusion_lon": 0.0, "name": "82900796298745e4bd5b54a4093f00d8", "lon": -77.02321783333333, "is_disabled": 0, "type": "electric_scooter"}, {"bike_id": "e8f55ef1b2f165395caa33172a7103ed", "lat": 38.91695433333334, "is_reserved": 0, "fusion_lat": 0.0, "rental_uris": {"android": "https://dc.lft.to/lastmile_qr_scan", "ios": "https://dc.lft.to/lastmile_qr_scan"}, "fusion_lon": 0.0, "name": "e8f55ef1b2f165395caa33172a7103ed", "lon": -77.02848716666666, "is_disabled": 0, "type": "electric_scooter"}, {"bike_id": "a6736727aecaf0529dff555f3487f4b8", "lat": 38.905444833333334, "is_reserved": 0, "fusion_lat": 0.0, "rental_uris": {"android": "https://dc.lft.to/lastmile_qr_scan", "ios": "https://dc.lft.to/lastmile_qr_scan"}, "fusion_lon": 0.0, "name": "a6736727aecaf0529dff555f3487f4b8", "lon": -77.04164966666667, "is_disabled": 0, "type": "electric_scooter"}, {"bike_id": "b64872e428ea10ac00d0e0222876a481", "lat": 38.87883566666667, "is_reserved": 0, "fusion_lat": 0.0, "rental_uris": {"android": "https://dc.lft.to/lastmile_qr_scan", "ios": "https://dc.lft.to/lastmile_qr_scan"}, "fusion_lon": 0.0, "name": "b64872e428ea10ac00d0e0222876a481", "lon": -77.02230133333333, "is_disabled": 0, "type": "electric_scooter"}, {"bike_id": "8be84c972f6a08d73675a4e0df8fb2cc", "lat": 38.9392035, "is_reserved": 0, "fusion_lat": 0.0, "rental_uris": {"android": "https://dc.lft.to/lastmile_qr_scan", "ios": "https://dc.lft.to/lastmile_qr_scan"}, "fusion_lon": 0.0, "name": "8be84c972f6a08d73675a4e0df8fb2cc", "lon": -77.06053266666666, "is_disabled": 0, "type": "electric_scooter"}, {"bike_id": "22a9b05c56a0b4f6cde20e75cceede12", "lat": 38.90646233333333, "is_reserved": 0, "fusion_lat": 0.0, "rental_uris": {"android": "https://dc.lft.to/lastmile_qr_scan", "ios": "https://dc.lft.to/lastmile_qr_scan"}, "fusion_lon": 0.0, "name": "22a9b05c56a0b4f6cde20e75cceede12", "lon": -77.04874716666667, "is_disabled": 0, "type": "electric_scooter"}, {"bike_id": "eb56b87f12546ea8693b4d631f06856b", "lat": 38.89734383333333, "is_reserved": 0, "fusion_lat": 0.0, "rental_uris": {"android": "https://dc.lft.to/lastmile_qr_scan", "ios": "https://dc.lft.to/lastmile_qr_scan"}, "fusion_lon": 0.0, "name": "eb56b87f12546ea8693b4d631f06856b", "lon": -77.0440395, "is_disabled": 0, "type": "electric_scooter"}, {"bike_id": "adcc7e574923a51acee851c941a9c27b", "lat": 38.85837933333333, "is_reserved": 0, "fusion_lat": 0.0, "rental_uris": {"android": "https://dc.lft.to/lastmile_qr_scan", "ios": "https://dc.lft.to/lastmile_qr_scan"}, "fusion_lon": 0.0, "name": "adcc7e574923a51acee851c941a9c27b", "lon": -76.9873045, "is_disabled": 0, "type": "electric_scooter"}, {"bike_id": "6313b41ece7c54dab35a49c5d3c19bb3", "lat": 38.916641, "is_reserved": 0, "fusion_lat": 0.0, "rental_uris": {"android": "https://dc.lft.to/lastmile_qr_scan", "ios": "https://dc.lft.to/lastmile_qr_scan"}, "fusion_lon": 0.0, "name": "6313b41ece7c54dab35a49c5d3c19bb3", "lon": -77.02396183333333, "is_disabled": 0, "type": "electric_scooter"}, {"bike_id": "0c019c09ba81849585b695cdfe54c4c0", "lat": 38.914040666666665, "is_reserved": 0, "fusion_lat": 0.0, "rental_uris": {"android": "https://dc.lft.to/lastmile_qr_scan", "ios": "https://dc.lft.to/lastmile_qr_scan"}, "fusion_lon": 0.0, "name": "0c019c09ba81849585b695cdfe54c4c0", "lon": -77.02008983333333, "is_disabled": 0, "type": "electric_scooter"}, {"bike_id": "49e70e534c121c886ae2ccc48bb728ca", "lat": 38.93673833333333, "is_reserved": 0, "fusion_lat": 0.0, "rental_uris": {"android": "https://dc.lft.to/lastmile_qr_scan", "ios": "https://dc.lft.to/lastmile_qr_scan"}, "fusion_lon": 0.0, "name": "49e70e534c121c886ae2ccc48bb728ca", "lon": -77.02647733333333, "is_disabled": 0, "type": "electric_bike"}, {"bike_id": "0079f278b9f5a0477c4c1101e55d9e62", "lat": 38.93355483333333, "is_reserved": 0, "fusion_lat": 0.0, "rental_uris": {"android": "https://dc.lft.to/lastmile_qr_scan", "ios": "https://dc.lft.to/lastmile_qr_scan"}, "fusion_lon": 0.0, "name": "0079f278b9f5a0477c4c1101e55d9e62", "lon": -77.06202466666667, "is_disabled": 0, "type": "electric_scooter"}, {"bike_id": "e10ae3bdfa83712ade657f49e3feade1", "lat": 38.90572683333333, "is_reserved": 0, "fusion_lat": 0.0, "rental_uris": {"android": "https://dc.lft.to/lastmile_qr_scan", "ios": "https://dc.lft.to/lastmile_qr_scan"}, "fusion_lon": 0.0, "name": "e10ae3bdfa83712ade657f49e3feade1", "lon": -77.04314683333334, "is_disabled": 0, "type": "electric_scooter"}, {"bike_id": "9b37149a39b662e86425fb7bb2e4a0fc", "lat": 38.90608066666667, "is_reserved": 0, "fusion_lat": 0.0, "rental_uris": {"android": "https://dc.lft.to/lastmile_qr_scan", "ios": "https://dc.lft.to/lastmile_qr_scan"}, "fusion_lon": 0.0, "name": "9b37149a39b662e86425fb7bb2e4a0fc", "lon": -77.0400395, "is_disabled": 0, "type": "electric_scooter"}, {"bike_id": "c0b5649d516d12a5f64144cadb8cc1c9", "lat": 38.9462555, "is_reserved": 0, "fusion_lat": 0.0, "rental_uris": {"android": "https://dc.lft.to/lastmile_qr_scan", "ios": "https://dc.lft.to/lastmile_qr_scan"}, "fusion_lon": 0.0, "name": "c0b5649d516d12a5f64144cadb8cc1c9", "lon": -77.01847966666666, "is_disabled": 0, "type": "electric_scooter"}, {"bike_id": "57ac1e09a1c93e91f7d8a66574bad91e", "lat": 38.92101983333333, "is_reserved": 0, "fusion_lat": 0.0, "rental_uris": {"android": "https://dc.lft.to/lastmile_qr_scan", "ios": "https://dc.lft.to/lastmile_qr_scan"}, "fusion_lon": 0.0, "name": "57ac1e09a1c93e91f7d8a66574bad91e", "lon": -77.01765233333333, "is_disabled": 0, "type": "electric_scooter"}, {"bike_id": "3321f6224bcc097af3586d968b146a8f", "lat": 38.894965666666664, "is_reserved": 0, "fusion_lat": 0.0, "rental_uris": {"android": "https://dc.lft.to/lastmile_qr_scan", "ios": "https://dc.lft.to/lastmile_qr_scan"}, "fusion_lon": 0.0, "name": "3321f6224bcc097af3586d968b146a8f", "lon": -77.02287316666667, "is_disabled": 0, "type": "electric_scooter"}, {"bike_id": "5773099efbe79b59cdc58d39bb7df5f5", "lat": 38.8669845, "is_reserved": 0, "fusion_lat": 0.0, "rental_uris": {"android": "https://dc.lft.to/lastmile_qr_scan", "ios": "https://dc.lft.to/lastmile_qr_scan"}, "fusion_lon": 0.0, "name": "5773099efbe79b59cdc58d39bb7df5f5", "lon": -76.987115, "is_disabled": 0, "type": "electric_scooter"}, {"bike_id": "f1683ec5d691d37bb76d856d5454b724", "lat": 38.902887666666665, "is_reserved": 0, "fusion_lat": 0.0, "rental_uris": {"android": "https://dc.lft.to/lastmile_qr_scan", "ios": "https://dc.lft.to/lastmile_qr_scan"}, "fusion_lon": 0.0, "name": "f1683ec5d691d37bb76d856d5454b724", "lon": -77.023381, "is_disabled": 0, "type": "electric_scooter"}, {"bike_id": "93a786e096c297e03840ce26ff56e2bf", "lat": 38.92449033333333, "is_reserved": 0, "fusion_lat": 0.0, "rental_uris": {"android": "https://dc.lft.to/lastmile_qr_scan", "ios": "https://dc.lft.to/lastmile_qr_scan"}, "fusion_lon": 0.0, "name": "93a786e096c297e03840ce26ff56e2bf", "lon": -77.01953016666667, "is_disabled": 0, "type": "electric_scooter"}, {"bike_id": "9343ff5b286137885a3a93be3a093c02", "lat": 38.8206755, "is_reserved": 0, "fusion_lat": 0.0, "rental_uris": {"android": "https://dc.lft.to/lastmile_qr_scan", "ios": "https://dc.lft.to/lastmile_qr_scan"}, "fusion_lon": 0.0, "name": "9343ff5b286137885a3a93be3a093c02", "lon": -77.053773, "is_disabled": 0, "type": "electric_bike"}, {"bike_id": "2c6636e0a4b673e747caafa10335cef7", "lat": 38.91017016666667, "is_reserved": 0, "fusion_lat": 0.0, "rental_uris": {"android": "https://dc.lft.to/lastmile_qr_scan", "ios": "https://dc.lft.to/lastmile_qr_scan"}, "fusion_lon": 0.0, "name": "2c6636e0a4b673e747caafa10335cef7", "lon": -77.03862916666667, "is_disabled": 0, "type": "electric_scooter"}, {"bike_id": "6042f117124d8f29020075b287e79ef8", "lat": 38.9335175, "is_reserved": 0, "fusion_lat": 0.0, "rental_uris": {"android": "https://dc.lft.to/lastmile_qr_scan", "ios": "https://dc.lft.to/lastmile_qr_scan"}, "fusion_lon": 0.0, "name": "6042f117124d8f29020075b287e79ef8", "lon": -77.07357716666667, "is_disabled": 0, "type": "electric_scooter"}, {"bike_id": "9c931324cc6b37d23884312596960ecb", "lat": 38.85749766666667, "is_reserved": 0, "fusion_lat": 0.0, "rental_uris": {"android": "https://dc.lft.to/lastmile_qr_scan", "ios": "https://dc.lft.to/lastmile_qr_scan"}, "fusion_lon": 0.0, "name": "9c931324cc6b37d23884312596960ecb", "lon": -76.99306866666667, "is_disabled": 0, "type": "electric_scooter"}, {"bike_id": "4225f652b0610926b6f9f2816d72c85b", "lat": 38.918596, "is_reserved": 0, "fusion_lat": 0.0, "rental_uris": {"android": "https://dc.lft.to/lastmile_qr_scan", "ios": "https://dc.lft.to/lastmile_qr_scan"}, "fusion_lon": 0.0, "name": "4225f652b0610926b6f9f2816d72c85b", "lon": -77.03197383333334, "is_disabled": 0, "type": "electric_scooter"}, {"bike_id": "3c874432002f3acfe4e7acdc44fd5bb0", "lat": 38.8962225, "is_reserved": 0, "fusion_lat": 0.0, "rental_uris": {"android": "https://dc.lft.to/lastmile_qr_scan", "ios": "https://dc.lft.to/lastmile_qr_scan"}, "fusion_lon": 0.0, "name": "3c874432002f3acfe4e7acdc44fd5bb0", "lon": -76.99852716666666, "is_disabled": 0, "type": "electric_scooter"}, {"bike_id": "275706f9496fb8066a3f1b5083624b7a", "lat": 38.90500733333333, "is_reserved": 0, "fusion_lat": 0.0, "rental_uris": {"android": "https://dc.lft.to/lastmile_qr_scan", "ios": "https://dc.lft.to/lastmile_qr_scan"}, "fusion_lon": 0.0, "name": "275706f9496fb8066a3f1b5083624b7a", "lon": -77.05809266666667, "is_disabled": 0, "type": "electric_scooter"}, {"bike_id": "30e72fbf77932fe64fde4b8c3135a798", "lat": 38.9232145, "is_reserved": 0, "fusion_lat": 0.0, "rental_uris": {"android": "https://dc.lft.to/lastmile_qr_scan", "ios": "https://dc.lft.to/lastmile_qr_scan"}, "fusion_lon": 0.0, "name": "30e72fbf77932fe64fde4b8c3135a798", "lon": -77.0297095, "is_disabled": 0, "type": "electric_scooter"}, {"bike_id": "38ad79c03a1b05ab7aeb73471c871745", "lat": 38.89220983333333, "is_reserved": 0, "fusion_lat": 0.0, "rental_uris": {"android": "https://dc.lft.to/lastmile_qr_scan", "ios": "https://dc.lft.to/lastmile_qr_scan"}, "fusion_lon": 0.0, "name": "38ad79c03a1b05ab7aeb73471c871745", "lon": -77.043674, "is_disabled": 0, "type": "electric_scooter"}, {"bike_id": "51a3517a30affe1057781d09bd5cfa4d", "lat": 38.91550566666667, "is_reserved": 0, "fusion_lat": 0.0, "rental_uris": {"android": "https://dc.lft.to/lastmile_qr_scan", "ios": "https://dc.lft.to/lastmile_qr_scan"}, "fusion_lon": 0.0, "name": "51a3517a30affe1057781d09bd5cfa4d", "lon": -77.03324533333333, "is_disabled": 0, "type": "electric_scooter"}, {"bike_id": "63f6953f33b76a4c59eb430c19aa3810", "lat": 38.883015666666665, "is_reserved": 0, "fusion_lat": 0.0, "rental_uris": {"android": "https://dc.lft.to/lastmile_qr_scan", "ios": "https://dc.lft.to/lastmile_qr_scan"}, "fusion_lon": 0.0, "name": "63f6953f33b76a4c59eb430c19aa3810", "lon": -76.942029, "is_disabled": 0, "type": "electric_scooter"}, {"bike_id": "f0528bafc9d7c29055195015ad4bf2c9", "lat": 38.927009, "is_reserved": 0, "fusion_lat": 0.0, "rental_uris": {"android": "https://dc.lft.to/lastmile_qr_scan", "ios": "https://dc.lft.to/lastmile_qr_scan"}, "fusion_lon": 0.0, "name": "f0528bafc9d7c29055195015ad4bf2c9", "lon": -77.03645, "is_disabled": 0, "type": "electric_scooter"}, {"bike_id": "e6e34ac745625b1fca0578f4a9536c5c", "lat": 38.923020333333334, "is_reserved": 0, "fusion_lat": 0.0, "rental_uris": {"android": "https://dc.lft.to/lastmile_qr_scan", "ios": "https://dc.lft.to/lastmile_qr_scan"}, "fusion_lon": 0.0, "name": "e6e34ac745625b1fca0578f4a9536c5c", "lon": -77.04183683333333, "is_disabled": 0, "type": "electric_scooter"}, {"bike_id": "5c5887878c5d7ce77df164f219144a3a", "lat": 38.9655845, "is_reserved": 0, "fusion_lat": 0.0, "rental_uris": {"android": "https://dc.lft.to/lastmile_qr_scan", "ios": "https://dc.lft.to/lastmile_qr_scan"}, "fusion_lon": 0.0, "name": "5c5887878c5d7ce77df164f219144a3a", "lon": -77.0020505, "is_disabled": 0, "type": "electric_scooter"}, {"bike_id": "03b48aaf8591bcfb4a63510552cbe1c3", "lat": 38.921501166666665, "is_reserved": 0, "fusion_lat": 0.0, "rental_uris": {"android": "https://dc.lft.to/lastmile_qr_scan", "ios": "https://dc.lft.to/lastmile_qr_scan"}, "fusion_lon": 0.0, "name": "03b48aaf8591bcfb4a63510552cbe1c3", "lon": -77.03511916666666, "is_disabled": 0, "type": "electric_scooter"}, {"bike_id": "a6a0ed23c7f97c4147ea817af977af61", "lat": 38.91107916666667, "is_reserved": 0, "fusion_lat": 0.0, "rental_uris": {"android": "https://dc.lft.to/lastmile_qr_scan", "ios": "https://dc.lft.to/lastmile_qr_scan"}, "fusion_lon": 0.0, "name": "a6a0ed23c7f97c4147ea817af977af61", "lon": -77.04407533333334, "is_disabled": 0, "type": "electric_scooter"}, {"bike_id": "9831b38be6061bacbf4fe033ca35c84c", "lat": 38.93604416666667, "is_reserved": 0, "fusion_lat": 0.0, "rental_uris": {"android": "https://dc.lft.to/lastmile_qr_scan", "ios": "https://dc.lft.to/lastmile_qr_scan"}, "fusion_lon": 0.0, "name": "9831b38be6061bacbf4fe033ca35c84c", "lon": -77.05890933333333, "is_disabled": 0, "type": "electric_scooter"}, {"bike_id": "d3f7b6ca04af9fa315c78546becbf361", "lat": 38.915980166666664, "is_reserved": 0, "fusion_lat": 0.0, "rental_uris": {"android": "https://dc.lft.to/lastmile_qr_scan", "ios": "https://dc.lft.to/lastmile_qr_scan"}, "fusion_lon": 0.0, "name": "d3f7b6ca04af9fa315c78546becbf361", "lon": -77.00200216666667, "is_disabled": 0, "type": "electric_scooter"}, {"bike_id": "87c0b75e4f65119432530f60e4f6ec0c", "lat": 38.892208833333335, "is_reserved": 0, "fusion_lat": 0.0, "rental_uris": {"android": "https://dc.lft.to/lastmile_qr_scan", "ios": "https://dc.lft.to/lastmile_qr_scan"}, "fusion_lon": 0.0, "name": "87c0b75e4f65119432530f60e4f6ec0c", "lon": -77.048694, "is_disabled": 0, "type": "electric_scooter"}, {"bike_id": "19d5eeafb134d222d7464b1f7df74c05", "lat": 38.909702, "is_reserved": 0, "fusion_lat": 0.0, "rental_uris": {"android": "https://dc.lft.to/lastmile_qr_scan", "ios": "https://dc.lft.to/lastmile_qr_scan"}, "fusion_lon": 0.0, "name": "19d5eeafb134d222d7464b1f7df74c05", "lon": -77.01713833333334, "is_disabled": 0, "type": "electric_scooter"}, {"bike_id": "4be4158e278cd7a461b7b57523687794", "lat": 38.94112066666667, "is_reserved": 0, "fusion_lat": 0.0, "rental_uris": {"android": "https://dc.lft.to/lastmile_qr_scan", "ios": "https://dc.lft.to/lastmile_qr_scan"}, "fusion_lon": 0.0, "name": "4be4158e278cd7a461b7b57523687794", "lon": -77.025433, "is_disabled": 0, "type": "electric_scooter"}, {"bike_id": "a83a1c21368975e223f6a62e2b5406e5", "lat": 38.903844666666664, "is_reserved": 0, "fusion_lat": 0.0, "rental_uris": {"android": "https://dc.lft.to/lastmile_qr_scan", "ios": "https://dc.lft.to/lastmile_qr_scan"}, "fusion_lon": 0.0, "name": "a83a1c21368975e223f6a62e2b5406e5", "lon": -77.04660716666666, "is_disabled": 0, "type": "electric_scooter"}, {"bike_id": "4d9fa30cc3a3b433e46e17a536560e03", "lat": 38.902562833333334, "is_reserved": 0, "fusion_lat": 0.0, "rental_uris": {"android": "https://dc.lft.to/lastmile_qr_scan", "ios": "https://dc.lft.to/lastmile_qr_scan"}, "fusion_lon": 0.0, "name": "4d9fa30cc3a3b433e46e17a536560e03", "lon": -77.04803866666667, "is_disabled": 0, "type": "electric_scooter"}, {"bike_id": "3056f55a30c2b17acf9996607813f382", "lat": 38.93197133333334, "is_reserved": 0, "fusion_lat": 0.0, "rental_uris": {"android": "https://dc.lft.to/lastmile_qr_scan", "ios": "https://dc.lft.to/lastmile_qr_scan"}, "fusion_lon": 0.0, "name": "3056f55a30c2b17acf9996607813f382", "lon": -77.02398016666666, "is_disabled": 0, "type": "electric_scooter"}, {"bike_id": "3577e2f2cf891f32d6b60b261457d9de", "lat": 38.88183816666667, "is_reserved": 0, "fusion_lat": 0.0, "rental_uris": {"android": "https://dc.lft.to/lastmile_qr_scan", "ios": "https://dc.lft.to/lastmile_qr_scan"}, "fusion_lon": 0.0, "name": "3577e2f2cf891f32d6b60b261457d9de", "lon": -77.02089783333334, "is_disabled": 0, "type": "electric_scooter"}, {"bike_id": "4fed9d9ce771b11507ce86ad8f86e33c", "lat": 38.9232275, "is_reserved": 0, "fusion_lat": 0.0, "rental_uris": {"android": "https://dc.lft.to/lastmile_qr_scan", "ios": "https://dc.lft.to/lastmile_qr_scan"}, "fusion_lon": 0.0, "name": "4fed9d9ce771b11507ce86ad8f86e33c", "lon": -77.044507, "is_disabled": 0, "type": "electric_scooter"}, {"bike_id": "c9dadead9b62c4173d2451fe54d4d50b", "lat": 38.883428333333335, "is_reserved": 0, "fusion_lat": 0.0, "rental_uris": {"android": "https://dc.lft.to/lastmile_qr_scan", "ios": "https://dc.lft.to/lastmile_qr_scan"}, "fusion_lon": 0.0, "name": "c9dadead9b62c4173d2451fe54d4d50b", "lon": -76.99488066666666, "is_disabled": 0, "type": "electric_scooter"}, {"bike_id": "5f202316fd83ac2436f8330ed760109a", "lat": 38.94991616666667, "is_reserved": 0, "fusion_lat": 0.0, "rental_uris": {"android": "https://dc.lft.to/lastmile_qr_scan", "ios": "https://dc.lft.to/lastmile_qr_scan"}, "fusion_lon": 0.0, "name": "5f202316fd83ac2436f8330ed760109a", "lon": -77.01832166666667, "is_disabled": 0, "type": "electric_scooter"}, {"bike_id": "3da022b35c557537ba6bed039485f642", "lat": 38.88663016666667, "is_reserved": 0, "fusion_lat": 0.0, "rental_uris": {"android": "https://dc.lft.to/lastmile_qr_scan", "ios": "https://dc.lft.to/lastmile_qr_scan"}, "fusion_lon": 0.0, "name": "3da022b35c557537ba6bed039485f642", "lon": -77.16239016666667, "is_disabled": 0, "type": "electric_bike"}, {"bike_id": "42ea04db5f43a4a732d4c419bfa83fb1", "lat": 38.87621433333333, "is_reserved": 0, "fusion_lat": 0.0, "rental_uris": {"android": "https://dc.lft.to/lastmile_qr_scan", "ios": "https://dc.lft.to/lastmile_qr_scan"}, "fusion_lon": 0.0, "name": "42ea04db5f43a4a732d4c419bfa83fb1", "lon": -76.965284, "is_disabled": 0, "type": "electric_scooter"}, {"bike_id": "e39e4f4d99da6eedcd6702c57a315c0b", "lat": 38.9006455, "is_reserved": 0, "fusion_lat": 0.0, "rental_uris": {"android": "https://dc.lft.to/lastmile_qr_scan", "ios": "https://dc.lft.to/lastmile_qr_scan"}, "fusion_lon": 0.0, "name": "e39e4f4d99da6eedcd6702c57a315c0b", "lon": -76.9274495, "is_disabled": 0, "type": "electric_scooter"}, {"bike_id": "d5b051f9b17c9ec036cfdd2f8f8ea4a3", "lat": 38.90977183333333, "is_reserved": 0, "fusion_lat": 0.0, "rental_uris": {"android": "https://dc.lft.to/lastmile_qr_scan", "ios": "https://dc.lft.to/lastmile_qr_scan"}, "fusion_lon": 0.0, "name": "d5b051f9b17c9ec036cfdd2f8f8ea4a3", "lon": -76.99508366666667, "is_disabled": 0, "type": "electric_scooter"}, {"bike_id": "1cbb5cd6c6c1bed40d901758e25608bc", "lat": 38.92701616666667, "is_reserved": 0, "fusion_lat": 0.0, "rental_uris": {"android": "https://dc.lft.to/lastmile_qr_scan", "ios": "https://dc.lft.to/lastmile_qr_scan"}, "fusion_lon": 0.0, "name": "1cbb5cd6c6c1bed40d901758e25608bc", "lon": -77.01531666666666, "is_disabled": 0, "type": "electric_scooter"}, {"bike_id": "6347354585c1d2926965cc46d3a936e1", "lat": 38.876601, "is_reserved": 0, "fusion_lat": 0.0, "rental_uris": {"android": "https://dc.lft.to/lastmile_qr_scan", "ios": "https://dc.lft.to/lastmile_qr_scan"}, "fusion_lon": 0.0, "name": "6347354585c1d2926965cc46d3a936e1", "lon": -77.004406, "is_disabled": 0, "type": "electric_scooter"}, {"bike_id": "989e26cbcc15b5e74a25a0c23b55ec5a", "lat": 38.90614866666667, "is_reserved": 0, "fusion_lat": 0.0, "rental_uris": {"android": "https://dc.lft.to/lastmile_qr_scan", "ios": "https://dc.lft.to/lastmile_qr_scan"}, "fusion_lon": 0.0, "name": "989e26cbcc15b5e74a25a0c23b55ec5a", "lon": -77.076346, "is_disabled": 0, "type": "electric_bike"}, {"bike_id": "c48fdae3932454edd25882d0389a66f2", "lat": 38.903734166666666, "is_reserved": 0, "fusion_lat": 0.0, "rental_uris": {"android": "https://dc.lft.to/lastmile_qr_scan", "ios": "https://dc.lft.to/lastmile_qr_scan"}, "fusion_lon": 0.0, "name": "c48fdae3932454edd25882d0389a66f2", "lon": -77.04501566666667, "is_disabled": 0, "type": "electric_scooter"}, {"bike_id": "b0d9029fc6baed912982dbc85ea7fc5c", "lat": 38.821651333333335, "is_reserved": 0, "fusion_lat": 0.0, "rental_uris": {"android": "https://dc.lft.to/lastmile_qr_scan", "ios": "https://dc.lft.to/lastmile_qr_scan"}, "fusion_lon": 0.0, "name": "b0d9029fc6baed912982dbc85ea7fc5c", "lon": -76.99502483333333, "is_disabled": 0, "type": "electric_bike"}, {"bike_id": "60e3668418aa6a2dca411741a533eaf9", "lat": 38.900115166666666, "is_reserved": 0, "fusion_lat": 0.0, "rental_uris": {"android": "https://dc.lft.to/lastmile_qr_scan", "ios": "https://dc.lft.to/lastmile_qr_scan"}, "fusion_lon": 0.0, "name": "60e3668418aa6a2dca411741a533eaf9", "lon": -76.98699883333333, "is_disabled": 0, "type": "electric_scooter"}, {"bike_id": "64f7a7519fe109068836a4d314426779", "lat": 38.91833783333333, "is_reserved": 0, "fusion_lat": 0.0, "rental_uris": {"android": "https://dc.lft.to/lastmile_qr_scan", "ios": "https://dc.lft.to/lastmile_qr_scan"}, "fusion_lon": 0.0, "name": "64f7a7519fe109068836a4d314426779", "lon": -77.03939766666667, "is_disabled": 0, "type": "electric_scooter"}, {"bike_id": "2f2c7a42ec0613b17520f20291bcf972", "lat": 38.87690666666667, "is_reserved": 0, "fusion_lat": 0.0, "rental_uris": {"android": "https://dc.lft.to/lastmile_qr_scan", "ios": "https://dc.lft.to/lastmile_qr_scan"}, "fusion_lon": 0.0, "name": "2f2c7a42ec0613b17520f20291bcf972", "lon": -77.01760933333334, "is_disabled": 0, "type": "electric_scooter"}, {"bike_id": "2bcabd43817f9d0154d74f6d9d7632b4", "lat": 38.920679166666666, "is_reserved": 0, "fusion_lat": 0.0, "rental_uris": {"android": "https://dc.lft.to/lastmile_qr_scan", "ios": "https://dc.lft.to/lastmile_qr_scan"}, "fusion_lon": 0.0, "name": "2bcabd43817f9d0154d74f6d9d7632b4", "lon": -77.0269165, "is_disabled": 0, "type": "electric_scooter"}, {"bike_id": "5393f98e99a4adc66c8d967c4f2c1b3a", "lat": 38.89358566666667, "is_reserved": 0, "fusion_lat": 0.0, "rental_uris": {"android": "https://dc.lft.to/lastmile_qr_scan", "ios": "https://dc.lft.to/lastmile_qr_scan"}, "fusion_lon": 0.0, "name": "5393f98e99a4adc66c8d967c4f2c1b3a", "lon": -76.94934283333333, "is_disabled": 0, "type": "electric_scooter"}, {"bike_id": "0fd13190712e0d8708bc43ab862f4d0a", "lat": 38.91566433333333, "is_reserved": 0, "fusion_lat": 0.0, "rental_uris": {"android": "https://dc.lft.to/lastmile_qr_scan", "ios": "https://dc.lft.to/lastmile_qr_scan"}, "fusion_lon": 0.0, "name": "0fd13190712e0d8708bc43ab862f4d0a", "lon": -77.0200945, "is_disabled": 0, "type": "electric_scooter"}, {"bike_id": "03019819bb5e72276229e9032f717fb8", "lat": 38.902581166666664, "is_reserved": 0, "fusion_lat": 0.0, "rental_uris": {"android": "https://dc.lft.to/lastmile_qr_scan", "ios": "https://dc.lft.to/lastmile_qr_scan"}, "fusion_lon": 0.0, "name": "03019819bb5e72276229e9032f717fb8", "lon": -77.02152316666667, "is_disabled": 0, "type": "electric_scooter"}, {"bike_id": "e2086cc51c1be3e221243af73945fed6", "lat": 38.92042466666667, "is_reserved": 0, "fusion_lat": 0.0, "rental_uris": {"android": "https://dc.lft.to/lastmile_qr_scan", "ios": "https://dc.lft.to/lastmile_qr_scan"}, "fusion_lon": 0.0, "name": "e2086cc51c1be3e221243af73945fed6", "lon": -77.0168865, "is_disabled": 0, "type": "electric_scooter"}, {"bike_id": "f5d4e24cf604d16663dc296f5cebf295", "lat": 38.91409566666667, "is_reserved": 0, "fusion_lat": 0.0, "rental_uris": {"android": "https://dc.lft.to/lastmile_qr_scan", "ios": "https://dc.lft.to/lastmile_qr_scan"}, "fusion_lon": 0.0, "name": "f5d4e24cf604d16663dc296f5cebf295", "lon": -77.02121083333333, "is_disabled": 0, "type": "electric_scooter"}, {"bike_id": "77f61692d331981f5148ac429108f60f", "lat": 38.8459805, "is_reserved": 0, "fusion_lat": 0.0, "rental_uris": {"android": "https://dc.lft.to/lastmile_qr_scan", "ios": "https://dc.lft.to/lastmile_qr_scan"}, "fusion_lon": 0.0, "name": "77f61692d331981f5148ac429108f60f", "lon": -77.108699, "is_disabled": 0, "type": "electric_bike"}, {"bike_id": "828b9c0951fc46ff0a8feffa971439de", "lat": 38.9190175, "is_reserved": 0, "fusion_lat": 0.0, "rental_uris": {"android": "https://dc.lft.to/lastmile_qr_scan", "ios": "https://dc.lft.to/lastmile_qr_scan"}, "fusion_lon": 0.0, "name": "828b9c0951fc46ff0a8feffa971439de", "lon": -77.01963416666666, "is_disabled": 0, "type": "electric_scooter"}, {"bike_id": "bf97620cad99072d5672574badf216a9", "lat": 38.90559916666667, "is_reserved": 0, "fusion_lat": 0.0, "rental_uris": {"android": "https://dc.lft.to/lastmile_qr_scan", "ios": "https://dc.lft.to/lastmile_qr_scan"}, "fusion_lon": 0.0, "name": "bf97620cad99072d5672574badf216a9", "lon": -77.06527566666666, "is_disabled": 0, "type": "electric_scooter"}, {"bike_id": "f9c92069aeb4698f86eafd2c7d02b099", "lat": 38.87167766666666, "is_reserved": 0, "fusion_lat": 0.0, "rental_uris": {"android": "https://dc.lft.to/lastmile_qr_scan", "ios": "https://dc.lft.to/lastmile_qr_scan"}, "fusion_lon": 0.0, "name": "f9c92069aeb4698f86eafd2c7d02b099", "lon": -77.00682316666666, "is_disabled": 0, "type": "electric_scooter"}, {"bike_id": "f1f9ee6ce89dbf3551e77f75bdae3877", "lat": 38.9014315, "is_reserved": 0, "fusion_lat": 0.0, "rental_uris": {"android": "https://dc.lft.to/lastmile_qr_scan", "ios": "https://dc.lft.to/lastmile_qr_scan"}, "fusion_lon": 0.0, "name": "f1f9ee6ce89dbf3551e77f75bdae3877", "lon": -77.0293235, "is_disabled": 0, "type": "electric_scooter"}, {"bike_id": "16a9e20a593fa0e98decc17eec0b4752", "lat": 38.84639116666666, "is_reserved": 0, "fusion_lat": 0.0, "rental_uris": {"android": "https://dc.lft.to/lastmile_qr_scan", "ios": "https://dc.lft.to/lastmile_qr_scan"}, "fusion_lon": 0.0, "name": "16a9e20a593fa0e98decc17eec0b4752", "lon": -76.991367, "is_disabled": 0, "type": "electric_scooter"}, {"bike_id": "fcc86fbe2ea9a246c578659a32afac82", "lat": 38.906334666666666, "is_reserved": 0, "fusion_lat": 0.0, "rental_uris": {"android": "https://dc.lft.to/lastmile_qr_scan", "ios": "https://dc.lft.to/lastmile_qr_scan"}, "fusion_lon": 0.0, "name": "fcc86fbe2ea9a246c578659a32afac82", "lon": -77.021803, "is_disabled": 0, "type": "electric_scooter"}, {"bike_id": "a51527019e3bbd8ea1b1d198de6f0119", "lat": 38.893309333333335, "is_reserved": 0, "fusion_lat": 0.0, "rental_uris": {"android": "https://dc.lft.to/lastmile_qr_scan", "ios": "https://dc.lft.to/lastmile_qr_scan"}, "fusion_lon": 0.0, "name": "a51527019e3bbd8ea1b1d198de6f0119", "lon": -77.031809, "is_disabled": 0, "type": "electric_scooter"}, {"bike_id": "726c51e549ee2cd168dd00f4d72742cc", "lat": 38.922500166666666, "is_reserved": 0, "fusion_lat": 0.0, "rental_uris": {"android": "https://dc.lft.to/lastmile_qr_scan", "ios": "https://dc.lft.to/lastmile_qr_scan"}, "fusion_lon": 0.0, "name": "726c51e549ee2cd168dd00f4d72742cc", "lon": -77.0195275, "is_disabled": 0, "type": "electric_scooter"}, {"bike_id": "6647fb1188b56308ade596f17ae5bc78", "lat": 38.91472733333333, "is_reserved": 0, "fusion_lat": 0.0, "rental_uris": {"android": "https://dc.lft.to/lastmile_qr_scan", "ios": "https://dc.lft.to/lastmile_qr_scan"}, "fusion_lon": 0.0, "name": "6647fb1188b56308ade596f17ae5bc78", "lon": -76.9811415, "is_disabled": 0, "type": "electric_scooter"}, {"bike_id": "a46a3702b015e031a91e2f6c79659c6f", "lat": 38.9145235, "is_reserved": 0, "fusion_lat": 0.0, "rental_uris": {"android": "https://dc.lft.to/lastmile_qr_scan", "ios": "https://dc.lft.to/lastmile_qr_scan"}, "fusion_lon": 0.0, "name": "a46a3702b015e031a91e2f6c79659c6f", "lon": -77.0218525, "is_disabled": 0, "type": "electric_scooter"}, {"bike_id": "7a730ab828b7032da6f5fa3c5e811d9f", "lat": 38.90401, "is_reserved": 0, "fusion_lat": 0.0, "rental_uris": {"android": "https://dc.lft.to/lastmile_qr_scan", "ios": "https://dc.lft.to/lastmile_qr_scan"}, "fusion_lon": 0.0, "name": "7a730ab828b7032da6f5fa3c5e811d9f", "lon": -77.02482066666667, "is_disabled": 0, "type": "electric_scooter"}, {"bike_id": "bc72a9c89873ffa50fc39d2fd398a9fa", "lat": 38.918624, "is_reserved": 0, "fusion_lat": 0.0, "rental_uris": {"android": "https://dc.lft.to/lastmile_qr_scan", "ios": "https://dc.lft.to/lastmile_qr_scan"}, "fusion_lon": 0.0, "name": "bc72a9c89873ffa50fc39d2fd398a9fa", "lon": -77.03193566666667, "is_disabled": 0, "type": "electric_scooter"}, {"bike_id": "215a2a23ae71af2620899259c0ad2efe", "lat": 38.91415683333334, "is_reserved": 0, "fusion_lat": 0.0, "rental_uris": {"android": "https://dc.lft.to/lastmile_qr_scan", "ios": "https://dc.lft.to/lastmile_qr_scan"}, "fusion_lon": 0.0, "name": "215a2a23ae71af2620899259c0ad2efe", "lon": -77.01806016666667, "is_disabled": 0, "type": "electric_scooter"}, {"bike_id": "c8cd5f58381a74e5f1fbe6dd56f71ad0", "lat": 38.815085, "is_reserved": 0, "fusion_lat": 0.0, "rental_uris": {"android": "https://dc.lft.to/lastmile_qr_scan", "ios": "https://dc.lft.to/lastmile_qr_scan"}, "fusion_lon": 0.0, "name": "c8cd5f58381a74e5f1fbe6dd56f71ad0", "lon": -77.12661633333333, "is_disabled": 0, "type": "electric_bike"}, {"bike_id": "87167f5ff69561089225bd227e7abfa1", "lat": 38.873076166666664, "is_reserved": 0, "fusion_lat": 0.0, "rental_uris": {"android": "https://dc.lft.to/lastmile_qr_scan", "ios": "https://dc.lft.to/lastmile_qr_scan"}, "fusion_lon": 0.0, "name": "87167f5ff69561089225bd227e7abfa1", "lon": -77.0015005, "is_disabled": 0, "type": "electric_scooter"}, {"bike_id": "c199409c4c903d7afea77be5e2e14fc3", "lat": 38.923893166666666, "is_reserved": 0, "fusion_lat": 0.0, "rental_uris": {"android": "https://dc.lft.to/lastmile_qr_scan", "ios": "https://dc.lft.to/lastmile_qr_scan"}, "fusion_lon": 0.0, "name": "c199409c4c903d7afea77be5e2e14fc3", "lon": -77.044535, "is_disabled": 0, "type": "electric_scooter"}, {"bike_id": "cceacc426d8a0eff2cb7535832b2d015", "lat": 38.895963333333334, "is_reserved": 0, "fusion_lat": 0.0, "rental_uris": {"android": "https://dc.lft.to/lastmile_qr_scan", "ios": "https://dc.lft.to/lastmile_qr_scan"}, "fusion_lon": 0.0, "name": "cceacc426d8a0eff2cb7535832b2d015", "lon": -77.00694883333334, "is_disabled": 0, "type": "electric_scooter"}, {"bike_id": "08947889001bccd0c3c9183c669b8426", "lat": 38.796038833333334, "is_reserved": 0, "fusion_lat": 0.0, "rental_uris": {"android": "https://dc.lft.to/lastmile_qr_scan", "ios": "https://dc.lft.to/lastmile_qr_scan"}, "fusion_lon": 0.0, "name": "08947889001bccd0c3c9183c669b8426", "lon": -76.99746333333333, "is_disabled": 0, "type": "electric_bike"}, {"bike_id": "c1cf911ffe909b024cde862a0183440b", "lat": 38.89864333333333, "is_reserved": 0, "fusion_lat": 0.0, "rental_uris": {"android": "https://dc.lft.to/lastmile_qr_scan", "ios": "https://dc.lft.to/lastmile_qr_scan"}, "fusion_lon": 0.0, "name": "c1cf911ffe909b024cde862a0183440b", "lon": -76.946417, "is_disabled": 0, "type": "electric_scooter"}, {"bike_id": "3ef8d77575924d87891efddb31bc5abd", "lat": 38.853541166666666, "is_reserved": 0, "fusion_lat": 0.0, "rental_uris": {"android": "https://dc.lft.to/lastmile_qr_scan", "ios": "https://dc.lft.to/lastmile_qr_scan"}, "fusion_lon": 0.0, "name": "3ef8d77575924d87891efddb31bc5abd", "lon": -77.08691883333333, "is_disabled": 0, "type": "electric_bike"}, {"bike_id": "a8dfef9f7d1145568819ab959c53a6e3", "lat": 38.915535166666665, "is_reserved": 0, "fusion_lat": 0.0, "rental_uris": {"android": "https://dc.lft.to/lastmile_qr_scan", "ios": "https://dc.lft.to/lastmile_qr_scan"}, "fusion_lon": 0.0, "name": "a8dfef9f7d1145568819ab959c53a6e3", "lon": -77.02571933333333, "is_disabled": 0, "type": "electric_scooter"}, {"bike_id": "5de3d892cfc918156142268753fca54d", "lat": 38.95561583333333, "is_reserved": 0, "fusion_lat": 0.0, "rental_uris": {"android": "https://dc.lft.to/lastmile_qr_scan", "ios": "https://dc.lft.to/lastmile_qr_scan"}, "fusion_lon": 0.0, "name": "5de3d892cfc918156142268753fca54d", "lon": -77.027243, "is_disabled": 0, "type": "electric_scooter"}, {"bike_id": "23556a6ae30050b323d15ce11657396e", "lat": 38.92322883333333, "is_reserved": 0, "fusion_lat": 0.0, "rental_uris": {"android": "https://dc.lft.to/lastmile_qr_scan", "ios": "https://dc.lft.to/lastmile_qr_scan"}, "fusion_lon": 0.0, "name": "23556a6ae30050b323d15ce11657396e", "lon": -77.03682166666667, "is_disabled": 0, "type": "electric_scooter"}, {"bike_id": "d91477f7ca3a53fa65bdfa4ba6cd0521", "lat": 38.86508966666667, "is_reserved": 0, "fusion_lat": 0.0, "rental_uris": {"android": "https://dc.lft.to/lastmile_qr_scan", "ios": "https://dc.lft.to/lastmile_qr_scan"}, "fusion_lon": 0.0, "name": "d91477f7ca3a53fa65bdfa4ba6cd0521", "lon": -76.99010416666667, "is_disabled": 0, "type": "electric_scooter"}, {"bike_id": "989a2a0a43049f0c4b13944b57b17378", "lat": 38.914144, "is_reserved": 0, "fusion_lat": 0.0, "rental_uris": {"android": "https://dc.lft.to/lastmile_qr_scan", "ios": "https://dc.lft.to/lastmile_qr_scan"}, "fusion_lon": 0.0, "name": "989a2a0a43049f0c4b13944b57b17378", "lon": -77.0261565, "is_disabled": 0, "type": "electric_scooter"}, {"bike_id": "f5f7affcc5d19be6db76441763ecf765", "lat": 38.89684066666667, "is_reserved": 0, "fusion_lat": 0.0, "rental_uris": {"android": "https://dc.lft.to/lastmile_qr_scan", "ios": "https://dc.lft.to/lastmile_qr_scan"}, "fusion_lon": 0.0, "name": "f5f7affcc5d19be6db76441763ecf765", "lon": -77.00498766666666, "is_disabled": 0, "type": "electric_scooter"}, {"bike_id": "5de6b80d2c1db08df2944aff0bf6c0f9", "lat": 38.923218, "is_reserved": 0, "fusion_lat": 0.0, "rental_uris": {"android": "https://dc.lft.to/lastmile_qr_scan", "ios": "https://dc.lft.to/lastmile_qr_scan"}, "fusion_lon": 0.0, "name": "5de6b80d2c1db08df2944aff0bf6c0f9", "lon": -77.03676416666667, "is_disabled": 0, "type": "electric_scooter"}, {"bike_id": "8300661a27e939fe5172a58b275e45c1", "lat": 38.92266883333333, "is_reserved": 0, "fusion_lat": 0.0, "rental_uris": {"android": "https://dc.lft.to/lastmile_qr_scan", "ios": "https://dc.lft.to/lastmile_qr_scan"}, "fusion_lon": 0.0, "name": "8300661a27e939fe5172a58b275e45c1", "lon": -77.04229116666667, "is_disabled": 0, "type": "electric_scooter"}, {"bike_id": "1a98435d1928a702da4545d03e607402", "lat": 38.903761833333334, "is_reserved": 0, "fusion_lat": 0.0, "rental_uris": {"android": "https://dc.lft.to/lastmile_qr_scan", "ios": "https://dc.lft.to/lastmile_qr_scan"}, "fusion_lon": 0.0, "name": "1a98435d1928a702da4545d03e607402", "lon": -77.045009, "is_disabled": 0, "type": "electric_scooter"}, {"bike_id": "fbaca3950b7203f995ee8e3dfc2fb8f9", "lat": 38.89846683333333, "is_reserved": 0, "fusion_lat": 0.0, "rental_uris": {"android": "https://dc.lft.to/lastmile_qr_scan", "ios": "https://dc.lft.to/lastmile_qr_scan"}, "fusion_lon": 0.0, "name": "fbaca3950b7203f995ee8e3dfc2fb8f9", "lon": -77.02743333333333, "is_disabled": 0, "type": "electric_scooter"}, {"bike_id": "8b44d7563fe5cf74727c5b8249fa64cb", "lat": 38.903327, "is_reserved": 0, "fusion_lat": 0.0, "rental_uris": {"android": "https://dc.lft.to/lastmile_qr_scan", "ios": "https://dc.lft.to/lastmile_qr_scan"}, "fusion_lon": 0.0, "name": "8b44d7563fe5cf74727c5b8249fa64cb", "lon": -77.03847316666666, "is_disabled": 0, "type": "electric_scooter"}, {"bike_id": "02c89708a44bb89cb3fad90f777cbe4a", "lat": 38.947874666666664, "is_reserved": 0, "fusion_lat": 0.0, "rental_uris": {"android": "https://dc.lft.to/lastmile_qr_scan", "ios": "https://dc.lft.to/lastmile_qr_scan"}, "fusion_lon": 0.0, "name": "02c89708a44bb89cb3fad90f777cbe4a", "lon": -77.02137933333333, "is_disabled": 0, "type": "electric_scooter"}, {"bike_id": "5038f08acbc2130c06564b78fb56e9b7", "lat": 38.89742666666667, "is_reserved": 0, "fusion_lat": 0.0, "rental_uris": {"android": "https://dc.lft.to/lastmile_qr_scan", "ios": "https://dc.lft.to/lastmile_qr_scan"}, "fusion_lon": 0.0, "name": "5038f08acbc2130c06564b78fb56e9b7", "lon": -77.03044016666666, "is_disabled": 0, "type": "electric_scooter"}, {"bike_id": "5a97e9f61d7631054adeda397b8144b9", "lat": 38.90777716666667, "is_reserved": 0, "fusion_lat": 0.0, "rental_uris": {"android": "https://dc.lft.to/lastmile_qr_scan", "ios": "https://dc.lft.to/lastmile_qr_scan"}, "fusion_lon": 0.0, "name": "5a97e9f61d7631054adeda397b8144b9", "lon": -77.02984266666667, "is_disabled": 0, "type": "electric_scooter"}, {"bike_id": "7b8ed346c3840940e011a5935ef243f6", "lat": 38.922367666666666, "is_reserved": 0, "fusion_lat": 0.0, "rental_uris": {"android": "https://dc.lft.to/lastmile_qr_scan", "ios": "https://dc.lft.to/lastmile_qr_scan"}, "fusion_lon": 0.0, "name": "7b8ed346c3840940e011a5935ef243f6", "lon": -77.07270233333334, "is_disabled": 0, "type": "electric_scooter"}, {"bike_id": "741b133643579afa3982c1c5a15f4c6e", "lat": 38.920772, "is_reserved": 0, "fusion_lat": 0.0, "rental_uris": {"android": "https://dc.lft.to/lastmile_qr_scan", "ios": "https://dc.lft.to/lastmile_qr_scan"}, "fusion_lon": 0.0, "name": "741b133643579afa3982c1c5a15f4c6e", "lon": -77.02310566666667, "is_disabled": 0, "type": "electric_scooter"}, {"bike_id": "480bf53481c5a79098c8f2ea225d5dde", "lat": 38.919081, "is_reserved": 0, "fusion_lat": 0.0, "rental_uris": {"android": "https://dc.lft.to/lastmile_qr_scan", "ios": "https://dc.lft.to/lastmile_qr_scan"}, "fusion_lon": 0.0, "name": "480bf53481c5a79098c8f2ea225d5dde", "lon": -77.03444183333333, "is_disabled": 0, "type": "electric_scooter"}, {"bike_id": "a138afed431bc1774d85d9ce32c6a9c7", "lat": 38.9129215, "is_reserved": 0, "fusion_lat": 0.0, "rental_uris": {"android": "https://dc.lft.to/lastmile_qr_scan", "ios": "https://dc.lft.to/lastmile_qr_scan"}, "fusion_lon": 0.0, "name": "a138afed431bc1774d85d9ce32c6a9c7", "lon": -77.02389016666666, "is_disabled": 0, "type": "electric_scooter"}, {"bike_id": "7eb56e1ec98e60218ce59b4de12cc3a0", "lat": 38.892255, "is_reserved": 0, "fusion_lat": 0.0, "rental_uris": {"android": "https://dc.lft.to/lastmile_qr_scan", "ios": "https://dc.lft.to/lastmile_qr_scan"}, "fusion_lon": 0.0, "name": "7eb56e1ec98e60218ce59b4de12cc3a0", "lon": -77.0400875, "is_disabled": 0, "type": "electric_scooter"}, {"bike_id": "0b6d958785c287b5a31e25a5d4e0e0a2", "lat": 38.893357, "is_reserved": 0, "fusion_lat": 0.0, "rental_uris": {"android": "https://dc.lft.to/lastmile_qr_scan", "ios": "https://dc.lft.to/lastmile_qr_scan"}, "fusion_lon": 0.0, "name": "0b6d958785c287b5a31e25a5d4e0e0a2", "lon": -77.03185033333334, "is_disabled": 0, "type": "electric_scooter"}, {"bike_id": "2e5f7774daafbce412d563e04acdca6f", "lat": 38.90020466666667, "is_reserved": 0, "fusion_lat": 0.0, "rental_uris": {"android": "https://dc.lft.to/lastmile_qr_scan", "ios": "https://dc.lft.to/lastmile_qr_scan"}, "fusion_lon": 0.0, "name": "2e5f7774daafbce412d563e04acdca6f", "lon": -76.99849733333333, "is_disabled": 0, "type": "electric_scooter"}, {"bike_id": "3684990df05e8f5bb52044189c610518", "lat": 38.91682016666667, "is_reserved": 0, "fusion_lat": 0.0, "rental_uris": {"android": "https://dc.lft.to/lastmile_qr_scan", "ios": "https://dc.lft.to/lastmile_qr_scan"}, "fusion_lon": 0.0, "name": "3684990df05e8f5bb52044189c610518", "lon": -77.0376295, "is_disabled": 0, "type": "electric_scooter"}, {"bike_id": "7fcdea8b6f17c9ca0711a70ea6ebd53f", "lat": 38.84523566666667, "is_reserved": 0, "fusion_lat": 0.0, "rental_uris": {"android": "https://dc.lft.to/lastmile_qr_scan", "ios": "https://dc.lft.to/lastmile_qr_scan"}, "fusion_lon": 0.0, "name": "7fcdea8b6f17c9ca0711a70ea6ebd53f", "lon": -76.97405816666667, "is_disabled": 0, "type": "electric_bike"}, {"bike_id": "cf39914c4cdcf727c2de6bc2fcb61cbd", "lat": 38.987701333333334, "is_reserved": 0, "fusion_lat": 0.0, "rental_uris": {"android": "https://dc.lft.to/lastmile_qr_scan", "ios": "https://dc.lft.to/lastmile_qr_scan"}, "fusion_lon": 0.0, "name": "cf39914c4cdcf727c2de6bc2fcb61cbd", "lon": -77.14062083333333, "is_disabled": 0, "type": "electric_bike"}, {"bike_id": "5b7551e5ed30720639ed735287beb0dc", "lat": 38.88493, "is_reserved": 0, "fusion_lat": 0.0, "rental_uris": {"android": "https://dc.lft.to/lastmile_qr_scan", "ios": "https://dc.lft.to/lastmile_qr_scan"}, "fusion_lon": 0.0, "name": "5b7551e5ed30720639ed735287beb0dc", "lon": -77.00729783333334, "is_disabled": 0, "type": "electric_scooter"}, {"bike_id": "fc15bd77eed8206c1c6f0971b0be05d6", "lat": 38.923271166666666, "is_reserved": 0, "fusion_lat": 0.0, "rental_uris": {"android": "https://dc.lft.to/lastmile_qr_scan", "ios": "https://dc.lft.to/lastmile_qr_scan"}, "fusion_lon": 0.0, "name": "fc15bd77eed8206c1c6f0971b0be05d6", "lon": -77.00889783333334, "is_disabled": 0, "type": "electric_scooter"}, {"bike_id": "47158de34172b7782ec2054fe7259384", "lat": 38.897161833333335, "is_reserved": 0, "fusion_lat": 0.0, "rental_uris": {"android": "https://dc.lft.to/lastmile_qr_scan", "ios": "https://dc.lft.to/lastmile_qr_scan"}, "fusion_lon": 0.0, "name": "47158de34172b7782ec2054fe7259384", "lon": -77.02376766666667, "is_disabled": 0, "type": "electric_scooter"}, {"bike_id": "08bc896616793d7098806909404c3523", "lat": 38.935334, "is_reserved": 0, "fusion_lat": 0.0, "rental_uris": {"android": "https://dc.lft.to/lastmile_qr_scan", "ios": "https://dc.lft.to/lastmile_qr_scan"}, "fusion_lon": 0.0, "name": "08bc896616793d7098806909404c3523", "lon": -77.02351433333334, "is_disabled": 0, "type": "electric_scooter"}, {"bike_id": "ffea457108cbf12f33569236e2663a12", "lat": 38.9248715, "is_reserved": 0, "fusion_lat": 0.0, "rental_uris": {"android": "https://dc.lft.to/lastmile_qr_scan", "ios": "https://dc.lft.to/lastmile_qr_scan"}, "fusion_lon": 0.0, "name": "ffea457108cbf12f33569236e2663a12", "lon": -77.03178183333333, "is_disabled": 0, "type": "electric_scooter"}, {"bike_id": "9b1c2b2fe3824e8ffaf5dbec2e5c4032", "lat": 38.920328, "is_reserved": 0, "fusion_lat": 0.0, "rental_uris": {"android": "https://dc.lft.to/lastmile_qr_scan", "ios": "https://dc.lft.to/lastmile_qr_scan"}, "fusion_lon": 0.0, "name": "9b1c2b2fe3824e8ffaf5dbec2e5c4032", "lon": -77.00306516666667, "is_disabled": 0, "type": "electric_scooter"}, {"bike_id": "896744eb7fb2aa12dc225c1c8ae0e5e8", "lat": 38.91652, "is_reserved": 0, "fusion_lat": 0.0, "rental_uris": {"android": "https://dc.lft.to/lastmile_qr_scan", "ios": "https://dc.lft.to/lastmile_qr_scan"}, "fusion_lon": 0.0, "name": "896744eb7fb2aa12dc225c1c8ae0e5e8", "lon": -76.97914983333334, "is_disabled": 0, "type": "electric_scooter"}, {"bike_id": "032ef3f089d51685623980774921c08c", "lat": 38.91853783333333, "is_reserved": 0, "fusion_lat": 0.0, "rental_uris": {"android": "https://dc.lft.to/lastmile_qr_scan", "ios": "https://dc.lft.to/lastmile_qr_scan"}, "fusion_lon": 0.0, "name": "032ef3f089d51685623980774921c08c", "lon": -77.03209883333334, "is_disabled": 0, "type": "electric_scooter"}, {"bike_id": "4c6cd9d9c9d58e154b7950a408617b20", "lat": 38.9200635, "is_reserved": 0, "fusion_lat": 0.0, "rental_uris": {"android": "https://dc.lft.to/lastmile_qr_scan", "ios": "https://dc.lft.to/lastmile_qr_scan"}, "fusion_lon": 0.0, "name": "4c6cd9d9c9d58e154b7950a408617b20", "lon": -77.02205833333333, "is_disabled": 0, "type": "electric_scooter"}, {"bike_id": "aa682b11a340ff3e36031b0571f7e63e", "lat": 38.90266283333333, "is_reserved": 0, "fusion_lat": 0.0, "rental_uris": {"android": "https://dc.lft.to/lastmile_qr_scan", "ios": "https://dc.lft.to/lastmile_qr_scan"}, "fusion_lon": 0.0, "name": "aa682b11a340ff3e36031b0571f7e63e", "lon": -77.05434316666667, "is_disabled": 0, "type": "electric_scooter"}, {"bike_id": "46ed4d3cd20e0617a4c20e0e29586bea", "lat": 38.88709433333333, "is_reserved": 0, "fusion_lat": 0.0, "rental_uris": {"android": "https://dc.lft.to/lastmile_qr_scan", "ios": "https://dc.lft.to/lastmile_qr_scan"}, "fusion_lon": 0.0, "name": "46ed4d3cd20e0617a4c20e0e29586bea", "lon": -77.01776866666667, "is_disabled": 0, "type": "electric_scooter"}, {"bike_id": "8e8f385aae08917daefe7f081dccc7c4", "lat": 38.918194, "is_reserved": 0, "fusion_lat": 0.0, "rental_uris": {"android": "https://dc.lft.to/lastmile_qr_scan", "ios": "https://dc.lft.to/lastmile_qr_scan"}, "fusion_lon": 0.0, "name": "8e8f385aae08917daefe7f081dccc7c4", "lon": -77.04944383333333, "is_disabled": 0, "type": "electric_scooter"}, {"bike_id": "72390c98db58d43161b5f318d77a5376", "lat": 38.91714316666667, "is_reserved": 0, "fusion_lat": 0.0, "rental_uris": {"android": "https://dc.lft.to/lastmile_qr_scan", "ios": "https://dc.lft.to/lastmile_qr_scan"}, "fusion_lon": 0.0, "name": "72390c98db58d43161b5f318d77a5376", "lon": -77.03209683333333, "is_disabled": 0, "type": "electric_scooter"}, {"bike_id": "394a757c575d028e8eca9cd305b4cb2a", "lat": 38.902862666666664, "is_reserved": 0, "fusion_lat": 0.0, "rental_uris": {"android": "https://dc.lft.to/lastmile_qr_scan", "ios": "https://dc.lft.to/lastmile_qr_scan"}, "fusion_lon": 0.0, "name": "394a757c575d028e8eca9cd305b4cb2a", "lon": -77.03317883333334, "is_disabled": 0, "type": "electric_scooter"}, {"bike_id": "7dfe1a0d78a7b1423106973c6ffc3082", "lat": 38.8746725, "is_reserved": 0, "fusion_lat": 0.0, "rental_uris": {"android": "https://dc.lft.to/lastmile_qr_scan", "ios": "https://dc.lft.to/lastmile_qr_scan"}, "fusion_lon": 0.0, "name": "7dfe1a0d78a7b1423106973c6ffc3082", "lon": -77.00562116666667, "is_disabled": 0, "type": "electric_scooter"}, {"bike_id": "76c538d06891fa6af35f2024a19dbd9a", "lat": 38.9183385, "is_reserved": 0, "fusion_lat": 0.0, "rental_uris": {"android": "https://dc.lft.to/lastmile_qr_scan", "ios": "https://dc.lft.to/lastmile_qr_scan"}, "fusion_lon": 0.0, "name": "76c538d06891fa6af35f2024a19dbd9a", "lon": -77.04158366666667, "is_disabled": 0, "type": "electric_scooter"}, {"bike_id": "a641c0d6d0264401799549fd86b1efc9", "lat": 38.90961133333333, "is_reserved": 0, "fusion_lat": 0.0, "rental_uris": {"android": "https://dc.lft.to/lastmile_qr_scan", "ios": "https://dc.lft.to/lastmile_qr_scan"}, "fusion_lon": 0.0, "name": "a641c0d6d0264401799549fd86b1efc9", "lon": -77.03382016666667, "is_disabled": 0, "type": "electric_scooter"}, {"bike_id": "6a0839f2e30677e009ab53d76f568b54", "lat": 38.904319, "is_reserved": 0, "fusion_lat": 0.0, "rental_uris": {"android": "https://dc.lft.to/lastmile_qr_scan", "ios": "https://dc.lft.to/lastmile_qr_scan"}, "fusion_lon": 0.0, "name": "6a0839f2e30677e009ab53d76f568b54", "lon": -77.02823933333333, "is_disabled": 0, "type": "electric_scooter"}, {"bike_id": "f56e6c568ca5b2550760caafd0b5ce16", "lat": 38.939474, "is_reserved": 0, "fusion_lat": 0.0, "rental_uris": {"android": "https://dc.lft.to/lastmile_qr_scan", "ios": "https://dc.lft.to/lastmile_qr_scan"}, "fusion_lon": 0.0, "name": "f56e6c568ca5b2550760caafd0b5ce16", "lon": -77.07238833333334, "is_disabled": 0, "type": "electric_scooter"}, {"bike_id": "ff25d6f75b664d6eb32c0e66ae02d828", "lat": 38.8874435, "is_reserved": 0, "fusion_lat": 0.0, "rental_uris": {"android": "https://dc.lft.to/lastmile_qr_scan", "ios": "https://dc.lft.to/lastmile_qr_scan"}, "fusion_lon": 0.0, "name": "ff25d6f75b664d6eb32c0e66ae02d828", "lon": -77.017316, "is_disabled": 0, "type": "electric_scooter"}, {"bike_id": "b40c12717f20ad27c671c20092f06007", "lat": 38.906141166666664, "is_reserved": 0, "fusion_lat": 0.0, "rental_uris": {"android": "https://dc.lft.to/lastmile_qr_scan", "ios": "https://dc.lft.to/lastmile_qr_scan"}, "fusion_lon": 0.0, "name": "b40c12717f20ad27c671c20092f06007", "lon": -77.01283916666667, "is_disabled": 0, "type": "electric_scooter"}, {"bike_id": "6142e7e3fbbcf1aa9efb3983d6ef16a4", "lat": 38.9167625, "is_reserved": 0, "fusion_lat": 0.0, "rental_uris": {"android": "https://dc.lft.to/lastmile_qr_scan", "ios": "https://dc.lft.to/lastmile_qr_scan"}, "fusion_lon": 0.0, "name": "6142e7e3fbbcf1aa9efb3983d6ef16a4", "lon": -77.02293216666666, "is_disabled": 0, "type": "electric_scooter"}, {"bike_id": "8fa5c590610de5d846fa80b62537ebe5", "lat": 38.899562, "is_reserved": 0, "fusion_lat": 0.0, "rental_uris": {"android": "https://dc.lft.to/lastmile_qr_scan", "ios": "https://dc.lft.to/lastmile_qr_scan"}, "fusion_lon": 0.0, "name": "8fa5c590610de5d846fa80b62537ebe5", "lon": -77.003547, "is_disabled": 0, "type": "electric_scooter"}, {"bike_id": "dafc85633152b795cb5d411091d30de6", "lat": 38.915677333333335, "is_reserved": 0, "fusion_lat": 0.0, "rental_uris": {"android": "https://dc.lft.to/lastmile_qr_scan", "ios": "https://dc.lft.to/lastmile_qr_scan"}, "fusion_lon": 0.0, "name": "dafc85633152b795cb5d411091d30de6", "lon": -77.03390733333333, "is_disabled": 0, "type": "electric_scooter"}, {"bike_id": "da9366a3aee62cec30b671fb237e55ab", "lat": 38.901399, "is_reserved": 0, "fusion_lat": 0.0, "rental_uris": {"android": "https://dc.lft.to/lastmile_qr_scan", "ios": "https://dc.lft.to/lastmile_qr_scan"}, "fusion_lon": 0.0, "name": "da9366a3aee62cec30b671fb237e55ab", "lon": -77.000906, "is_disabled": 0, "type": "electric_scooter"}, {"bike_id": "cb76ede3344127b78031d9aa7dc5b007", "lat": 38.897421666666666, "is_reserved": 0, "fusion_lat": 0.0, "rental_uris": {"android": "https://dc.lft.to/lastmile_qr_scan", "ios": "https://dc.lft.to/lastmile_qr_scan"}, "fusion_lon": 0.0, "name": "cb76ede3344127b78031d9aa7dc5b007", "lon": -76.9204535, "is_disabled": 0, "type": "electric_bike"}, {"bike_id": "e7ffe2782107b727d5d27d123c7b4c41", "lat": 38.899611166666666, "is_reserved": 0, "fusion_lat": 0.0, "rental_uris": {"android": "https://dc.lft.to/lastmile_qr_scan", "ios": "https://dc.lft.to/lastmile_qr_scan"}, "fusion_lon": 0.0, "name": "e7ffe2782107b727d5d27d123c7b4c41", "lon": -77.03189, "is_disabled": 0, "type": "electric_scooter"}, {"bike_id": "0b0f7427d8c2a2ce5de09e32e1cdd8e2", "lat": 38.92372366666667, "is_reserved": 0, "fusion_lat": 0.0, "rental_uris": {"android": "https://dc.lft.to/lastmile_qr_scan", "ios": "https://dc.lft.to/lastmile_qr_scan"}, "fusion_lon": 0.0, "name": "0b0f7427d8c2a2ce5de09e32e1cdd8e2", "lon": -77.02753066666666, "is_disabled": 0, "type": "electric_scooter"}, {"bike_id": "ed74fd5fe1656b89c0073bb2c08046f5", "lat": 38.91697333333333, "is_reserved": 0, "fusion_lat": 0.0, "rental_uris": {"android": "https://dc.lft.to/lastmile_qr_scan", "ios": "https://dc.lft.to/lastmile_qr_scan"}, "fusion_lon": 0.0, "name": "ed74fd5fe1656b89c0073bb2c08046f5", "lon": -77.02902183333333, "is_disabled": 0, "type": "electric_scooter"}, {"bike_id": "9470157ed5489b918cb3c0cbf6e6e17d", "lat": 38.862460666666664, "is_reserved": 0, "fusion_lat": 0.0, "rental_uris": {"android": "https://dc.lft.to/lastmile_qr_scan", "ios": "https://dc.lft.to/lastmile_qr_scan"}, "fusion_lon": 0.0, "name": "9470157ed5489b918cb3c0cbf6e6e17d", "lon": -76.99503566666667, "is_disabled": 0, "type": "electric_scooter"}, {"bike_id": "53d5e22f05a1cd7bd49b185945125057", "lat": 38.89952616666667, "is_reserved": 0, "fusion_lat": 0.0, "rental_uris": {"android": "https://dc.lft.to/lastmile_qr_scan", "ios": "https://dc.lft.to/lastmile_qr_scan"}, "fusion_lon": 0.0, "name": "53d5e22f05a1cd7bd49b185945125057", "lon": -77.0498825, "is_disabled": 0, "type": "electric_scooter"}, {"bike_id": "ba99b8eb638aeee0ffa5d1ab7692c7af", "lat": 38.939110666666664, "is_reserved": 0, "fusion_lat": 0.0, "rental_uris": {"android": "https://dc.lft.to/lastmile_qr_scan", "ios": "https://dc.lft.to/lastmile_qr_scan"}, "fusion_lon": 0.0, "name": "ba99b8eb638aeee0ffa5d1ab7692c7af", "lon": -77.06047316666667, "is_disabled": 0, "type": "electric_scooter"}, {"bike_id": "a1c54ef562199b60b660278b841bfa76", "lat": 38.91578116666667, "is_reserved": 0, "fusion_lat": 0.0, "rental_uris": {"android": "https://dc.lft.to/lastmile_qr_scan", "ios": "https://dc.lft.to/lastmile_qr_scan"}, "fusion_lon": 0.0, "name": "a1c54ef562199b60b660278b841bfa76", "lon": -77.03202133333333, "is_disabled": 0, "type": "electric_scooter"}, {"bike_id": "6e17f98643c87f265a3c664958380f4e", "lat": 38.900299, "is_reserved": 0, "fusion_lat": 0.0, "rental_uris": {"android": "https://dc.lft.to/lastmile_qr_scan", "ios": "https://dc.lft.to/lastmile_qr_scan"}, "fusion_lon": 0.0, "name": "6e17f98643c87f265a3c664958380f4e", "lon": -77.01189666666667, "is_disabled": 0, "type": "electric_scooter"}, {"bike_id": "df8c81d30732678fbc6c391c32d71a23", "lat": 38.86506216666667, "is_reserved": 0, "fusion_lat": 0.0, "rental_uris": {"android": "https://dc.lft.to/lastmile_qr_scan", "ios": "https://dc.lft.to/lastmile_qr_scan"}, "fusion_lon": 0.0, "name": "df8c81d30732678fbc6c391c32d71a23", "lon": -76.99012416666666, "is_disabled": 0, "type": "electric_scooter"}, {"bike_id": "29e6195e00db16cb87b17f5bd0cda6c4", "lat": 38.921935166666664, "is_reserved": 0, "fusion_lat": 0.0, "rental_uris": {"android": "https://dc.lft.to/lastmile_qr_scan", "ios": "https://dc.lft.to/lastmile_qr_scan"}, "fusion_lon": 0.0, "name": "29e6195e00db16cb87b17f5bd0cda6c4", "lon": -77.04018533333333, "is_disabled": 0, "type": "electric_scooter"}, {"bike_id": "a43f3cb26578597f2c4e62958cfd5256", "lat": 38.862475833333335, "is_reserved": 0, "fusion_lat": 0.0, "rental_uris": {"android": "https://dc.lft.to/lastmile_qr_scan", "ios": "https://dc.lft.to/lastmile_qr_scan"}, "fusion_lon": 0.0, "name": "a43f3cb26578597f2c4e62958cfd5256", "lon": -76.99561716666666, "is_disabled": 0, "type": "electric_scooter"}, {"bike_id": "33846ca27e2c78bb584d68e75304a810", "lat": 38.88736883333333, "is_reserved": 0, "fusion_lat": 0.0, "rental_uris": {"android": "https://dc.lft.to/lastmile_qr_scan", "ios": "https://dc.lft.to/lastmile_qr_scan"}, "fusion_lon": 0.0, "name": "33846ca27e2c78bb584d68e75304a810", "lon": -76.90101733333333, "is_disabled": 0, "type": "electric_bike"}, {"bike_id": "9a74942835a3c416b6140a0f05a92478", "lat": 38.877204, "is_reserved": 0, "fusion_lat": 0.0, "rental_uris": {"android": "https://dc.lft.to/lastmile_qr_scan", "ios": "https://dc.lft.to/lastmile_qr_scan"}, "fusion_lon": 0.0, "name": "9a74942835a3c416b6140a0f05a92478", "lon": -77.003679, "is_disabled": 0, "type": "electric_scooter"}, {"bike_id": "5b852309a3600661358e616950932092", "lat": 38.926444833333335, "is_reserved": 0, "fusion_lat": 0.0, "rental_uris": {"android": "https://dc.lft.to/lastmile_qr_scan", "ios": "https://dc.lft.to/lastmile_qr_scan"}, "fusion_lon": 0.0, "name": "5b852309a3600661358e616950932092", "lon": -77.03543983333333, "is_disabled": 0, "type": "electric_scooter"}, {"bike_id": "f30983f9df5bdaf70f8fa40435280804", "lat": 38.88701316666667, "is_reserved": 0, "fusion_lat": 0.0, "rental_uris": {"android": "https://dc.lft.to/lastmile_qr_scan", "ios": "https://dc.lft.to/lastmile_qr_scan"}, "fusion_lon": 0.0, "name": "f30983f9df5bdaf70f8fa40435280804", "lon": -77.01375983333334, "is_disabled": 0, "type": "electric_scooter"}, {"bike_id": "bd6affedca407afe6ef6b9b0a770e704", "lat": 38.90571283333333, "is_reserved": 0, "fusion_lat": 0.0, "rental_uris": {"android": "https://dc.lft.to/lastmile_qr_scan", "ios": "https://dc.lft.to/lastmile_qr_scan"}, "fusion_lon": 0.0, "name": "bd6affedca407afe6ef6b9b0a770e704", "lon": -76.97629516666667, "is_disabled": 0, "type": "electric_scooter"}, {"bike_id": "4628c23fb236855911a3da370056fd70", "lat": 38.9186475, "is_reserved": 0, "fusion_lat": 0.0, "rental_uris": {"android": "https://dc.lft.to/lastmile_qr_scan", "ios": "https://dc.lft.to/lastmile_qr_scan"}, "fusion_lon": 0.0, "name": "4628c23fb236855911a3da370056fd70", "lon": -77.0406125, "is_disabled": 0, "type": "electric_scooter"}, {"bike_id": "d9f37595c3cdffe4780ccea893ceac71", "lat": 38.8972745, "is_reserved": 0, "fusion_lat": 0.0, "rental_uris": {"android": "https://dc.lft.to/lastmile_qr_scan", "ios": "https://dc.lft.to/lastmile_qr_scan"}, "fusion_lon": 0.0, "name": "d9f37595c3cdffe4780ccea893ceac71", "lon": -77.02170283333334, "is_disabled": 0, "type": "electric_scooter"}, {"bike_id": "4f8baaf3a7c95ac783a35a0673ec483d", "lat": 38.923162, "is_reserved": 0, "fusion_lat": 0.0, "rental_uris": {"android": "https://dc.lft.to/lastmile_qr_scan", "ios": "https://dc.lft.to/lastmile_qr_scan"}, "fusion_lon": 0.0, "name": "4f8baaf3a7c95ac783a35a0673ec483d", "lon": -77.0214085, "is_disabled": 0, "type": "electric_scooter"}, {"bike_id": "fc5ef0bec8343eebf5db172f84d43725", "lat": 38.904549333333335, "is_reserved": 0, "fusion_lat": 0.0, "rental_uris": {"android": "https://dc.lft.to/lastmile_qr_scan", "ios": "https://dc.lft.to/lastmile_qr_scan"}, "fusion_lon": 0.0, "name": "fc5ef0bec8343eebf5db172f84d43725", "lon": -77.05325233333333, "is_disabled": 0, "type": "electric_scooter"}, {"bike_id": "c921eb73234e03d3934586289f5ab909", "lat": 38.9216295, "is_reserved": 0, "fusion_lat": 0.0, "rental_uris": {"android": "https://dc.lft.to/lastmile_qr_scan", "ios": "https://dc.lft.to/lastmile_qr_scan"}, "fusion_lon": 0.0, "name": "c921eb73234e03d3934586289f5ab909", "lon": -77.0333245, "is_disabled": 0, "type": "electric_scooter"}, {"bike_id": "3c9bb925aa11cbbe4b8d7ebf6c0e4b2e", "lat": 38.909880333333334, "is_reserved": 0, "fusion_lat": 0.0, "rental_uris": {"android": "https://dc.lft.to/lastmile_qr_scan", "ios": "https://dc.lft.to/lastmile_qr_scan"}, "fusion_lon": 0.0, "name": "3c9bb925aa11cbbe4b8d7ebf6c0e4b2e", "lon": -77.02191133333334, "is_disabled": 0, "type": "electric_scooter"},