{"data": {"bikes": [{"name": "911b3bab20db9673c0dff77fe2ff3c27", "fusion_lat": 0.0, "type": "electric_scooter", "lat": 38.899488833333336, "is_reserved": 0, "is_disabled": 0, "fusion_lon": 0.0, "bike_id": "911b3bab20db9673c0dff77fe2ff3c27", "lon": -77.02689383333333, "rental_uris": {"ios": "https://dc.lft.to/lastmile_qr_scan", "android": "https://dc.lft.to/lastmile_qr_scan"}}, {"name": "3b90a7c36a525c5f89abde3b1fb6223c", "fusion_lat": 0.0, "type": "electric_scooter", "lat": 38.90752583333333, "is_reserved": 0, "is_disabled": 0, "fusion_lon": 0.0, "bike_id": "3b90a7c36a525c5f89abde3b1fb6223c", "lon": -77.04490783333334, "rental_uris": {"ios": "https://dc.lft.to/lastmile_qr_scan", "android": "https://dc.lft.to/lastmile_qr_scan"}}, {"name": "e1e83031f3cfc687f6865cd7885490c8", "fusion_lat": 0.0, "type": "electric_bike", "lat": 39.088972, "is_reserved": 0, "is_disabled": 0, "fusion_lon": 0.0, "bike_id": "e1e83031f3cfc687f6865cd7885490c8", "lon": -77.17845166666666, "rental_uris": {"ios": "https://dc.lft.to/lastmile_qr_scan", "android": "https://dc.lft.to/lastmile_qr_scan"}}, {"name": "6e5754ff04185dcc63aad6543d91b257", "fusion_lat": 0.0, "type": "electric_scooter", "lat": 38.905733166666664, "is_reserved": 0, "is_disabled": 0, "fusion_lon": 0.0, "bike_id": "6e5754ff04185dcc63aad6543d91b257", "lon": -77.005201, "rental_uris": {"ios": "https://dc.lft.to/lastmile_qr_scan", "android": "https://dc.lft.to/lastmile_qr_scan"}}, {"name": "47cac4a77ca825b7e9bca2d12ab3daad", "fusion_lat": 0.0, "type": "electric_scooter", "lat": 38.90144516666667, "is_reserved": 0, "is_disabled": 0, "fusion_lon": 0.0, "bike_id": "47cac4a77ca825b7e9bca2d12ab3daad", "lon": -77.04388183333333, "rental_uris": {"ios": "https://dc.lft.to/lastmile_qr_scan", "android": "https://dc.lft.to/lastmile_qr_scan"}}, {"name": "2d9bf3778b9414a0a3002aa7207d027b", "fusion_lat": 0.0, "type": "electric_bike", "lat": 38.846082, "is_reserved": 0, "is_disabled": 0, "fusion_lon": 0.0, "bike_id": "2d9bf3778b9414a0a3002aa7207d027b", "lon": -76.97825666666667, "rental_uris": {"ios": "https://dc.lft.to/lastmile_qr_scan", "android": "https://dc.lft.to/lastmile_qr_scan"}}, {"name": "ef5f96283034c02abfc4c3d97408484d", "fusion_lat": 0.0, "type": "electric_bike", "lat": 39.058112333333334, "is_reserved": 0, "is_disabled": 0, "fusion_lon": 0.0, "bike_id": "ef5f96283034c02abfc4c3d97408484d", "lon": -77.1262445, "rental_uris": {"ios": "https://dc.lft.to/lastmile_qr_scan", "android": "https://dc.lft.to/lastmile_qr_scan"}}, {"name": "fc65e66488e2bb2d7f5285eea3f1370f", "fusion_lat": 0.0, "type": "electric_scooter", "lat": 38.88489333333333, "is_reserved": 0, "is_disabled": 0, "fusion_lon": 0.0, "bike_id": "fc65e66488e2bb2d7f5285eea3f1370f", "lon": -77.00712716666666, "rental_uris": {"ios": "https://dc.lft.to/lastmile_qr_scan", "android": "https://dc.lft.to/lastmile_qr_scan"}}, {"name": "368449434de4b6ae0f51327629dd2590", "fusion_lat": 0.0, "type": "electric_scooter", "lat": 38.911065666666666, "is_reserved": 0, "is_disabled": 0, "fusion_lon": 0.0, "bike_id": "368449434de4b6ae0f51327629dd2590", "lon": -77.04287016666666, "rental_uris": {"ios": "https://dc.lft.to/lastmile_qr_scan", "android": "https://dc.lft.to/lastmile_qr_scan"}}, {"name": "d635887d9e0487aeb122ff67f7db25e5", "fusion_lat": 0.0, "type": "electric_scooter", "lat": 38.89609733333333, "is_reserved": 0, "is_disabled": 0, "fusion_lon": 0.0, "bike_id": "d635887d9e0487aeb122ff67f7db25e5", "lon": -77.022442, "rental_uris": {"ios": "https://dc.lft.to/lastmile_qr_scan", "android": "https://dc.lft.to/lastmile_qr_scan"}}, {"name": "5654fb2be1d3e5fe03bf6b73fc6960f9", "fusion_lat": 0.0, "type": "electric_scooter", "lat": 38.89637233333333, "is_reserved": 0, "is_disabled": 0, "fusion_lon": 0.0, "bike_id": "5654fb2be1d3e5fe03bf6b73fc6960f9", "lon": -77.032174, "rental_uris": {"ios": "https://dc.lft.to/lastmile_qr_scan", "android": "https://dc.lft.to/lastmile_qr_scan"}}, {"name": "1394d240b8a35ff1535fb4e8b34d1b8a", "fusion_lat": 0.0, "type": "electric_scooter", "lat": 38.92813266666667, "is_reserved": 0, "is_disabled": 0, "fusion_lon": 0.0, "bike_id": "1394d240b8a35ff1535fb4e8b34d1b8a", "lon": -77.01404966666666, "rental_uris": {"ios": "https://dc.lft.to/lastmile_qr_scan", "android": "https://dc.lft.to/lastmile_qr_scan"}}, {"name": "bb484447409418636f06eb52117b1789", "fusion_lat": 0.0, "type": "electric_scooter", "lat": 38.90277966666667, "is_reserved": 0, "is_disabled": 0, "fusion_lon": 0.0, "bike_id": "bb484447409418636f06eb52117b1789", "lon": -77.03477016666666, "rental_uris": {"ios": "https://dc.lft.to/lastmile_qr_scan", "android": "https://dc.lft.to/lastmile_qr_scan"}}, {"name": "e532798bd0156a0b650e9c6da0118aa9", "fusion_lat": 0.0, "type": "electric_scooter", "lat": 38.8919215, "is_reserved": 0, "is_disabled": 0, "fusion_lon": 0.0, "bike_id": "e532798bd0156a0b650e9c6da0118aa9", "lon": -77.01580516666667, "rental_uris": {"ios": "https://dc.lft.to/lastmile_qr_scan", "android": "https://dc.lft.to/lastmile_qr_scan"}}, {"name": "f18452f9fb4640062377edfabe94c72e", "fusion_lat": 0.0, "type": "electric_scooter", "lat": 38.885325333333334, "is_reserved": 0, "is_disabled": 0, "fusion_lon": 0.0, "bike_id": "f18452f9fb4640062377edfabe94c72e", "lon": -76.998254, "rental_uris": {"ios": "https://dc.lft.to/lastmile_qr_scan", "android": "https://dc.lft.to/lastmile_qr_scan"}}, {"name": "b524523b031ff5fbcc59a24294c20af3", "fusion_lat": 0.0, "type": "electric_scooter", "lat": 38.859169666666666, "is_reserved": 0, "is_disabled": 0, "fusion_lon": 0.0, "bike_id": "b524523b031ff5fbcc59a24294c20af3", "lon": -76.98981116666667, "rental_uris": {"ios": "https://dc.lft.to/lastmile_qr_scan", "android": "https://dc.lft.to/lastmile_qr_scan"}}, {"name": "f74b50d287a9102d90f2dcb45297b5d4", "fusion_lat": 0.0, "type": "electric_scooter", "lat": 38.9106815, "is_reserved": 0, "is_disabled": 0, "fusion_lon": 0.0, "bike_id": "f74b50d287a9102d90f2dcb45297b5d4", "lon": -77.06708983333333, "rental_uris": {"ios": "https://dc.lft.to/lastmile_qr_scan", "android": "https://dc.lft.to/lastmile_qr_scan"}}, {"name": "03c17ebacc340df2ebfdfa6b1fc3fda3", "fusion_lat": 0.0, "type": "electric_scooter", "lat": 38.90107966666667, "is_reserved": 0, "is_disabled": 0, "fusion_lon": 0.0, "bike_id": "03c17ebacc340df2ebfdfa6b1fc3fda3", "lon": -77.03221866666667, "rental_uris": {"ios": "https://dc.lft.to/lastmile_qr_scan", "android": "https://dc.lft.to/lastmile_qr_scan"}}, {"name": "ad33c69a107070824087a11a5cb56cc8", "fusion_lat": 0.0, "type": "electric_scooter", "lat": 38.9218705, "is_reserved": 0, "is_disabled": 0, "fusion_lon": 0.0, "bike_id": "ad33c69a107070824087a11a5cb56cc8", "lon": -77.04009783333333, "rental_uris": {"ios": "https://dc.lft.to/lastmile_qr_scan", "android": "https://dc.lft.to/lastmile_qr_scan"}}, {"name": "7d10e1b583aef294fd51d52151d215ea", "fusion_lat": 0.0, "type": "electric_scooter", "lat": 38.91551233333333, "is_reserved": 0, "is_disabled": 0, "fusion_lon": 0.0, "bike_id": "7d10e1b583aef294fd51d52151d215ea", "lon": -77.04724216666666, "rental_uris": {"ios": "https://dc.lft.to/lastmile_qr_scan", "android": "https://dc.lft.to/lastmile_qr_scan"}}, {"name": "6ec0a18a2742860eab9645c06be56299", "fusion_lat": 0.0, "type": "electric_scooter", "lat": 38.904995166666666, "is_reserved": 0, "is_disabled": 0, "fusion_lon": 0.0, "bike_id": "6ec0a18a2742860eab9645c06be56299", "lon": -77.02704283333334, "rental_uris": {"ios": "https://dc.lft.to/lastmile_qr_scan", "android": "https://dc.lft.to/lastmile_qr_scan"}}, {"name": "e25e765d1b4a7a031ebd4366496af472", "fusion_lat": 0.0, "type": "electric_scooter", "lat": 38.957334833333334, "is_reserved": 0, "is_disabled": 0, "fusion_lon": 0.0, "bike_id": "e25e765d1b4a7a031ebd4366496af472", "lon": -77.02405416666667, "rental_uris": {"ios": "https://dc.lft.to/lastmile_qr_scan", "android": "https://dc.lft.to/lastmile_qr_scan"}}, {"name": "b4ed18416d6de3156f2ca0453b3fb09d", "fusion_lat": 0.0, "type": "electric_bike", "lat": 38.89219466666667, "is_reserved": 0, "is_disabled": 0, "fusion_lon": 0.0, "bike_id": "b4ed18416d6de3156f2ca0453b3fb09d", "lon": -77.10773716666667, "rental_uris": {"ios": "https://dc.lft.to/lastmile_qr_scan", "android": "https://dc.lft.to/lastmile_qr_scan"}}, {"name": "9a05241bf39816ad85d201222b5d768b", "fusion_lat": 0.0, "type": "electric_scooter", "lat": 38.94291283333333, "is_reserved": 0, "is_disabled": 0, "fusion_lon": 0.0, "bike_id": "9a05241bf39816ad85d201222b5d768b", "lon": -77.02169133333334, "rental_uris": {"ios": "https://dc.lft.to/lastmile_qr_scan", "android": "https://dc.lft.to/lastmile_qr_scan"}}, {"name": "7655b39149155a7be2ef15262ef126d8", "fusion_lat": 0.0, "type": "electric_scooter", "lat": 38.90969366666667, "is_reserved": 0, "is_disabled": 0, "fusion_lon": 0.0, "bike_id": "7655b39149155a7be2ef15262ef126d8", "lon": -77.03879466666666, "rental_uris": {"ios": "https://dc.lft.to/lastmile_qr_scan", "android": "https://dc.lft.to/lastmile_qr_scan"}}, {"name": "1c21b5d0600c95ebd913e4136ebdfa98", "fusion_lat": 0.0, "type": "electric_scooter", "lat": 38.8728645, "is_reserved": 0, "is_disabled": 0, "fusion_lon": 0.0, "bike_id": "1c21b5d0600c95ebd913e4136ebdfa98", "lon": -77.00989516666667, "rental_uris": {"ios": "https://dc.lft.to/lastmile_qr_scan", "android": "https://dc.lft.to/lastmile_qr_scan"}}, {"name": "e736b5b29b1f7a13ab76323f1fa83980", "fusion_lat": 0.0, "type": "electric_scooter", "lat": 38.8837415, "is_reserved": 0, "is_disabled": 0, "fusion_lon": 0.0, "bike_id": "e736b5b29b1f7a13ab76323f1fa83980", "lon": -77.02628433333334, "rental_uris": {"ios": "https://dc.lft.to/lastmile_qr_scan", "android": "https://dc.lft.to/lastmile_qr_scan"}}, {"name": "d04b1a59eb0d09fa3acbc466e7510385", "fusion_lat": 0.0, "type": "electric_scooter", "lat": 38.911431, "is_reserved": 0, "is_disabled": 0, "fusion_lon": 0.0, "bike_id": "d04b1a59eb0d09fa3acbc466e7510385", "lon": -77.04192716666667, "rental_uris": {"ios": "https://dc.lft.to/lastmile_qr_scan", "android": "https://dc.lft.to/lastmile_qr_scan"}}, {"name": "87c6b99551095bcd4d8ef3309e25ef13", "fusion_lat": 0.0, "type": "electric_scooter", "lat": 38.90020083333334, "is_reserved": 0, "is_disabled": 0, "fusion_lon": 0.0, "bike_id": "87c6b99551095bcd4d8ef3309e25ef13", "lon": -77.04701583333333, "rental_uris": {"ios": "https://dc.lft.to/lastmile_qr_scan", "android": "https://dc.lft.to/lastmile_qr_scan"}}, {"name": "ac07cc7f8a02cc6eca44da9747234f60", "fusion_lat": 0.0, "type": "electric_bike", "lat": 38.99999, "is_reserved": 0, "is_disabled": 0, "fusion_lon": 0.0, "bike_id": "ac07cc7f8a02cc6eca44da9747234f60", "lon": -76.99495483333334, "rental_uris": {"ios": "https://dc.lft.to/lastmile_qr_scan", "android": "https://dc.lft.to/lastmile_qr_scan"}}, {"name": "7e1204d2d29cd9a56b1b6a85d22f518b", "fusion_lat": 0.0, "type": "electric_scooter", "lat": 38.922583833333334, "is_reserved": 0, "is_disabled": 0, "fusion_lon": 0.0, "bike_id": "7e1204d2d29cd9a56b1b6a85d22f518b", "lon": -77.04139916666666, "rental_uris": {"ios": "https://dc.lft.to/lastmile_qr_scan", "android": "https://dc.lft.to/lastmile_qr_scan"}}, {"name": "6440b37b9d0a219916652ac14da45534", "fusion_lat": 0.0, "type": "electric_scooter", "lat": 38.90014866666667, "is_reserved": 0, "is_disabled": 0, "fusion_lon": 0.0, "bike_id": "6440b37b9d0a219916652ac14da45534", "lon": -76.9964495, "rental_uris": {"ios": "https://dc.lft.to/lastmile_qr_scan", "android": "https://dc.lft.to/lastmile_qr_scan"}}, {"name": "0460ca7a204b7217c65441dbb2f88a0c", "fusion_lat": 0.0, "type": "electric_scooter", "lat": 38.89799566666667, "is_reserved": 0, "is_disabled": 0, "fusion_lon": 0.0, "bike_id": "0460ca7a204b7217c65441dbb2f88a0c", "lon": -76.99161266666667, "rental_uris": {"ios": "https://dc.lft.to/lastmile_qr_scan", "android": "https://dc.lft.to/lastmile_qr_scan"}}, {"name": "d59ce9177e5c5be8aa846cc981ab21d7", "fusion_lat": 0.0, "type": "electric_scooter", "lat": 38.91123433333333, "is_reserved": 0, "is_disabled": 0, "fusion_lon": 0.0, "bike_id": "d59ce9177e5c5be8aa846cc981ab21d7", "lon": -77.021954, "rental_uris": {"ios": "https://dc.lft.to/lastmile_qr_scan", "android": "https://dc.lft.to/lastmile_qr_scan"}}, {"name": "b6bc1dd56ca4a964b75d88460c9f8208", "fusion_lat": 0.0, "type": "electric_scooter", "lat": 38.878612, "is_reserved": 0, "is_disabled": 0, "fusion_lon": 0.0, "bike_id": "b6bc1dd56ca4a964b75d88460c9f8208", "lon": -76.96530633333333, "rental_uris": {"ios": "https://dc.lft.to/lastmile_qr_scan", "android": "https://dc.lft.to/lastmile_qr_scan"}}, {"name": "ad088e0bb91952afebb31493e0960888", "fusion_lat": 0.0, "type": "electric_scooter", "lat": 38.91188616666667, "is_reserved": 0, "is_disabled": 0, "fusion_lon": 0.0, "bike_id": "ad088e0bb91952afebb31493e0960888", "lon": -77.03855483333334, "rental_uris": {"ios": "https://dc.lft.to/lastmile_qr_scan", "android": "https://dc.lft.to/lastmile_qr_scan"}}, {"name": "4d744ca136cfd913dd088fbfdf9e6304", "fusion_lat": 0.0, "type": "electric_scooter", "lat": 38.918048666666664, "is_reserved": 0, "is_disabled": 0, "fusion_lon": 0.0, "bike_id": "4d744ca136cfd913dd088fbfdf9e6304", "lon": -77.02491616666667, "rental_uris": {"ios": "https://dc.lft.to/lastmile_qr_scan", "android": "https://dc.lft.to/lastmile_qr_scan"}}, {"name": "3178f60ff708c66f6fc5502dcc393eb5", "fusion_lat": 0.0, "type": "electric_scooter", "lat": 38.90877366666667, "is_reserved": 0, "is_disabled": 0, "fusion_lon": 0.0, "bike_id": "3178f60ff708c66f6fc5502dcc393eb5", "lon": -77.07604833333333, "rental_uris": {"ios": "https://dc.lft.to/lastmile_qr_scan", "android": "https://dc.lft.to/lastmile_qr_scan"}}, {"name": "98de5c6a8bb7f209cee6bfe1b61b2c9b", "fusion_lat": 0.0, "type": "electric_scooter", "lat": 38.90196616666667, "is_reserved": 0, "is_disabled": 0, "fusion_lon": 0.0, "bike_id": "98de5c6a8bb7f209cee6bfe1b61b2c9b", "lon": -77.02221333333334, "rental_uris": {"ios": "https://dc.lft.to/lastmile_qr_scan", "android": "https://dc.lft.to/lastmile_qr_scan"}}, {"name": "3f1ececb64b2999b51f6fc2016c1a7d6", "fusion_lat": 0.0, "type": "electric_scooter", "lat": 38.90336966666667, "is_reserved": 0, "is_disabled": 0, "fusion_lon": 0.0, "bike_id": "3f1ececb64b2999b51f6fc2016c1a7d6", "lon": -77.054432, "rental_uris": {"ios": "https://dc.lft.to/lastmile_qr_scan", "android": "https://dc.lft.to/lastmile_qr_scan"}}, {"name": "9ef5b7498b7d2bc81d5ab21e920a0695", "fusion_lat": 0.0, "type": "electric_scooter", "lat": 38.895227, "is_reserved": 0, "is_disabled": 0, "fusion_lon": 0.0, "bike_id": "9ef5b7498b7d2bc81d5ab21e920a0695", "lon": -76.9920255, "rental_uris": {"ios": "https://dc.lft.to/lastmile_qr_scan", "android": "https://dc.lft.to/lastmile_qr_scan"}}, {"name": "dd6b78304308fba56df0fdff51dae449", "fusion_lat": 0.0, "type": "electric_scooter", "lat": 38.954845666666664, "is_reserved": 0, "is_disabled": 0, "fusion_lon": 0.0, "bike_id": "dd6b78304308fba56df0fdff51dae449", "lon": -77.0698355, "rental_uris": {"ios": "https://dc.lft.to/lastmile_qr_scan", "android": "https://dc.lft.to/lastmile_qr_scan"}}, {"name": "183589bfbe9bef3047e04a18d4be0409", "fusion_lat": 0.0, "type": "electric_scooter", "lat": 38.898894166666665, "is_reserved": 0, "is_disabled": 0, "fusion_lon": 0.0, "bike_id": "183589bfbe9bef3047e04a18d4be0409", "lon": -77.03285883333334, "rental_uris": {"ios": "https://dc.lft.to/lastmile_qr_scan", "android": "https://dc.lft.to/lastmile_qr_scan"}}, {"name": "d946502cf023228677904302959309a0", "fusion_lat": 0.0, "type": "electric_scooter", "lat": 38.93082833333333, "is_reserved": 0, "is_disabled": 0, "fusion_lon": 0.0, "bike_id": "d946502cf023228677904302959309a0", "lon": -77.0240295, "rental_uris": {"ios": "https://dc.lft.to/lastmile_qr_scan", "android": "https://dc.lft.to/lastmile_qr_scan"}}, {"name": "09e855b1f1cd75555e82166d7f913162", "fusion_lat": 0.0, "type": "electric_scooter", "lat": 38.90140566666667, "is_reserved": 0, "is_disabled": 0, "fusion_lon": 0.0, "bike_id": "09e855b1f1cd75555e82166d7f913162", "lon": -76.99969633333333, "rental_uris": {"ios": "https://dc.lft.to/lastmile_qr_scan", "android": "https://dc.lft.to/lastmile_qr_scan"}}, {"name": "eae0ecc43fe266423723fa328d7d5636", "fusion_lat": 0.0, "type": "electric_scooter", "lat": 38.9182195, "is_reserved": 0, "is_disabled": 0, "fusion_lon": 0.0, "bike_id": "eae0ecc43fe266423723fa328d7d5636", "lon": -77.04013666666667, "rental_uris": {"ios": "https://dc.lft.to/lastmile_qr_scan", "android": "https://dc.lft.to/lastmile_qr_scan"}}, {"name": "6c4bb815ea49774dabe8c5e04d0e68cd", "fusion_lat": 0.0, "type": "electric_bike", "lat": 38.838604833333335, "is_reserved": 0, "is_disabled": 0, "fusion_lon": 0.0, "bike_id": "6c4bb815ea49774dabe8c5e04d0e68cd", "lon": -77.088642, "rental_uris": {"ios": "https://dc.lft.to/lastmile_qr_scan", "android": "https://dc.lft.to/lastmile_qr_scan"}}, {"name": "9254e0ae71f0a994308d25ec41d31f1c", "fusion_lat": 0.0, "type": "electric_scooter", "lat": 38.934271, "is_reserved": 0, "is_disabled": 0, "fusion_lon": 0.0, "bike_id": "9254e0ae71f0a994308d25ec41d31f1c", "lon": -77.04001516666666, "rental_uris": {"ios": "https://dc.lft.to/lastmile_qr_scan", "android": "https://dc.lft.to/lastmile_qr_scan"}}, {"name": "0ae6ac155e1493e2240e99861f788c9a", "fusion_lat": 0.0, "type": "electric_scooter", "lat": 38.91801483333333, "is_reserved": 0, "is_disabled": 0, "fusion_lon": 0.0, "bike_id": "0ae6ac155e1493e2240e99861f788c9a", "lon": -77.0281455, "rental_uris": {"ios": "https://dc.lft.to/lastmile_qr_scan", "android": "https://dc.lft.to/lastmile_qr_scan"}}, {"name": "b968c1678a95a6d6daf79c36884e59be", "fusion_lat": 0.0, "type": "electric_scooter", "lat": 38.89917366666667, "is_reserved": 0, "is_disabled": 0, "fusion_lon": 0.0, "bike_id": "b968c1678a95a6d6daf79c36884e59be", "lon": -76.93382016666666, "rental_uris": {"ios": "https://dc.lft.to/lastmile_qr_scan", "android": "https://dc.lft.to/lastmile_qr_scan"}}, {"name": "705ddc9441822126f6ca1bfb74d4e6e4", "fusion_lat": 0.0, "type": "electric_scooter", "lat": 38.90323566666667, "is_reserved": 0, "is_disabled": 0, "fusion_lon": 0.0, "bike_id": "705ddc9441822126f6ca1bfb74d4e6e4", "lon": -77.0382295, "rental_uris": {"ios": "https://dc.lft.to/lastmile_qr_scan", "android": "https://dc.lft.to/lastmile_qr_scan"}}, {"name": "87ab37c272e56728d3348f7af87db7ba", "fusion_lat": 0.0, "type": "electric_bike", "lat": 38.97325583333333, "is_reserved": 0, "is_disabled": 0, "fusion_lon": 0.0, "bike_id": "87ab37c272e56728d3348f7af87db7ba", "lon": -77.0214705, "rental_uris": {"ios": "https://dc.lft.to/lastmile_qr_scan", "android": "https://dc.lft.to/lastmile_qr_scan"}}, {"name": "d62f875f680f2a622be6417152f3ab27", "fusion_lat": 0.0, "type": "electric_bike", "lat": 38.90286433333333, "is_reserved": 0, "is_disabled": 0, "fusion_lon": 0.0, "bike_id": "d62f875f680f2a622be6417152f3ab27", "lon": -76.98089983333334, "rental_uris": {"ios": "https://dc.lft.to/lastmile_qr_scan", "android": "https://dc.lft.to/lastmile_qr_scan"}}, {"name": "09de878e4c2ff4bc15b4e81ad6e6f70f", "fusion_lat": 0.0, "type": "electric_scooter", "lat": 38.8775145, "is_reserved": 0, "is_disabled": 0, "fusion_lon": 0.0, "bike_id": "09de878e4c2ff4bc15b4e81ad6e6f70f", "lon": -76.97238383333334, "rental_uris": {"ios": "https://dc.lft.to/lastmile_qr_scan", "android": "https://dc.lft.to/lastmile_qr_scan"}}, {"name": "37188131c3ae32ef580d0d14799ad62b", "fusion_lat": 0.0, "type": "electric_scooter", "lat": 38.9156065, "is_reserved": 0, "is_disabled": 0, "fusion_lon": 0.0, "bike_id": "37188131c3ae32ef580d0d14799ad62b", "lon": -77.0323245, "rental_uris": {"ios": "https://dc.lft.to/lastmile_qr_scan", "android": "https://dc.lft.to/lastmile_qr_scan"}}, {"name": "1327cbb9521ec50a9e7a68140b3e1743", "fusion_lat": 0.0, "type": "electric_scooter", "lat": 38.876973166666666, "is_reserved": 0, "is_disabled": 0, "fusion_lon": 0.0, "bike_id": "1327cbb9521ec50a9e7a68140b3e1743", "lon": -77.01762216666667, "rental_uris": {"ios": "https://dc.lft.to/lastmile_qr_scan", "android": "https://dc.lft.to/lastmile_qr_scan"}}, {"name": "a50fbcd5e684da502225cf1fd9deaf6e", "fusion_lat": 0.0, "type": "electric_bike", "lat": 38.87848966666667, "is_reserved": 0, "is_disabled": 0, "fusion_lon": 0.0, "bike_id": "a50fbcd5e684da502225cf1fd9deaf6e", "lon": -77.00781516666666, "rental_uris": {"ios": "https://dc.lft.to/lastmile_qr_scan", "android": "https://dc.lft.to/lastmile_qr_scan"}}, {"name": "4536d955345880b1e02f83403e15450e", "fusion_lat": 0.0, "type": "electric_scooter", "lat": 38.91762683333333, "is_reserved": 0, "is_disabled": 0, "fusion_lon": 0.0, "bike_id": "4536d955345880b1e02f83403e15450e", "lon": -77.01757616666667, "rental_uris": {"ios": "https://dc.lft.to/lastmile_qr_scan", "android": "https://dc.lft.to/lastmile_qr_scan"}}, {"name": "d9e136b707b7ca5cde07913268fc4841", "fusion_lat": 0.0, "type": "electric_scooter", "lat": 38.889899, "is_reserved": 0, "is_disabled": 0, "fusion_lon": 0.0, "bike_id": "d9e136b707b7ca5cde07913268fc4841", "lon": -77.00120983333333, "rental_uris": {"ios": "https://dc.lft.to/lastmile_qr_scan", "android": "https://dc.lft.to/lastmile_qr_scan"}}, {"name": "b8d92e1e84da5c868b8a45be2102d6a1", "fusion_lat": 0.0, "type": "electric_bike", "lat": 38.870766333333336, "is_reserved": 0, "is_disabled": 0, "fusion_lon": 0.0, "bike_id": "b8d92e1e84da5c868b8a45be2102d6a1", "lon": -77.11049166666666, "rental_uris": {"ios": "https://dc.lft.to/lastmile_qr_scan", "android": "https://dc.lft.to/lastmile_qr_scan"}}, {"name": "7ccf59d1262d292cbd2407df77e4b3b3", "fusion_lat": 0.0, "type": "electric_scooter", "lat": 38.9483725, "is_reserved": 0, "is_disabled": 0, "fusion_lon": 0.0, "bike_id": "7ccf59d1262d292cbd2407df77e4b3b3", "lon": -77.02551466666667, "rental_uris": {"ios": "https://dc.lft.to/lastmile_qr_scan", "android": "https://dc.lft.to/lastmile_qr_scan"}}, {"name": "c9992b674059cdb6f640bcea437e3bb2", "fusion_lat": 0.0, "type": "electric_scooter", "lat": 38.902739333333336, "is_reserved": 0, "is_disabled": 0, "fusion_lon": 0.0, "bike_id": "c9992b674059cdb6f640bcea437e3bb2", "lon": -77.03857983333333, "rental_uris": {"ios": "https://dc.lft.to/lastmile_qr_scan", "android": "https://dc.lft.to/lastmile_qr_scan"}}, {"name": "cc1fb3f3c36b5ec6ab68963fcbed6ed7", "fusion_lat": 0.0, "type": "electric_scooter", "lat": 38.90037133333333, "is_reserved": 0, "is_disabled": 0, "fusion_lon": 0.0, "bike_id": "cc1fb3f3c36b5ec6ab68963fcbed6ed7", "lon": -77.01189733333334, "rental_uris": {"ios": "https://dc.lft.to/lastmile_qr_scan", "android": "https://dc.lft.to/lastmile_qr_scan"}}, {"name": "ff9093be5db7c581f0cdfa5459d03cb8", "fusion_lat": 0.0, "type": "electric_scooter", "lat": 38.930974, "is_reserved": 0, "is_disabled": 0, "fusion_lon": 0.0, "bike_id": "ff9093be5db7c581f0cdfa5459d03cb8", "lon": -77.02397566666667, "rental_uris": {"ios": "https://dc.lft.to/lastmile_qr_scan", "android": "https://dc.lft.to/lastmile_qr_scan"}}, {"name": "546ace6a78b1efca36fb5bac5eab876a", "fusion_lat": 0.0, "type": "electric_scooter", "lat": 38.91857483333333, "is_reserved": 0, "is_disabled": 0, "fusion_lon": 0.0, "bike_id": "546ace6a78b1efca36fb5bac5eab876a", "lon": -77.015071, "rental_uris": {"ios": "https://dc.lft.to/lastmile_qr_scan", "android": "https://dc.lft.to/lastmile_qr_scan"}}, {"name": "bfa5e0d602ab7ba62b754b9b65b5df80", "fusion_lat": 0.0, "type": "electric_scooter", "lat": 38.898371833333336, "is_reserved": 0, "is_disabled": 0, "fusion_lon": 0.0, "bike_id": "bfa5e0d602ab7ba62b754b9b65b5df80", "lon": -77.0074245, "rental_uris": {"ios": "https://dc.lft.to/lastmile_qr_scan", "android": "https://dc.lft.to/lastmile_qr_scan"}}, {"name": "e1cdf9ac1f2dede1ad49466994420300", "fusion_lat": 0.0, "type": "electric_scooter", "lat": 38.900853833333336, "is_reserved": 0, "is_disabled": 0, "fusion_lon": 0.0, "bike_id": "e1cdf9ac1f2dede1ad49466994420300", "lon": -77.0500175, "rental_uris": {"ios": "https://dc.lft.to/lastmile_qr_scan", "android": "https://dc.lft.to/lastmile_qr_scan"}}, {"name": "b1659c4dd261700f98e7d8f730da8f03", "fusion_lat": 0.0, "type": "electric_scooter", "lat": 38.907413166666664, "is_reserved": 0, "is_disabled": 0, "fusion_lon": 0.0, "bike_id": "b1659c4dd261700f98e7d8f730da8f03", "lon": -77.04316083333333, "rental_uris": {"ios": "https://dc.lft.to/lastmile_qr_scan", "android": "https://dc.lft.to/lastmile_qr_scan"}}, {"name": "1e5a30f532155f242e77342a986aa52c", "fusion_lat": 0.0, "type": "electric_scooter", "lat": 38.926781166666665, "is_reserved": 0, "is_disabled": 0, "fusion_lon": 0.0, "bike_id": "1e5a30f532155f242e77342a986aa52c", "lon": -77.01519316666666, "rental_uris": {"ios": "https://dc.lft.to/lastmile_qr_scan", "android": "https://dc.lft.to/lastmile_qr_scan"}}, {"name": "bec1196d553b259882fb636d7e2c7c77", "fusion_lat": 0.0, "type": "electric_scooter", "lat": 38.90565516666667, "is_reserved": 0, "is_disabled": 0, "fusion_lon": 0.0, "bike_id": "bec1196d553b259882fb636d7e2c7c77", "lon": -77.0060515, "rental_uris": {"ios": "https://dc.lft.to/lastmile_qr_scan", "android": "https://dc.lft.to/lastmile_qr_scan"}}, {"name": "ea34610026ba2364d661f76f7539b79b", "fusion_lat": 0.0, "type": "electric_scooter", "lat": 38.90766716666667, "is_reserved": 0, "is_disabled": 0, "fusion_lon": 0.0, "bike_id": "ea34610026ba2364d661f76f7539b79b", "lon": -77.038573, "rental_uris": {"ios": "https://dc.lft.to/lastmile_qr_scan", "android": "https://dc.lft.to/lastmile_qr_scan"}}, {"name": "34a39ffb3c8906a459397c54d98dd851", "fusion_lat": 0.0, "type": "electric_scooter", "lat": 38.935676, "is_reserved": 0, "is_disabled": 0, "fusion_lon": 0.0, "bike_id": "34a39ffb3c8906a459397c54d98dd851", "lon": -77.02121266666667, "rental_uris": {"ios": "https://dc.lft.to/lastmile_qr_scan", "android": "https://dc.lft.to/lastmile_qr_scan"}}, {"name": "6e4ec17a198eb30ab94143ad4edb2a02", "fusion_lat": 0.0, "type": "electric_scooter", "lat": 38.89745083333333, "is_reserved": 0, "is_disabled": 0, "fusion_lon": 0.0, "bike_id": "6e4ec17a198eb30ab94143ad4edb2a02", "lon": -76.99612983333333, "rental_uris": {"ios": "https://dc.lft.to/lastmile_qr_scan", "android": "https://dc.lft.to/lastmile_qr_scan"}}, {"name": "feefd173a2dff29ef5a5e6592c125839", "fusion_lat": 0.0, "type": "electric_bike", "lat": 38.897708333333334, "is_reserved": 0, "is_disabled": 0, "fusion_lon": 0.0, "bike_id": "feefd173a2dff29ef5a5e6592c125839", "lon": -76.904311, "rental_uris": {"ios": "https://dc.lft.to/lastmile_qr_scan", "android": "https://dc.lft.to/lastmile_qr_scan"}}, {"name": "302cfba38efe5d9965ef7fb1707400ce", "fusion_lat": 0.0, "type": "electric_scooter", "lat": 38.939002333333335, "is_reserved": 0, "is_disabled": 0, "fusion_lon": 0.0, "bike_id": "302cfba38efe5d9965ef7fb1707400ce", "lon": -77.03281016666666, "rental_uris": {"ios": "https://dc.lft.to/lastmile_qr_scan", "android": "https://dc.lft.to/lastmile_qr_scan"}}, {"name": "1a3f58113bcc9a23f6c4d49fd92fca79", "fusion_lat": 0.0, "type": "electric_scooter", "lat": 38.89511533333334, "is_reserved": 0, "is_disabled": 0, "fusion_lon": 0.0, "bike_id": "1a3f58113bcc9a23f6c4d49fd92fca79", "lon": -77.02430133333333, "rental_uris": {"ios": "https://dc.lft.to/lastmile_qr_scan", "android": "https://dc.lft.to/lastmile_qr_scan"}}, {"name": "5247fbd58a940ff818290b87fb7cef49", "fusion_lat": 0.0, "type": "electric_scooter", "lat": 38.90143316666666, "is_reserved": 0, "is_disabled": 0, "fusion_lon": 0.0, "bike_id": "5247fbd58a940ff818290b87fb7cef49", "lon": -77.02550266666667, "rental_uris": {"ios": "https://dc.lft.to/lastmile_qr_scan", "android": "https://dc.lft.to/lastmile_qr_scan"}}, {"name": "f9ecae679a27e70492081a5cb0ab6d84", "fusion_lat": 0.0, "type": "electric_bike", "lat": 38.93581066666667, "is_reserved": 0, "is_disabled": 0, "fusion_lon": 0.0, "bike_id": "f9ecae679a27e70492081a5cb0ab6d84", "lon": -77.10683516666667, "rental_uris": {"ios": "https://dc.lft.to/lastmile_qr_scan", "android": "https://dc.lft.to/lastmile_qr_scan"}}, {"name": "40eddba947534e33a6c8bd1292aa143c", "fusion_lat": 0.0, "type": "electric_scooter", "lat": 38.93058633333333, "is_reserved": 0, "is_disabled": 0, "fusion_lon": 0.0, "bike_id": "40eddba947534e33a6c8bd1292aa143c", "lon": -77.0232265, "rental_uris": {"ios": "https://dc.lft.to/lastmile_qr_scan", "android": "https://dc.lft.to/lastmile_qr_scan"}}, {"name": "613faa06c3ecdb02933122b45d0bbaf9", "fusion_lat": 0.0, "type": "electric_scooter", "lat": 38.8958895, "is_reserved": 0, "is_disabled": 0, "fusion_lon": 0.0, "bike_id": "613faa06c3ecdb02933122b45d0bbaf9", "lon": -77.043246, "rental_uris": {"ios": "https://dc.lft.to/lastmile_qr_scan", "android": "https://dc.lft.to/lastmile_qr_scan"}}, {"name": "db90ae3a171647848d6042940494e3ef", "fusion_lat": 0.0, "type": "electric_scooter", "lat": 38.927090666666665, "is_reserved": 0, "is_disabled": 0, "fusion_lon": 0.0, "bike_id": "db90ae3a171647848d6042940494e3ef", "lon": -77.03735183333333, "rental_uris": {"ios": "https://dc.lft.to/lastmile_qr_scan", "android": "https://dc.lft.to/lastmile_qr_scan"}}, {"name": "17059d23127f5aaa11c6f94b7560efa8", "fusion_lat": 0.0, "type": "electric_scooter", "lat": 38.8637125, "is_reserved": 0, "is_disabled": 0, "fusion_lon": 0.0, "bike_id": "17059d23127f5aaa11c6f94b7560efa8", "lon": -77.0136105, "rental_uris": {"ios": "https://dc.lft.to/lastmile_qr_scan", "android": "https://dc.lft.to/lastmile_qr_scan"}}, {"name": "d9b0fa500ebeaefa463129ace0e2c6d2", "fusion_lat": 0.0, "type": "electric_scooter", "lat": 38.91683283333333, "is_reserved": 0, "is_disabled": 0, "fusion_lon": 0.0, "bike_id": "d9b0fa500ebeaefa463129ace0e2c6d2", "lon": -77.01227033333333, "rental_uris": {"ios": "https://dc.lft.to/lastmile_qr_scan", "android": "https://dc.lft.to/lastmile_qr_scan"}}, {"name": "3ca7bd3248b9f1813ea8e4801e65a51c", "fusion_lat": 0.0, "type": "electric_scooter", "lat": 38.93266083333334, "is_reserved": 0, "is_disabled": 0, "fusion_lon": 0.0, "bike_id": "3ca7bd3248b9f1813ea8e4801e65a51c", "lon": -77.0326245, "rental_uris": {"ios": "https://dc.lft.to/lastmile_qr_scan", "android": "https://dc.lft.to/lastmile_qr_scan"}}, {"name": "b0cc7658ac55c69f2dd013baa4517284", "fusion_lat": 0.0, "type": "electric_scooter", "lat": 38.890152666666665, "is_reserved": 0, "is_disabled": 0, "fusion_lon": 0.0, "bike_id": "b0cc7658ac55c69f2dd013baa4517284", "lon": -76.937327, "rental_uris": {"ios": "https://dc.lft.to/lastmile_qr_scan", "android": "https://dc.lft.to/lastmile_qr_scan"}}, {"name": "2b121eb16e6611432d3eeaa6c548890c", "fusion_lat": 0.0, "type": "electric_scooter", "lat": 38.90271466666667, "is_reserved": 0, "is_disabled": 0, "fusion_lon": 0.0, "bike_id": "2b121eb16e6611432d3eeaa6c548890c", "lon": -77.04262183333333, "rental_uris": {"ios": "https://dc.lft.to/lastmile_qr_scan", "android": "https://dc.lft.to/lastmile_qr_scan"}}, {"name": "da78ebbac014b657d8bd00f5ea970ebf", "fusion_lat": 0.0, "type": "electric_scooter", "lat": 38.9125595, "is_reserved": 0, "is_disabled": 0, "fusion_lon": 0.0, "bike_id": "da78ebbac014b657d8bd00f5ea970ebf", "lon": -77.00758, "rental_uris": {"ios": "https://dc.lft.to/lastmile_qr_scan", "android": "https://dc.lft.to/lastmile_qr_scan"}}, {"name": "691fd778d4145900b134a7548e409745", "fusion_lat": 0.0, "type": "electric_scooter", "lat": 38.93230583333333, "is_reserved": 0, "is_disabled": 0, "fusion_lon": 0.0, "bike_id": "691fd778d4145900b134a7548e409745", "lon": -77.03588916666666, "rental_uris": {"ios": "https://dc.lft.to/lastmile_qr_scan", "android": "https://dc.lft.to/lastmile_qr_scan"}}, {"name": "6a4ab942a2246191839d6e6fbd6d6151", "fusion_lat": 0.0, "type": "electric_scooter", "lat": 38.94291316666666, "is_reserved": 0, "is_disabled": 0, "fusion_lon": 0.0, "bike_id": "6a4ab942a2246191839d6e6fbd6d6151", "lon": -77.02171033333333, "rental_uris": {"ios": "https://dc.lft.to/lastmile_qr_scan", "android": "https://dc.lft.to/lastmile_qr_scan"}}, {"name": "480e9dde8242b7bde161150aed813da9", "fusion_lat": 0.0, "type": "electric_scooter", "lat": 38.90795083333333, "is_reserved": 0, "is_disabled": 0, "fusion_lon": 0.0, "bike_id": "480e9dde8242b7bde161150aed813da9", "lon": -77.04814666666667, "rental_uris": {"ios": "https://dc.lft.to/lastmile_qr_scan", "android": "https://dc.lft.to/lastmile_qr_scan"}}, {"name": "993ddbee5c8dc5b593fb03fdb124d493", "fusion_lat": 0.0, "type": "electric_bike", "lat": 38.93424233333333, "is_reserved": 0, "is_disabled": 0, "fusion_lon": 0.0, "bike_id": "993ddbee5c8dc5b593fb03fdb124d493", "lon": -77.04195133333333, "rental_uris": {"ios": "https://dc.lft.to/lastmile_qr_scan", "android": "https://dc.lft.to/lastmile_qr_scan"}}, {"name": "f6cc4bf2b36d31a118115dc9f6550bfa", "fusion_lat": 0.0, "type": "electric_scooter", "lat": 38.897386, "is_reserved": 0, "is_disabled": 0, "fusion_lon": 0.0, "bike_id": "f6cc4bf2b36d31a118115dc9f6550bfa", "lon": -76.94250566666666, "rental_uris": {"ios": "https://dc.lft.to/lastmile_qr_scan", "android": "https://dc.lft.to/lastmile_qr_scan"}}, {"name": "db76f23600361130a876f0872ec14289", "fusion_lat": 0.0, "type": "electric_scooter", "lat": 38.9300335, "is_reserved": 0, "is_disabled": 0, "fusion_lon": 0.0, "bike_id": "db76f23600361130a876f0872ec14289", "lon": -77.0230285, "rental_uris": {"ios": "https://dc.lft.to/lastmile_qr_scan", "android": "https://dc.lft.to/lastmile_qr_scan"}}, {"name": "b118400e29e48684f24508416785ad5c", "fusion_lat": 0.0, "type": "electric_scooter", "lat": 38.91987066666667, "is_reserved": 0, "is_disabled": 0, "fusion_lon": 0.0, "bike_id": "b118400e29e48684f24508416785ad5c", "lon": -76.97301916666666, "rental_uris": {"ios": "https://dc.lft.to/lastmile_qr_scan", "android": "https://dc.lft.to/lastmile_qr_scan"}}, {"name": "fbacacb8b7b421de91dd2142c2b18d5b", "fusion_lat": 0.0, "type": "electric_scooter", "lat": 38.86369416666667, "is_reserved": 0, "is_disabled": 0, "fusion_lon": 0.0, "bike_id": "fbacacb8b7b421de91dd2142c2b18d5b", "lon": -77.01367033333334, "rental_uris": {"ios": "https://dc.lft.to/lastmile_qr_scan", "android": "https://dc.lft.to/lastmile_qr_scan"}}, {"name": "7cd4cee6e3b325634b22dffbd4424c36", "fusion_lat": 0.0, "type": "electric_bike", "lat": 38.9210835, "is_reserved": 0, "is_disabled": 0, "fusion_lon": 0.0, "bike_id": "7cd4cee6e3b325634b22dffbd4424c36", "lon": -77.06331033333333, "rental_uris": {"ios": "https://dc.lft.to/lastmile_qr_scan", "android": "https://dc.lft.to/lastmile_qr_scan"}}, {"name": "851458b9d7812a96b35c05aaefd30c4b", "fusion_lat": 0.0, "type": "electric_scooter", "lat": 38.91247766666667, "is_reserved": 0, "is_disabled": 0, "fusion_lon": 0.0, "bike_id": "851458b9d7812a96b35c05aaefd30c4b", "lon": -77.02224883333334, "rental_uris": {"ios": "https://dc.lft.to/lastmile_qr_scan", "android": "https://dc.lft.to/lastmile_qr_scan"}}, {"name": "29093f292769204f3eae5709d9aadcdb", "fusion_lat": 0.0, "type": "electric_scooter", "lat": 38.9057075, "is_reserved": 0, "is_disabled": 0, "fusion_lon": 0.0, "bike_id": "29093f292769204f3eae5709d9aadcdb", "lon": -77.05697933333333, "rental_uris": {"ios": "https://dc.lft.to/lastmile_qr_scan", "android": "https://dc.lft.to/lastmile_qr_scan"}}, {"name": "7a7c4138fab6dd2fac36202db081757f", "fusion_lat": 0.0, "type": "electric_scooter", "lat": 38.86917783333333, "is_reserved": 0, "is_disabled": 0, "fusion_lon": 0.0, "bike_id": "7a7c4138fab6dd2fac36202db081757f", "lon": -76.97499216666667, "rental_uris": {"ios": "https://dc.lft.to/lastmile_qr_scan", "android": "https://dc.lft.to/lastmile_qr_scan"}}, {"name": "33ddb71169ee6ab73e3d8fe2c78be962", "fusion_lat": 0.0, "type": "electric_scooter", "lat": 38.887814666666664, "is_reserved": 0, "is_disabled": 0, "fusion_lon": 0.0, "bike_id": "33ddb71169ee6ab73e3d8fe2c78be962", "lon": -76.95532133333333, "rental_uris": {"ios": "https://dc.lft.to/lastmile_qr_scan", "android": "https://dc.lft.to/lastmile_qr_scan"}}, {"name": "b3f7e3a63dee0a497ddf8ec1da83ca7f", "fusion_lat": 0.0, "type": "electric_scooter", "lat": 38.899611, "is_reserved": 0, "is_disabled": 0, "fusion_lon": 0.0, "bike_id": "b3f7e3a63dee0a497ddf8ec1da83ca7f", "lon": -76.99487633333334, "rental_uris": {"ios": "https://dc.lft.to/lastmile_qr_scan", "android": "https://dc.lft.to/lastmile_qr_scan"}}, {"name": "7b0611090f5e6073557e0436c47d7491", "fusion_lat": 0.0, "type": "electric_scooter", "lat": 38.93458916666667, "is_reserved": 0, "is_disabled": 0, "fusion_lon": 0.0, "bike_id": "7b0611090f5e6073557e0436c47d7491", "lon": -77.08636916666667, "rental_uris": {"ios": "https://dc.lft.to/lastmile_qr_scan", "android": "https://dc.lft.to/lastmile_qr_scan"}}, {"name": "25cac711cb130835cb025607d6624518", "fusion_lat": 0.0, "type": "electric_scooter", "lat": 38.89841633333333, "is_reserved": 0, "is_disabled": 0, "fusion_lon": 0.0, "bike_id": "25cac711cb130835cb025607d6624518", "lon": -77.04238133333334, "rental_uris": {"ios": "https://dc.lft.to/lastmile_qr_scan", "android": "https://dc.lft.to/lastmile_qr_scan"}}, {"name": "84b2145cb0135c4ae72b38d991f68344", "fusion_lat": 0.0, "type": "electric_scooter", "lat": 38.93419333333333, "is_reserved": 0, "is_disabled": 0, "fusion_lon": 0.0, "bike_id": "84b2145cb0135c4ae72b38d991f68344", "lon": -77.0575715, "rental_uris": {"ios": "https://dc.lft.to/lastmile_qr_scan", "android": "https://dc.lft.to/lastmile_qr_scan"}}, {"name": "4c4f765ac588b5754ffcfee6168f823f", "fusion_lat": 0.0, "type": "electric_scooter", "lat": 38.88505683333333, "is_reserved": 0, "is_disabled": 0, "fusion_lon": 0.0, "bike_id": "4c4f765ac588b5754ffcfee6168f823f", "lon": -77.02173466666666, "rental_uris": {"ios": "https://dc.lft.to/lastmile_qr_scan", "android": "https://dc.lft.to/lastmile_qr_scan"}}, {"name": "0e08d2a3a8bdd64c8f78592fede184bb", "fusion_lat": 0.0, "type": "electric_scooter", "lat": 38.88563883333333, "is_reserved": 0, "is_disabled": 0, "fusion_lon": 0.0, "bike_id": "0e08d2a3a8bdd64c8f78592fede184bb", "lon": -76.9980785, "rental_uris": {"ios": "https://dc.lft.to/lastmile_qr_scan", "android": "https://dc.lft.to/lastmile_qr_scan"}}, {"name": "c57a46262be66d58f3806d57b34152c7", "fusion_lat": 0.0, "type": "electric_scooter", "lat": 38.91058816666666, "is_reserved": 0, "is_disabled": 0, "fusion_lon": 0.0, "bike_id": "c57a46262be66d58f3806d57b34152c7", "lon": -77.021882, "rental_uris": {"ios": "https://dc.lft.to/lastmile_qr_scan", "android": "https://dc.lft.to/lastmile_qr_scan"}}, {"name": "a6a061bc1f357a132603321686bb49f3", "fusion_lat": 0.0, "type": "electric_scooter", "lat": 38.90505433333333, "is_reserved": 0, "is_disabled": 0, "fusion_lon": 0.0, "bike_id": "a6a061bc1f357a132603321686bb49f3", "lon": -76.99446433333334, "rental_uris": {"ios": "https://dc.lft.to/lastmile_qr_scan", "android": "https://dc.lft.to/lastmile_qr_scan"}}, {"name": "c80a1d8ac20d7dc28f5d4a7422f6beb2", "fusion_lat": 0.0, "type": "electric_scooter", "lat": 38.8665935, "is_reserved": 0, "is_disabled": 0, "fusion_lon": 0.0, "bike_id": "c80a1d8ac20d7dc28f5d4a7422f6beb2", "lon": -76.98886083333333, "rental_uris": {"ios": "https://dc.lft.to/lastmile_qr_scan", "android": "https://dc.lft.to/lastmile_qr_scan"}}, {"name": "3d95a9b8fff2e129850f85690ce637d2", "fusion_lat": 0.0, "type": "electric_scooter", "lat": 38.9126405, "is_reserved": 0, "is_disabled": 0, "fusion_lon": 0.0, "bike_id": "3d95a9b8fff2e129850f85690ce637d2", "lon": -77.0363385, "rental_uris": {"ios": "https://dc.lft.to/lastmile_qr_scan", "android": "https://dc.lft.to/lastmile_qr_scan"}}, {"name": "f56a0df1fedd1bd8ec18c216eaaa3a09", "fusion_lat": 0.0, "type": "electric_scooter", "lat": 38.906700666666666, "is_reserved": 0, "is_disabled": 0, "fusion_lon": 0.0, "bike_id": "f56a0df1fedd1bd8ec18c216eaaa3a09", "lon": -77.02710733333333, "rental_uris": {"ios": "https://dc.lft.to/lastmile_qr_scan", "android": "https://dc.lft.to/lastmile_qr_scan"}}, {"name": "81a63d3aa2d59027c2439091bb11acbc", "fusion_lat": 0.0, "type": "electric_bike", "lat": 38.928043833333334, "is_reserved": 0, "is_disabled": 0, "fusion_lon": 0.0, "bike_id": "81a63d3aa2d59027c2439091bb11acbc", "lon": -77.04365683333333, "rental_uris": {"ios": "https://dc.lft.to/lastmile_qr_scan", "android": "https://dc.lft.to/lastmile_qr_scan"}}, {"name": "78edec1641ef26339e48bcfa2ad023d1", "fusion_lat": 0.0, "type": "electric_scooter", "lat": 38.865080166666665, "is_reserved": 0, "is_disabled": 0, "fusion_lon": 0.0, "bike_id": "78edec1641ef26339e48bcfa2ad023d1", "lon": -76.97340233333334, "rental_uris": {"ios": "https://dc.lft.to/lastmile_qr_scan", "android": "https://dc.lft.to/lastmile_qr_scan"}}, {"name": "084f09579ab9ae35297b4772e0d3f2ef", "fusion_lat": 0.0, "type": "electric_scooter", "lat": 38.94313866666667, "is_reserved": 0, "is_disabled": 0, "fusion_lon": 0.0, "bike_id": "084f09579ab9ae35297b4772e0d3f2ef", "lon": -77.05919166666666, "rental_uris": {"ios": "https://dc.lft.to/lastmile_qr_scan", "android": "https://dc.lft.to/lastmile_qr_scan"}}, {"name": "17afdde929124f6b896d4a7729f2da84", "fusion_lat": 0.0, "type": "electric_scooter", "lat": 38.9396765, "is_reserved": 0, "is_disabled": 0, "fusion_lon": 0.0, "bike_id": "17afdde929124f6b896d4a7729f2da84", "lon": -77.03199783333334, "rental_uris": {"ios": "https://dc.lft.to/lastmile_qr_scan", "android": "https://dc.lft.to/lastmile_qr_scan"}}, {"name": "4de5c911cb936d445493dfff09f8e030", "fusion_lat": 0.0, "type": "electric_bike", "lat": 38.88133666666667, "is_reserved": 0, "is_disabled": 0, "fusion_lon": 0.0, "bike_id": "4de5c911cb936d445493dfff09f8e030", "lon": -76.9809275, "rental_uris": {"ios": "https://dc.lft.to/lastmile_qr_scan", "android": "https://dc.lft.to/lastmile_qr_scan"}}, {"name": "bea4f83eb38eb3d3838f6fe7960001c8", "fusion_lat": 0.0, "type": "electric_scooter", "lat": 38.876422833333336, "is_reserved": 0, "is_disabled": 0, "fusion_lon": 0.0, "bike_id": "bea4f83eb38eb3d3838f6fe7960001c8", "lon": -77.0060915, "rental_uris": {"ios": "https://dc.lft.to/lastmile_qr_scan", "android": "https://dc.lft.to/lastmile_qr_scan"}}, {"name": "53be69599774a8ff398503ceb0e7c205", "fusion_lat": 0.0, "type": "electric_bike", "lat": 38.93968433333333, "is_reserved": 0, "is_disabled": 0, "fusion_lon": 0.0, "bike_id": "53be69599774a8ff398503ceb0e7c205", "lon": -76.98655816666667, "rental_uris": {"ios": "https://dc.lft.to/lastmile_qr_scan", "android": "https://dc.lft.to/lastmile_qr_scan"}}, {"name": "efc513767627d555b52bc990fe2bcbb8", "fusion_lat": 0.0, "type": "electric_scooter", "lat": 38.8947275, "is_reserved": 0, "is_disabled": 0, "fusion_lon": 0.0, "bike_id": "efc513767627d555b52bc990fe2bcbb8", "lon": -76.98400066666666, "rental_uris": {"ios": "https://dc.lft.to/lastmile_qr_scan", "android": "https://dc.lft.to/lastmile_qr_scan"}}, {"name": "4f3c870e5ad2ba7b1b7bda913625a3e2", "fusion_lat": 0.0, "type": "electric_scooter", "lat": 38.89920166666667, "is_reserved": 0, "is_disabled": 0, "fusion_lon": 0.0, "bike_id": "4f3c870e5ad2ba7b1b7bda913625a3e2", "lon": -76.93385383333333, "rental_uris": {"ios": "https://dc.lft.to/lastmile_qr_scan", "android": "https://dc.lft.to/lastmile_qr_scan"}}, {"name": "fe7d1fd9399bfb37ac46b7b6af0b96b2", "fusion_lat": 0.0, "type": "electric_bike", "lat": 38.872285833333336, "is_reserved": 0, "is_disabled": 0, "fusion_lon": 0.0, "bike_id": "fe7d1fd9399bfb37ac46b7b6af0b96b2", "lon": -77.01179233333333, "rental_uris": {"ios": "https://dc.lft.to/lastmile_qr_scan", "android": "https://dc.lft.to/lastmile_qr_scan"}}, {"name": "6c2de3c70c2f978c39171b07f3aa29e8", "fusion_lat": 0.0, "type": "electric_scooter", "lat": 38.907317, "is_reserved": 0, "is_disabled": 0, "fusion_lon": 0.0, "bike_id": "6c2de3c70c2f978c39171b07f3aa29e8", "lon": -77.04152016666667, "rental_uris": {"ios": "https://dc.lft.to/lastmile_qr_scan", "android": "https://dc.lft.to/lastmile_qr_scan"}}, {"name": "bffb7d46b6af6fb1739a3617efb2a891", "fusion_lat": 0.0, "type": "electric_scooter", "lat": 38.89997783333333, "is_reserved": 0, "is_disabled": 0, "fusion_lon": 0.0, "bike_id": "bffb7d46b6af6fb1739a3617efb2a891", "lon": -76.99307466666667, "rental_uris": {"ios": "https://dc.lft.to/lastmile_qr_scan", "android": "https://dc.lft.to/lastmile_qr_scan"}}, {"name": "bb9613840e2e566f7e139fa7fd9245ec", "fusion_lat": 0.0, "type": "electric_scooter", "lat": 38.8833835, "is_reserved": 0, "is_disabled": 0, "fusion_lon": 0.0, "bike_id": "bb9613840e2e566f7e139fa7fd9245ec", "lon": -77.031653, "rental_uris": {"ios": "https://dc.lft.to/lastmile_qr_scan", "android": "https://dc.lft.to/lastmile_qr_scan"}}, {"name": "b3950d90e2416c2f3849c768c4ffd2d7", "fusion_lat": 0.0, "type": "electric_scooter", "lat": 38.88505033333333, "is_reserved": 0, "is_disabled": 0, "fusion_lon": 0.0, "bike_id": "b3950d90e2416c2f3849c768c4ffd2d7", "lon": -77.0056775, "rental_uris": {"ios": "https://dc.lft.to/lastmile_qr_scan", "android": "https://dc.lft.to/lastmile_qr_scan"}}, {"name": "d7f7050db806ad692ad81db47ccc78f4", "fusion_lat": 0.0, "type": "electric_scooter", "lat": 38.91395716666667, "is_reserved": 0, "is_disabled": 0, "fusion_lon": 0.0, "bike_id": "d7f7050db806ad692ad81db47ccc78f4", "lon": -77.040015, "rental_uris": {"ios": "https://dc.lft.to/lastmile_qr_scan", "android": "https://dc.lft.to/lastmile_qr_scan"}}, {"name": "ceae1da67601772a0f68584845121f60", "fusion_lat": 0.0, "type": "electric_scooter", "lat": 38.878105833333336, "is_reserved": 0, "is_disabled": 0, "fusion_lon": 0.0, "bike_id": "ceae1da67601772a0f68584845121f60", "lon": -77.00352916666667, "rental_uris": {"ios": "https://dc.lft.to/lastmile_qr_scan", "android": "https://dc.lft.to/lastmile_qr_scan"}}, {"name": "4d413ec706eee0cdfc5d9c258b71ff71", "fusion_lat": 0.0, "type": "electric_scooter", "lat": 38.90879566666667, "is_reserved": 0, "is_disabled": 0, "fusion_lon": 0.0, "bike_id": "4d413ec706eee0cdfc5d9c258b71ff71", "lon": -77.07587016666666, "rental_uris": {"ios": "https://dc.lft.to/lastmile_qr_scan", "android": "https://dc.lft.to/lastmile_qr_scan"}}, {"name": "163952a01e0047ee37af7c22434cd00f", "fusion_lat": 0.0, "type": "electric_scooter", "lat": 38.929109, "is_reserved": 0, "is_disabled": 0, "fusion_lon": 0.0, "bike_id": "163952a01e0047ee37af7c22434cd00f", "lon": -77.01953383333333, "rental_uris": {"ios": "https://dc.lft.to/lastmile_qr_scan", "android": "https://dc.lft.to/lastmile_qr_scan"}}, {"name": "ce2d8b332793a661ce875534324fd2ca", "fusion_lat": 0.0, "type": "electric_scooter", "lat": 38.892367166666666, "is_reserved": 0, "is_disabled": 0, "fusion_lon": 0.0, "bike_id": "ce2d8b332793a661ce875534324fd2ca", "lon": -77.01362116666667, "rental_uris": {"ios": "https://dc.lft.to/lastmile_qr_scan", "android": "https://dc.lft.to/lastmile_qr_scan"}}, {"name": "d9097540381b26ebeb82603c78f888a6", "fusion_lat": 0.0, "type": "electric_scooter", "lat": 38.90639133333333, "is_reserved": 0, "is_disabled": 0, "fusion_lon": 0.0, "bike_id": "d9097540381b26ebeb82603c78f888a6", "lon": -77.0060585, "rental_uris": {"ios": "https://dc.lft.to/lastmile_qr_scan", "android": "https://dc.lft.to/lastmile_qr_scan"}}, {"name": "3cc26778df753d0eda374cd9a4153771", "fusion_lat": 0.0, "type": "electric_scooter", "lat": 38.9118545, "is_reserved": 0, "is_disabled": 0, "fusion_lon": 0.0, "bike_id": "3cc26778df753d0eda374cd9a4153771", "lon": -77.03471783333333, "rental_uris": {"ios": "https://dc.lft.to/lastmile_qr_scan", "android": "https://dc.lft.to/lastmile_qr_scan"}}, {"name": "f8aeb9bc7f90bec44a747e6df76c3049", "fusion_lat": 0.0, "type": "electric_scooter", "lat": 38.9176855, "is_reserved": 0, "is_disabled": 0, "fusion_lon": 0.0, "bike_id": "f8aeb9bc7f90bec44a747e6df76c3049", "lon": -77.0474015, "rental_uris": {"ios": "https://dc.lft.to/lastmile_qr_scan", "android": "https://dc.lft.to/lastmile_qr_scan"}}, {"name": "19fd2c67b828b4a812fe9cba8f79fe90", "fusion_lat": 0.0, "type": "electric_scooter", "lat": 38.917095833333335, "is_reserved": 0, "is_disabled": 0, "fusion_lon": 0.0, "bike_id": "19fd2c67b828b4a812fe9cba8f79fe90", "lon": -77.02889616666667, "rental_uris": {"ios": "https://dc.lft.to/lastmile_qr_scan", "android": "https://dc.lft.to/lastmile_qr_scan"}}, {"name": "7c994824f6870f1c00a1593feccde0d2", "fusion_lat": 0.0, "type": "electric_scooter", "lat": 38.909749833333336, "is_reserved": 0, "is_disabled": 0, "fusion_lon": 0.0, "bike_id": "7c994824f6870f1c00a1593feccde0d2", "lon": -77.03873383333334, "rental_uris": {"ios": "https://dc.lft.to/lastmile_qr_scan", "android": "https://dc.lft.to/lastmile_qr_scan"}}, {"name": "cfba59f5358cde100efcaccfc08a8228", "fusion_lat": 0.0, "type": "electric_scooter", "lat": 38.91713716666667, "is_reserved": 0, "is_disabled": 0, "fusion_lon": 0.0, "bike_id": "cfba59f5358cde100efcaccfc08a8228", "lon": -77.03560516666667, "rental_uris": {"ios": "https://dc.lft.to/lastmile_qr_scan", "android": "https://dc.lft.to/lastmile_qr_scan"}}, {"name": "1170fbb38261e619f37c5fecce0c7c2f", "fusion_lat": 0.0, "type": "electric_bike", "lat": 38.886942, "is_reserved": 0, "is_disabled": 0, "fusion_lon": 0.0, "bike_id": "1170fbb38261e619f37c5fecce0c7c2f", "lon": -77.09706266666667, "rental_uris": {"ios": "https://dc.lft.to/lastmile_qr_scan", "android": "https://dc.lft.to/lastmile_qr_scan"}}, {"name": "5ef949acc164a5d36e319b58f27b0c55", "fusion_lat": 0.0, "type": "electric_scooter", "lat": 38.93669933333334, "is_reserved": 0, "is_disabled": 0, "fusion_lon": 0.0, "bike_id": "5ef949acc164a5d36e319b58f27b0c55", "lon": -77.0326165, "rental_uris": {"ios": "https://dc.lft.to/lastmile_qr_scan", "android": "https://dc.lft.to/lastmile_qr_scan"}}, {"name": "6f540fcbfd38fd84ae817a4442d5a5d3", "fusion_lat": 0.0, "type": "electric_scooter", "lat": 38.90277016666667, "is_reserved": 0, "is_disabled": 0, "fusion_lon": 0.0, "bike_id": "6f540fcbfd38fd84ae817a4442d5a5d3", "lon": -77.03660766666667, "rental_uris": {"ios": "https://dc.lft.to/lastmile_qr_scan", "android": "https://dc.lft.to/lastmile_qr_scan"}}, {"name": "b87f6939b154ed7e17dc7e42b2e162ec", "fusion_lat": 0.0, "type": "electric_scooter", "lat": 38.90577316666667, "is_reserved": 0, "is_disabled": 0, "fusion_lon": 0.0, "bike_id": "b87f6939b154ed7e17dc7e42b2e162ec", "lon": -77.02413783333333, "rental_uris": {"ios": "https://dc.lft.to/lastmile_qr_scan", "android": "https://dc.lft.to/lastmile_qr_scan"}}, {"name": "5a737a94e47e270e1c34f20f1e54b52c", "fusion_lat": 0.0, "type": "electric_scooter", "lat": 38.876641, "is_reserved": 0, "is_disabled": 0, "fusion_lon": 0.0, "bike_id": "5a737a94e47e270e1c34f20f1e54b52c", "lon": -77.00063766666666, "rental_uris": {"ios": "https://dc.lft.to/lastmile_qr_scan", "android": "https://dc.lft.to/lastmile_qr_scan"}}, {"name": "1a64d8867e8ca8183356bf4eeddfe392", "fusion_lat": 0.0, "type": "electric_bike", "lat": 38.928527333333335, "is_reserved": 0, "is_disabled": 0, "fusion_lon": 0.0, "bike_id": "1a64d8867e8ca8183356bf4eeddfe392", "lon": -77.22219666666666, "rental_uris": {"ios": "https://dc.lft.to/lastmile_qr_scan", "android": "https://dc.lft.to/lastmile_qr_scan"}}, {"name": "0266eddd83a1708bc74653c471005fe4", "fusion_lat": 0.0, "type": "electric_bike", "lat": 39.053131666666665, "is_reserved": 0, "is_disabled": 0, "fusion_lon": 0.0, "bike_id": "0266eddd83a1708bc74653c471005fe4", "lon": -77.04770366666666, "rental_uris": {"ios": "https://dc.lft.to/lastmile_qr_scan", "android": "https://dc.lft.to/lastmile_qr_scan"}}, {"name": "ff8d37a1e3f1a8c23128e7331fad14ed", "fusion_lat": 0.0, "type": "electric_scooter", "lat": 38.866934, "is_reserved": 0, "is_disabled": 0, "fusion_lon": 0.0, "bike_id": "ff8d37a1e3f1a8c23128e7331fad14ed", "lon": -76.9890425, "rental_uris": {"ios": "https://dc.lft.to/lastmile_qr_scan", "android": "https://dc.lft.to/lastmile_qr_scan"}}, {"name": "994c6e79522cf865d63414ea4505616b", "fusion_lat": 0.0, "type": "electric_scooter", "lat": 38.90512716666667, "is_reserved": 0, "is_disabled": 0, "fusion_lon": 0.0, "bike_id": "994c6e79522cf865d63414ea4505616b", "lon": -77.04365483333333, "rental_uris": {"ios": "https://dc.lft.to/lastmile_qr_scan", "android": "https://dc.lft.to/lastmile_qr_scan"}}, {"name": "d5cb12b26f789fab941cc154acbb497e", "fusion_lat": 0.0, "type": "electric_bike", "lat": 39.0885365, "is_reserved": 0, "is_disabled": 0, "fusion_lon": 0.0, "bike_id": "d5cb12b26f789fab941cc154acbb497e", "lon": -77.17835866666667, "rental_uris": {"ios": "https://dc.lft.to/lastmile_qr_scan", "android": "https://dc.lft.to/lastmile_qr_scan"}}, {"name": "971ce0740cedc884859d0a6a7bf94519", "fusion_lat": 0.0, "type": "electric_scooter", "lat": 38.86537883333333, "is_reserved": 0, "is_disabled": 0, "fusion_lon": 0.0, "bike_id": "971ce0740cedc884859d0a6a7bf94519", "lon": -76.98709116666667, "rental_uris": {"ios": "https://dc.lft.to/lastmile_qr_scan", "android": "https://dc.lft.to/lastmile_qr_scan"}}, {"name": "1aaea94d296ebe9c7acff93c98d7d41b", "fusion_lat": 0.0, "type": "electric_scooter", "lat": 38.9026805, "is_reserved": 0, "is_disabled": 0, "fusion_lon": 0.0, "bike_id": "1aaea94d296ebe9c7acff93c98d7d41b", "lon": -76.98711316666666, "rental_uris": {"ios": "https://dc.lft.to/lastmile_qr_scan", "android": "https://dc.lft.to/lastmile_qr_scan"}}, {"name": "576363eee30d83296ccd5a4820424238", "fusion_lat": 0.0, "type": "electric_scooter", "lat": 38.911007, "is_reserved": 0, "is_disabled": 0, "fusion_lon": 0.0, "bike_id": "576363eee30d83296ccd5a4820424238", "lon": -77.00347816666667, "rental_uris": {"ios": "https://dc.lft.to/lastmile_qr_scan", "android": "https://dc.lft.to/lastmile_qr_scan"}}, {"name": "d73de66d73d05b41e6e70027bd368c54", "fusion_lat": 0.0, "type": "electric_bike", "lat": 38.9352085, "is_reserved": 0, "is_disabled": 0, "fusion_lon": 0.0, "bike_id": "d73de66d73d05b41e6e70027bd368c54", "lon": -76.95063033333334, "rental_uris": {"ios": "https://dc.lft.to/lastmile_qr_scan", "android": "https://dc.lft.to/lastmile_qr_scan"}}, {"name": "8fb020ee54dfd6ba4ecc91ada3653e4d", "fusion_lat": 0.0, "type": "electric_scooter", "lat": 38.90904283333333, "is_reserved": 0, "is_disabled": 0, "fusion_lon": 0.0, "bike_id": "8fb020ee54dfd6ba4ecc91ada3653e4d", "lon": -77.04868583333334, "rental_uris": {"ios": "https://dc.lft.to/lastmile_qr_scan", "android": "https://dc.lft.to/lastmile_qr_scan"}}, {"name": "49aee04c4105a3aaf763adf51b438a86", "fusion_lat": 0.0, "type": "electric_scooter", "lat": 38.905470333333334, "is_reserved": 0, "is_disabled": 0, "fusion_lon": 0.0, "bike_id": "49aee04c4105a3aaf763adf51b438a86", "lon": -77.04748816666667, "rental_uris": {"ios": "https://dc.lft.to/lastmile_qr_scan", "android": "https://dc.lft.to/lastmile_qr_scan"}}, {"name": "9520bf57b6c005ea9c36359bb0d61e17", "fusion_lat": 0.0, "type": "electric_scooter", "lat": 38.928258666666665, "is_reserved": 0, "is_disabled": 0, "fusion_lon": 0.0, "bike_id": "9520bf57b6c005ea9c36359bb0d61e17", "lon": -77.02258233333333, "rental_uris": {"ios": "https://dc.lft.to/lastmile_qr_scan", "android": "https://dc.lft.to/lastmile_qr_scan"}}, {"name": "ba794c5fcb1b2792894752a4938f8921", "fusion_lat": 0.0, "type": "electric_scooter", "lat": 38.92578016666667, "is_reserved": 0, "is_disabled": 0, "fusion_lon": 0.0, "bike_id": "ba794c5fcb1b2792894752a4938f8921", "lon": -76.99488866666667, "rental_uris": {"ios": "https://dc.lft.to/lastmile_qr_scan", "android": "https://dc.lft.to/lastmile_qr_scan"}}, {"name": "45783e3e329a0aa7950914b9049bfdf0", "fusion_lat": 0.0, "type": "electric_scooter", "lat": 38.8615285, "is_reserved": 0, "is_disabled": 0, "fusion_lon": 0.0, "bike_id": "45783e3e329a0aa7950914b9049bfdf0", "lon": -76.98925566666666, "rental_uris": {"ios": "https://dc.lft.to/lastmile_qr_scan", "android": "https://dc.lft.to/lastmile_qr_scan"}}, {"name": "832f856bc4b6ef8f936ebb183090c6f3", "fusion_lat": 0.0, "type": "electric_scooter", "lat": 38.882312666666664, "is_reserved": 0, "is_disabled": 0, "fusion_lon": 0.0, "bike_id": "832f856bc4b6ef8f936ebb183090c6f3", "lon": -77.025789, "rental_uris": {"ios": "https://dc.lft.to/lastmile_qr_scan", "android": "https://dc.lft.to/lastmile_qr_scan"}}, {"name": "2cd2ccc4a1dd702eb730ac5c40e5ab3d", "fusion_lat": 0.0, "type": "electric_scooter", "lat": 38.922314666666665, "is_reserved": 0, "is_disabled": 0, "fusion_lon": 0.0, "bike_id": "2cd2ccc4a1dd702eb730ac5c40e5ab3d", "lon": -77.04710083333333, "rental_uris": {"ios": "https://dc.lft.to/lastmile_qr_scan", "android": "https://dc.lft.to/lastmile_qr_scan"}}, {"name": "e87211841798120095765365b25f3b44", "fusion_lat": 0.0, "type": "electric_scooter", "lat": 38.925482, "is_reserved": 0, "is_disabled": 0, "fusion_lon": 0.0, "bike_id": "e87211841798120095765365b25f3b44", "lon": -77.03223883333334, "rental_uris": {"ios": "https://dc.lft.to/lastmile_qr_scan", "android": "https://dc.lft.to/lastmile_qr_scan"}}, {"name": "ee5e1e1f5ab03877d0b312817bf6b680", "fusion_lat": 0.0, "type": "electric_scooter", "lat": 38.88839633333333, "is_reserved": 0, "is_disabled": 0, "fusion_lon": 0.0, "bike_id": "ee5e1e1f5ab03877d0b312817bf6b680", "lon": -77.049095, "rental_uris": {"ios": "https://dc.lft.to/lastmile_qr_scan", "android": "https://dc.lft.to/lastmile_qr_scan"}}, {"name": "0f1c80cb6bf4a400e6f0ca5705481099", "fusion_lat": 0.0, "type": "electric_scooter", "lat": 38.962271666666666, "is_reserved": 0, "is_disabled": 0, "fusion_lon": 0.0, "bike_id": "0f1c80cb6bf4a400e6f0ca5705481099", "lon": -77.02978, "rental_uris": {"ios": "https://dc.lft.to/lastmile_qr_scan", "android": "https://dc.lft.to/lastmile_qr_scan"}}, {"name": "6a50a6896d301a7f61e4cb9a5ab31689", "fusion_lat": 0.0, "type": "electric_scooter", "lat": 38.90580666666666, "is_reserved": 0, "is_disabled": 0, "fusion_lon": 0.0, "bike_id": "6a50a6896d301a7f61e4cb9a5ab31689", "lon": -77.0488115, "rental_uris": {"ios": "https://dc.lft.to/lastmile_qr_scan", "android": "https://dc.lft.to/lastmile_qr_scan"}}, {"name": "187f49fe80a821f2ecf983544ada9049", "fusion_lat": 0.0, "type": "electric_scooter", "lat": 38.9387345, "is_reserved": 0, "is_disabled": 0, "fusion_lon": 0.0, "bike_id": "187f49fe80a821f2ecf983544ada9049", "lon": -77.032582, "rental_uris": {"ios": "https://dc.lft.to/lastmile_qr_scan", "android": "https://dc.lft.to/lastmile_qr_scan"}}, {"name": "02f4e91e19cd339829f00a8ce09673f3", "fusion_lat": 0.0, "type": "electric_bike", "lat": 38.960121, "is_reserved": 0, "is_disabled": 0, "fusion_lon": 0.0, "bike_id": "02f4e91e19cd339829f00a8ce09673f3", "lon": -76.99869, "rental_uris": {"ios": "https://dc.lft.to/lastmile_qr_scan", "android": "https://dc.lft.to/lastmile_qr_scan"}}, {"name": "b55f2e79e71e52368702a30973740520", "fusion_lat": 0.0, "type": "electric_scooter", "lat": 38.91707016666667, "is_reserved": 0, "is_disabled": 0, "fusion_lon": 0.0, "bike_id": "b55f2e79e71e52368702a30973740520", "lon": -77.030849, "rental_uris": {"ios": "https://dc.lft.to/lastmile_qr_scan", "android": "https://dc.lft.to/lastmile_qr_scan"}}, {"name": "ec20f3496574d66d2b35d0539b946129", "fusion_lat": 0.0, "type": "electric_scooter", "lat": 38.86657816666666, "is_reserved": 0, "is_disabled": 0, "fusion_lon": 0.0, "bike_id": "ec20f3496574d66d2b35d0539b946129", "lon": -76.98886383333334, "rental_uris": {"ios": "https://dc.lft.to/lastmile_qr_scan", "android": "https://dc.lft.to/lastmile_qr_scan"}}, {"name": "a0b0738befef5e2ae380e18edd5bcebc", "fusion_lat": 0.0, "type": "electric_scooter", "lat": 38.884866, "is_reserved": 0, "is_disabled": 0, "fusion_lon": 0.0, "bike_id": "a0b0738befef5e2ae380e18edd5bcebc", "lon": -77.0070975, "rental_uris": {"ios": "https://dc.lft.to/lastmile_qr_scan", "android": "https://dc.lft.to/lastmile_qr_scan"}}, {"name": "a1d2f7928031ea862359bcd5a833ec7d", "fusion_lat": 0.0, "type": "electric_scooter", "lat": 38.89955666666667, "is_reserved": 0, "is_disabled": 0, "fusion_lon": 0.0, "bike_id": "a1d2f7928031ea862359bcd5a833ec7d", "lon": -77.00899083333333, "rental_uris": {"ios": "https://dc.lft.to/lastmile_qr_scan", "android": "https://dc.lft.to/lastmile_qr_scan"}}, {"name": "37248a823066669294c07bb16b2ccefd", "fusion_lat": 0.0, "type": "electric_scooter", "lat": 38.924406166666664, "is_reserved": 0, "is_disabled": 0, "fusion_lon": 0.0, "bike_id": "37248a823066669294c07bb16b2ccefd", "lon": -77.04219533333334, "rental_uris": {"ios": "https://dc.lft.to/lastmile_qr_scan", "android": "https://dc.lft.to/lastmile_qr_scan"}}, {"name": "3e46ad180fe880f2d46af856ddffcd3a", "fusion_lat": 0.0, "type": "electric_bike", "lat": 38.876369, "is_reserved": 0, "is_disabled": 0, "fusion_lon": 0.0, "bike_id": "3e46ad180fe880f2d46af856ddffcd3a", "lon": -77.008715, "rental_uris": {"ios": "https://dc.lft.to/lastmile_qr_scan", "android": "https://dc.lft.to/lastmile_qr_scan"}}, {"name": "57046d8a42dc38759e28cb7d92f5f781", "fusion_lat": 0.0, "type": "electric_scooter", "lat": 38.8850225, "is_reserved": 0, "is_disabled": 0, "fusion_lon": 0.0, "bike_id": "57046d8a42dc38759e28cb7d92f5f781", "lon": -77.02091916666667, "rental_uris": {"ios": "https://dc.lft.to/lastmile_qr_scan", "android": "https://dc.lft.to/lastmile_qr_scan"}}, {"name": "780f4889c617ffc4c9653d307ee31712", "fusion_lat": 0.0, "type": "electric_scooter", "lat": 38.9085625, "is_reserved": 0, "is_disabled": 0, "fusion_lon": 0.0, "bike_id": "780f4889c617ffc4c9653d307ee31712", "lon": -76.98605566666667, "rental_uris": {"ios": "https://dc.lft.to/lastmile_qr_scan", "android": "https://dc.lft.to/lastmile_qr_scan"}}, {"name": "5f13ab3323a8f4301668403fd6cffbff", "fusion_lat": 0.0, "type": "electric_scooter", "lat": 38.92430866666667, "is_reserved": 0, "is_disabled": 0, "fusion_lon": 0.0, "bike_id": "5f13ab3323a8f4301668403fd6cffbff", "lon": -77.04246533333334, "rental_uris": {"ios": "https://dc.lft.to/lastmile_qr_scan", "android": "https://dc.lft.to/lastmile_qr_scan"}}, {"name": "f7b4310ea118af5e6ecb4466abeef4cb", "fusion_lat": 0.0, "type": "electric_scooter", "lat": 38.895189333333335, "is_reserved": 0, "is_disabled": 0, "fusion_lon": 0.0, "bike_id": "f7b4310ea118af5e6ecb4466abeef4cb", "lon": -77.04291066666667, "rental_uris": {"ios": "https://dc.lft.to/lastmile_qr_scan", "android": "https://dc.lft.to/lastmile_qr_scan"}}, {"name": "23aea46d7a55ce885e854901d8e7f55d", "fusion_lat": 0.0, "type": "electric_scooter", "lat": 38.87688383333333, "is_reserved": 0, "is_disabled": 0, "fusion_lon": 0.0, "bike_id": "23aea46d7a55ce885e854901d8e7f55d", "lon": -77.017566, "rental_uris": {"ios": "https://dc.lft.to/lastmile_qr_scan", "android": "https://dc.lft.to/lastmile_qr_scan"}}, {"name": "fb0e237986f431bb00051d9e30eb8c9a", "fusion_lat": 0.0, "type": "electric_scooter", "lat": 38.886497, "is_reserved": 0, "is_disabled": 0, "fusion_lon": 0.0, "bike_id": "fb0e237986f431bb00051d9e30eb8c9a", "lon": -77.01366666666667, "rental_uris": {"ios": "https://dc.lft.to/lastmile_qr_scan", "android": "https://dc.lft.to/lastmile_qr_scan"}}, {"name": "6b50f603104baa4535d2b5bd07f98338", "fusion_lat": 0.0, "type": "electric_scooter", "lat": 38.912512666666665, "is_reserved": 0, "is_disabled": 0, "fusion_lon": 0.0, "bike_id": "6b50f603104baa4535d2b5bd07f98338", "lon": -77.0383765, "rental_uris": {"ios": "https://dc.lft.to/lastmile_qr_scan", "android": "https://dc.lft.to/lastmile_qr_scan"}}, {"name": "a3761b4283df57e2a003350f4ac6a608", "fusion_lat": 0.0, "type": "electric_bike", "lat": 38.906825, "is_reserved": 0, "is_disabled": 0, "fusion_lon": 0.0, "bike_id": "a3761b4283df57e2a003350f4ac6a608", "lon": -76.95186633333333, "rental_uris": {"ios": "https://dc.lft.to/lastmile_qr_scan", "android": "https://dc.lft.to/lastmile_qr_scan"}}, {"name": "cbe6b56180e1fbf4a5d52331bfba7785", "fusion_lat": 0.0, "type": "electric_scooter", "lat": 38.929869333333336, "is_reserved": 0, "is_disabled": 0, "fusion_lon": 0.0, "bike_id": "cbe6b56180e1fbf4a5d52331bfba7785", "lon": -77.02480916666667, "rental_uris": {"ios": "https://dc.lft.to/lastmile_qr_scan", "android": "https://dc.lft.to/lastmile_qr_scan"}}, {"name": "5a979948f483117435bae756abce55a1", "fusion_lat": 0.0, "type": "electric_scooter", "lat": 38.90614166666667, "is_reserved": 0, "is_disabled": 0, "fusion_lon": 0.0, "bike_id": "5a979948f483117435bae756abce55a1", "lon": -77.024005, "rental_uris": {"ios": "https://dc.lft.to/lastmile_qr_scan", "android": "https://dc.lft.to/lastmile_qr_scan"}}, {"name": "c147c0a5c8958e9dba20145fb2f7a532", "fusion_lat": 0.0, "type": "electric_scooter", "lat": 38.9171045, "is_reserved": 0, "is_disabled": 0, "fusion_lon": 0.0, "bike_id": "c147c0a5c8958e9dba20145fb2f7a532", "lon": -77.031407, "rental_uris": {"ios": "https://dc.lft.to/lastmile_qr_scan", "android": "https://dc.lft.to/lastmile_qr_scan"}}, {"name": "fa7853214676110911d23e613aebae3c", "fusion_lat": 0.0, "type": "electric_scooter", "lat": 38.89849616666667, "is_reserved": 0, "is_disabled": 0, "fusion_lon": 0.0, "bike_id": "fa7853214676110911d23e613aebae3c", "lon": -76.99029766666666, "rental_uris": {"ios": "https://dc.lft.to/lastmile_qr_scan", "android": "https://dc.lft.to/lastmile_qr_scan"}}, {"name": "57736c4ba2a9dc142007e35dc1e4c371", "fusion_lat": 0.0, "type": "electric_scooter", "lat": 38.92032, "is_reserved": 0, "is_disabled": 0, "fusion_lon": 0.0, "bike_id": "57736c4ba2a9dc142007e35dc1e4c371", "lon": -76.9780015, "rental_uris": {"ios": "https://dc.lft.to/lastmile_qr_scan", "android": "https://dc.lft.to/lastmile_qr_scan"}}, {"name": "61d64fcccf7b24701aa7e2cb4b9f7eef", "fusion_lat": 0.0, "type": "electric_bike", "lat": 38.935644833333335, "is_reserved": 0, "is_disabled": 0, "fusion_lon": 0.0, "bike_id": "61d64fcccf7b24701aa7e2cb4b9f7eef", "lon": -77.10443016666666, "rental_uris": {"ios": "https://dc.lft.to/lastmile_qr_scan", "android": "https://dc.lft.to/lastmile_qr_scan"}}, {"name": "6aa899bb6763f412a4546be56ef38376", "fusion_lat": 0.0, "type": "electric_scooter", "lat": 38.8983295, "is_reserved": 0, "is_disabled": 0, "fusion_lon": 0.0, "bike_id": "6aa899bb6763f412a4546be56ef38376", "lon": -76.94571916666666, "rental_uris": {"ios": "https://dc.lft.to/lastmile_qr_scan", "android": "https://dc.lft.to/lastmile_qr_scan"}}, {"name": "262fc0cc0ca63abe1c4ed154f1cd0b6b", "fusion_lat": 0.0, "type": "electric_scooter", "lat": 38.93186433333333, "is_reserved": 0, "is_disabled": 0, "fusion_lon": 0.0, "bike_id": "262fc0cc0ca63abe1c4ed154f1cd0b6b", "lon": -77.027662, "rental_uris": {"ios": "https://dc.lft.to/lastmile_qr_scan", "android": "https://dc.lft.to/lastmile_qr_scan"}}, {"name": "1533290e26f4ff27c3728af7f5a9e3c1", "fusion_lat": 0.0, "type": "electric_bike", "lat": 38.8022525, "is_reserved": 0, "is_disabled": 0, "fusion_lon": 0.0, "bike_id": "1533290e26f4ff27c3728af7f5a9e3c1", "lon": -77.07914316666667, "rental_uris": {"ios": "https://dc.lft.to/lastmile_qr_scan", "android": "https://dc.lft.to/lastmile_qr_scan"}}, {"name": "c96e480b6c803bda16fa353d71fd0cce", "fusion_lat": 0.0, "type": "electric_scooter", "lat": 38.90352433333334, "is_reserved": 0, "is_disabled": 0, "fusion_lon": 0.0, "bike_id": "c96e480b6c803bda16fa353d71fd0cce", "lon": -77.01108583333334, "rental_uris": {"ios": "https://dc.lft.to/lastmile_qr_scan", "android": "https://dc.lft.to/lastmile_qr_scan"}}, {"name": "ef5d6d324922db4b8d5acd6f80ddff35", "fusion_lat": 0.0, "type": "electric_bike", "lat": 38.89277216666667, "is_reserved": 0, "is_disabled": 0, "fusion_lon": 0.0, "bike_id": "ef5d6d324922db4b8d5acd6f80ddff35", "lon": -77.01387883333334, "rental_uris": {"ios": "https://dc.lft.to/lastmile_qr_scan", "android": "https://dc.lft.to/lastmile_qr_scan"}}, {"name": "e9e3f031bab2ccbd4923257f27868024", "fusion_lat": 0.0, "type": "electric_scooter", "lat": 38.931092666666665, "is_reserved": 0, "is_disabled": 0, "fusion_lon": 0.0, "bike_id": "e9e3f031bab2ccbd4923257f27868024", "lon": -77.03839266666667, "rental_uris": {"ios": "https://dc.lft.to/lastmile_qr_scan", "android": "https://dc.lft.to/lastmile_qr_scan"}}, {"name": "42992898d4b5bcff691e725f8dd2d8db", "fusion_lat": 0.0, "type": "electric_scooter", "lat": 38.939433, "is_reserved": 0, "is_disabled": 0, "fusion_lon": 0.0, "bike_id": "42992898d4b5bcff691e725f8dd2d8db", "lon": -77.03616483333333, "rental_uris": {"ios": "https://dc.lft.to/lastmile_qr_scan", "android": "https://dc.lft.to/lastmile_qr_scan"}}, {"name": "6901a0355db66c62f9c5046dfe29f238", "fusion_lat": 0.0, "type": "electric_scooter", "lat": 38.90284066666667, "is_reserved": 0, "is_disabled": 0, "fusion_lon": 0.0, "bike_id": "6901a0355db66c62f9c5046dfe29f238", "lon": -77.06268416666667, "rental_uris": {"ios": "https://dc.lft.to/lastmile_qr_scan", "android": "https://dc.lft.to/lastmile_qr_scan"}}, {"name": "574b93eb70c3f81d8d22449526e1a87a", "fusion_lat": 0.0, "type": "electric_scooter", "lat": 38.907366333333336, "is_reserved": 0, "is_disabled": 0, "fusion_lon": 0.0, "bike_id": "574b93eb70c3f81d8d22449526e1a87a", "lon": -77.04684866666666, "rental_uris": {"ios": "https://dc.lft.to/lastmile_qr_scan", "android": "https://dc.lft.to/lastmile_qr_scan"}}, {"name": "6dd265f3846fd0d674e252d903a2b7ae", "fusion_lat": 0.0, "type": "electric_scooter", "lat": 38.898487833333334, "is_reserved": 0, "is_disabled": 0, "fusion_lon": 0.0, "bike_id": "6dd265f3846fd0d674e252d903a2b7ae", "lon": -77.033069, "rental_uris": {"ios": "https://dc.lft.to/lastmile_qr_scan", "android": "https://dc.lft.to/lastmile_qr_scan"}}, {"name": "f94ee5ce0d9a70fe540b905e60d5a745", "fusion_lat": 0.0, "type": "electric_scooter", "lat": 38.905128, "is_reserved": 0, "is_disabled": 0, "fusion_lon": 0.0, "bike_id": "f94ee5ce0d9a70fe540b905e60d5a745", "lon": -77.06939816666667, "rental_uris": {"ios": "https://dc.lft.to/lastmile_qr_scan", "android": "https://dc.lft.to/lastmile_qr_scan"}}, {"name": "6ea075a7b9871ffa1a8edcc821af07f0", "fusion_lat": 0.0, "type": "electric_scooter", "lat": 38.91101616666667, "is_reserved": 0, "is_disabled": 0, "fusion_lon": 0.0, "bike_id": "6ea075a7b9871ffa1a8edcc821af07f0", "lon": -77.01057866666666, "rental_uris": {"ios": "https://dc.lft.to/lastmile_qr_scan", "android": "https://dc.lft.to/lastmile_qr_scan"}}, {"name": "ab6879855087b16c84ae85127b2daa23", "fusion_lat": 0.0, "type": "electric_scooter", "lat": 38.906817833333335, "is_reserved": 0, "is_disabled": 0, "fusion_lon": 0.0, "bike_id": "ab6879855087b16c84ae85127b2daa23", "lon": -76.97995316666666, "rental_uris": {"ios": "https://dc.lft.to/lastmile_qr_scan", "android": "https://dc.lft.to/lastmile_qr_scan"}}, {"name": "4818bde7921628ad2e681714b4a086de", "fusion_lat": 0.0, "type": "electric_scooter", "lat": 38.917728833333335, "is_reserved": 0, "is_disabled": 0, "fusion_lon": 0.0, "bike_id": "4818bde7921628ad2e681714b4a086de", "lon": -77.02334416666666, "rental_uris": {"ios": "https://dc.lft.to/lastmile_qr_scan", "android": "https://dc.lft.to/lastmile_qr_scan"}}, {"name": "05b7d34ae53ed245a28478fa100f2e15", "fusion_lat": 0.0, "type": "electric_bike", "lat": 38.935544, "is_reserved": 0, "is_disabled": 0, "fusion_lon": 0.0, "bike_id": "05b7d34ae53ed245a28478fa100f2e15", "lon": -77.08224316666667, "rental_uris": {"ios": "https://dc.lft.to/lastmile_qr_scan", "android": "https://dc.lft.to/lastmile_qr_scan"}}, {"name": "840e162424f92779ae2fc37ac48f64f5", "fusion_lat": 0.0, "type": "electric_scooter", "lat": 38.8580825, "is_reserved": 0, "is_disabled": 0, "fusion_lon": 0.0, "bike_id": "840e162424f92779ae2fc37ac48f64f5", "lon": -76.9865275, "rental_uris": {"ios": "https://dc.lft.to/lastmile_qr_scan", "android": "https://dc.lft.to/lastmile_qr_scan"}}, {"name": "2a263b297f711ae8ae85726856bdd6c8", "fusion_lat": 0.0, "type": "electric_scooter", "lat": 38.90140066666667, "is_reserved": 0, "is_disabled": 0, "fusion_lon": 0.0, "bike_id": "2a263b297f711ae8ae85726856bdd6c8", "lon": -76.99117333333334, "rental_uris": {"ios": "https://dc.lft.to/lastmile_qr_scan", "android": "https://dc.lft.to/lastmile_qr_scan"}}, {"name": "0ffaa6b197fa70dc6bfbcbecba025720", "fusion_lat": 0.0, "type": "electric_bike", "lat": 38.84161016666667, "is_reserved": 0, "is_disabled": 0, "fusion_lon": 0.0, "bike_id": "0ffaa6b197fa70dc6bfbcbecba025720", "lon": -77.08888866666666, "rental_uris": {"ios": "https://dc.lft.to/lastmile_qr_scan", "android": "https://dc.lft.to/lastmile_qr_scan"}}, {"name": "b4e4693c527bdf8a52ab805df03edc03", "fusion_lat": 0.0, "type": "electric_bike", "lat": 39.0519635, "is_reserved": 0, "is_disabled": 0, "fusion_lon": 0.0, "bike_id": "b4e4693c527bdf8a52ab805df03edc03", "lon": -77.10915283333334, "rental_uris": {"ios": "https://dc.lft.to/lastmile_qr_scan", "android": "https://dc.lft.to/lastmile_qr_scan"}}, {"name": "b097423376a342c374e76aacaee53399", "fusion_lat": 0.0, "type": "electric_scooter", "lat": 38.923723833333334, "is_reserved": 0, "is_disabled": 0, "fusion_lon": 0.0, "bike_id": "b097423376a342c374e76aacaee53399", "lon": -77.01906483333333, "rental_uris": {"ios": "https://dc.lft.to/lastmile_qr_scan", "android": "https://dc.lft.to/lastmile_qr_scan"}}, {"name": "ad4b650e3313f56ee363bbed02ce0063", "fusion_lat": 0.0, "type": "electric_scooter", "lat": 38.87951016666667, "is_reserved": 0, "is_disabled": 0, "fusion_lon": 0.0, "bike_id": "ad4b650e3313f56ee363bbed02ce0063", "lon": -77.0082275, "rental_uris": {"ios": "https://dc.lft.to/lastmile_qr_scan", "android": "https://dc.lft.to/lastmile_qr_scan"}}, {"name": "935d7bbc2014b394b8ca8e591bf92eae", "fusion_lat": 0.0, "type": "electric_scooter", "lat": 38.914066166666665, "is_reserved": 0, "is_disabled": 0, "fusion_lon": 0.0, "bike_id": "935d7bbc2014b394b8ca8e591bf92eae", "lon": -77.03217783333334, "rental_uris": {"ios": "https://dc.lft.to/lastmile_qr_scan", "android": "https://dc.lft.to/lastmile_qr_scan"}}, {"name": "cd6f4b8a96244d09a19407418cfca4f2", "fusion_lat": 0.0, "type": "electric_scooter", "lat": 38.9125555, "is_reserved": 0, "is_disabled": 0, "fusion_lon": 0.0, "bike_id": "cd6f4b8a96244d09a19407418cfca4f2", "lon": -77.00927633333333, "rental_uris": {"ios": "https://dc.lft.to/lastmile_qr_scan", "android": "https://dc.lft.to/lastmile_qr_scan"}}, {"name": "f25c958b7fd0d917ee576c16857cc00c", "fusion_lat": 0.0, "type": "electric_scooter", "lat": 38.89724566666666, "is_reserved": 0, "is_disabled": 0, "fusion_lon": 0.0, "bike_id": "f25c958b7fd0d917ee576c16857cc00c", "lon": -77.02032583333333, "rental_uris": {"ios": "https://dc.lft.to/lastmile_qr_scan", "android": "https://dc.lft.to/lastmile_qr_scan"}}, {"name": "55fd64e2b00c1abfb9de44ec24b71982", "fusion_lat": 0.0, "type": "electric_scooter", "lat": 38.93182516666667, "is_reserved": 0, "is_disabled": 0, "fusion_lon": 0.0, "bike_id": "55fd64e2b00c1abfb9de44ec24b71982", "lon": -77.03448533333334, "rental_uris": {"ios": "https://dc.lft.to/lastmile_qr_scan", "android": "https://dc.lft.to/lastmile_qr_scan"}}, {"name": "84d04dab3a46595cd454e194696c1e22", "fusion_lat": 0.0, "type": "electric_scooter", "lat": 38.90210166666667, "is_reserved": 0, "is_disabled": 0, "fusion_lon": 0.0, "bike_id": "84d04dab3a46595cd454e194696c1e22", "lon": -77.02334983333333, "rental_uris": {"ios": "https://dc.lft.to/lastmile_qr_scan", "android": "https://dc.lft.to/lastmile_qr_scan"}}, {"name": "26859847d03d81856b192da4dd4c032e", "fusion_lat": 0.0, "type": "electric_scooter", "lat": 38.94065966666667, "is_reserved": 0, "is_disabled": 0, "fusion_lon": 0.0, "bike_id": "26859847d03d81856b192da4dd4c032e", "lon": -77.02963016666666, "rental_uris": {"ios": "https://dc.lft.to/lastmile_qr_scan", "android": "https://dc.lft.to/lastmile_qr_scan"}}, {"name": "6530ded2f3ee8444323d0d1b575fff7a", "fusion_lat": 0.0, "type": "electric_scooter", "lat": 38.919305333333334, "is_reserved": 0, "is_disabled": 0, "fusion_lon": 0.0, "bike_id": "6530ded2f3ee8444323d0d1b575fff7a", "lon": -77.023788, "rental_uris": {"ios": "https://dc.lft.to/lastmile_qr_scan", "android": "https://dc.lft.to/lastmile_qr_scan"}}, {"name": "701a5a8cd52e04059e7659c6dd37fb6b", "fusion_lat": 0.0, "type": "electric_scooter", "lat": 38.9073795, "is_reserved": 0, "is_disabled": 0, "fusion_lon": 0.0, "bike_id": "701a5a8cd52e04059e7659c6dd37fb6b", "lon": -77.02687016666667, "rental_uris": {"ios": "https://dc.lft.to/lastmile_qr_scan", "android": "https://dc.lft.to/lastmile_qr_scan"}}, {"name": "defc7470ec79d7377f75edfe84892594", "fusion_lat": 0.0, "type": "electric_scooter", "lat": 38.90601983333333, "is_reserved": 0, "is_disabled": 0, "fusion_lon": 0.0, "bike_id": "defc7470ec79d7377f75edfe84892594", "lon": -77.04674083333333, "rental_uris": {"ios": "https://dc.lft.to/lastmile_qr_scan", "android": "https://dc.lft.to/lastmile_qr_scan"}}, {"name": "e243f1a3f274639ce0437bc006bc5d19", "fusion_lat": 0.0, "type": "electric_scooter", "lat": 38.915389833333336, "is_reserved": 0, "is_disabled": 0, "fusion_lon": 0.0, "bike_id": "e243f1a3f274639ce0437bc006bc5d19", "lon": -77.03206916666667, "rental_uris": {"ios": "https://dc.lft.to/lastmile_qr_scan", "android": "https://dc.lft.to/lastmile_qr_scan"}}, {"name": "5161f1e64c427258410afe68c7da0b5e", "fusion_lat": 0.0, "type": "electric_scooter", "lat": 38.895443666666665, "is_reserved": 0, "is_disabled": 0, "fusion_lon": 0.0, "bike_id": "5161f1e64c427258410afe68c7da0b5e", "lon": -77.04049416666666, "rental_uris": {"ios": "https://dc.lft.to/lastmile_qr_scan", "android": "https://dc.lft.to/lastmile_qr_scan"}}, {"name": "b8a7e237ae4ecf53432668382fc48e10", "fusion_lat": 0.0, "type": "electric_scooter", "lat": 38.90571516666667, "is_reserved": 0, "is_disabled": 0, "fusion_lon": 0.0, "bike_id": "b8a7e237ae4ecf53432668382fc48e10", "lon": -77.0454825, "rental_uris": {"ios": "https://dc.lft.to/lastmile_qr_scan", "android": "https://dc.lft.to/lastmile_qr_scan"}}, {"name": "0a9fda720b4067626bc45c22bd0b1713", "fusion_lat": 0.0, "type": "electric_scooter", "lat": 38.918049833333335, "is_reserved": 0, "is_disabled": 0, "fusion_lon": 0.0, "bike_id": "0a9fda720b4067626bc45c22bd0b1713", "lon": -77.04621383333334, "rental_uris": {"ios": "https://dc.lft.to/lastmile_qr_scan", "android": "https://dc.lft.to/lastmile_qr_scan"}}, {"name": "11c1b0844a160b77c10122d719dd0b1d", "fusion_lat": 0.0, "type": "electric_scooter", "lat": 38.9218535, "is_reserved": 0, "is_disabled": 0, "fusion_lon": 0.0, "bike_id": "11c1b0844a160b77c10122d719dd0b1d", "lon": -77.042867, "rental_uris": {"ios": "https://dc.lft.to/lastmile_qr_scan", "android": "https://dc.lft.to/lastmile_qr_scan"}}, {"name": "2c328a53a22c7e224843b345ad6e1aad", "fusion_lat": 0.0, "type": "electric_scooter", "lat": 38.9229725, "is_reserved": 0, "is_disabled": 0, "fusion_lon": 0.0, "bike_id": "2c328a53a22c7e224843b345ad6e1aad", "lon": -77.04298433333334, "rental_uris": {"ios": "https://dc.lft.to/lastmile_qr_scan", "android": "https://dc.lft.to/lastmile_qr_scan"}}, {"name": "c52726cdbff3c1c9850ad7ea3e447fa4", "fusion_lat": 0.0, "type": "electric_scooter", "lat": 38.927187833333335, "is_reserved": 0, "is_disabled": 0, "fusion_lon": 0.0, "bike_id": "c52726cdbff3c1c9850ad7ea3e447fa4", "lon": -77.02279466666667, "rental_uris": {"ios": "https://dc.lft.to/lastmile_qr_scan", "android": "https://dc.lft.to/lastmile_qr_scan"}}, {"name": "560dc18f270d544177fed7b8b1915aa5", "fusion_lat": 0.0, "type": "electric_scooter", "lat": 38.892289, "is_reserved": 0, "is_disabled": 0, "fusion_lon": 0.0, "bike_id": "560dc18f270d544177fed7b8b1915aa5", "lon": -77.0337005, "rental_uris": {"ios": "https://dc.lft.to/lastmile_qr_scan", "android": "https://dc.lft.to/lastmile_qr_scan"}}, {"name": "ca3e8c6909d3587032a66a027fb7bf71", "fusion_lat": 0.0, "type": "electric_scooter", "lat": 38.912816, "is_reserved": 0, "is_disabled": 0, "fusion_lon": 0.0, "bike_id": "ca3e8c6909d3587032a66a027fb7bf71", "lon": -77.04498616666666, "rental_uris": {"ios": "https://dc.lft.to/lastmile_qr_scan", "android": "https://dc.lft.to/lastmile_qr_scan"}}, {"name": "825f6cc54b3bc189b1d21aa37967a75e", "fusion_lat": 0.0, "type": "electric_scooter", "lat": 38.93960966666667, "is_reserved": 0, "is_disabled": 0, "fusion_lon": 0.0, "bike_id": "825f6cc54b3bc189b1d21aa37967a75e", "lon": -77.02752233333334, "rental_uris": {"ios": "https://dc.lft.to/lastmile_qr_scan", "android": "https://dc.lft.to/lastmile_qr_scan"}}, {"name": "db70c70e78a26ec7d390413f8ec3f71e", "fusion_lat": 0.0, "type": "electric_scooter", "lat": 38.933344, "is_reserved": 0, "is_disabled": 0, "fusion_lon": 0.0, "bike_id": "db70c70e78a26ec7d390413f8ec3f71e", "lon": -77.04366283333333, "rental_uris": {"ios": "https://dc.lft.to/lastmile_qr_scan", "android": "https://dc.lft.to/lastmile_qr_scan"}}, {"name": "6896eb660f65599071bf98bad85c3d4d", "fusion_lat": 0.0, "type": "electric_scooter", "lat": 38.88384666666666, "is_reserved": 0, "is_disabled": 0, "fusion_lon": 0.0, "bike_id": "6896eb660f65599071bf98bad85c3d4d", "lon": -76.98544983333333, "rental_uris": {"ios": "https://dc.lft.to/lastmile_qr_scan", "android": "https://dc.lft.to/lastmile_qr_scan"}}, {"name": "175e89480123328646d1448eca39ebd8", "fusion_lat": 0.0, "type": "electric_scooter", "lat": 38.885780833333335, "is_reserved": 0, "is_disabled": 0, "fusion_lon": 0.0, "bike_id": "175e89480123328646d1448eca39ebd8", "lon": -76.99500366666666, "rental_uris": {"ios": "https://dc.lft.to/lastmile_qr_scan", "android": "https://dc.lft.to/lastmile_qr_scan"}}, {"name": "0f87c23edc6e83f85f6a7b37b583cc39", "fusion_lat": 0.0, "type": "electric_scooter", "lat": 38.90503233333333, "is_reserved": 0, "is_disabled": 0, "fusion_lon": 0.0, "bike_id": "0f87c23edc6e83f85f6a7b37b583cc39", "lon": -77.03436983333333, "rental_uris": {"ios": "https://dc.lft.to/lastmile_qr_scan", "android": "https://dc.lft.to/lastmile_qr_scan"}}, {"name": "e961f164c7be88a3c46e57c4a9447aff", "fusion_lat": 0.0, "type": "electric_scooter", "lat": 38.904037833333334, "is_reserved": 0, "is_disabled": 0, "fusion_lon": 0.0, "bike_id": "e961f164c7be88a3c46e57c4a9447aff", "lon": -77.038529, "rental_uris": {"ios": "https://dc.lft.to/lastmile_qr_scan", "android": "https://dc.lft.to/lastmile_qr_scan"}}, {"name": "7d2360b02f48b6a61ae2bb80a0d3a183", "fusion_lat": 0.0, "type": "electric_scooter", "lat": 38.901858, "is_reserved": 0, "is_disabled": 0, "fusion_lon": 0.0, "bike_id": "7d2360b02f48b6a61ae2bb80a0d3a183", "lon": -77.05022866666667, "rental_uris": {"ios": "https://dc.lft.to/lastmile_qr_scan", "android": "https://dc.lft.to/lastmile_qr_scan"}}, {"name": "f26c0c50b6b2498d8b7fd5d354a37ee6", "fusion_lat": 0.0, "type": "electric_scooter", "lat": 38.89295466666667, "is_reserved": 0, "is_disabled": 0, "fusion_lon": 0.0, "bike_id": "f26c0c50b6b2498d8b7fd5d354a37ee6", "lon": -76.93927716666667, "rental_uris": {"ios": "https://dc.lft.to/lastmile_qr_scan", "android": "https://dc.lft.to/lastmile_qr_scan"}}, {"name": "354cc65bc452101580b21b3565644772", "fusion_lat": 0.0, "type": "electric_scooter", "lat": 38.8862595, "is_reserved": 0, "is_disabled": 0, "fusion_lon": 0.0, "bike_id": "354cc65bc452101580b21b3565644772", "lon": -77.01530416666667, "rental_uris": {"ios": "https://dc.lft.to/lastmile_qr_scan", "android": "https://dc.lft.to/lastmile_qr_scan"}}, {"name": "851bc21d6cafa8b358c5155c9fb402ae", "fusion_lat": 0.0, "type": "electric_scooter", "lat": 38.906794, "is_reserved": 0, "is_disabled": 0, "fusion_lon": 0.0, "bike_id": "851bc21d6cafa8b358c5155c9fb402ae", "lon": -77.03851516666667, "rental_uris": {"ios": "https://dc.lft.to/lastmile_qr_scan", "android": "https://dc.lft.to/lastmile_qr_scan"}}, {"name": "9c8687897744847dbd9ddfeabae2cc5e", "fusion_lat": 0.0, "type": "electric_scooter", "lat": 38.89910616666667, "is_reserved": 0, "is_disabled": 0, "fusion_lon": 0.0, "bike_id": "9c8687897744847dbd9ddfeabae2cc5e", "lon": -77.03935466666667, "rental_uris": {"ios": "https://dc.lft.to/lastmile_qr_scan", "android": "https://dc.lft.to/lastmile_qr_scan"}}, {"name": "dbe946253aecb2f2859aaccdfc322f37", "fusion_lat": 0.0, "type": "electric_bike", "lat": 38.8323375, "is_reserved": 0, "is_disabled": 0, "fusion_lon": 0.0, "bike_id": "dbe946253aecb2f2859aaccdfc322f37", "lon": -76.94622283333334, "rental_uris": {"ios": "https://dc.lft.to/lastmile_qr_scan", "android": "https://dc.lft.to/lastmile_qr_scan"}}, {"name": "2985938e56c720a418f8c1ba6c5792b2", "fusion_lat": 0.0, "type": "electric_scooter", "lat": 38.920088, "is_reserved": 0, "is_disabled": 0, "fusion_lon": 0.0, "bike_id": "2985938e56c720a418f8c1ba6c5792b2", "lon": -77.081895, "rental_uris": {"ios": "https://dc.lft.to/lastmile_qr_scan", "android": "https://dc.lft.to/lastmile_qr_scan"}}, {"name": "a333d1a81e559535cfed1e5893b8c38c", "fusion_lat": 0.0, "type": "electric_scooter", "lat": 38.89853866666667, "is_reserved": 0, "is_disabled": 0, "fusion_lon": 0.0, "bike_id": "a333d1a81e559535cfed1e5893b8c38c", "lon": -77.01611183333333, "rental_uris": {"ios": "https://dc.lft.to/lastmile_qr_scan", "android": "https://dc.lft.to/lastmile_qr_scan"}}, {"name": "fb84482e5aecedd9565e78e28e230862", "fusion_lat": 0.0, "type": "electric_bike", "lat": 38.883434666666666, "is_reserved": 0, "is_disabled": 0, "fusion_lon": 0.0, "bike_id": "fb84482e5aecedd9565e78e28e230862", "lon": -77.18292283333334, "rental_uris": {"ios": "https://dc.lft.to/lastmile_qr_scan", "android": "https://dc.lft.to/lastmile_qr_scan"}}, {"name": "9270bf4c65c7345e368e0a091b111a70", "fusion_lat": 0.0, "type": "electric_scooter", "lat": 38.91044466666666, "is_reserved": 0, "is_disabled": 0, "fusion_lon": 0.0, "bike_id": "9270bf4c65c7345e368e0a091b111a70", "lon": -77.04368983333333, "rental_uris": {"ios": "https://dc.lft.to/lastmile_qr_scan", "android": "https://dc.lft.to/lastmile_qr_scan"}}, {"name": "0195d23d09f43ce962dd4dea00f0617f", "fusion_lat": 0.0, "type": "electric_scooter", "lat": 38.934127333333336, "is_reserved": 0, "is_disabled": 0, "fusion_lon": 0.0, "bike_id": "0195d23d09f43ce962dd4dea00f0617f", "lon": -77.04186883333334, "rental_uris": {"ios": "https://dc.lft.to/lastmile_qr_scan", "android": "https://dc.lft.to/lastmile_qr_scan"}}, {"name": "1f8073bc6a1f4e8beec481de0e78df1f", "fusion_lat": 0.0, "type": "electric_scooter", "lat": 38.893738666666664, "is_reserved": 0, "is_disabled": 0, "fusion_lon": 0.0, "bike_id": "1f8073bc6a1f4e8beec481de0e78df1f", "lon": -76.94998083333333, "rental_uris": {"ios": "https://dc.lft.to/lastmile_qr_scan", "android": "https://dc.lft.to/lastmile_qr_scan"}}, {"name": "1147b9c5a4e1a2e3f01ae6cd8677d4a6", "fusion_lat": 0.0, "type": "electric_bike", "lat": 38.89722283333333, "is_reserved": 0, "is_disabled": 0, "fusion_lon": 0.0, "bike_id": "1147b9c5a4e1a2e3f01ae6cd8677d4a6", "lon": -77.0191415, "rental_uris": {"ios": "https://dc.lft.to/lastmile_qr_scan", "android": "https://dc.lft.to/lastmile_qr_scan"}}, {"name": "fca50872439dd18ba1331cede84e8dd3", "fusion_lat": 0.0, "type": "electric_scooter", "lat": 38.927241, "is_reserved": 0, "is_disabled": 0, "fusion_lon": 0.0, "bike_id": "fca50872439dd18ba1331cede84e8dd3", "lon": -77.07141016666667, "rental_uris": {"ios": "https://dc.lft.to/lastmile_qr_scan", "android": "https://dc.lft.to/lastmile_qr_scan"}}, {"name": "2e87f54e98753997d51c5e3d19969c5c", "fusion_lat": 0.0, "type": "electric_scooter", "lat": 38.88595466666666, "is_reserved": 0, "is_disabled": 0, "fusion_lon": 0.0, "bike_id": "2e87f54e98753997d51c5e3d19969c5c", "lon": -77.02205983333333, "rental_uris": {"ios": "https://dc.lft.to/lastmile_qr_scan", "android": "https://dc.lft.to/lastmile_qr_scan"}}, {"name": "b1b3ea261a5408074b190a19dde869f9", "fusion_lat": 0.0, "type": "electric_scooter", "lat": 38.9287875, "is_reserved": 0, "is_disabled": 0, "fusion_lon": 0.0, "bike_id": "b1b3ea261a5408074b190a19dde869f9", "lon": -77.03374933333333, "rental_uris": {"ios": "https://dc.lft.to/lastmile_qr_scan", "android": "https://dc.lft.to/lastmile_qr_scan"}}, {"name": "9013f9392728de2b32af51630bc3f90d", "fusion_lat": 0.0, "type": "electric_bike", "lat": 38.894675166666666, "is_reserved": 0, "is_disabled": 0, "fusion_lon": 0.0, "bike_id": "9013f9392728de2b32af51630bc3f90d", "lon": -77.02191783333333, "rental_uris": {"ios": "https://dc.lft.to/lastmile_qr_scan", "android": "https://dc.lft.to/lastmile_qr_scan"}}, {"name": "49ad136a0439ebf2f137c4b7d8992303", "fusion_lat": 0.0, "type": "electric_scooter", "lat": 38.93129733333333, "is_reserved": 0, "is_disabled": 0, "fusion_lon": 0.0, "bike_id": "49ad136a0439ebf2f137c4b7d8992303", "lon": -77.02198566666667, "rental_uris": {"ios": "https://dc.lft.to/lastmile_qr_scan", "android": "https://dc.lft.to/lastmile_qr_scan"}}, {"name": "ba108e1b08cb6152381b0266ac5cb0b5", "fusion_lat": 0.0, "type": "electric_scooter", "lat": 38.9072275, "is_reserved": 0, "is_disabled": 0, "fusion_lon": 0.0, "bike_id": "ba108e1b08cb6152381b0266ac5cb0b5", "lon": -77.0288635, "rental_uris": {"ios": "https://dc.lft.to/lastmile_qr_scan", "android": "https://dc.lft.to/lastmile_qr_scan"}}, {"name": "d14cd48f26aa3fb86199397649833445", "fusion_lat": 0.0, "type": "electric_scooter", "lat": 38.892185833333336, "is_reserved": 0, "is_disabled": 0, "fusion_lon": 0.0, "bike_id": "d14cd48f26aa3fb86199397649833445", "lon": -77.03978533333333, "rental_uris": {"ios": "https://dc.lft.to/lastmile_qr_scan", "android": "https://dc.lft.to/lastmile_qr_scan"}}, {"name": "b4dfaa7356379260459a45ef508e452a", "fusion_lat": 0.0, "type": "electric_scooter", "lat": 38.9100535, "is_reserved": 0, "is_disabled": 0, "fusion_lon": 0.0, "bike_id": "b4dfaa7356379260459a45ef508e452a", "lon": -77.04422483333333, "rental_uris": {"ios": "https://dc.lft.to/lastmile_qr_scan", "android": "https://dc.lft.to/lastmile_qr_scan"}}, {"name": "7d3fc1f16ce5960c6cb7e08dc9bdae3d", "fusion_lat": 0.0, "type": "electric_scooter", "lat": 38.895218666666665, "is_reserved": 0, "is_disabled": 0, "fusion_lon": 0.0, "bike_id": "7d3fc1f16ce5960c6cb7e08dc9bdae3d", "lon": -76.99150583333333, "rental_uris": {"ios": "https://dc.lft.to/lastmile_qr_scan", "android": "https://dc.lft.to/lastmile_qr_scan"}}, {"name": "0e651a4fe63b96170b3cd78d0045037b", "fusion_lat": 0.0, "type": "electric_bike", "lat": 38.898975166666666, "is_reserved": 0, "is_disabled": 0, "fusion_lon": 0.0, "bike_id": "0e651a4fe63b96170b3cd78d0045037b", "lon": -76.98961683333333, "rental_uris": {"ios": "https://dc.lft.to/lastmile_qr_scan", "android": "https://dc.lft.to/lastmile_qr_scan"}}, {"name": "6f18dc8e0edce8da963493d82fd17622", "fusion_lat": 0.0, "type": "electric_bike", "lat": 38.88271816666666, "is_reserved": 0, "is_disabled": 0, "fusion_lon": 0.0, "bike_id": "6f18dc8e0edce8da963493d82fd17622", "lon": -76.9323275, "rental_uris": {"ios": "https://dc.lft.to/lastmile_qr_scan", "android": "https://dc.lft.to/lastmile_qr_scan"}}, {"name": "8cc56240736ddc19e4ba8eaf9481e5b9", "fusion_lat": 0.0, "type": "electric_scooter", "lat": 38.87658366666667, "is_reserved": 0, "is_disabled": 0, "fusion_lon": 0.0, "bike_id": "8cc56240736ddc19e4ba8eaf9481e5b9", "lon": -77.00411983333333, "rental_uris": {"ios": "https://dc.lft.to/lastmile_qr_scan", "android": "https://dc.lft.to/lastmile_qr_scan"}}, {"name": "73dda5b208f093dcfe5b6ff5c3a8e571", "fusion_lat": 0.0, "type": "electric_scooter", "lat": 38.920858333333335, "is_reserved": 0, "is_disabled": 0, "fusion_lon": 0.0, "bike_id": "73dda5b208f093dcfe5b6ff5c3a8e571", "lon": -77.07547333333333, "rental_uris": {"ios": "https://dc.lft.to/lastmile_qr_scan", "android": "https://dc.lft.to/lastmile_qr_scan"}}, {"name": "4a9ea408846f74c72a67466bd83f6b48", "fusion_lat": 0.0, "type": "electric_scooter", "lat": 38.920628, "is_reserved": 0, "is_disabled": 0, "fusion_lon": 0.0, "bike_id": "4a9ea408846f74c72a67466bd83f6b48", "lon": -77.03201716666666, "rental_uris": {"ios": "https://dc.lft.to/lastmile_qr_scan", "android": "https://dc.lft.to/lastmile_qr_scan"}}, {"name": "4437527af162f044dd76f613b317a304", "fusion_lat": 0.0, "type": "electric_scooter", "lat": 38.90435983333333, "is_reserved": 0, "is_disabled": 0, "fusion_lon": 0.0, "bike_id": "4437527af162f044dd76f613b317a304", "lon": -77.0345225, "rental_uris": {"ios": "https://dc.lft.to/lastmile_qr_scan", "android": "https://dc.lft.to/lastmile_qr_scan"}}, {"name": "83adca9aa21737560836710c1f0b83bd", "fusion_lat": 0.0, "type": "electric_scooter", "lat": 38.892285666666666, "is_reserved": 0, "is_disabled": 0, "fusion_lon": 0.0, "bike_id": "83adca9aa21737560836710c1f0b83bd", "lon": -77.031793, "rental_uris": {"ios": "https://dc.lft.to/lastmile_qr_scan", "android": "https://dc.lft.to/lastmile_qr_scan"}}, {"name": "0bcb3e137b819184ec1d3a16481d54cb", "fusion_lat": 0.0, "type": "electric_scooter", "lat": 38.9104675, "is_reserved": 0, "is_disabled": 0, "fusion_lon": 0.0, "bike_id": "0bcb3e137b819184ec1d3a16481d54cb", "lon": -77.04261266666667, "rental_uris": {"ios": "https://dc.lft.to/lastmile_qr_scan", "android": "https://dc.lft.to/lastmile_qr_scan"}}, {"name": "3d1f80923552b0dbfc83b51b55c73d44", "fusion_lat": 0.0, "type": "electric_scooter", "lat": 38.905685, "is_reserved": 0, "is_disabled": 0, "fusion_lon": 0.0, "bike_id": "3d1f80923552b0dbfc83b51b55c73d44", "lon": -77.02212633333333, "rental_uris": {"ios": "https://dc.lft.to/lastmile_qr_scan", "android": "https://dc.lft.to/lastmile_qr_scan"}}, {"name": "23bce874477271424c0743f9d97efc9d", "fusion_lat": 0.0, "type": "electric_scooter", "lat": 38.9069455, "is_reserved": 0, "is_disabled": 0, "fusion_lon": 0.0, "bike_id": "23bce874477271424c0743f9d97efc9d", "lon": -77.02392816666666, "rental_uris": {"ios": "https://dc.lft.to/lastmile_qr_scan", "android": "https://dc.lft.to/lastmile_qr_scan"}}, {"name": "7a9ccb4312624081b094beef42a3c964", "fusion_lat": 0.0, "type": "electric_scooter", "lat": 38.907315, "is_reserved": 0, "is_disabled": 0, "fusion_lon": 0.0, "bike_id": "7a9ccb4312624081b094beef42a3c964", "lon": -77.0320665, "rental_uris": {"ios": "https://dc.lft.to/lastmile_qr_scan", "android": "https://dc.lft.to/lastmile_qr_scan"}}, {"name": "ff53a50d52ac4f02e49d0b4de9798fca", "fusion_lat": 0.0, "type": "electric_scooter", "lat": 38.9021695, "is_reserved": 0, "is_disabled": 0, "fusion_lon": 0.0, "bike_id": "ff53a50d52ac4f02e49d0b4de9798fca", "lon": -77.05128833333333, "rental_uris": {"ios": "https://dc.lft.to/lastmile_qr_scan", "android": "https://dc.lft.to/lastmile_qr_scan"}}, {"name": "a5ec932983a7fcb52b82871f0075be4f", "fusion_lat": 0.0, "type": "electric_scooter", "lat": 38.94091316666667, "is_reserved": 0, "is_disabled": 0, "fusion_lon": 0.0, "bike_id": "a5ec932983a7fcb52b82871f0075be4f", "lon": -77.01771183333334, "rental_uris": {"ios": "https://dc.lft.to/lastmile_qr_scan", "android": "https://dc.lft.to/lastmile_qr_scan"}}, {"name": "57a4fae6d200dacaa8f7780acd91f96c", "fusion_lat": 0.0, "type": "electric_scooter", "lat": 38.893551333333335, "is_reserved": 0, "is_disabled": 0, "fusion_lon": 0.0, "bike_id": "57a4fae6d200dacaa8f7780acd91f96c", "lon": -76.94985116666666, "rental_uris": {"ios": "https://dc.lft.to/lastmile_qr_scan", "android": "https://dc.lft.to/lastmile_qr_scan"}}, {"name": "c0c8964b24d82c5e29e4fbc3175e2c9a", "fusion_lat": 0.0, "type": "electric_bike", "lat": 38.90688316666667, "is_reserved": 0, "is_disabled": 0, "fusion_lon": 0.0, "bike_id": "c0c8964b24d82c5e29e4fbc3175e2c9a", "lon": -77.00021483333333, "rental_uris": {"ios": "https://dc.lft.to/lastmile_qr_scan", "android": "https://dc.lft.to/lastmile_qr_scan"}}, {"name": "3ede46a7b2019c251da790fe726fa59d", "fusion_lat": 0.0, "type": "electric_bike", "lat": 38.8343335, "is_reserved": 0, "is_disabled": 0, "fusion_lon": 0.0, "bike_id": "3ede46a7b2019c251da790fe726fa59d", "lon": -77.00826916666666, "rental_uris": {"ios": "https://dc.lft.to/lastmile_qr_scan", "android": "https://dc.lft.to/lastmile_qr_scan"}}, {"name": "b7b7e3532d845618a007feff1cebe0ff", "fusion_lat": 0.0, "type": "electric_bike", "lat": 38.869093, "is_reserved": 0, "is_disabled": 0, "fusion_lon": 0.0, "bike_id": "b7b7e3532d845618a007feff1cebe0ff", "lon": -77.13181116666667, "rental_uris": {"ios": "https://dc.lft.to/lastmile_qr_scan", "android": "https://dc.lft.to/lastmile_qr_scan"}}, {"name": "7b7decbffffea07dbafa9461c621f287", "fusion_lat": 0.0, "type": "electric_scooter", "lat": 38.90042666666667, "is_reserved": 0, "is_disabled": 0, "fusion_lon": 0.0, "bike_id": "7b7decbffffea07dbafa9461c621f287", "lon": -76.98827733333333, "rental_uris": {"ios": "https://dc.lft.to/lastmile_qr_scan", "android": "https://dc.lft.to/lastmile_qr_scan"}}, {"name": "36ff4a41abe5b4761ff580420e02e94d", "fusion_lat": 0.0, "type": "electric_scooter", "lat": 38.909660333333335, "is_reserved": 0, "is_disabled": 0, "fusion_lon": 0.0, "bike_id": "36ff4a41abe5b4761ff580420e02e94d", "lon": -77.02171466666667, "rental_uris": {"ios": "https://dc.lft.to/lastmile_qr_scan", "android": "https://dc.lft.to/lastmile_qr_scan"}}, {"name": "9997df97fa08a8f616709c9af4b71b0d", "fusion_lat": 0.0, "type": "electric_scooter", "lat": 38.903650999999996, "is_reserved": 0, "is_disabled": 0, "fusion_lon": 0.0, "bike_id": "9997df97fa08a8f616709c9af4b71b0d", "lon": -77.032016, "rental_uris": {"ios": "https://dc.lft.to/lastmile_qr_scan", "android": "https://dc.lft.to/lastmile_qr_scan"}}, {"name": "a5d467d5c0ed1d7039387b6964e3360a", "fusion_lat": 0.0, "type": "electric_scooter", "lat": 38.916831, "is_reserved": 0, "is_disabled": 0, "fusion_lon": 0.0, "bike_id": "a5d467d5c0ed1d7039387b6964e3360a", "lon": -77.03763316666667, "rental_uris": {"ios": "https://dc.lft.to/lastmile_qr_scan", "android": "https://dc.lft.to/lastmile_qr_scan"}}, {"name": "2bfc80e5d0774852d7e7546e37d571b3", "fusion_lat": 0.0, "type": "electric_scooter", "lat": 38.91228066666667, "is_reserved": 0, "is_disabled": 0, "fusion_lon": 0.0, "bike_id": "2bfc80e5d0774852d7e7546e37d571b3", "lon": -77.03837616666667, "rental_uris": {"ios": "https://dc.lft.to/lastmile_qr_scan", "android": "https://dc.lft.to/lastmile_qr_scan"}}, {"name": "ba8ed9c1ba7069b2a1d495fb599ed8fe", "fusion_lat": 0.0, "type": "electric_scooter", "lat": 38.8442535, "is_reserved": 0, "is_disabled": 0, "fusion_lon": 0.0, "bike_id": "ba8ed9c1ba7069b2a1d495fb599ed8fe", "lon": -76.99777866666666, "rental_uris": {"ios": "https://dc.lft.to/lastmile_qr_scan", "android": "https://dc.lft.to/lastmile_qr_scan"}}, {"name": "71720d1c0921a8303217f43c10185a66", "fusion_lat": 0.0, "type": "electric_scooter", "lat": 38.93151916666667, "is_reserved": 0, "is_disabled": 0, "fusion_lon": 0.0, "bike_id": "71720d1c0921a8303217f43c10185a66", "lon": -77.02958316666667, "rental_uris": {"ios": "https://dc.lft.to/lastmile_qr_scan", "android": "https://dc.lft.to/lastmile_qr_scan"}}, {"name": "35beb214e42b5f07ee6f1b5bec5dd167", "fusion_lat": 0.0, "type": "electric_scooter", "lat": 38.91230266666667, "is_reserved": 0, "is_disabled": 0, "fusion_lon": 0.0, "bike_id": "35beb214e42b5f07ee6f1b5bec5dd167", "lon": -77.051059, "rental_uris": {"ios": "https://dc.lft.to/lastmile_qr_scan", "android": "https://dc.lft.to/lastmile_qr_scan"}}, {"name": "d94c140c8e40db9ff174d0ecb41e6150", "fusion_lat": 0.0, "type": "electric_scooter", "lat": 38.9060685, "is_reserved": 0, "is_disabled": 0, "fusion_lon": 0.0, "bike_id": "d94c140c8e40db9ff174d0ecb41e6150", "lon": -77.056185, "rental_uris": {"ios": "https://dc.lft.to/lastmile_qr_scan", "android": "https://dc.lft.to/lastmile_qr_scan"}}, {"name": "fc6f1b9187e484f14e51e323d9096af1", "fusion_lat": 0.0, "type": "electric_scooter", "lat": 38.92267916666667, "is_reserved": 0, "is_disabled": 0, "fusion_lon": 0.0, "bike_id": "fc6f1b9187e484f14e51e323d9096af1", "lon": -77.03407916666667, "rental_uris": {"ios": "https://dc.lft.to/lastmile_qr_scan", "android": "https://dc.lft.to/lastmile_qr_scan"}}, {"name": "1a01e5615ee52d688351b67e7be652cd", "fusion_lat": 0.0, "type": "electric_bike", "lat": 38.96618983333333, "is_reserved": 0, "is_disabled": 0, "fusion_lon": 0.0, "bike_id": "1a01e5615ee52d688351b67e7be652cd", "lon": -76.944235, "rental_uris": {"ios": "https://dc.lft.to/lastmile_qr_scan", "android": "https://dc.lft.to/lastmile_qr_scan"}}, {"name": "7a6027ec6267097e3d0197c754069785", "fusion_lat": 0.0, "type": "electric_scooter", "lat": 38.93523866666666, "is_reserved": 0, "is_disabled": 0, "fusion_lon": 0.0, "bike_id": "7a6027ec6267097e3d0197c754069785", "lon": -77.03263316666667, "rental_uris": {"ios": "https://dc.lft.to/lastmile_qr_scan", "android": "https://dc.lft.to/lastmile_qr_scan"}}, {"name": "c8d1b1290b970fa1ea10f494309369d3", "fusion_lat": 0.0, "type": "electric_bike", "lat": 39.024204, "is_reserved": 0, "is_disabled": 0, "fusion_lon": 0.0, "bike_id": "c8d1b1290b970fa1ea10f494309369d3", "lon": -77.12503233333334, "rental_uris": {"ios": "https://dc.lft.to/lastmile_qr_scan", "android": "https://dc.lft.to/lastmile_qr_scan"}}, {"name": "f11c9d95f0d6bcb3b45ebb6c90485ad6", "fusion_lat": 0.0, "type": "electric_scooter", "lat": 38.90032266666667, "is_reserved": 0, "is_disabled": 0, "fusion_lon": 0.0, "bike_id": "f11c9d95f0d6bcb3b45ebb6c90485ad6", "lon": -77.011847, "rental_uris": {"ios": "https://dc.lft.to/lastmile_qr_scan", "android": "https://dc.lft.to/lastmile_qr_scan"}}, {"name": "653781e5593191bec855825e82e414f8", "fusion_lat": 0.0, "type": "electric_scooter", "lat": 38.906265, "is_reserved": 0, "is_disabled": 0, "fusion_lon": 0.0, "bike_id": "653781e5593191bec855825e82e414f8", "lon": -77.03631816666666, "rental_uris": {"ios": "https://dc.lft.to/lastmile_qr_scan", "android": "https://dc.lft.to/lastmile_qr_scan"}},