{"data": {"bikes": [{"name": "a34cf598a0e25174d6b139972fc7b7b7", "lon": -77.04084733333333, "lat": 38.9105745, "type": "electric_scooter", "fusion_lon": 0.0, "is_reserved": 0, "bike_id": "a34cf598a0e25174d6b139972fc7b7b7", "fusion_lat": 0.0, "is_disabled": 0, "rental_uris": {"ios": "https://dc.lft.to/lastmile_qr_scan", "android": "https://dc.lft.to/lastmile_qr_scan"}}, {"name": "ce8a0c159f9b75c4c1abd4c694d78090", "lon": -77.04278683333334, "lat": 38.90536516666667, "type": "electric_scooter", "fusion_lon": 0.0, "is_reserved": 0, "bike_id": "ce8a0c159f9b75c4c1abd4c694d78090", "fusion_lat": 0.0, "is_disabled": 0, "rental_uris": {"ios": "https://dc.lft.to/lastmile_qr_scan", "android": "https://dc.lft.to/lastmile_qr_scan"}}, {"name": "36a0a7002547b4d3e39296bfc72d6868", "lon": -77.02216866666667, "lat": 38.916238666666665, "type": "electric_scooter", "fusion_lon": 0.0, "is_reserved": 0, "bike_id": "36a0a7002547b4d3e39296bfc72d6868", "fusion_lat": 0.0, "is_disabled": 0, "rental_uris": {"ios": "https://dc.lft.to/lastmile_qr_scan", "android": "https://dc.lft.to/lastmile_qr_scan"}}, {"name": "621b0f7f6bc3bc5f80ece379c65ad122", "lon": -77.02300383333333, "lat": 38.92084533333333, "type": "electric_scooter", "fusion_lon": 0.0, "is_reserved": 0, "bike_id": "621b0f7f6bc3bc5f80ece379c65ad122", "fusion_lat": 0.0, "is_disabled": 0, "rental_uris": {"ios": "https://dc.lft.to/lastmile_qr_scan", "android": "https://dc.lft.to/lastmile_qr_scan"}}, {"name": "6eb67baa4b9f82bfece2e5b429e7c31a", "lon": -77.00241716666666, "lat": 38.95723016666667, "type": "electric_scooter", "fusion_lon": 0.0, "is_reserved": 0, "bike_id": "6eb67baa4b9f82bfece2e5b429e7c31a", "fusion_lat": 0.0, "is_disabled": 0, "rental_uris": {"ios": "https://dc.lft.to/lastmile_qr_scan", "android": "https://dc.lft.to/lastmile_qr_scan"}}, {"name": "942572136e1a345865ca698caf9112d7", "lon": -77.07846116666667, "lat": 38.93155016666667, "type": "electric_bike", "fusion_lon": 0.0, "is_reserved": 0, "bike_id": "942572136e1a345865ca698caf9112d7", "fusion_lat": 0.0, "is_disabled": 0, "rental_uris": {"ios": "https://dc.lft.to/lastmile_qr_scan", "android": "https://dc.lft.to/lastmile_qr_scan"}}, {"name": "3a6f88ec6d6e08d5e1ed437b422fad49", "lon": -77.0531365, "lat": 38.90265383333333, "type": "electric_scooter", "fusion_lon": 0.0, "is_reserved": 0, "bike_id": "3a6f88ec6d6e08d5e1ed437b422fad49", "fusion_lat": 0.0, "is_disabled": 0, "rental_uris": {"ios": "https://dc.lft.to/lastmile_qr_scan", "android": "https://dc.lft.to/lastmile_qr_scan"}}, {"name": "83420fd1bc8ed43e16975bc73ff7ab3e", "lon": -77.032012, "lat": 38.90444633333333, "type": "electric_scooter", "fusion_lon": 0.0, "is_reserved": 0, "bike_id": "83420fd1bc8ed43e16975bc73ff7ab3e", "fusion_lat": 0.0, "is_disabled": 0, "rental_uris": {"ios": "https://dc.lft.to/lastmile_qr_scan", "android": "https://dc.lft.to/lastmile_qr_scan"}}, {"name": "ab27a620d8d5b5517da15726dbe82cfa", "lon": -77.0399965, "lat": 38.912603, "type": "electric_scooter", "fusion_lon": 0.0, "is_reserved": 0, "bike_id": "ab27a620d8d5b5517da15726dbe82cfa", "fusion_lat": 0.0, "is_disabled": 0, "rental_uris": {"ios": "https://dc.lft.to/lastmile_qr_scan", "android": "https://dc.lft.to/lastmile_qr_scan"}}, {"name": "cff382a19f29fd7c36b67b14d9076517", "lon": -77.030957, "lat": 38.928549333333336, "type": "electric_scooter", "fusion_lon": 0.0, "is_reserved": 0, "bike_id": "cff382a19f29fd7c36b67b14d9076517", "fusion_lat": 0.0, "is_disabled": 0, "rental_uris": {"ios": "https://dc.lft.to/lastmile_qr_scan", "android": "https://dc.lft.to/lastmile_qr_scan"}}, {"name": "315180a4dc5c4c8ccd34cdf19aba807f", "lon": -76.99858516666667, "lat": 38.90366083333333, "type": "electric_scooter", "fusion_lon": 0.0, "is_reserved": 0, "bike_id": "315180a4dc5c4c8ccd34cdf19aba807f", "fusion_lat": 0.0, "is_disabled": 0, "rental_uris": {"ios": "https://dc.lft.to/lastmile_qr_scan", "android": "https://dc.lft.to/lastmile_qr_scan"}}, {"name": "b545a3d81be325ca24fff91d6ad4320b", "lon": -77.01734183333333, "lat": 38.903598333333335, "type": "electric_scooter", "fusion_lon": 0.0, "is_reserved": 0, "bike_id": "b545a3d81be325ca24fff91d6ad4320b", "fusion_lat": 0.0, "is_disabled": 0, "rental_uris": {"ios": "https://dc.lft.to/lastmile_qr_scan", "android": "https://dc.lft.to/lastmile_qr_scan"}}, {"name": "7409574dada10c34951ade9e08ccec3a", "lon": -77.227989, "lat": 38.910156666666666, "type": "electric_bike", "fusion_lon": 0.0, "is_reserved": 0, "bike_id": "7409574dada10c34951ade9e08ccec3a", "fusion_lat": 0.0, "is_disabled": 0, "rental_uris": {"ios": "https://dc.lft.to/lastmile_qr_scan", "android": "https://dc.lft.to/lastmile_qr_scan"}}, {"name": "44e4f83ed5a3f006eda8a5f7813f7de6", "lon": -77.01362566666667, "lat": 38.893224333333336, "type": "electric_scooter", "fusion_lon": 0.0, "is_reserved": 0, "bike_id": "44e4f83ed5a3f006eda8a5f7813f7de6", "fusion_lat": 0.0, "is_disabled": 0, "rental_uris": {"ios": "https://dc.lft.to/lastmile_qr_scan", "android": "https://dc.lft.to/lastmile_qr_scan"}}, {"name": "8418436f291d7ccf3504e6ecc6ea4cd0", "lon": -77.025032, "lat": 38.906366, "type": "electric_scooter", "fusion_lon": 0.0, "is_reserved": 0, "bike_id": "8418436f291d7ccf3504e6ecc6ea4cd0", "fusion_lat": 0.0, "is_disabled": 0, "rental_uris": {"ios": "https://dc.lft.to/lastmile_qr_scan", "android": "https://dc.lft.to/lastmile_qr_scan"}}, {"name": "50271a5a634c819975bb3ce8b180f2d1", "lon": -76.996286, "lat": 38.900347833333335, "type": "electric_scooter", "fusion_lon": 0.0, "is_reserved": 0, "bike_id": "50271a5a634c819975bb3ce8b180f2d1", "fusion_lat": 0.0, "is_disabled": 0, "rental_uris": {"ios": "https://dc.lft.to/lastmile_qr_scan", "android": "https://dc.lft.to/lastmile_qr_scan"}}, {"name": "4ded2b1006e095321e73b4ba68b8b6a6", "lon": -77.09521166666667, "lat": 38.83813983333334, "type": "electric_bike", "fusion_lon": 0.0, "is_reserved": 0, "bike_id": "4ded2b1006e095321e73b4ba68b8b6a6", "fusion_lat": 0.0, "is_disabled": 0, "rental_uris": {"ios": "https://dc.lft.to/lastmile_qr_scan", "android": "https://dc.lft.to/lastmile_qr_scan"}}, {"name": "0ba9b4abf0fcac5f46f0c8350bd04344", "lon": -77.04830616666666, "lat": 38.911091, "type": "electric_scooter", "fusion_lon": 0.0, "is_reserved": 0, "bike_id": "0ba9b4abf0fcac5f46f0c8350bd04344", "fusion_lat": 0.0, "is_disabled": 0, "rental_uris": {"ios": "https://dc.lft.to/lastmile_qr_scan", "android": "https://dc.lft.to/lastmile_qr_scan"}}, {"name": "e81cd60a6a517fb10c3b46a49b11b6b0", "lon": -77.0338745, "lat": 38.9286975, "type": "electric_scooter", "fusion_lon": 0.0, "is_reserved": 0, "bike_id": "e81cd60a6a517fb10c3b46a49b11b6b0", "fusion_lat": 0.0, "is_disabled": 0, "rental_uris": {"ios": "https://dc.lft.to/lastmile_qr_scan", "android": "https://dc.lft.to/lastmile_qr_scan"}}, {"name": "20707bc2f80573af355211c025cbae8c", "lon": -77.025296, "lat": 38.9426145, "type": "electric_scooter", "fusion_lon": 0.0, "is_reserved": 0, "bike_id": "20707bc2f80573af355211c025cbae8c", "fusion_lat": 0.0, "is_disabled": 0, "rental_uris": {"ios": "https://dc.lft.to/lastmile_qr_scan", "android": "https://dc.lft.to/lastmile_qr_scan"}}, {"name": "8b13649c85782d92f8b46097de5e04ad", "lon": -77.02885533333334, "lat": 38.913352, "type": "electric_scooter", "fusion_lon": 0.0, "is_reserved": 0, "bike_id": "8b13649c85782d92f8b46097de5e04ad", "fusion_lat": 0.0, "is_disabled": 0, "rental_uris": {"ios": "https://dc.lft.to/lastmile_qr_scan", "android": "https://dc.lft.to/lastmile_qr_scan"}}, {"name": "53864893c7b01d83b0811a5395e098a1", "lon": -77.0337355, "lat": 38.910403, "type": "electric_scooter", "fusion_lon": 0.0, "is_reserved": 0, "bike_id": "53864893c7b01d83b0811a5395e098a1", "fusion_lat": 0.0, "is_disabled": 0, "rental_uris": {"ios": "https://dc.lft.to/lastmile_qr_scan", "android": "https://dc.lft.to/lastmile_qr_scan"}}, {"name": "70a0649ff9bbd29c2db63781c424830e", "lon": -77.02349833333334, "lat": 38.87957766666667, "type": "electric_scooter", "fusion_lon": 0.0, "is_reserved": 0, "bike_id": "70a0649ff9bbd29c2db63781c424830e", "fusion_lat": 0.0, "is_disabled": 0, "rental_uris": {"ios": "https://dc.lft.to/lastmile_qr_scan", "android": "https://dc.lft.to/lastmile_qr_scan"}}, {"name": "87dc7e977f1acd0f14228640d61bee2b", "lon": -77.07315333333334, "lat": 38.935655833333335, "type": "electric_scooter", "fusion_lon": 0.0, "is_reserved": 0, "bike_id": "87dc7e977f1acd0f14228640d61bee2b", "fusion_lat": 0.0, "is_disabled": 0, "rental_uris": {"ios": "https://dc.lft.to/lastmile_qr_scan", "android": "https://dc.lft.to/lastmile_qr_scan"}}, {"name": "851ee1a9627c12957832af8934a12da5", "lon": -77.02429816666667, "lat": 38.95626216666667, "type": "electric_scooter", "fusion_lon": 0.0, "is_reserved": 0, "bike_id": "851ee1a9627c12957832af8934a12da5", "fusion_lat": 0.0, "is_disabled": 0, "rental_uris": {"ios": "https://dc.lft.to/lastmile_qr_scan", "android": "https://dc.lft.to/lastmile_qr_scan"}}, {"name": "823981215eb42153dda1b2d7b0b8c4dc", "lon": -76.99946833333334, "lat": 38.842941833333335, "type": "electric_scooter", "fusion_lon": 0.0, "is_reserved": 0, "bike_id": "823981215eb42153dda1b2d7b0b8c4dc", "fusion_lat": 0.0, "is_disabled": 0, "rental_uris": {"ios": "https://dc.lft.to/lastmile_qr_scan", "android": "https://dc.lft.to/lastmile_qr_scan"}}, {"name": "4ae4946a14c1b5c67964b3e78a72b4a9", "lon": -77.08594216666667, "lat": 38.90870433333333, "type": "electric_scooter", "fusion_lon": 0.0, "is_reserved": 0, "bike_id": "4ae4946a14c1b5c67964b3e78a72b4a9", "fusion_lat": 0.0, "is_disabled": 0, "rental_uris": {"ios": "https://dc.lft.to/lastmile_qr_scan", "android": "https://dc.lft.to/lastmile_qr_scan"}}, {"name": "c7f8c071b1d3c85854433724b83962cf", "lon": -76.9853455, "lat": 38.9095255, "type": "electric_scooter", "fusion_lon": 0.0, "is_reserved": 0, "bike_id": "c7f8c071b1d3c85854433724b83962cf", "fusion_lat": 0.0, "is_disabled": 0, "rental_uris": {"ios": "https://dc.lft.to/lastmile_qr_scan", "android": "https://dc.lft.to/lastmile_qr_scan"}}, {"name": "f568e3dac7149d2b1a259bc86938398f", "lon": -77.043355, "lat": 38.89522983333333, "type": "electric_scooter", "fusion_lon": 0.0, "is_reserved": 0, "bike_id": "f568e3dac7149d2b1a259bc86938398f", "fusion_lat": 0.0, "is_disabled": 0, "rental_uris": {"ios": "https://dc.lft.to/lastmile_qr_scan", "android": "https://dc.lft.to/lastmile_qr_scan"}}, {"name": "d577817b5948d213ab891505a041fcd9", "lon": -76.95017333333334, "lat": 38.89389283333333, "type": "electric_scooter", "fusion_lon": 0.0, "is_reserved": 0, "bike_id": "d577817b5948d213ab891505a041fcd9", "fusion_lat": 0.0, "is_disabled": 0, "rental_uris": {"ios": "https://dc.lft.to/lastmile_qr_scan", "android": "https://dc.lft.to/lastmile_qr_scan"}}, {"name": "2735b03d9cf8ad2f99ff7da11e2f8949", "lon": -77.03354316666666, "lat": 38.88626683333333, "type": "electric_scooter", "fusion_lon": 0.0, "is_reserved": 0, "bike_id": "2735b03d9cf8ad2f99ff7da11e2f8949", "fusion_lat": 0.0, "is_disabled": 0, "rental_uris": {"ios": "https://dc.lft.to/lastmile_qr_scan", "android": "https://dc.lft.to/lastmile_qr_scan"}}, {"name": "2dbaa8b66d4aeac147a49e272323172d", "lon": -76.964684, "lat": 38.93447283333333, "type": "electric_scooter", "fusion_lon": 0.0, "is_reserved": 0, "bike_id": "2dbaa8b66d4aeac147a49e272323172d", "fusion_lat": 0.0, "is_disabled": 0, "rental_uris": {"ios": "https://dc.lft.to/lastmile_qr_scan", "android": "https://dc.lft.to/lastmile_qr_scan"}}, {"name": "a9fce6563dab3e906ea0d13b533f47fb", "lon": -77.02501, "lat": 38.91969616666667, "type": "electric_bike", "fusion_lon": 0.0, "is_reserved": 0, "bike_id": "a9fce6563dab3e906ea0d13b533f47fb", "fusion_lat": 0.0, "is_disabled": 0, "rental_uris": {"ios": "https://dc.lft.to/lastmile_qr_scan", "android": "https://dc.lft.to/lastmile_qr_scan"}}, {"name": "d021bfa9bb7e6d1bb03432148e956baf", "lon": -76.92925333333334, "lat": 38.89292733333333, "type": "electric_scooter", "fusion_lon": 0.0, "is_reserved": 0, "bike_id": "d021bfa9bb7e6d1bb03432148e956baf", "fusion_lat": 0.0, "is_disabled": 0, "rental_uris": {"ios": "https://dc.lft.to/lastmile_qr_scan", "android": "https://dc.lft.to/lastmile_qr_scan"}}, {"name": "ee42377c8a1b695b70bbc1f0440ff431", "lon": -77.01701216666666, "lat": 38.9749815, "type": "electric_scooter", "fusion_lon": 0.0, "is_reserved": 0, "bike_id": "ee42377c8a1b695b70bbc1f0440ff431", "fusion_lat": 0.0, "is_disabled": 0, "rental_uris": {"ios": "https://dc.lft.to/lastmile_qr_scan", "android": "https://dc.lft.to/lastmile_qr_scan"}}, {"name": "6cab599873e78f5ab71130598a189e8a", "lon": -77.0219975, "lat": 38.910575, "type": "electric_scooter", "fusion_lon": 0.0, "is_reserved": 0, "bike_id": "6cab599873e78f5ab71130598a189e8a", "fusion_lat": 0.0, "is_disabled": 0, "rental_uris": {"ios": "https://dc.lft.to/lastmile_qr_scan", "android": "https://dc.lft.to/lastmile_qr_scan"}}, {"name": "280322e9801a7fbb45974c6360bac64c", "lon": -76.94807933333334, "lat": 38.893939333333336, "type": "electric_bike", "fusion_lon": 0.0, "is_reserved": 0, "bike_id": "280322e9801a7fbb45974c6360bac64c", "fusion_lat": 0.0, "is_disabled": 0, "rental_uris": {"ios": "https://dc.lft.to/lastmile_qr_scan", "android": "https://dc.lft.to/lastmile_qr_scan"}}, {"name": "398e02908cb19855d81206c2d2457eeb", "lon": -77.0384185, "lat": 38.867417833333334, "type": "electric_scooter", "fusion_lon": 0.0, "is_reserved": 0, "bike_id": "398e02908cb19855d81206c2d2457eeb", "fusion_lat": 0.0, "is_disabled": 0, "rental_uris": {"ios": "https://dc.lft.to/lastmile_qr_scan", "android": "https://dc.lft.to/lastmile_qr_scan"}}, {"name": "b3c94eaac3ef0a31e26f7980b1b85fe0", "lon": -76.96067333333333, "lat": 38.88406033333333, "type": "electric_bike", "fusion_lon": 0.0, "is_reserved": 0, "bike_id": "b3c94eaac3ef0a31e26f7980b1b85fe0", "fusion_lat": 0.0, "is_disabled": 0, "rental_uris": {"ios": "https://dc.lft.to/lastmile_qr_scan", "android": "https://dc.lft.to/lastmile_qr_scan"}}, {"name": "f044e2056171dd13ea7cb4baa90f8198", "lon": -76.99333666666666, "lat": 38.8714305, "type": "electric_scooter", "fusion_lon": 0.0, "is_reserved": 0, "bike_id": "f044e2056171dd13ea7cb4baa90f8198", "fusion_lat": 0.0, "is_disabled": 0, "rental_uris": {"ios": "https://dc.lft.to/lastmile_qr_scan", "android": "https://dc.lft.to/lastmile_qr_scan"}}, {"name": "2ae619d16c6774e53eb969e070cbc11b", "lon": -76.98872516666667, "lat": 38.954807, "type": "electric_bike", "fusion_lon": 0.0, "is_reserved": 0, "bike_id": "2ae619d16c6774e53eb969e070cbc11b", "fusion_lat": 0.0, "is_disabled": 0, "rental_uris": {"ios": "https://dc.lft.to/lastmile_qr_scan", "android": "https://dc.lft.to/lastmile_qr_scan"}}, {"name": "34134e9ffa608e2b1e5f6e5d0591ad74", "lon": -77.05818566666666, "lat": 38.935622, "type": "electric_scooter", "fusion_lon": 0.0, "is_reserved": 0, "bike_id": "34134e9ffa608e2b1e5f6e5d0591ad74", "fusion_lat": 0.0, "is_disabled": 0, "rental_uris": {"ios": "https://dc.lft.to/lastmile_qr_scan", "android": "https://dc.lft.to/lastmile_qr_scan"}}, {"name": "e487fb08686a23d830a1720ff48609a1", "lon": -77.03339916666667, "lat": 38.92055783333333, "type": "electric_scooter", "fusion_lon": 0.0, "is_reserved": 0, "bike_id": "e487fb08686a23d830a1720ff48609a1", "fusion_lat": 0.0, "is_disabled": 0, "rental_uris": {"ios": "https://dc.lft.to/lastmile_qr_scan", "android": "https://dc.lft.to/lastmile_qr_scan"}}, {"name": "01ddca1e4b5f00a615f2e1378a4705d0", "lon": -77.04138566666667, "lat": 38.92295766666667, "type": "electric_bike", "fusion_lon": 0.0, "is_reserved": 0, "bike_id": "01ddca1e4b5f00a615f2e1378a4705d0", "fusion_lat": 0.0, "is_disabled": 0, "rental_uris": {"ios": "https://dc.lft.to/lastmile_qr_scan", "android": "https://dc.lft.to/lastmile_qr_scan"}}, {"name": "c3d811e3587bcebd4e8db562ff0ad415", "lon": -77.03273883333334, "lat": 38.93724383333333, "type": "electric_scooter", "fusion_lon": 0.0, "is_reserved": 0, "bike_id": "c3d811e3587bcebd4e8db562ff0ad415", "fusion_lat": 0.0, "is_disabled": 0, "rental_uris": {"ios": "https://dc.lft.to/lastmile_qr_scan", "android": "https://dc.lft.to/lastmile_qr_scan"}}, {"name": "9cd923662f482821aedd23a5d43e5f89", "lon": -77.02420816666667, "lat": 38.9073075, "type": "electric_scooter", "fusion_lon": 0.0, "is_reserved": 0, "bike_id": "9cd923662f482821aedd23a5d43e5f89", "fusion_lat": 0.0, "is_disabled": 0, "rental_uris": {"ios": "https://dc.lft.to/lastmile_qr_scan", "android": "https://dc.lft.to/lastmile_qr_scan"}}, {"name": "a60b7cea856b8afcbd1e985f1b9e9796", "lon": -76.98665933333334, "lat": 38.90250983333333, "type": "electric_scooter", "fusion_lon": 0.0, "is_reserved": 0, "bike_id": "a60b7cea856b8afcbd1e985f1b9e9796", "fusion_lat": 0.0, "is_disabled": 0, "rental_uris": {"ios": "https://dc.lft.to/lastmile_qr_scan", "android": "https://dc.lft.to/lastmile_qr_scan"}}, {"name": "5b5bdec17d9789524718fac3b0296b04", "lon": -77.039896, "lat": 38.917537333333335, "type": "electric_scooter", "fusion_lon": 0.0, "is_reserved": 0, "bike_id": "5b5bdec17d9789524718fac3b0296b04", "fusion_lat": 0.0, "is_disabled": 0, "rental_uris": {"ios": "https://dc.lft.to/lastmile_qr_scan", "android": "https://dc.lft.to/lastmile_qr_scan"}}, {"name": "6cd52b3835902938ff6854a96e43ed16", "lon": -77.13478316666667, "lat": 38.853479666666665, "type": "electric_bike", "fusion_lon": 0.0, "is_reserved": 0, "bike_id": "6cd52b3835902938ff6854a96e43ed16", "fusion_lat": 0.0, "is_disabled": 0, "rental_uris": {"ios": "https://dc.lft.to/lastmile_qr_scan", "android": "https://dc.lft.to/lastmile_qr_scan"}}, {"name": "42a725176f2d07af72c6adfd44f7bf7c", "lon": -77.0416205, "lat": 38.907385166666664, "type": "electric_scooter", "fusion_lon": 0.0, "is_reserved": 0, "bike_id": "42a725176f2d07af72c6adfd44f7bf7c", "fusion_lat": 0.0, "is_disabled": 0, "rental_uris": {"ios": "https://dc.lft.to/lastmile_qr_scan", "android": "https://dc.lft.to/lastmile_qr_scan"}}, {"name": "2e12825319345847b731f46231efebd5", "lon": -77.03195, "lat": 38.90827016666667, "type": "electric_scooter", "fusion_lon": 0.0, "is_reserved": 0, "bike_id": "2e12825319345847b731f46231efebd5", "fusion_lat": 0.0, "is_disabled": 0, "rental_uris": {"ios": "https://dc.lft.to/lastmile_qr_scan", "android": "https://dc.lft.to/lastmile_qr_scan"}}, {"name": "3d31086cb06db2c85469a6127de378d3", "lon": -77.0079685, "lat": 38.8971785, "type": "electric_scooter", "fusion_lon": 0.0, "is_reserved": 0, "bike_id": "3d31086cb06db2c85469a6127de378d3", "fusion_lat": 0.0, "is_disabled": 0, "rental_uris": {"ios": "https://dc.lft.to/lastmile_qr_scan", "android": "https://dc.lft.to/lastmile_qr_scan"}}, {"name": "c5a319c52d5f444d31dce8bb56e5a37e", "lon": -77.00567233333334, "lat": 38.88502583333333, "type": "electric_scooter", "fusion_lon": 0.0, "is_reserved": 0, "bike_id": "c5a319c52d5f444d31dce8bb56e5a37e", "fusion_lat": 0.0, "is_disabled": 0, "rental_uris": {"ios": "https://dc.lft.to/lastmile_qr_scan", "android": "https://dc.lft.to/lastmile_qr_scan"}}, {"name": "5cee52fe8dcd166c1f3c40ce8b02c33f", "lon": -76.99064683333333, "lat": 38.92746666666667, "type": "electric_scooter", "fusion_lon": 0.0, "is_reserved": 0, "bike_id": "5cee52fe8dcd166c1f3c40ce8b02c33f", "fusion_lat": 0.0, "is_disabled": 0, "rental_uris": {"ios": "https://dc.lft.to/lastmile_qr_scan", "android": "https://dc.lft.to/lastmile_qr_scan"}}, {"name": "b222c9894f221fa93ec55b9cd915e200", "lon": -77.03593816666667, "lat": 38.916239, "type": "electric_scooter", "fusion_lon": 0.0, "is_reserved": 0, "bike_id": "b222c9894f221fa93ec55b9cd915e200", "fusion_lat": 0.0, "is_disabled": 0, "rental_uris": {"ios": "https://dc.lft.to/lastmile_qr_scan", "android": "https://dc.lft.to/lastmile_qr_scan"}}, {"name": "0630223e0e2502954efee0c76761a096", "lon": -77.034012, "lat": 38.931234333333336, "type": "electric_scooter", "fusion_lon": 0.0, "is_reserved": 0, "bike_id": "0630223e0e2502954efee0c76761a096", "fusion_lat": 0.0, "is_disabled": 0, "rental_uris": {"ios": "https://dc.lft.to/lastmile_qr_scan", "android": "https://dc.lft.to/lastmile_qr_scan"}}, {"name": "431f3efc690d1e936434f16f7e661b6e", "lon": -77.01138066666667, "lat": 38.88036983333333, "type": "electric_scooter", "fusion_lon": 0.0, "is_reserved": 0, "bike_id": "431f3efc690d1e936434f16f7e661b6e", "fusion_lat": 0.0, "is_disabled": 0, "rental_uris": {"ios": "https://dc.lft.to/lastmile_qr_scan", "android": "https://dc.lft.to/lastmile_qr_scan"}}, {"name": "900cd2239f1f27670e7074e0b4b8b9f6", "lon": -77.03061483333333, "lat": 38.897607, "type": "electric_scooter", "fusion_lon": 0.0, "is_reserved": 0, "bike_id": "900cd2239f1f27670e7074e0b4b8b9f6", "fusion_lat": 0.0, "is_disabled": 0, "rental_uris": {"ios": "https://dc.lft.to/lastmile_qr_scan", "android": "https://dc.lft.to/lastmile_qr_scan"}}, {"name": "4e25c5cad2b928ab3808955cc7a20e1c", "lon": -77.02174516666666, "lat": 38.914280166666664, "type": "electric_scooter", "fusion_lon": 0.0, "is_reserved": 0, "bike_id": "4e25c5cad2b928ab3808955cc7a20e1c", "fusion_lat": 0.0, "is_disabled": 0, "rental_uris": {"ios": "https://dc.lft.to/lastmile_qr_scan", "android": "https://dc.lft.to/lastmile_qr_scan"}}, {"name": "22c31ed8e5770fd0389bc30947ba6032", "lon": -77.03246983333334, "lat": 38.923557, "type": "electric_scooter", "fusion_lon": 0.0, "is_reserved": 0, "bike_id": "22c31ed8e5770fd0389bc30947ba6032", "fusion_lat": 0.0, "is_disabled": 0, "rental_uris": {"ios": "https://dc.lft.to/lastmile_qr_scan", "android": "https://dc.lft.to/lastmile_qr_scan"}}, {"name": "bdf63a11f096ebbbffbe89842a82bab5", "lon": -77.05193516666667, "lat": 38.903819666666664, "type": "electric_scooter", "fusion_lon": 0.0, "is_reserved": 0, "bike_id": "bdf63a11f096ebbbffbe89842a82bab5", "fusion_lat": 0.0, "is_disabled": 0, "rental_uris": {"ios": "https://dc.lft.to/lastmile_qr_scan", "android": "https://dc.lft.to/lastmile_qr_scan"}}, {"name": "6e7834fad19e774f8e7219c074700058", "lon": -77.028757, "lat": 38.90417133333333, "type": "electric_scooter", "fusion_lon": 0.0, "is_reserved": 0, "bike_id": "6e7834fad19e774f8e7219c074700058", "fusion_lat": 0.0, "is_disabled": 0, "rental_uris": {"ios": "https://dc.lft.to/lastmile_qr_scan", "android": "https://dc.lft.to/lastmile_qr_scan"}}, {"name": "9473896ad3b315bc2f3914a182dd55ee", "lon": -77.02801383333333, "lat": 38.93306416666667, "type": "electric_scooter", "fusion_lon": 0.0, "is_reserved": 0, "bike_id": "9473896ad3b315bc2f3914a182dd55ee", "fusion_lat": 0.0, "is_disabled": 0, "rental_uris": {"ios": "https://dc.lft.to/lastmile_qr_scan", "android": "https://dc.lft.to/lastmile_qr_scan"}}, {"name": "ac30359b6e194f4310475473e9a1c0b1", "lon": -77.0027165, "lat": 38.88714266666667, "type": "electric_scooter", "fusion_lon": 0.0, "is_reserved": 0, "bike_id": "ac30359b6e194f4310475473e9a1c0b1", "fusion_lat": 0.0, "is_disabled": 0, "rental_uris": {"ios": "https://dc.lft.to/lastmile_qr_scan", "android": "https://dc.lft.to/lastmile_qr_scan"}}, {"name": "ee988b419ae13542a20efa3b2f002252", "lon": -77.03359316666666, "lat": 38.92885866666667, "type": "electric_scooter", "fusion_lon": 0.0, "is_reserved": 0, "bike_id": "ee988b419ae13542a20efa3b2f002252", "fusion_lat": 0.0, "is_disabled": 0, "rental_uris": {"ios": "https://dc.lft.to/lastmile_qr_scan", "android": "https://dc.lft.to/lastmile_qr_scan"}}, {"name": "47fc5160e8230936d21127f4d4950c3e", "lon": -77.02397633333334, "lat": 38.91743233333333, "type": "electric_scooter", "fusion_lon": 0.0, "is_reserved": 0, "bike_id": "47fc5160e8230936d21127f4d4950c3e", "fusion_lat": 0.0, "is_disabled": 0, "rental_uris": {"ios": "https://dc.lft.to/lastmile_qr_scan", "android": "https://dc.lft.to/lastmile_qr_scan"}}, {"name": "16dc3ab7459864376c7b31e6e9176e14", "lon": -77.04701483333334, "lat": 38.90253033333333, "type": "electric_scooter", "fusion_lon": 0.0, "is_reserved": 0, "bike_id": "16dc3ab7459864376c7b31e6e9176e14", "fusion_lat": 0.0, "is_disabled": 0, "rental_uris": {"ios": "https://dc.lft.to/lastmile_qr_scan", "android": "https://dc.lft.to/lastmile_qr_scan"}}, {"name": "941003a71846aff76564da54adbbd7d7", "lon": -76.9671005, "lat": 38.847956, "type": "electric_scooter", "fusion_lon": 0.0, "is_reserved": 0, "bike_id": "941003a71846aff76564da54adbbd7d7", "fusion_lat": 0.0, "is_disabled": 0, "rental_uris": {"ios": "https://dc.lft.to/lastmile_qr_scan", "android": "https://dc.lft.to/lastmile_qr_scan"}}, {"name": "51e85869b8547d1381d55e209b0a8794", "lon": -77.02346316666667, "lat": 38.94612866666667, "type": "electric_scooter", "fusion_lon": 0.0, "is_reserved": 0, "bike_id": "51e85869b8547d1381d55e209b0a8794", "fusion_lat": 0.0, "is_disabled": 0, "rental_uris": {"ios": "https://dc.lft.to/lastmile_qr_scan", "android": "https://dc.lft.to/lastmile_qr_scan"}}, {"name": "032e9f13014e2858508ca5cfff866eb0", "lon": -77.0513345, "lat": 38.907122, "type": "electric_scooter", "fusion_lon": 0.0, "is_reserved": 0, "bike_id": "032e9f13014e2858508ca5cfff866eb0", "fusion_lat": 0.0, "is_disabled": 0, "rental_uris": {"ios": "https://dc.lft.to/lastmile_qr_scan", "android": "https://dc.lft.to/lastmile_qr_scan"}}, {"name": "08d7e6e18816b4fba328997f88efb922", "lon": -76.92331216666666, "lat": 38.87110116666667, "type": "electric_bike", "fusion_lon": 0.0, "is_reserved": 0, "bike_id": "08d7e6e18816b4fba328997f88efb922", "fusion_lat": 0.0, "is_disabled": 0, "rental_uris": {"ios": "https://dc.lft.to/lastmile_qr_scan", "android": "https://dc.lft.to/lastmile_qr_scan"}}, {"name": "63556892629656d7d87ba2c40656947c", "lon": -76.94425366666667, "lat": 38.966206166666666, "type": "electric_bike", "fusion_lon": 0.0, "is_reserved": 0, "bike_id": "63556892629656d7d87ba2c40656947c", "fusion_lat": 0.0, "is_disabled": 0, "rental_uris": {"ios": "https://dc.lft.to/lastmile_qr_scan", "android": "https://dc.lft.to/lastmile_qr_scan"}}, {"name": "673696faa8136af59091e3dfeacb6f05", "lon": -77.02488533333333, "lat": 38.9208905, "type": "electric_scooter", "fusion_lon": 0.0, "is_reserved": 0, "bike_id": "673696faa8136af59091e3dfeacb6f05", "fusion_lat": 0.0, "is_disabled": 0, "rental_uris": {"ios": "https://dc.lft.to/lastmile_qr_scan", "android": "https://dc.lft.to/lastmile_qr_scan"}}, {"name": "0ee9c3ac60d427d19cfa5761b99ae7d9", "lon": -77.0427385, "lat": 38.914316, "type": "electric_scooter", "fusion_lon": 0.0, "is_reserved": 0, "bike_id": "0ee9c3ac60d427d19cfa5761b99ae7d9", "fusion_lat": 0.0, "is_disabled": 0, "rental_uris": {"ios": "https://dc.lft.to/lastmile_qr_scan", "android": "https://dc.lft.to/lastmile_qr_scan"}}, {"name": "df34387d0a503ae3ebf253d3f6aeabe9", "lon": -77.048598, "lat": 38.90954416666667, "type": "electric_scooter", "fusion_lon": 0.0, "is_reserved": 0, "bike_id": "df34387d0a503ae3ebf253d3f6aeabe9", "fusion_lat": 0.0, "is_disabled": 0, "rental_uris": {"ios": "https://dc.lft.to/lastmile_qr_scan", "android": "https://dc.lft.to/lastmile_qr_scan"}}, {"name": "4ffa2296646d54f3cdbd62a47a89537b", "lon": -77.04554533333334, "lat": 38.90236683333333, "type": "electric_scooter", "fusion_lon": 0.0, "is_reserved": 0, "bike_id": "4ffa2296646d54f3cdbd62a47a89537b", "fusion_lat": 0.0, "is_disabled": 0, "rental_uris": {"ios": "https://dc.lft.to/lastmile_qr_scan", "android": "https://dc.lft.to/lastmile_qr_scan"}}, {"name": "c200a64cf1ffdd87e8f40eb3375bed33", "lon": -77.023097, "lat": 38.92093033333333, "type": "electric_scooter", "fusion_lon": 0.0, "is_reserved": 0, "bike_id": "c200a64cf1ffdd87e8f40eb3375bed33", "fusion_lat": 0.0, "is_disabled": 0, "rental_uris": {"ios": "https://dc.lft.to/lastmile_qr_scan", "android": "https://dc.lft.to/lastmile_qr_scan"}}, {"name": "13632deda10740970ecd6d17d01888cd", "lon": -77.032055, "lat": 38.91423966666667, "type": "electric_scooter", "fusion_lon": 0.0, "is_reserved": 0, "bike_id": "13632deda10740970ecd6d17d01888cd", "fusion_lat": 0.0, "is_disabled": 0, "rental_uris": {"ios": "https://dc.lft.to/lastmile_qr_scan", "android": "https://dc.lft.to/lastmile_qr_scan"}}, {"name": "5b0a37b81b6bee606687380fa8316148", "lon": -77.1090325, "lat": 39.05204116666667, "type": "electric_bike", "fusion_lon": 0.0, "is_reserved": 0, "bike_id": "5b0a37b81b6bee606687380fa8316148", "fusion_lat": 0.0, "is_disabled": 0, "rental_uris": {"ios": "https://dc.lft.to/lastmile_qr_scan", "android": "https://dc.lft.to/lastmile_qr_scan"}}, {"name": "702f79d3a814480fd89a85544a933465", "lon": -76.9299805, "lat": 38.90188966666667, "type": "electric_scooter", "fusion_lon": 0.0, "is_reserved": 0, "bike_id": "702f79d3a814480fd89a85544a933465", "fusion_lat": 0.0, "is_disabled": 0, "rental_uris": {"ios": "https://dc.lft.to/lastmile_qr_scan", "android": "https://dc.lft.to/lastmile_qr_scan"}}, {"name": "329210d196ce695acc72c201bb589b57", "lon": -77.03293066666667, "lat": 38.956419, "type": "electric_scooter", "fusion_lon": 0.0, "is_reserved": 0, "bike_id": "329210d196ce695acc72c201bb589b57", "fusion_lat": 0.0, "is_disabled": 0, "rental_uris": {"ios": "https://dc.lft.to/lastmile_qr_scan", "android": "https://dc.lft.to/lastmile_qr_scan"}}, {"name": "94a43263a860ae6412e1321ccf8f4b52", "lon": -77.046521, "lat": 38.906864666666664, "type": "electric_scooter", "fusion_lon": 0.0, "is_reserved": 0, "bike_id": "94a43263a860ae6412e1321ccf8f4b52", "fusion_lat": 0.0, "is_disabled": 0, "rental_uris": {"ios": "https://dc.lft.to/lastmile_qr_scan", "android": "https://dc.lft.to/lastmile_qr_scan"}}, {"name": "5c86fae609e9724db8ee506cd2810731", "lon": -77.03209683333333, "lat": 38.895345, "type": "electric_scooter", "fusion_lon": 0.0, "is_reserved": 0, "bike_id": "5c86fae609e9724db8ee506cd2810731", "fusion_lat": 0.0, "is_disabled": 0, "rental_uris": {"ios": "https://dc.lft.to/lastmile_qr_scan", "android": "https://dc.lft.to/lastmile_qr_scan"}}, {"name": "73cc6c6fb42a5dfcc409131507faec64", "lon": -77.04332783333334, "lat": 38.8922665, "type": "electric_scooter", "fusion_lon": 0.0, "is_reserved": 0, "bike_id": "73cc6c6fb42a5dfcc409131507faec64", "fusion_lat": 0.0, "is_disabled": 0, "rental_uris": {"ios": "https://dc.lft.to/lastmile_qr_scan", "android": "https://dc.lft.to/lastmile_qr_scan"}}, {"name": "70fdd0cb36dc66782b0b911e312b6a09", "lon": -77.0319585, "lat": 38.918026, "type": "electric_scooter", "fusion_lon": 0.0, "is_reserved": 0, "bike_id": "70fdd0cb36dc66782b0b911e312b6a09", "fusion_lat": 0.0, "is_disabled": 0, "rental_uris": {"ios": "https://dc.lft.to/lastmile_qr_scan", "android": "https://dc.lft.to/lastmile_qr_scan"}}, {"name": "18157cd879c7bddeef571b0e072724b2", "lon": -77.03296283333333, "lat": 38.95631433333333, "type": "electric_scooter", "fusion_lon": 0.0, "is_reserved": 0, "bike_id": "18157cd879c7bddeef571b0e072724b2", "fusion_lat": 0.0, "is_disabled": 0, "rental_uris": {"ios": "https://dc.lft.to/lastmile_qr_scan", "android": "https://dc.lft.to/lastmile_qr_scan"}}, {"name": "c9b1658878493dbff9ada2b94850a86d", "lon": -77.02163416666667, "lat": 38.89977016666667, "type": "electric_scooter", "fusion_lon": 0.0, "is_reserved": 0, "bike_id": "c9b1658878493dbff9ada2b94850a86d", "fusion_lat": 0.0, "is_disabled": 0, "rental_uris": {"ios": "https://dc.lft.to/lastmile_qr_scan", "android": "https://dc.lft.to/lastmile_qr_scan"}}, {"name": "b4a8b20354b275e2993135a4d7ffe71d", "lon": -77.03174066666666, "lat": 38.910668333333334, "type": "electric_scooter", "fusion_lon": 0.0, "is_reserved": 0, "bike_id": "b4a8b20354b275e2993135a4d7ffe71d", "fusion_lat": 0.0, "is_disabled": 0, "rental_uris": {"ios": "https://dc.lft.to/lastmile_qr_scan", "android": "https://dc.lft.to/lastmile_qr_scan"}}, {"name": "b7e97883fcc0e1c76716ca821d53487d", "lon": -76.94542083333333, "lat": 38.864580833333335, "type": "electric_bike", "fusion_lon": 0.0, "is_reserved": 0, "bike_id": "b7e97883fcc0e1c76716ca821d53487d", "fusion_lat": 0.0, "is_disabled": 0, "rental_uris": {"ios": "https://dc.lft.to/lastmile_qr_scan", "android": "https://dc.lft.to/lastmile_qr_scan"}}, {"name": "ebb63b11208e7d3cc2de0e06d8c9195b", "lon": -77.01422333333333, "lat": 38.90572266666667, "type": "electric_bike", "fusion_lon": 0.0, "is_reserved": 0, "bike_id": "ebb63b11208e7d3cc2de0e06d8c9195b", "fusion_lat": 0.0, "is_disabled": 0, "rental_uris": {"ios": "https://dc.lft.to/lastmile_qr_scan", "android": "https://dc.lft.to/lastmile_qr_scan"}}, {"name": "8c8fd1530752229950155c8bc460ccd8", "lon": -77.05753666666666, "lat": 38.924966166666664, "type": "electric_scooter", "fusion_lon": 0.0, "is_reserved": 0, "bike_id": "8c8fd1530752229950155c8bc460ccd8", "fusion_lat": 0.0, "is_disabled": 0, "rental_uris": {"ios": "https://dc.lft.to/lastmile_qr_scan", "android": "https://dc.lft.to/lastmile_qr_scan"}}, {"name": "6106622f906eda76d3c4279be1fd16bf", "lon": -77.00802633333333, "lat": 38.897177, "type": "electric_scooter", "fusion_lon": 0.0, "is_reserved": 0, "bike_id": "6106622f906eda76d3c4279be1fd16bf", "fusion_lat": 0.0, "is_disabled": 0, "rental_uris": {"ios": "https://dc.lft.to/lastmile_qr_scan", "android": "https://dc.lft.to/lastmile_qr_scan"}}, {"name": "576ec63ea1de9fae9b2dd0fbd961fee4", "lon": -77.00739566666667, "lat": 38.898316, "type": "electric_scooter", "fusion_lon": 0.0, "is_reserved": 0, "bike_id": "576ec63ea1de9fae9b2dd0fbd961fee4", "fusion_lat": 0.0, "is_disabled": 0, "rental_uris": {"ios": "https://dc.lft.to/lastmile_qr_scan", "android": "https://dc.lft.to/lastmile_qr_scan"}}, {"name": "d62763f0b8c789ed5d3dedef8a589b2a", "lon": -77.008905, "lat": 38.92482033333334, "type": "electric_scooter", "fusion_lon": 0.0, "is_reserved": 0, "bike_id": "d62763f0b8c789ed5d3dedef8a589b2a", "fusion_lat": 0.0, "is_disabled": 0, "rental_uris": {"ios": "https://dc.lft.to/lastmile_qr_scan", "android": "https://dc.lft.to/lastmile_qr_scan"}}, {"name": "71fc25f78765956dbcc8ca2ad5c3fe8c", "lon": -76.9662975, "lat": 38.87100683333333, "type": "electric_scooter", "fusion_lon": 0.0, "is_reserved": 0, "bike_id": "71fc25f78765956dbcc8ca2ad5c3fe8c", "fusion_lat": 0.0, "is_disabled": 0, "rental_uris": {"ios": "https://dc.lft.to/lastmile_qr_scan", "android": "https://dc.lft.to/lastmile_qr_scan"}}, {"name": "9f1937470b926a9cc028808df5cf886d", "lon": -77.04982216666667, "lat": 39.062945666666664, "type": "electric_bike", "fusion_lon": 0.0, "is_reserved": 0, "bike_id": "9f1937470b926a9cc028808df5cf886d", "fusion_lat": 0.0, "is_disabled": 0, "rental_uris": {"ios": "https://dc.lft.to/lastmile_qr_scan", "android": "https://dc.lft.to/lastmile_qr_scan"}}, {"name": "8549bbc970575f9ab8c9b31cbd941a3a", "lon": -76.9398965, "lat": 38.89980933333333, "type": "electric_scooter", "fusion_lon": 0.0, "is_reserved": 0, "bike_id": "8549bbc970575f9ab8c9b31cbd941a3a", "fusion_lat": 0.0, "is_disabled": 0, "rental_uris": {"ios": "https://dc.lft.to/lastmile_qr_scan", "android": "https://dc.lft.to/lastmile_qr_scan"}}, {"name": "435e359f5490aaa25647bf2c797638fc", "lon": -77.178393, "lat": 39.08857033333334, "type": "electric_bike", "fusion_lon": 0.0, "is_reserved": 0, "bike_id": "435e359f5490aaa25647bf2c797638fc", "fusion_lat": 0.0, "is_disabled": 0, "rental_uris": {"ios": "https://dc.lft.to/lastmile_qr_scan", "android": "https://dc.lft.to/lastmile_qr_scan"}}, {"name": "b145dd62772114ed1be84d4e9657b819", "lon": -77.08628783333333, "lat": 38.88183033333333, "type": "electric_bike", "fusion_lon": 0.0, "is_reserved": 0, "bike_id": "b145dd62772114ed1be84d4e9657b819", "fusion_lat": 0.0, "is_disabled": 0, "rental_uris": {"ios": "https://dc.lft.to/lastmile_qr_scan", "android": "https://dc.lft.to/lastmile_qr_scan"}}, {"name": "0b5accce60751b9b510b0995fe70dbf7", "lon": -77.22231866666667, "lat": 38.92847866666666, "type": "electric_bike", "fusion_lon": 0.0, "is_reserved": 0, "bike_id": "0b5accce60751b9b510b0995fe70dbf7", "fusion_lat": 0.0, "is_disabled": 0, "rental_uris": {"ios": "https://dc.lft.to/lastmile_qr_scan", "android": "https://dc.lft.to/lastmile_qr_scan"}}, {"name": "ffa4635dc05ca0043df5c4c59174e365", "lon": -76.9789365, "lat": 38.91590633333333, "type": "electric_bike", "fusion_lon": 0.0, "is_reserved": 0, "bike_id": "ffa4635dc05ca0043df5c4c59174e365", "fusion_lat": 0.0, "is_disabled": 0, "rental_uris": {"ios": "https://dc.lft.to/lastmile_qr_scan", "android": "https://dc.lft.to/lastmile_qr_scan"}}, {"name": "1bde7cd051af3f0427a032f27f5e6faf", "lon": -77.0418385, "lat": 38.91681616666666, "type": "electric_scooter", "fusion_lon": 0.0, "is_reserved": 0, "bike_id": "1bde7cd051af3f0427a032f27f5e6faf", "fusion_lat": 0.0, "is_disabled": 0, "rental_uris": {"ios": "https://dc.lft.to/lastmile_qr_scan", "android": "https://dc.lft.to/lastmile_qr_scan"}}, {"name": "ac04d4efbd1ba3e243e099d65e62961f", "lon": -76.96523183333333, "lat": 38.874793, "type": "electric_bike", "fusion_lon": 0.0, "is_reserved": 0, "bike_id": "ac04d4efbd1ba3e243e099d65e62961f", "fusion_lat": 0.0, "is_disabled": 0, "rental_uris": {"ios": "https://dc.lft.to/lastmile_qr_scan", "android": "https://dc.lft.to/lastmile_qr_scan"}}, {"name": "17dd46fa0640e28743a5143f35fabff4", "lon": -77.06579616666667, "lat": 38.911336166666665, "type": "electric_bike", "fusion_lon": 0.0, "is_reserved": 0, "bike_id": "17dd46fa0640e28743a5143f35fabff4", "fusion_lat": 0.0, "is_disabled": 0, "rental_uris": {"ios": "https://dc.lft.to/lastmile_qr_scan", "android": "https://dc.lft.to/lastmile_qr_scan"}}, {"name": "88472ad99228cf29acced23aa6eed6a1", "lon": -77.022953, "lat": 38.896666333333336, "type": "electric_scooter", "fusion_lon": 0.0, "is_reserved": 0, "bike_id": "88472ad99228cf29acced23aa6eed6a1", "fusion_lat": 0.0, "is_disabled": 0, "rental_uris": {"ios": "https://dc.lft.to/lastmile_qr_scan", "android": "https://dc.lft.to/lastmile_qr_scan"}}, {"name": "0dddf1ad230059b4ca90192c02776d4b", "lon": -77.03260366666666, "lat": 38.932594, "type": "electric_scooter", "fusion_lon": 0.0, "is_reserved": 0, "bike_id": "0dddf1ad230059b4ca90192c02776d4b", "fusion_lat": 0.0, "is_disabled": 0, "rental_uris": {"ios": "https://dc.lft.to/lastmile_qr_scan", "android": "https://dc.lft.to/lastmile_qr_scan"}}, {"name": "c21eddb6f6b7ee697fdac4075334d13a", "lon": -77.03821183333334, "lat": 38.925363, "type": "electric_scooter", "fusion_lon": 0.0, "is_reserved": 0, "bike_id": "c21eddb6f6b7ee697fdac4075334d13a", "fusion_lat": 0.0, "is_disabled": 0, "rental_uris": {"ios": "https://dc.lft.to/lastmile_qr_scan", "android": "https://dc.lft.to/lastmile_qr_scan"}}, {"name": "a1d66bbbd7b8236fca6255cf7926451f", "lon": -76.98507616666667, "lat": 38.866631166666664, "type": "electric_scooter", "fusion_lon": 0.0, "is_reserved": 0, "bike_id": "a1d66bbbd7b8236fca6255cf7926451f", "fusion_lat": 0.0, "is_disabled": 0, "rental_uris": {"ios": "https://dc.lft.to/lastmile_qr_scan", "android": "https://dc.lft.to/lastmile_qr_scan"}}, {"name": "9c5175f0df0eb064fda5e77b929ff483", "lon": -77.00919683333333, "lat": 38.906739333333334, "type": "electric_scooter", "fusion_lon": 0.0, "is_reserved": 0, "bike_id": "9c5175f0df0eb064fda5e77b929ff483", "fusion_lat": 0.0, "is_disabled": 0, "rental_uris": {"ios": "https://dc.lft.to/lastmile_qr_scan", "android": "https://dc.lft.to/lastmile_qr_scan"}}, {"name": "6065b5b010036314f10ecb400da60b0d", "lon": -77.05665783333333, "lat": 38.90533416666667, "type": "electric_scooter", "fusion_lon": 0.0, "is_reserved": 0, "bike_id": "6065b5b010036314f10ecb400da60b0d", "fusion_lat": 0.0, "is_disabled": 0, "rental_uris": {"ios": "https://dc.lft.to/lastmile_qr_scan", "android": "https://dc.lft.to/lastmile_qr_scan"}}, {"name": "55af39401d7712ac9ae9056d59506194", "lon": -76.93158716666667, "lat": 38.89876733333333, "type": "electric_scooter", "fusion_lon": 0.0, "is_reserved": 0, "bike_id": "55af39401d7712ac9ae9056d59506194", "fusion_lat": 0.0, "is_disabled": 0, "rental_uris": {"ios": "https://dc.lft.to/lastmile_qr_scan", "android": "https://dc.lft.to/lastmile_qr_scan"}}, {"name": "fe5b89b2b1188771d6b2cacbaaf0ba3b", "lon": -77.02330933333333, "lat": 38.92889616666667, "type": "electric_scooter", "fusion_lon": 0.0, "is_reserved": 0, "bike_id": "fe5b89b2b1188771d6b2cacbaaf0ba3b", "fusion_lat": 0.0, "is_disabled": 0, "rental_uris": {"ios": "https://dc.lft.to/lastmile_qr_scan", "android": "https://dc.lft.to/lastmile_qr_scan"}}, {"name": "140ee07c25cd48438c5e299c023d6990", "lon": -77.0686535, "lat": 38.805779, "type": "electric_bike", "fusion_lon": 0.0, "is_reserved": 0, "bike_id": "140ee07c25cd48438c5e299c023d6990", "fusion_lat": 0.0, "is_disabled": 0, "rental_uris": {"ios": "https://dc.lft.to/lastmile_qr_scan", "android": "https://dc.lft.to/lastmile_qr_scan"}}, {"name": "404c35118ff9647b168e0ca082f70d6d", "lon": -77.0229195, "lat": 38.910245, "type": "electric_scooter", "fusion_lon": 0.0, "is_reserved": 0, "bike_id": "404c35118ff9647b168e0ca082f70d6d", "fusion_lat": 0.0, "is_disabled": 0, "rental_uris": {"ios": "https://dc.lft.to/lastmile_qr_scan", "android": "https://dc.lft.to/lastmile_qr_scan"}}, {"name": "70ecefd0f1b326af8d5f53ae6ace5133", "lon": -76.98798383333333, "lat": 38.922065833333335, "type": "electric_bike", "fusion_lon": 0.0, "is_reserved": 0, "bike_id": "70ecefd0f1b326af8d5f53ae6ace5133", "fusion_lat": 0.0, "is_disabled": 0, "rental_uris": {"ios": "https://dc.lft.to/lastmile_qr_scan", "android": "https://dc.lft.to/lastmile_qr_scan"}}, {"name": "77d77bd2bce4f6e9574406c0a3ec07fa", "lon": -77.00486466666666, "lat": 38.87476766666666, "type": "electric_scooter", "fusion_lon": 0.0, "is_reserved": 0, "bike_id": "77d77bd2bce4f6e9574406c0a3ec07fa", "fusion_lat": 0.0, "is_disabled": 0, "rental_uris": {"ios": "https://dc.lft.to/lastmile_qr_scan", "android": "https://dc.lft.to/lastmile_qr_scan"}}, {"name": "ac902038e13034376e536afd728d4313", "lon": -77.019397, "lat": 38.947058166666665, "type": "electric_scooter", "fusion_lon": 0.0, "is_reserved": 0, "bike_id": "ac902038e13034376e536afd728d4313", "fusion_lat": 0.0, "is_disabled": 0, "rental_uris": {"ios": "https://dc.lft.to/lastmile_qr_scan", "android": "https://dc.lft.to/lastmile_qr_scan"}}, {"name": "01b9065697569717bb62005fbd4efc63", "lon": -77.0372595, "lat": 38.910698333333336, "type": "electric_scooter", "fusion_lon": 0.0, "is_reserved": 0, "bike_id": "01b9065697569717bb62005fbd4efc63", "fusion_lat": 0.0, "is_disabled": 0, "rental_uris": {"ios": "https://dc.lft.to/lastmile_qr_scan", "android": "https://dc.lft.to/lastmile_qr_scan"}}, {"name": "7aaa2bc68b2c71bdd3cc8bfe9e2ff214", "lon": -76.927339, "lat": 38.889673333333334, "type": "electric_scooter", "fusion_lon": 0.0, "is_reserved": 0, "bike_id": "7aaa2bc68b2c71bdd3cc8bfe9e2ff214", "fusion_lat": 0.0, "is_disabled": 0, "rental_uris": {"ios": "https://dc.lft.to/lastmile_qr_scan", "android": "https://dc.lft.to/lastmile_qr_scan"}}, {"name": "40cdd34f84727ea27ff7c91a050081bc", "lon": -77.06337566666667, "lat": 38.90764333333333, "type": "electric_scooter", "fusion_lon": 0.0, "is_reserved": 0, "bike_id": "40cdd34f84727ea27ff7c91a050081bc", "fusion_lat": 0.0, "is_disabled": 0, "rental_uris": {"ios": "https://dc.lft.to/lastmile_qr_scan", "android": "https://dc.lft.to/lastmile_qr_scan"}}, {"name": "8a4dd9217ee82495961f4a14a228e43b", "lon": -76.99510016666666, "lat": 38.882517666666665, "type": "electric_scooter", "fusion_lon": 0.0, "is_reserved": 0, "bike_id": "8a4dd9217ee82495961f4a14a228e43b", "fusion_lat": 0.0, "is_disabled": 0, "rental_uris": {"ios": "https://dc.lft.to/lastmile_qr_scan", "android": "https://dc.lft.to/lastmile_qr_scan"}}, {"name": "3b154f270e9a96582a7997f6d6f3c08c", "lon": -77.0279455, "lat": 38.961470166666665, "type": "electric_scooter", "fusion_lon": 0.0, "is_reserved": 0, "bike_id": "3b154f270e9a96582a7997f6d6f3c08c", "fusion_lat": 0.0, "is_disabled": 0, "rental_uris": {"ios": "https://dc.lft.to/lastmile_qr_scan", "android": "https://dc.lft.to/lastmile_qr_scan"}}, {"name": "a695f119b4e6e5fae956e5f5bc50f484", "lon": -77.053437, "lat": 38.92327183333333, "type": "electric_scooter", "fusion_lon": 0.0, "is_reserved": 0, "bike_id": "a695f119b4e6e5fae956e5f5bc50f484", "fusion_lat": 0.0, "is_disabled": 0, "rental_uris": {"ios": "https://dc.lft.to/lastmile_qr_scan", "android": "https://dc.lft.to/lastmile_qr_scan"}}, {"name": "ca0a9714cb31ee4cd7cc9bc9a09c74a6", "lon": -76.99731116666666, "lat": 38.901281, "type": "electric_scooter", "fusion_lon": 0.0, "is_reserved": 0, "bike_id": "ca0a9714cb31ee4cd7cc9bc9a09c74a6", "fusion_lat": 0.0, "is_disabled": 0, "rental_uris": {"ios": "https://dc.lft.to/lastmile_qr_scan", "android": "https://dc.lft.to/lastmile_qr_scan"}}, {"name": "366357a1763d75cabfb25747424e9de2", "lon": -77.03134533333333, "lat": 38.923713666666664, "type": "electric_scooter", "fusion_lon": 0.0, "is_reserved": 0, "bike_id": "366357a1763d75cabfb25747424e9de2", "fusion_lat": 0.0, "is_disabled": 0, "rental_uris": {"ios": "https://dc.lft.to/lastmile_qr_scan", "android": "https://dc.lft.to/lastmile_qr_scan"}}, {"name": "e5af9435d17746d02aa1f26cf1c3e4a3", "lon": -77.04022166666667, "lat": 38.924128833333334, "type": "electric_scooter", "fusion_lon": 0.0, "is_reserved": 0, "bike_id": "e5af9435d17746d02aa1f26cf1c3e4a3", "fusion_lat": 0.0, "is_disabled": 0, "rental_uris": {"ios": "https://dc.lft.to/lastmile_qr_scan", "android": "https://dc.lft.to/lastmile_qr_scan"}}, {"name": "27bd3124a53f353f48509e2788c68029", "lon": -77.00647533333333, "lat": 38.901005833333336, "type": "electric_scooter", "fusion_lon": 0.0, "is_reserved": 0, "bike_id": "27bd3124a53f353f48509e2788c68029", "fusion_lat": 0.0, "is_disabled": 0, "rental_uris": {"ios": "https://dc.lft.to/lastmile_qr_scan", "android": "https://dc.lft.to/lastmile_qr_scan"}}, {"name": "f823c05773b2306ea1d5221dd4941d8d", "lon": -77.050182, "lat": 38.90353916666667, "type": "electric_scooter", "fusion_lon": 0.0, "is_reserved": 0, "bike_id": "f823c05773b2306ea1d5221dd4941d8d", "fusion_lat": 0.0, "is_disabled": 0, "rental_uris": {"ios": "https://dc.lft.to/lastmile_qr_scan", "android": "https://dc.lft.to/lastmile_qr_scan"}}, {"name": "82ba89afa331337569a4957ea3424c5a", "lon": -77.027175, "lat": 38.93424733333333, "type": "electric_scooter", "fusion_lon": 0.0, "is_reserved": 0, "bike_id": "82ba89afa331337569a4957ea3424c5a", "fusion_lat": 0.0, "is_disabled": 0, "rental_uris": {"ios": "https://dc.lft.to/lastmile_qr_scan", "android": "https://dc.lft.to/lastmile_qr_scan"}}, {"name": "80a030edfcd7a0b876d8319dbe4205bc", "lon": -76.98695766666667, "lat": 38.86252983333333, "type": "electric_scooter", "fusion_lon": 0.0, "is_reserved": 0, "bike_id": "80a030edfcd7a0b876d8319dbe4205bc", "fusion_lat": 0.0, "is_disabled": 0, "rental_uris": {"ios": "https://dc.lft.to/lastmile_qr_scan", "android": "https://dc.lft.to/lastmile_qr_scan"}}, {"name": "7d5b333f5166d2e0201c78aecfadc595", "lon": -77.01615066666666, "lat": 38.91811533333333, "type": "electric_scooter", "fusion_lon": 0.0, "is_reserved": 0, "bike_id": "7d5b333f5166d2e0201c78aecfadc595", "fusion_lat": 0.0, "is_disabled": 0, "rental_uris": {"ios": "https://dc.lft.to/lastmile_qr_scan", "android": "https://dc.lft.to/lastmile_qr_scan"}}, {"name": "0e08510b52b2ade1ec5d86025f253280", "lon": -77.02642233333333, "lat": 38.89196466666667, "type": "electric_scooter", "fusion_lon": 0.0, "is_reserved": 0, "bike_id": "0e08510b52b2ade1ec5d86025f253280", "fusion_lat": 0.0, "is_disabled": 0, "rental_uris": {"ios": "https://dc.lft.to/lastmile_qr_scan", "android": "https://dc.lft.to/lastmile_qr_scan"}}, {"name": "e2048c7c9db15172a34fc30e7135684e", "lon": -77.01901183333334, "lat": 38.900527833333335, "type": "electric_scooter", "fusion_lon": 0.0, "is_reserved": 0, "bike_id": "e2048c7c9db15172a34fc30e7135684e", "fusion_lat": 0.0, "is_disabled": 0, "rental_uris": {"ios": "https://dc.lft.to/lastmile_qr_scan", "android": "https://dc.lft.to/lastmile_qr_scan"}}, {"name": "c593fcd09224076f3910111de03a5a83", "lon": -77.02762616666666, "lat": 38.954242666666666, "type": "electric_scooter", "fusion_lon": 0.0, "is_reserved": 0, "bike_id": "c593fcd09224076f3910111de03a5a83", "fusion_lat": 0.0, "is_disabled": 0, "rental_uris": {"ios": "https://dc.lft.to/lastmile_qr_scan", "android": "https://dc.lft.to/lastmile_qr_scan"}}, {"name": "69b49a6256fe9103cdccc94ccd6b0e80", "lon": -77.01435883333333, "lat": 38.919614833333334, "type": "electric_scooter", "fusion_lon": 0.0, "is_reserved": 0, "bike_id": "69b49a6256fe9103cdccc94ccd6b0e80", "fusion_lat": 0.0, "is_disabled": 0, "rental_uris": {"ios": "https://dc.lft.to/lastmile_qr_scan", "android": "https://dc.lft.to/lastmile_qr_scan"}}, {"name": "23f2abb1e12ab1bbd37cc1f0d96dcf85", "lon": -77.03281166666666, "lat": 38.936711, "type": "electric_scooter", "fusion_lon": 0.0, "is_reserved": 0, "bike_id": "23f2abb1e12ab1bbd37cc1f0d96dcf85", "fusion_lat": 0.0, "is_disabled": 0, "rental_uris": {"ios": "https://dc.lft.to/lastmile_qr_scan", "android": "https://dc.lft.to/lastmile_qr_scan"}}, {"name": "d8e236b0ea86cb70f8def945a6c36e00", "lon": -77.0313335, "lat": 38.92376183333333, "type": "electric_scooter", "fusion_lon": 0.0, "is_reserved": 0, "bike_id": "d8e236b0ea86cb70f8def945a6c36e00", "fusion_lat": 0.0, "is_disabled": 0, "rental_uris": {"ios": "https://dc.lft.to/lastmile_qr_scan", "android": "https://dc.lft.to/lastmile_qr_scan"}}, {"name": "9accd4befe5a2d8a1a82a8d26f31e420", "lon": -77.046908, "lat": 38.921616666666665, "type": "electric_scooter", "fusion_lon": 0.0, "is_reserved": 0, "bike_id": "9accd4befe5a2d8a1a82a8d26f31e420", "fusion_lat": 0.0, "is_disabled": 0, "rental_uris": {"ios": "https://dc.lft.to/lastmile_qr_scan", "android": "https://dc.lft.to/lastmile_qr_scan"}}, {"name": "6c0ec320cada0a7f8ccaf6c8c34bf7fe", "lon": -77.03867083333333, "lat": 38.9117205, "type": "electric_scooter", "fusion_lon": 0.0, "is_reserved": 0, "bike_id": "6c0ec320cada0a7f8ccaf6c8c34bf7fe", "fusion_lat": 0.0, "is_disabled": 0, "rental_uris": {"ios": "https://dc.lft.to/lastmile_qr_scan", "android": "https://dc.lft.to/lastmile_qr_scan"}}, {"name": "6380bcafa038d042f34c777996a0b80c", "lon": -77.039102, "lat": 38.918315, "type": "electric_scooter", "fusion_lon": 0.0, "is_reserved": 0, "bike_id": "6380bcafa038d042f34c777996a0b80c", "fusion_lat": 0.0, "is_disabled": 0, "rental_uris": {"ios": "https://dc.lft.to/lastmile_qr_scan", "android": "https://dc.lft.to/lastmile_qr_scan"}}, {"name": "7e658d9c9bb3b4707762422ee4397f3c", "lon": -77.02256083333333, "lat": 38.9230455, "type": "electric_scooter", "fusion_lon": 0.0, "is_reserved": 0, "bike_id": "7e658d9c9bb3b4707762422ee4397f3c", "fusion_lat": 0.0, "is_disabled": 0, "rental_uris": {"ios": "https://dc.lft.to/lastmile_qr_scan", "android": "https://dc.lft.to/lastmile_qr_scan"}}, {"name": "7959ff38a8abc3d64bc5ff5d2bcf1ea2", "lon": -76.99777466666667, "lat": 38.844330666666664, "type": "electric_scooter", "fusion_lon": 0.0, "is_reserved": 0, "bike_id": "7959ff38a8abc3d64bc5ff5d2bcf1ea2", "fusion_lat": 0.0, "is_disabled": 0, "rental_uris": {"ios": "https://dc.lft.to/lastmile_qr_scan", "android": "https://dc.lft.to/lastmile_qr_scan"}}, {"name": "6ac93165d1e94cfa7f2be74e8cd67de7", "lon": -77.0374705, "lat": 38.9247685, "type": "electric_bike", "fusion_lon": 0.0, "is_reserved": 0, "bike_id": "6ac93165d1e94cfa7f2be74e8cd67de7", "fusion_lat": 0.0, "is_disabled": 0, "rental_uris": {"ios": "https://dc.lft.to/lastmile_qr_scan", "android": "https://dc.lft.to/lastmile_qr_scan"}}, {"name": "a5460c00780e30dbd15cf4352b1ad601", "lon": -77.053351, "lat": 38.90004916666667, "type": "electric_scooter", "fusion_lon": 0.0, "is_reserved": 0, "bike_id": "a5460c00780e30dbd15cf4352b1ad601", "fusion_lat": 0.0, "is_disabled": 0, "rental_uris": {"ios": "https://dc.lft.to/lastmile_qr_scan", "android": "https://dc.lft.to/lastmile_qr_scan"}}, {"name": "8ccd6505a8e68a79bd6292b66ddeeefa", "lon": -76.98313183333333, "lat": 38.8688625, "type": "electric_scooter", "fusion_lon": 0.0, "is_reserved": 0, "bike_id": "8ccd6505a8e68a79bd6292b66ddeeefa", "fusion_lat": 0.0, "is_disabled": 0, "rental_uris": {"ios": "https://dc.lft.to/lastmile_qr_scan", "android": "https://dc.lft.to/lastmile_qr_scan"}}, {"name": "f38ad61f08acf97bb611a01bb54abbdc", "lon": -77.0116855, "lat": 38.91696833333334, "type": "electric_scooter", "fusion_lon": 0.0, "is_reserved": 0, "bike_id": "f38ad61f08acf97bb611a01bb54abbdc", "fusion_lat": 0.0, "is_disabled": 0, "rental_uris": {"ios": "https://dc.lft.to/lastmile_qr_scan", "android": "https://dc.lft.to/lastmile_qr_scan"}}, {"name": "7f6e29a56c4458b00deeb136dc079c36", "lon": -77.02819683333334, "lat": 38.96082833333333, "type": "electric_scooter", "fusion_lon": 0.0, "is_reserved": 0, "bike_id": "7f6e29a56c4458b00deeb136dc079c36", "fusion_lat": 0.0, "is_disabled": 0, "rental_uris": {"ios": "https://dc.lft.to/lastmile_qr_scan", "android": "https://dc.lft.to/lastmile_qr_scan"}}, {"name": "1b7a7b542b804fede86f7043b0fc87ee", "lon": -77.0288765, "lat": 38.917140833333335, "type": "electric_scooter", "fusion_lon": 0.0, "is_reserved": 0, "bike_id": "1b7a7b542b804fede86f7043b0fc87ee", "fusion_lat": 0.0, "is_disabled": 0, "rental_uris": {"ios": "https://dc.lft.to/lastmile_qr_scan", "android": "https://dc.lft.to/lastmile_qr_scan"}}, {"name": "01dc72894f15a5138926bc9464df543d", "lon": -77.03045533333334, "lat": 38.8839095, "type": "electric_scooter", "fusion_lon": 0.0, "is_reserved": 0, "bike_id": "01dc72894f15a5138926bc9464df543d", "fusion_lat": 0.0, "is_disabled": 0, "rental_uris": {"ios": "https://dc.lft.to/lastmile_qr_scan", "android": "https://dc.lft.to/lastmile_qr_scan"}}, {"name": "e37bf6a811d0a3204d402068f3cf8f52", "lon": -76.995584, "lat": 38.862563, "type": "electric_scooter", "fusion_lon": 0.0, "is_reserved": 0, "bike_id": "e37bf6a811d0a3204d402068f3cf8f52", "fusion_lat": 0.0, "is_disabled": 0, "rental_uris": {"ios": "https://dc.lft.to/lastmile_qr_scan", "android": "https://dc.lft.to/lastmile_qr_scan"}}, {"name": "c8cb11bd1d9f5f43994ee5893873d45a", "lon": -76.99122516666667, "lat": 38.862035, "type": "electric_scooter", "fusion_lon": 0.0, "is_reserved": 0, "bike_id": "c8cb11bd1d9f5f43994ee5893873d45a", "fusion_lat": 0.0, "is_disabled": 0, "rental_uris": {"ios": "https://dc.lft.to/lastmile_qr_scan", "android": "https://dc.lft.to/lastmile_qr_scan"}}, {"name": "022346022b649435575e8a6929382acb", "lon": -77.02893233333333, "lat": 38.916984166666666, "type": "electric_scooter", "fusion_lon": 0.0, "is_reserved": 0, "bike_id": "022346022b649435575e8a6929382acb", "fusion_lat": 0.0, "is_disabled": 0, "rental_uris": {"ios": "https://dc.lft.to/lastmile_qr_scan", "android": "https://dc.lft.to/lastmile_qr_scan"}}, {"name": "c1310090c657ef76f6b5238f6fdd3523", "lon": -77.04185633333333, "lat": 38.892859666666666, "type": "electric_scooter", "fusion_lon": 0.0, "is_reserved": 0, "bike_id": "c1310090c657ef76f6b5238f6fdd3523", "fusion_lat": 0.0, "is_disabled": 0, "rental_uris": {"ios": "https://dc.lft.to/lastmile_qr_scan", "android": "https://dc.lft.to/lastmile_qr_scan"}}, {"name": "8727e9ecd2ddd796ba05d31eb38d8e1c", "lon": -77.0566515, "lat": 38.928664166666664, "type": "electric_bike", "fusion_lon": 0.0, "is_reserved": 0, "bike_id": "8727e9ecd2ddd796ba05d31eb38d8e1c", "fusion_lat": 0.0, "is_disabled": 0, "rental_uris": {"ios": "https://dc.lft.to/lastmile_qr_scan", "android": "https://dc.lft.to/lastmile_qr_scan"}}, {"name": "13972505e3fd846b25066202976a6f60", "lon": -77.0348135, "lat": 38.90259833333333, "type": "electric_scooter", "fusion_lon": 0.0, "is_reserved": 0, "bike_id": "13972505e3fd846b25066202976a6f60", "fusion_lat": 0.0, "is_disabled": 0, "rental_uris": {"ios": "https://dc.lft.to/lastmile_qr_scan", "android": "https://dc.lft.to/lastmile_qr_scan"}}, {"name": "871720fa80aab4e0a19a9e93818bf4bb", "lon": -77.04264733333333, "lat": 38.9086065, "type": "electric_scooter", "fusion_lon": 0.0, "is_reserved": 0, "bike_id": "871720fa80aab4e0a19a9e93818bf4bb", "fusion_lat": 0.0, "is_disabled": 0, "rental_uris": {"ios": "https://dc.lft.to/lastmile_qr_scan", "android": "https://dc.lft.to/lastmile_qr_scan"}}, {"name": "0703fcd76724ca579df9b4d16dda004e", "lon": -77.02191183333333, "lat": 38.910039166666664, "type": "electric_scooter", "fusion_lon": 0.0, "is_reserved": 0, "bike_id": "0703fcd76724ca579df9b4d16dda004e", "fusion_lat": 0.0, "is_disabled": 0, "rental_uris": {"ios": "https://dc.lft.to/lastmile_qr_scan", "android": "https://dc.lft.to/lastmile_qr_scan"}}, {"name": "d7e91a7b33deb04aba086cd1b4556a79", "lon": -77.01022666666667, "lat": 38.91707916666667, "type": "electric_scooter", "fusion_lon": 0.0, "is_reserved": 0, "bike_id": "d7e91a7b33deb04aba086cd1b4556a79", "fusion_lat": 0.0, "is_disabled": 0, "rental_uris": {"ios": "https://dc.lft.to/lastmile_qr_scan", "android": "https://dc.lft.to/lastmile_qr_scan"}}, {"name": "4cbd729cde5b8944b760bf1a34737b5e", "lon": -77.04157016666667, "lat": 38.91417666666667, "type": "electric_scooter", "fusion_lon": 0.0, "is_reserved": 0, "bike_id": "4cbd729cde5b8944b760bf1a34737b5e", "fusion_lat": 0.0, "is_disabled": 0, "rental_uris": {"ios": "https://dc.lft.to/lastmile_qr_scan", "android": "https://dc.lft.to/lastmile_qr_scan"}}, {"name": "b37a9e1c8cbedd7b58f4c8c69ddd7638", "lon": -77.03194666666667, "lat": 38.92124733333333, "type": "electric_scooter", "fusion_lon": 0.0, "is_reserved": 0, "bike_id": "b37a9e1c8cbedd7b58f4c8c69ddd7638", "fusion_lat": 0.0, "is_disabled": 0, "rental_uris": {"ios": "https://dc.lft.to/lastmile_qr_scan", "android": "https://dc.lft.to/lastmile_qr_scan"}}, {"name": "20f878d62fe0e310c96b44868040db27", "lon": -77.03435866666666, "lat": 38.909764, "type": "electric_scooter", "fusion_lon": 0.0, "is_reserved": 0, "bike_id": "20f878d62fe0e310c96b44868040db27", "fusion_lat": 0.0, "is_disabled": 0, "rental_uris": {"ios": "https://dc.lft.to/lastmile_qr_scan", "android": "https://dc.lft.to/lastmile_qr_scan"}}, {"name": "3bd473af2cd8338b5e1e7e13c8087835", "lon": -77.0290565, "lat": 38.8985605, "type": "electric_scooter", "fusion_lon": 0.0, "is_reserved": 0, "bike_id": "3bd473af2cd8338b5e1e7e13c8087835", "fusion_lat": 0.0, "is_disabled": 0, "rental_uris": {"ios": "https://dc.lft.to/lastmile_qr_scan", "android": "https://dc.lft.to/lastmile_qr_scan"}}, {"name": "7c615e34af5d1c4789ce55a017c239ac", "lon": -77.0311115, "lat": 38.9464755, "type": "electric_scooter", "fusion_lon": 0.0, "is_reserved": 0, "bike_id": "7c615e34af5d1c4789ce55a017c239ac", "fusion_lat": 0.0, "is_disabled": 0, "rental_uris": {"ios": "https://dc.lft.to/lastmile_qr_scan", "android": "https://dc.lft.to/lastmile_qr_scan"}}, {"name": "6cae58654244feb5c78795c0564d52ed", "lon": -77.02166783333334, "lat": 38.897274333333336, "type": "electric_scooter", "fusion_lon": 0.0, "is_reserved": 0, "bike_id": "6cae58654244feb5c78795c0564d52ed", "fusion_lat": 0.0, "is_disabled": 0, "rental_uris": {"ios": "https://dc.lft.to/lastmile_qr_scan", "android": "https://dc.lft.to/lastmile_qr_scan"}}, {"name": "b019194922440af4f40227c7bd680320", "lon": -76.998002, "lat": 38.908477166666664, "type": "electric_scooter", "fusion_lon": 0.0, "is_reserved": 0, "bike_id": "b019194922440af4f40227c7bd680320", "fusion_lat": 0.0, "is_disabled": 0, "rental_uris": {"ios": "https://dc.lft.to/lastmile_qr_scan", "android": "https://dc.lft.to/lastmile_qr_scan"}}, {"name": "0d6dab6d14617c66baf7a3c1434dedb8", "lon": -76.9863105, "lat": 38.880459333333334, "type": "electric_bike", "fusion_lon": 0.0, "is_reserved": 0, "bike_id": "0d6dab6d14617c66baf7a3c1434dedb8", "fusion_lat": 0.0, "is_disabled": 0, "rental_uris": {"ios": "https://dc.lft.to/lastmile_qr_scan", "android": "https://dc.lft.to/lastmile_qr_scan"}}, {"name": "b9aaacc2343f9c592bbed30ae6d3488b", "lon": -77.1170685, "lat": 38.867437, "type": "electric_bike", "fusion_lon": 0.0, "is_reserved": 0, "bike_id": "b9aaacc2343f9c592bbed30ae6d3488b", "fusion_lat": 0.0, "is_disabled": 0, "rental_uris": {"ios": "https://dc.lft.to/lastmile_qr_scan", "android": "https://dc.lft.to/lastmile_qr_scan"}}, {"name": "aa09b1ac53854869fa09b0b04dc43d76", "lon": -77.00371816666667, "lat": 38.882667166666664, "type": "electric_scooter", "fusion_lon": 0.0, "is_reserved": 0, "bike_id": "aa09b1ac53854869fa09b0b04dc43d76", "fusion_lat": 0.0, "is_disabled": 0, "rental_uris": {"ios": "https://dc.lft.to/lastmile_qr_scan", "android": "https://dc.lft.to/lastmile_qr_scan"}}, {"name": "5a6b79bcda067199df5169a8cc761a2f", "lon": -77.06325716666667, "lat": 38.94422, "type": "electric_scooter", "fusion_lon": 0.0, "is_reserved": 0, "bike_id": "5a6b79bcda067199df5169a8cc761a2f", "fusion_lat": 0.0, "is_disabled": 0, "rental_uris": {"ios": "https://dc.lft.to/lastmile_qr_scan", "android": "https://dc.lft.to/lastmile_qr_scan"}}, {"name": "2d073f3a96d6b602d6b6e0c7ab383c59", "lon": -77.03199683333334, "lat": 38.90452666666667, "type": "electric_scooter", "fusion_lon": 0.0, "is_reserved": 0, "bike_id": "2d073f3a96d6b602d6b6e0c7ab383c59", "fusion_lat": 0.0, "is_disabled": 0, "rental_uris": {"ios": "https://dc.lft.to/lastmile_qr_scan", "android": "https://dc.lft.to/lastmile_qr_scan"}}, {"name": "9ecebb20ffc59c312aff01f7bcd34f3d", "lon": -77.02722083333333, "lat": 38.94954333333333, "type": "electric_scooter", "fusion_lon": 0.0, "is_reserved": 0, "bike_id": "9ecebb20ffc59c312aff01f7bcd34f3d", "fusion_lat": 0.0, "is_disabled": 0, "rental_uris": {"ios": "https://dc.lft.to/lastmile_qr_scan", "android": "https://dc.lft.to/lastmile_qr_scan"}}, {"name": "a1666e91c342204101ef14ac085b56f5", "lon": -77.04793416666666, "lat": 38.91936033333333, "type": "electric_scooter", "fusion_lon": 0.0, "is_reserved": 0, "bike_id": "a1666e91c342204101ef14ac085b56f5", "fusion_lat": 0.0, "is_disabled": 0, "rental_uris": {"ios": "https://dc.lft.to/lastmile_qr_scan", "android": "https://dc.lft.to/lastmile_qr_scan"}}, {"name": "632d2c38e09a01d461763eda3438438e", "lon": -77.00657683333333, "lat": 38.94464266666667, "type": "electric_scooter", "fusion_lon": 0.0, "is_reserved": 0, "bike_id": "632d2c38e09a01d461763eda3438438e", "fusion_lat": 0.0, "is_disabled": 0, "rental_uris": {"ios": "https://dc.lft.to/lastmile_qr_scan", "android": "https://dc.lft.to/lastmile_qr_scan"}}, {"name": "fedf0724725102dee2bdd517fb4ac963", "lon": -77.0020735, "lat": 38.819420666666666, "type": "electric_bike", "fusion_lon": 0.0, "is_reserved": 0, "bike_id": "fedf0724725102dee2bdd517fb4ac963", "fusion_lat": 0.0, "is_disabled": 0, "rental_uris": {"ios": "https://dc.lft.to/lastmile_qr_scan", "android": "https://dc.lft.to/lastmile_qr_scan"}}, {"name": "9424220ac837f1db7131235dd14282d3", "lon": -77.03287883333333, "lat": 38.90969483333333, "type": "electric_scooter", "fusion_lon": 0.0, "is_reserved": 0, "bike_id": "9424220ac837f1db7131235dd14282d3", "fusion_lat": 0.0, "is_disabled": 0, "rental_uris": {"ios": "https://dc.lft.to/lastmile_qr_scan", "android": "https://dc.lft.to/lastmile_qr_scan"}}, {"name": "a9adf22c289553f7e1acdd3dedad9fd4", "lon": -77.04904216666667, "lat": 38.888357166666665, "type": "electric_scooter", "fusion_lon": 0.0, "is_reserved": 0, "bike_id": "a9adf22c289553f7e1acdd3dedad9fd4", "fusion_lat": 0.0, "is_disabled": 0, "rental_uris": {"ios": "https://dc.lft.to/lastmile_qr_scan", "android": "https://dc.lft.to/lastmile_qr_scan"}}, {"name": "0df83387c403eb6c268ddfa7910bede5", "lon": -77.06157283333333, "lat": 38.902638333333336, "type": "electric_scooter", "fusion_lon": 0.0, "is_reserved": 0, "bike_id": "0df83387c403eb6c268ddfa7910bede5", "fusion_lat": 0.0, "is_disabled": 0, "rental_uris": {"ios": "https://dc.lft.to/lastmile_qr_scan", "android": "https://dc.lft.to/lastmile_qr_scan"}}, {"name": "6ad409110b5f16b2736c2e364aa7c6fc", "lon": -77.04177683333333, "lat": 38.920027833333336, "type": "electric_scooter", "fusion_lon": 0.0, "is_reserved": 0, "bike_id": "6ad409110b5f16b2736c2e364aa7c6fc", "fusion_lat": 0.0, "is_disabled": 0, "rental_uris": {"ios": "https://dc.lft.to/lastmile_qr_scan", "android": "https://dc.lft.to/lastmile_qr_scan"}}, {"name": "a7a43bbf82e3f5a07d5d9c80a991f74a", "lon": -77.02510766666667, "lat": 38.90731916666667, "type": "electric_scooter", "fusion_lon": 0.0, "is_reserved": 0, "bike_id": "a7a43bbf82e3f5a07d5d9c80a991f74a", "fusion_lat": 0.0, "is_disabled": 0, "rental_uris": {"ios": "https://dc.lft.to/lastmile_qr_scan", "android": "https://dc.lft.to/lastmile_qr_scan"}}, {"name": "dc6ff516036d4d41690c982459feb0d9", "lon": -77.00386266666666, "lat": 38.876240333333335, "type": "electric_scooter", "fusion_lon": 0.0, "is_reserved": 0, "bike_id": "dc6ff516036d4d41690c982459feb0d9", "fusion_lat": 0.0, "is_disabled": 0, "rental_uris": {"ios": "https://dc.lft.to/lastmile_qr_scan", "android": "https://dc.lft.to/lastmile_qr_scan"}}, {"name": "1eec2853cf96025f4dd79ef7113e6739", "lon": -77.04185116666666, "lat": 38.91884016666667, "type": "electric_scooter", "fusion_lon": 0.0, "is_reserved": 0, "bike_id": "1eec2853cf96025f4dd79ef7113e6739", "fusion_lat": 0.0, "is_disabled": 0, "rental_uris": {"ios": "https://dc.lft.to/lastmile_qr_scan", "android": "https://dc.lft.to/lastmile_qr_scan"}}, {"name": "d4828b42b6ab9477a3d107fca576e4b6", "lon": -77.02977883333334, "lat": 38.95192766666667, "type": "electric_scooter", "fusion_lon": 0.0, "is_reserved": 0, "bike_id": "d4828b42b6ab9477a3d107fca576e4b6", "fusion_lat": 0.0, "is_disabled": 0, "rental_uris": {"ios": "https://dc.lft.to/lastmile_qr_scan", "android": "https://dc.lft.to/lastmile_qr_scan"}}, {"name": "f237a2344c2ef1cd9a24932eb5b96e28", "lon": -77.02715783333333, "lat": 38.90907083333333, "type": "electric_scooter", "fusion_lon": 0.0, "is_reserved": 0, "bike_id": "f237a2344c2ef1cd9a24932eb5b96e28", "fusion_lat": 0.0, "is_disabled": 0, "rental_uris": {"ios": "https://dc.lft.to/lastmile_qr_scan", "android": "https://dc.lft.to/lastmile_qr_scan"}}, {"name": "95038b8d5c981a9dd826f681b88351a3", "lon": -77.044692, "lat": 38.921327, "type": "electric_scooter", "fusion_lon": 0.0, "is_reserved": 0, "bike_id": "95038b8d5c981a9dd826f681b88351a3", "fusion_lat": 0.0, "is_disabled": 0, "rental_uris": {"ios": "https://dc.lft.to/lastmile_qr_scan", "android": "https://dc.lft.to/lastmile_qr_scan"}}, {"name": "e5aaeb9cf2bfbc9f0c38c0b0585dfcdd", "lon": -77.01229516666666, "lat": 38.91695683333333, "type": "electric_scooter", "fusion_lon": 0.0, "is_reserved": 0, "bike_id": "e5aaeb9cf2bfbc9f0c38c0b0585dfcdd", "fusion_lat": 0.0, "is_disabled": 0, "rental_uris": {"ios": "https://dc.lft.to/lastmile_qr_scan", "android": "https://dc.lft.to/lastmile_qr_scan"}}, {"name": "31bb10f18b6d265ca9ab609621a85403", "lon": -77.026944, "lat": 38.9084095, "type": "electric_scooter", "fusion_lon": 0.0, "is_reserved": 0, "bike_id": "31bb10f18b6d265ca9ab609621a85403", "fusion_lat": 0.0, "is_disabled": 0, "rental_uris": {"ios": "https://dc.lft.to/lastmile_qr_scan", "android": "https://dc.lft.to/lastmile_qr_scan"}}, {"name": "856ce11458652d36690886d69c00c8ae", "lon": -76.999369, "lat": 38.9056845, "type": "electric_scooter", "fusion_lon": 0.0, "is_reserved": 0, "bike_id": "856ce11458652d36690886d69c00c8ae", "fusion_lat": 0.0, "is_disabled": 0, "rental_uris": {"ios": "https://dc.lft.to/lastmile_qr_scan", "android": "https://dc.lft.to/lastmile_qr_scan"}}, {"name": "6de12054d65fff22c4350c7a2335102f", "lon": -77.02560466666667, "lat": 38.918187833333334, "type": "electric_scooter", "fusion_lon": 0.0, "is_reserved": 0, "bike_id": "6de12054d65fff22c4350c7a2335102f", "fusion_lat": 0.0, "is_disabled": 0, "rental_uris": {"ios": "https://dc.lft.to/lastmile_qr_scan", "android": "https://dc.lft.to/lastmile_qr_scan"}}, {"name": "f73396fce92ffbde3a6c975c165d2cea", "lon": -77.026949, "lat": 38.911328166666664, "type": "electric_scooter", "fusion_lon": 0.0, "is_reserved": 0, "bike_id": "f73396fce92ffbde3a6c975c165d2cea", "fusion_lat": 0.0, "is_disabled": 0, "rental_uris": {"ios": "https://dc.lft.to/lastmile_qr_scan", "android": "https://dc.lft.to/lastmile_qr_scan"}}, {"name": "25dc2dac3220a27f65d9ec9801b695ac", "lon": -76.98506483333334, "lat": 38.88081233333333, "type": "electric_bike", "fusion_lon": 0.0, "is_reserved": 0, "bike_id": "25dc2dac3220a27f65d9ec9801b695ac", "fusion_lat": 0.0, "is_disabled": 0, "rental_uris": {"ios": "https://dc.lft.to/lastmile_qr_scan", "android": "https://dc.lft.to/lastmile_qr_scan"}}, {"name": "c5239440f680bc4b12637dcd7639341c", "lon": -77.02427633333333, "lat": 38.9380185, "type": "electric_scooter", "fusion_lon": 0.0, "is_reserved": 0, "bike_id": "c5239440f680bc4b12637dcd7639341c", "fusion_lat": 0.0, "is_disabled": 0, "rental_uris": {"ios": "https://dc.lft.to/lastmile_qr_scan", "android": "https://dc.lft.to/lastmile_qr_scan"}}, {"name": "cf2afecb4403b6b08917bbc0176b8e26", "lon": -77.03841483333333, "lat": 38.9103845, "type": "electric_scooter", "fusion_lon": 0.0, "is_reserved": 0, "bike_id": "cf2afecb4403b6b08917bbc0176b8e26", "fusion_lat": 0.0, "is_disabled": 0, "rental_uris": {"ios": "https://dc.lft.to/lastmile_qr_scan", "android": "https://dc.lft.to/lastmile_qr_scan"}}, {"name": "e74cea18527b0b47fe21382b0e6d2781", "lon": -77.02654683333333, "lat": 38.89740116666667, "type": "electric_scooter", "fusion_lon": 0.0, "is_reserved": 0, "bike_id": "e74cea18527b0b47fe21382b0e6d2781", "fusion_lat": 0.0, "is_disabled": 0, "rental_uris": {"ios": "https://dc.lft.to/lastmile_qr_scan", "android": "https://dc.lft.to/lastmile_qr_scan"}}, {"name": "e06b660635343b48881c14943322f216", "lon": -77.03198133333333, "lat": 38.912128833333334, "type": "electric_scooter", "fusion_lon": 0.0, "is_reserved": 0, "bike_id": "e06b660635343b48881c14943322f216", "fusion_lat": 0.0, "is_disabled": 0, "rental_uris": {"ios": "https://dc.lft.to/lastmile_qr_scan", "android": "https://dc.lft.to/lastmile_qr_scan"}}, {"name": "efb324ec78d2977b9efb7ef5697b9149", "lon": -77.03813416666667, "lat": 38.924962666666666, "type": "electric_scooter", "fusion_lon": 0.0, "is_reserved": 0, "bike_id": "efb324ec78d2977b9efb7ef5697b9149", "fusion_lat": 0.0, "is_disabled": 0, "rental_uris": {"ios": "https://dc.lft.to/lastmile_qr_scan", "android": "https://dc.lft.to/lastmile_qr_scan"}}, {"name": "522f779e8534d9e368d3edf9112c53b6", "lon": -77.022981, "lat": 38.920809166666665, "type": "electric_scooter", "fusion_lon": 0.0, "is_reserved": 0, "bike_id": "522f779e8534d9e368d3edf9112c53b6", "fusion_lat": 0.0, "is_disabled": 0, "rental_uris": {"ios": "https://dc.lft.to/lastmile_qr_scan", "android": "https://dc.lft.to/lastmile_qr_scan"}}, {"name": "71704ed72f8d50a6ca46a6119f9358b3", "lon": -76.99610683333333, "lat": 38.90365216666667, "type": "electric_scooter", "fusion_lon": 0.0, "is_reserved": 0, "bike_id": "71704ed72f8d50a6ca46a6119f9358b3", "fusion_lat": 0.0, "is_disabled": 0, "rental_uris": {"ios": "https://dc.lft.to/lastmile_qr_scan", "android": "https://dc.lft.to/lastmile_qr_scan"}}, {"name": "273051e6c555cbdb0fa909f779a5b57a", "lon": -76.98618316666666, "lat": 38.93828516666667, "type": "electric_scooter", "fusion_lon": 0.0, "is_reserved": 0, "bike_id": "273051e6c555cbdb0fa909f779a5b57a", "fusion_lat": 0.0, "is_disabled": 0, "rental_uris": {"ios": "https://dc.lft.to/lastmile_qr_scan", "android": "https://dc.lft.to/lastmile_qr_scan"}}, {"name": "f759e739dc71f29e329c0c95bcb92e85", "lon": -77.04803533333333, "lat": 38.89222066666667, "type": "electric_scooter", "fusion_lon": 0.0, "is_reserved": 0, "bike_id": "f759e739dc71f29e329c0c95bcb92e85", "fusion_lat": 0.0, "is_disabled": 0, "rental_uris": {"ios": "https://dc.lft.to/lastmile_qr_scan", "android": "https://dc.lft.to/lastmile_qr_scan"}}, {"name": "02d9d3010191172beec1fc46fd633f6e", "lon": -76.997932, "lat": 38.909024333333335, "type": "electric_scooter", "fusion_lon": 0.0, "is_reserved": 0, "bike_id": "02d9d3010191172beec1fc46fd633f6e", "fusion_lat": 0.0, "is_disabled": 0, "rental_uris": {"ios": "https://dc.lft.to/lastmile_qr_scan", "android": "https://dc.lft.to/lastmile_qr_scan"}}, {"name": "b5ff034ab655a084b4fdbacedb4d2f29", "lon": -77.03284683333334, "lat": 38.938785333333335, "type": "electric_scooter", "fusion_lon": 0.0, "is_reserved": 0, "bike_id": "b5ff034ab655a084b4fdbacedb4d2f29", "fusion_lat": 0.0, "is_disabled": 0, "rental_uris": {"ios": "https://dc.lft.to/lastmile_qr_scan", "android": "https://dc.lft.to/lastmile_qr_scan"}}, {"name": "3a58cb4fdbb4d998c9c07543db1014d8", "lon": -77.03666, "lat": 38.9272205, "type": "electric_scooter", "fusion_lon": 0.0, "is_reserved": 0, "bike_id": "3a58cb4fdbb4d998c9c07543db1014d8", "fusion_lat": 0.0, "is_disabled": 0, "rental_uris": {"ios": "https://dc.lft.to/lastmile_qr_scan", "android": "https://dc.lft.to/lastmile_qr_scan"}}, {"name": "119b70cd84149d0b78e3ab1ce6e2a552", "lon": -77.03169483333333, "lat": 38.92868, "type": "electric_scooter", "fusion_lon": 0.0, "is_reserved": 0, "bike_id": "119b70cd84149d0b78e3ab1ce6e2a552", "fusion_lat": 0.0, "is_disabled": 0, "rental_uris": {"ios": "https://dc.lft.to/lastmile_qr_scan", "android": "https://dc.lft.to/lastmile_qr_scan"}}, {"name": "9a0146c1c0dc59f6ce8c59b5d2296539", "lon": -77.03212316666666, "lat": 38.914807333333336, "type": "electric_scooter", "fusion_lon": 0.0, "is_reserved": 0, "bike_id": "9a0146c1c0dc59f6ce8c59b5d2296539", "fusion_lat": 0.0, "is_disabled": 0, "rental_uris": {"ios": "https://dc.lft.to/lastmile_qr_scan", "android": "https://dc.lft.to/lastmile_qr_scan"}}, {"name": "69ee83e381102ac7a97599029e6df62a", "lon": -77.01849583333333, "lat": 38.915215, "type": "electric_scooter", "fusion_lon": 0.0, "is_reserved": 0, "bike_id": "69ee83e381102ac7a97599029e6df62a", "fusion_lat": 0.0, "is_disabled": 0, "rental_uris": {"ios": "https://dc.lft.to/lastmile_qr_scan", "android": "https://dc.lft.to/lastmile_qr_scan"}}, {"name": "e4ff7ada1156aa00839c390150601a5a", "lon": -77.0272275, "lat": 38.949558833333334, "type": "electric_scooter", "fusion_lon": 0.0, "is_reserved": 0, "bike_id": "e4ff7ada1156aa00839c390150601a5a", "fusion_lat": 0.0, "is_disabled": 0, "rental_uris": {"ios": "https://dc.lft.to/lastmile_qr_scan", "android": "https://dc.lft.to/lastmile_qr_scan"}}, {"name": "eb97999c3e3ec15f930463a06b092d0b", "lon": -76.936131, "lat": 38.886705666666664, "type": "electric_scooter", "fusion_lon": 0.0, "is_reserved": 0, "bike_id": "eb97999c3e3ec15f930463a06b092d0b", "fusion_lat": 0.0, "is_disabled": 0, "rental_uris": {"ios": "https://dc.lft.to/lastmile_qr_scan", "android": "https://dc.lft.to/lastmile_qr_scan"}}, {"name": "bd59c8071b7a4d94e3b5dccf7ba963cd", "lon": -77.02791666666667, "lat": 38.954060166666665, "type": "electric_scooter", "fusion_lon": 0.0, "is_reserved": 0, "bike_id": "bd59c8071b7a4d94e3b5dccf7ba963cd", "fusion_lat": 0.0, "is_disabled": 0, "rental_uris": {"ios": "https://dc.lft.to/lastmile_qr_scan", "android": "https://dc.lft.to/lastmile_qr_scan"}}, {"name": "9cf19d301c1800f0e3c79652fe5e2688", "lon": -77.05121933333334, "lat": 38.9234945, "type": "electric_scooter", "fusion_lon": 0.0, "is_reserved": 0, "bike_id": "9cf19d301c1800f0e3c79652fe5e2688", "fusion_lat": 0.0, "is_disabled": 0, "rental_uris": {"ios": "https://dc.lft.to/lastmile_qr_scan", "android": "https://dc.lft.to/lastmile_qr_scan"}}, {"name": "b94265bfffa93cf52d374b31f340fc9a", "lon": -77.02097833333333, "lat": 38.92175316666667, "type": "electric_scooter", "fusion_lon": 0.0, "is_reserved": 0, "bike_id": "b94265bfffa93cf52d374b31f340fc9a", "fusion_lat": 0.0, "is_disabled": 0, "rental_uris": {"ios": "https://dc.lft.to/lastmile_qr_scan", "android": "https://dc.lft.to/lastmile_qr_scan"}}, {"name": "99f39236dce7286d23a38087baf6732d", "lon": -77.029947, "lat": 38.90269083333333, "type": "electric_scooter", "fusion_lon": 0.0, "is_reserved": 0, "bike_id": "99f39236dce7286d23a38087baf6732d", "fusion_lat": 0.0, "is_disabled": 0, "rental_uris": {"ios": "https://dc.lft.to/lastmile_qr_scan", "android": "https://dc.lft.to/lastmile_qr_scan"}}, {"name": "a5740072288bb2318bdadc2e88384e7a", "lon": -77.03944516666667, "lat": 38.924593, "type": "electric_scooter", "fusion_lon": 0.0, "is_reserved": 0, "bike_id": "a5740072288bb2318bdadc2e88384e7a", "fusion_lat": 0.0, "is_disabled": 0, "rental_uris": {"ios": "https://dc.lft.to/lastmile_qr_scan", "android": "https://dc.lft.to/lastmile_qr_scan"}}, {"name": "d9352aaf0925dab39944c86de1e19749", "lon": -77.0523855, "lat": 38.92357966666667, "type": "electric_scooter", "fusion_lon": 0.0, "is_reserved": 0, "bike_id": "d9352aaf0925dab39944c86de1e19749", "fusion_lat": 0.0, "is_disabled": 0, "rental_uris": {"ios": "https://dc.lft.to/lastmile_qr_scan", "android": "https://dc.lft.to/lastmile_qr_scan"}}, {"name": "cf4ce7412139548073e03be6c6cd2da4", "lon": -77.03282083333333, "lat": 38.93249633333333, "type": "electric_scooter", "fusion_lon": 0.0, "is_reserved": 0, "bike_id": "cf4ce7412139548073e03be6c6cd2da4", "fusion_lat": 0.0, "is_disabled": 0, "rental_uris": {"ios": "https://dc.lft.to/lastmile_qr_scan", "android": "https://dc.lft.to/lastmile_qr_scan"}}, {"name": "9246ac37c819bcbabab96f00224c45f8", "lon": -76.96525883333334, "lat": 38.876274333333335, "type": "electric_scooter", "fusion_lon": 0.0, "is_reserved": 0, "bike_id": "9246ac37c819bcbabab96f00224c45f8", "fusion_lat": 0.0, "is_disabled": 0, "rental_uris": {"ios": "https://dc.lft.to/lastmile_qr_scan", "android": "https://dc.lft.to/lastmile_qr_scan"}}, {"name": "0577111eabeb68e88e79e0a62e03ab31", "lon": -77.04026866666666, "lat": 38.904094, "type": "electric_scooter", "fusion_lon": 0.0, "is_reserved": 0, "bike_id": "0577111eabeb68e88e79e0a62e03ab31", "fusion_lat": 0.0, "is_disabled": 0, "rental_uris": {"ios": "https://dc.lft.to/lastmile_qr_scan", "android": "https://dc.lft.to/lastmile_qr_scan"}}, {"name": "987c598559e8ef4307b14f6c0a9e6dbc", "lon": -77.041737, "lat": 38.9012425, "type": "electric_scooter", "fusion_lon": 0.0, "is_reserved": 0, "bike_id": "987c598559e8ef4307b14f6c0a9e6dbc", "fusion_lat": 0.0, "is_disabled": 0, "rental_uris": {"ios": "https://dc.lft.to/lastmile_qr_scan", "android": "https://dc.lft.to/lastmile_qr_scan"}}, {"name": "048fcb31f93d1d2268f5b4dbf836f0eb", "lon": -77.03207716666667, "lat": 38.909222666666665, "type": "electric_scooter", "fusion_lon": 0.0, "is_reserved": 0, "bike_id": "048fcb31f93d1d2268f5b4dbf836f0eb", "fusion_lat": 0.0, "is_disabled": 0, "rental_uris": {"ios": "https://dc.lft.to/lastmile_qr_scan", "android": "https://dc.lft.to/lastmile_qr_scan"}}, {"name": "c2d3e951ee52b6d7e56eb57f2d47fdef", "lon": -77.02813533333334, "lat": 38.91043066666667, "type": "electric_scooter", "fusion_lon": 0.0, "is_reserved": 0, "bike_id": "c2d3e951ee52b6d7e56eb57f2d47fdef", "fusion_lat": 0.0, "is_disabled": 0, "rental_uris": {"ios": "https://dc.lft.to/lastmile_qr_scan", "android": "https://dc.lft.to/lastmile_qr_scan"}}, {"name": "c4251536bcec8679905bce7845cf0a24", "lon": -77.02646083333333, "lat": 38.98447683333333, "type": "electric_scooter", "fusion_lon": 0.0, "is_reserved": 0, "bike_id": "c4251536bcec8679905bce7845cf0a24", "fusion_lat": 0.0, "is_disabled": 0, "rental_uris": {"ios": "https://dc.lft.to/lastmile_qr_scan", "android": "https://dc.lft.to/lastmile_qr_scan"}}, {"name": "f7ff6509e4251da98bab61db2bcbd34f", "lon": -77.0048455, "lat": 38.87478266666667, "type": "electric_scooter", "fusion_lon": 0.0, "is_reserved": 0, "bike_id": "f7ff6509e4251da98bab61db2bcbd34f", "fusion_lat": 0.0, "is_disabled": 0, "rental_uris": {"ios": "https://dc.lft.to/lastmile_qr_scan", "android": "https://dc.lft.to/lastmile_qr_scan"}}, {"name": "baf0f20037627dd2789280f2c4afb659", "lon": -77.02815216666667, "lat": 38.91690416666667, "type": "electric_scooter", "fusion_lon": 0.0, "is_reserved": 0, "bike_id": "baf0f20037627dd2789280f2c4afb659", "fusion_lat": 0.0, "is_disabled": 0, "rental_uris": {"ios": "https://dc.lft.to/lastmile_qr_scan", "android": "https://dc.lft.to/lastmile_qr_scan"}}, {"name": "c590c69cdc191571f40500e7b4a02be8", "lon": -76.90977133333334, "lat": 38.854057833333336, "type": "electric_bike", "fusion_lon": 0.0, "is_reserved": 0, "bike_id": "c590c69cdc191571f40500e7b4a02be8", "fusion_lat": 0.0, "is_disabled": 0, "rental_uris": {"ios": "https://dc.lft.to/lastmile_qr_scan", "android": "https://dc.lft.to/lastmile_qr_scan"}}, {"name": "f3e3c73456697104066eab70e0ebb978", "lon": -77.0409695, "lat": 38.91774066666667, "type": "electric_scooter", "fusion_lon": 0.0, "is_reserved": 0, "bike_id": "f3e3c73456697104066eab70e0ebb978", "fusion_lat": 0.0, "is_disabled": 0, "rental_uris": {"ios": "https://dc.lft.to/lastmile_qr_scan", "android": "https://dc.lft.to/lastmile_qr_scan"}}, {"name": "21a360397b8284b444e6b6a0258d6ff0", "lon": -77.04325683333333, "lat": 38.89223366666667, "type": "electric_scooter", "fusion_lon": 0.0, "is_reserved": 0, "bike_id": "21a360397b8284b444e6b6a0258d6ff0", "fusion_lat": 0.0, "is_disabled": 0, "rental_uris": {"ios": "https://dc.lft.to/lastmile_qr_scan", "android": "https://dc.lft.to/lastmile_qr_scan"}}, {"name": "e74ea0b57b2470ee469fa44085f617da", "lon": -77.0268145, "lat": 38.88129516666667, "type": "electric_scooter", "fusion_lon": 0.0, "is_reserved": 0, "bike_id": "e74ea0b57b2470ee469fa44085f617da", "fusion_lat": 0.0, "is_disabled": 0, "rental_uris": {"ios": "https://dc.lft.to/lastmile_qr_scan", "android": "https://dc.lft.to/lastmile_qr_scan"}}, {"name": "103f0a2244cea10a438cf536f41ebda1", "lon": -77.032608, "lat": 38.94623083333333, "type": "electric_scooter", "fusion_lon": 0.0, "is_reserved": 0, "bike_id": "103f0a2244cea10a438cf536f41ebda1", "fusion_lat": 0.0, "is_disabled": 0, "rental_uris": {"ios": "https://dc.lft.to/lastmile_qr_scan", "android": "https://dc.lft.to/lastmile_qr_scan"}}, {"name": "388bd0579334b0aa38458a0fe21a82e4", "lon": -77.031722, "lat": 38.91702733333333, "type": "electric_scooter", "fusion_lon": 0.0, "is_reserved": 0, "bike_id": "388bd0579334b0aa38458a0fe21a82e4", "fusion_lat": 0.0, "is_disabled": 0, "rental_uris": {"ios": "https://dc.lft.to/lastmile_qr_scan", "android": "https://dc.lft.to/lastmile_qr_scan"}}, {"name": "dc90e672101b2753f9e0f36603807eed", "lon": -76.98098483333334, "lat": 38.921042666666665, "type": "electric_bike", "fusion_lon": 0.0, "is_reserved": 0, "bike_id": "dc90e672101b2753f9e0f36603807eed", "fusion_lat": 0.0, "is_disabled": 0, "rental_uris": {"ios": "https://dc.lft.to/lastmile_qr_scan", "android": "https://dc.lft.to/lastmile_qr_scan"}}, {"name": "80ace7c25a637257da3e1ac2b5118597", "lon": -76.98778866666666, "lat": 38.865966, "type": "electric_bike", "fusion_lon": 0.0, "is_reserved": 0, "bike_id": "80ace7c25a637257da3e1ac2b5118597", "fusion_lat": 0.0, "is_disabled": 0, "rental_uris": {"ios": "https://dc.lft.to/lastmile_qr_scan", "android": "https://dc.lft.to/lastmile_qr_scan"}}, {"name": "2e6e0c5698f95ffd72f814f09ce8b650", "lon": -77.0318025, "lat": 38.909707833333336, "type": "electric_scooter", "fusion_lon": 0.0, "is_reserved": 0, "bike_id": "2e6e0c5698f95ffd72f814f09ce8b650", "fusion_lat": 0.0, "is_disabled": 0, "rental_uris": {"ios": "https://dc.lft.to/lastmile_qr_scan", "android": "https://dc.lft.to/lastmile_qr_scan"}}, {"name": "6c280f733f50c99c9d140f5ce3f7a55f", "lon": -77.00264166666666, "lat": 38.92238666666667, "type": "electric_scooter", "fusion_lon": 0.0, "is_reserved": 0, "bike_id": "6c280f733f50c99c9d140f5ce3f7a55f", "fusion_lat": 0.0, "is_disabled": 0, "rental_uris": {"ios": "https://dc.lft.to/lastmile_qr_scan", "android": "https://dc.lft.to/lastmile_qr_scan"}}, {"name": "4de722b34f915137dee91f4b8eeca6e2", "lon": -77.01654433333333, "lat": 38.8811635, "type": "electric_scooter", "fusion_lon": 0.0, "is_reserved": 0, "bike_id": "4de722b34f915137dee91f4b8eeca6e2", "fusion_lat": 0.0, "is_disabled": 0, "rental_uris": {"ios": "https://dc.lft.to/lastmile_qr_scan", "android": "https://dc.lft.to/lastmile_qr_scan"}}, {"name": "b0d42b8a797e7025c92e35169b0098ca", "lon": -76.98556733333334, "lat": 38.89962933333334, "type": "electric_bike", "fusion_lon": 0.0, "is_reserved": 0, "bike_id": "b0d42b8a797e7025c92e35169b0098ca", "fusion_lat": 0.0, "is_disabled": 0, "rental_uris": {"ios": "https://dc.lft.to/lastmile_qr_scan", "android": "https://dc.lft.to/lastmile_qr_scan"}}, {"name": "ce032b3cb446a6496e14585cbf086594", "lon": -77.00895416666667, "lat": 38.92486783333333, "type": "electric_scooter", "fusion_lon": 0.0, "is_reserved": 0, "bike_id": "ce032b3cb446a6496e14585cbf086594", "fusion_lat": 0.0, "is_disabled": 0, "rental_uris": {"ios": "https://dc.lft.to/lastmile_qr_scan", "android": "https://dc.lft.to/lastmile_qr_scan"}}, {"name": "df0a6de5c0a085942c9c12ccb4ba8b43", "lon": -77.04027966666666, "lat": 38.9236085, "type": "electric_scooter", "fusion_lon": 0.0, "is_reserved": 0, "bike_id": "df0a6de5c0a085942c9c12ccb4ba8b43", "fusion_lat": 0.0, "is_disabled": 0, "rental_uris": {"ios": "https://dc.lft.to/lastmile_qr_scan", "android": "https://dc.lft.to/lastmile_qr_scan"}}, {"name": "b16f7d989c8f1c90920ca1d1f7d2249a", "lon": -77.07151433333334, "lat": 38.92038316666667, "type": "electric_scooter", "fusion_lon": 0.0, "is_reserved": 0, "bike_id": "b16f7d989c8f1c90920ca1d1f7d2249a", "fusion_lat": 0.0, "is_disabled": 0, "rental_uris": {"ios": "https://dc.lft.to/lastmile_qr_scan", "android": "https://dc.lft.to/lastmile_qr_scan"}}, {"name": "0c8bd71b8738ad0ddc49cb239abdffa1", "lon": -77.0297075, "lat": 38.91575683333333, "type": "electric_bike", "fusion_lon": 0.0, "is_reserved": 0, "bike_id": "0c8bd71b8738ad0ddc49cb239abdffa1", "fusion_lat": 0.0, "is_disabled": 0, "rental_uris": {"ios": "https://dc.lft.to/lastmile_qr_scan", "android": "https://dc.lft.to/lastmile_qr_scan"}}, {"name": "1012d8a757c8c2ea5490c3d24fdfa23d", "lon": -77.02475966666667, "lat": 38.904062833333334, "type": "electric_scooter", "fusion_lon": 0.0, "is_reserved": 0, "bike_id": "1012d8a757c8c2ea5490c3d24fdfa23d", "fusion_lat": 0.0, "is_disabled": 0, "rental_uris": {"ios": "https://dc.lft.to/lastmile_qr_scan", "android": "https://dc.lft.to/lastmile_qr_scan"}}, {"name": "4e50769dbc97b3c6ef3ea02ede986549", "lon": -77.03442716666666, "lat": 38.90975, "type": "electric_scooter", "fusion_lon": 0.0, "is_reserved": 0, "bike_id": "4e50769dbc97b3c6ef3ea02ede986549", "fusion_lat": 0.0, "is_disabled": 0, "rental_uris": {"ios": "https://dc.lft.to/lastmile_qr_scan", "android": "https://dc.lft.to/lastmile_qr_scan"}}, {"name": "888d215c04713e8a782877aa1a9d5444", "lon": -76.9953565, "lat": 38.862454166666666, "type": "electric_scooter", "fusion_lon": 0.0, "is_reserved": 0, "bike_id": "888d215c04713e8a782877aa1a9d5444", "fusion_lat": 0.0, "is_disabled": 0, "rental_uris": {"ios": "https://dc.lft.to/lastmile_qr_scan", "android": "https://dc.lft.to/lastmile_qr_scan"}}, {"name": "20ec826faf0a885f0ee2fce51f19aec4", "lon": -77.038595, "lat": 38.91698216666666, "type": "electric_scooter", "fusion_lon": 0.0, "is_reserved": 0, "bike_id": "20ec826faf0a885f0ee2fce51f19aec4", "fusion_lat": 0.0, "is_disabled": 0, "rental_uris": {"ios": "https://dc.lft.to/lastmile_qr_scan", "android": "https://dc.lft.to/lastmile_qr_scan"}}, {"name": "6f0f15d71e68155ffa5c58e04eb48ff9", "lon": -77.008298, "lat": 38.82910483333333, "type": "electric_bike", "fusion_lon": 0.0, "is_reserved": 0, "bike_id": "6f0f15d71e68155ffa5c58e04eb48ff9", "fusion_lat": 0.0, "is_disabled": 0, "rental_uris": {"ios": "https://dc.lft.to/lastmile_qr_scan", "android": "https://dc.lft.to/lastmile_qr_scan"}}, {"name": "af94abfd36c6ce9a919af42917cddeca", "lon": -76.98598016666666, "lat": 38.91045883333334, "type": "electric_scooter", "fusion_lon": 0.0, "is_reserved": 0, "bike_id": "af94abfd36c6ce9a919af42917cddeca", "fusion_lat": 0.0, "is_disabled": 0, "rental_uris": {"ios": "https://dc.lft.to/lastmile_qr_scan", "android": "https://dc.lft.to/lastmile_qr_scan"}}, {"name": "755344449ae145620ee498731f6f665b", "lon": -76.945344, "lat": 38.86462433333333, "type": "electric_bike", "fusion_lon": 0.0, "is_reserved": 0, "bike_id": "755344449ae145620ee498731f6f665b", "fusion_lat": 0.0, "is_disabled": 0, "rental_uris": {"ios": "https://dc.lft.to/lastmile_qr_scan", "android": "https://dc.lft.to/lastmile_qr_scan"}}, {"name": "739cec7218e200714ade68271558c542", "lon": -77.04151, "lat": 38.92260433333333, "type": "electric_scooter", "fusion_lon": 0.0, "is_reserved": 0, "bike_id": "739cec7218e200714ade68271558c542", "fusion_lat": 0.0, "is_disabled": 0, "rental_uris": {"ios": "https://dc.lft.to/lastmile_qr_scan", "android": "https://dc.lft.to/lastmile_qr_scan"}}, {"name": "8f368b1e3da1f169a21bd652b25c5b29", "lon": -77.0303905, "lat": 38.938727166666666, "type": "electric_scooter", "fusion_lon": 0.0, "is_reserved": 0, "bike_id": "8f368b1e3da1f169a21bd652b25c5b29", "fusion_lat": 0.0, "is_disabled": 0, "rental_uris": {"ios": "https://dc.lft.to/lastmile_qr_scan", "android": "https://dc.lft.to/lastmile_qr_scan"}}, {"name": "7dfde6ffe82f123da3a33f0ac73b9768", "lon": -77.02614616666666, "lat": 38.90566533333333, "type": "electric_scooter", "fusion_lon": 0.0, "is_reserved": 0, "bike_id": "7dfde6ffe82f123da3a33f0ac73b9768", "fusion_lat": 0.0, "is_disabled": 0, "rental_uris": {"ios": "https://dc.lft.to/lastmile_qr_scan", "android": "https://dc.lft.to/lastmile_qr_scan"}}, {"name": "8097710a30c35fe2ab1bfd687844afec", "lon": -77.03247766666667, "lat": 38.9254285, "type": "electric_scooter", "fusion_lon": 0.0, "is_reserved": 0, "bike_id": "8097710a30c35fe2ab1bfd687844afec", "fusion_lat": 0.0, "is_disabled": 0, "rental_uris": {"ios": "https://dc.lft.to/lastmile_qr_scan", "android": "https://dc.lft.to/lastmile_qr_scan"}}, {"name": "48cbaa3ec674d84222c6169a568df383", "lon": -76.94942066666667, "lat": 38.894951666666664, "type": "electric_scooter", "fusion_lon": 0.0, "is_reserved": 0, "bike_id": "48cbaa3ec674d84222c6169a568df383", "fusion_lat": 0.0, "is_disabled": 0, "rental_uris": {"ios": "https://dc.lft.to/lastmile_qr_scan", "android": "https://dc.lft.to/lastmile_qr_scan"}}, {"name": "054f3d1bac7697496ffeee3f7cae532f", "lon": -77.03911983333333, "lat": 38.907940333333336, "type": "electric_scooter", "fusion_lon": 0.0, "is_reserved": 0, "bike_id": "054f3d1bac7697496ffeee3f7cae532f", "fusion_lat": 0.0, "is_disabled": 0, "rental_uris": {"ios": "https://dc.lft.to/lastmile_qr_scan", "android": "https://dc.lft.to/lastmile_qr_scan"}}, {"name": "80caa0bdc410042780c0ac2547e1e13c", "lon": -77.00892366666666, "lat": 38.903487166666665, "type": "electric_scooter", "fusion_lon": 0.0, "is_reserved": 0, "bike_id": "80caa0bdc410042780c0ac2547e1e13c", "fusion_lat": 0.0, "is_disabled": 0, "rental_uris": {"ios": "https://dc.lft.to/lastmile_qr_scan", "android": "https://dc.lft.to/lastmile_qr_scan"}}, {"name": "d5ae52acc2f8a15abb8e41c6afbfc971", "lon": -76.99030416666666, "lat": 38.90291833333333, "type": "electric_scooter", "fusion_lon": 0.0, "is_reserved": 0, "bike_id": "d5ae52acc2f8a15abb8e41c6afbfc971", "fusion_lat": 0.0, "is_disabled": 0, "rental_uris": {"ios": "https://dc.lft.to/lastmile_qr_scan", "android": "https://dc.lft.to/lastmile_qr_scan"}}, {"name": "5d0160b4d4aa022fd1c00f73a917eadd", "lon": -77.0268655, "lat": 38.8962645, "type": "electric_scooter", "fusion_lon": 0.0, "is_reserved": 0, "bike_id": "5d0160b4d4aa022fd1c00f73a917eadd", "fusion_lat": 0.0, "is_disabled": 0, "rental_uris": {"ios": "https://dc.lft.to/lastmile_qr_scan", "android": "https://dc.lft.to/lastmile_qr_scan"}}, {"name": "3055f4d36eb3afbe4d3fe87a9d5580d7", "lon": -76.95419816666667, "lat": 38.88999233333333, "type": "electric_bike", "fusion_lon": 0.0, "is_reserved": 0, "bike_id": "3055f4d36eb3afbe4d3fe87a9d5580d7", "fusion_lat": 0.0, "is_disabled": 0, "rental_uris": {"ios": "https://dc.lft.to/lastmile_qr_scan", "android": "https://dc.lft.to/lastmile_qr_scan"}}, {"name": "04ea2cc175f9787bc1f47aed655f31eb", "lon": -77.070951, "lat": 38.91974733333333, "type": "electric_scooter", "fusion_lon": 0.0, "is_reserved": 0, "bike_id": "04ea2cc175f9787bc1f47aed655f31eb", "fusion_lat": 0.0, "is_disabled": 0, "rental_uris": {"ios": "https://dc.lft.to/lastmile_qr_scan", "android": "https://dc.lft.to/lastmile_qr_scan"}}, {"name": "9a7a52b10f742babffc586b85ef1d432", "lon": -76.98253566666666, "lat": 38.904537166666664, "type": "electric_scooter", "fusion_lon": 0.0, "is_reserved": 0, "bike_id": "9a7a52b10f742babffc586b85ef1d432", "fusion_lat": 0.0, "is_disabled": 0, "rental_uris": {"ios": "https://dc.lft.to/lastmile_qr_scan", "android": "https://dc.lft.to/lastmile_qr_scan"}}, {"name": "196c6ce98616a12930d5efab0b570a0f", "lon": -77.06327766666666, "lat": 38.94419083333333, "type": "electric_scooter", "fusion_lon": 0.0, "is_reserved": 0, "bike_id": "196c6ce98616a12930d5efab0b570a0f", "fusion_lat": 0.0, "is_disabled": 0, "rental_uris": {"ios": "https://dc.lft.to/lastmile_qr_scan", "android": "https://dc.lft.to/lastmile_qr_scan"}}, {"name": "47620881566d8b9e08cc47a49eacf970", "lon": -77.02202083333333, "lat": 38.9040965, "type": "electric_scooter", "fusion_lon": 0.0, "is_reserved": 0, "bike_id": "47620881566d8b9e08cc47a49eacf970", "fusion_lat": 0.0, "is_disabled": 0, "rental_uris": {"ios": "https://dc.lft.to/lastmile_qr_scan", "android": "https://dc.lft.to/lastmile_qr_scan"}}, {"name": "a87aa373f3582d1877ccc2024624d490", "lon": -77.033292, "lat": 38.898438666666664, "type": "electric_scooter", "fusion_lon": 0.0, "is_reserved": 0, "bike_id": "a87aa373f3582d1877ccc2024624d490", "fusion_lat": 0.0, "is_disabled": 0, "rental_uris": {"ios": "https://dc.lft.to/lastmile_qr_scan", "android": "https://dc.lft.to/lastmile_qr_scan"}}, {"name": "7cb792d7d2f87ef0270b990b9c867443", "lon": -77.0245115, "lat": 38.9003945, "type": "electric_scooter", "fusion_lon": 0.0, "is_reserved": 0, "bike_id": "7cb792d7d2f87ef0270b990b9c867443", "fusion_lat": 0.0, "is_disabled": 0, "rental_uris": {"ios": "https://dc.lft.to/lastmile_qr_scan", "android": "https://dc.lft.to/lastmile_qr_scan"}}, {"name": "be5bec6b23a484668a9d5ed517bd5ba9", "lon": -77.1208145, "lat": 38.85420033333333, "type": "electric_bike", "fusion_lon": 0.0, "is_reserved": 0, "bike_id": "be5bec6b23a484668a9d5ed517bd5ba9", "fusion_lat": 0.0, "is_disabled": 0, "rental_uris": {"ios": "https://dc.lft.to/lastmile_qr_scan", "android": "https://dc.lft.to/lastmile_qr_scan"}}, {"name": "5c0834b8b4ffdc2e2b8c3c0a58f56603", "lon": -77.0231145, "lat": 38.92057283333333, "type": "electric_scooter", "fusion_lon": 0.0, "is_reserved": 0, "bike_id": "5c0834b8b4ffdc2e2b8c3c0a58f56603", "fusion_lat": 0.0, "is_disabled": 0, "rental_uris": {"ios": "https://dc.lft.to/lastmile_qr_scan", "android": "https://dc.lft.to/lastmile_qr_scan"}}, {"name": "a2767379a8989d3c1482c7de4f6ee563", "lon": -77.02710683333333, "lat": 38.8998945, "type": "electric_scooter", "fusion_lon": 0.0, "is_reserved": 0, "bike_id": "a2767379a8989d3c1482c7de4f6ee563", "fusion_lat": 0.0, "is_disabled": 0, "rental_uris": {"ios": "https://dc.lft.to/lastmile_qr_scan", "android": "https://dc.lft.to/lastmile_qr_scan"}}, {"name": "d00e48fc543a034ceff1202c6cdc674a", "lon": -77.01825083333334, "lat": 38.922246333333334, "type": "electric_scooter", "fusion_lon": 0.0, "is_reserved": 0, "bike_id": "d00e48fc543a034ceff1202c6cdc674a", "fusion_lat": 0.0, "is_disabled": 0, "rental_uris": {"ios": "https://dc.lft.to/lastmile_qr_scan", "android": "https://dc.lft.to/lastmile_qr_scan"}}, {"name": "0d6535ef34ae2e2e9352ded6f3527101", "lon": -77.016283, "lat": 38.901204166666666, "type": "electric_scooter", "fusion_lon": 0.0, "is_reserved": 0, "bike_id": "0d6535ef34ae2e2e9352ded6f3527101", "fusion_lat": 0.0, "is_disabled": 0, "rental_uris": {"ios": "https://dc.lft.to/lastmile_qr_scan", "android": "https://dc.lft.to/lastmile_qr_scan"}}, {"name": "53e85ecbc891b72de9ba596a31cefb71", "lon": -76.9976585, "lat": 38.922883166666665, "type": "electric_scooter", "fusion_lon": 0.0, "is_reserved": 0, "bike_id": "53e85ecbc891b72de9ba596a31cefb71", "fusion_lat": 0.0, "is_disabled": 0, "rental_uris": {"ios": "https://dc.lft.to/lastmile_qr_scan", "android": "https://dc.lft.to/lastmile_qr_scan"}}, {"name": "3c1131e261aeac4c4759e7d43a8b7f6b", "lon": -77.0289795, "lat": 38.887454166666664, "type": "electric_scooter", "fusion_lon": 0.0, "is_reserved": 0, "bike_id": "3c1131e261aeac4c4759e7d43a8b7f6b", "fusion_lat": 0.0, "is_disabled": 0, "rental_uris": {"ios": "https://dc.lft.to/lastmile_qr_scan", "android": "https://dc.lft.to/lastmile_qr_scan"}}, {"name": "f7a0d92d213b86efd8f1b847b690e4ea", "lon": -77.04859716666667, "lat": 38.90485416666667, "type": "electric_scooter", "fusion_lon": 0.0, "is_reserved": 0, "bike_id": "f7a0d92d213b86efd8f1b847b690e4ea", "fusion_lat": 0.0, "is_disabled": 0, "rental_uris": {"ios": "https://dc.lft.to/lastmile_qr_scan", "android": "https://dc.lft.to/lastmile_qr_scan"}}, {"name": "b58d1fb1990aa70c1db8d05984f6ca35", "lon": -77.04176316666667, "lat": 38.918231666666664, "type": "electric_scooter", "fusion_lon": 0.0, "is_reserved": 0, "bike_id": "b58d1fb1990aa70c1db8d05984f6ca35", "fusion_lat": 0.0, "is_disabled": 0, "rental_uris": {"ios": "https://dc.lft.to/lastmile_qr_scan", "android": "https://dc.lft.to/lastmile_qr_scan"}}, {"name": "4baa3ca31235383873f8a8151cc49db6", "lon": -77.0236935, "lat": 38.892218166666666, "type": "electric_scooter", "fusion_lon": 0.0, "is_reserved": 0, "bike_id": "4baa3ca31235383873f8a8151cc49db6", "fusion_lat": 0.0, "is_disabled": 0, "rental_uris": {"ios": "https://dc.lft.to/lastmile_qr_scan", "android": "https://dc.lft.to/lastmile_qr_scan"}}, {"name": "a5cd26fe2dd6a490d6019941d12d54c0", "lon": -77.06656133333334, "lat": 38.9506625, "type": "electric_bike", "fusion_lon": 0.0, "is_reserved": 0, "bike_id": "a5cd26fe2dd6a490d6019941d12d54c0", "fusion_lat": 0.0, "is_disabled": 0, "rental_uris": {"ios": "https://dc.lft.to/lastmile_qr_scan", "android": "https://dc.lft.to/lastmile_qr_scan"}}, {"name": "f41ee402510249b361e471cc717694cf", "lon": -77.03241516666667, "lat": 38.911214, "type": "electric_scooter", "fusion_lon": 0.0, "is_reserved": 0, "bike_id": "f41ee402510249b361e471cc717694cf", "fusion_lat": 0.0, "is_disabled": 0, "rental_uris": {"ios": "https://dc.lft.to/lastmile_qr_scan", "android": "https://dc.lft.to/lastmile_qr_scan"}}, {"name": "ca6e57de5c8940fe1857b58417ede697", "lon": -77.01187783333333, "lat": 38.9154675, "type": "electric_scooter", "fusion_lon": 0.0, "is_reserved": 0, "bike_id": "ca6e57de5c8940fe1857b58417ede697", "fusion_lat": 0.0, "is_disabled": 0, "rental_uris": {"ios": "https://dc.lft.to/lastmile_qr_scan", "android": "https://dc.lft.to/lastmile_qr_scan"}}, {"name": "7362f5f3a627833c2ffebc7854231414", "lon": -77.05396116666667, "lat": 38.928132166666664, "type": "electric_scooter", "fusion_lon": 0.0, "is_reserved": 0, "bike_id": "7362f5f3a627833c2ffebc7854231414", "fusion_lat": 0.0, "is_disabled": 0, "rental_uris": {"ios": "https://dc.lft.to/lastmile_qr_scan", "android": "https://dc.lft.to/lastmile_qr_scan"}}, {"name": "9d27b038e98966eec3126ba8250d476d", "lon": -76.98711483333334, "lat": 38.86700183333333, "type": "electric_scooter", "fusion_lon": 0.0, "is_reserved": 0, "bike_id": "9d27b038e98966eec3126ba8250d476d", "fusion_lat": 0.0, "is_disabled": 0, "rental_uris": {"ios": "https://dc.lft.to/lastmile_qr_scan", "android": "https://dc.lft.to/lastmile_qr_scan"}}, {"name": "37b921263206a0c3d230c48d507b7699", "lon": -76.95363166666667, "lat": 38.892101333333336, "type": "electric_scooter", "fusion_lon": 0.0, "is_reserved": 0, "bike_id": "37b921263206a0c3d230c48d507b7699", "fusion_lat": 0.0, "is_disabled": 0, "rental_uris": {"ios": "https://dc.lft.to/lastmile_qr_scan", "android": "https://dc.lft.to/lastmile_qr_scan"}}, {"name": "d2682d164df2ef0b6ece3070626fe7b7", "lon": -77.02892466666667, "lat": 38.887631166666665, "type": "electric_scooter", "fusion_lon": 0.0, "is_reserved": 0, "bike_id": "d2682d164df2ef0b6ece3070626fe7b7", "fusion_lat": 0.0, "is_disabled": 0, "rental_uris": {"ios": "https://dc.lft.to/lastmile_qr_scan", "android": "https://dc.lft.to/lastmile_qr_scan"}}, {"name": "82d02a935de39c4731b28ba84e5de4d5", "lon": -77.03548116666667, "lat": 38.90776366666667, "type": "electric_scooter", "fusion_lon": 0.0, "is_reserved": 0, "bike_id": "82d02a935de39c4731b28ba84e5de4d5", "fusion_lat": 0.0, "is_disabled": 0, "rental_uris": {"ios": "https://dc.lft.to/lastmile_qr_scan", "android": "https://dc.lft.to/lastmile_qr_scan"}}, {"name": "1bc3ed2edd97c4dfc630ba858376bad8", "lon": -76.948029, "lat": 38.861961, "type": "electric_bike", "fusion_lon": 0.0, "is_reserved": 0, "bike_id": "1bc3ed2edd97c4dfc630ba858376bad8", "fusion_lat": 0.0, "is_disabled": 0, "rental_uris": {"ios": "https://dc.lft.to/lastmile_qr_scan", "android": "https://dc.lft.to/lastmile_qr_scan"}}, {"name": "7a7451f3346a68807c7800dccdc98e9b", "lon": -77.0033875, "lat": 38.8898715, "type": "electric_scooter", "fusion_lon": 0.0, "is_reserved": 0, "bike_id": "7a7451f3346a68807c7800dccdc98e9b", "fusion_lat": 0.0, "is_disabled": 0, "rental_uris": {"ios": "https://dc.lft.to/lastmile_qr_scan", "android": "https://dc.lft.to/lastmile_qr_scan"}}, {"name": "f8a4f7ec6d8909d77d83eef6fa587f12", "lon": -77.04124733333333, "lat": 38.921672, "type": "electric_scooter", "fusion_lon": 0.0, "is_reserved": 0, "bike_id": "f8a4f7ec6d8909d77d83eef6fa587f12", "fusion_lat": 0.0, "is_disabled": 0, "rental_uris": {"ios": "https://dc.lft.to/lastmile_qr_scan", "android": "https://dc.lft.to/lastmile_qr_scan"}},