{"data": {"bikes": [{"bike_id": "2756f44ffe6c067b6065adcf5f580abc", "type": "electric_scooter", "is_disabled": 0, "lat": 38.898806, "rental_uris": {"ios": "https://dc.lft.to/lastmile_qr_scan", "android": "https://dc.lft.to/lastmile_qr_scan"}, "is_reserved": 0, "fusion_lon": 0.0, "fusion_lat": 0.0, "lon": -76.93174, "name": "2756f44ffe6c067b6065adcf5f580abc"}, {"bike_id": "6363212551625b89d4956ec07de6cc46", "type": "electric_bike", "is_disabled": 0, "lat": 38.94257433333333, "rental_uris": {"ios": "https://dc.lft.to/lastmile_qr_scan", "android": "https://dc.lft.to/lastmile_qr_scan"}, "is_reserved": 0, "fusion_lon": 0.0, "fusion_lat": 0.0, "lon": -76.9906995, "name": "6363212551625b89d4956ec07de6cc46"}, {"bike_id": "cf628ff6e4c28ecdfc2b26ace61f0dd3", "type": "electric_scooter", "is_disabled": 0, "lat": 38.881863833333334, "rental_uris": {"ios": "https://dc.lft.to/lastmile_qr_scan", "android": "https://dc.lft.to/lastmile_qr_scan"}, "is_reserved": 0, "fusion_lon": 0.0, "fusion_lat": 0.0, "lon": -77.02082833333333, "name": "cf628ff6e4c28ecdfc2b26ace61f0dd3"}, {"bike_id": "36b1f76c285af1d22da29c1b8a851fa0", "type": "electric_scooter", "is_disabled": 0, "lat": 38.915482833333336, "rental_uris": {"ios": "https://dc.lft.to/lastmile_qr_scan", "android": "https://dc.lft.to/lastmile_qr_scan"}, "is_reserved": 0, "fusion_lon": 0.0, "fusion_lat": 0.0, "lon": -77.0241485, "name": "36b1f76c285af1d22da29c1b8a851fa0"}, {"bike_id": "dfcc41ffa7494df95c0c3f40d7da8780", "type": "electric_scooter", "is_disabled": 0, "lat": 38.95109683333333, "rental_uris": {"ios": "https://dc.lft.to/lastmile_qr_scan", "android": "https://dc.lft.to/lastmile_qr_scan"}, "is_reserved": 0, "fusion_lon": 0.0, "fusion_lat": 0.0, "lon": -77.01430083333334, "name": "dfcc41ffa7494df95c0c3f40d7da8780"}, {"bike_id": "bf9b922a759290c9b69487000f3d6958", "type": "electric_bike", "is_disabled": 0, "lat": 38.84836, "rental_uris": {"ios": "https://dc.lft.to/lastmile_qr_scan", "android": "https://dc.lft.to/lastmile_qr_scan"}, "is_reserved": 0, "fusion_lon": 0.0, "fusion_lat": 0.0, "lon": -77.07911116666666, "name": "bf9b922a759290c9b69487000f3d6958"}, {"bike_id": "9db209dc619b6fca1a14b50f275df81e", "type": "electric_scooter", "is_disabled": 0, "lat": 38.917111, "rental_uris": {"ios": "https://dc.lft.to/lastmile_qr_scan", "android": "https://dc.lft.to/lastmile_qr_scan"}, "is_reserved": 0, "fusion_lon": 0.0, "fusion_lat": 0.0, "lon": -77.02412533333333, "name": "9db209dc619b6fca1a14b50f275df81e"}, {"bike_id": "562255fbd44c88f25192dc1a6eab4bd3", "type": "electric_scooter", "is_disabled": 0, "lat": 38.866680333333335, "rental_uris": {"ios": "https://dc.lft.to/lastmile_qr_scan", "android": "https://dc.lft.to/lastmile_qr_scan"}, "is_reserved": 0, "fusion_lon": 0.0, "fusion_lat": 0.0, "lon": -76.98533933333333, "name": "562255fbd44c88f25192dc1a6eab4bd3"}, {"bike_id": "31b18503572217f0badca783412ffebe", "type": "electric_bike", "is_disabled": 0, "lat": 38.92795266666667, "rental_uris": {"ios": "https://dc.lft.to/lastmile_qr_scan", "android": "https://dc.lft.to/lastmile_qr_scan"}, "is_reserved": 0, "fusion_lon": 0.0, "fusion_lat": 0.0, "lon": -77.02595966666667, "name": "31b18503572217f0badca783412ffebe"}, {"bike_id": "d1ef508c6939f63ddf7d2e70c12e017c", "type": "electric_scooter", "is_disabled": 0, "lat": 38.8972515, "rental_uris": {"ios": "https://dc.lft.to/lastmile_qr_scan", "android": "https://dc.lft.to/lastmile_qr_scan"}, "is_reserved": 0, "fusion_lon": 0.0, "fusion_lat": 0.0, "lon": -77.0469475, "name": "d1ef508c6939f63ddf7d2e70c12e017c"}, {"bike_id": "d013b40acde592e2b5320a14e2c902db", "type": "electric_bike", "is_disabled": 0, "lat": 38.90827816666667, "rental_uris": {"ios": "https://dc.lft.to/lastmile_qr_scan", "android": "https://dc.lft.to/lastmile_qr_scan"}, "is_reserved": 0, "fusion_lon": 0.0, "fusion_lat": 0.0, "lon": -76.9415605, "name": "d013b40acde592e2b5320a14e2c902db"}, {"bike_id": "d840730b7fdbff5b76e2259d52554ec5", "type": "electric_scooter", "is_disabled": 0, "lat": 38.90990383333333, "rental_uris": {"ios": "https://dc.lft.to/lastmile_qr_scan", "android": "https://dc.lft.to/lastmile_qr_scan"}, "is_reserved": 0, "fusion_lon": 0.0, "fusion_lat": 0.0, "lon": -77.04006616666666, "name": "d840730b7fdbff5b76e2259d52554ec5"}, {"bike_id": "32ba2eee61ea6b67acd3c0ea73795780", "type": "electric_scooter", "is_disabled": 0, "lat": 38.868279666666666, "rental_uris": {"ios": "https://dc.lft.to/lastmile_qr_scan", "android": "https://dc.lft.to/lastmile_qr_scan"}, "is_reserved": 0, "fusion_lon": 0.0, "fusion_lat": 0.0, "lon": -77.011481, "name": "32ba2eee61ea6b67acd3c0ea73795780"}, {"bike_id": "5659b0ca7917f15d125d4e77c1e4abd2", "type": "electric_scooter", "is_disabled": 0, "lat": 38.905552666666665, "rental_uris": {"ios": "https://dc.lft.to/lastmile_qr_scan", "android": "https://dc.lft.to/lastmile_qr_scan"}, "is_reserved": 0, "fusion_lon": 0.0, "fusion_lat": 0.0, "lon": -77.017946, "name": "5659b0ca7917f15d125d4e77c1e4abd2"}, {"bike_id": "3aea30ed154e08ba37060edd244acf1e", "type": "electric_scooter", "is_disabled": 0, "lat": 38.917031333333334, "rental_uris": {"ios": "https://dc.lft.to/lastmile_qr_scan", "android": "https://dc.lft.to/lastmile_qr_scan"}, "is_reserved": 0, "fusion_lon": 0.0, "fusion_lat": 0.0, "lon": -77.024832, "name": "3aea30ed154e08ba37060edd244acf1e"}, {"bike_id": "a0412b166494973687cafef3095b5b40", "type": "electric_bike", "is_disabled": 0, "lat": 38.88129433333334, "rental_uris": {"ios": "https://dc.lft.to/lastmile_qr_scan", "android": "https://dc.lft.to/lastmile_qr_scan"}, "is_reserved": 0, "fusion_lon": 0.0, "fusion_lat": 0.0, "lon": -77.093496, "name": "a0412b166494973687cafef3095b5b40"}, {"bike_id": "e2b393489077df16aef67946228cb3be", "type": "electric_bike", "is_disabled": 0, "lat": 39.05493883333333, "rental_uris": {"ios": "https://dc.lft.to/lastmile_qr_scan", "android": "https://dc.lft.to/lastmile_qr_scan"}, "is_reserved": 0, "fusion_lon": 0.0, "fusion_lat": 0.0, "lon": -77.11789216666666, "name": "e2b393489077df16aef67946228cb3be"}, {"bike_id": "c6574c8019d92eef95e3d142d25a9c2d", "type": "electric_scooter", "is_disabled": 0, "lat": 38.908408333333334, "rental_uris": {"ios": "https://dc.lft.to/lastmile_qr_scan", "android": "https://dc.lft.to/lastmile_qr_scan"}, "is_reserved": 0, "fusion_lon": 0.0, "fusion_lat": 0.0, "lon": -77.02194816666666, "name": "c6574c8019d92eef95e3d142d25a9c2d"}, {"bike_id": "1bfad0f65f86035cae511399495618f0", "type": "electric_scooter", "is_disabled": 0, "lat": 38.89344783333333, "rental_uris": {"ios": "https://dc.lft.to/lastmile_qr_scan", "android": "https://dc.lft.to/lastmile_qr_scan"}, "is_reserved": 0, "fusion_lon": 0.0, "fusion_lat": 0.0, "lon": -76.99271166666666, "name": "1bfad0f65f86035cae511399495618f0"}, {"bike_id": "23fc3c712dae76019cc65e65f77923f0", "type": "electric_bike", "is_disabled": 0, "lat": 39.037232333333336, "rental_uris": {"ios": "https://dc.lft.to/lastmile_qr_scan", "android": "https://dc.lft.to/lastmile_qr_scan"}, "is_reserved": 0, "fusion_lon": 0.0, "fusion_lat": 0.0, "lon": -77.054899, "name": "23fc3c712dae76019cc65e65f77923f0"}, {"bike_id": "1b06343aa4e5c567fa069d31e65670e8", "type": "electric_scooter", "is_disabled": 0, "lat": 38.9081075, "rental_uris": {"ios": "https://dc.lft.to/lastmile_qr_scan", "android": "https://dc.lft.to/lastmile_qr_scan"}, "is_reserved": 0, "fusion_lon": 0.0, "fusion_lat": 0.0, "lon": -77.0260645, "name": "1b06343aa4e5c567fa069d31e65670e8"}, {"bike_id": "71e56127b690104cb1796f2b5129ffb1", "type": "electric_scooter", "is_disabled": 0, "lat": 38.89955833333333, "rental_uris": {"ios": "https://dc.lft.to/lastmile_qr_scan", "android": "https://dc.lft.to/lastmile_qr_scan"}, "is_reserved": 0, "fusion_lon": 0.0, "fusion_lat": 0.0, "lon": -77.01509183333333, "name": "71e56127b690104cb1796f2b5129ffb1"}, {"bike_id": "9e47fb94f907b188e5d93496874529d2", "type": "electric_bike", "is_disabled": 0, "lat": 38.918986333333336, "rental_uris": {"ios": "https://dc.lft.to/lastmile_qr_scan", "android": "https://dc.lft.to/lastmile_qr_scan"}, "is_reserved": 0, "fusion_lon": 0.0, "fusion_lat": 0.0, "lon": -77.0006195, "name": "9e47fb94f907b188e5d93496874529d2"}, {"bike_id": "470b60eea9537fe9b10494536c44a1fd", "type": "electric_scooter", "is_disabled": 0, "lat": 38.887145, "rental_uris": {"ios": "https://dc.lft.to/lastmile_qr_scan", "android": "https://dc.lft.to/lastmile_qr_scan"}, "is_reserved": 0, "fusion_lon": 0.0, "fusion_lat": 0.0, "lon": -77.02178683333334, "name": "470b60eea9537fe9b10494536c44a1fd"}, {"bike_id": "81a2a002e883364399b485afd8bda43e", "type": "electric_scooter", "is_disabled": 0, "lat": 38.9024565, "rental_uris": {"ios": "https://dc.lft.to/lastmile_qr_scan", "android": "https://dc.lft.to/lastmile_qr_scan"}, "is_reserved": 0, "fusion_lon": 0.0, "fusion_lat": 0.0, "lon": -77.03583816666666, "name": "81a2a002e883364399b485afd8bda43e"}, {"bike_id": "f149aedc0fbd84b592db58c4f0a44b3a", "type": "electric_scooter", "is_disabled": 0, "lat": 38.884294, "rental_uris": {"ios": "https://dc.lft.to/lastmile_qr_scan", "android": "https://dc.lft.to/lastmile_qr_scan"}, "is_reserved": 0, "fusion_lon": 0.0, "fusion_lat": 0.0, "lon": -76.95752616666667, "name": "f149aedc0fbd84b592db58c4f0a44b3a"}, {"bike_id": "8e9a7372e117b96a212c8f7d93159bc8", "type": "electric_scooter", "is_disabled": 0, "lat": 38.92945983333333, "rental_uris": {"ios": "https://dc.lft.to/lastmile_qr_scan", "android": "https://dc.lft.to/lastmile_qr_scan"}, "is_reserved": 0, "fusion_lon": 0.0, "fusion_lat": 0.0, "lon": -77.03759416666666, "name": "8e9a7372e117b96a212c8f7d93159bc8"}, {"bike_id": "0210ff9a88fd569e14f4208b56f45d18", "type": "electric_scooter", "is_disabled": 0, "lat": 38.89560916666667, "rental_uris": {"ios": "https://dc.lft.to/lastmile_qr_scan", "android": "https://dc.lft.to/lastmile_qr_scan"}, "is_reserved": 0, "fusion_lon": 0.0, "fusion_lat": 0.0, "lon": -77.03147883333334, "name": "0210ff9a88fd569e14f4208b56f45d18"}, {"bike_id": "89e3f45960221454fbeb05544a2bd1a0", "type": "electric_scooter", "is_disabled": 0, "lat": 38.90053483333333, "rental_uris": {"ios": "https://dc.lft.to/lastmile_qr_scan", "android": "https://dc.lft.to/lastmile_qr_scan"}, "is_reserved": 0, "fusion_lon": 0.0, "fusion_lat": 0.0, "lon": -77.050415, "name": "89e3f45960221454fbeb05544a2bd1a0"}, {"bike_id": "25be2f5cc3d8e5e02f5e57ea5f0b11eb", "type": "electric_scooter", "is_disabled": 0, "lat": 38.8969755, "rental_uris": {"ios": "https://dc.lft.to/lastmile_qr_scan", "android": "https://dc.lft.to/lastmile_qr_scan"}, "is_reserved": 0, "fusion_lon": 0.0, "fusion_lat": 0.0, "lon": -76.9299715, "name": "25be2f5cc3d8e5e02f5e57ea5f0b11eb"}, {"bike_id": "2cbb23f2295366ed82132f1dc2807929", "type": "electric_scooter", "is_disabled": 0, "lat": 38.94467016666667, "rental_uris": {"ios": "https://dc.lft.to/lastmile_qr_scan", "android": "https://dc.lft.to/lastmile_qr_scan"}, "is_reserved": 0, "fusion_lon": 0.0, "fusion_lat": 0.0, "lon": -77.02340816666667, "name": "2cbb23f2295366ed82132f1dc2807929"}, {"bike_id": "016fd821d36a41b3e07c18082bd575cf", "type": "electric_bike", "is_disabled": 0, "lat": 38.803892166666664, "rental_uris": {"ios": "https://dc.lft.to/lastmile_qr_scan", "android": "https://dc.lft.to/lastmile_qr_scan"}, "is_reserved": 0, "fusion_lon": 0.0, "fusion_lat": 0.0, "lon": -77.05564633333333, "name": "016fd821d36a41b3e07c18082bd575cf"}, {"bike_id": "a04fec863a53dfae66fa3cc46b3faa6d", "type": "electric_bike", "is_disabled": 0, "lat": 38.8651305, "rental_uris": {"ios": "https://dc.lft.to/lastmile_qr_scan", "android": "https://dc.lft.to/lastmile_qr_scan"}, "is_reserved": 0, "fusion_lon": 0.0, "fusion_lat": 0.0, "lon": -77.1293925, "name": "a04fec863a53dfae66fa3cc46b3faa6d"}, {"bike_id": "893cc5f3cdb778d55a3ac60098e7578c", "type": "electric_scooter", "is_disabled": 0, "lat": 38.90843366666667, "rental_uris": {"ios": "https://dc.lft.to/lastmile_qr_scan", "android": "https://dc.lft.to/lastmile_qr_scan"}, "is_reserved": 0, "fusion_lon": 0.0, "fusion_lat": 0.0, "lon": -77.02060933333334, "name": "893cc5f3cdb778d55a3ac60098e7578c"}, {"bike_id": "e08aa6ff55473fdce082243b82be28d6", "type": "electric_scooter", "is_disabled": 0, "lat": 38.9155, "rental_uris": {"ios": "https://dc.lft.to/lastmile_qr_scan", "android": "https://dc.lft.to/lastmile_qr_scan"}, "is_reserved": 0, "fusion_lon": 0.0, "fusion_lat": 0.0, "lon": -77.021355, "name": "e08aa6ff55473fdce082243b82be28d6"}, {"bike_id": "9f00672094586f3fe985b41b799478cb", "type": "electric_scooter", "is_disabled": 0, "lat": 38.914968333333334, "rental_uris": {"ios": "https://dc.lft.to/lastmile_qr_scan", "android": "https://dc.lft.to/lastmile_qr_scan"}, "is_reserved": 0, "fusion_lon": 0.0, "fusion_lat": 0.0, "lon": -77.0318155, "name": "9f00672094586f3fe985b41b799478cb"}, {"bike_id": "f81438696532f8efe56b00223d0b14c2", "type": "electric_scooter", "is_disabled": 0, "lat": 38.8820935, "rental_uris": {"ios": "https://dc.lft.to/lastmile_qr_scan", "android": "https://dc.lft.to/lastmile_qr_scan"}, "is_reserved": 0, "fusion_lon": 0.0, "fusion_lat": 0.0, "lon": -77.02915016666667, "name": "f81438696532f8efe56b00223d0b14c2"}, {"bike_id": "1940cb6c53385bed90de58a9871c047b", "type": "electric_scooter", "is_disabled": 0, "lat": 38.9018725, "rental_uris": {"ios": "https://dc.lft.to/lastmile_qr_scan", "android": "https://dc.lft.to/lastmile_qr_scan"}, "is_reserved": 0, "fusion_lon": 0.0, "fusion_lat": 0.0, "lon": -76.996803, "name": "1940cb6c53385bed90de58a9871c047b"}, {"bike_id": "136a85f3a7f6ea90442b1fe13abd7995", "type": "electric_scooter", "is_disabled": 0, "lat": 38.8789065, "rental_uris": {"ios": "https://dc.lft.to/lastmile_qr_scan", "android": "https://dc.lft.to/lastmile_qr_scan"}, "is_reserved": 0, "fusion_lon": 0.0, "fusion_lat": 0.0, "lon": -76.99165966666666, "name": "136a85f3a7f6ea90442b1fe13abd7995"}, {"bike_id": "f6986e7f7af10ca5ed1739c3aa15f213", "type": "electric_scooter", "is_disabled": 0, "lat": 38.930368666666666, "rental_uris": {"ios": "https://dc.lft.to/lastmile_qr_scan", "android": "https://dc.lft.to/lastmile_qr_scan"}, "is_reserved": 0, "fusion_lon": 0.0, "fusion_lat": 0.0, "lon": -77.0183075, "name": "f6986e7f7af10ca5ed1739c3aa15f213"}, {"bike_id": "015e12da2bcb325f7c217aec3a43df50", "type": "electric_scooter", "is_disabled": 0, "lat": 38.9314305, "rental_uris": {"ios": "https://dc.lft.to/lastmile_qr_scan", "android": "https://dc.lft.to/lastmile_qr_scan"}, "is_reserved": 0, "fusion_lon": 0.0, "fusion_lat": 0.0, "lon": -77.03352566666666, "name": "015e12da2bcb325f7c217aec3a43df50"}, {"bike_id": "28c5e4048e43068750aa14f35d8b0324", "type": "electric_bike", "is_disabled": 0, "lat": 38.97876466666666, "rental_uris": {"ios": "https://dc.lft.to/lastmile_qr_scan", "android": "https://dc.lft.to/lastmile_qr_scan"}, "is_reserved": 0, "fusion_lon": 0.0, "fusion_lat": 0.0, "lon": -77.06026616666666, "name": "28c5e4048e43068750aa14f35d8b0324"}, {"bike_id": "353cebb85b7c88bf5747efbfc98a641e", "type": "electric_scooter", "is_disabled": 0, "lat": 38.89476066666667, "rental_uris": {"ios": "https://dc.lft.to/lastmile_qr_scan", "android": "https://dc.lft.to/lastmile_qr_scan"}, "is_reserved": 0, "fusion_lon": 0.0, "fusion_lat": 0.0, "lon": -76.94863716666667, "name": "353cebb85b7c88bf5747efbfc98a641e"}, {"bike_id": "fc83a5b983766b57bed58edcc39dc613", "type": "electric_scooter", "is_disabled": 0, "lat": 38.89427583333333, "rental_uris": {"ios": "https://dc.lft.to/lastmile_qr_scan", "android": "https://dc.lft.to/lastmile_qr_scan"}, "is_reserved": 0, "fusion_lon": 0.0, "fusion_lat": 0.0, "lon": -77.01044833333333, "name": "fc83a5b983766b57bed58edcc39dc613"}, {"bike_id": "bcb734def0e6b52c540128c9f24e641b", "type": "electric_scooter", "is_disabled": 0, "lat": 38.94018716666667, "rental_uris": {"ios": "https://dc.lft.to/lastmile_qr_scan", "android": "https://dc.lft.to/lastmile_qr_scan"}, "is_reserved": 0, "fusion_lon": 0.0, "fusion_lat": 0.0, "lon": -76.976061, "name": "bcb734def0e6b52c540128c9f24e641b"}, {"bike_id": "47166c962ee300a4a4972fac6dda68d1", "type": "electric_scooter", "is_disabled": 0, "lat": 38.876895, "rental_uris": {"ios": "https://dc.lft.to/lastmile_qr_scan", "android": "https://dc.lft.to/lastmile_qr_scan"}, "is_reserved": 0, "fusion_lon": 0.0, "fusion_lat": 0.0, "lon": -77.00527383333333, "name": "47166c962ee300a4a4972fac6dda68d1"}, {"bike_id": "ed28840100be97abc41eb52ab9dc4354", "type": "electric_scooter", "is_disabled": 0, "lat": 38.91110066666667, "rental_uris": {"ios": "https://dc.lft.to/lastmile_qr_scan", "android": "https://dc.lft.to/lastmile_qr_scan"}, "is_reserved": 0, "fusion_lon": 0.0, "fusion_lat": 0.0, "lon": -77.0373315, "name": "ed28840100be97abc41eb52ab9dc4354"}, {"bike_id": "8f2c2581c3427d7fc8eb8324d96e01f3", "type": "electric_scooter", "is_disabled": 0, "lat": 38.914929666666666, "rental_uris": {"ios": "https://dc.lft.to/lastmile_qr_scan", "android": "https://dc.lft.to/lastmile_qr_scan"}, "is_reserved": 0, "fusion_lon": 0.0, "fusion_lat": 0.0, "lon": -77.03122583333334, "name": "8f2c2581c3427d7fc8eb8324d96e01f3"}, {"bike_id": "fac09791216668c40141f6027462df4f", "type": "electric_scooter", "is_disabled": 0, "lat": 38.89381683333333, "rental_uris": {"ios": "https://dc.lft.to/lastmile_qr_scan", "android": "https://dc.lft.to/lastmile_qr_scan"}, "is_reserved": 0, "fusion_lon": 0.0, "fusion_lat": 0.0, "lon": -77.0226795, "name": "fac09791216668c40141f6027462df4f"}, {"bike_id": "0047dea6198d90720d38ff638bef94d9", "type": "electric_scooter", "is_disabled": 0, "lat": 38.906802666666664, "rental_uris": {"ios": "https://dc.lft.to/lastmile_qr_scan", "android": "https://dc.lft.to/lastmile_qr_scan"}, "is_reserved": 0, "fusion_lon": 0.0, "fusion_lat": 0.0, "lon": -76.97996366666666, "name": "0047dea6198d90720d38ff638bef94d9"}, {"bike_id": "c079fdf54436c2d6deae3a3d91210093", "type": "electric_scooter", "is_disabled": 0, "lat": 38.922447166666664, "rental_uris": {"ios": "https://dc.lft.to/lastmile_qr_scan", "android": "https://dc.lft.to/lastmile_qr_scan"}, "is_reserved": 0, "fusion_lon": 0.0, "fusion_lat": 0.0, "lon": -77.04269216666667, "name": "c079fdf54436c2d6deae3a3d91210093"}, {"bike_id": "88143d67a12985c76016a9000c665699", "type": "electric_scooter", "is_disabled": 0, "lat": 38.93006333333334, "rental_uris": {"ios": "https://dc.lft.to/lastmile_qr_scan", "android": "https://dc.lft.to/lastmile_qr_scan"}, "is_reserved": 0, "fusion_lon": 0.0, "fusion_lat": 0.0, "lon": -77.02091283333333, "name": "88143d67a12985c76016a9000c665699"}, {"bike_id": "b94cbecbea4e46677f22bac50a01f3e2", "type": "electric_scooter", "is_disabled": 0, "lat": 38.9067975, "rental_uris": {"ios": "https://dc.lft.to/lastmile_qr_scan", "android": "https://dc.lft.to/lastmile_qr_scan"}, "is_reserved": 0, "fusion_lon": 0.0, "fusion_lat": 0.0, "lon": -77.055834, "name": "b94cbecbea4e46677f22bac50a01f3e2"}, {"bike_id": "55360ef55e2f42eea89c2c3d1c158326", "type": "electric_scooter", "is_disabled": 0, "lat": 38.908668166666665, "rental_uris": {"ios": "https://dc.lft.to/lastmile_qr_scan", "android": "https://dc.lft.to/lastmile_qr_scan"}, "is_reserved": 0, "fusion_lon": 0.0, "fusion_lat": 0.0, "lon": -76.99953133333334, "name": "55360ef55e2f42eea89c2c3d1c158326"}, {"bike_id": "6618f4555a9b902913ed3a961a46d1ec", "type": "electric_scooter", "is_disabled": 0, "lat": 38.90845266666667, "rental_uris": {"ios": "https://dc.lft.to/lastmile_qr_scan", "android": "https://dc.lft.to/lastmile_qr_scan"}, "is_reserved": 0, "fusion_lon": 0.0, "fusion_lat": 0.0, "lon": -77.043287, "name": "6618f4555a9b902913ed3a961a46d1ec"}, {"bike_id": "0323e4188f31850a8f00517d6dc6c66e", "type": "electric_scooter", "is_disabled": 0, "lat": 38.916765166666664, "rental_uris": {"ios": "https://dc.lft.to/lastmile_qr_scan", "android": "https://dc.lft.to/lastmile_qr_scan"}, "is_reserved": 0, "fusion_lon": 0.0, "fusion_lat": 0.0, "lon": -77.0318595, "name": "0323e4188f31850a8f00517d6dc6c66e"}, {"bike_id": "2cbe6856faa170d1e07d161f9b10bca0", "type": "electric_bike", "is_disabled": 0, "lat": 38.93965583333333, "rental_uris": {"ios": "https://dc.lft.to/lastmile_qr_scan", "android": "https://dc.lft.to/lastmile_qr_scan"}, "is_reserved": 0, "fusion_lon": 0.0, "fusion_lat": 0.0, "lon": -77.05257433333334, "name": "2cbe6856faa170d1e07d161f9b10bca0"}, {"bike_id": "b22ed0f74186f2c89ae7d9f20f55701c", "type": "electric_bike", "is_disabled": 0, "lat": 38.92570216666667, "rental_uris": {"ios": "https://dc.lft.to/lastmile_qr_scan", "android": "https://dc.lft.to/lastmile_qr_scan"}, "is_reserved": 0, "fusion_lon": 0.0, "fusion_lat": 0.0, "lon": -77.04367716666667, "name": "b22ed0f74186f2c89ae7d9f20f55701c"}, {"bike_id": "a9ad67a036e4ac2f1321c5d4fb9a6a18", "type": "electric_scooter", "is_disabled": 0, "lat": 38.9247365, "rental_uris": {"ios": "https://dc.lft.to/lastmile_qr_scan", "android": "https://dc.lft.to/lastmile_qr_scan"}, "is_reserved": 0, "fusion_lon": 0.0, "fusion_lat": 0.0, "lon": -77.0283505, "name": "a9ad67a036e4ac2f1321c5d4fb9a6a18"}, {"bike_id": "4d091ee9d7b4b66117be1d95591666f3", "type": "electric_scooter", "is_disabled": 0, "lat": 38.88378133333333, "rental_uris": {"ios": "https://dc.lft.to/lastmile_qr_scan", "android": "https://dc.lft.to/lastmile_qr_scan"}, "is_reserved": 0, "fusion_lon": 0.0, "fusion_lat": 0.0, "lon": -77.01996066666666, "name": "4d091ee9d7b4b66117be1d95591666f3"}, {"bike_id": "e4ab96303d022391b63761a473fc999f", "type": "electric_scooter", "is_disabled": 0, "lat": 38.93714083333333, "rental_uris": {"ios": "https://dc.lft.to/lastmile_qr_scan", "android": "https://dc.lft.to/lastmile_qr_scan"}, "is_reserved": 0, "fusion_lon": 0.0, "fusion_lat": 0.0, "lon": -77.02469416666666, "name": "e4ab96303d022391b63761a473fc999f"}, {"bike_id": "df0d5b1a9eaa630e4e3862084e49dc32", "type": "electric_scooter", "is_disabled": 0, "lat": 38.89875033333333, "rental_uris": {"ios": "https://dc.lft.to/lastmile_qr_scan", "android": "https://dc.lft.to/lastmile_qr_scan"}, "is_reserved": 0, "fusion_lon": 0.0, "fusion_lat": 0.0, "lon": -76.9318515, "name": "df0d5b1a9eaa630e4e3862084e49dc32"}, {"bike_id": "241e366ea742e5b2d658afb2d0efca88", "type": "electric_scooter", "is_disabled": 0, "lat": 38.930993666666666, "rental_uris": {"ios": "https://dc.lft.to/lastmile_qr_scan", "android": "https://dc.lft.to/lastmile_qr_scan"}, "is_reserved": 0, "fusion_lon": 0.0, "fusion_lat": 0.0, "lon": -77.04118983333333, "name": "241e366ea742e5b2d658afb2d0efca88"}, {"bike_id": "b14cfe096ff748677d9da5d66cf188f8", "type": "electric_scooter", "is_disabled": 0, "lat": 38.896990833333334, "rental_uris": {"ios": "https://dc.lft.to/lastmile_qr_scan", "android": "https://dc.lft.to/lastmile_qr_scan"}, "is_reserved": 0, "fusion_lon": 0.0, "fusion_lat": 0.0, "lon": -77.04879783333334, "name": "b14cfe096ff748677d9da5d66cf188f8"}, {"bike_id": "8027b129cc275aeb79fa15a17ffc594f", "type": "electric_scooter", "is_disabled": 0, "lat": 38.8918895, "rental_uris": {"ios": "https://dc.lft.to/lastmile_qr_scan", "android": "https://dc.lft.to/lastmile_qr_scan"}, "is_reserved": 0, "fusion_lon": 0.0, "fusion_lat": 0.0, "lon": -77.03636, "name": "8027b129cc275aeb79fa15a17ffc594f"}, {"bike_id": "c2b964ea2ed36c110e54dcbf98118aea", "type": "electric_scooter", "is_disabled": 0, "lat": 38.91531116666667, "rental_uris": {"ios": "https://dc.lft.to/lastmile_qr_scan", "android": "https://dc.lft.to/lastmile_qr_scan"}, "is_reserved": 0, "fusion_lon": 0.0, "fusion_lat": 0.0, "lon": -77.03185016666667, "name": "c2b964ea2ed36c110e54dcbf98118aea"}, {"bike_id": "0a399980c9863e9f0e50fa52624836ae", "type": "electric_scooter", "is_disabled": 0, "lat": 38.94787633333333, "rental_uris": {"ios": "https://dc.lft.to/lastmile_qr_scan", "android": "https://dc.lft.to/lastmile_qr_scan"}, "is_reserved": 0, "fusion_lon": 0.0, "fusion_lat": 0.0, "lon": -77.02134166666667, "name": "0a399980c9863e9f0e50fa52624836ae"}, {"bike_id": "89c91ad8b10f73a6ecada1890ad62455", "type": "electric_scooter", "is_disabled": 0, "lat": 38.91316783333333, "rental_uris": {"ios": "https://dc.lft.to/lastmile_qr_scan", "android": "https://dc.lft.to/lastmile_qr_scan"}, "is_reserved": 0, "fusion_lon": 0.0, "fusion_lat": 0.0, "lon": -77.0385675, "name": "89c91ad8b10f73a6ecada1890ad62455"}, {"bike_id": "647956099e06bacaa7b9f6065114c2e6", "type": "electric_scooter", "is_disabled": 0, "lat": 38.91684683333333, "rental_uris": {"ios": "https://dc.lft.to/lastmile_qr_scan", "android": "https://dc.lft.to/lastmile_qr_scan"}, "is_reserved": 0, "fusion_lon": 0.0, "fusion_lat": 0.0, "lon": -77.02953316666667, "name": "647956099e06bacaa7b9f6065114c2e6"}, {"bike_id": "a0e958ef60ffdfc84ab0ffe15158036e", "type": "electric_scooter", "is_disabled": 0, "lat": 38.95853816666666, "rental_uris": {"ios": "https://dc.lft.to/lastmile_qr_scan", "android": "https://dc.lft.to/lastmile_qr_scan"}, "is_reserved": 0, "fusion_lon": 0.0, "fusion_lat": 0.0, "lon": -77.02799766666666, "name": "a0e958ef60ffdfc84ab0ffe15158036e"}, {"bike_id": "dcc77dd25e75995bb14c7bd7e49244e7", "type": "electric_scooter", "is_disabled": 0, "lat": 38.905586166666666, "rental_uris": {"ios": "https://dc.lft.to/lastmile_qr_scan", "android": "https://dc.lft.to/lastmile_qr_scan"}, "is_reserved": 0, "fusion_lon": 0.0, "fusion_lat": 0.0, "lon": -77.0281455, "name": "dcc77dd25e75995bb14c7bd7e49244e7"}, {"bike_id": "37ab0cb0f96bb3fe488ec66e10d60b64", "type": "electric_scooter", "is_disabled": 0, "lat": 38.973695, "rental_uris": {"ios": "https://dc.lft.to/lastmile_qr_scan", "android": "https://dc.lft.to/lastmile_qr_scan"}, "is_reserved": 0, "fusion_lon": 0.0, "fusion_lat": 0.0, "lon": -77.0186225, "name": "37ab0cb0f96bb3fe488ec66e10d60b64"}, {"bike_id": "698cd890ffce7ed7afbd5b3e54e80f9b", "type": "electric_scooter", "is_disabled": 0, "lat": 38.89362833333333, "rental_uris": {"ios": "https://dc.lft.to/lastmile_qr_scan", "android": "https://dc.lft.to/lastmile_qr_scan"}, "is_reserved": 0, "fusion_lon": 0.0, "fusion_lat": 0.0, "lon": -76.94703483333333, "name": "698cd890ffce7ed7afbd5b3e54e80f9b"}, {"bike_id": "417c87ccbd0e4927d407e9684a61b895", "type": "electric_scooter", "is_disabled": 0, "lat": 38.9091345, "rental_uris": {"ios": "https://dc.lft.to/lastmile_qr_scan", "android": "https://dc.lft.to/lastmile_qr_scan"}, "is_reserved": 0, "fusion_lon": 0.0, "fusion_lat": 0.0, "lon": -77.031887, "name": "417c87ccbd0e4927d407e9684a61b895"}, {"bike_id": "84084fb3cad8526497f4a422ad39b0c7", "type": "electric_scooter", "is_disabled": 0, "lat": 38.91265333333333, "rental_uris": {"ios": "https://dc.lft.to/lastmile_qr_scan", "android": "https://dc.lft.to/lastmile_qr_scan"}, "is_reserved": 0, "fusion_lon": 0.0, "fusion_lat": 0.0, "lon": -77.0295195, "name": "84084fb3cad8526497f4a422ad39b0c7"}, {"bike_id": "83bfbe03c48ecf2ef1c379d6f7fc9e66", "type": "electric_scooter", "is_disabled": 0, "lat": 38.887136166666664, "rental_uris": {"ios": "https://dc.lft.to/lastmile_qr_scan", "android": "https://dc.lft.to/lastmile_qr_scan"}, "is_reserved": 0, "fusion_lon": 0.0, "fusion_lat": 0.0, "lon": -77.021777, "name": "83bfbe03c48ecf2ef1c379d6f7fc9e66"}, {"bike_id": "a496d2ba74ef478c9f1ff0455551985b", "type": "electric_scooter", "is_disabled": 0, "lat": 38.95635516666667, "rental_uris": {"ios": "https://dc.lft.to/lastmile_qr_scan", "android": "https://dc.lft.to/lastmile_qr_scan"}, "is_reserved": 0, "fusion_lon": 0.0, "fusion_lat": 0.0, "lon": -77.0362875, "name": "a496d2ba74ef478c9f1ff0455551985b"}, {"bike_id": "0f96e045c5a0d3a14599459a827180cd", "type": "electric_bike", "is_disabled": 0, "lat": 38.8803915, "rental_uris": {"ios": "https://dc.lft.to/lastmile_qr_scan", "android": "https://dc.lft.to/lastmile_qr_scan"}, "is_reserved": 0, "fusion_lon": 0.0, "fusion_lat": 0.0, "lon": -77.02525416666667, "name": "0f96e045c5a0d3a14599459a827180cd"}, {"bike_id": "61b0e657f66eb21145de1451c4d943f9", "type": "electric_bike", "is_disabled": 0, "lat": 39.051082666666666, "rental_uris": {"ios": "https://dc.lft.to/lastmile_qr_scan", "android": "https://dc.lft.to/lastmile_qr_scan"}, "is_reserved": 0, "fusion_lon": 0.0, "fusion_lat": 0.0, "lon": -77.11739366666667, "name": "61b0e657f66eb21145de1451c4d943f9"}, {"bike_id": "3f2fb9af4bf30d04ca7978f4acb36904", "type": "electric_scooter", "is_disabled": 0, "lat": 38.8950635, "rental_uris": {"ios": "https://dc.lft.to/lastmile_qr_scan", "android": "https://dc.lft.to/lastmile_qr_scan"}, "is_reserved": 0, "fusion_lon": 0.0, "fusion_lat": 0.0, "lon": -77.0432835, "name": "3f2fb9af4bf30d04ca7978f4acb36904"}, {"bike_id": "ae9dc5b5c3bb97c410e008e725e34f8a", "type": "electric_scooter", "is_disabled": 0, "lat": 38.933183, "rental_uris": {"ios": "https://dc.lft.to/lastmile_qr_scan", "android": "https://dc.lft.to/lastmile_qr_scan"}, "is_reserved": 0, "fusion_lon": 0.0, "fusion_lat": 0.0, "lon": -77.0274345, "name": "ae9dc5b5c3bb97c410e008e725e34f8a"}, {"bike_id": "9d4130e374c67ff0c9b85001b029f091", "type": "electric_scooter", "is_disabled": 0, "lat": 38.89994883333333, "rental_uris": {"ios": "https://dc.lft.to/lastmile_qr_scan", "android": "https://dc.lft.to/lastmile_qr_scan"}, "is_reserved": 0, "fusion_lon": 0.0, "fusion_lat": 0.0, "lon": -77.02720033333334, "name": "9d4130e374c67ff0c9b85001b029f091"}, {"bike_id": "9a310a907aa395aae46c9e2e8d02010d", "type": "electric_scooter", "is_disabled": 0, "lat": 38.92231016666667, "rental_uris": {"ios": "https://dc.lft.to/lastmile_qr_scan", "android": "https://dc.lft.to/lastmile_qr_scan"}, "is_reserved": 0, "fusion_lon": 0.0, "fusion_lat": 0.0, "lon": -76.9753185, "name": "9a310a907aa395aae46c9e2e8d02010d"}, {"bike_id": "cfb48038a4728a72cde837d0d572eb24", "type": "electric_scooter", "is_disabled": 0, "lat": 38.90348066666667, "rental_uris": {"ios": "https://dc.lft.to/lastmile_qr_scan", "android": "https://dc.lft.to/lastmile_qr_scan"}, "is_reserved": 0, "fusion_lon": 0.0, "fusion_lat": 0.0, "lon": -76.992234, "name": "cfb48038a4728a72cde837d0d572eb24"}, {"bike_id": "170e5011d0e25517796c01927582ec6a", "type": "electric_scooter", "is_disabled": 0, "lat": 38.9114055, "rental_uris": {"ios": "https://dc.lft.to/lastmile_qr_scan", "android": "https://dc.lft.to/lastmile_qr_scan"}, "is_reserved": 0, "fusion_lon": 0.0, "fusion_lat": 0.0, "lon": -77.04498366666667, "name": "170e5011d0e25517796c01927582ec6a"}, {"bike_id": "03612f5c481d02e156ea3ba4afafe5ab", "type": "electric_scooter", "is_disabled": 0, "lat": 38.92086066666667, "rental_uris": {"ios": "https://dc.lft.to/lastmile_qr_scan", "android": "https://dc.lft.to/lastmile_qr_scan"}, "is_reserved": 0, "fusion_lon": 0.0, "fusion_lat": 0.0, "lon": -77.02524066666666, "name": "03612f5c481d02e156ea3ba4afafe5ab"}, {"bike_id": "26900795717f529ea459db54ae63351f", "type": "electric_bike", "is_disabled": 0, "lat": 38.900036666666665, "rental_uris": {"ios": "https://dc.lft.to/lastmile_qr_scan", "android": "https://dc.lft.to/lastmile_qr_scan"}, "is_reserved": 0, "fusion_lon": 0.0, "fusion_lat": 0.0, "lon": -77.00621783333334, "name": "26900795717f529ea459db54ae63351f"}, {"bike_id": "4180df39067171bdc4e289e8da1f3cd4", "type": "electric_scooter", "is_disabled": 0, "lat": 38.9069005, "rental_uris": {"ios": "https://dc.lft.to/lastmile_qr_scan", "android": "https://dc.lft.to/lastmile_qr_scan"}, "is_reserved": 0, "fusion_lon": 0.0, "fusion_lat": 0.0, "lon": -77.04199983333334, "name": "4180df39067171bdc4e289e8da1f3cd4"}, {"bike_id": "0f74368880a50aeb50f1e655367f2693", "type": "electric_scooter", "is_disabled": 0, "lat": 38.900417166666664, "rental_uris": {"ios": "https://dc.lft.to/lastmile_qr_scan", "android": "https://dc.lft.to/lastmile_qr_scan"}, "is_reserved": 0, "fusion_lon": 0.0, "fusion_lat": 0.0, "lon": -77.017229, "name": "0f74368880a50aeb50f1e655367f2693"}, {"bike_id": "8c219573239f1978f41476640d4cc927", "type": "electric_scooter", "is_disabled": 0, "lat": 38.92483416666666, "rental_uris": {"ios": "https://dc.lft.to/lastmile_qr_scan", "android": "https://dc.lft.to/lastmile_qr_scan"}, "is_reserved": 0, "fusion_lon": 0.0, "fusion_lat": 0.0, "lon": -77.03176283333333, "name": "8c219573239f1978f41476640d4cc927"}, {"bike_id": "8a9dd5aa8b9423a429fd0de1306a18b0", "type": "electric_scooter", "is_disabled": 0, "lat": 38.89859366666666, "rental_uris": {"ios": "https://dc.lft.to/lastmile_qr_scan", "android": "https://dc.lft.to/lastmile_qr_scan"}, "is_reserved": 0, "fusion_lon": 0.0, "fusion_lat": 0.0, "lon": -77.04204283333333, "name": "8a9dd5aa8b9423a429fd0de1306a18b0"}, {"bike_id": "9cc78e119a9d334ce25f9099b92df075", "type": "electric_scooter", "is_disabled": 0, "lat": 38.91653383333333, "rental_uris": {"ios": "https://dc.lft.to/lastmile_qr_scan", "android": "https://dc.lft.to/lastmile_qr_scan"}, "is_reserved": 0, "fusion_lon": 0.0, "fusion_lat": 0.0, "lon": -76.9791, "name": "9cc78e119a9d334ce25f9099b92df075"}, {"bike_id": "cbf161f95c010080fe04cc4a88082da1", "type": "electric_bike", "is_disabled": 0, "lat": 38.924664, "rental_uris": {"ios": "https://dc.lft.to/lastmile_qr_scan", "android": "https://dc.lft.to/lastmile_qr_scan"}, "is_reserved": 0, "fusion_lon": 0.0, "fusion_lat": 0.0, "lon": -77.03765066666666, "name": "cbf161f95c010080fe04cc4a88082da1"}, {"bike_id": "7538885ce6616bf1066912726b7240ac", "type": "electric_scooter", "is_disabled": 0, "lat": 38.9335815, "rental_uris": {"ios": "https://dc.lft.to/lastmile_qr_scan", "android": "https://dc.lft.to/lastmile_qr_scan"}, "is_reserved": 0, "fusion_lon": 0.0, "fusion_lat": 0.0, "lon": -77.026384, "name": "7538885ce6616bf1066912726b7240ac"}, {"bike_id": "b364816e089c7158c5f3820bccefcd4a", "type": "electric_scooter", "is_disabled": 0, "lat": 38.92327916666667, "rental_uris": {"ios": "https://dc.lft.to/lastmile_qr_scan", "android": "https://dc.lft.to/lastmile_qr_scan"}, "is_reserved": 0, "fusion_lon": 0.0, "fusion_lat": 0.0, "lon": -77.0088375, "name": "b364816e089c7158c5f3820bccefcd4a"}, {"bike_id": "5978612ad4d503d96c89ab4603cbc4e9", "type": "electric_bike", "is_disabled": 0, "lat": 38.987669333333336, "rental_uris": {"ios": "https://dc.lft.to/lastmile_qr_scan", "android": "https://dc.lft.to/lastmile_qr_scan"}, "is_reserved": 0, "fusion_lon": 0.0, "fusion_lat": 0.0, "lon": -77.14056133333334, "name": "5978612ad4d503d96c89ab4603cbc4e9"}, {"bike_id": "7bd249f3899ac2de5c48dbaa0f4c7973", "type": "electric_scooter", "is_disabled": 0, "lat": 38.907590166666665, "rental_uris": {"ios": "https://dc.lft.to/lastmile_qr_scan", "android": "https://dc.lft.to/lastmile_qr_scan"}, "is_reserved": 0, "fusion_lon": 0.0, "fusion_lat": 0.0, "lon": -77.0088015, "name": "7bd249f3899ac2de5c48dbaa0f4c7973"}, {"bike_id": "1e811638347f9235c5dd928fa75dbc64", "type": "electric_scooter", "is_disabled": 0, "lat": 38.911079, "rental_uris": {"ios": "https://dc.lft.to/lastmile_qr_scan", "android": "https://dc.lft.to/lastmile_qr_scan"}, "is_reserved": 0, "fusion_lon": 0.0, "fusion_lat": 0.0, "lon": -77.0325825, "name": "1e811638347f9235c5dd928fa75dbc64"}, {"bike_id": "8a289ba40268c9e9b174a938362dbecb", "type": "electric_scooter", "is_disabled": 0, "lat": 38.923352, "rental_uris": {"ios": "https://dc.lft.to/lastmile_qr_scan", "android": "https://dc.lft.to/lastmile_qr_scan"}, "is_reserved": 0, "fusion_lon": 0.0, "fusion_lat": 0.0, "lon": -77.05292983333334, "name": "8a289ba40268c9e9b174a938362dbecb"}, {"bike_id": "e9d8cdc6dd027cf1ecc8c2d3f681493b", "type": "electric_scooter", "is_disabled": 0, "lat": 38.909719, "rental_uris": {"ios": "https://dc.lft.to/lastmile_qr_scan", "android": "https://dc.lft.to/lastmile_qr_scan"}, "is_reserved": 0, "fusion_lon": 0.0, "fusion_lat": 0.0, "lon": -77.02695483333333, "name": "e9d8cdc6dd027cf1ecc8c2d3f681493b"}, {"bike_id": "73f996da83c24e05638efe8bb715a7e3", "type": "electric_scooter", "is_disabled": 0, "lat": 38.9327425, "rental_uris": {"ios": "https://dc.lft.to/lastmile_qr_scan", "android": "https://dc.lft.to/lastmile_qr_scan"}, "is_reserved": 0, "fusion_lon": 0.0, "fusion_lat": 0.0, "lon": -77.034986, "name": "73f996da83c24e05638efe8bb715a7e3"}, {"bike_id": "10a32f43405505fd65f1626437ea6cc4", "type": "electric_bike", "is_disabled": 0, "lat": 39.05632633333333, "rental_uris": {"ios": "https://dc.lft.to/lastmile_qr_scan", "android": "https://dc.lft.to/lastmile_qr_scan"}, "is_reserved": 0, "fusion_lon": 0.0, "fusion_lat": 0.0, "lon": -77.12525933333333, "name": "10a32f43405505fd65f1626437ea6cc4"}, {"bike_id": "1aa5509d68a656f02e47bddbc4ef3162", "type": "electric_scooter", "is_disabled": 0, "lat": 38.9180645, "rental_uris": {"ios": "https://dc.lft.to/lastmile_qr_scan", "android": "https://dc.lft.to/lastmile_qr_scan"}, "is_reserved": 0, "fusion_lon": 0.0, "fusion_lat": 0.0, "lon": -77.0319535, "name": "1aa5509d68a656f02e47bddbc4ef3162"}, {"bike_id": "8cc9f774f42bff3b66ceb5381c6c3db2", "type": "electric_scooter", "is_disabled": 0, "lat": 38.92346716666667, "rental_uris": {"ios": "https://dc.lft.to/lastmile_qr_scan", "android": "https://dc.lft.to/lastmile_qr_scan"}, "is_reserved": 0, "fusion_lon": 0.0, "fusion_lat": 0.0, "lon": -77.05122216666666, "name": "8cc9f774f42bff3b66ceb5381c6c3db2"}, {"bike_id": "ff8a0f0f93162392460adc6dbb8c5009", "type": "electric_scooter", "is_disabled": 0, "lat": 38.942091833333336, "rental_uris": {"ios": "https://dc.lft.to/lastmile_qr_scan", "android": "https://dc.lft.to/lastmile_qr_scan"}, "is_reserved": 0, "fusion_lon": 0.0, "fusion_lat": 0.0, "lon": -77.0258455, "name": "ff8a0f0f93162392460adc6dbb8c5009"}, {"bike_id": "911403a143ebac543754b80e4e192d75", "type": "electric_scooter", "is_disabled": 0, "lat": 38.938192, "rental_uris": {"ios": "https://dc.lft.to/lastmile_qr_scan", "android": "https://dc.lft.to/lastmile_qr_scan"}, "is_reserved": 0, "fusion_lon": 0.0, "fusion_lat": 0.0, "lon": -77.07163416666667, "name": "911403a143ebac543754b80e4e192d75"}, {"bike_id": "5fe3a671a8416076e025d858e8bd0620", "type": "electric_scooter", "is_disabled": 0, "lat": 38.888213, "rental_uris": {"ios": "https://dc.lft.to/lastmile_qr_scan", "android": "https://dc.lft.to/lastmile_qr_scan"}, "is_reserved": 0, "fusion_lon": 0.0, "fusion_lat": 0.0, "lon": -76.991597, "name": "5fe3a671a8416076e025d858e8bd0620"}, {"bike_id": "bd563ecb44844d25be483e0061b4429f", "type": "electric_scooter", "is_disabled": 0, "lat": 38.910324833333334, "rental_uris": {"ios": "https://dc.lft.to/lastmile_qr_scan", "android": "https://dc.lft.to/lastmile_qr_scan"}, "is_reserved": 0, "fusion_lon": 0.0, "fusion_lat": 0.0, "lon": -77.03796983333334, "name": "bd563ecb44844d25be483e0061b4429f"}, {"bike_id": "98e94cc6b008f4c82baefd2e2530a1bb", "type": "electric_scooter", "is_disabled": 0, "lat": 38.89276616666667, "rental_uris": {"ios": "https://dc.lft.to/lastmile_qr_scan", "android": "https://dc.lft.to/lastmile_qr_scan"}, "is_reserved": 0, "fusion_lon": 0.0, "fusion_lat": 0.0, "lon": -77.0334965, "name": "98e94cc6b008f4c82baefd2e2530a1bb"}, {"bike_id": "996bf46122acbe65a441365c2ea9012e", "type": "electric_scooter", "is_disabled": 0, "lat": 38.902537833333334, "rental_uris": {"ios": "https://dc.lft.to/lastmile_qr_scan", "android": "https://dc.lft.to/lastmile_qr_scan"}, "is_reserved": 0, "fusion_lon": 0.0, "fusion_lat": 0.0, "lon": -77.01754, "name": "996bf46122acbe65a441365c2ea9012e"}, {"bike_id": "e914684fadba65f28843f660a305da55", "type": "electric_scooter", "is_disabled": 0, "lat": 38.917831666666665, "rental_uris": {"ios": "https://dc.lft.to/lastmile_qr_scan", "android": "https://dc.lft.to/lastmile_qr_scan"}, "is_reserved": 0, "fusion_lon": 0.0, "fusion_lat": 0.0, "lon": -77.02292683333333, "name": "e914684fadba65f28843f660a305da55"}, {"bike_id": "112e49b7d7324c3799526ae4b5d6f9f2", "type": "electric_scooter", "is_disabled": 0, "lat": 38.90372766666667, "rental_uris": {"ios": "https://dc.lft.to/lastmile_qr_scan", "android": "https://dc.lft.to/lastmile_qr_scan"}, "is_reserved": 0, "fusion_lon": 0.0, "fusion_lat": 0.0, "lon": -76.94946433333334, "name": "112e49b7d7324c3799526ae4b5d6f9f2"}, {"bike_id": "a1a5b6fbf96bc316fcfdb2dd813758f1", "type": "electric_scooter", "is_disabled": 0, "lat": 38.8843085, "rental_uris": {"ios": "https://dc.lft.to/lastmile_qr_scan", "android": "https://dc.lft.to/lastmile_qr_scan"}, "is_reserved": 0, "fusion_lon": 0.0, "fusion_lat": 0.0, "lon": -76.95757566666667, "name": "a1a5b6fbf96bc316fcfdb2dd813758f1"}, {"bike_id": "3d544e4c88b6fb75b31771db8676de6d", "type": "electric_scooter", "is_disabled": 0, "lat": 38.914419, "rental_uris": {"ios": "https://dc.lft.to/lastmile_qr_scan", "android": "https://dc.lft.to/lastmile_qr_scan"}, "is_reserved": 0, "fusion_lon": 0.0, "fusion_lat": 0.0, "lon": -77.02590833333333, "name": "3d544e4c88b6fb75b31771db8676de6d"}, {"bike_id": "d324020915828500f221d95481b8854f", "type": "electric_scooter", "is_disabled": 0, "lat": 38.901337833333336, "rental_uris": {"ios": "https://dc.lft.to/lastmile_qr_scan", "android": "https://dc.lft.to/lastmile_qr_scan"}, "is_reserved": 0, "fusion_lon": 0.0, "fusion_lat": 0.0, "lon": -77.017874, "name": "d324020915828500f221d95481b8854f"}, {"bike_id": "295f24167d0d6512c9838ac949273487", "type": "electric_scooter", "is_disabled": 0, "lat": 38.887462166666666, "rental_uris": {"ios": "https://dc.lft.to/lastmile_qr_scan", "android": "https://dc.lft.to/lastmile_qr_scan"}, "is_reserved": 0, "fusion_lon": 0.0, "fusion_lat": 0.0, "lon": -77.02941733333333, "name": "295f24167d0d6512c9838ac949273487"}, {"bike_id": "edb2c1c5cd62e59084d0c7b69d719739", "type": "electric_scooter", "is_disabled": 0, "lat": 38.924610333333334, "rental_uris": {"ios": "https://dc.lft.to/lastmile_qr_scan", "android": "https://dc.lft.to/lastmile_qr_scan"}, "is_reserved": 0, "fusion_lon": 0.0, "fusion_lat": 0.0, "lon": -77.039535, "name": "edb2c1c5cd62e59084d0c7b69d719739"}, {"bike_id": "cae2ac448c4fe40924105f133bef8ac1", "type": "electric_scooter", "is_disabled": 0, "lat": 38.905011333333334, "rental_uris": {"ios": "https://dc.lft.to/lastmile_qr_scan", "android": "https://dc.lft.to/lastmile_qr_scan"}, "is_reserved": 0, "fusion_lon": 0.0, "fusion_lat": 0.0, "lon": -77.0295315, "name": "cae2ac448c4fe40924105f133bef8ac1"}, {"bike_id": "0960871ab13a2b6f15180487e86c57f7", "type": "electric_scooter", "is_disabled": 0, "lat": 38.914696, "rental_uris": {"ios": "https://dc.lft.to/lastmile_qr_scan", "android": "https://dc.lft.to/lastmile_qr_scan"}, "is_reserved": 0, "fusion_lon": 0.0, "fusion_lat": 0.0, "lon": -77.0197635, "name": "0960871ab13a2b6f15180487e86c57f7"}, {"bike_id": "cc3e63f8dbf30c16956e09464fe741ac", "type": "electric_scooter", "is_disabled": 0, "lat": 38.86622883333333, "rental_uris": {"ios": "https://dc.lft.to/lastmile_qr_scan", "android": "https://dc.lft.to/lastmile_qr_scan"}, "is_reserved": 0, "fusion_lon": 0.0, "fusion_lat": 0.0, "lon": -76.98713666666667, "name": "cc3e63f8dbf30c16956e09464fe741ac"}, {"bike_id": "f134558f7360d09fdbd3d7680d663fe0", "type": "electric_scooter", "is_disabled": 0, "lat": 38.913212, "rental_uris": {"ios": "https://dc.lft.to/lastmile_qr_scan", "android": "https://dc.lft.to/lastmile_qr_scan"}, "is_reserved": 0, "fusion_lon": 0.0, "fusion_lat": 0.0, "lon": -77.031784, "name": "f134558f7360d09fdbd3d7680d663fe0"}, {"bike_id": "c4092ae5a9a75afa4afc6bdb29deb6f3", "type": "electric_scooter", "is_disabled": 0, "lat": 38.897035, "rental_uris": {"ios": "https://dc.lft.to/lastmile_qr_scan", "android": "https://dc.lft.to/lastmile_qr_scan"}, "is_reserved": 0, "fusion_lon": 0.0, "fusion_lat": 0.0, "lon": -77.022892, "name": "c4092ae5a9a75afa4afc6bdb29deb6f3"}, {"bike_id": "18d5491ba85aa6a36de35ebf4e7abd2f", "type": "electric_scooter", "is_disabled": 0, "lat": 38.8863765, "rental_uris": {"ios": "https://dc.lft.to/lastmile_qr_scan", "android": "https://dc.lft.to/lastmile_qr_scan"}, "is_reserved": 0, "fusion_lon": 0.0, "fusion_lat": 0.0, "lon": -77.02137066666667, "name": "18d5491ba85aa6a36de35ebf4e7abd2f"}, {"bike_id": "9c88aedb92ce00c89490bf3b699fadd1", "type": "electric_scooter", "is_disabled": 0, "lat": 38.88714483333333, "rental_uris": {"ios": "https://dc.lft.to/lastmile_qr_scan", "android": "https://dc.lft.to/lastmile_qr_scan"}, "is_reserved": 0, "fusion_lon": 0.0, "fusion_lat": 0.0, "lon": -77.02179033333333, "name": "9c88aedb92ce00c89490bf3b699fadd1"}, {"bike_id": "d7cbaf166d672cf2cb6663a84dc9b27b", "type": "electric_scooter", "is_disabled": 0, "lat": 38.90832266666666, "rental_uris": {"ios": "https://dc.lft.to/lastmile_qr_scan", "android": "https://dc.lft.to/lastmile_qr_scan"}, "is_reserved": 0, "fusion_lon": 0.0, "fusion_lat": 0.0, "lon": -76.99696166666666, "name": "d7cbaf166d672cf2cb6663a84dc9b27b"}, {"bike_id": "17b2f28ac0fe87c4e73bf2335965d596", "type": "electric_scooter", "is_disabled": 0, "lat": 38.92338483333333, "rental_uris": {"ios": "https://dc.lft.to/lastmile_qr_scan", "android": "https://dc.lft.to/lastmile_qr_scan"}, "is_reserved": 0, "fusion_lon": 0.0, "fusion_lat": 0.0, "lon": -77.03516233333333, "name": "17b2f28ac0fe87c4e73bf2335965d596"}, {"bike_id": "2a1ff6b07adbf05cee63be47a6aa8ec9", "type": "electric_scooter", "is_disabled": 0, "lat": 38.933601, "rental_uris": {"ios": "https://dc.lft.to/lastmile_qr_scan", "android": "https://dc.lft.to/lastmile_qr_scan"}, "is_reserved": 0, "fusion_lon": 0.0, "fusion_lat": 0.0, "lon": -77.08856483333334, "name": "2a1ff6b07adbf05cee63be47a6aa8ec9"}, {"bike_id": "a131c040bf0377eac087a4c8bc2bd74f", "type": "electric_scooter", "is_disabled": 0, "lat": 38.899567, "rental_uris": {"ios": "https://dc.lft.to/lastmile_qr_scan", "android": "https://dc.lft.to/lastmile_qr_scan"}, "is_reserved": 0, "fusion_lon": 0.0, "fusion_lat": 0.0, "lon": -77.051525, "name": "a131c040bf0377eac087a4c8bc2bd74f"}, {"bike_id": "b77a2e6989e7a3c2e9270a36e300e2c1", "type": "electric_scooter", "is_disabled": 0, "lat": 38.90723766666667, "rental_uris": {"ios": "https://dc.lft.to/lastmile_qr_scan", "android": "https://dc.lft.to/lastmile_qr_scan"}, "is_reserved": 0, "fusion_lon": 0.0, "fusion_lat": 0.0, "lon": -77.02510616666666, "name": "b77a2e6989e7a3c2e9270a36e300e2c1"}, {"bike_id": "5e8ab58a820a3d1b23b496bcaf2223cd", "type": "electric_scooter", "is_disabled": 0, "lat": 38.97203066666667, "rental_uris": {"ios": "https://dc.lft.to/lastmile_qr_scan", "android": "https://dc.lft.to/lastmile_qr_scan"}, "is_reserved": 0, "fusion_lon": 0.0, "fusion_lat": 0.0, "lon": -77.0265245, "name": "5e8ab58a820a3d1b23b496bcaf2223cd"}, {"bike_id": "443e23dc7c05ce01c24a3a4bbd79fa24", "type": "electric_scooter", "is_disabled": 0, "lat": 38.92532516666667, "rental_uris": {"ios": "https://dc.lft.to/lastmile_qr_scan", "android": "https://dc.lft.to/lastmile_qr_scan"}, "is_reserved": 0, "fusion_lon": 0.0, "fusion_lat": 0.0, "lon": -77.033799, "name": "443e23dc7c05ce01c24a3a4bbd79fa24"}, {"bike_id": "c4d9026425bb7f026192eed9ca513f9f", "type": "electric_scooter", "is_disabled": 0, "lat": 38.905156833333336, "rental_uris": {"ios": "https://dc.lft.to/lastmile_qr_scan", "android": "https://dc.lft.to/lastmile_qr_scan"}, "is_reserved": 0, "fusion_lon": 0.0, "fusion_lat": 0.0, "lon": -77.01724716666666, "name": "c4d9026425bb7f026192eed9ca513f9f"}, {"bike_id": "965a8e6d4021756a5c4f95e0dc299cfb", "type": "electric_scooter", "is_disabled": 0, "lat": 38.91690416666667, "rental_uris": {"ios": "https://dc.lft.to/lastmile_qr_scan", "android": "https://dc.lft.to/lastmile_qr_scan"}, "is_reserved": 0, "fusion_lon": 0.0, "fusion_lat": 0.0, "lon": -77.03763133333334, "name": "965a8e6d4021756a5c4f95e0dc299cfb"}, {"bike_id": "68ec1f40fa4aef937c22c97e0a3c652d", "type": "electric_scooter", "is_disabled": 0, "lat": 38.90267733333334, "rental_uris": {"ios": "https://dc.lft.to/lastmile_qr_scan", "android": "https://dc.lft.to/lastmile_qr_scan"}, "is_reserved": 0, "fusion_lon": 0.0, "fusion_lat": 0.0, "lon": -77.054799, "name": "68ec1f40fa4aef937c22c97e0a3c652d"}, {"bike_id": "ddaf863502871637ce480212a99f905e", "type": "electric_scooter", "is_disabled": 0, "lat": 38.898425, "rental_uris": {"ios": "https://dc.lft.to/lastmile_qr_scan", "android": "https://dc.lft.to/lastmile_qr_scan"}, "is_reserved": 0, "fusion_lon": 0.0, "fusion_lat": 0.0, "lon": -76.94631066666666, "name": "ddaf863502871637ce480212a99f905e"}, {"bike_id": "a689e6ca4bfa770435572247a161fa50", "type": "electric_scooter", "is_disabled": 0, "lat": 38.92151066666667, "rental_uris": {"ios": "https://dc.lft.to/lastmile_qr_scan", "android": "https://dc.lft.to/lastmile_qr_scan"}, "is_reserved": 0, "fusion_lon": 0.0, "fusion_lat": 0.0, "lon": -77.035165, "name": "a689e6ca4bfa770435572247a161fa50"}, {"bike_id": "f2ec7cd46fb6867205341a6619849b4f", "type": "electric_bike", "is_disabled": 0, "lat": 38.874800666666665, "rental_uris": {"ios": "https://dc.lft.to/lastmile_qr_scan", "android": "https://dc.lft.to/lastmile_qr_scan"}, "is_reserved": 0, "fusion_lon": 0.0, "fusion_lat": 0.0, "lon": -76.965304, "name": "f2ec7cd46fb6867205341a6619849b4f"}, {"bike_id": "dbd37b4f3164db10cd1431a5658fbb7b", "type": "electric_scooter", "is_disabled": 0, "lat": 38.905049, "rental_uris": {"ios": "https://dc.lft.to/lastmile_qr_scan", "android": "https://dc.lft.to/lastmile_qr_scan"}, "is_reserved": 0, "fusion_lon": 0.0, "fusion_lat": 0.0, "lon": -77.06427466666666, "name": "dbd37b4f3164db10cd1431a5658fbb7b"}, {"bike_id": "87f6ca41ae88bdbae41c6f9cb27b0bd4", "type": "electric_scooter", "is_disabled": 0, "lat": 38.912653, "rental_uris": {"ios": "https://dc.lft.to/lastmile_qr_scan", "android": "https://dc.lft.to/lastmile_qr_scan"}, "is_reserved": 0, "fusion_lon": 0.0, "fusion_lat": 0.0, "lon": -77.0387215, "name": "87f6ca41ae88bdbae41c6f9cb27b0bd4"}, {"bike_id": "74306569739838ba0457caaf30648864", "type": "electric_scooter", "is_disabled": 0, "lat": 38.91182233333333, "rental_uris": {"ios": "https://dc.lft.to/lastmile_qr_scan", "android": "https://dc.lft.to/lastmile_qr_scan"}, "is_reserved": 0, "fusion_lon": 0.0, "fusion_lat": 0.0, "lon": -77.040276, "name": "74306569739838ba0457caaf30648864"}, {"bike_id": "8a3d0da3633fa6d015bda2dfd6448785", "type": "electric_scooter", "is_disabled": 0, "lat": 38.91489833333333, "rental_uris": {"ios": "https://dc.lft.to/lastmile_qr_scan", "android": "https://dc.lft.to/lastmile_qr_scan"}, "is_reserved": 0, "fusion_lon": 0.0, "fusion_lat": 0.0, "lon": -77.03767966666666, "name": "8a3d0da3633fa6d015bda2dfd6448785"}, {"bike_id": "3bf1a17c7cd0e64fceec8ff47a0f4115", "type": "electric_scooter", "is_disabled": 0, "lat": 38.89476633333334, "rental_uris": {"ios": "https://dc.lft.to/lastmile_qr_scan", "android": "https://dc.lft.to/lastmile_qr_scan"}, "is_reserved": 0, "fusion_lon": 0.0, "fusion_lat": 0.0, "lon": -76.9485925, "name": "3bf1a17c7cd0e64fceec8ff47a0f4115"}, {"bike_id": "9281dc824f0dc312c59365b7a4b77861", "type": "electric_scooter", "is_disabled": 0, "lat": 38.901267, "rental_uris": {"ios": "https://dc.lft.to/lastmile_qr_scan", "android": "https://dc.lft.to/lastmile_qr_scan"}, "is_reserved": 0, "fusion_lon": 0.0, "fusion_lat": 0.0, "lon": -77.00322083333333, "name": "9281dc824f0dc312c59365b7a4b77861"}, {"bike_id": "f3fe2fa7744bd1154963fcf13dd56914", "type": "electric_scooter", "is_disabled": 0, "lat": 38.91320233333333, "rental_uris": {"ios": "https://dc.lft.to/lastmile_qr_scan", "android": "https://dc.lft.to/lastmile_qr_scan"}, "is_reserved": 0, "fusion_lon": 0.0, "fusion_lat": 0.0, "lon": -77.03177016666666, "name": "f3fe2fa7744bd1154963fcf13dd56914"}, {"bike_id": "646f46ad7266b9ee6540152855aa3fe2", "type": "electric_scooter", "is_disabled": 0, "lat": 38.907621, "rental_uris": {"ios": "https://dc.lft.to/lastmile_qr_scan", "android": "https://dc.lft.to/lastmile_qr_scan"}, "is_reserved": 0, "fusion_lon": 0.0, "fusion_lat": 0.0, "lon": -77.01699133333334, "name": "646f46ad7266b9ee6540152855aa3fe2"}, {"bike_id": "e8f3ef8068a82d798a3802790cf16071", "type": "electric_scooter", "is_disabled": 0, "lat": 38.892254, "rental_uris": {"ios": "https://dc.lft.to/lastmile_qr_scan", "android": "https://dc.lft.to/lastmile_qr_scan"}, "is_reserved": 0, "fusion_lon": 0.0, "fusion_lat": 0.0, "lon": -77.03166, "name": "e8f3ef8068a82d798a3802790cf16071"}, {"bike_id": "3aa4bdf59034f982e31b289dbac245eb", "type": "electric_scooter", "is_disabled": 0, "lat": 38.92541466666667, "rental_uris": {"ios": "https://dc.lft.to/lastmile_qr_scan", "android": "https://dc.lft.to/lastmile_qr_scan"}, "is_reserved": 0, "fusion_lon": 0.0, "fusion_lat": 0.0, "lon": -77.03854666666666, "name": "3aa4bdf59034f982e31b289dbac245eb"}, {"bike_id": "40e00cda19727a2525625265087f12ed", "type": "electric_scooter", "is_disabled": 0, "lat": 38.97480916666667, "rental_uris": {"ios": "https://dc.lft.to/lastmile_qr_scan", "android": "https://dc.lft.to/lastmile_qr_scan"}, "is_reserved": 0, "fusion_lon": 0.0, "fusion_lat": 0.0, "lon": -77.0185855, "name": "40e00cda19727a2525625265087f12ed"}, {"bike_id": "ba90ef3fecb9184a0fc42317507e71d3", "type": "electric_scooter", "is_disabled": 0, "lat": 38.85156966666667, "rental_uris": {"ios": "https://dc.lft.to/lastmile_qr_scan", "android": "https://dc.lft.to/lastmile_qr_scan"}, "is_reserved": 0, "fusion_lon": 0.0, "fusion_lat": 0.0, "lon": -76.98803333333333, "name": "ba90ef3fecb9184a0fc42317507e71d3"}, {"bike_id": "2b963081329eaa77fdbe448a7beaf21a", "type": "electric_scooter", "is_disabled": 0, "lat": 38.918228666666664, "rental_uris": {"ios": "https://dc.lft.to/lastmile_qr_scan", "android": "https://dc.lft.to/lastmile_qr_scan"}, "is_reserved": 0, "fusion_lon": 0.0, "fusion_lat": 0.0, "lon": -77.0320605, "name": "2b963081329eaa77fdbe448a7beaf21a"}, {"bike_id": "9d33720db5e88c5d72692d244e1a82ea", "type": "electric_scooter", "is_disabled": 0, "lat": 38.9051225, "rental_uris": {"ios": "https://dc.lft.to/lastmile_qr_scan", "android": "https://dc.lft.to/lastmile_qr_scan"}, "is_reserved": 0, "fusion_lon": 0.0, "fusion_lat": 0.0, "lon": -77.0685605, "name": "9d33720db5e88c5d72692d244e1a82ea"}, {"bike_id": "f22513698ece4d4cc2352b358f5148c3", "type": "electric_scooter", "is_disabled": 0, "lat": 38.9231705, "rental_uris": {"ios": "https://dc.lft.to/lastmile_qr_scan", "android": "https://dc.lft.to/lastmile_qr_scan"}, "is_reserved": 0, "fusion_lon": 0.0, "fusion_lat": 0.0, "lon": -77.04639133333333, "name": "f22513698ece4d4cc2352b358f5148c3"}, {"bike_id": "8660b19fd585a5b71af4fca3b9480ecf", "type": "electric_scooter", "is_disabled": 0, "lat": 38.915498, "rental_uris": {"ios": "https://dc.lft.to/lastmile_qr_scan", "android": "https://dc.lft.to/lastmile_qr_scan"}, "is_reserved": 0, "fusion_lon": 0.0, "fusion_lat": 0.0, "lon": -77.0317275, "name": "8660b19fd585a5b71af4fca3b9480ecf"}, {"bike_id": "e3bf579e3593b39a2add53e160633753", "type": "electric_scooter", "is_disabled": 0, "lat": 38.9178185, "rental_uris": {"ios": "https://dc.lft.to/lastmile_qr_scan", "android": "https://dc.lft.to/lastmile_qr_scan"}, "is_reserved": 0, "fusion_lon": 0.0, "fusion_lat": 0.0, "lon": -77.02298266666666, "name": "e3bf579e3593b39a2add53e160633753"}, {"bike_id": "55068d256ae0f41280a1193b42349f89", "type": "electric_scooter", "is_disabled": 0, "lat": 38.9071605, "rental_uris": {"ios": "https://dc.lft.to/lastmile_qr_scan", "android": "https://dc.lft.to/lastmile_qr_scan"}, "is_reserved": 0, "fusion_lon": 0.0, "fusion_lat": 0.0, "lon": -77.0225605, "name": "55068d256ae0f41280a1193b42349f89"}, {"bike_id": "7431217f8a8b78c0116cf8be2d0ee90f", "type": "electric_scooter", "is_disabled": 0, "lat": 38.918032, "rental_uris": {"ios": "https://dc.lft.to/lastmile_qr_scan", "android": "https://dc.lft.to/lastmile_qr_scan"}, "is_reserved": 0, "fusion_lon": 0.0, "fusion_lat": 0.0, "lon": -77.031904, "name": "7431217f8a8b78c0116cf8be2d0ee90f"}, {"bike_id": "a1d74e05f75a128d42684892f119f3b4", "type": "electric_scooter", "is_disabled": 0, "lat": 38.91723483333333, "rental_uris": {"ios": "https://dc.lft.to/lastmile_qr_scan", "android": "https://dc.lft.to/lastmile_qr_scan"}, "is_reserved": 0, "fusion_lon": 0.0, "fusion_lat": 0.0, "lon": -77.0260455, "name": "a1d74e05f75a128d42684892f119f3b4"}, {"bike_id": "445b523818f4eebc091f721f072c9b87", "type": "electric_bike", "is_disabled": 0, "lat": 38.86867633333333, "rental_uris": {"ios": "https://dc.lft.to/lastmile_qr_scan", "android": "https://dc.lft.to/lastmile_qr_scan"}, "is_reserved": 0, "fusion_lon": 0.0, "fusion_lat": 0.0, "lon": -76.970837, "name": "445b523818f4eebc091f721f072c9b87"}, {"bike_id": "1088b9438c14e6b3cf191ab38cc1013f", "type": "electric_scooter", "is_disabled": 0, "lat": 38.84317383333333, "rental_uris": {"ios": "https://dc.lft.to/lastmile_qr_scan", "android": "https://dc.lft.to/lastmile_qr_scan"}, "is_reserved": 0, "fusion_lon": 0.0, "fusion_lat": 0.0, "lon": -76.99923066666666, "name": "1088b9438c14e6b3cf191ab38cc1013f"}, {"bike_id": "9a7d49aec05233a30edace53e8e53431", "type": "electric_scooter", "is_disabled": 0, "lat": 38.908323, "rental_uris": {"ios": "https://dc.lft.to/lastmile_qr_scan", "android": "https://dc.lft.to/lastmile_qr_scan"}, "is_reserved": 0, "fusion_lon": 0.0, "fusion_lat": 0.0, "lon": -77.03185483333333, "name": "9a7d49aec05233a30edace53e8e53431"}, {"bike_id": "2ffdda3857be3d6e6911353db3eea499", "type": "electric_scooter", "is_disabled": 0, "lat": 38.89536616666667, "rental_uris": {"ios": "https://dc.lft.to/lastmile_qr_scan", "android": "https://dc.lft.to/lastmile_qr_scan"}, "is_reserved": 0, "fusion_lon": 0.0, "fusion_lat": 0.0, "lon": -76.98857816666667, "name": "2ffdda3857be3d6e6911353db3eea499"}, {"bike_id": "d1fa8214df85a9a8227a7e6916e4681d", "type": "electric_bike", "is_disabled": 0, "lat": 38.947965833333335, "rental_uris": {"ios": "https://dc.lft.to/lastmile_qr_scan", "android": "https://dc.lft.to/lastmile_qr_scan"}, "is_reserved": 0, "fusion_lon": 0.0, "fusion_lat": 0.0, "lon": -76.95539733333334, "name": "d1fa8214df85a9a8227a7e6916e4681d"}, {"bike_id": "509f63bfdfb00b95f72e6c4f7cdc005e", "type": "electric_scooter", "is_disabled": 0, "lat": 38.937492, "rental_uris": {"ios": "https://dc.lft.to/lastmile_qr_scan", "android": "https://dc.lft.to/lastmile_qr_scan"}, "is_reserved": 0, "fusion_lon": 0.0, "fusion_lat": 0.0, "lon": -77.03276283333334, "name": "509f63bfdfb00b95f72e6c4f7cdc005e"}, {"bike_id": "6ab3ff5290fd3e5458250c6c9f496251", "type": "electric_scooter", "is_disabled": 0, "lat": 38.90119583333333, "rental_uris": {"ios": "https://dc.lft.to/lastmile_qr_scan", "android": "https://dc.lft.to/lastmile_qr_scan"}, "is_reserved": 0, "fusion_lon": 0.0, "fusion_lat": 0.0, "lon": -76.92953533333333, "name": "6ab3ff5290fd3e5458250c6c9f496251"}, {"bike_id": "a2d30b6b81111307e399dc9e63071caf", "type": "electric_scooter", "is_disabled": 0, "lat": 38.92331766666667, "rental_uris": {"ios": "https://dc.lft.to/lastmile_qr_scan", "android": "https://dc.lft.to/lastmile_qr_scan"}, "is_reserved": 0, "fusion_lon": 0.0, "fusion_lat": 0.0, "lon": -77.05357033333334, "name": "a2d30b6b81111307e399dc9e63071caf"}, {"bike_id": "5b187a6bd37406b9d5037e34eb9eca21", "type": "electric_scooter", "is_disabled": 0, "lat": 38.885302833333334, "rental_uris": {"ios": "https://dc.lft.to/lastmile_qr_scan", "android": "https://dc.lft.to/lastmile_qr_scan"}, "is_reserved": 0, "fusion_lon": 0.0, "fusion_lat": 0.0, "lon": -76.99820916666667, "name": "5b187a6bd37406b9d5037e34eb9eca21"}, {"bike_id": "dd7a79cba004eacc058a9f05dcf9e770", "type": "electric_scooter", "is_disabled": 0, "lat": 38.87245083333333, "rental_uris": {"ios": "https://dc.lft.to/lastmile_qr_scan", "android": "https://dc.lft.to/lastmile_qr_scan"}, "is_reserved": 0, "fusion_lon": 0.0, "fusion_lat": 0.0, "lon": -76.97723683333334, "name": "dd7a79cba004eacc058a9f05dcf9e770"}, {"bike_id": "e5eaa698fa348318e8a0b30d5219a181", "type": "electric_bike", "is_disabled": 0, "lat": 38.9739765, "rental_uris": {"ios": "https://dc.lft.to/lastmile_qr_scan", "android": "https://dc.lft.to/lastmile_qr_scan"}, "is_reserved": 0, "fusion_lon": 0.0, "fusion_lat": 0.0, "lon": -77.06455983333333, "name": "e5eaa698fa348318e8a0b30d5219a181"}, {"bike_id": "2a01f65f62776c0f0a1de5e218119ba8", "type": "electric_scooter", "is_disabled": 0, "lat": 38.902914333333335, "rental_uris": {"ios": "https://dc.lft.to/lastmile_qr_scan", "android": "https://dc.lft.to/lastmile_qr_scan"}, "is_reserved": 0, "fusion_lon": 0.0, "fusion_lat": 0.0, "lon": -77.06531066666666, "name": "2a01f65f62776c0f0a1de5e218119ba8"}, {"bike_id": "c3b9bcfc402669f9e7d1ea5829080b54", "type": "electric_scooter", "is_disabled": 0, "lat": 38.899555166666666, "rental_uris": {"ios": "https://dc.lft.to/lastmile_qr_scan", "android": "https://dc.lft.to/lastmile_qr_scan"}, "is_reserved": 0, "fusion_lon": 0.0, "fusion_lat": 0.0, "lon": -77.0160485, "name": "c3b9bcfc402669f9e7d1ea5829080b54"}, {"bike_id": "6ec1d45151342081267d0249104a537b", "type": "electric_scooter", "is_disabled": 0, "lat": 38.916921333333335, "rental_uris": {"ios": "https://dc.lft.to/lastmile_qr_scan", "android": "https://dc.lft.to/lastmile_qr_scan"}, "is_reserved": 0, "fusion_lon": 0.0, "fusion_lat": 0.0, "lon": -77.02597266666666, "name": "6ec1d45151342081267d0249104a537b"}, {"bike_id": "5983a0a9d2a1f5b519a1a7789371a5bb", "type": "electric_scooter", "is_disabled": 0, "lat": 38.919152833333335, "rental_uris": {"ios": "https://dc.lft.to/lastmile_qr_scan", "android": "https://dc.lft.to/lastmile_qr_scan"}, "is_reserved": 0, "fusion_lon": 0.0, "fusion_lat": 0.0, "lon": -77.03102166666666, "name": "5983a0a9d2a1f5b519a1a7789371a5bb"}, {"bike_id": "877e7c5541a827a96fde9d407c8afd49", "type": "electric_scooter", "is_disabled": 0, "lat": 38.957859666666664, "rental_uris": {"ios": "https://dc.lft.to/lastmile_qr_scan", "android": "https://dc.lft.to/lastmile_qr_scan"}, "is_reserved": 0, "fusion_lon": 0.0, "fusion_lat": 0.0, "lon": -77.032166, "name": "877e7c5541a827a96fde9d407c8afd49"}, {"bike_id": "6ef866630c8546f4d85313e5c323119a", "type": "electric_scooter", "is_disabled": 0, "lat": 38.92343733333333, "rental_uris": {"ios": "https://dc.lft.to/lastmile_qr_scan", "android": "https://dc.lft.to/lastmile_qr_scan"}, "is_reserved": 0, "fusion_lon": 0.0, "fusion_lat": 0.0, "lon": -77.051165, "name": "6ef866630c8546f4d85313e5c323119a"}, {"bike_id": "c403d4e551e86f647da2a8db19689594", "type": "electric_scooter", "is_disabled": 0, "lat": 38.91034366666667, "rental_uris": {"ios": "https://dc.lft.to/lastmile_qr_scan", "android": "https://dc.lft.to/lastmile_qr_scan"}, "is_reserved": 0, "fusion_lon": 0.0, "fusion_lat": 0.0, "lon": -77.0379975, "name": "c403d4e551e86f647da2a8db19689594"}, {"bike_id": "a37b0d14ea06bd88064d2be333382319", "type": "electric_scooter", "is_disabled": 0, "lat": 38.923828666666665, "rental_uris": {"ios": "https://dc.lft.to/lastmile_qr_scan", "android": "https://dc.lft.to/lastmile_qr_scan"}, "is_reserved": 0, "fusion_lon": 0.0, "fusion_lat": 0.0, "lon": -77.02977116666666, "name": "a37b0d14ea06bd88064d2be333382319"}, {"bike_id": "0905681fecf1c861d0efbafa03e8680a", "type": "electric_scooter", "is_disabled": 0, "lat": 38.92325533333333, "rental_uris": {"ios": "https://dc.lft.to/lastmile_qr_scan", "android": "https://dc.lft.to/lastmile_qr_scan"}, "is_reserved": 0, "fusion_lon": 0.0, "fusion_lat": 0.0, "lon": -77.03779583333333, "name": "0905681fecf1c861d0efbafa03e8680a"}, {"bike_id": "a66571e847be6d0c99e5da7a5b370a2e", "type": "electric_scooter", "is_disabled": 0, "lat": 38.838269, "rental_uris": {"ios": "https://dc.lft.to/lastmile_qr_scan", "android": "https://dc.lft.to/lastmile_qr_scan"}, "is_reserved": 0, "fusion_lon": 0.0, "fusion_lat": 0.0, "lon": -77.002682, "name": "a66571e847be6d0c99e5da7a5b370a2e"}, {"bike_id": "185c62aea3737e1e3fb0f43cfbec7503", "type": "electric_scooter", "is_disabled": 0, "lat": 38.91755116666667, "rental_uris": {"ios": "https://dc.lft.to/lastmile_qr_scan", "android": "https://dc.lft.to/lastmile_qr_scan"}, "is_reserved": 0, "fusion_lon": 0.0, "fusion_lat": 0.0, "lon": -77.02484816666667, "name": "185c62aea3737e1e3fb0f43cfbec7503"}, {"bike_id": "9326d0ecfd9cf79777aa35366049127a", "type": "electric_scooter", "is_disabled": 0, "lat": 38.90435883333333, "rental_uris": {"ios": "https://dc.lft.to/lastmile_qr_scan", "android": "https://dc.lft.to/lastmile_qr_scan"}, "is_reserved": 0, "fusion_lon": 0.0, "fusion_lat": 0.0, "lon": -77.007132, "name": "9326d0ecfd9cf79777aa35366049127a"}, {"bike_id": "be89222c31a89f782f754f14e8d27dba", "type": "electric_scooter", "is_disabled": 0, "lat": 38.933029, "rental_uris": {"ios": "https://dc.lft.to/lastmile_qr_scan", "android": "https://dc.lft.to/lastmile_qr_scan"}, "is_reserved": 0, "fusion_lon": 0.0, "fusion_lat": 0.0, "lon": -77.0326325, "name": "be89222c31a89f782f754f14e8d27dba"}, {"bike_id": "10aaa17eeecbb5e35299f6243574a056", "type": "electric_scooter", "is_disabled": 0, "lat": 38.9127745, "rental_uris": {"ios": "https://dc.lft.to/lastmile_qr_scan", "android": "https://dc.lft.to/lastmile_qr_scan"}, "is_reserved": 0, "fusion_lon": 0.0, "fusion_lat": 0.0, "lon": -77.0364555, "name": "10aaa17eeecbb5e35299f6243574a056"}, {"bike_id": "a8e68934c588f6690a91c8aaa5db7ac4", "type": "electric_scooter", "is_disabled": 0, "lat": 38.896946, "rental_uris": {"ios": "https://dc.lft.to/lastmile_qr_scan", "android": "https://dc.lft.to/lastmile_qr_scan"}, "is_reserved": 0, "fusion_lon": 0.0, "fusion_lat": 0.0, "lon": -77.02377766666666, "name": "a8e68934c588f6690a91c8aaa5db7ac4"}, {"bike_id": "d29574d8db4d1de206c497e175391a62", "type": "electric_scooter", "is_disabled": 0, "lat": 38.921533833333335, "rental_uris": {"ios": "https://dc.lft.to/lastmile_qr_scan", "android": "https://dc.lft.to/lastmile_qr_scan"}, "is_reserved": 0, "fusion_lon": 0.0, "fusion_lat": 0.0, "lon": -77.0331605, "name": "d29574d8db4d1de206c497e175391a62"}, {"bike_id": "30a17d2492f51d6de409d7050c5c65b0", "type": "electric_scooter", "is_disabled": 0, "lat": 38.91569833333333, "rental_uris": {"ios": "https://dc.lft.to/lastmile_qr_scan", "android": "https://dc.lft.to/lastmile_qr_scan"}, "is_reserved": 0, "fusion_lon": 0.0, "fusion_lat": 0.0, "lon": -77.02018366666667, "name": "30a17d2492f51d6de409d7050c5c65b0"}, {"bike_id": "665352469316dbdb787fd56adf03fd29", "type": "electric_scooter", "is_disabled": 0, "lat": 38.887378166666664, "rental_uris": {"ios": "https://dc.lft.to/lastmile_qr_scan", "android": "https://dc.lft.to/lastmile_qr_scan"}, "is_reserved": 0, "fusion_lon": 0.0, "fusion_lat": 0.0, "lon": -77.0283055, "name": "665352469316dbdb787fd56adf03fd29"}, {"bike_id": "7e8b4c8d09736cc56c933ec008abbaeb", "type": "electric_scooter", "is_disabled": 0, "lat": 38.92482016666666, "rental_uris": {"ios": "https://dc.lft.to/lastmile_qr_scan", "android": "https://dc.lft.to/lastmile_qr_scan"}, "is_reserved": 0, "fusion_lon": 0.0, "fusion_lat": 0.0, "lon": -77.02191716666667, "name": "7e8b4c8d09736cc56c933ec008abbaeb"}, {"bike_id": "03acb0f8b58dfc1019e03341a040f178", "type": "electric_scooter", "is_disabled": 0, "lat": 38.914161666666665, "rental_uris": {"ios": "https://dc.lft.to/lastmile_qr_scan", "android": "https://dc.lft.to/lastmile_qr_scan"}, "is_reserved": 0, "fusion_lon": 0.0, "fusion_lat": 0.0, "lon": -77.0123185, "name": "03acb0f8b58dfc1019e03341a040f178"}, {"bike_id": "a75fa0918272978c0a60dc8368c61315", "type": "electric_scooter", "is_disabled": 0, "lat": 38.913839, "rental_uris": {"ios": "https://dc.lft.to/lastmile_qr_scan", "android": "https://dc.lft.to/lastmile_qr_scan"}, "is_reserved": 0, "fusion_lon": 0.0, "fusion_lat": 0.0, "lon": -77.03209783333334, "name": "a75fa0918272978c0a60dc8368c61315"}, {"bike_id": "36c5d0cd76ec7951b770c8d151c9fcc3", "type": "electric_scooter", "is_disabled": 0, "lat": 38.87504033333333, "rental_uris": {"ios": "https://dc.lft.to/lastmile_qr_scan", "android": "https://dc.lft.to/lastmile_qr_scan"}, "is_reserved": 0, "fusion_lon": 0.0, "fusion_lat": 0.0, "lon": -77.01239833333334, "name": "36c5d0cd76ec7951b770c8d151c9fcc3"}, {"bike_id": "bf797480fa598d513d836c16fab5ff33", "type": "electric_scooter", "is_disabled": 0, "lat": 38.87675616666667, "rental_uris": {"ios": "https://dc.lft.to/lastmile_qr_scan", "android": "https://dc.lft.to/lastmile_qr_scan"}, "is_reserved": 0, "fusion_lon": 0.0, "fusion_lat": 0.0, "lon": -77.00868883333334, "name": "bf797480fa598d513d836c16fab5ff33"}, {"bike_id": "bee26fc65fae500bbc623797c8c63fca", "type": "electric_scooter", "is_disabled": 0, "lat": 38.940136, "rental_uris": {"ios": "https://dc.lft.to/lastmile_qr_scan", "android": "https://dc.lft.to/lastmile_qr_scan"}, "is_reserved": 0, "fusion_lon": 0.0, "fusion_lat": 0.0, "lon": -77.02635483333333, "name": "bee26fc65fae500bbc623797c8c63fca"}, {"bike_id": "61c7a3e1509f06b594d35b2a8ad766bc", "type": "electric_scooter", "is_disabled": 0, "lat": 38.920575, "rental_uris": {"ios": "https://dc.lft.to/lastmile_qr_scan", "android": "https://dc.lft.to/lastmile_qr_scan"}, "is_reserved": 0, "fusion_lon": 0.0, "fusion_lat": 0.0, "lon": -76.99874683333333, "name": "61c7a3e1509f06b594d35b2a8ad766bc"}, {"bike_id": "63038daf45dfbdc720d12bc346e692a1", "type": "electric_scooter", "is_disabled": 0, "lat": 38.9561565, "rental_uris": {"ios": "https://dc.lft.to/lastmile_qr_scan", "android": "https://dc.lft.to/lastmile_qr_scan"}, "is_reserved": 0, "fusion_lon": 0.0, "fusion_lat": 0.0, "lon": -77.010185, "name": "63038daf45dfbdc720d12bc346e692a1"}, {"bike_id": "a13d717e79ed0488db73d45971ef134c", "type": "electric_scooter", "is_disabled": 0, "lat": 38.92032433333333, "rental_uris": {"ios": "https://dc.lft.to/lastmile_qr_scan", "android": "https://dc.lft.to/lastmile_qr_scan"}, "is_reserved": 0, "fusion_lon": 0.0, "fusion_lat": 0.0, "lon": -77.03389216666666, "name": "a13d717e79ed0488db73d45971ef134c"}, {"bike_id": "ca5f37ff4a3a9f9e2cc3eca595c1af17", "type": "electric_scooter", "is_disabled": 0, "lat": 38.8762475, "rental_uris": {"ios": "https://dc.lft.to/lastmile_qr_scan", "android": "https://dc.lft.to/lastmile_qr_scan"}, "is_reserved": 0, "fusion_lon": 0.0, "fusion_lat": 0.0, "lon": -76.9653175, "name": "ca5f37ff4a3a9f9e2cc3eca595c1af17"}, {"bike_id": "2d927bd341af99379a0360cfc1f9895d", "type": "electric_scooter", "is_disabled": 0, "lat": 38.90233216666667, "rental_uris": {"ios": "https://dc.lft.to/lastmile_qr_scan", "android": "https://dc.lft.to/lastmile_qr_scan"}, "is_reserved": 0, "fusion_lon": 0.0, "fusion_lat": 0.0, "lon": -77.0533995, "name": "2d927bd341af99379a0360cfc1f9895d"}, {"bike_id": "fc099bce90066fb63435ef831f5262d9", "type": "electric_scooter", "is_disabled": 0, "lat": 38.91721, "rental_uris": {"ios": "https://dc.lft.to/lastmile_qr_scan", "android": "https://dc.lft.to/lastmile_qr_scan"}, "is_reserved": 0, "fusion_lon": 0.0, "fusion_lat": 0.0, "lon": -77.01927033333334, "name": "fc099bce90066fb63435ef831f5262d9"}, {"bike_id": "e5f23dbec8febc4de3fee394c5895069", "type": "electric_scooter", "is_disabled": 0, "lat": 38.9018775, "rental_uris": {"ios": "https://dc.lft.to/lastmile_qr_scan", "android": "https://dc.lft.to/lastmile_qr_scan"}, "is_reserved": 0, "fusion_lon": 0.0, "fusion_lat": 0.0, "lon": -77.02114, "name": "e5f23dbec8febc4de3fee394c5895069"}, {"bike_id": "254f78256730083912137db4f39c71a2", "type": "electric_scooter", "is_disabled": 0, "lat": 38.8968645, "rental_uris": {"ios": "https://dc.lft.to/lastmile_qr_scan", "android": "https://dc.lft.to/lastmile_qr_scan"}, "is_reserved": 0, "fusion_lon": 0.0, "fusion_lat": 0.0, "lon": -76.99963083333333, "name": "254f78256730083912137db4f39c71a2"}, {"bike_id": "f68cc6a06042bdfaad3c21f037ad5308", "type": "electric_scooter", "is_disabled": 0, "lat": 38.924628, "rental_uris": {"ios": "https://dc.lft.to/lastmile_qr_scan", "android": "https://dc.lft.to/lastmile_qr_scan"}, "is_reserved": 0, "fusion_lon": 0.0, "fusion_lat": 0.0, "lon": -77.022686, "name": "f68cc6a06042bdfaad3c21f037ad5308"}, {"bike_id": "46da85da83e4fdc8542c515bcdbf4f7b", "type": "electric_scooter", "is_disabled": 0, "lat": 38.928237833333334, "rental_uris": {"ios": "https://dc.lft.to/lastmile_qr_scan", "android": "https://dc.lft.to/lastmile_qr_scan"}, "is_reserved": 0, "fusion_lon": 0.0, "fusion_lat": 0.0, "lon": -77.02252683333333, "name": "46da85da83e4fdc8542c515bcdbf4f7b"}, {"bike_id": "ca6bf89daed8a70c4bcab3b590be56a6", "type": "electric_bike", "is_disabled": 0, "lat": 38.93965883333333, "rental_uris": {"ios": "https://dc.lft.to/lastmile_qr_scan", "android": "https://dc.lft.to/lastmile_qr_scan"}, "is_reserved": 0, "fusion_lon": 0.0, "fusion_lat": 0.0, "lon": -77.03386483333334, "name": "ca6bf89daed8a70c4bcab3b590be56a6"}, {"bike_id": "747da5cf356a5330255d0f72d9590f80", "type": "electric_scooter", "is_disabled": 0, "lat": 38.89223333333333, "rental_uris": {"ios": "https://dc.lft.to/lastmile_qr_scan", "android": "https://dc.lft.to/lastmile_qr_scan"}, "is_reserved": 0, "fusion_lon": 0.0, "fusion_lat": 0.0, "lon": -77.04805166666667, "name": "747da5cf356a5330255d0f72d9590f80"}, {"bike_id": "65c4983b833ffc670ef9b16bc209f669", "type": "electric_scooter", "is_disabled": 0, "lat": 38.90045633333333, "rental_uris": {"ios": "https://dc.lft.to/lastmile_qr_scan", "android": "https://dc.lft.to/lastmile_qr_scan"}, "is_reserved": 0, "fusion_lon": 0.0, "fusion_lat": 0.0, "lon": -76.982872, "name": "65c4983b833ffc670ef9b16bc209f669"}, {"bike_id": "a660bc3599dec28f8202176c07da6791", "type": "electric_bike", "is_disabled": 0, "lat": 38.8360475, "rental_uris": {"ios": "https://dc.lft.to/lastmile_qr_scan", "android": "https://dc.lft.to/lastmile_qr_scan"}, "is_reserved": 0, "fusion_lon": 0.0, "fusion_lat": 0.0, "lon": -77.00379, "name": "a660bc3599dec28f8202176c07da6791"}, {"bike_id": "e3705bb1cfd9a51d93add77c462e21a2", "type": "electric_scooter", "is_disabled": 0, "lat": 38.88487033333333, "rental_uris": {"ios": "https://dc.lft.to/lastmile_qr_scan", "android": "https://dc.lft.to/lastmile_qr_scan"}, "is_reserved": 0, "fusion_lon": 0.0, "fusion_lat": 0.0, "lon": -77.03472, "name": "e3705bb1cfd9a51d93add77c462e21a2"}, {"bike_id": "fa50c78ae2f47f4f13d832bd0dc08356", "type": "electric_scooter", "is_disabled": 0, "lat": 38.909553333333335, "rental_uris": {"ios": "https://dc.lft.to/lastmile_qr_scan", "android": "https://dc.lft.to/lastmile_qr_scan"}, "is_reserved": 0, "fusion_lon": 0.0, "fusion_lat": 0.0, "lon": -77.02218833333333, "name": "fa50c78ae2f47f4f13d832bd0dc08356"}, {"bike_id": "c08ba050510d35b90b0f34648d6476d9", "type": "electric_scooter", "is_disabled": 0, "lat": 38.90549466666667, "rental_uris": {"ios": "https://dc.lft.to/lastmile_qr_scan", "android": "https://dc.lft.to/lastmile_qr_scan"}, "is_reserved": 0, "fusion_lon": 0.0, "fusion_lat": 0.0, "lon": -77.034226, "name": "c08ba050510d35b90b0f34648d6476d9"}, {"bike_id": "86e0adc0696a09dc7d0129a1a2f5f6dc", "type": "electric_scooter", "is_disabled": 0, "lat": 38.90174366666667, "rental_uris": {"ios": "https://dc.lft.to/lastmile_qr_scan", "android": "https://dc.lft.to/lastmile_qr_scan"}, "is_reserved": 0, "fusion_lon": 0.0, "fusion_lat": 0.0, "lon": -76.98452333333333, "name": "86e0adc0696a09dc7d0129a1a2f5f6dc"}, {"bike_id": "f9ee276825f0b5820f01399d57a6571e", "type": "electric_bike", "is_disabled": 0, "lat": 38.854085, "rental_uris": {"ios": "https://dc.lft.to/lastmile_qr_scan", "android": "https://dc.lft.to/lastmile_qr_scan"}, "is_reserved": 0, "fusion_lon": 0.0, "fusion_lat": 0.0, "lon": -77.12076566666667, "name": "f9ee276825f0b5820f01399d57a6571e"}, {"bike_id": "667e8a5f983218d94b256410f63445c5", "type": "electric_scooter", "is_disabled": 0, "lat": 38.94293583333334, "rental_uris": {"ios": "https://dc.lft.to/lastmile_qr_scan", "android": "https://dc.lft.to/lastmile_qr_scan"}, "is_reserved": 0, "fusion_lon": 0.0, "fusion_lat": 0.0, "lon": -77.02171233333334, "name": "667e8a5f983218d94b256410f63445c5"}, {"bike_id": "691c59e169f9f014bd140de24da77b2c", "type": "electric_scooter", "is_disabled": 0, "lat": 38.92154633333333, "rental_uris": {"ios": "https://dc.lft.to/lastmile_qr_scan", "android": "https://dc.lft.to/lastmile_qr_scan"}, "is_reserved": 0, "fusion_lon": 0.0, "fusion_lat": 0.0, "lon": -77.03863816666667, "name": "691c59e169f9f014bd140de24da77b2c"}, {"bike_id": "0d16eae0fa9e3ff1414d1f7f4cdf9813", "type": "electric_scooter", "is_disabled": 0, "lat": 38.904213666666664, "rental_uris": {"ios": "https://dc.lft.to/lastmile_qr_scan", "android": "https://dc.lft.to/lastmile_qr_scan"}, "is_reserved": 0, "fusion_lon": 0.0, "fusion_lat": 0.0, "lon": -76.97373083333333, "name": "0d16eae0fa9e3ff1414d1f7f4cdf9813"}, {"bike_id": "76a6fca75750f140d4156f2aba48a28c", "type": "electric_scooter", "is_disabled": 0, "lat": 38.866532666666664, "rental_uris": {"ios": "https://dc.lft.to/lastmile_qr_scan", "android": "https://dc.lft.to/lastmile_qr_scan"}, "is_reserved": 0, "fusion_lon": 0.0, "fusion_lat": 0.0, "lon": -76.98886, "name": "76a6fca75750f140d4156f2aba48a28c"}, {"bike_id": "afd06f7ce9490af92bf1fc9287f27a07", "type": "electric_scooter", "is_disabled": 0, "lat": 38.898459833333334, "rental_uris": {"ios": "https://dc.lft.to/lastmile_qr_scan", "android": "https://dc.lft.to/lastmile_qr_scan"}, "is_reserved": 0, "fusion_lon": 0.0, "fusion_lat": 0.0, "lon": -77.03063616666667, "name": "afd06f7ce9490af92bf1fc9287f27a07"}, {"bike_id": "5eade9a776808801a7d372d6360daaeb", "type": "electric_scooter", "is_disabled": 0, "lat": 38.90063216666667, "rental_uris": {"ios": "https://dc.lft.to/lastmile_qr_scan", "android": "https://dc.lft.to/lastmile_qr_scan"}, "is_reserved": 0, "fusion_lon": 0.0, "fusion_lat": 0.0, "lon": -77.04536233333333, "name": "5eade9a776808801a7d372d6360daaeb"}, {"bike_id": "09028beb3e23c44d9bdbe7d343a0455b", "type": "electric_scooter", "is_disabled": 0, "lat": 38.899582, "rental_uris": {"ios": "https://dc.lft.to/lastmile_qr_scan", "android": "https://dc.lft.to/lastmile_qr_scan"}, "is_reserved": 0, "fusion_lon": 0.0, "fusion_lat": 0.0, "lon": -76.97534583333334, "name": "09028beb3e23c44d9bdbe7d343a0455b"}, {"bike_id": "5ef2911073e2d6c6bdecf18933465c2a", "type": "electric_scooter", "is_disabled": 0, "lat": 38.91799833333334, "rental_uris": {"ios": "https://dc.lft.to/lastmile_qr_scan", "android": "https://dc.lft.to/lastmile_qr_scan"}, "is_reserved": 0, "fusion_lon": 0.0, "fusion_lat": 0.0, "lon": -77.0344315, "name": "5ef2911073e2d6c6bdecf18933465c2a"}, {"bike_id": "d4fcd44a96ce52d2dc1050e229e444af", "type": "electric_scooter", "is_disabled": 0, "lat": 38.865641333333336, "rental_uris": {"ios": "https://dc.lft.to/lastmile_qr_scan", "android": "https://dc.lft.to/lastmile_qr_scan"}, "is_reserved": 0, "fusion_lon": 0.0, "fusion_lat": 0.0, "lon": -76.98215116666667, "name": "d4fcd44a96ce52d2dc1050e229e444af"}, {"bike_id": "8dd297472d4c5e827291d370b86dc866", "type": "electric_scooter", "is_disabled": 0, "lat": 38.892138333333335, "rental_uris": {"ios": "https://dc.lft.to/lastmile_qr_scan", "android": "https://dc.lft.to/lastmile_qr_scan"}, "is_reserved": 0, "fusion_lon": 0.0, "fusion_lat": 0.0, "lon": -77.02445633333333, "name": "8dd297472d4c5e827291d370b86dc866"}, {"bike_id": "95eb9947552bec305970a940a7c78396", "type": "electric_scooter", "is_disabled": 0, "lat": 38.916284166666664, "rental_uris": {"ios": "https://dc.lft.to/lastmile_qr_scan", "android": "https://dc.lft.to/lastmile_qr_scan"}, "is_reserved": 0, "fusion_lon": 0.0, "fusion_lat": 0.0, "lon": -77.04018316666667, "name": "95eb9947552bec305970a940a7c78396"}, {"bike_id": "4bda681a164312381b300bfdd75c386e", "type": "electric_scooter", "is_disabled": 0, "lat": 38.9244755, "rental_uris": {"ios": "https://dc.lft.to/lastmile_qr_scan", "android": "https://dc.lft.to/lastmile_qr_scan"}, "is_reserved": 0, "fusion_lon": 0.0, "fusion_lat": 0.0, "lon": -77.02410383333333, "name": "4bda681a164312381b300bfdd75c386e"}, {"bike_id": "b2b8f3f9f4e574c0814a28fff3c76dab", "type": "electric_scooter", "is_disabled": 0, "lat": 38.909699833333335, "rental_uris": {"ios": "https://dc.lft.to/lastmile_qr_scan", "android": "https://dc.lft.to/lastmile_qr_scan"}, "is_reserved": 0, "fusion_lon": 0.0, "fusion_lat": 0.0, "lon": -77.02376816666667, "name": "b2b8f3f9f4e574c0814a28fff3c76dab"}, {"bike_id": "2a6a8eae722cab10f3fd980ec1961302", "type": "electric_scooter", "is_disabled": 0, "lat": 38.906967333333334, "rental_uris": {"ios": "https://dc.lft.to/lastmile_qr_scan", "android": "https://dc.lft.to/lastmile_qr_scan"}, "is_reserved": 0, "fusion_lon": 0.0, "fusion_lat": 0.0, "lon": -77.00081166666666, "name": "2a6a8eae722cab10f3fd980ec1961302"}, {"bike_id": "fdc6a886f09b52c4b1d09c59d374b7e8", "type": "electric_scooter", "is_disabled": 0, "lat": 38.89785166666667, "rental_uris": {"ios": "https://dc.lft.to/lastmile_qr_scan", "android": "https://dc.lft.to/lastmile_qr_scan"}, "is_reserved": 0, "fusion_lon": 0.0, "fusion_lat": 0.0, "lon": -77.03228133333333, "name": "fdc6a886f09b52c4b1d09c59d374b7e8"}, {"bike_id": "fb393f1f015f546ba60717bde6bb033b", "type": "electric_scooter", "is_disabled": 0, "lat": 38.911389, "rental_uris": {"ios": "https://dc.lft.to/lastmile_qr_scan", "android": "https://dc.lft.to/lastmile_qr_scan"}, "is_reserved": 0, "fusion_lon": 0.0, "fusion_lat": 0.0, "lon": -76.99011383333334, "name": "fb393f1f015f546ba60717bde6bb033b"}, {"bike_id": "14535d4764d6c9728a5fa4672c433e84", "type": "electric_scooter", "is_disabled": 0, "lat": 38.9181695, "rental_uris": {"ios": "https://dc.lft.to/lastmile_qr_scan", "android": "https://dc.lft.to/lastmile_qr_scan"}, "is_reserved": 0, "fusion_lon": 0.0, "fusion_lat": 0.0, "lon": -77.02528766666667, "name": "14535d4764d6c9728a5fa4672c433e84"}, {"bike_id": "8afb4e0caf4dbf0a164128b5fad196e6", "type": "electric_bike", "is_disabled": 0, "lat": 38.93142016666667, "rental_uris": {"ios": "https://dc.lft.to/lastmile_qr_scan", "android": "https://dc.lft.to/lastmile_qr_scan"}, "is_reserved": 0, "fusion_lon": 0.0, "fusion_lat": 0.0, "lon": -77.000738, "name": "8afb4e0caf4dbf0a164128b5fad196e6"}, {"bike_id": "ed4a6ce64cbc5aa90b213d81879f9981", "type": "electric_scooter", "is_disabled": 0, "lat": 38.916902, "rental_uris": {"ios": "https://dc.lft.to/lastmile_qr_scan", "android": "https://dc.lft.to/lastmile_qr_scan"}, "is_reserved": 0, "fusion_lon": 0.0, "fusion_lat": 0.0, "lon": -77.0315995, "name": "ed4a6ce64cbc5aa90b213d81879f9981"}, {"bike_id": "94034bcbfd48fbec821abaa80bb303cd", "type": "electric_bike", "is_disabled": 0, "lat": 38.872903666666666, "rental_uris": {"ios": "https://dc.lft.to/lastmile_qr_scan", "android": "https://dc.lft.to/lastmile_qr_scan"}, "is_reserved": 0, "fusion_lon": 0.0, "fusion_lat": 0.0, "lon": -77.13928266666667, "name": "94034bcbfd48fbec821abaa80bb303cd"}, {"bike_id": "1ea77446d6ac4e7841f2e72b45506eef", "type": "electric_scooter", "is_disabled": 0, "lat": 38.915669, "rental_uris": {"ios": "https://dc.lft.to/lastmile_qr_scan", "android": "https://dc.lft.to/lastmile_qr_scan"}, "is_reserved": 0, "fusion_lon": 0.0, "fusion_lat": 0.0, "lon": -77.02713366666667, "name": "1ea77446d6ac4e7841f2e72b45506eef"}, {"bike_id": "19a3ad68e5ee190fcc0e23c194db6859", "type": "electric_scooter", "is_disabled": 0, "lat": 38.9066985, "rental_uris": {"ios": "https://dc.lft.to/lastmile_qr_scan", "android": "https://dc.lft.to/lastmile_qr_scan"}, "is_reserved": 0, "fusion_lon": 0.0, "fusion_lat": 0.0, "lon": -77.02709266666666, "name": "19a3ad68e5ee190fcc0e23c194db6859"}, {"bike_id": "14a43a9e929f893a8b466d9e78c459b0", "type": "electric_scooter", "is_disabled": 0, "lat": 38.896071, "rental_uris": {"ios": "https://dc.lft.to/lastmile_qr_scan", "android": "https://dc.lft.to/lastmile_qr_scan"}, "is_reserved": 0, "fusion_lon": 0.0, "fusion_lat": 0.0, "lon": -77.04474966666666, "name": "14a43a9e929f893a8b466d9e78c459b0"}, {"bike_id": "2b6cd327176a28e8ab19b320cf738bbe", "type": "electric_scooter", "is_disabled": 0, "lat": 38.92429816666667, "rental_uris": {"ios": "https://dc.lft.to/lastmile_qr_scan", "android": "https://dc.lft.to/lastmile_qr_scan"}, "is_reserved": 0, "fusion_lon": 0.0, "fusion_lat": 0.0, "lon": -77.04242233333333, "name": "2b6cd327176a28e8ab19b320cf738bbe"}, {"bike_id": "67e752d72142fcfd079e54b7405edf9c", "type": "electric_scooter", "is_disabled": 0, "lat": 38.92071133333334, "rental_uris": {"ios": "https://dc.lft.to/lastmile_qr_scan", "android": "https://dc.lft.to/lastmile_qr_scan"}, "is_reserved": 0, "fusion_lon": 0.0, "fusion_lat": 0.0, "lon": -77.025315, "name": "67e752d72142fcfd079e54b7405edf9c"}, {"bike_id": "ab0e981cf778094c8c3e22d446b318d5", "type": "electric_scooter", "is_disabled": 0, "lat": 38.89541333333333, "rental_uris": {"ios": "https://dc.lft.to/lastmile_qr_scan", "android": "https://dc.lft.to/lastmile_qr_scan"}, "is_reserved": 0, "fusion_lon": 0.0, "fusion_lat": 0.0, "lon": -76.92953266666666, "name": "ab0e981cf778094c8c3e22d446b318d5"}, {"bike_id": "201e37ec632edc794b094c0077f11a9d", "type": "electric_scooter", "is_disabled": 0, "lat": 38.9185405, "rental_uris": {"ios": "https://dc.lft.to/lastmile_qr_scan", "android": "https://dc.lft.to/lastmile_qr_scan"}, "is_reserved": 0, "fusion_lon": 0.0, "fusion_lat": 0.0, "lon": -76.9610965, "name": "201e37ec632edc794b094c0077f11a9d"}, {"bike_id": "448266dcf9c8bd2db25deed57f5ab02d", "type": "electric_scooter", "is_disabled": 0, "lat": 38.91651933333333, "rental_uris": {"ios": "https://dc.lft.to/lastmile_qr_scan", "android": "https://dc.lft.to/lastmile_qr_scan"}, "is_reserved": 0, "fusion_lon": 0.0, "fusion_lat": 0.0, "lon": -77.041622, "name": "448266dcf9c8bd2db25deed57f5ab02d"}, {"bike_id": "f677d8c35af31477c3d447d3c72f266f", "type": "electric_scooter", "is_disabled": 0, "lat": 38.939968, "rental_uris": {"ios": "https://dc.lft.to/lastmile_qr_scan", "android": "https://dc.lft.to/lastmile_qr_scan"}, "is_reserved": 0, "fusion_lon": 0.0, "fusion_lat": 0.0, "lon": -77.03803, "name": "f677d8c35af31477c3d447d3c72f266f"}, {"bike_id": "4ab5a4a65759a7beeae5bedcff0ab409", "type": "electric_scooter", "is_disabled": 0, "lat": 38.92036916666667, "rental_uris": {"ios": "https://dc.lft.to/lastmile_qr_scan", "android": "https://dc.lft.to/lastmile_qr_scan"}, "is_reserved": 0, "fusion_lon": 0.0, "fusion_lat": 0.0, "lon": -77.03390466666667, "name": "4ab5a4a65759a7beeae5bedcff0ab409"}, {"bike_id": "5f53fe6eb2097b6732cc006b3980e636", "type": "electric_scooter", "is_disabled": 0, "lat": 38.922285, "rental_uris": {"ios": "https://dc.lft.to/lastmile_qr_scan", "android": "https://dc.lft.to/lastmile_qr_scan"}, "is_reserved": 0, "fusion_lon": 0.0, "fusion_lat": 0.0, "lon": -77.04373983333333, "name": "5f53fe6eb2097b6732cc006b3980e636"}, {"bike_id": "c5a824333df01e5daab98e75395e7693", "type": "electric_scooter", "is_disabled": 0, "lat": 38.88462716666667, "rental_uris": {"ios": "https://dc.lft.to/lastmile_qr_scan", "android": "https://dc.lft.to/lastmile_qr_scan"}, "is_reserved": 0, "fusion_lon": 0.0, "fusion_lat": 0.0, "lon": -77.00053466666667, "name": "c5a824333df01e5daab98e75395e7693"}, {"bike_id": "99d5096b4d04a3b20ab2cb7aea62aad2", "type": "electric_scooter", "is_disabled": 0, "lat": 38.924738, "rental_uris": {"ios": "https://dc.lft.to/lastmile_qr_scan", "android": "https://dc.lft.to/lastmile_qr_scan"}, "is_reserved": 0, "fusion_lon": 0.0, "fusion_lat": 0.0, "lon": -77.037886, "name": "99d5096b4d04a3b20ab2cb7aea62aad2"}, {"bike_id": "595404382aef88ddca1c4e345309d01e", "type": "electric_scooter", "is_disabled": 0, "lat": 38.91595866666667, "rental_uris": {"ios": "https://dc.lft.to/lastmile_qr_scan", "android": "https://dc.lft.to/lastmile_qr_scan"}, "is_reserved": 0, "fusion_lon": 0.0, "fusion_lat": 0.0, "lon": -77.02134233333334, "name": "595404382aef88ddca1c4e345309d01e"}, {"bike_id": "1430db2123fdb894937318fa403a7a99", "type": "electric_scooter", "is_disabled": 0, "lat": 38.923602, "rental_uris": {"ios": "https://dc.lft.to/lastmile_qr_scan", "android": "https://dc.lft.to/lastmile_qr_scan"}, "is_reserved": 0, "fusion_lon": 0.0, "fusion_lat": 0.0, "lon": -77.07638, "name": "1430db2123fdb894937318fa403a7a99"}, {"bike_id": "d37de0ceec6e16ea3435e4bc3e931603", "type": "electric_scooter", "is_disabled": 0, "lat": 38.965563833333334, "rental_uris": {"ios": "https://dc.lft.to/lastmile_qr_scan", "android": "https://dc.lft.to/lastmile_qr_scan"}, "is_reserved": 0, "fusion_lon": 0.0, "fusion_lat": 0.0, "lon": -77.0020205, "name": "d37de0ceec6e16ea3435e4bc3e931603"}, {"bike_id": "f869d539b14f736c9144f6ba7ba1ede6", "type": "electric_scooter", "is_disabled": 0, "lat": 38.9140225, "rental_uris": {"ios": "https://dc.lft.to/lastmile_qr_scan", "android": "https://dc.lft.to/lastmile_qr_scan"}, "is_reserved": 0, "fusion_lon": 0.0, "fusion_lat": 0.0, "lon": -77.0399415, "name": "f869d539b14f736c9144f6ba7ba1ede6"}, {"bike_id": "878462f9761b5ce36946b56e71c5eda5", "type": "electric_scooter", "is_disabled": 0, "lat": 38.9155445, "rental_uris": {"ios": "https://dc.lft.to/lastmile_qr_scan", "android": "https://dc.lft.to/lastmile_qr_scan"}, "is_reserved": 0, "fusion_lon": 0.0, "fusion_lat": 0.0, "lon": -77.03322216666666, "name": "878462f9761b5ce36946b56e71c5eda5"}, {"bike_id": "2154a03b6ffb8ac3c401f5e9feed3272", "type": "electric_scooter", "is_disabled": 0, "lat": 38.91916333333333, "rental_uris": {"ios": "https://dc.lft.to/lastmile_qr_scan", "android": "https://dc.lft.to/lastmile_qr_scan"}, "is_reserved": 0, "fusion_lon": 0.0, "fusion_lat": 0.0, "lon": -77.0302265, "name": "2154a03b6ffb8ac3c401f5e9feed3272"}, {"bike_id": "bec1aecf3cd84017f28cae05ef82cb0d", "type": "electric_scooter", "is_disabled": 0, "lat": 38.921494333333335, "rental_uris": {"ios": "https://dc.lft.to/lastmile_qr_scan", "android": "https://dc.lft.to/lastmile_qr_scan"}, "is_reserved": 0, "fusion_lon": 0.0, "fusion_lat": 0.0, "lon": -77.04235433333334, "name": "bec1aecf3cd84017f28cae05ef82cb0d"}, {"bike_id": "1468570c644c46a50889d4186ded3a44", "type": "electric_scooter", "is_disabled": 0, "lat": 38.883019833333336, "rental_uris": {"ios": "https://dc.lft.to/lastmile_qr_scan", "android": "https://dc.lft.to/lastmile_qr_scan"}, "is_reserved": 0, "fusion_lon": 0.0, "fusion_lat": 0.0, "lon": -76.94202233333333, "name": "1468570c644c46a50889d4186ded3a44"}, {"bike_id": "393705eb2c32b8b099d355559cecb393", "type": "electric_scooter", "is_disabled": 0, "lat": 38.85451916666667, "rental_uris": {"ios": "https://dc.lft.to/lastmile_qr_scan", "android": "https://dc.lft.to/lastmile_qr_scan"}, "is_reserved": 0, "fusion_lon": 0.0, "fusion_lat": 0.0, "lon": -76.97224583333333, "name": "393705eb2c32b8b099d355559cecb393"}, {"bike_id": "a176f35802d81366829261ab950eadc1", "type": "electric_scooter", "is_disabled": 0, "lat": 38.9204015, "rental_uris": {"ios": "https://dc.lft.to/lastmile_qr_scan", "android": "https://dc.lft.to/lastmile_qr_scan"}, "is_reserved": 0, "fusion_lon": 0.0, "fusion_lat": 0.0, "lon": -77.023592, "name": "a176f35802d81366829261ab950eadc1"}, {"bike_id": "34ebc0ddb13492b9ad6530a70e7e9c19", "type": "electric_scooter", "is_disabled": 0, "lat": 38.91595566666667, "rental_uris": {"ios": "https://dc.lft.to/lastmile_qr_scan", "android": "https://dc.lft.to/lastmile_qr_scan"}, "is_reserved": 0, "fusion_lon": 0.0, "fusion_lat": 0.0, "lon": -77.00197833333333, "name": "34ebc0ddb13492b9ad6530a70e7e9c19"}, {"bike_id": "dfc09c5e1b998136cc34f44ebd1c6965", "type": "electric_scooter", "is_disabled": 0, "lat": 38.92322516666667, "rental_uris": {"ios": "https://dc.lft.to/lastmile_qr_scan", "android": "https://dc.lft.to/lastmile_qr_scan"}, "is_reserved": 0, "fusion_lon": 0.0, "fusion_lat": 0.0, "lon": -77.02958483333333, "name": "dfc09c5e1b998136cc34f44ebd1c6965"}, {"bike_id": "8085a47ccb286487b9daaa8d8e09d2c1", "type": "electric_scooter", "is_disabled": 0, "lat": 38.92149033333333, "rental_uris": {"ios": "https://dc.lft.to/lastmile_qr_scan", "android": "https://dc.lft.to/lastmile_qr_scan"}, "is_reserved": 0, "fusion_lon": 0.0, "fusion_lat": 0.0, "lon": -77.03436966666666, "name": "8085a47ccb286487b9daaa8d8e09d2c1"}, {"bike_id": "f1b4e14f4f3a087525e22e103a07dcda", "type": "electric_scooter", "is_disabled": 0, "lat": 38.92288816666667, "rental_uris": {"ios": "https://dc.lft.to/lastmile_qr_scan", "android": "https://dc.lft.to/lastmile_qr_scan"}, "is_reserved": 0, "fusion_lon": 0.0, "fusion_lat": 0.0, "lon": -77.07318033333334, "name": "f1b4e14f4f3a087525e22e103a07dcda"}, {"bike_id": "425563fe1a46f3cc5afb218cf31d0613", "type": "electric_scooter", "is_disabled": 0, "lat": 38.904206, "rental_uris": {"ios": "https://dc.lft.to/lastmile_qr_scan", "android": "https://dc.lft.to/lastmile_qr_scan"}, "is_reserved": 0, "fusion_lon": 0.0, "fusion_lat": 0.0, "lon": -77.04870383333333, "name": "425563fe1a46f3cc5afb218cf31d0613"}, {"bike_id": "0d514ffd899190491e81a66f9152dba8", "type": "electric_scooter", "is_disabled": 0, "lat": 38.92152766666667, "rental_uris": {"ios": "https://dc.lft.to/lastmile_qr_scan", "android": "https://dc.lft.to/lastmile_qr_scan"}, "is_reserved": 0, "fusion_lon": 0.0, "fusion_lat": 0.0, "lon": -77.03869366666666, "name": "0d514ffd899190491e81a66f9152dba8"}, {"bike_id": "554de96cb3398548cec8754671430ff3", "type": "electric_scooter", "is_disabled": 0, "lat": 38.88487383333333, "rental_uris": {"ios": "https://dc.lft.to/lastmile_qr_scan", "android": "https://dc.lft.to/lastmile_qr_scan"}, "is_reserved": 0, "fusion_lon": 0.0, "fusion_lat": 0.0, "lon": -77.034769, "name": "554de96cb3398548cec8754671430ff3"}, {"bike_id": "4bfb40c205ecef23077a2571213cb279", "type": "electric_scooter", "is_disabled": 0, "lat": 38.918298666666665, "rental_uris": {"ios": "https://dc.lft.to/lastmile_qr_scan", "android": "https://dc.lft.to/lastmile_qr_scan"}, "is_reserved": 0, "fusion_lon": 0.0, "fusion_lat": 0.0, "lon": -77.0393465, "name": "4bfb40c205ecef23077a2571213cb279"}, {"bike_id": "f2bb11c04090c234697dd1616edba874", "type": "electric_scooter", "is_disabled": 0, "lat": 38.92363133333333, "rental_uris": {"ios": "https://dc.lft.to/lastmile_qr_scan", "android": "https://dc.lft.to/lastmile_qr_scan"}, "is_reserved": 0, "fusion_lon": 0.0, "fusion_lat": 0.0, "lon": -77.050492, "name": "f2bb11c04090c234697dd1616edba874"}, {"bike_id": "1efb3b2fb237f6fff7fb9d1e9ab1aedf", "type": "electric_scooter", "is_disabled": 0, "lat": 38.905845, "rental_uris": {"ios": "https://dc.lft.to/lastmile_qr_scan", "android": "https://dc.lft.to/lastmile_qr_scan"}, "is_reserved": 0, "fusion_lon": 0.0, "fusion_lat": 0.0, "lon": -77.0517155, "name": "1efb3b2fb237f6fff7fb9d1e9ab1aedf"}, {"bike_id": "4ac0e02272aa073dabee1a8aad461adc", "type": "electric_scooter", "is_disabled": 0, "lat": 38.91985616666667, "rental_uris": {"ios": "https://dc.lft.to/lastmile_qr_scan", "android": "https://dc.lft.to/lastmile_qr_scan"}, "is_reserved": 0, "fusion_lon": 0.0, "fusion_lat": 0.0, "lon": -77.01788416666666, "name": "4ac0e02272aa073dabee1a8aad461adc"}, {"bike_id": "43d652d2cbcc5986d366123a142351ab", "type": "electric_scooter", "is_disabled": 0, "lat": 38.922116333333335, "rental_uris": {"ios": "https://dc.lft.to/lastmile_qr_scan", "android": "https://dc.lft.to/lastmile_qr_scan"}, "is_reserved": 0, "fusion_lon": 0.0, "fusion_lat": 0.0, "lon": -77.04242633333334, "name": "43d652d2cbcc5986d366123a142351ab"}, {"bike_id": "6fba356539043eaea8b0e2aad1d19986", "type": "electric_scooter", "is_disabled": 0, "lat": 38.900682, "rental_uris": {"ios": "https://dc.lft.to/lastmile_qr_scan", "android": "https://dc.lft.to/lastmile_qr_scan"}, "is_reserved": 0, "fusion_lon": 0.0, "fusion_lat": 0.0, "lon": -77.04985866666667, "name": "6fba356539043eaea8b0e2aad1d19986"}, {"bike_id": "d10a429f364fe37f51d899318c1ab4c4", "type": "electric_scooter", "is_disabled": 0, "lat": 38.9232935, "rental_uris": {"ios": "https://dc.lft.to/lastmile_qr_scan", "android": "https://dc.lft.to/lastmile_qr_scan"}, "is_reserved": 0, "fusion_lon": 0.0, "fusion_lat": 0.0, "lon": -77.05418433333334, "name": "d10a429f364fe37f51d899318c1ab4c4"}, {"bike_id": "a0695b8f1c1445f13c9e3aa0a2226626", "type": "electric_scooter", "is_disabled": 0, "lat": 38.923890166666666, "rental_uris": {"ios": "https://dc.lft.to/lastmile_qr_scan", "android": "https://dc.lft.to/lastmile_qr_scan"}, "is_reserved": 0, "fusion_lon": 0.0, "fusion_lat": 0.0, "lon": -77.0444755, "name": "a0695b8f1c1445f13c9e3aa0a2226626"}, {"bike_id": "34683e7a8c51dffb35941a9a3ab1e6f7", "type": "electric_scooter", "is_disabled": 0, "lat": 38.895153666666666, "rental_uris": {"ios": "https://dc.lft.to/lastmile_qr_scan", "android": "https://dc.lft.to/lastmile_qr_scan"}, "is_reserved": 0, "fusion_lon": 0.0, "fusion_lat": 0.0, "lon": -77.01097883333334, "name": "34683e7a8c51dffb35941a9a3ab1e6f7"}, {"bike_id": "105838ac36b7daacd2de872e3f1b322f", "type": "electric_bike", "is_disabled": 0, "lat": 38.81510383333333, "rental_uris": {"ios": "https://dc.lft.to/lastmile_qr_scan", "android": "https://dc.lft.to/lastmile_qr_scan"}, "is_reserved": 0, "fusion_lon": 0.0, "fusion_lat": 0.0, "lon": -77.12653383333334, "name": "105838ac36b7daacd2de872e3f1b322f"}, {"bike_id": "b9a8c73dcb6cbfbb2230791143d14267", "type": "electric_scooter", "is_disabled": 0, "lat": 38.90389483333333, "rental_uris": {"ios": "https://dc.lft.to/lastmile_qr_scan", "android": "https://dc.lft.to/lastmile_qr_scan"}, "is_reserved": 0, "fusion_lon": 0.0, "fusion_lat": 0.0, "lon": -77.02493816666667, "name": "b9a8c73dcb6cbfbb2230791143d14267"}, {"bike_id": "401da16067a246deb5bb075407f36f42", "type": "electric_scooter", "is_disabled": 0, "lat": 38.9767355, "rental_uris": {"ios": "https://dc.lft.to/lastmile_qr_scan", "android": "https://dc.lft.to/lastmile_qr_scan"}, "is_reserved": 0, "fusion_lon": 0.0, "fusion_lat": 0.0, "lon": -77.01659966666666, "name": "401da16067a246deb5bb075407f36f42"}, {"bike_id": "08dd7b7609a0181956eb44893588b60d", "type": "electric_scooter", "is_disabled": 0, "lat": 38.9141905, "rental_uris": {"ios": "https://dc.lft.to/lastmile_qr_scan", "android": "https://dc.lft.to/lastmile_qr_scan"}, "is_reserved": 0, "fusion_lon": 0.0, "fusion_lat": 0.0, "lon": -77.01806283333333, "name": "08dd7b7609a0181956eb44893588b60d"}, {"bike_id": "f7fdac27a8a0b49a55a97c0914a1dedd", "type": "electric_scooter", "is_disabled": 0, "lat": 38.92450983333333, "rental_uris": {"ios": "https://dc.lft.to/lastmile_qr_scan", "android": "https://dc.lft.to/lastmile_qr_scan"}, "is_reserved": 0, "fusion_lon": 0.0, "fusion_lat": 0.0, "lon": -77.0334175, "name": "f7fdac27a8a0b49a55a97c0914a1dedd"}, {"bike_id": "51ce1eb5ed2c4b7db455178d79ef5af4", "type": "electric_scooter", "is_disabled": 0, "lat": 38.881316166666664, "rental_uris": {"ios": "https://dc.lft.to/lastmile_qr_scan", "android": "https://dc.lft.to/lastmile_qr_scan"}, "is_reserved": 0, "fusion_lon": 0.0, "fusion_lat": 0.0, "lon": -77.00076633333333, "name": "51ce1eb5ed2c4b7db455178d79ef5af4"}, {"bike_id": "9a998c89d2a5565611d7192dd60dea00", "type": "electric_scooter", "is_disabled": 0, "lat": 38.904771, "rental_uris": {"ios": "https://dc.lft.to/lastmile_qr_scan", "android": "https://dc.lft.to/lastmile_qr_scan"}, "is_reserved": 0, "fusion_lon": 0.0, "fusion_lat": 0.0, "lon": -77.06120466666667, "name": "9a998c89d2a5565611d7192dd60dea00"}, {"bike_id": "b5370047f67c06cdce7445a1dfc46bf8", "type": "electric_scooter", "is_disabled": 0, "lat": 38.8984145, "rental_uris": {"ios": "https://dc.lft.to/lastmile_qr_scan", "android": "https://dc.lft.to/lastmile_qr_scan"}, "is_reserved": 0, "fusion_lon": 0.0, "fusion_lat": 0.0, "lon": -76.94636066666666, "name": "b5370047f67c06cdce7445a1dfc46bf8"}, {"bike_id": "42271d88699dc2654f395de7b4f4025a", "type": "electric_bike", "is_disabled": 0, "lat": 38.7960485, "rental_uris": {"ios": "https://dc.lft.to/lastmile_qr_scan", "android": "https://dc.lft.to/lastmile_qr_scan"}, "is_reserved": 0, "fusion_lon": 0.0, "fusion_lat": 0.0, "lon": -76.99745866666666, "name": "42271d88699dc2654f395de7b4f4025a"}, {"bike_id": "2e658815bb5face0b6de03c709b3b94e", "type": "electric_scooter", "is_disabled": 0, "lat": 38.9292235, "rental_uris": {"ios": "https://dc.lft.to/lastmile_qr_scan", "android": "https://dc.lft.to/lastmile_qr_scan"}, "is_reserved": 0, "fusion_lon": 0.0, "fusion_lat": 0.0, "lon": -77.0325, "name": "2e658815bb5face0b6de03c709b3b94e"}, {"bike_id": "bfb1a9539a1fd180fe711064c42b6516", "type": "electric_scooter", "is_disabled": 0, "lat": 38.90351883333334, "rental_uris": {"ios": "https://dc.lft.to/lastmile_qr_scan", "android": "https://dc.lft.to/lastmile_qr_scan"}, "is_reserved": 0, "fusion_lon": 0.0, "fusion_lat": 0.0, "lon": -77.03147016666667, "name": "bfb1a9539a1fd180fe711064c42b6516"}, {"bike_id": "50b0256af3930527f292bd6de65cb311", "type": "electric_bike", "is_disabled": 0, "lat": 39.03431616666666, "rental_uris": {"ios": "https://dc.lft.to/lastmile_qr_scan", "android": "https://dc.lft.to/lastmile_qr_scan"}, "is_reserved": 0, "fusion_lon": 0.0, "fusion_lat": 0.0, "lon": -77.04315616666666, "name": "50b0256af3930527f292bd6de65cb311"}, {"bike_id": "0a654ee454ab836867a245bc1a292b06", "type": "electric_scooter", "is_disabled": 0, "lat": 38.927117, "rental_uris": {"ios": "https://dc.lft.to/lastmile_qr_scan", "android": "https://dc.lft.to/lastmile_qr_scan"}, "is_reserved": 0, "fusion_lon": 0.0, "fusion_lat": 0.0, "lon": -77.02093166666667, "name": "0a654ee454ab836867a245bc1a292b06"},