{"data": {"bikes": [{"bike_id": "2e097f0f13b6462b9ff098f599a6b087", "type": "electric_scooter", "is_disabled": 0, "lat": 38.896169, "rental_uris": {"ios": "https://dc.lft.to/lastmile_qr_scan", "android": "https://dc.lft.to/lastmile_qr_scan"}, "is_reserved": 0, "fusion_lon": 0.0, "fusion_lat": 0.0, "lon": -77.00022966666667, "name": "2e097f0f13b6462b9ff098f599a6b087"}, {"bike_id": "7557b6c7e77ff785c1e3e70ed5457a0b", "type": "electric_bike", "is_disabled": 0, "lat": 38.83613366666667, "rental_uris": {"ios": "https://dc.lft.to/lastmile_qr_scan", "android": "https://dc.lft.to/lastmile_qr_scan"}, "is_reserved": 0, "fusion_lon": 0.0, "fusion_lat": 0.0, "lon": -77.00381933333334, "name": "7557b6c7e77ff785c1e3e70ed5457a0b"}, {"bike_id": "2de2625688503806b89e3101fe3b73af", "type": "electric_scooter", "is_disabled": 0, "lat": 38.90786816666667, "rental_uris": {"ios": "https://dc.lft.to/lastmile_qr_scan", "android": "https://dc.lft.to/lastmile_qr_scan"}, "is_reserved": 0, "fusion_lon": 0.0, "fusion_lat": 0.0, "lon": -77.064285, "name": "2de2625688503806b89e3101fe3b73af"}, {"bike_id": "07c2bf31f36c04b90ec8b5cfa4988d47", "type": "electric_scooter", "is_disabled": 0, "lat": 38.9075005, "rental_uris": {"ios": "https://dc.lft.to/lastmile_qr_scan", "android": "https://dc.lft.to/lastmile_qr_scan"}, "is_reserved": 0, "fusion_lon": 0.0, "fusion_lat": 0.0, "lon": -77.0360555, "name": "07c2bf31f36c04b90ec8b5cfa4988d47"}, {"bike_id": "4a51047b2bf2ba03889c06e63e404544", "type": "electric_bike", "is_disabled": 0, "lat": 38.87135, "rental_uris": {"ios": "https://dc.lft.to/lastmile_qr_scan", "android": "https://dc.lft.to/lastmile_qr_scan"}, "is_reserved": 0, "fusion_lon": 0.0, "fusion_lat": 0.0, "lon": -77.100212, "name": "4a51047b2bf2ba03889c06e63e404544"}, {"bike_id": "7aae660bdea757b64c91d78711b3eba6", "type": "electric_scooter", "is_disabled": 0, "lat": 38.921046, "rental_uris": {"ios": "https://dc.lft.to/lastmile_qr_scan", "android": "https://dc.lft.to/lastmile_qr_scan"}, "is_reserved": 0, "fusion_lon": 0.0, "fusion_lat": 0.0, "lon": -77.02208683333333, "name": "7aae660bdea757b64c91d78711b3eba6"}, {"bike_id": "e9da1629c5aacf68019afd81c32f8691", "type": "electric_scooter", "is_disabled": 0, "lat": 38.8991025, "rental_uris": {"ios": "https://dc.lft.to/lastmile_qr_scan", "android": "https://dc.lft.to/lastmile_qr_scan"}, "is_reserved": 0, "fusion_lon": 0.0, "fusion_lat": 0.0, "lon": -76.93375383333333, "name": "e9da1629c5aacf68019afd81c32f8691"}, {"bike_id": "3e795bc36216299d9c53bedb3d5f76e1", "type": "electric_scooter", "is_disabled": 0, "lat": 38.920362833333336, "rental_uris": {"ios": "https://dc.lft.to/lastmile_qr_scan", "android": "https://dc.lft.to/lastmile_qr_scan"}, "is_reserved": 0, "fusion_lon": 0.0, "fusion_lat": 0.0, "lon": -77.024067, "name": "3e795bc36216299d9c53bedb3d5f76e1"}, {"bike_id": "c42548ff375c301220bb5b18023a4dec", "type": "electric_scooter", "is_disabled": 0, "lat": 38.906270166666665, "rental_uris": {"ios": "https://dc.lft.to/lastmile_qr_scan", "android": "https://dc.lft.to/lastmile_qr_scan"}, "is_reserved": 0, "fusion_lon": 0.0, "fusion_lat": 0.0, "lon": -77.0486835, "name": "c42548ff375c301220bb5b18023a4dec"}, {"bike_id": "f68edc3d8eae35a299269ba46b190a20", "type": "electric_scooter", "is_disabled": 0, "lat": 38.930243, "rental_uris": {"ios": "https://dc.lft.to/lastmile_qr_scan", "android": "https://dc.lft.to/lastmile_qr_scan"}, "is_reserved": 0, "fusion_lon": 0.0, "fusion_lat": 0.0, "lon": -77.03800133333333, "name": "f68edc3d8eae35a299269ba46b190a20"}, {"bike_id": "62db7ec36eb5833d0d35da4d1c7a9b61", "type": "electric_scooter", "is_disabled": 0, "lat": 38.863649333333335, "rental_uris": {"ios": "https://dc.lft.to/lastmile_qr_scan", "android": "https://dc.lft.to/lastmile_qr_scan"}, "is_reserved": 0, "fusion_lon": 0.0, "fusion_lat": 0.0, "lon": -76.99057566666667, "name": "62db7ec36eb5833d0d35da4d1c7a9b61"}, {"bike_id": "0f1d86ab6315a472c40ee1517ab8ac74", "type": "electric_scooter", "is_disabled": 0, "lat": 38.9066295, "rental_uris": {"ios": "https://dc.lft.to/lastmile_qr_scan", "android": "https://dc.lft.to/lastmile_qr_scan"}, "is_reserved": 0, "fusion_lon": 0.0, "fusion_lat": 0.0, "lon": -77.01047216666667, "name": "0f1d86ab6315a472c40ee1517ab8ac74"}, {"bike_id": "720dc08cfb1539624159360d59bc8fe8", "type": "electric_scooter", "is_disabled": 0, "lat": 38.9256235, "rental_uris": {"ios": "https://dc.lft.to/lastmile_qr_scan", "android": "https://dc.lft.to/lastmile_qr_scan"}, "is_reserved": 0, "fusion_lon": 0.0, "fusion_lat": 0.0, "lon": -77.02278016666666, "name": "720dc08cfb1539624159360d59bc8fe8"}, {"bike_id": "50a97d5b203e98cd6f83ec7b7d9d618c", "type": "electric_scooter", "is_disabled": 0, "lat": 38.91680216666666, "rental_uris": {"ios": "https://dc.lft.to/lastmile_qr_scan", "android": "https://dc.lft.to/lastmile_qr_scan"}, "is_reserved": 0, "fusion_lon": 0.0, "fusion_lat": 0.0, "lon": -77.02877383333333, "name": "50a97d5b203e98cd6f83ec7b7d9d618c"}, {"bike_id": "689d451dcb8ba8d13a8db804f0ac22f6", "type": "electric_scooter", "is_disabled": 0, "lat": 38.87945583333333, "rental_uris": {"ios": "https://dc.lft.to/lastmile_qr_scan", "android": "https://dc.lft.to/lastmile_qr_scan"}, "is_reserved": 0, "fusion_lon": 0.0, "fusion_lat": 0.0, "lon": -77.00386033333334, "name": "689d451dcb8ba8d13a8db804f0ac22f6"}, {"bike_id": "51022340afaefd79f3a068ce099b3647", "type": "electric_scooter", "is_disabled": 0, "lat": 38.91288183333333, "rental_uris": {"ios": "https://dc.lft.to/lastmile_qr_scan", "android": "https://dc.lft.to/lastmile_qr_scan"}, "is_reserved": 0, "fusion_lon": 0.0, "fusion_lat": 0.0, "lon": -77.0197485, "name": "51022340afaefd79f3a068ce099b3647"}, {"bike_id": "8031b6eee173c1c9150e17752e1aadbc", "type": "electric_scooter", "is_disabled": 0, "lat": 38.916908666666664, "rental_uris": {"ios": "https://dc.lft.to/lastmile_qr_scan", "android": "https://dc.lft.to/lastmile_qr_scan"}, "is_reserved": 0, "fusion_lon": 0.0, "fusion_lat": 0.0, "lon": -77.01069016666666, "name": "8031b6eee173c1c9150e17752e1aadbc"}, {"bike_id": "7612c5f0d856d429b8d481e21bd6eb2e", "type": "electric_scooter", "is_disabled": 0, "lat": 38.862394, "rental_uris": {"ios": "https://dc.lft.to/lastmile_qr_scan", "android": "https://dc.lft.to/lastmile_qr_scan"}, "is_reserved": 0, "fusion_lon": 0.0, "fusion_lat": 0.0, "lon": -76.99260883333334, "name": "7612c5f0d856d429b8d481e21bd6eb2e"}, {"bike_id": "c4821ab893b4af2e127d4d51d7d8f890", "type": "electric_scooter", "is_disabled": 0, "lat": 38.908071166666666, "rental_uris": {"ios": "https://dc.lft.to/lastmile_qr_scan", "android": "https://dc.lft.to/lastmile_qr_scan"}, "is_reserved": 0, "fusion_lon": 0.0, "fusion_lat": 0.0, "lon": -77.0203515, "name": "c4821ab893b4af2e127d4d51d7d8f890"}, {"bike_id": "48ff5637733dae6c97052ad9556fac7e", "type": "electric_scooter", "is_disabled": 0, "lat": 38.92138666666666, "rental_uris": {"ios": "https://dc.lft.to/lastmile_qr_scan", "android": "https://dc.lft.to/lastmile_qr_scan"}, "is_reserved": 0, "fusion_lon": 0.0, "fusion_lat": 0.0, "lon": -77.0181135, "name": "48ff5637733dae6c97052ad9556fac7e"}, {"bike_id": "95f31efdaa9f23b18de2e555a714f552", "type": "electric_scooter", "is_disabled": 0, "lat": 38.90681466666667, "rental_uris": {"ios": "https://dc.lft.to/lastmile_qr_scan", "android": "https://dc.lft.to/lastmile_qr_scan"}, "is_reserved": 0, "fusion_lon": 0.0, "fusion_lat": 0.0, "lon": -77.05329816666666, "name": "95f31efdaa9f23b18de2e555a714f552"}, {"bike_id": "ee0f882115797733509a5756389ee654", "type": "electric_scooter", "is_disabled": 0, "lat": 38.88841516666667, "rental_uris": {"ios": "https://dc.lft.to/lastmile_qr_scan", "android": "https://dc.lft.to/lastmile_qr_scan"}, "is_reserved": 0, "fusion_lon": 0.0, "fusion_lat": 0.0, "lon": -76.98916616666666, "name": "ee0f882115797733509a5756389ee654"}, {"bike_id": "7aa9c3d01e5960cbe63df275c8f5e053", "type": "electric_bike", "is_disabled": 0, "lat": 38.8770225, "rental_uris": {"ios": "https://dc.lft.to/lastmile_qr_scan", "android": "https://dc.lft.to/lastmile_qr_scan"}, "is_reserved": 0, "fusion_lon": 0.0, "fusion_lat": 0.0, "lon": -77.10954966666667, "name": "7aa9c3d01e5960cbe63df275c8f5e053"}, {"bike_id": "1bbc02be932a460cb542eb7bf10acfda", "type": "electric_bike", "is_disabled": 0, "lat": 38.908262666666666, "rental_uris": {"ios": "https://dc.lft.to/lastmile_qr_scan", "android": "https://dc.lft.to/lastmile_qr_scan"}, "is_reserved": 0, "fusion_lon": 0.0, "fusion_lat": 0.0, "lon": -76.94159283333333, "name": "1bbc02be932a460cb542eb7bf10acfda"}, {"bike_id": "10e993ac0715e3e55b2856085b892fca", "type": "electric_scooter", "is_disabled": 0, "lat": 38.896786666666664, "rental_uris": {"ios": "https://dc.lft.to/lastmile_qr_scan", "android": "https://dc.lft.to/lastmile_qr_scan"}, "is_reserved": 0, "fusion_lon": 0.0, "fusion_lat": 0.0, "lon": -77.03362566666667, "name": "10e993ac0715e3e55b2856085b892fca"}, {"bike_id": "4eeae5e78062b141f33c2693bddf61e5", "type": "electric_scooter", "is_disabled": 0, "lat": 38.917025, "rental_uris": {"ios": "https://dc.lft.to/lastmile_qr_scan", "android": "https://dc.lft.to/lastmile_qr_scan"}, "is_reserved": 0, "fusion_lon": 0.0, "fusion_lat": 0.0, "lon": -77.02891366666667, "name": "4eeae5e78062b141f33c2693bddf61e5"}, {"bike_id": "19c321f5b8ea43750d58cfa04e5935b7", "type": "electric_scooter", "is_disabled": 0, "lat": 38.88734516666667, "rental_uris": {"ios": "https://dc.lft.to/lastmile_qr_scan", "android": "https://dc.lft.to/lastmile_qr_scan"}, "is_reserved": 0, "fusion_lon": 0.0, "fusion_lat": 0.0, "lon": -77.01767333333333, "name": "19c321f5b8ea43750d58cfa04e5935b7"}, {"bike_id": "f8be03bde8ad513ced40a262cd9a10bf", "type": "electric_scooter", "is_disabled": 0, "lat": 38.9285875, "rental_uris": {"ios": "https://dc.lft.to/lastmile_qr_scan", "android": "https://dc.lft.to/lastmile_qr_scan"}, "is_reserved": 0, "fusion_lon": 0.0, "fusion_lat": 0.0, "lon": -77.0328075, "name": "f8be03bde8ad513ced40a262cd9a10bf"}, {"bike_id": "6d10da473054cfb11d3fb699f5ebb6a8", "type": "electric_bike", "is_disabled": 0, "lat": 38.80387316666667, "rental_uris": {"ios": "https://dc.lft.to/lastmile_qr_scan", "android": "https://dc.lft.to/lastmile_qr_scan"}, "is_reserved": 0, "fusion_lon": 0.0, "fusion_lat": 0.0, "lon": -77.055599, "name": "6d10da473054cfb11d3fb699f5ebb6a8"}, {"bike_id": "a0ed5c9786fece8d0d9563a5d844783f", "type": "electric_scooter", "is_disabled": 0, "lat": 38.93893716666667, "rental_uris": {"ios": "https://dc.lft.to/lastmile_qr_scan", "android": "https://dc.lft.to/lastmile_qr_scan"}, "is_reserved": 0, "fusion_lon": 0.0, "fusion_lat": 0.0, "lon": -77.03322633333333, "name": "a0ed5c9786fece8d0d9563a5d844783f"}, {"bike_id": "45372ab1804ad461566e090a95ee672e", "type": "electric_scooter", "is_disabled": 0, "lat": 38.89269733333333, "rental_uris": {"ios": "https://dc.lft.to/lastmile_qr_scan", "android": "https://dc.lft.to/lastmile_qr_scan"}, "is_reserved": 0, "fusion_lon": 0.0, "fusion_lat": 0.0, "lon": -77.02036933333333, "name": "45372ab1804ad461566e090a95ee672e"}, {"bike_id": "6e928de34a9914185e739ea56405b8b6", "type": "electric_scooter", "is_disabled": 0, "lat": 38.93976716666667, "rental_uris": {"ios": "https://dc.lft.to/lastmile_qr_scan", "android": "https://dc.lft.to/lastmile_qr_scan"}, "is_reserved": 0, "fusion_lon": 0.0, "fusion_lat": 0.0, "lon": -77.02870433333334, "name": "6e928de34a9914185e739ea56405b8b6"}, {"bike_id": "c39f326b85c00c659662967f0cb7e6ba", "type": "electric_scooter", "is_disabled": 0, "lat": 38.866218833333335, "rental_uris": {"ios": "https://dc.lft.to/lastmile_qr_scan", "android": "https://dc.lft.to/lastmile_qr_scan"}, "is_reserved": 0, "fusion_lon": 0.0, "fusion_lat": 0.0, "lon": -76.98718416666667, "name": "c39f326b85c00c659662967f0cb7e6ba"}, {"bike_id": "0eda9428f49e438f87782925812012cd", "type": "electric_scooter", "is_disabled": 0, "lat": 38.8706995, "rental_uris": {"ios": "https://dc.lft.to/lastmile_qr_scan", "android": "https://dc.lft.to/lastmile_qr_scan"}, "is_reserved": 0, "fusion_lon": 0.0, "fusion_lat": 0.0, "lon": -76.98128733333333, "name": "0eda9428f49e438f87782925812012cd"}, {"bike_id": "fb6bf560ea0cecc04169fe3f6e12c00e", "type": "electric_scooter", "is_disabled": 0, "lat": 38.942, "rental_uris": {"ios": "https://dc.lft.to/lastmile_qr_scan", "android": "https://dc.lft.to/lastmile_qr_scan"}, "is_reserved": 0, "fusion_lon": 0.0, "fusion_lat": 0.0, "lon": -77.02545466666666, "name": "fb6bf560ea0cecc04169fe3f6e12c00e"}, {"bike_id": "252d14309b6a59b05c07509b1fe93ee1", "type": "electric_bike", "is_disabled": 0, "lat": 38.8648345, "rental_uris": {"ios": "https://dc.lft.to/lastmile_qr_scan", "android": "https://dc.lft.to/lastmile_qr_scan"}, "is_reserved": 0, "fusion_lon": 0.0, "fusion_lat": 0.0, "lon": -76.97744283333333, "name": "252d14309b6a59b05c07509b1fe93ee1"}, {"bike_id": "a2f30f08dba5db57fc0c4686137c66b3", "type": "electric_scooter", "is_disabled": 0, "lat": 38.85807633333334, "rental_uris": {"ios": "https://dc.lft.to/lastmile_qr_scan", "android": "https://dc.lft.to/lastmile_qr_scan"}, "is_reserved": 0, "fusion_lon": 0.0, "fusion_lat": 0.0, "lon": -76.98925366666667, "name": "a2f30f08dba5db57fc0c4686137c66b3"}, {"bike_id": "92044037d98b1af35ac5024e112194b1", "type": "electric_scooter", "is_disabled": 0, "lat": 38.914760666666666, "rental_uris": {"ios": "https://dc.lft.to/lastmile_qr_scan", "android": "https://dc.lft.to/lastmile_qr_scan"}, "is_reserved": 0, "fusion_lon": 0.0, "fusion_lat": 0.0, "lon": -77.02500066666667, "name": "92044037d98b1af35ac5024e112194b1"}, {"bike_id": "a39eda52a4f893fbdfc960927cd1f18e", "type": "electric_scooter", "is_disabled": 0, "lat": 38.91733, "rental_uris": {"ios": "https://dc.lft.to/lastmile_qr_scan", "android": "https://dc.lft.to/lastmile_qr_scan"}, "is_reserved": 0, "fusion_lon": 0.0, "fusion_lat": 0.0, "lon": -77.02814466666666, "name": "a39eda52a4f893fbdfc960927cd1f18e"}, {"bike_id": "3b80b657ad933c9f42524e5a05999ec5", "type": "electric_scooter", "is_disabled": 0, "lat": 38.9126065, "rental_uris": {"ios": "https://dc.lft.to/lastmile_qr_scan", "android": "https://dc.lft.to/lastmile_qr_scan"}, "is_reserved": 0, "fusion_lon": 0.0, "fusion_lat": 0.0, "lon": -77.00227466666666, "name": "3b80b657ad933c9f42524e5a05999ec5"}, {"bike_id": "bfb088c9a9da6ed57a0448424a78b096", "type": "electric_scooter", "is_disabled": 0, "lat": 38.900119, "rental_uris": {"ios": "https://dc.lft.to/lastmile_qr_scan", "android": "https://dc.lft.to/lastmile_qr_scan"}, "is_reserved": 0, "fusion_lon": 0.0, "fusion_lat": 0.0, "lon": -77.00381833333333, "name": "bfb088c9a9da6ed57a0448424a78b096"}, {"bike_id": "6e5d830b1c6a649b7c203b30959f60eb", "type": "electric_scooter", "is_disabled": 0, "lat": 38.9038015, "rental_uris": {"ios": "https://dc.lft.to/lastmile_qr_scan", "android": "https://dc.lft.to/lastmile_qr_scan"}, "is_reserved": 0, "fusion_lon": 0.0, "fusion_lat": 0.0, "lon": -76.9819655, "name": "6e5d830b1c6a649b7c203b30959f60eb"}, {"bike_id": "ecf9e06526b21750033f2d00beaba58f", "type": "electric_scooter", "is_disabled": 0, "lat": 38.9182015, "rental_uris": {"ios": "https://dc.lft.to/lastmile_qr_scan", "android": "https://dc.lft.to/lastmile_qr_scan"}, "is_reserved": 0, "fusion_lon": 0.0, "fusion_lat": 0.0, "lon": -77.02422816666666, "name": "ecf9e06526b21750033f2d00beaba58f"}, {"bike_id": "ae4d608c5e7953b232d5fa2a41183e1d", "type": "electric_scooter", "is_disabled": 0, "lat": 38.91236716666667, "rental_uris": {"ios": "https://dc.lft.to/lastmile_qr_scan", "android": "https://dc.lft.to/lastmile_qr_scan"}, "is_reserved": 0, "fusion_lon": 0.0, "fusion_lat": 0.0, "lon": -77.0091865, "name": "ae4d608c5e7953b232d5fa2a41183e1d"}, {"bike_id": "5c486ad23b5f9864d5a6afb05b35b63e", "type": "electric_scooter", "is_disabled": 0, "lat": 38.8843445, "rental_uris": {"ios": "https://dc.lft.to/lastmile_qr_scan", "android": "https://dc.lft.to/lastmile_qr_scan"}, "is_reserved": 0, "fusion_lon": 0.0, "fusion_lat": 0.0, "lon": -76.95747283333333, "name": "5c486ad23b5f9864d5a6afb05b35b63e"}, {"bike_id": "06cf00190c3aa2bea6b5014fc35cf8b5", "type": "electric_scooter", "is_disabled": 0, "lat": 38.91826316666667, "rental_uris": {"ios": "https://dc.lft.to/lastmile_qr_scan", "android": "https://dc.lft.to/lastmile_qr_scan"}, "is_reserved": 0, "fusion_lon": 0.0, "fusion_lat": 0.0, "lon": -77.02420533333333, "name": "06cf00190c3aa2bea6b5014fc35cf8b5"}, {"bike_id": "65f34c3d04e1547e1cbbb7411d36fe23", "type": "electric_scooter", "is_disabled": 0, "lat": 38.911319166666665, "rental_uris": {"ios": "https://dc.lft.to/lastmile_qr_scan", "android": "https://dc.lft.to/lastmile_qr_scan"}, "is_reserved": 0, "fusion_lon": 0.0, "fusion_lat": 0.0, "lon": -77.03654366666666, "name": "65f34c3d04e1547e1cbbb7411d36fe23"}, {"bike_id": "39fb7a78b7e9fe7f23855b90584aee50", "type": "electric_scooter", "is_disabled": 0, "lat": 38.9573035, "rental_uris": {"ios": "https://dc.lft.to/lastmile_qr_scan", "android": "https://dc.lft.to/lastmile_qr_scan"}, "is_reserved": 0, "fusion_lon": 0.0, "fusion_lat": 0.0, "lon": -77.02421033333333, "name": "39fb7a78b7e9fe7f23855b90584aee50"}, {"bike_id": "e2ddb460f5073c72fa9eae7aac7001ea", "type": "electric_scooter", "is_disabled": 0, "lat": 38.88732983333333, "rental_uris": {"ios": "https://dc.lft.to/lastmile_qr_scan", "android": "https://dc.lft.to/lastmile_qr_scan"}, "is_reserved": 0, "fusion_lon": 0.0, "fusion_lat": 0.0, "lon": -77.01509433333334, "name": "e2ddb460f5073c72fa9eae7aac7001ea"}, {"bike_id": "3ae6b14b1ef69fe9ca733536a14c679e", "type": "electric_scooter", "is_disabled": 0, "lat": 38.91629783333333, "rental_uris": {"ios": "https://dc.lft.to/lastmile_qr_scan", "android": "https://dc.lft.to/lastmile_qr_scan"}, "is_reserved": 0, "fusion_lon": 0.0, "fusion_lat": 0.0, "lon": -77.032075, "name": "3ae6b14b1ef69fe9ca733536a14c679e"}, {"bike_id": "31d70c6c3b7fca0c3ec71ddeee8ea373", "type": "electric_scooter", "is_disabled": 0, "lat": 38.9195965, "rental_uris": {"ios": "https://dc.lft.to/lastmile_qr_scan", "android": "https://dc.lft.to/lastmile_qr_scan"}, "is_reserved": 0, "fusion_lon": 0.0, "fusion_lat": 0.0, "lon": -77.04498433333333, "name": "31d70c6c3b7fca0c3ec71ddeee8ea373"}, {"bike_id": "8b0f80f962fde502f7c6c651a6fb39a9", "type": "electric_scooter", "is_disabled": 0, "lat": 38.909719833333334, "rental_uris": {"ios": "https://dc.lft.to/lastmile_qr_scan", "android": "https://dc.lft.to/lastmile_qr_scan"}, "is_reserved": 0, "fusion_lon": 0.0, "fusion_lat": 0.0, "lon": -77.02809, "name": "8b0f80f962fde502f7c6c651a6fb39a9"}, {"bike_id": "4c80efb50944f0d3526a10c3df3f1d8d", "type": "electric_scooter", "is_disabled": 0, "lat": 38.87476366666667, "rental_uris": {"ios": "https://dc.lft.to/lastmile_qr_scan", "android": "https://dc.lft.to/lastmile_qr_scan"}, "is_reserved": 0, "fusion_lon": 0.0, "fusion_lat": 0.0, "lon": -77.01071833333333, "name": "4c80efb50944f0d3526a10c3df3f1d8d"}, {"bike_id": "5e1ec2a5ca2b3413c1bbb1709868412c", "type": "electric_scooter", "is_disabled": 0, "lat": 38.936451166666664, "rental_uris": {"ios": "https://dc.lft.to/lastmile_qr_scan", "android": "https://dc.lft.to/lastmile_qr_scan"}, "is_reserved": 0, "fusion_lon": 0.0, "fusion_lat": 0.0, "lon": -77.02639383333333, "name": "5e1ec2a5ca2b3413c1bbb1709868412c"}, {"bike_id": "b1622f75f5618439d36e82e06674c55e", "type": "electric_bike", "is_disabled": 0, "lat": 38.83849416666666, "rental_uris": {"ios": "https://dc.lft.to/lastmile_qr_scan", "android": "https://dc.lft.to/lastmile_qr_scan"}, "is_reserved": 0, "fusion_lon": 0.0, "fusion_lat": 0.0, "lon": -77.05045116666666, "name": "b1622f75f5618439d36e82e06674c55e"}, {"bike_id": "881c5bfcd64e86a4f5f793f0d0ee6ee1", "type": "electric_scooter", "is_disabled": 0, "lat": 38.92863083333334, "rental_uris": {"ios": "https://dc.lft.to/lastmile_qr_scan", "android": "https://dc.lft.to/lastmile_qr_scan"}, "is_reserved": 0, "fusion_lon": 0.0, "fusion_lat": 0.0, "lon": -77.02307116666667, "name": "881c5bfcd64e86a4f5f793f0d0ee6ee1"}, {"bike_id": "2fb2fd500d74a158f4381a13260c7a7f", "type": "electric_scooter", "is_disabled": 0, "lat": 38.8901965, "rental_uris": {"ios": "https://dc.lft.to/lastmile_qr_scan", "android": "https://dc.lft.to/lastmile_qr_scan"}, "is_reserved": 0, "fusion_lon": 0.0, "fusion_lat": 0.0, "lon": -76.9370095, "name": "2fb2fd500d74a158f4381a13260c7a7f"}, {"bike_id": "0b8d120befd6f9ca6e90968ad57f83ea", "type": "electric_scooter", "is_disabled": 0, "lat": 38.8873525, "rental_uris": {"ios": "https://dc.lft.to/lastmile_qr_scan", "android": "https://dc.lft.to/lastmile_qr_scan"}, "is_reserved": 0, "fusion_lon": 0.0, "fusion_lat": 0.0, "lon": -77.01766616666667, "name": "0b8d120befd6f9ca6e90968ad57f83ea"}, {"bike_id": "276b9106617c668c093a8f8939b00235", "type": "electric_scooter", "is_disabled": 0, "lat": 38.900362, "rental_uris": {"ios": "https://dc.lft.to/lastmile_qr_scan", "android": "https://dc.lft.to/lastmile_qr_scan"}, "is_reserved": 0, "fusion_lon": 0.0, "fusion_lat": 0.0, "lon": -77.03328566666667, "name": "276b9106617c668c093a8f8939b00235"}, {"bike_id": "690545546c21fd3f6e14f7b5097cf0c5", "type": "electric_scooter", "is_disabled": 0, "lat": 38.93428083333333, "rental_uris": {"ios": "https://dc.lft.to/lastmile_qr_scan", "android": "https://dc.lft.to/lastmile_qr_scan"}, "is_reserved": 0, "fusion_lon": 0.0, "fusion_lat": 0.0, "lon": -77.04000133333334, "name": "690545546c21fd3f6e14f7b5097cf0c5"}, {"bike_id": "4055e31e1297696e0af35ece507279eb", "type": "electric_scooter", "is_disabled": 0, "lat": 38.914133666666665, "rental_uris": {"ios": "https://dc.lft.to/lastmile_qr_scan", "android": "https://dc.lft.to/lastmile_qr_scan"}, "is_reserved": 0, "fusion_lon": 0.0, "fusion_lat": 0.0, "lon": -77.032386, "name": "4055e31e1297696e0af35ece507279eb"}, {"bike_id": "5002ccf0d0f0fe0a2960df1cf0d71a0c", "type": "electric_scooter", "is_disabled": 0, "lat": 38.9181455, "rental_uris": {"ios": "https://dc.lft.to/lastmile_qr_scan", "android": "https://dc.lft.to/lastmile_qr_scan"}, "is_reserved": 0, "fusion_lon": 0.0, "fusion_lat": 0.0, "lon": -77.03188383333334, "name": "5002ccf0d0f0fe0a2960df1cf0d71a0c"}, {"bike_id": "0598d72ef16d11a23aa51f5b7bb522ed", "type": "electric_scooter", "is_disabled": 0, "lat": 38.966975833333336, "rental_uris": {"ios": "https://dc.lft.to/lastmile_qr_scan", "android": "https://dc.lft.to/lastmile_qr_scan"}, "is_reserved": 0, "fusion_lon": 0.0, "fusion_lat": 0.0, "lon": -77.05571416666666, "name": "0598d72ef16d11a23aa51f5b7bb522ed"}, {"bike_id": "f5a8877d14ee74c6e82ee3b5c5874e08", "type": "electric_bike", "is_disabled": 0, "lat": 38.87883016666667, "rental_uris": {"ios": "https://dc.lft.to/lastmile_qr_scan", "android": "https://dc.lft.to/lastmile_qr_scan"}, "is_reserved": 0, "fusion_lon": 0.0, "fusion_lat": 0.0, "lon": -77.09616866666667, "name": "f5a8877d14ee74c6e82ee3b5c5874e08"}, {"bike_id": "bf3eb241f243251390887cdd16079d51", "type": "electric_scooter", "is_disabled": 0, "lat": 38.930966, "rental_uris": {"ios": "https://dc.lft.to/lastmile_qr_scan", "android": "https://dc.lft.to/lastmile_qr_scan"}, "is_reserved": 0, "fusion_lon": 0.0, "fusion_lat": 0.0, "lon": -77.03437933333333, "name": "bf3eb241f243251390887cdd16079d51"}, {"bike_id": "2ac51810f2607cd8b4823a0bc3719bee", "type": "electric_scooter", "is_disabled": 0, "lat": 38.904967666666664, "rental_uris": {"ios": "https://dc.lft.to/lastmile_qr_scan", "android": "https://dc.lft.to/lastmile_qr_scan"}, "is_reserved": 0, "fusion_lon": 0.0, "fusion_lat": 0.0, "lon": -77.01993983333334, "name": "2ac51810f2607cd8b4823a0bc3719bee"}, {"bike_id": "20ac58a566821bb694ed240baee05b4a", "type": "electric_scooter", "is_disabled": 0, "lat": 38.910242333333336, "rental_uris": {"ios": "https://dc.lft.to/lastmile_qr_scan", "android": "https://dc.lft.to/lastmile_qr_scan"}, "is_reserved": 0, "fusion_lon": 0.0, "fusion_lat": 0.0, "lon": -77.03841683333333, "name": "20ac58a566821bb694ed240baee05b4a"}, {"bike_id": "229ae44d0e8427d903022a8934591c9a", "type": "electric_scooter", "is_disabled": 0, "lat": 38.9157655, "rental_uris": {"ios": "https://dc.lft.to/lastmile_qr_scan", "android": "https://dc.lft.to/lastmile_qr_scan"}, "is_reserved": 0, "fusion_lon": 0.0, "fusion_lat": 0.0, "lon": -77.019975, "name": "229ae44d0e8427d903022a8934591c9a"}, {"bike_id": "8f438d777ce3b6e79f1a14f1f347ccb1", "type": "electric_scooter", "is_disabled": 0, "lat": 38.887314333333336, "rental_uris": {"ios": "https://dc.lft.to/lastmile_qr_scan", "android": "https://dc.lft.to/lastmile_qr_scan"}, "is_reserved": 0, "fusion_lon": 0.0, "fusion_lat": 0.0, "lon": -77.0316895, "name": "8f438d777ce3b6e79f1a14f1f347ccb1"}, {"bike_id": "b0611a414d27c053fa0b03701391876b", "type": "electric_scooter", "is_disabled": 0, "lat": 38.91657133333333, "rental_uris": {"ios": "https://dc.lft.to/lastmile_qr_scan", "android": "https://dc.lft.to/lastmile_qr_scan"}, "is_reserved": 0, "fusion_lon": 0.0, "fusion_lat": 0.0, "lon": -77.02698016666666, "name": "b0611a414d27c053fa0b03701391876b"}, {"bike_id": "b87be0434a0abf4ee8e852547435886c", "type": "electric_scooter", "is_disabled": 0, "lat": 38.9071575, "rental_uris": {"ios": "https://dc.lft.to/lastmile_qr_scan", "android": "https://dc.lft.to/lastmile_qr_scan"}, "is_reserved": 0, "fusion_lon": 0.0, "fusion_lat": 0.0, "lon": -77.014681, "name": "b87be0434a0abf4ee8e852547435886c"}, {"bike_id": "de2ef010e7433ff73665a7e955094c0e", "type": "electric_scooter", "is_disabled": 0, "lat": 38.920762, "rental_uris": {"ios": "https://dc.lft.to/lastmile_qr_scan", "android": "https://dc.lft.to/lastmile_qr_scan"}, "is_reserved": 0, "fusion_lon": 0.0, "fusion_lat": 0.0, "lon": -77.023079, "name": "de2ef010e7433ff73665a7e955094c0e"}, {"bike_id": "f2ce59c37e47df479d51c1af14a6ed56", "type": "electric_scooter", "is_disabled": 0, "lat": 38.92659616666667, "rental_uris": {"ios": "https://dc.lft.to/lastmile_qr_scan", "android": "https://dc.lft.to/lastmile_qr_scan"}, "is_reserved": 0, "fusion_lon": 0.0, "fusion_lat": 0.0, "lon": -77.01475466666666, "name": "f2ce59c37e47df479d51c1af14a6ed56"}, {"bike_id": "87d5c9ddaa7867f80dabfd353a4f6936", "type": "electric_scooter", "is_disabled": 0, "lat": 38.90667966666667, "rental_uris": {"ios": "https://dc.lft.to/lastmile_qr_scan", "android": "https://dc.lft.to/lastmile_qr_scan"}, "is_reserved": 0, "fusion_lon": 0.0, "fusion_lat": 0.0, "lon": -77.026901, "name": "87d5c9ddaa7867f80dabfd353a4f6936"}, {"bike_id": "74ad7812e6aa0a74b162e1a66e6247ea", "type": "electric_scooter", "is_disabled": 0, "lat": 38.914700833333335, "rental_uris": {"ios": "https://dc.lft.to/lastmile_qr_scan", "android": "https://dc.lft.to/lastmile_qr_scan"}, "is_reserved": 0, "fusion_lon": 0.0, "fusion_lat": 0.0, "lon": -77.03193816666666, "name": "74ad7812e6aa0a74b162e1a66e6247ea"}, {"bike_id": "6cc0d03a09bf56998e2162d33393cb55", "type": "electric_scooter", "is_disabled": 0, "lat": 38.90355433333333, "rental_uris": {"ios": "https://dc.lft.to/lastmile_qr_scan", "android": "https://dc.lft.to/lastmile_qr_scan"}, "is_reserved": 0, "fusion_lon": 0.0, "fusion_lat": 0.0, "lon": -77.02934066666667, "name": "6cc0d03a09bf56998e2162d33393cb55"}, {"bike_id": "331777d6c604d63d48a5c531442ad34c", "type": "electric_scooter", "is_disabled": 0, "lat": 38.91876583333333, "rental_uris": {"ios": "https://dc.lft.to/lastmile_qr_scan", "android": "https://dc.lft.to/lastmile_qr_scan"}, "is_reserved": 0, "fusion_lon": 0.0, "fusion_lat": 0.0, "lon": -77.0419715, "name": "331777d6c604d63d48a5c531442ad34c"}, {"bike_id": "d6a625f3c14a43bc141b239c83f6c6a4", "type": "electric_scooter", "is_disabled": 0, "lat": 38.8842545, "rental_uris": {"ios": "https://dc.lft.to/lastmile_qr_scan", "android": "https://dc.lft.to/lastmile_qr_scan"}, "is_reserved": 0, "fusion_lon": 0.0, "fusion_lat": 0.0, "lon": -76.95753616666667, "name": "d6a625f3c14a43bc141b239c83f6c6a4"}, {"bike_id": "04de11dc9e3a5f1a1e878e80763f8e71", "type": "electric_scooter", "is_disabled": 0, "lat": 38.924803833333335, "rental_uris": {"ios": "https://dc.lft.to/lastmile_qr_scan", "android": "https://dc.lft.to/lastmile_qr_scan"}, "is_reserved": 0, "fusion_lon": 0.0, "fusion_lat": 0.0, "lon": -77.05225116666666, "name": "04de11dc9e3a5f1a1e878e80763f8e71"}, {"bike_id": "eaaec172ab98da71ea00df88811ff5ab", "type": "electric_scooter", "is_disabled": 0, "lat": 38.935273, "rental_uris": {"ios": "https://dc.lft.to/lastmile_qr_scan", "android": "https://dc.lft.to/lastmile_qr_scan"}, "is_reserved": 0, "fusion_lon": 0.0, "fusion_lat": 0.0, "lon": -77.02345633333333, "name": "eaaec172ab98da71ea00df88811ff5ab"}, {"bike_id": "f16b328dab007bb20ce492045e77782e", "type": "electric_scooter", "is_disabled": 0, "lat": 38.92854366666667, "rental_uris": {"ios": "https://dc.lft.to/lastmile_qr_scan", "android": "https://dc.lft.to/lastmile_qr_scan"}, "is_reserved": 0, "fusion_lon": 0.0, "fusion_lat": 0.0, "lon": -77.05440216666666, "name": "f16b328dab007bb20ce492045e77782e"}, {"bike_id": "13ed1e447cf1dd0f800ec5ea0546c0a9", "type": "electric_scooter", "is_disabled": 0, "lat": 38.927882833333335, "rental_uris": {"ios": "https://dc.lft.to/lastmile_qr_scan", "android": "https://dc.lft.to/lastmile_qr_scan"}, "is_reserved": 0, "fusion_lon": 0.0, "fusion_lat": 0.0, "lon": -77.02623633333333, "name": "13ed1e447cf1dd0f800ec5ea0546c0a9"}, {"bike_id": "6a1b915c7fe947662f9f2cb23122ad47", "type": "electric_scooter", "is_disabled": 0, "lat": 38.89744533333333, "rental_uris": {"ios": "https://dc.lft.to/lastmile_qr_scan", "android": "https://dc.lft.to/lastmile_qr_scan"}, "is_reserved": 0, "fusion_lon": 0.0, "fusion_lat": 0.0, "lon": -77.04881883333333, "name": "6a1b915c7fe947662f9f2cb23122ad47"}, {"bike_id": "de22f719607cfd038f9b8fbd4c7f29fc", "type": "electric_scooter", "is_disabled": 0, "lat": 38.9259385, "rental_uris": {"ios": "https://dc.lft.to/lastmile_qr_scan", "android": "https://dc.lft.to/lastmile_qr_scan"}, "is_reserved": 0, "fusion_lon": 0.0, "fusion_lat": 0.0, "lon": -77.03735966666666, "name": "de22f719607cfd038f9b8fbd4c7f29fc"}, {"bike_id": "f5ea12e699cc6c523c3ab56e02d2d782", "type": "electric_scooter", "is_disabled": 0, "lat": 38.92803116666666, "rental_uris": {"ios": "https://dc.lft.to/lastmile_qr_scan", "android": "https://dc.lft.to/lastmile_qr_scan"}, "is_reserved": 0, "fusion_lon": 0.0, "fusion_lat": 0.0, "lon": -77.02686733333333, "name": "f5ea12e699cc6c523c3ab56e02d2d782"}, {"bike_id": "bbc727f356f6d9f67b972e70ad464f07", "type": "electric_scooter", "is_disabled": 0, "lat": 38.91915216666666, "rental_uris": {"ios": "https://dc.lft.to/lastmile_qr_scan", "android": "https://dc.lft.to/lastmile_qr_scan"}, "is_reserved": 0, "fusion_lon": 0.0, "fusion_lat": 0.0, "lon": -77.03391283333333, "name": "bbc727f356f6d9f67b972e70ad464f07"}, {"bike_id": "dd15d16756ee3100493196ab00148415", "type": "electric_scooter", "is_disabled": 0, "lat": 38.9141385, "rental_uris": {"ios": "https://dc.lft.to/lastmile_qr_scan", "android": "https://dc.lft.to/lastmile_qr_scan"}, "is_reserved": 0, "fusion_lon": 0.0, "fusion_lat": 0.0, "lon": -77.02250016666666, "name": "dd15d16756ee3100493196ab00148415"}, {"bike_id": "15b89960f8644963985514c890ab90fc", "type": "electric_scooter", "is_disabled": 0, "lat": 38.917742833333335, "rental_uris": {"ios": "https://dc.lft.to/lastmile_qr_scan", "android": "https://dc.lft.to/lastmile_qr_scan"}, "is_reserved": 0, "fusion_lon": 0.0, "fusion_lat": 0.0, "lon": -77.01458233333334, "name": "15b89960f8644963985514c890ab90fc"}, {"bike_id": "0fb127f1a08db7971eae9a332e885023", "type": "electric_bike", "is_disabled": 0, "lat": 38.807036333333336, "rental_uris": {"ios": "https://dc.lft.to/lastmile_qr_scan", "android": "https://dc.lft.to/lastmile_qr_scan"}, "is_reserved": 0, "fusion_lon": 0.0, "fusion_lat": 0.0, "lon": -77.06175916666666, "name": "0fb127f1a08db7971eae9a332e885023"}, {"bike_id": "88633c45d46f68325a6f4a20aa60b323", "type": "electric_scooter", "is_disabled": 0, "lat": 38.928334166666666, "rental_uris": {"ios": "https://dc.lft.to/lastmile_qr_scan", "android": "https://dc.lft.to/lastmile_qr_scan"}, "is_reserved": 0, "fusion_lon": 0.0, "fusion_lat": 0.0, "lon": -77.02753566666667, "name": "88633c45d46f68325a6f4a20aa60b323"}, {"bike_id": "1c5df12ea71909a0cb139551c82d7457", "type": "electric_scooter", "is_disabled": 0, "lat": 38.92248283333333, "rental_uris": {"ios": "https://dc.lft.to/lastmile_qr_scan", "android": "https://dc.lft.to/lastmile_qr_scan"}, "is_reserved": 0, "fusion_lon": 0.0, "fusion_lat": 0.0, "lon": -77.039077, "name": "1c5df12ea71909a0cb139551c82d7457"}, {"bike_id": "b8c25979b56e2221deb507822247bd4d", "type": "electric_scooter", "is_disabled": 0, "lat": 38.92267533333333, "rental_uris": {"ios": "https://dc.lft.to/lastmile_qr_scan", "android": "https://dc.lft.to/lastmile_qr_scan"}, "is_reserved": 0, "fusion_lon": 0.0, "fusion_lat": 0.0, "lon": -76.99455566666667, "name": "b8c25979b56e2221deb507822247bd4d"}, {"bike_id": "8fbc9b22a3f6d8b981df68125a332317", "type": "electric_scooter", "is_disabled": 0, "lat": 38.90856216666667, "rental_uris": {"ios": "https://dc.lft.to/lastmile_qr_scan", "android": "https://dc.lft.to/lastmile_qr_scan"}, "is_reserved": 0, "fusion_lon": 0.0, "fusion_lat": 0.0, "lon": -77.00159183333334, "name": "8fbc9b22a3f6d8b981df68125a332317"}, {"bike_id": "33dc81469a8eb4deeb52cc684bca4663", "type": "electric_scooter", "is_disabled": 0, "lat": 38.8842425, "rental_uris": {"ios": "https://dc.lft.to/lastmile_qr_scan", "android": "https://dc.lft.to/lastmile_qr_scan"}, "is_reserved": 0, "fusion_lon": 0.0, "fusion_lat": 0.0, "lon": -76.95758966666666, "name": "33dc81469a8eb4deeb52cc684bca4663"}, {"bike_id": "0de3a1b985ddbe5e7f24e3385c2186b5", "type": "electric_scooter", "is_disabled": 0, "lat": 38.91965483333333, "rental_uris": {"ios": "https://dc.lft.to/lastmile_qr_scan", "android": "https://dc.lft.to/lastmile_qr_scan"}, "is_reserved": 0, "fusion_lon": 0.0, "fusion_lat": 0.0, "lon": -77.04213483333334, "name": "0de3a1b985ddbe5e7f24e3385c2186b5"}, {"bike_id": "7fba37a5c64b6f24dac5101909f887d9", "type": "electric_bike", "is_disabled": 0, "lat": 38.8996605, "rental_uris": {"ios": "https://dc.lft.to/lastmile_qr_scan", "android": "https://dc.lft.to/lastmile_qr_scan"}, "is_reserved": 0, "fusion_lon": 0.0, "fusion_lat": 0.0, "lon": -76.98676983333333, "name": "7fba37a5c64b6f24dac5101909f887d9"}, {"bike_id": "e596db391ad97e024a6ca8f9abfed881", "type": "electric_scooter", "is_disabled": 0, "lat": 38.9167415, "rental_uris": {"ios": "https://dc.lft.to/lastmile_qr_scan", "android": "https://dc.lft.to/lastmile_qr_scan"}, "is_reserved": 0, "fusion_lon": 0.0, "fusion_lat": 0.0, "lon": -77.0235165, "name": "e596db391ad97e024a6ca8f9abfed881"}, {"bike_id": "9524bb782eedff845b2dbe626de503b5", "type": "electric_scooter", "is_disabled": 0, "lat": 38.90550533333333, "rental_uris": {"ios": "https://dc.lft.to/lastmile_qr_scan", "android": "https://dc.lft.to/lastmile_qr_scan"}, "is_reserved": 0, "fusion_lon": 0.0, "fusion_lat": 0.0, "lon": -76.9962135, "name": "9524bb782eedff845b2dbe626de503b5"}, {"bike_id": "3661231c352035cc31ef657e71db0d3b", "type": "electric_scooter", "is_disabled": 0, "lat": 38.90494916666667, "rental_uris": {"ios": "https://dc.lft.to/lastmile_qr_scan", "android": "https://dc.lft.to/lastmile_qr_scan"}, "is_reserved": 0, "fusion_lon": 0.0, "fusion_lat": 0.0, "lon": -77.0199585, "name": "3661231c352035cc31ef657e71db0d3b"}, {"bike_id": "22e4af2cd3ef4b6c14363959e99ce8c5", "type": "electric_scooter", "is_disabled": 0, "lat": 38.924726, "rental_uris": {"ios": "https://dc.lft.to/lastmile_qr_scan", "android": "https://dc.lft.to/lastmile_qr_scan"}, "is_reserved": 0, "fusion_lon": 0.0, "fusion_lat": 0.0, "lon": -77.05224983333333, "name": "22e4af2cd3ef4b6c14363959e99ce8c5"}, {"bike_id": "e18fd7cf2862c9322093468fc20e983a", "type": "electric_scooter", "is_disabled": 0, "lat": 38.8953945, "rental_uris": {"ios": "https://dc.lft.to/lastmile_qr_scan", "android": "https://dc.lft.to/lastmile_qr_scan"}, "is_reserved": 0, "fusion_lon": 0.0, "fusion_lat": 0.0, "lon": -77.01090233333333, "name": "e18fd7cf2862c9322093468fc20e983a"}, {"bike_id": "c3a3e64b2cc5785cddec36e99e3494a8", "type": "electric_bike", "is_disabled": 0, "lat": 38.80406833333333, "rental_uris": {"ios": "https://dc.lft.to/lastmile_qr_scan", "android": "https://dc.lft.to/lastmile_qr_scan"}, "is_reserved": 0, "fusion_lon": 0.0, "fusion_lat": 0.0, "lon": -77.05554633333334, "name": "c3a3e64b2cc5785cddec36e99e3494a8"}, {"bike_id": "a07e62072d88ef6697fcff915f7d200e", "type": "electric_scooter", "is_disabled": 0, "lat": 38.9285395, "rental_uris": {"ios": "https://dc.lft.to/lastmile_qr_scan", "android": "https://dc.lft.to/lastmile_qr_scan"}, "is_reserved": 0, "fusion_lon": 0.0, "fusion_lat": 0.0, "lon": -77.0544405, "name": "a07e62072d88ef6697fcff915f7d200e"}, {"bike_id": "a5e76725072fbb24c77911fdf488ed4b", "type": "electric_scooter", "is_disabled": 0, "lat": 38.904152, "rental_uris": {"ios": "https://dc.lft.to/lastmile_qr_scan", "android": "https://dc.lft.to/lastmile_qr_scan"}, "is_reserved": 0, "fusion_lon": 0.0, "fusion_lat": 0.0, "lon": -77.06882433333334, "name": "a5e76725072fbb24c77911fdf488ed4b"}, {"bike_id": "0c585be5b655661ebdf304fd7bebc30c", "type": "electric_scooter", "is_disabled": 0, "lat": 38.910254, "rental_uris": {"ios": "https://dc.lft.to/lastmile_qr_scan", "android": "https://dc.lft.to/lastmile_qr_scan"}, "is_reserved": 0, "fusion_lon": 0.0, "fusion_lat": 0.0, "lon": -76.9866695, "name": "0c585be5b655661ebdf304fd7bebc30c"}, {"bike_id": "1fae376426f37f70f8ec0d33f675de72", "type": "electric_bike", "is_disabled": 0, "lat": 38.944712833333334, "rental_uris": {"ios": "https://dc.lft.to/lastmile_qr_scan", "android": "https://dc.lft.to/lastmile_qr_scan"}, "is_reserved": 0, "fusion_lon": 0.0, "fusion_lat": 0.0, "lon": -76.986887, "name": "1fae376426f37f70f8ec0d33f675de72"}, {"bike_id": "37362bc5d460d8138c4c622954e0b511", "type": "electric_scooter", "is_disabled": 0, "lat": 38.909477333333335, "rental_uris": {"ios": "https://dc.lft.to/lastmile_qr_scan", "android": "https://dc.lft.to/lastmile_qr_scan"}, "is_reserved": 0, "fusion_lon": 0.0, "fusion_lat": 0.0, "lon": -77.04480933333333, "name": "37362bc5d460d8138c4c622954e0b511"}, {"bike_id": "eda02df9c5f0072765975467302d1f73", "type": "electric_scooter", "is_disabled": 0, "lat": 38.93427916666667, "rental_uris": {"ios": "https://dc.lft.to/lastmile_qr_scan", "android": "https://dc.lft.to/lastmile_qr_scan"}, "is_reserved": 0, "fusion_lon": 0.0, "fusion_lat": 0.0, "lon": -77.072331, "name": "eda02df9c5f0072765975467302d1f73"}, {"bike_id": "4fe5dc342c2cdc190544bc3d166705df", "type": "electric_scooter", "is_disabled": 0, "lat": 38.86651783333333, "rental_uris": {"ios": "https://dc.lft.to/lastmile_qr_scan", "android": "https://dc.lft.to/lastmile_qr_scan"}, "is_reserved": 0, "fusion_lon": 0.0, "fusion_lat": 0.0, "lon": -76.9888865, "name": "4fe5dc342c2cdc190544bc3d166705df"}, {"bike_id": "5259d55afefe555e6861b5787a18e030", "type": "electric_scooter", "is_disabled": 0, "lat": 38.92330966666667, "rental_uris": {"ios": "https://dc.lft.to/lastmile_qr_scan", "android": "https://dc.lft.to/lastmile_qr_scan"}, "is_reserved": 0, "fusion_lon": 0.0, "fusion_lat": 0.0, "lon": -77.03615733333334, "name": "5259d55afefe555e6861b5787a18e030"}, {"bike_id": "cf4adf90365a4d855182608dd709d9f5", "type": "electric_scooter", "is_disabled": 0, "lat": 38.91357716666667, "rental_uris": {"ios": "https://dc.lft.to/lastmile_qr_scan", "android": "https://dc.lft.to/lastmile_qr_scan"}, "is_reserved": 0, "fusion_lon": 0.0, "fusion_lat": 0.0, "lon": -77.04565133333334, "name": "cf4adf90365a4d855182608dd709d9f5"}, {"bike_id": "703fdfc1b50ff7be3fbc1a5fb1acc32d", "type": "electric_scooter", "is_disabled": 0, "lat": 38.91369916666667, "rental_uris": {"ios": "https://dc.lft.to/lastmile_qr_scan", "android": "https://dc.lft.to/lastmile_qr_scan"}, "is_reserved": 0, "fusion_lon": 0.0, "fusion_lat": 0.0, "lon": -77.030162, "name": "703fdfc1b50ff7be3fbc1a5fb1acc32d"}, {"bike_id": "35f7c39c60ac5b4993d5176a629f94fe", "type": "electric_scooter", "is_disabled": 0, "lat": 38.90536133333333, "rental_uris": {"ios": "https://dc.lft.to/lastmile_qr_scan", "android": "https://dc.lft.to/lastmile_qr_scan"}, "is_reserved": 0, "fusion_lon": 0.0, "fusion_lat": 0.0, "lon": -77.02221366666667, "name": "35f7c39c60ac5b4993d5176a629f94fe"}, {"bike_id": "2ee893ddd361252375070f154a404e0f", "type": "electric_scooter", "is_disabled": 0, "lat": 38.899996, "rental_uris": {"ios": "https://dc.lft.to/lastmile_qr_scan", "android": "https://dc.lft.to/lastmile_qr_scan"}, "is_reserved": 0, "fusion_lon": 0.0, "fusion_lat": 0.0, "lon": -77.00683866666667, "name": "2ee893ddd361252375070f154a404e0f"}, {"bike_id": "59f808012a29ecba79c2f44c71f91652", "type": "electric_scooter", "is_disabled": 0, "lat": 38.912659, "rental_uris": {"ios": "https://dc.lft.to/lastmile_qr_scan", "android": "https://dc.lft.to/lastmile_qr_scan"}, "is_reserved": 0, "fusion_lon": 0.0, "fusion_lat": 0.0, "lon": -77.03021533333333, "name": "59f808012a29ecba79c2f44c71f91652"}, {"bike_id": "a238ab3ccc897b6840475689f57fe43f", "type": "electric_scooter", "is_disabled": 0, "lat": 38.844354, "rental_uris": {"ios": "https://dc.lft.to/lastmile_qr_scan", "android": "https://dc.lft.to/lastmile_qr_scan"}, "is_reserved": 0, "fusion_lon": 0.0, "fusion_lat": 0.0, "lon": -76.99870916666667, "name": "a238ab3ccc897b6840475689f57fe43f"}, {"bike_id": "f4cc71e995f7d181cfd9119ce8ba0ab4", "type": "electric_scooter", "is_disabled": 0, "lat": 38.91256683333334, "rental_uris": {"ios": "https://dc.lft.to/lastmile_qr_scan", "android": "https://dc.lft.to/lastmile_qr_scan"}, "is_reserved": 0, "fusion_lon": 0.0, "fusion_lat": 0.0, "lon": -77.032648, "name": "f4cc71e995f7d181cfd9119ce8ba0ab4"}, {"bike_id": "c5b1c34f88727050a39227a8e95a2ba7", "type": "electric_scooter", "is_disabled": 0, "lat": 38.91237316666667, "rental_uris": {"ios": "https://dc.lft.to/lastmile_qr_scan", "android": "https://dc.lft.to/lastmile_qr_scan"}, "is_reserved": 0, "fusion_lon": 0.0, "fusion_lat": 0.0, "lon": -77.02222933333333, "name": "c5b1c34f88727050a39227a8e95a2ba7"}, {"bike_id": "1fde5e76c8eb251d0a6d437b846168a7", "type": "electric_scooter", "is_disabled": 0, "lat": 38.9428915, "rental_uris": {"ios": "https://dc.lft.to/lastmile_qr_scan", "android": "https://dc.lft.to/lastmile_qr_scan"}, "is_reserved": 0, "fusion_lon": 0.0, "fusion_lat": 0.0, "lon": -77.0217445, "name": "1fde5e76c8eb251d0a6d437b846168a7"}, {"bike_id": "9fbc569d990c73899987acdb9ffd7a6c", "type": "electric_scooter", "is_disabled": 0, "lat": 38.91376116666667, "rental_uris": {"ios": "https://dc.lft.to/lastmile_qr_scan", "android": "https://dc.lft.to/lastmile_qr_scan"}, "is_reserved": 0, "fusion_lon": 0.0, "fusion_lat": 0.0, "lon": -77.04138083333333, "name": "9fbc569d990c73899987acdb9ffd7a6c"}, {"bike_id": "1ffa79a5e240d4b7765d4b14bf398c33", "type": "electric_scooter", "is_disabled": 0, "lat": 38.909742666666666, "rental_uris": {"ios": "https://dc.lft.to/lastmile_qr_scan", "android": "https://dc.lft.to/lastmile_qr_scan"}, "is_reserved": 0, "fusion_lon": 0.0, "fusion_lat": 0.0, "lon": -77.04875233333334, "name": "1ffa79a5e240d4b7765d4b14bf398c33"}, {"bike_id": "622d7bae541f21fce039757d27d04024", "type": "electric_scooter", "is_disabled": 0, "lat": 38.9367405, "rental_uris": {"ios": "https://dc.lft.to/lastmile_qr_scan", "android": "https://dc.lft.to/lastmile_qr_scan"}, "is_reserved": 0, "fusion_lon": 0.0, "fusion_lat": 0.0, "lon": -77.03596816666666, "name": "622d7bae541f21fce039757d27d04024"}, {"bike_id": "e69da1daeaadafe284dd8b4eefae214b", "type": "electric_scooter", "is_disabled": 0, "lat": 38.88562983333333, "rental_uris": {"ios": "https://dc.lft.to/lastmile_qr_scan", "android": "https://dc.lft.to/lastmile_qr_scan"}, "is_reserved": 0, "fusion_lon": 0.0, "fusion_lat": 0.0, "lon": -77.00212033333334, "name": "e69da1daeaadafe284dd8b4eefae214b"}, {"bike_id": "be211e309976e40ae2f2f78db4c2fda4", "type": "electric_scooter", "is_disabled": 0, "lat": 38.92471483333333, "rental_uris": {"ios": "https://dc.lft.to/lastmile_qr_scan", "android": "https://dc.lft.to/lastmile_qr_scan"}, "is_reserved": 0, "fusion_lon": 0.0, "fusion_lat": 0.0, "lon": -77.0354675, "name": "be211e309976e40ae2f2f78db4c2fda4"}, {"bike_id": "6463d5c4646030154a17346f8f891004", "type": "electric_bike", "is_disabled": 0, "lat": 38.9646035, "rental_uris": {"ios": "https://dc.lft.to/lastmile_qr_scan", "android": "https://dc.lft.to/lastmile_qr_scan"}, "is_reserved": 0, "fusion_lon": 0.0, "fusion_lat": 0.0, "lon": -77.03572616666666, "name": "6463d5c4646030154a17346f8f891004"}, {"bike_id": "e567d5276e6009da226945fd6e250938", "type": "electric_scooter", "is_disabled": 0, "lat": 38.92850766666667, "rental_uris": {"ios": "https://dc.lft.to/lastmile_qr_scan", "android": "https://dc.lft.to/lastmile_qr_scan"}, "is_reserved": 0, "fusion_lon": 0.0, "fusion_lat": 0.0, "lon": -77.01399883333333, "name": "e567d5276e6009da226945fd6e250938"}, {"bike_id": "2d402c9b21a7f0e666b8420568d95d49", "type": "electric_scooter", "is_disabled": 0, "lat": 38.936047, "rental_uris": {"ios": "https://dc.lft.to/lastmile_qr_scan", "android": "https://dc.lft.to/lastmile_qr_scan"}, "is_reserved": 0, "fusion_lon": 0.0, "fusion_lat": 0.0, "lon": -77.03814583333333, "name": "2d402c9b21a7f0e666b8420568d95d49"}, {"bike_id": "f8c2dd8064278417d8a2d560c8a8e93a", "type": "electric_scooter", "is_disabled": 0, "lat": 38.941127333333334, "rental_uris": {"ios": "https://dc.lft.to/lastmile_qr_scan", "android": "https://dc.lft.to/lastmile_qr_scan"}, "is_reserved": 0, "fusion_lon": 0.0, "fusion_lat": 0.0, "lon": -77.0253745, "name": "f8c2dd8064278417d8a2d560c8a8e93a"}, {"bike_id": "74fd4bd62f8f5c8955b91044427c6742", "type": "electric_scooter", "is_disabled": 0, "lat": 38.90486116666667, "rental_uris": {"ios": "https://dc.lft.to/lastmile_qr_scan", "android": "https://dc.lft.to/lastmile_qr_scan"}, "is_reserved": 0, "fusion_lon": 0.0, "fusion_lat": 0.0, "lon": -76.94973133333333, "name": "74fd4bd62f8f5c8955b91044427c6742"}, {"bike_id": "f1ae3b5bec34d5749fb2f55396cae35a", "type": "electric_bike", "is_disabled": 0, "lat": 38.951717333333335, "rental_uris": {"ios": "https://dc.lft.to/lastmile_qr_scan", "android": "https://dc.lft.to/lastmile_qr_scan"}, "is_reserved": 0, "fusion_lon": 0.0, "fusion_lat": 0.0, "lon": -76.97731633333333, "name": "f1ae3b5bec34d5749fb2f55396cae35a"}, {"bike_id": "a05e57b17749812f17b25be1e96e357f", "type": "electric_scooter", "is_disabled": 0, "lat": 38.924839166666665, "rental_uris": {"ios": "https://dc.lft.to/lastmile_qr_scan", "android": "https://dc.lft.to/lastmile_qr_scan"}, "is_reserved": 0, "fusion_lon": 0.0, "fusion_lat": 0.0, "lon": -77.03179633333333, "name": "a05e57b17749812f17b25be1e96e357f"}, {"bike_id": "e2f9bcbde641f25810201b44fa8980bf", "type": "electric_scooter", "is_disabled": 0, "lat": 38.91412833333333, "rental_uris": {"ios": "https://dc.lft.to/lastmile_qr_scan", "android": "https://dc.lft.to/lastmile_qr_scan"}, "is_reserved": 0, "fusion_lon": 0.0, "fusion_lat": 0.0, "lon": -77.01366033333333, "name": "e2f9bcbde641f25810201b44fa8980bf"}, {"bike_id": "6023cb10ab2447105fc7d08cadd0c55e", "type": "electric_scooter", "is_disabled": 0, "lat": 38.900590333333334, "rental_uris": {"ios": "https://dc.lft.to/lastmile_qr_scan", "android": "https://dc.lft.to/lastmile_qr_scan"}, "is_reserved": 0, "fusion_lon": 0.0, "fusion_lat": 0.0, "lon": -77.01726916666667, "name": "6023cb10ab2447105fc7d08cadd0c55e"}, {"bike_id": "cb2631ceff44c7ce028e758121232d3f", "type": "electric_scooter", "is_disabled": 0, "lat": 38.909604333333334, "rental_uris": {"ios": "https://dc.lft.to/lastmile_qr_scan", "android": "https://dc.lft.to/lastmile_qr_scan"}, "is_reserved": 0, "fusion_lon": 0.0, "fusion_lat": 0.0, "lon": -77.0231005, "name": "cb2631ceff44c7ce028e758121232d3f"}, {"bike_id": "024a5e223e587b2fea8aa4f3d7c6e57d", "type": "electric_scooter", "is_disabled": 0, "lat": 38.8932425, "rental_uris": {"ios": "https://dc.lft.to/lastmile_qr_scan", "android": "https://dc.lft.to/lastmile_qr_scan"}, "is_reserved": 0, "fusion_lon": 0.0, "fusion_lat": 0.0, "lon": -77.0487415, "name": "024a5e223e587b2fea8aa4f3d7c6e57d"}, {"bike_id": "e395b9087d4c6251c4ba19a21b943811", "type": "electric_scooter", "is_disabled": 0, "lat": 38.9514375, "rental_uris": {"ios": "https://dc.lft.to/lastmile_qr_scan", "android": "https://dc.lft.to/lastmile_qr_scan"}, "is_reserved": 0, "fusion_lon": 0.0, "fusion_lat": 0.0, "lon": -77.01872683333333, "name": "e395b9087d4c6251c4ba19a21b943811"}, {"bike_id": "09fc23651977510faf5486db7b529776", "type": "electric_scooter", "is_disabled": 0, "lat": 38.895337833333336, "rental_uris": {"ios": "https://dc.lft.to/lastmile_qr_scan", "android": "https://dc.lft.to/lastmile_qr_scan"}, "is_reserved": 0, "fusion_lon": 0.0, "fusion_lat": 0.0, "lon": -76.948943, "name": "09fc23651977510faf5486db7b529776"}, {"bike_id": "05e449c34e51610a2bc450d3c2cbd06e", "type": "electric_scooter", "is_disabled": 0, "lat": 38.89356316666667, "rental_uris": {"ios": "https://dc.lft.to/lastmile_qr_scan", "android": "https://dc.lft.to/lastmile_qr_scan"}, "is_reserved": 0, "fusion_lon": 0.0, "fusion_lat": 0.0, "lon": -76.99786266666666, "name": "05e449c34e51610a2bc450d3c2cbd06e"}, {"bike_id": "8d0a0abc93822356ffb082cd87318202", "type": "electric_scooter", "is_disabled": 0, "lat": 38.898842, "rental_uris": {"ios": "https://dc.lft.to/lastmile_qr_scan", "android": "https://dc.lft.to/lastmile_qr_scan"}, "is_reserved": 0, "fusion_lon": 0.0, "fusion_lat": 0.0, "lon": -77.0151175, "name": "8d0a0abc93822356ffb082cd87318202"}, {"bike_id": "887fe7479c46c0fe77181ca20d22fc7c", "type": "electric_scooter", "is_disabled": 0, "lat": 38.89006033333333, "rental_uris": {"ios": "https://dc.lft.to/lastmile_qr_scan", "android": "https://dc.lft.to/lastmile_qr_scan"}, "is_reserved": 0, "fusion_lon": 0.0, "fusion_lat": 0.0, "lon": -76.93750383333334, "name": "887fe7479c46c0fe77181ca20d22fc7c"}, {"bike_id": "c62b1bf931fdf20f3fecf19741c92715", "type": "electric_scooter", "is_disabled": 0, "lat": 38.905054666666665, "rental_uris": {"ios": "https://dc.lft.to/lastmile_qr_scan", "android": "https://dc.lft.to/lastmile_qr_scan"}, "is_reserved": 0, "fusion_lon": 0.0, "fusion_lat": 0.0, "lon": -77.0416055, "name": "c62b1bf931fdf20f3fecf19741c92715"}, {"bike_id": "0e90078b56c2bc0685a51bebe7188f2b", "type": "electric_scooter", "is_disabled": 0, "lat": 38.91557383333333, "rental_uris": {"ios": "https://dc.lft.to/lastmile_qr_scan", "android": "https://dc.lft.to/lastmile_qr_scan"}, "is_reserved": 0, "fusion_lon": 0.0, "fusion_lat": 0.0, "lon": -77.04507916666667, "name": "0e90078b56c2bc0685a51bebe7188f2b"}, {"bike_id": "4fbc40ce742501f3366d8a891d39c4e4", "type": "electric_scooter", "is_disabled": 0, "lat": 38.91186033333334, "rental_uris": {"ios": "https://dc.lft.to/lastmile_qr_scan", "android": "https://dc.lft.to/lastmile_qr_scan"}, "is_reserved": 0, "fusion_lon": 0.0, "fusion_lat": 0.0, "lon": -77.0021945, "name": "4fbc40ce742501f3366d8a891d39c4e4"}, {"bike_id": "f58c658b8b7f1f984d0206c271c8dd98", "type": "electric_scooter", "is_disabled": 0, "lat": 38.866251, "rental_uris": {"ios": "https://dc.lft.to/lastmile_qr_scan", "android": "https://dc.lft.to/lastmile_qr_scan"}, "is_reserved": 0, "fusion_lon": 0.0, "fusion_lat": 0.0, "lon": -76.98717233333333, "name": "f58c658b8b7f1f984d0206c271c8dd98"}, {"bike_id": "c2ae6189675069877f0cb588844642b4", "type": "electric_scooter", "is_disabled": 0, "lat": 38.915417166666664, "rental_uris": {"ios": "https://dc.lft.to/lastmile_qr_scan", "android": "https://dc.lft.to/lastmile_qr_scan"}, "is_reserved": 0, "fusion_lon": 0.0, "fusion_lat": 0.0, "lon": -77.03843583333334, "name": "c2ae6189675069877f0cb588844642b4"}, {"bike_id": "7f7579718ee374a0faff6d6c9031c5cc", "type": "electric_scooter", "is_disabled": 0, "lat": 38.93357183333333, "rental_uris": {"ios": "https://dc.lft.to/lastmile_qr_scan", "android": "https://dc.lft.to/lastmile_qr_scan"}, "is_reserved": 0, "fusion_lon": 0.0, "fusion_lat": 0.0, "lon": -77.0885855, "name": "7f7579718ee374a0faff6d6c9031c5cc"}, {"bike_id": "a533c1bcb6366dfe4357f6ab27c0468e", "type": "electric_scooter", "is_disabled": 0, "lat": 38.90556183333333, "rental_uris": {"ios": "https://dc.lft.to/lastmile_qr_scan", "android": "https://dc.lft.to/lastmile_qr_scan"}, "is_reserved": 0, "fusion_lon": 0.0, "fusion_lat": 0.0, "lon": -77.0163685, "name": "a533c1bcb6366dfe4357f6ab27c0468e"}, {"bike_id": "6c8fb1ae1268dfd34a4a6f9242bc48ae", "type": "electric_scooter", "is_disabled": 0, "lat": 38.93404, "rental_uris": {"ios": "https://dc.lft.to/lastmile_qr_scan", "android": "https://dc.lft.to/lastmile_qr_scan"}, "is_reserved": 0, "fusion_lon": 0.0, "fusion_lat": 0.0, "lon": -77.0387415, "name": "6c8fb1ae1268dfd34a4a6f9242bc48ae"}, {"bike_id": "198e9fb4dcce004bc200fd6bd9a8678f", "type": "electric_scooter", "is_disabled": 0, "lat": 38.912450666666665, "rental_uris": {"ios": "https://dc.lft.to/lastmile_qr_scan", "android": "https://dc.lft.to/lastmile_qr_scan"}, "is_reserved": 0, "fusion_lon": 0.0, "fusion_lat": 0.0, "lon": -77.001085, "name": "198e9fb4dcce004bc200fd6bd9a8678f"}, {"bike_id": "b0698aee7bcf6918f86f1490bed41436", "type": "electric_scooter", "is_disabled": 0, "lat": 38.944174333333336, "rental_uris": {"ios": "https://dc.lft.to/lastmile_qr_scan", "android": "https://dc.lft.to/lastmile_qr_scan"}, "is_reserved": 0, "fusion_lon": 0.0, "fusion_lat": 0.0, "lon": -77.06325483333333, "name": "b0698aee7bcf6918f86f1490bed41436"}, {"bike_id": "744a4e9a671c1711ec9bc914ed761187", "type": "electric_scooter", "is_disabled": 0, "lat": 38.90519716666667, "rental_uris": {"ios": "https://dc.lft.to/lastmile_qr_scan", "android": "https://dc.lft.to/lastmile_qr_scan"}, "is_reserved": 0, "fusion_lon": 0.0, "fusion_lat": 0.0, "lon": -77.04573533333334, "name": "744a4e9a671c1711ec9bc914ed761187"}, {"bike_id": "518188314ba4893710cd442278e02b27", "type": "electric_scooter", "is_disabled": 0, "lat": 38.929160333333336, "rental_uris": {"ios": "https://dc.lft.to/lastmile_qr_scan", "android": "https://dc.lft.to/lastmile_qr_scan"}, "is_reserved": 0, "fusion_lon": 0.0, "fusion_lat": 0.0, "lon": -77.02092966666666, "name": "518188314ba4893710cd442278e02b27"}, {"bike_id": "ca45265db3e17b979fdc0352bd6a8aba", "type": "electric_scooter", "is_disabled": 0, "lat": 38.92073666666667, "rental_uris": {"ios": "https://dc.lft.to/lastmile_qr_scan", "android": "https://dc.lft.to/lastmile_qr_scan"}, "is_reserved": 0, "fusion_lon": 0.0, "fusion_lat": 0.0, "lon": -77.02365033333334, "name": "ca45265db3e17b979fdc0352bd6a8aba"}, {"bike_id": "f37c0941b827f70adc5c0461a7cb9ad5", "type": "electric_scooter", "is_disabled": 0, "lat": 38.89883916666667, "rental_uris": {"ios": "https://dc.lft.to/lastmile_qr_scan", "android": "https://dc.lft.to/lastmile_qr_scan"}, "is_reserved": 0, "fusion_lon": 0.0, "fusion_lat": 0.0, "lon": -76.931794, "name": "f37c0941b827f70adc5c0461a7cb9ad5"}, {"bike_id": "9c672edd73c40f40be36d5e45dee53ba", "type": "electric_bike", "is_disabled": 0, "lat": 38.9058065, "rental_uris": {"ios": "https://dc.lft.to/lastmile_qr_scan", "android": "https://dc.lft.to/lastmile_qr_scan"}, "is_reserved": 0, "fusion_lon": 0.0, "fusion_lat": 0.0, "lon": -77.065279, "name": "9c672edd73c40f40be36d5e45dee53ba"}, {"bike_id": "34bc927aae15d019bcab369082ffa763", "type": "electric_scooter", "is_disabled": 0, "lat": 38.91328683333333, "rental_uris": {"ios": "https://dc.lft.to/lastmile_qr_scan", "android": "https://dc.lft.to/lastmile_qr_scan"}, "is_reserved": 0, "fusion_lon": 0.0, "fusion_lat": 0.0, "lon": -77.047262, "name": "34bc927aae15d019bcab369082ffa763"}, {"bike_id": "e37d75c246141a9c74697f1f1b808ce1", "type": "electric_scooter", "is_disabled": 0, "lat": 38.915589833333335, "rental_uris": {"ios": "https://dc.lft.to/lastmile_qr_scan", "android": "https://dc.lft.to/lastmile_qr_scan"}, "is_reserved": 0, "fusion_lon": 0.0, "fusion_lat": 0.0, "lon": -77.0328155, "name": "e37d75c246141a9c74697f1f1b808ce1"}, {"bike_id": "04a5630e6246554187aec77f94244c75", "type": "electric_scooter", "is_disabled": 0, "lat": 38.90391133333333, "rental_uris": {"ios": "https://dc.lft.to/lastmile_qr_scan", "android": "https://dc.lft.to/lastmile_qr_scan"}, "is_reserved": 0, "fusion_lon": 0.0, "fusion_lat": 0.0, "lon": -77.06779883333333, "name": "04a5630e6246554187aec77f94244c75"}, {"bike_id": "5e3507437aa6c7b31793938aa70132fe", "type": "electric_scooter", "is_disabled": 0, "lat": 38.900685333333335, "rental_uris": {"ios": "https://dc.lft.to/lastmile_qr_scan", "android": "https://dc.lft.to/lastmile_qr_scan"}, "is_reserved": 0, "fusion_lon": 0.0, "fusion_lat": 0.0, "lon": -76.92742933333334, "name": "5e3507437aa6c7b31793938aa70132fe"}, {"bike_id": "7394255b8f35a72fe080a982bf832e48", "type": "electric_scooter", "is_disabled": 0, "lat": 38.916071, "rental_uris": {"ios": "https://dc.lft.to/lastmile_qr_scan", "android": "https://dc.lft.to/lastmile_qr_scan"}, "is_reserved": 0, "fusion_lon": 0.0, "fusion_lat": 0.0, "lon": -77.011297, "name": "7394255b8f35a72fe080a982bf832e48"}, {"bike_id": "ef28ea1785837481e5b16cbf4fc2ecce", "type": "electric_scooter", "is_disabled": 0, "lat": 38.9144745, "rental_uris": {"ios": "https://dc.lft.to/lastmile_qr_scan", "android": "https://dc.lft.to/lastmile_qr_scan"}, "is_reserved": 0, "fusion_lon": 0.0, "fusion_lat": 0.0, "lon": -77.02132733333333, "name": "ef28ea1785837481e5b16cbf4fc2ecce"}, {"bike_id": "256ed28e6dc3a193aee6ea57d70b4085", "type": "electric_scooter", "is_disabled": 0, "lat": 38.91900966666667, "rental_uris": {"ios": "https://dc.lft.to/lastmile_qr_scan", "android": "https://dc.lft.to/lastmile_qr_scan"}, "is_reserved": 0, "fusion_lon": 0.0, "fusion_lat": 0.0, "lon": -77.031815, "name": "256ed28e6dc3a193aee6ea57d70b4085"}, {"bike_id": "cca4a099a5c50c950713ea02e95524ec", "type": "electric_scooter", "is_disabled": 0, "lat": 38.91865383333333, "rental_uris": {"ios": "https://dc.lft.to/lastmile_qr_scan", "android": "https://dc.lft.to/lastmile_qr_scan"}, "is_reserved": 0, "fusion_lon": 0.0, "fusion_lat": 0.0, "lon": -77.04148666666667, "name": "cca4a099a5c50c950713ea02e95524ec"}, {"bike_id": "2536e1f20f4f1b7f09dcd12133983f78", "type": "electric_bike", "is_disabled": 0, "lat": 38.94653183333333, "rental_uris": {"ios": "https://dc.lft.to/lastmile_qr_scan", "android": "https://dc.lft.to/lastmile_qr_scan"}, "is_reserved": 0, "fusion_lon": 0.0, "fusion_lat": 0.0, "lon": -76.99488633333333, "name": "2536e1f20f4f1b7f09dcd12133983f78"}, {"bike_id": "79ebe6c0e107385a8f535378154f61d7", "type": "electric_scooter", "is_disabled": 0, "lat": 38.906489666666666, "rental_uris": {"ios": "https://dc.lft.to/lastmile_qr_scan", "android": "https://dc.lft.to/lastmile_qr_scan"}, "is_reserved": 0, "fusion_lon": 0.0, "fusion_lat": 0.0, "lon": -77.01418633333333, "name": "79ebe6c0e107385a8f535378154f61d7"}, {"bike_id": "f0530a12912beb02eef61ee844be009c", "type": "electric_scooter", "is_disabled": 0, "lat": 38.91414616666667, "rental_uris": {"ios": "https://dc.lft.to/lastmile_qr_scan", "android": "https://dc.lft.to/lastmile_qr_scan"}, "is_reserved": 0, "fusion_lon": 0.0, "fusion_lat": 0.0, "lon": -77.02293616666667, "name": "f0530a12912beb02eef61ee844be009c"}, {"bike_id": "16c0a9d1bec7a449957f4067f81b4c4a", "type": "electric_scooter", "is_disabled": 0, "lat": 38.93543116666667, "rental_uris": {"ios": "https://dc.lft.to/lastmile_qr_scan", "android": "https://dc.lft.to/lastmile_qr_scan"}, "is_reserved": 0, "fusion_lon": 0.0, "fusion_lat": 0.0, "lon": -77.022557, "name": "16c0a9d1bec7a449957f4067f81b4c4a"}, {"bike_id": "2ae74499b815240137fa912baff03ed7", "type": "electric_scooter", "is_disabled": 0, "lat": 38.9109725, "rental_uris": {"ios": "https://dc.lft.to/lastmile_qr_scan", "android": "https://dc.lft.to/lastmile_qr_scan"}, "is_reserved": 0, "fusion_lon": 0.0, "fusion_lat": 0.0, "lon": -77.02801633333333, "name": "2ae74499b815240137fa912baff03ed7"}, {"bike_id": "8abec112c27c75b5db656c3550ec8b5f", "type": "electric_scooter", "is_disabled": 0, "lat": 38.928726833333336, "rental_uris": {"ios": "https://dc.lft.to/lastmile_qr_scan", "android": "https://dc.lft.to/lastmile_qr_scan"}, "is_reserved": 0, "fusion_lon": 0.0, "fusion_lat": 0.0, "lon": -77.021708, "name": "8abec112c27c75b5db656c3550ec8b5f"}, {"bike_id": "959039cfe9742fe650a4b49d9068b686", "type": "electric_scooter", "is_disabled": 0, "lat": 38.952160666666664, "rental_uris": {"ios": "https://dc.lft.to/lastmile_qr_scan", "android": "https://dc.lft.to/lastmile_qr_scan"}, "is_reserved": 0, "fusion_lon": 0.0, "fusion_lat": 0.0, "lon": -77.07070283333333, "name": "959039cfe9742fe650a4b49d9068b686"}, {"bike_id": "af5399550ba678d0b7a49200d93d09dd", "type": "electric_bike", "is_disabled": 0, "lat": 38.85434683333333, "rental_uris": {"ios": "https://dc.lft.to/lastmile_qr_scan", "android": "https://dc.lft.to/lastmile_qr_scan"}, "is_reserved": 0, "fusion_lon": 0.0, "fusion_lat": 0.0, "lon": -77.0830995, "name": "af5399550ba678d0b7a49200d93d09dd"}, {"bike_id": "3dcfaccceed36a90848ec054668980af", "type": "electric_scooter", "is_disabled": 0, "lat": 38.92065616666667, "rental_uris": {"ios": "https://dc.lft.to/lastmile_qr_scan", "android": "https://dc.lft.to/lastmile_qr_scan"}, "is_reserved": 0, "fusion_lon": 0.0, "fusion_lat": 0.0, "lon": -77.004463, "name": "3dcfaccceed36a90848ec054668980af"}, {"bike_id": "9d84a0549aa5b382ba58be5d0684fc4e", "type": "electric_scooter", "is_disabled": 0, "lat": 38.919494666666665, "rental_uris": {"ios": "https://dc.lft.to/lastmile_qr_scan", "android": "https://dc.lft.to/lastmile_qr_scan"}, "is_reserved": 0, "fusion_lon": 0.0, "fusion_lat": 0.0, "lon": -77.04877783333333, "name": "9d84a0549aa5b382ba58be5d0684fc4e"}, {"bike_id": "a98d082d109ff192ce47097a53588f9d", "type": "electric_scooter", "is_disabled": 0, "lat": 38.90866916666667, "rental_uris": {"ios": "https://dc.lft.to/lastmile_qr_scan", "android": "https://dc.lft.to/lastmile_qr_scan"}, "is_reserved": 0, "fusion_lon": 0.0, "fusion_lat": 0.0, "lon": -77.03224033333333, "name": "a98d082d109ff192ce47097a53588f9d"}, {"bike_id": "efb7fc0aead30d010cf8d0483f22aaf3", "type": "electric_scooter", "is_disabled": 0, "lat": 38.87626316666667, "rental_uris": {"ios": "https://dc.lft.to/lastmile_qr_scan", "android": "https://dc.lft.to/lastmile_qr_scan"}, "is_reserved": 0, "fusion_lon": 0.0, "fusion_lat": 0.0, "lon": -77.00054283333333, "name": "efb7fc0aead30d010cf8d0483f22aaf3"}, {"bike_id": "1e67cd3ea0ef52fd25c544e28571610c", "type": "electric_scooter", "is_disabled": 0, "lat": 38.9095475, "rental_uris": {"ios": "https://dc.lft.to/lastmile_qr_scan", "android": "https://dc.lft.to/lastmile_qr_scan"}, "is_reserved": 0, "fusion_lon": 0.0, "fusion_lat": 0.0, "lon": -77.0221755, "name": "1e67cd3ea0ef52fd25c544e28571610c"}, {"bike_id": "732dc552e5552c98a21c22c4d90b950c", "type": "electric_scooter", "is_disabled": 0, "lat": 38.92977666666667, "rental_uris": {"ios": "https://dc.lft.to/lastmile_qr_scan", "android": "https://dc.lft.to/lastmile_qr_scan"}, "is_reserved": 0, "fusion_lon": 0.0, "fusion_lat": 0.0, "lon": -77.03764933333333, "name": "732dc552e5552c98a21c22c4d90b950c"}, {"bike_id": "5a3f1ca8dc6867fe49d9a25c0c8f772b", "type": "electric_scooter", "is_disabled": 0, "lat": 38.926728833333335, "rental_uris": {"ios": "https://dc.lft.to/lastmile_qr_scan", "android": "https://dc.lft.to/lastmile_qr_scan"}, "is_reserved": 0, "fusion_lon": 0.0, "fusion_lat": 0.0, "lon": -77.01511966666666, "name": "5a3f1ca8dc6867fe49d9a25c0c8f772b"}, {"bike_id": "72fa7c1d2584bd16ff94c2f9b752c5af", "type": "electric_scooter", "is_disabled": 0, "lat": 38.9016895, "rental_uris": {"ios": "https://dc.lft.to/lastmile_qr_scan", "android": "https://dc.lft.to/lastmile_qr_scan"}, "is_reserved": 0, "fusion_lon": 0.0, "fusion_lat": 0.0, "lon": -77.039006, "name": "72fa7c1d2584bd16ff94c2f9b752c5af"}, {"bike_id": "76e70f89f534d5d4d8fef95aba7fc2de", "type": "electric_scooter", "is_disabled": 0, "lat": 38.921643333333336, "rental_uris": {"ios": "https://dc.lft.to/lastmile_qr_scan", "android": "https://dc.lft.to/lastmile_qr_scan"}, "is_reserved": 0, "fusion_lon": 0.0, "fusion_lat": 0.0, "lon": -77.019324, "name": "76e70f89f534d5d4d8fef95aba7fc2de"}, {"bike_id": "8635ea788bb436658fcf6114205d7acf", "type": "electric_scooter", "is_disabled": 0, "lat": 38.9170315, "rental_uris": {"ios": "https://dc.lft.to/lastmile_qr_scan", "android": "https://dc.lft.to/lastmile_qr_scan"}, "is_reserved": 0, "fusion_lon": 0.0, "fusion_lat": 0.0, "lon": -77.09579666666667, "name": "8635ea788bb436658fcf6114205d7acf"}, {"bike_id": "85782ade3055d7dcb5c0ab7b150182bd", "type": "electric_scooter", "is_disabled": 0, "lat": 38.926500833333336, "rental_uris": {"ios": "https://dc.lft.to/lastmile_qr_scan", "android": "https://dc.lft.to/lastmile_qr_scan"}, "is_reserved": 0, "fusion_lon": 0.0, "fusion_lat": 0.0, "lon": -76.9929115, "name": "85782ade3055d7dcb5c0ab7b150182bd"}, {"bike_id": "fbd2d1bb3e2dead9530f9a8f1ca7606d", "type": "electric_scooter", "is_disabled": 0, "lat": 38.9103815, "rental_uris": {"ios": "https://dc.lft.to/lastmile_qr_scan", "android": "https://dc.lft.to/lastmile_qr_scan"}, "is_reserved": 0, "fusion_lon": 0.0, "fusion_lat": 0.0, "lon": -77.03842916666666, "name": "fbd2d1bb3e2dead9530f9a8f1ca7606d"}, {"bike_id": "7b9c5c078dca39c49dd302051ba2bd3f", "type": "electric_scooter", "is_disabled": 0, "lat": 38.87169216666667, "rental_uris": {"ios": "https://dc.lft.to/lastmile_qr_scan", "android": "https://dc.lft.to/lastmile_qr_scan"}, "is_reserved": 0, "fusion_lon": 0.0, "fusion_lat": 0.0, "lon": -77.00715716666667, "name": "7b9c5c078dca39c49dd302051ba2bd3f"}, {"bike_id": "81da78483ee8c7e6322a077a87a1cf44", "type": "electric_scooter", "is_disabled": 0, "lat": 38.906530333333336, "rental_uris": {"ios": "https://dc.lft.to/lastmile_qr_scan", "android": "https://dc.lft.to/lastmile_qr_scan"}, "is_reserved": 0, "fusion_lon": 0.0, "fusion_lat": 0.0, "lon": -77.02490433333334, "name": "81da78483ee8c7e6322a077a87a1cf44"}, {"bike_id": "75dfacb6563f54966816d44e51e6fef4", "type": "electric_scooter", "is_disabled": 0, "lat": 38.923198666666664, "rental_uris": {"ios": "https://dc.lft.to/lastmile_qr_scan", "android": "https://dc.lft.to/lastmile_qr_scan"}, "is_reserved": 0, "fusion_lon": 0.0, "fusion_lat": 0.0, "lon": -77.02130033333333, "name": "75dfacb6563f54966816d44e51e6fef4"}, {"bike_id": "ee6930a9e910d45d6dec5ae66a49da3e", "type": "electric_scooter", "is_disabled": 0, "lat": 38.92379833333333, "rental_uris": {"ios": "https://dc.lft.to/lastmile_qr_scan", "android": "https://dc.lft.to/lastmile_qr_scan"}, "is_reserved": 0, "fusion_lon": 0.0, "fusion_lat": 0.0, "lon": -77.04470766666667, "name": "ee6930a9e910d45d6dec5ae66a49da3e"}, {"bike_id": "45c481ec8266b2c243ecf9e7d3ef1e1a", "type": "electric_scooter", "is_disabled": 0, "lat": 38.92191283333333, "rental_uris": {"ios": "https://dc.lft.to/lastmile_qr_scan", "android": "https://dc.lft.to/lastmile_qr_scan"}, "is_reserved": 0, "fusion_lon": 0.0, "fusion_lat": 0.0, "lon": -77.0240855, "name": "45c481ec8266b2c243ecf9e7d3ef1e1a"}, {"bike_id": "2726d34112094eb61584a118bec0772a", "type": "electric_scooter", "is_disabled": 0, "lat": 38.939197166666666, "rental_uris": {"ios": "https://dc.lft.to/lastmile_qr_scan", "android": "https://dc.lft.to/lastmile_qr_scan"}, "is_reserved": 0, "fusion_lon": 0.0, "fusion_lat": 0.0, "lon": -77.03261933333333, "name": "2726d34112094eb61584a118bec0772a"}, {"bike_id": "29db2e13191963bcf924b1ff275bb668", "type": "electric_scooter", "is_disabled": 0, "lat": 38.957304666666666, "rental_uris": {"ios": "https://dc.lft.to/lastmile_qr_scan", "android": "https://dc.lft.to/lastmile_qr_scan"}, "is_reserved": 0, "fusion_lon": 0.0, "fusion_lat": 0.0, "lon": -77.02404466666667, "name": "29db2e13191963bcf924b1ff275bb668"}, {"bike_id": "0bbb46b143e440aa7a0d5e923c975d80", "type": "electric_scooter", "is_disabled": 0, "lat": 38.92274666666667, "rental_uris": {"ios": "https://dc.lft.to/lastmile_qr_scan", "android": "https://dc.lft.to/lastmile_qr_scan"}, "is_reserved": 0, "fusion_lon": 0.0, "fusion_lat": 0.0, "lon": -76.994535, "name": "0bbb46b143e440aa7a0d5e923c975d80"}, {"bike_id": "6b3ab71ebd6b98d9140500932815ecba", "type": "electric_scooter", "is_disabled": 0, "lat": 38.927643333333336, "rental_uris": {"ios": "https://dc.lft.to/lastmile_qr_scan", "android": "https://dc.lft.to/lastmile_qr_scan"}, "is_reserved": 0, "fusion_lon": 0.0, "fusion_lat": 0.0, "lon": -76.98754016666666, "name": "6b3ab71ebd6b98d9140500932815ecba"}, {"bike_id": "acea241a06ca7aa298334d060cde20ce", "type": "electric_scooter", "is_disabled": 0, "lat": 38.866816166666666, "rental_uris": {"ios": "https://dc.lft.to/lastmile_qr_scan", "android": "https://dc.lft.to/lastmile_qr_scan"}, "is_reserved": 0, "fusion_lon": 0.0, "fusion_lat": 0.0, "lon": -76.9858335, "name": "acea241a06ca7aa298334d060cde20ce"}, {"bike_id": "0241006f47a68d8a1a1c09329f075725", "type": "electric_scooter", "is_disabled": 0, "lat": 38.918141166666665, "rental_uris": {"ios": "https://dc.lft.to/lastmile_qr_scan", "android": "https://dc.lft.to/lastmile_qr_scan"}, "is_reserved": 0, "fusion_lon": 0.0, "fusion_lat": 0.0, "lon": -77.04002666666666, "name": "0241006f47a68d8a1a1c09329f075725"}, {"bike_id": "15ada33de62aa1a75ab012f17e70d9d0", "type": "electric_bike", "is_disabled": 0, "lat": 38.88111133333334, "rental_uris": {"ios": "https://dc.lft.to/lastmile_qr_scan", "android": "https://dc.lft.to/lastmile_qr_scan"}, "is_reserved": 0, "fusion_lon": 0.0, "fusion_lat": 0.0, "lon": -77.016614, "name": "15ada33de62aa1a75ab012f17e70d9d0"}, {"bike_id": "3ad3684efe2def067ef2a60c2bc47eb8", "type": "electric_scooter", "is_disabled": 0, "lat": 38.92342, "rental_uris": {"ios": "https://dc.lft.to/lastmile_qr_scan", "android": "https://dc.lft.to/lastmile_qr_scan"}, "is_reserved": 0, "fusion_lon": 0.0, "fusion_lat": 0.0, "lon": -77.03352516666666, "name": "3ad3684efe2def067ef2a60c2bc47eb8"}, {"bike_id": "bc35bf03d3770e3f6d6e5b15fd201fd2", "type": "electric_bike", "is_disabled": 0, "lat": 38.875512666666665, "rental_uris": {"ios": "https://dc.lft.to/lastmile_qr_scan", "android": "https://dc.lft.to/lastmile_qr_scan"}, "is_reserved": 0, "fusion_lon": 0.0, "fusion_lat": 0.0, "lon": -76.96506266666667, "name": "bc35bf03d3770e3f6d6e5b15fd201fd2"}, {"bike_id": "87a7e46feeb4241b3e4da89b424dea8d", "type": "electric_scooter", "is_disabled": 0, "lat": 38.91933, "rental_uris": {"ios": "https://dc.lft.to/lastmile_qr_scan", "android": "https://dc.lft.to/lastmile_qr_scan"}, "is_reserved": 0, "fusion_lon": 0.0, "fusion_lat": 0.0, "lon": -77.04560783333334, "name": "87a7e46feeb4241b3e4da89b424dea8d"}, {"bike_id": "13aec8e35b4fe950cb9de719a0d40c9d", "type": "electric_scooter", "is_disabled": 0, "lat": 38.91687866666667, "rental_uris": {"ios": "https://dc.lft.to/lastmile_qr_scan", "android": "https://dc.lft.to/lastmile_qr_scan"}, "is_reserved": 0, "fusion_lon": 0.0, "fusion_lat": 0.0, "lon": -77.04215016666667, "name": "13aec8e35b4fe950cb9de719a0d40c9d"}, {"bike_id": "62b60e3428432dd96f13bbc2ff386728", "type": "electric_scooter", "is_disabled": 0, "lat": 38.9078355, "rental_uris": {"ios": "https://dc.lft.to/lastmile_qr_scan", "android": "https://dc.lft.to/lastmile_qr_scan"}, "is_reserved": 0, "fusion_lon": 0.0, "fusion_lat": 0.0, "lon": -77.0348615, "name": "62b60e3428432dd96f13bbc2ff386728"}, {"bike_id": "cb3cc6483d939394e0fba2a476daad7b", "type": "electric_scooter", "is_disabled": 0, "lat": 38.9003785, "rental_uris": {"ios": "https://dc.lft.to/lastmile_qr_scan", "android": "https://dc.lft.to/lastmile_qr_scan"}, "is_reserved": 0, "fusion_lon": 0.0, "fusion_lat": 0.0, "lon": -77.03514533333333, "name": "cb3cc6483d939394e0fba2a476daad7b"}, {"bike_id": "e09ef9d35ee3512f7a1ded3d99ef2319", "type": "electric_scooter", "is_disabled": 0, "lat": 38.907170666666666, "rental_uris": {"ios": "https://dc.lft.to/lastmile_qr_scan", "android": "https://dc.lft.to/lastmile_qr_scan"}, "is_reserved": 0, "fusion_lon": 0.0, "fusion_lat": 0.0, "lon": -77.02320966666667, "name": "e09ef9d35ee3512f7a1ded3d99ef2319"}, {"bike_id": "27b4292e7a91c606ed390f5337412fdf", "type": "electric_scooter", "is_disabled": 0, "lat": 38.89477083333333, "rental_uris": {"ios": "https://dc.lft.to/lastmile_qr_scan", "android": "https://dc.lft.to/lastmile_qr_scan"}, "is_reserved": 0, "fusion_lon": 0.0, "fusion_lat": 0.0, "lon": -76.9485975, "name": "27b4292e7a91c606ed390f5337412fdf"}, {"bike_id": "980a50823757bb94519e9fa7a8cdf0a3", "type": "electric_scooter", "is_disabled": 0, "lat": 38.9158105, "rental_uris": {"ios": "https://dc.lft.to/lastmile_qr_scan", "android": "https://dc.lft.to/lastmile_qr_scan"}, "is_reserved": 0, "fusion_lon": 0.0, "fusion_lat": 0.0, "lon": -77.03183066666666, "name": "980a50823757bb94519e9fa7a8cdf0a3"}, {"bike_id": "d9b814a3f9a2a96ad2ce7229c329a924", "type": "electric_scooter", "is_disabled": 0, "lat": 38.892246166666666, "rental_uris": {"ios": "https://dc.lft.to/lastmile_qr_scan", "android": "https://dc.lft.to/lastmile_qr_scan"}, "is_reserved": 0, "fusion_lon": 0.0, "fusion_lat": 0.0, "lon": -77.04504016666667, "name": "d9b814a3f9a2a96ad2ce7229c329a924"}, {"bike_id": "992747b451cbbfc50deda3fc2598da2e", "type": "electric_scooter", "is_disabled": 0, "lat": 38.87792966666667, "rental_uris": {"ios": "https://dc.lft.to/lastmile_qr_scan", "android": "https://dc.lft.to/lastmile_qr_scan"}, "is_reserved": 0, "fusion_lon": 0.0, "fusion_lat": 0.0, "lon": -76.93085733333334, "name": "992747b451cbbfc50deda3fc2598da2e"}, {"bike_id": "f59c0b487e964e015ab94b55d6324163", "type": "electric_scooter", "is_disabled": 0, "lat": 38.90101633333333, "rental_uris": {"ios": "https://dc.lft.to/lastmile_qr_scan", "android": "https://dc.lft.to/lastmile_qr_scan"}, "is_reserved": 0, "fusion_lon": 0.0, "fusion_lat": 0.0, "lon": -77.034978, "name": "f59c0b487e964e015ab94b55d6324163"}, {"bike_id": "bac129bcc090ee8b36c3a1d53a463136", "type": "electric_scooter", "is_disabled": 0, "lat": 38.902574333333334, "rental_uris": {"ios": "https://dc.lft.to/lastmile_qr_scan", "android": "https://dc.lft.to/lastmile_qr_scan"}, "is_reserved": 0, "fusion_lon": 0.0, "fusion_lat": 0.0, "lon": -77.05478866666667, "name": "bac129bcc090ee8b36c3a1d53a463136"}, {"bike_id": "7c22ea49ca2deea5f1f37343c0764fde", "type": "electric_scooter", "is_disabled": 0, "lat": 38.89838783333333, "rental_uris": {"ios": "https://dc.lft.to/lastmile_qr_scan", "android": "https://dc.lft.to/lastmile_qr_scan"}, "is_reserved": 0, "fusion_lon": 0.0, "fusion_lat": 0.0, "lon": -76.94632616666667, "name": "7c22ea49ca2deea5f1f37343c0764fde"}, {"bike_id": "e1ae88522f547c1d25e38c3dcd6d0e54", "type": "electric_scooter", "is_disabled": 0, "lat": 38.90584883333333, "rental_uris": {"ios": "https://dc.lft.to/lastmile_qr_scan", "android": "https://dc.lft.to/lastmile_qr_scan"}, "is_reserved": 0, "fusion_lon": 0.0, "fusion_lat": 0.0, "lon": -77.0680465, "name": "e1ae88522f547c1d25e38c3dcd6d0e54"}, {"bike_id": "c288b8e22388234679f2b94017531ed2", "type": "electric_scooter", "is_disabled": 0, "lat": 38.9228075, "rental_uris": {"ios": "https://dc.lft.to/lastmile_qr_scan", "android": "https://dc.lft.to/lastmile_qr_scan"}, "is_reserved": 0, "fusion_lon": 0.0, "fusion_lat": 0.0, "lon": -77.042223, "name": "c288b8e22388234679f2b94017531ed2"}, {"bike_id": "72f2f1093db89903e5a7f974c53d7314", "type": "electric_bike", "is_disabled": 0, "lat": 38.8593475, "rental_uris": {"ios": "https://dc.lft.to/lastmile_qr_scan", "android": "https://dc.lft.to/lastmile_qr_scan"}, "is_reserved": 0, "fusion_lon": 0.0, "fusion_lat": 0.0, "lon": -77.118306, "name": "72f2f1093db89903e5a7f974c53d7314"}, {"bike_id": "fb2206faec6341bb53b6aa359bb8d398", "type": "electric_bike", "is_disabled": 0, "lat": 38.823677333333336, "rental_uris": {"ios": "https://dc.lft.to/lastmile_qr_scan", "android": "https://dc.lft.to/lastmile_qr_scan"}, "is_reserved": 0, "fusion_lon": 0.0, "fusion_lat": 0.0, "lon": -77.00218083333333, "name": "fb2206faec6341bb53b6aa359bb8d398"}, {"bike_id": "b464a302a3c2521b121244cc12db1ef5", "type": "electric_scooter", "is_disabled": 0, "lat": 38.91404933333333, "rental_uris": {"ios": "https://dc.lft.to/lastmile_qr_scan", "android": "https://dc.lft.to/lastmile_qr_scan"}, "is_reserved": 0, "fusion_lon": 0.0, "fusion_lat": 0.0, "lon": -77.04132083333333, "name": "b464a302a3c2521b121244cc12db1ef5"}, {"bike_id": "5343abc65f480529a007a4f6b204047d", "type": "electric_bike", "is_disabled": 0, "lat": 38.898146833333335, "rental_uris": {"ios": "https://dc.lft.to/lastmile_qr_scan", "android": "https://dc.lft.to/lastmile_qr_scan"}, "is_reserved": 0, "fusion_lon": 0.0, "fusion_lat": 0.0, "lon": -76.99066, "name": "5343abc65f480529a007a4f6b204047d"}, {"bike_id": "34e55274fdeaab2415df9c67349a9480", "type": "electric_scooter", "is_disabled": 0, "lat": 38.91498283333333, "rental_uris": {"ios": "https://dc.lft.to/lastmile_qr_scan", "android": "https://dc.lft.to/lastmile_qr_scan"}, "is_reserved": 0, "fusion_lon": 0.0, "fusion_lat": 0.0, "lon": -77.03210866666667, "name": "34e55274fdeaab2415df9c67349a9480"}, {"bike_id": "c7c49314d8e6b022fc60fe82f7b1ec7a", "type": "electric_scooter", "is_disabled": 0, "lat": 38.918070166666666, "rental_uris": {"ios": "https://dc.lft.to/lastmile_qr_scan", "android": "https://dc.lft.to/lastmile_qr_scan"}, "is_reserved": 0, "fusion_lon": 0.0, "fusion_lat": 0.0, "lon": -77.0247625, "name": "c7c49314d8e6b022fc60fe82f7b1ec7a"}, {"bike_id": "ad985dc971c4132776229ccced54a3be", "type": "electric_bike", "is_disabled": 0, "lat": 38.8237925, "rental_uris": {"ios": "https://dc.lft.to/lastmile_qr_scan", "android": "https://dc.lft.to/lastmile_qr_scan"}, "is_reserved": 0, "fusion_lon": 0.0, "fusion_lat": 0.0, "lon": -77.0022555, "name": "ad985dc971c4132776229ccced54a3be"}, {"bike_id": "cc657f976d22000040dd6ca32b5cc896", "type": "electric_scooter", "is_disabled": 0, "lat": 38.922657666666666, "rental_uris": {"ios": "https://dc.lft.to/lastmile_qr_scan", "android": "https://dc.lft.to/lastmile_qr_scan"}, "is_reserved": 0, "fusion_lon": 0.0, "fusion_lat": 0.0, "lon": -77.04238433333333, "name": "cc657f976d22000040dd6ca32b5cc896"}, {"bike_id": "aa845f0867f088fb1b197377e365a5f9", "type": "electric_scooter", "is_disabled": 0, "lat": 38.8716045, "rental_uris": {"ios": "https://dc.lft.to/lastmile_qr_scan", "android": "https://dc.lft.to/lastmile_qr_scan"}, "is_reserved": 0, "fusion_lon": 0.0, "fusion_lat": 0.0, "lon": -77.01356983333334, "name": "aa845f0867f088fb1b197377e365a5f9"}, {"bike_id": "2ee45c38defa823db673a9a8de3a00a9", "type": "electric_scooter", "is_disabled": 0, "lat": 38.8885625, "rental_uris": {"ios": "https://dc.lft.to/lastmile_qr_scan", "android": "https://dc.lft.to/lastmile_qr_scan"}, "is_reserved": 0, "fusion_lon": 0.0, "fusion_lat": 0.0, "lon": -77.00052, "name": "2ee45c38defa823db673a9a8de3a00a9"}, {"bike_id": "5064d1e5a8a4daf2faf52ab068991f3f", "type": "electric_scooter", "is_disabled": 0, "lat": 38.889315, "rental_uris": {"ios": "https://dc.lft.to/lastmile_qr_scan", "android": "https://dc.lft.to/lastmile_qr_scan"}, "is_reserved": 0, "fusion_lon": 0.0, "fusion_lat": 0.0, "lon": -76.935787, "name": "5064d1e5a8a4daf2faf52ab068991f3f"}, {"bike_id": "ca6cea714a712dfd05862f3ab340ac72", "type": "electric_scooter", "is_disabled": 0, "lat": 38.90208616666666, "rental_uris": {"ios": "https://dc.lft.to/lastmile_qr_scan", "android": "https://dc.lft.to/lastmile_qr_scan"}, "is_reserved": 0, "fusion_lon": 0.0, "fusion_lat": 0.0, "lon": -77.0612655, "name": "ca6cea714a712dfd05862f3ab340ac72"}, {"bike_id": "c839a6027681811a56d416c5420f3951", "type": "electric_scooter", "is_disabled": 0, "lat": 38.9097245, "rental_uris": {"ios": "https://dc.lft.to/lastmile_qr_scan", "android": "https://dc.lft.to/lastmile_qr_scan"}, "is_reserved": 0, "fusion_lon": 0.0, "fusion_lat": 0.0, "lon": -77.04876533333334, "name": "c839a6027681811a56d416c5420f3951"}, {"bike_id": "020bab589d68c1b785331c03311822b3", "type": "electric_scooter", "is_disabled": 0, "lat": 38.905564166666665, "rental_uris": {"ios": "https://dc.lft.to/lastmile_qr_scan", "android": "https://dc.lft.to/lastmile_qr_scan"}, "is_reserved": 0, "fusion_lon": 0.0, "fusion_lat": 0.0, "lon": -77.034594, "name": "020bab589d68c1b785331c03311822b3"}, {"bike_id": "4000e5319319dfc7ec4d43ec217155ea", "type": "electric_scooter", "is_disabled": 0, "lat": 38.903332166666665, "rental_uris": {"ios": "https://dc.lft.to/lastmile_qr_scan", "android": "https://dc.lft.to/lastmile_qr_scan"}, "is_reserved": 0, "fusion_lon": 0.0, "fusion_lat": 0.0, "lon": -77.04327966666666, "name": "4000e5319319dfc7ec4d43ec217155ea"}, {"bike_id": "bc174607a5367a5d210ca254b787a938", "type": "electric_scooter", "is_disabled": 0, "lat": 38.84637566666667, "rental_uris": {"ios": "https://dc.lft.to/lastmile_qr_scan", "android": "https://dc.lft.to/lastmile_qr_scan"}, "is_reserved": 0, "fusion_lon": 0.0, "fusion_lat": 0.0, "lon": -76.9913395, "name": "bc174607a5367a5d210ca254b787a938"}, {"bike_id": "78c336bd3ec73eae5550a7dbef2516f8", "type": "electric_scooter", "is_disabled": 0, "lat": 38.932839666666666, "rental_uris": {"ios": "https://dc.lft.to/lastmile_qr_scan", "android": "https://dc.lft.to/lastmile_qr_scan"}, "is_reserved": 0, "fusion_lon": 0.0, "fusion_lat": 0.0, "lon": -77.03548383333333, "name": "78c336bd3ec73eae5550a7dbef2516f8"}, {"bike_id": "0a1ffa7f193d9340f3570b1653b12cbd", "type": "electric_bike", "is_disabled": 0, "lat": 39.0432115, "rental_uris": {"ios": "https://dc.lft.to/lastmile_qr_scan", "android": "https://dc.lft.to/lastmile_qr_scan"}, "is_reserved": 0, "fusion_lon": 0.0, "fusion_lat": 0.0, "lon": -77.05164316666666, "name": "0a1ffa7f193d9340f3570b1653b12cbd"}, {"bike_id": "b3c29eef9415aef55926fa6a64862df2", "type": "electric_scooter", "is_disabled": 0, "lat": 38.9140095, "rental_uris": {"ios": "https://dc.lft.to/lastmile_qr_scan", "android": "https://dc.lft.to/lastmile_qr_scan"}, "is_reserved": 0, "fusion_lon": 0.0, "fusion_lat": 0.0, "lon": -77.0317495, "name": "b3c29eef9415aef55926fa6a64862df2"}, {"bike_id": "e816687e6a67c5202c48f828c6647747", "type": "electric_scooter", "is_disabled": 0, "lat": 38.893569666666664, "rental_uris": {"ios": "https://dc.lft.to/lastmile_qr_scan", "android": "https://dc.lft.to/lastmile_qr_scan"}, "is_reserved": 0, "fusion_lon": 0.0, "fusion_lat": 0.0, "lon": -76.949345, "name": "e816687e6a67c5202c48f828c6647747"}, {"bike_id": "f04d94319f2256517bc832c2887d72f1", "type": "electric_scooter", "is_disabled": 0, "lat": 38.9157405, "rental_uris": {"ios": "https://dc.lft.to/lastmile_qr_scan", "android": "https://dc.lft.to/lastmile_qr_scan"}, "is_reserved": 0, "fusion_lon": 0.0, "fusion_lat": 0.0, "lon": -77.05007816666667, "name": "f04d94319f2256517bc832c2887d72f1"}, {"bike_id": "82c70f015e3df812da03d6c973fc5a5d", "type": "electric_scooter", "is_disabled": 0, "lat": 38.90366183333333, "rental_uris": {"ios": "https://dc.lft.to/lastmile_qr_scan", "android": "https://dc.lft.to/lastmile_qr_scan"}, "is_reserved": 0, "fusion_lon": 0.0, "fusion_lat": 0.0, "lon": -76.999464, "name": "82c70f015e3df812da03d6c973fc5a5d"}, {"bike_id": "6a69f5edbc845590772764af8b20ff96", "type": "electric_scooter", "is_disabled": 0, "lat": 38.927814, "rental_uris": {"ios": "https://dc.lft.to/lastmile_qr_scan", "android": "https://dc.lft.to/lastmile_qr_scan"}, "is_reserved": 0, "fusion_lon": 0.0, "fusion_lat": 0.0, "lon": -77.031921, "name": "6a69f5edbc845590772764af8b20ff96"}, {"bike_id": "806fa5e538d58c9741bf13581ceb3009", "type": "electric_scooter", "is_disabled": 0, "lat": 38.91560833333333, "rental_uris": {"ios": "https://dc.lft.to/lastmile_qr_scan", "android": "https://dc.lft.to/lastmile_qr_scan"}, "is_reserved": 0, "fusion_lon": 0.0, "fusion_lat": 0.0, "lon": -77.03246283333333, "name": "806fa5e538d58c9741bf13581ceb3009"}, {"bike_id": "d5fa2420b9fcaa291602fa64cb011668", "type": "electric_bike", "is_disabled": 0, "lat": 38.9632065, "rental_uris": {"ios": "https://dc.lft.to/lastmile_qr_scan", "android": "https://dc.lft.to/lastmile_qr_scan"}, "is_reserved": 0, "fusion_lon": 0.0, "fusion_lat": 0.0, "lon": -76.97363416666667, "name": "d5fa2420b9fcaa291602fa64cb011668"}, {"bike_id": "d5868ab20f3612d06c23dbd58d8830ed", "type": "electric_scooter", "is_disabled": 0, "lat": 38.90961516666667, "rental_uris": {"ios": "https://dc.lft.to/lastmile_qr_scan", "android": "https://dc.lft.to/lastmile_qr_scan"}, "is_reserved": 0, "fusion_lon": 0.0, "fusion_lat": 0.0, "lon": -77.03261433333333, "name": "d5868ab20f3612d06c23dbd58d8830ed"}, {"bike_id": "6f4ead327f3d9dc6fb9851de133aaf45", "type": "electric_scooter", "is_disabled": 0, "lat": 38.905296666666665, "rental_uris": {"ios": "https://dc.lft.to/lastmile_qr_scan", "android": "https://dc.lft.to/lastmile_qr_scan"}, "is_reserved": 0, "fusion_lon": 0.0, "fusion_lat": 0.0, "lon": -77.05935766666667, "name": "6f4ead327f3d9dc6fb9851de133aaf45"}, {"bike_id": "9e339328c613f5ec761cab975db821ef", "type": "electric_bike", "is_disabled": 0, "lat": 38.95226233333333, "rental_uris": {"ios": "https://dc.lft.to/lastmile_qr_scan", "android": "https://dc.lft.to/lastmile_qr_scan"}, "is_reserved": 0, "fusion_lon": 0.0, "fusion_lat": 0.0, "lon": -76.9700935, "name": "9e339328c613f5ec761cab975db821ef"}, {"bike_id": "522860070daafcf9bcb98a30b7eab4ab", "type": "electric_scooter", "is_disabled": 0, "lat": 38.87416783333333, "rental_uris": {"ios": "https://dc.lft.to/lastmile_qr_scan", "android": "https://dc.lft.to/lastmile_qr_scan"}, "is_reserved": 0, "fusion_lon": 0.0, "fusion_lat": 0.0, "lon": -76.969112, "name": "522860070daafcf9bcb98a30b7eab4ab"}, {"bike_id": "380b470e95f4441be5dfdf2a57846c29", "type": "electric_scooter", "is_disabled": 0, "lat": 38.89919783333333, "rental_uris": {"ios": "https://dc.lft.to/lastmile_qr_scan", "android": "https://dc.lft.to/lastmile_qr_scan"}, "is_reserved": 0, "fusion_lon": 0.0, "fusion_lat": 0.0, "lon": -77.0536985, "name": "380b470e95f4441be5dfdf2a57846c29"}, {"bike_id": "b4c0e8c0ea8d2e562a1dfcd9866becdb", "type": "electric_scooter", "is_disabled": 0, "lat": 38.89716683333333, "rental_uris": {"ios": "https://dc.lft.to/lastmile_qr_scan", "android": "https://dc.lft.to/lastmile_qr_scan"}, "is_reserved": 0, "fusion_lon": 0.0, "fusion_lat": 0.0, "lon": -77.00852616666667, "name": "b4c0e8c0ea8d2e562a1dfcd9866becdb"}, {"bike_id": "3ebd9a220858d0f76b3b5e9b35e562df", "type": "electric_bike", "is_disabled": 0, "lat": 38.963071166666666, "rental_uris": {"ios": "https://dc.lft.to/lastmile_qr_scan", "android": "https://dc.lft.to/lastmile_qr_scan"}, "is_reserved": 0, "fusion_lon": 0.0, "fusion_lat": 0.0, "lon": -77.01106716666666, "name": "3ebd9a220858d0f76b3b5e9b35e562df"}, {"bike_id": "afbe8270750c25adda9ac01d33407a7a", "type": "electric_scooter", "is_disabled": 0, "lat": 38.923419333333335, "rental_uris": {"ios": "https://dc.lft.to/lastmile_qr_scan", "android": "https://dc.lft.to/lastmile_qr_scan"}, "is_reserved": 0, "fusion_lon": 0.0, "fusion_lat": 0.0, "lon": -77.04166033333334, "name": "afbe8270750c25adda9ac01d33407a7a"}, {"bike_id": "fed8987b94346e1de09ebda7363eaab9", "type": "electric_scooter", "is_disabled": 0, "lat": 38.9246495, "rental_uris": {"ios": "https://dc.lft.to/lastmile_qr_scan", "android": "https://dc.lft.to/lastmile_qr_scan"}, "is_reserved": 0, "fusion_lon": 0.0, "fusion_lat": 0.0, "lon": -77.02245166666667, "name": "fed8987b94346e1de09ebda7363eaab9"}, {"bike_id": "7675689f908819dfee6ef0c557a35312", "type": "electric_scooter", "is_disabled": 0, "lat": 38.90961433333333, "rental_uris": {"ios": "https://dc.lft.to/lastmile_qr_scan", "android": "https://dc.lft.to/lastmile_qr_scan"}, "is_reserved": 0, "fusion_lon": 0.0, "fusion_lat": 0.0, "lon": -77.022947, "name": "7675689f908819dfee6ef0c557a35312"}, {"bike_id": "0a92bee4b96d70d2aa21d871f03d50fc", "type": "electric_scooter", "is_disabled": 0, "lat": 38.91746933333334, "rental_uris": {"ios": "https://dc.lft.to/lastmile_qr_scan", "android": "https://dc.lft.to/lastmile_qr_scan"}, "is_reserved": 0, "fusion_lon": 0.0, "fusion_lat": 0.0, "lon": -77.03664766666667, "name": "0a92bee4b96d70d2aa21d871f03d50fc"}, {"bike_id": "544e3db143a382511d299c671b7b78d9", "type": "electric_scooter", "is_disabled": 0, "lat": 38.89709166666667, "rental_uris": {"ios": "https://dc.lft.to/lastmile_qr_scan", "android": "https://dc.lft.to/lastmile_qr_scan"}, "is_reserved": 0, "fusion_lon": 0.0, "fusion_lat": 0.0, "lon": -77.04885833333333, "name": "544e3db143a382511d299c671b7b78d9"}, {"bike_id": "1119b8e63a0e2d01e0e01f16eb6a4467", "type": "electric_scooter", "is_disabled": 0, "lat": 38.89844866666667, "rental_uris": {"ios": "https://dc.lft.to/lastmile_qr_scan", "android": "https://dc.lft.to/lastmile_qr_scan"}, "is_reserved": 0, "fusion_lon": 0.0, "fusion_lat": 0.0, "lon": -76.94633783333333, "name": "1119b8e63a0e2d01e0e01f16eb6a4467"}, {"bike_id": "eb95ed74c0fe44ef20b0bcc8b2663a47", "type": "electric_scooter", "is_disabled": 0, "lat": 38.926077666666664, "rental_uris": {"ios": "https://dc.lft.to/lastmile_qr_scan", "android": "https://dc.lft.to/lastmile_qr_scan"}, "is_reserved": 0, "fusion_lon": 0.0, "fusion_lat": 0.0, "lon": -77.10247116666666, "name": "eb95ed74c0fe44ef20b0bcc8b2663a47"}, {"bike_id": "44d5b7bdcf76750ef9076ad20b64f4b8", "type": "electric_bike", "is_disabled": 0, "lat": 39.0010295, "rental_uris": {"ios": "https://dc.lft.to/lastmile_qr_scan", "android": "https://dc.lft.to/lastmile_qr_scan"}, "is_reserved": 0, "fusion_lon": 0.0, "fusion_lat": 0.0, "lon": -77.02522083333334, "name": "44d5b7bdcf76750ef9076ad20b64f4b8"}, {"bike_id": "a0fb40c4be1986929a13f48a9e4e42ec", "type": "electric_scooter", "is_disabled": 0, "lat": 38.87470233333333, "rental_uris": {"ios": "https://dc.lft.to/lastmile_qr_scan", "android": "https://dc.lft.to/lastmile_qr_scan"}, "is_reserved": 0, "fusion_lon": 0.0, "fusion_lat": 0.0, "lon": -77.0000645, "name": "a0fb40c4be1986929a13f48a9e4e42ec"}, {"bike_id": "74e9adabee40e260c1936e69ca8cd079", "type": "electric_scooter", "is_disabled": 0, "lat": 38.899049, "rental_uris": {"ios": "https://dc.lft.to/lastmile_qr_scan", "android": "https://dc.lft.to/lastmile_qr_scan"}, "is_reserved": 0, "fusion_lon": 0.0, "fusion_lat": 0.0, "lon": -76.93385283333333, "name": "74e9adabee40e260c1936e69ca8cd079"}, {"bike_id": "3e9f7da1b8ffad2a6bd7b64e401ef010", "type": "electric_scooter", "is_disabled": 0, "lat": 38.92257, "rental_uris": {"ios": "https://dc.lft.to/lastmile_qr_scan", "android": "https://dc.lft.to/lastmile_qr_scan"}, "is_reserved": 0, "fusion_lon": 0.0, "fusion_lat": 0.0, "lon": -77.0297755, "name": "3e9f7da1b8ffad2a6bd7b64e401ef010"}, {"bike_id": "ef724142a3cd4c894df25707b5a202bb", "type": "electric_scooter", "is_disabled": 0, "lat": 38.917387, "rental_uris": {"ios": "https://dc.lft.to/lastmile_qr_scan", "android": "https://dc.lft.to/lastmile_qr_scan"}, "is_reserved": 0, "fusion_lon": 0.0, "fusion_lat": 0.0, "lon": -77.02393033333334, "name": "ef724142a3cd4c894df25707b5a202bb"}, {"bike_id": "4bd0922861fa6d3368af0f2e728135e3", "type": "electric_scooter", "is_disabled": 0, "lat": 38.923599333333335, "rental_uris": {"ios": "https://dc.lft.to/lastmile_qr_scan", "android": "https://dc.lft.to/lastmile_qr_scan"}, "is_reserved": 0, "fusion_lon": 0.0, "fusion_lat": 0.0, "lon": -77.05047383333333, "name": "4bd0922861fa6d3368af0f2e728135e3"}, {"bike_id": "c5016e7a55882d1c48aef436b582de95", "type": "electric_bike", "is_disabled": 0, "lat": 38.8729, "rental_uris": {"ios": "https://dc.lft.to/lastmile_qr_scan", "android": "https://dc.lft.to/lastmile_qr_scan"}, "is_reserved": 0, "fusion_lon": 0.0, "fusion_lat": 0.0, "lon": -77.13925333333333, "name": "c5016e7a55882d1c48aef436b582de95"}, {"bike_id": "5d24a6320f406d16af113adcd0b82e86", "type": "electric_scooter", "is_disabled": 0, "lat": 38.932627333333336, "rental_uris": {"ios": "https://dc.lft.to/lastmile_qr_scan", "android": "https://dc.lft.to/lastmile_qr_scan"}, "is_reserved": 0, "fusion_lon": 0.0, "fusion_lat": 0.0, "lon": -77.04538466666666, "name": "5d24a6320f406d16af113adcd0b82e86"}, {"bike_id": "7a6556c2d1354380a485b4b5f96bc234", "type": "electric_scooter", "is_disabled": 0, "lat": 38.9024885, "rental_uris": {"ios": "https://dc.lft.to/lastmile_qr_scan", "android": "https://dc.lft.to/lastmile_qr_scan"}, "is_reserved": 0, "fusion_lon": 0.0, "fusion_lat": 0.0, "lon": -77.04376, "name": "7a6556c2d1354380a485b4b5f96bc234"}, {"bike_id": "a4aaff39ef7407cad8d77f7790a9dd18", "type": "electric_scooter", "is_disabled": 0, "lat": 38.916342666666665, "rental_uris": {"ios": "https://dc.lft.to/lastmile_qr_scan", "android": "https://dc.lft.to/lastmile_qr_scan"}, "is_reserved": 0, "fusion_lon": 0.0, "fusion_lat": 0.0, "lon": -77.025795, "name": "a4aaff39ef7407cad8d77f7790a9dd18"}, {"bike_id": "0153e5852b39b1b0c5eddf0f34979833", "type": "electric_scooter", "is_disabled": 0, "lat": 38.903871, "rental_uris": {"ios": "https://dc.lft.to/lastmile_qr_scan", "android": "https://dc.lft.to/lastmile_qr_scan"}, "is_reserved": 0, "fusion_lon": 0.0, "fusion_lat": 0.0, "lon": -76.981988, "name": "0153e5852b39b1b0c5eddf0f34979833"}, {"bike_id": "58616f5ffed96c84e16a3a1b2c2c8445", "type": "electric_bike", "is_disabled": 0, "lat": 38.83784, "rental_uris": {"ios": "https://dc.lft.to/lastmile_qr_scan", "android": "https://dc.lft.to/lastmile_qr_scan"}, "is_reserved": 0, "fusion_lon": 0.0, "fusion_lat": 0.0, "lon": -77.093497, "name": "58616f5ffed96c84e16a3a1b2c2c8445"}, {"bike_id": "793455cbb2a93511467a3d7d1a85d80c", "type": "electric_scooter", "is_disabled": 0, "lat": 38.9007935, "rental_uris": {"ios": "https://dc.lft.to/lastmile_qr_scan", "android": "https://dc.lft.to/lastmile_qr_scan"}, "is_reserved": 0, "fusion_lon": 0.0, "fusion_lat": 0.0, "lon": -77.0091025, "name": "793455cbb2a93511467a3d7d1a85d80c"}, {"bike_id": "4fde64fc589aa9159f34e85cb3f56bd8", "type": "electric_scooter", "is_disabled": 0, "lat": 38.89221366666666, "rental_uris": {"ios": "https://dc.lft.to/lastmile_qr_scan", "android": "https://dc.lft.to/lastmile_qr_scan"}, "is_reserved": 0, "fusion_lon": 0.0, "fusion_lat": 0.0, "lon": -77.028156, "name": "4fde64fc589aa9159f34e85cb3f56bd8"}, {"bike_id": "9081d698e7bf52de206035384351586a", "type": "electric_scooter", "is_disabled": 0, "lat": 38.9225045, "rental_uris": {"ios": "https://dc.lft.to/lastmile_qr_scan", "android": "https://dc.lft.to/lastmile_qr_scan"}, "is_reserved": 0, "fusion_lon": 0.0, "fusion_lat": 0.0, "lon": -77.03904416666667, "name": "9081d698e7bf52de206035384351586a"}, {"bike_id": "4da7f932125b95c7118fa83f73ff0a31", "type": "electric_scooter", "is_disabled": 0, "lat": 38.942055333333336, "rental_uris": {"ios": "https://dc.lft.to/lastmile_qr_scan", "android": "https://dc.lft.to/lastmile_qr_scan"}, "is_reserved": 0, "fusion_lon": 0.0, "fusion_lat": 0.0, "lon": -77.01737083333333, "name": "4da7f932125b95c7118fa83f73ff0a31"}, {"bike_id": "1376085ab3c2f547ec9866f9b589d935", "type": "electric_scooter", "is_disabled": 0, "lat": 38.92403616666667, "rental_uris": {"ios": "https://dc.lft.to/lastmile_qr_scan", "android": "https://dc.lft.to/lastmile_qr_scan"}, "is_reserved": 0, "fusion_lon": 0.0, "fusion_lat": 0.0, "lon": -76.99394366666667, "name": "1376085ab3c2f547ec9866f9b589d935"}, {"bike_id": "fd51156b939598e9ec5be52472ea72b4", "type": "electric_scooter", "is_disabled": 0, "lat": 38.90006966666667, "rental_uris": {"ios": "https://dc.lft.to/lastmile_qr_scan", "android": "https://dc.lft.to/lastmile_qr_scan"}, "is_reserved": 0, "fusion_lon": 0.0, "fusion_lat": 0.0, "lon": -77.001943, "name": "fd51156b939598e9ec5be52472ea72b4"}, {"bike_id": "790d416f9b6c85f246d56b0af51bc47c", "type": "electric_scooter", "is_disabled": 0, "lat": 38.92291566666667, "rental_uris": {"ios": "https://dc.lft.to/lastmile_qr_scan", "android": "https://dc.lft.to/lastmile_qr_scan"}, "is_reserved": 0, "fusion_lon": 0.0, "fusion_lat": 0.0, "lon": -76.99771733333333, "name": "790d416f9b6c85f246d56b0af51bc47c"}, {"bike_id": "c8050ed8d8706654fcedbcb2bbc22d6a", "type": "electric_scooter", "is_disabled": 0, "lat": 38.8669445, "rental_uris": {"ios": "https://dc.lft.to/lastmile_qr_scan", "android": "https://dc.lft.to/lastmile_qr_scan"}, "is_reserved": 0, "fusion_lon": 0.0, "fusion_lat": 0.0, "lon": -76.98705916666667, "name": "c8050ed8d8706654fcedbcb2bbc22d6a"}, {"bike_id": "e74b403d9813e24b7051a408525c53a9", "type": "electric_scooter", "is_disabled": 0, "lat": 38.929070333333335, "rental_uris": {"ios": "https://dc.lft.to/lastmile_qr_scan", "android": "https://dc.lft.to/lastmile_qr_scan"}, "is_reserved": 0, "fusion_lon": 0.0, "fusion_lat": 0.0, "lon": -77.03621083333333, "name": "e74b403d9813e24b7051a408525c53a9"}, {"bike_id": "1dd52ee85923bf4e217926fcc6467ccd", "type": "electric_bike", "is_disabled": 0, "lat": 39.02436333333333, "rental_uris": {"ios": "https://dc.lft.to/lastmile_qr_scan", "android": "https://dc.lft.to/lastmile_qr_scan"}, "is_reserved": 0, "fusion_lon": 0.0, "fusion_lat": 0.0, "lon": -77.131035, "name": "1dd52ee85923bf4e217926fcc6467ccd"}, {"bike_id": "8da6a2e1673294fdb0e1f10bcfb73bb5", "type": "electric_scooter", "is_disabled": 0, "lat": 38.92865466666667, "rental_uris": {"ios": "https://dc.lft.to/lastmile_qr_scan", "android": "https://dc.lft.to/lastmile_qr_scan"}, "is_reserved": 0, "fusion_lon": 0.0, "fusion_lat": 0.0, "lon": -77.03281416666667, "name": "8da6a2e1673294fdb0e1f10bcfb73bb5"}, {"bike_id": "afdfcfc876bad076689f60387f843349", "type": "electric_bike", "is_disabled": 0, "lat": 38.9569515, "rental_uris": {"ios": "https://dc.lft.to/lastmile_qr_scan", "android": "https://dc.lft.to/lastmile_qr_scan"}, "is_reserved": 0, "fusion_lon": 0.0, "fusion_lat": 0.0, "lon": -77.0242225, "name": "afdfcfc876bad076689f60387f843349"}, {"bike_id": "927ebd674053927750a7f0db42b02f4c", "type": "electric_scooter", "is_disabled": 0, "lat": 38.914034, "rental_uris": {"ios": "https://dc.lft.to/lastmile_qr_scan", "android": "https://dc.lft.to/lastmile_qr_scan"}, "is_reserved": 0, "fusion_lon": 0.0, "fusion_lat": 0.0, "lon": -77.02132583333334, "name": "927ebd674053927750a7f0db42b02f4c"}, {"bike_id": "c79f998c453de4a31c57cc6a9d684f5a", "type": "electric_scooter", "is_disabled": 0, "lat": 38.91713283333333, "rental_uris": {"ios": "https://dc.lft.to/lastmile_qr_scan", "android": "https://dc.lft.to/lastmile_qr_scan"}, "is_reserved": 0, "fusion_lon": 0.0, "fusion_lat": 0.0, "lon": -77.02901916666667, "name": "c79f998c453de4a31c57cc6a9d684f5a"}, {"bike_id": "fa7e4c6a8009d6e16e6307ef5ae2a57a", "type": "electric_scooter", "is_disabled": 0, "lat": 38.913581, "rental_uris": {"ios": "https://dc.lft.to/lastmile_qr_scan", "android": "https://dc.lft.to/lastmile_qr_scan"}, "is_reserved": 0, "fusion_lon": 0.0, "fusion_lat": 0.0, "lon": -77.03202816666666, "name": "fa7e4c6a8009d6e16e6307ef5ae2a57a"}, {"bike_id": "7b0c1df65ad288d27962f2553c90e6d4", "type": "electric_scooter", "is_disabled": 0, "lat": 38.914181166666665, "rental_uris": {"ios": "https://dc.lft.to/lastmile_qr_scan", "android": "https://dc.lft.to/lastmile_qr_scan"}, "is_reserved": 0, "fusion_lon": 0.0, "fusion_lat": 0.0, "lon": -77.01799666666666, "name": "7b0c1df65ad288d27962f2553c90e6d4"}, {"bike_id": "23d72504152071864f5229d08ef1fae5", "type": "electric_scooter", "is_disabled": 0, "lat": 38.9398175, "rental_uris": {"ios": "https://dc.lft.to/lastmile_qr_scan", "android": "https://dc.lft.to/lastmile_qr_scan"}, "is_reserved": 0, "fusion_lon": 0.0, "fusion_lat": 0.0, "lon": -77.03141533333333, "name": "23d72504152071864f5229d08ef1fae5"}, {"bike_id": "f20a9bc7d994532b55de8beb1c70724d", "type": "electric_scooter", "is_disabled": 0, "lat": 38.90509483333334, "rental_uris": {"ios": "https://dc.lft.to/lastmile_qr_scan", "android": "https://dc.lft.to/lastmile_qr_scan"}, "is_reserved": 0, "fusion_lon": 0.0, "fusion_lat": 0.0, "lon": -77.06736616666667, "name": "f20a9bc7d994532b55de8beb1c70724d"}, {"bike_id": "0a5c5d7838b9ec9eecb66d61d587accb", "type": "electric_scooter", "is_disabled": 0, "lat": 38.934621666666665, "rental_uris": {"ios": "https://dc.lft.to/lastmile_qr_scan", "android": "https://dc.lft.to/lastmile_qr_scan"}, "is_reserved": 0, "fusion_lon": 0.0, "fusion_lat": 0.0, "lon": -76.96441883333334, "name": "0a5c5d7838b9ec9eecb66d61d587accb"}, {"bike_id": "cc910bc5732e365ea6bdb99917e2a64e", "type": "electric_scooter", "is_disabled": 0, "lat": 38.91917683333333, "rental_uris": {"ios": "https://dc.lft.to/lastmile_qr_scan", "android": "https://dc.lft.to/lastmile_qr_scan"}, "is_reserved": 0, "fusion_lon": 0.0, "fusion_lat": 0.0, "lon": -77.03362033333333, "name": "cc910bc5732e365ea6bdb99917e2a64e"},