{"data": {"bikes": [{"lon": -77.0238825, "bike_id": "e34b9e8624355a5c05f7ee9371dacba5", "lat": 38.917105666666664, "fusion_lon": 0.0, "fusion_lat": 0.0, "type": "electric_scooter", "name": "e34b9e8624355a5c05f7ee9371dacba5", "is_disabled": 0, "rental_uris": {"ios": "https://dc.lft.to/lastmile_qr_scan", "android": "https://dc.lft.to/lastmile_qr_scan"}, "is_reserved": 0}, {"lon": -76.99032766666667, "bike_id": "eda2b049e5551c0300c4b33bfa1c83d4", "lat": 38.8985395, "fusion_lon": 0.0, "fusion_lat": 0.0, "type": "electric_scooter", "name": "eda2b049e5551c0300c4b33bfa1c83d4", "is_disabled": 0, "rental_uris": {"ios": "https://dc.lft.to/lastmile_qr_scan", "android": "https://dc.lft.to/lastmile_qr_scan"}, "is_reserved": 0}, {"lon": -77.0377355, "bike_id": "c48ef5cd83be15fe5759fd61aa8127d6", "lat": 38.92568766666667, "fusion_lon": 0.0, "fusion_lat": 0.0, "type": "electric_scooter", "name": "c48ef5cd83be15fe5759fd61aa8127d6", "is_disabled": 0, "rental_uris": {"ios": "https://dc.lft.to/lastmile_qr_scan", "android": "https://dc.lft.to/lastmile_qr_scan"}, "is_reserved": 0}, {"lon": -76.9792455, "bike_id": "71facb67b41a067b07a0be72476221d1", "lat": 38.905068666666665, "fusion_lon": 0.0, "fusion_lat": 0.0, "type": "electric_scooter", "name": "71facb67b41a067b07a0be72476221d1", "is_disabled": 0, "rental_uris": {"ios": "https://dc.lft.to/lastmile_qr_scan", "android": "https://dc.lft.to/lastmile_qr_scan"}, "is_reserved": 0}, {"lon": -76.99366466666666, "bike_id": "37d7a78500564ddc294a8b74bb47f764", "lat": 38.879795666666666, "fusion_lon": 0.0, "fusion_lat": 0.0, "type": "electric_scooter", "name": "37d7a78500564ddc294a8b74bb47f764", "is_disabled": 0, "rental_uris": {"ios": "https://dc.lft.to/lastmile_qr_scan", "android": "https://dc.lft.to/lastmile_qr_scan"}, "is_reserved": 0}, {"lon": -76.99003066666667, "bike_id": "2776cab9f9bf9ff616ff770ffd3234b4", "lat": 38.86509133333333, "fusion_lon": 0.0, "fusion_lat": 0.0, "type": "electric_scooter", "name": "2776cab9f9bf9ff616ff770ffd3234b4", "is_disabled": 0, "rental_uris": {"ios": "https://dc.lft.to/lastmile_qr_scan", "android": "https://dc.lft.to/lastmile_qr_scan"}, "is_reserved": 0}, {"lon": -77.09866666666667, "bike_id": "35355f8034379326ccd37140d5d57cf6", "lat": 38.949667833333336, "fusion_lon": 0.0, "fusion_lat": 0.0, "type": "electric_scooter", "name": "35355f8034379326ccd37140d5d57cf6", "is_disabled": 0, "rental_uris": {"ios": "https://dc.lft.to/lastmile_qr_scan", "android": "https://dc.lft.to/lastmile_qr_scan"}, "is_reserved": 0}, {"lon": -77.027162, "bike_id": "30c3ed39d84b803c2f7152c54c119888", "lat": 38.897196, "fusion_lon": 0.0, "fusion_lat": 0.0, "type": "electric_scooter", "name": "30c3ed39d84b803c2f7152c54c119888", "is_disabled": 0, "rental_uris": {"ios": "https://dc.lft.to/lastmile_qr_scan", "android": "https://dc.lft.to/lastmile_qr_scan"}, "is_reserved": 0}, {"lon": -77.03743466666667, "bike_id": "360e5ea3e9394e10b4fe99811dae049c", "lat": 38.91810016666667, "fusion_lon": 0.0, "fusion_lat": 0.0, "type": "electric_scooter", "name": "360e5ea3e9394e10b4fe99811dae049c", "is_disabled": 0, "rental_uris": {"ios": "https://dc.lft.to/lastmile_qr_scan", "android": "https://dc.lft.to/lastmile_qr_scan"}, "is_reserved": 0}, {"lon": -77.01310833333334, "bike_id": "cd708ef0d8d29898c633549ed4471910", "lat": 38.871414, "fusion_lon": 0.0, "fusion_lat": 0.0, "type": "electric_scooter", "name": "cd708ef0d8d29898c633549ed4471910", "is_disabled": 0, "rental_uris": {"ios": "https://dc.lft.to/lastmile_qr_scan", "android": "https://dc.lft.to/lastmile_qr_scan"}, "is_reserved": 0}, {"lon": -76.994542, "bike_id": "8abbdaa8e74f1485e23d8a64013a5e62", "lat": 38.966185, "fusion_lon": 0.0, "fusion_lat": 0.0, "type": "electric_bike", "name": "8abbdaa8e74f1485e23d8a64013a5e62", "is_disabled": 0, "rental_uris": {"ios": "https://dc.lft.to/lastmile_qr_scan", "android": "https://dc.lft.to/lastmile_qr_scan"}, "is_reserved": 0}, {"lon": -77.01143066666667, "bike_id": "81e286f1103c2f07b17f18220ef6e6f0", "lat": 38.899998833333335, "fusion_lon": 0.0, "fusion_lat": 0.0, "type": "electric_scooter", "name": "81e286f1103c2f07b17f18220ef6e6f0", "is_disabled": 0, "rental_uris": {"ios": "https://dc.lft.to/lastmile_qr_scan", "android": "https://dc.lft.to/lastmile_qr_scan"}, "is_reserved": 0}, {"lon": -77.06518283333334, "bike_id": "e012a57c8284b20371823cceda4fef2c", "lat": 38.903958, "fusion_lon": 0.0, "fusion_lat": 0.0, "type": "electric_scooter", "name": "e012a57c8284b20371823cceda4fef2c", "is_disabled": 0, "rental_uris": {"ios": "https://dc.lft.to/lastmile_qr_scan", "android": "https://dc.lft.to/lastmile_qr_scan"}, "is_reserved": 0}, {"lon": -76.99083316666666, "bike_id": "9df39f400e1131e9451b8c3630987e5d", "lat": 38.862370166666665, "fusion_lon": 0.0, "fusion_lat": 0.0, "type": "electric_bike", "name": "9df39f400e1131e9451b8c3630987e5d", "is_disabled": 0, "rental_uris": {"ios": "https://dc.lft.to/lastmile_qr_scan", "android": "https://dc.lft.to/lastmile_qr_scan"}, "is_reserved": 0}, {"lon": -77.01288016666666, "bike_id": "9fc812a4ff39ba56b5a6d6ccdff2f6be", "lat": 38.9201895, "fusion_lon": 0.0, "fusion_lat": 0.0, "type": "electric_scooter", "name": "9fc812a4ff39ba56b5a6d6ccdff2f6be", "is_disabled": 0, "rental_uris": {"ios": "https://dc.lft.to/lastmile_qr_scan", "android": "https://dc.lft.to/lastmile_qr_scan"}, "is_reserved": 0}, {"lon": -77.04864366666666, "bike_id": "ab0fe575eab6e92271bc02ff524a6f66", "lat": 38.892228, "fusion_lon": 0.0, "fusion_lat": 0.0, "type": "electric_scooter", "name": "ab0fe575eab6e92271bc02ff524a6f66", "is_disabled": 0, "rental_uris": {"ios": "https://dc.lft.to/lastmile_qr_scan", "android": "https://dc.lft.to/lastmile_qr_scan"}, "is_reserved": 0}, {"lon": -77.02615366666667, "bike_id": "04ad378c7de36cc22f4cc4ecb8fbadb2", "lat": 38.929149833333334, "fusion_lon": 0.0, "fusion_lat": 0.0, "type": "electric_scooter", "name": "04ad378c7de36cc22f4cc4ecb8fbadb2", "is_disabled": 0, "rental_uris": {"ios": "https://dc.lft.to/lastmile_qr_scan", "android": "https://dc.lft.to/lastmile_qr_scan"}, "is_reserved": 0}, {"lon": -77.08072616666666, "bike_id": "6613b3b84fcb6cc52cdfa93b88cedd50", "lat": 39.05277533333334, "fusion_lon": 0.0, "fusion_lat": 0.0, "type": "electric_bike", "name": "6613b3b84fcb6cc52cdfa93b88cedd50", "is_disabled": 0, "rental_uris": {"ios": "https://dc.lft.to/lastmile_qr_scan", "android": "https://dc.lft.to/lastmile_qr_scan"}, "is_reserved": 0}, {"lon": -76.99019516666667, "bike_id": "17301032651d8557855531d180864835", "lat": 38.86644, "fusion_lon": 0.0, "fusion_lat": 0.0, "type": "electric_scooter", "name": "17301032651d8557855531d180864835", "is_disabled": 0, "rental_uris": {"ios": "https://dc.lft.to/lastmile_qr_scan", "android": "https://dc.lft.to/lastmile_qr_scan"}, "is_reserved": 0}, {"lon": -77.01941283333333, "bike_id": "43b9f4dd8a7ff59e2eeceacee06ee5e7", "lat": 38.935266666666664, "fusion_lon": 0.0, "fusion_lat": 0.0, "type": "electric_scooter", "name": "43b9f4dd8a7ff59e2eeceacee06ee5e7", "is_disabled": 0, "rental_uris": {"ios": "https://dc.lft.to/lastmile_qr_scan", "android": "https://dc.lft.to/lastmile_qr_scan"}, "is_reserved": 0}, {"lon": -76.99531883333333, "bike_id": "a47702567c2fdfa47df52f8e0754d4f3", "lat": 38.883746333333335, "fusion_lon": 0.0, "fusion_lat": 0.0, "type": "electric_scooter", "name": "a47702567c2fdfa47df52f8e0754d4f3", "is_disabled": 0, "rental_uris": {"ios": "https://dc.lft.to/lastmile_qr_scan", "android": "https://dc.lft.to/lastmile_qr_scan"}, "is_reserved": 0}, {"lon": -77.03210616666667, "bike_id": "0900134e2256eb6f8bdacacba830c4fd", "lat": 38.908263, "fusion_lon": 0.0, "fusion_lat": 0.0, "type": "electric_scooter", "name": "0900134e2256eb6f8bdacacba830c4fd", "is_disabled": 0, "rental_uris": {"ios": "https://dc.lft.to/lastmile_qr_scan", "android": "https://dc.lft.to/lastmile_qr_scan"}, "is_reserved": 0}, {"lon": -77.0019835, "bike_id": "774e68404b0beba76d28ae7eaa96863c", "lat": 38.90035833333334, "fusion_lon": 0.0, "fusion_lat": 0.0, "type": "electric_scooter", "name": "774e68404b0beba76d28ae7eaa96863c", "is_disabled": 0, "rental_uris": {"ios": "https://dc.lft.to/lastmile_qr_scan", "android": "https://dc.lft.to/lastmile_qr_scan"}, "is_reserved": 0}, {"lon": -76.9747725, "bike_id": "60537cd084f579caf65dde36bf92eb32", "lat": 38.90348433333333, "fusion_lon": 0.0, "fusion_lat": 0.0, "type": "electric_scooter", "name": "60537cd084f579caf65dde36bf92eb32", "is_disabled": 0, "rental_uris": {"ios": "https://dc.lft.to/lastmile_qr_scan", "android": "https://dc.lft.to/lastmile_qr_scan"}, "is_reserved": 0}, {"lon": -77.05583516666667, "bike_id": "34b69f5089517fed3755147bc60e5e6e", "lat": 38.89312066666667, "fusion_lon": 0.0, "fusion_lat": 0.0, "type": "electric_scooter", "name": "34b69f5089517fed3755147bc60e5e6e", "is_disabled": 0, "rental_uris": {"ios": "https://dc.lft.to/lastmile_qr_scan", "android": "https://dc.lft.to/lastmile_qr_scan"}, "is_reserved": 0}, {"lon": -77.00696683333334, "bike_id": "fe9e9e3bb3246b3fe0151a5ea13b9cd9", "lat": 38.9060835, "fusion_lon": 0.0, "fusion_lat": 0.0, "type": "electric_scooter", "name": "fe9e9e3bb3246b3fe0151a5ea13b9cd9", "is_disabled": 0, "rental_uris": {"ios": "https://dc.lft.to/lastmile_qr_scan", "android": "https://dc.lft.to/lastmile_qr_scan"}, "is_reserved": 0}, {"lon": -77.04475283333333, "bike_id": "2ac4aa22c1c9ebc24b40ebc1fb20d916", "lat": 38.907249166666666, "fusion_lon": 0.0, "fusion_lat": 0.0, "type": "electric_scooter", "name": "2ac4aa22c1c9ebc24b40ebc1fb20d916", "is_disabled": 0, "rental_uris": {"ios": "https://dc.lft.to/lastmile_qr_scan", "android": "https://dc.lft.to/lastmile_qr_scan"}, "is_reserved": 0}, {"lon": -77.0033305, "bike_id": "ce27a9239b86ed7d332e41eb612786cb", "lat": 38.891892666666664, "fusion_lon": 0.0, "fusion_lat": 0.0, "type": "electric_scooter", "name": "ce27a9239b86ed7d332e41eb612786cb", "is_disabled": 0, "rental_uris": {"ios": "https://dc.lft.to/lastmile_qr_scan", "android": "https://dc.lft.to/lastmile_qr_scan"}, "is_reserved": 0}, {"lon": -77.0462995, "bike_id": "954015b5a846dbcb71c4ae1f2246c89a", "lat": 38.91568216666667, "fusion_lon": 0.0, "fusion_lat": 0.0, "type": "electric_scooter", "name": "954015b5a846dbcb71c4ae1f2246c89a", "is_disabled": 0, "rental_uris": {"ios": "https://dc.lft.to/lastmile_qr_scan", "android": "https://dc.lft.to/lastmile_qr_scan"}, "is_reserved": 0}, {"lon": -77.05212683333333, "bike_id": "33d3e0370683161d232a594b884c60e4", "lat": 38.900749833333336, "fusion_lon": 0.0, "fusion_lat": 0.0, "type": "electric_scooter", "name": "33d3e0370683161d232a594b884c60e4", "is_disabled": 0, "rental_uris": {"ios": "https://dc.lft.to/lastmile_qr_scan", "android": "https://dc.lft.to/lastmile_qr_scan"}, "is_reserved": 0}, {"lon": -77.04657433333334, "bike_id": "c7606a601c29892ebbeb51288ab8e271", "lat": 38.9055915, "fusion_lon": 0.0, "fusion_lat": 0.0, "type": "electric_scooter", "name": "c7606a601c29892ebbeb51288ab8e271", "is_disabled": 0, "rental_uris": {"ios": "https://dc.lft.to/lastmile_qr_scan", "android": "https://dc.lft.to/lastmile_qr_scan"}, "is_reserved": 0}, {"lon": -77.002022, "bike_id": "91e1dedefa5f292a7167e3580e3a2871", "lat": 38.902409, "fusion_lon": 0.0, "fusion_lat": 0.0, "type": "electric_scooter", "name": "91e1dedefa5f292a7167e3580e3a2871", "is_disabled": 0, "rental_uris": {"ios": "https://dc.lft.to/lastmile_qr_scan", "android": "https://dc.lft.to/lastmile_qr_scan"}, "is_reserved": 0}, {"lon": -77.03238366666666, "bike_id": "982fc03ef6701d7af673fae1a1171c33", "lat": 38.92872916666666, "fusion_lon": 0.0, "fusion_lat": 0.0, "type": "electric_scooter", "name": "982fc03ef6701d7af673fae1a1171c33", "is_disabled": 0, "rental_uris": {"ios": "https://dc.lft.to/lastmile_qr_scan", "android": "https://dc.lft.to/lastmile_qr_scan"}, "is_reserved": 0}, {"lon": -77.03765133333333, "bike_id": "f469fcff088fba2846ba058e1d3a6186", "lat": 38.924752833333336, "fusion_lon": 0.0, "fusion_lat": 0.0, "type": "electric_scooter", "name": "f469fcff088fba2846ba058e1d3a6186", "is_disabled": 0, "rental_uris": {"ios": "https://dc.lft.to/lastmile_qr_scan", "android": "https://dc.lft.to/lastmile_qr_scan"}, "is_reserved": 0}, {"lon": -76.995449, "bike_id": "8e80e35b3138aeac8e921927af4bc31f", "lat": 38.9266905, "fusion_lon": 0.0, "fusion_lat": 0.0, "type": "electric_scooter", "name": "8e80e35b3138aeac8e921927af4bc31f", "is_disabled": 0, "rental_uris": {"ios": "https://dc.lft.to/lastmile_qr_scan", "android": "https://dc.lft.to/lastmile_qr_scan"}, "is_reserved": 0}, {"lon": -77.0211655, "bike_id": "a07416cd075a20fb1506cbe6faa2cb48", "lat": 38.93702483333333, "fusion_lon": 0.0, "fusion_lat": 0.0, "type": "electric_scooter", "name": "a07416cd075a20fb1506cbe6faa2cb48", "is_disabled": 0, "rental_uris": {"ios": "https://dc.lft.to/lastmile_qr_scan", "android": "https://dc.lft.to/lastmile_qr_scan"}, "is_reserved": 0}, {"lon": -77.0240275, "bike_id": "35044ab512b304481288873e71541a1c", "lat": 38.9199345, "fusion_lon": 0.0, "fusion_lat": 0.0, "type": "electric_scooter", "name": "35044ab512b304481288873e71541a1c", "is_disabled": 0, "rental_uris": {"ios": "https://dc.lft.to/lastmile_qr_scan", "android": "https://dc.lft.to/lastmile_qr_scan"}, "is_reserved": 0}, {"lon": -77.04676683333334, "bike_id": "48c7e28b567e4d00e37e79f241653e9f", "lat": 38.90720783333333, "fusion_lon": 0.0, "fusion_lat": 0.0, "type": "electric_scooter", "name": "48c7e28b567e4d00e37e79f241653e9f", "is_disabled": 0, "rental_uris": {"ios": "https://dc.lft.to/lastmile_qr_scan", "android": "https://dc.lft.to/lastmile_qr_scan"}, "is_reserved": 0}, {"lon": -77.03262066666667, "bike_id": "c7ed7d22d08e53302a78e89d39293131", "lat": 38.93776116666667, "fusion_lon": 0.0, "fusion_lat": 0.0, "type": "electric_scooter", "name": "c7ed7d22d08e53302a78e89d39293131", "is_disabled": 0, "rental_uris": {"ios": "https://dc.lft.to/lastmile_qr_scan", "android": "https://dc.lft.to/lastmile_qr_scan"}, "is_reserved": 0}, {"lon": -77.03581283333334, "bike_id": "64f06bba419472cc8e945f421b599c8d", "lat": 38.91041466666667, "fusion_lon": 0.0, "fusion_lat": 0.0, "type": "electric_scooter", "name": "64f06bba419472cc8e945f421b599c8d", "is_disabled": 0, "rental_uris": {"ios": "https://dc.lft.to/lastmile_qr_scan", "android": "https://dc.lft.to/lastmile_qr_scan"}, "is_reserved": 0}, {"lon": -77.04226616666666, "bike_id": "597c0705e064e250d1555f634e3e888c", "lat": 38.91348433333334, "fusion_lon": 0.0, "fusion_lat": 0.0, "type": "electric_scooter", "name": "597c0705e064e250d1555f634e3e888c", "is_disabled": 0, "rental_uris": {"ios": "https://dc.lft.to/lastmile_qr_scan", "android": "https://dc.lft.to/lastmile_qr_scan"}, "is_reserved": 0}, {"lon": -77.03325016666666, "bike_id": "210b1462f6b6d38948e9d14f160a8d9c", "lat": 38.947151833333336, "fusion_lon": 0.0, "fusion_lat": 0.0, "type": "electric_scooter", "name": "210b1462f6b6d38948e9d14f160a8d9c", "is_disabled": 0, "rental_uris": {"ios": "https://dc.lft.to/lastmile_qr_scan", "android": "https://dc.lft.to/lastmile_qr_scan"}, "is_reserved": 0}, {"lon": -76.99292966666667, "bike_id": "d6e90dfd2fccbedbc09bec89ccad49ef", "lat": 38.898876666666666, "fusion_lon": 0.0, "fusion_lat": 0.0, "type": "electric_scooter", "name": "d6e90dfd2fccbedbc09bec89ccad49ef", "is_disabled": 0, "rental_uris": {"ios": "https://dc.lft.to/lastmile_qr_scan", "android": "https://dc.lft.to/lastmile_qr_scan"}, "is_reserved": 0}, {"lon": -77.0320455, "bike_id": "3bf9c79a8a277f35f271c1ff7326bf3a", "lat": 38.927902, "fusion_lon": 0.0, "fusion_lat": 0.0, "type": "electric_scooter", "name": "3bf9c79a8a277f35f271c1ff7326bf3a", "is_disabled": 0, "rental_uris": {"ios": "https://dc.lft.to/lastmile_qr_scan", "android": "https://dc.lft.to/lastmile_qr_scan"}, "is_reserved": 0}, {"lon": -77.02758016666667, "bike_id": "28547886be5fceba6140e45b1d416830", "lat": 38.933461666666666, "fusion_lon": 0.0, "fusion_lat": 0.0, "type": "electric_scooter", "name": "28547886be5fceba6140e45b1d416830", "is_disabled": 0, "rental_uris": {"ios": "https://dc.lft.to/lastmile_qr_scan", "android": "https://dc.lft.to/lastmile_qr_scan"}, "is_reserved": 0}, {"lon": -77.04179933333333, "bike_id": "34373a258166ceac3dafc0e9c7a025e2", "lat": 38.9055445, "fusion_lon": 0.0, "fusion_lat": 0.0, "type": "electric_scooter", "name": "34373a258166ceac3dafc0e9c7a025e2", "is_disabled": 0, "rental_uris": {"ios": "https://dc.lft.to/lastmile_qr_scan", "android": "https://dc.lft.to/lastmile_qr_scan"}, "is_reserved": 0}, {"lon": -77.0376495, "bike_id": "983c1567c36aa63a0adf34ccc3192539", "lat": 38.9201115, "fusion_lon": 0.0, "fusion_lat": 0.0, "type": "electric_scooter", "name": "983c1567c36aa63a0adf34ccc3192539", "is_disabled": 0, "rental_uris": {"ios": "https://dc.lft.to/lastmile_qr_scan", "android": "https://dc.lft.to/lastmile_qr_scan"}, "is_reserved": 0}, {"lon": -76.98379883333334, "bike_id": "57785831c50004774ba737a481538f40", "lat": 38.89606116666667, "fusion_lon": 0.0, "fusion_lat": 0.0, "type": "electric_scooter", "name": "57785831c50004774ba737a481538f40", "is_disabled": 0, "rental_uris": {"ios": "https://dc.lft.to/lastmile_qr_scan", "android": "https://dc.lft.to/lastmile_qr_scan"}, "is_reserved": 0}, {"lon": -77.01779933333333, "bike_id": "d938fda91ca46b62bb88a86f7bd25e11", "lat": 38.9050035, "fusion_lon": 0.0, "fusion_lat": 0.0, "type": "electric_scooter", "name": "d938fda91ca46b62bb88a86f7bd25e11", "is_disabled": 0, "rental_uris": {"ios": "https://dc.lft.to/lastmile_qr_scan", "android": "https://dc.lft.to/lastmile_qr_scan"}, "is_reserved": 0}, {"lon": -77.021692, "bike_id": "f588e525dba36f4cf80ffbe3fd5f24fa", "lat": 38.929973, "fusion_lon": 0.0, "fusion_lat": 0.0, "type": "electric_scooter", "name": "f588e525dba36f4cf80ffbe3fd5f24fa", "is_disabled": 0, "rental_uris": {"ios": "https://dc.lft.to/lastmile_qr_scan", "android": "https://dc.lft.to/lastmile_qr_scan"}, "is_reserved": 0}, {"lon": -77.0354695, "bike_id": "6280ae682f293ae53d64677f3a542f7a", "lat": 38.925715833333335, "fusion_lon": 0.0, "fusion_lat": 0.0, "type": "electric_scooter", "name": "6280ae682f293ae53d64677f3a542f7a", "is_disabled": 0, "rental_uris": {"ios": "https://dc.lft.to/lastmile_qr_scan", "android": "https://dc.lft.to/lastmile_qr_scan"}, "is_reserved": 0}, {"lon": -77.032645, "bike_id": "75a6f92fea6312eaed71d0c327deae4f", "lat": 38.93240766666667, "fusion_lon": 0.0, "fusion_lat": 0.0, "type": "electric_scooter", "name": "75a6f92fea6312eaed71d0c327deae4f", "is_disabled": 0, "rental_uris": {"ios": "https://dc.lft.to/lastmile_qr_scan", "android": "https://dc.lft.to/lastmile_qr_scan"}, "is_reserved": 0}, {"lon": -77.036733, "bike_id": "ff797b03f636f19b69efb39317264a99", "lat": 38.902914333333335, "fusion_lon": 0.0, "fusion_lat": 0.0, "type": "electric_scooter", "name": "ff797b03f636f19b69efb39317264a99", "is_disabled": 0, "rental_uris": {"ios": "https://dc.lft.to/lastmile_qr_scan", "android": "https://dc.lft.to/lastmile_qr_scan"}, "is_reserved": 0}, {"lon": -76.96910033333333, "bike_id": "d4cb6e582e5a437198d20afab0d3391d", "lat": 38.846099333333335, "fusion_lon": 0.0, "fusion_lat": 0.0, "type": "electric_bike", "name": "d4cb6e582e5a437198d20afab0d3391d", "is_disabled": 0, "rental_uris": {"ios": "https://dc.lft.to/lastmile_qr_scan", "android": "https://dc.lft.to/lastmile_qr_scan"}, "is_reserved": 0}, {"lon": -77.032581, "bike_id": "1bbdd95a6f8f70730647122c5ebe6869", "lat": 38.93201466666667, "fusion_lon": 0.0, "fusion_lat": 0.0, "type": "electric_scooter", "name": "1bbdd95a6f8f70730647122c5ebe6869", "is_disabled": 0, "rental_uris": {"ios": "https://dc.lft.to/lastmile_qr_scan", "android": "https://dc.lft.to/lastmile_qr_scan"}, "is_reserved": 0}, {"lon": -77.01633333333334, "bike_id": "d0c4901914c95366fab700b03dfa90ab", "lat": 38.90691416666667, "fusion_lon": 0.0, "fusion_lat": 0.0, "type": "electric_scooter", "name": "d0c4901914c95366fab700b03dfa90ab", "is_disabled": 0, "rental_uris": {"ios": "https://dc.lft.to/lastmile_qr_scan", "android": "https://dc.lft.to/lastmile_qr_scan"}, "is_reserved": 0}, {"lon": -77.02269866666667, "bike_id": "42e57ff04f6f890acbcf4d888ff34464", "lat": 38.912737, "fusion_lon": 0.0, "fusion_lat": 0.0, "type": "electric_scooter", "name": "42e57ff04f6f890acbcf4d888ff34464", "is_disabled": 0, "rental_uris": {"ios": "https://dc.lft.to/lastmile_qr_scan", "android": "https://dc.lft.to/lastmile_qr_scan"}, "is_reserved": 0}, {"lon": -77.02657383333333, "bike_id": "f28a8442ba50f7d739d1ad541b22aa23", "lat": 38.9257675, "fusion_lon": 0.0, "fusion_lat": 0.0, "type": "electric_scooter", "name": "f28a8442ba50f7d739d1ad541b22aa23", "is_disabled": 0, "rental_uris": {"ios": "https://dc.lft.to/lastmile_qr_scan", "android": "https://dc.lft.to/lastmile_qr_scan"}, "is_reserved": 0}, {"lon": -77.03661133333334, "bike_id": "0ae9bdb2ccdaf274c0a5263f74ee9ac5", "lat": 38.912471333333336, "fusion_lon": 0.0, "fusion_lat": 0.0, "type": "electric_scooter", "name": "0ae9bdb2ccdaf274c0a5263f74ee9ac5", "is_disabled": 0, "rental_uris": {"ios": "https://dc.lft.to/lastmile_qr_scan", "android": "https://dc.lft.to/lastmile_qr_scan"}, "is_reserved": 0}, {"lon": -77.03222133333334, "bike_id": "1741e285cab27629926b0639b3aa654a", "lat": 38.90789316666667, "fusion_lon": 0.0, "fusion_lat": 0.0, "type": "electric_scooter", "name": "1741e285cab27629926b0639b3aa654a", "is_disabled": 0, "rental_uris": {"ios": "https://dc.lft.to/lastmile_qr_scan", "android": "https://dc.lft.to/lastmile_qr_scan"}, "is_reserved": 0}, {"lon": -76.99932916666667, "bike_id": "a047c83df583fdb3f754e85d9290fa93", "lat": 38.84313516666667, "fusion_lon": 0.0, "fusion_lat": 0.0, "type": "electric_scooter", "name": "a047c83df583fdb3f754e85d9290fa93", "is_disabled": 0, "rental_uris": {"ios": "https://dc.lft.to/lastmile_qr_scan", "android": "https://dc.lft.to/lastmile_qr_scan"}, "is_reserved": 0}, {"lon": -76.99068816666667, "bike_id": "09e892e62849a351ec1f93c9ab12cc9c", "lat": 38.9274785, "fusion_lon": 0.0, "fusion_lat": 0.0, "type": "electric_scooter", "name": "09e892e62849a351ec1f93c9ab12cc9c", "is_disabled": 0, "rental_uris": {"ios": "https://dc.lft.to/lastmile_qr_scan", "android": "https://dc.lft.to/lastmile_qr_scan"}, "is_reserved": 0}, {"lon": -76.99053633333334, "bike_id": "0061c4e3b4bc7449a71e2050cc637612", "lat": 38.863773, "fusion_lon": 0.0, "fusion_lat": 0.0, "type": "electric_scooter", "name": "0061c4e3b4bc7449a71e2050cc637612", "is_disabled": 0, "rental_uris": {"ios": "https://dc.lft.to/lastmile_qr_scan", "android": "https://dc.lft.to/lastmile_qr_scan"}, "is_reserved": 0}, {"lon": -77.11590466666667, "bike_id": "689f0eebe12262dba2fd408f82b4bfbc", "lat": 39.074939, "fusion_lon": 0.0, "fusion_lat": 0.0, "type": "electric_bike", "name": "689f0eebe12262dba2fd408f82b4bfbc", "is_disabled": 0, "rental_uris": {"ios": "https://dc.lft.to/lastmile_qr_scan", "android": "https://dc.lft.to/lastmile_qr_scan"}, "is_reserved": 0}, {"lon": -76.97826133333334, "bike_id": "6bd03af926833a378b8728bfbdd35d50", "lat": 38.84374316666667, "fusion_lon": 0.0, "fusion_lat": 0.0, "type": "electric_bike", "name": "6bd03af926833a378b8728bfbdd35d50", "is_disabled": 0, "rental_uris": {"ios": "https://dc.lft.to/lastmile_qr_scan", "android": "https://dc.lft.to/lastmile_qr_scan"}, "is_reserved": 0}, {"lon": -77.02978616666667, "bike_id": "80a5f5fe68a8c241b4919869ac2da22c", "lat": 38.935023, "fusion_lon": 0.0, "fusion_lat": 0.0, "type": "electric_scooter", "name": "80a5f5fe68a8c241b4919869ac2da22c", "is_disabled": 0, "rental_uris": {"ios": "https://dc.lft.to/lastmile_qr_scan", "android": "https://dc.lft.to/lastmile_qr_scan"}, "is_reserved": 0}, {"lon": -77.0229425, "bike_id": "cf4b9b797b0ab1c1fed55b0746435395", "lat": 38.90906916666667, "fusion_lon": 0.0, "fusion_lat": 0.0, "type": "electric_scooter", "name": "cf4b9b797b0ab1c1fed55b0746435395", "is_disabled": 0, "rental_uris": {"ios": "https://dc.lft.to/lastmile_qr_scan", "android": "https://dc.lft.to/lastmile_qr_scan"}, "is_reserved": 0}, {"lon": -77.08333933333333, "bike_id": "c89850108ba173396cf7dc562f83a144", "lat": 38.854405, "fusion_lon": 0.0, "fusion_lat": 0.0, "type": "electric_bike", "name": "c89850108ba173396cf7dc562f83a144", "is_disabled": 0, "rental_uris": {"ios": "https://dc.lft.to/lastmile_qr_scan", "android": "https://dc.lft.to/lastmile_qr_scan"}, "is_reserved": 0}, {"lon": -77.03522666666667, "bike_id": "ddf3b0a994af79a45cb27a581ca3587b", "lat": 38.92730016666667, "fusion_lon": 0.0, "fusion_lat": 0.0, "type": "electric_scooter", "name": "ddf3b0a994af79a45cb27a581ca3587b", "is_disabled": 0, "rental_uris": {"ios": "https://dc.lft.to/lastmile_qr_scan", "android": "https://dc.lft.to/lastmile_qr_scan"}, "is_reserved": 0}, {"lon": -77.026063, "bike_id": "2127227e1877559a7295774062631fac", "lat": 38.925829666666665, "fusion_lon": 0.0, "fusion_lat": 0.0, "type": "electric_scooter", "name": "2127227e1877559a7295774062631fac", "is_disabled": 0, "rental_uris": {"ios": "https://dc.lft.to/lastmile_qr_scan", "android": "https://dc.lft.to/lastmile_qr_scan"}, "is_reserved": 0}, {"lon": -77.02985, "bike_id": "6d256cefc2770719f8f35052c86d5e7d", "lat": 38.92909133333333, "fusion_lon": 0.0, "fusion_lat": 0.0, "type": "electric_scooter", "name": "6d256cefc2770719f8f35052c86d5e7d", "is_disabled": 0, "rental_uris": {"ios": "https://dc.lft.to/lastmile_qr_scan", "android": "https://dc.lft.to/lastmile_qr_scan"}, "is_reserved": 0}, {"lon": -77.03130216666666, "bike_id": "f87a2c4ae0ad3e65d521bd331890f2ca", "lat": 38.91764716666667, "fusion_lon": 0.0, "fusion_lat": 0.0, "type": "electric_scooter", "name": "f87a2c4ae0ad3e65d521bd331890f2ca", "is_disabled": 0, "rental_uris": {"ios": "https://dc.lft.to/lastmile_qr_scan", "android": "https://dc.lft.to/lastmile_qr_scan"}, "is_reserved": 0}, {"lon": -77.01186966666667, "bike_id": "0400ddf5ecc1a0c6dbdbceb87858f193", "lat": 38.9002145, "fusion_lon": 0.0, "fusion_lat": 0.0, "type": "electric_scooter", "name": "0400ddf5ecc1a0c6dbdbceb87858f193", "is_disabled": 0, "rental_uris": {"ios": "https://dc.lft.to/lastmile_qr_scan", "android": "https://dc.lft.to/lastmile_qr_scan"}, "is_reserved": 0}, {"lon": -77.01719333333334, "bike_id": "69640b591bd956e234e3364db984d794", "lat": 38.90563083333333, "fusion_lon": 0.0, "fusion_lat": 0.0, "type": "electric_scooter", "name": "69640b591bd956e234e3364db984d794", "is_disabled": 0, "rental_uris": {"ios": "https://dc.lft.to/lastmile_qr_scan", "android": "https://dc.lft.to/lastmile_qr_scan"}, "is_reserved": 0}, {"lon": -77.01818733333333, "bike_id": "472085f1034a67d54f15070e84f7f61f", "lat": 38.90071366666667, "fusion_lon": 0.0, "fusion_lat": 0.0, "type": "electric_scooter", "name": "472085f1034a67d54f15070e84f7f61f", "is_disabled": 0, "rental_uris": {"ios": "https://dc.lft.to/lastmile_qr_scan", "android": "https://dc.lft.to/lastmile_qr_scan"}, "is_reserved": 0}, {"lon": -77.03469033333333, "bike_id": "8bb0c00d865af4eb17463412fbaf1882", "lat": 38.90768083333333, "fusion_lon": 0.0, "fusion_lat": 0.0, "type": "electric_scooter", "name": "8bb0c00d865af4eb17463412fbaf1882", "is_disabled": 0, "rental_uris": {"ios": "https://dc.lft.to/lastmile_qr_scan", "android": "https://dc.lft.to/lastmile_qr_scan"}, "is_reserved": 0}, {"lon": -77.035873, "bike_id": "2c2b41870a3b66ece715b639cbc08f40", "lat": 38.99227033333333, "fusion_lon": 0.0, "fusion_lat": 0.0, "type": "electric_scooter", "name": "2c2b41870a3b66ece715b639cbc08f40", "is_disabled": 0, "rental_uris": {"ios": "https://dc.lft.to/lastmile_qr_scan", "android": "https://dc.lft.to/lastmile_qr_scan"}, "is_reserved": 0}, {"lon": -77.02036433333333, "bike_id": "74cf536a653b42b3c90c7c99a0b7b0b1", "lat": 38.908640166666665, "fusion_lon": 0.0, "fusion_lat": 0.0, "type": "electric_scooter", "name": "74cf536a653b42b3c90c7c99a0b7b0b1", "is_disabled": 0, "rental_uris": {"ios": "https://dc.lft.to/lastmile_qr_scan", "android": "https://dc.lft.to/lastmile_qr_scan"}, "is_reserved": 0}, {"lon": -77.00535383333333, "bike_id": "c0bdd45e99fd2a8d8635dd5ad06dacf9", "lat": 38.92978216666667, "fusion_lon": 0.0, "fusion_lat": 0.0, "type": "electric_scooter", "name": "c0bdd45e99fd2a8d8635dd5ad06dacf9", "is_disabled": 0, "rental_uris": {"ios": "https://dc.lft.to/lastmile_qr_scan", "android": "https://dc.lft.to/lastmile_qr_scan"}, "is_reserved": 0}, {"lon": -76.92622683333333, "bike_id": "f04019dd3a0459cfb3145c89daf3f606", "lat": 38.884568, "fusion_lon": 0.0, "fusion_lat": 0.0, "type": "electric_scooter", "name": "f04019dd3a0459cfb3145c89daf3f606", "is_disabled": 0, "rental_uris": {"ios": "https://dc.lft.to/lastmile_qr_scan", "android": "https://dc.lft.to/lastmile_qr_scan"}, "is_reserved": 0}, {"lon": -77.0226815, "bike_id": "65b8e60507467013043e8f4608f0244b", "lat": 38.9376115, "fusion_lon": 0.0, "fusion_lat": 0.0, "type": "electric_scooter", "name": "65b8e60507467013043e8f4608f0244b", "is_disabled": 0, "rental_uris": {"ios": "https://dc.lft.to/lastmile_qr_scan", "android": "https://dc.lft.to/lastmile_qr_scan"}, "is_reserved": 0}, {"lon": -77.0221115, "bike_id": "bf97ba5809f9767011a98aece7b25893", "lat": 38.89355583333333, "fusion_lon": 0.0, "fusion_lat": 0.0, "type": "electric_scooter", "name": "bf97ba5809f9767011a98aece7b25893", "is_disabled": 0, "rental_uris": {"ios": "https://dc.lft.to/lastmile_qr_scan", "android": "https://dc.lft.to/lastmile_qr_scan"}, "is_reserved": 0}, {"lon": -77.02805933333333, "bike_id": "24e9e11be37933e397eadd74bb2eae99", "lat": 38.9167945, "fusion_lon": 0.0, "fusion_lat": 0.0, "type": "electric_scooter", "name": "24e9e11be37933e397eadd74bb2eae99", "is_disabled": 0, "rental_uris": {"ios": "https://dc.lft.to/lastmile_qr_scan", "android": "https://dc.lft.to/lastmile_qr_scan"}, "is_reserved": 0}, {"lon": -77.05412466666667, "bike_id": "3d374ab55b2076bea4b3eeacd064d4e6", "lat": 38.950456, "fusion_lon": 0.0, "fusion_lat": 0.0, "type": "electric_scooter", "name": "3d374ab55b2076bea4b3eeacd064d4e6", "is_disabled": 0, "rental_uris": {"ios": "https://dc.lft.to/lastmile_qr_scan", "android": "https://dc.lft.to/lastmile_qr_scan"}, "is_reserved": 0}, {"lon": -76.97601016666667, "bike_id": "c1fcc0ec002e1e765e6bedb2ec3b6311", "lat": 38.905661, "fusion_lon": 0.0, "fusion_lat": 0.0, "type": "electric_scooter", "name": "c1fcc0ec002e1e765e6bedb2ec3b6311", "is_disabled": 0, "rental_uris": {"ios": "https://dc.lft.to/lastmile_qr_scan", "android": "https://dc.lft.to/lastmile_qr_scan"}, "is_reserved": 0}, {"lon": -77.014791, "bike_id": "75a85cfba4fb8158736152708f2cc255", "lat": 38.94068816666667, "fusion_lon": 0.0, "fusion_lat": 0.0, "type": "electric_bike", "name": "75a85cfba4fb8158736152708f2cc255", "is_disabled": 0, "rental_uris": {"ios": "https://dc.lft.to/lastmile_qr_scan", "android": "https://dc.lft.to/lastmile_qr_scan"}, "is_reserved": 0}, {"lon": -77.02940683333334, "bike_id": "81d05d97bed0fb5ed5cb1cdef1aca129", "lat": 38.8874495, "fusion_lon": 0.0, "fusion_lat": 0.0, "type": "electric_scooter", "name": "81d05d97bed0fb5ed5cb1cdef1aca129", "is_disabled": 0, "rental_uris": {"ios": "https://dc.lft.to/lastmile_qr_scan", "android": "https://dc.lft.to/lastmile_qr_scan"}, "is_reserved": 0}, {"lon": -77.032093, "bike_id": "9be87ae628d2c2fdfb8099fa4a26f006", "lat": 38.8841565, "fusion_lon": 0.0, "fusion_lat": 0.0, "type": "electric_scooter", "name": "9be87ae628d2c2fdfb8099fa4a26f006", "is_disabled": 0, "rental_uris": {"ios": "https://dc.lft.to/lastmile_qr_scan", "android": "https://dc.lft.to/lastmile_qr_scan"}, "is_reserved": 0}, {"lon": -76.9826795, "bike_id": "0937b9ba27710ed7e45cdf56bf9f01a3", "lat": 38.8853115, "fusion_lon": 0.0, "fusion_lat": 0.0, "type": "electric_scooter", "name": "0937b9ba27710ed7e45cdf56bf9f01a3", "is_disabled": 0, "rental_uris": {"ios": "https://dc.lft.to/lastmile_qr_scan", "android": "https://dc.lft.to/lastmile_qr_scan"}, "is_reserved": 0}, {"lon": -77.02976833333334, "bike_id": "49f67003c5405565ef6ae37b7a205de1", "lat": 38.9393205, "fusion_lon": 0.0, "fusion_lat": 0.0, "type": "electric_scooter", "name": "49f67003c5405565ef6ae37b7a205de1", "is_disabled": 0, "rental_uris": {"ios": "https://dc.lft.to/lastmile_qr_scan", "android": "https://dc.lft.to/lastmile_qr_scan"}, "is_reserved": 0}, {"lon": -76.98341733333334, "bike_id": "0e917760141614e6a0b6b1652e49ce52", "lat": 38.90097466666667, "fusion_lon": 0.0, "fusion_lat": 0.0, "type": "electric_scooter", "name": "0e917760141614e6a0b6b1652e49ce52", "is_disabled": 0, "rental_uris": {"ios": "https://dc.lft.to/lastmile_qr_scan", "android": "https://dc.lft.to/lastmile_qr_scan"}, "is_reserved": 0}, {"lon": -77.00206116666666, "bike_id": "87d18a7015e625434ddcb402919494b8", "lat": 38.89545233333333, "fusion_lon": 0.0, "fusion_lat": 0.0, "type": "electric_scooter", "name": "87d18a7015e625434ddcb402919494b8", "is_disabled": 0, "rental_uris": {"ios": "https://dc.lft.to/lastmile_qr_scan", "android": "https://dc.lft.to/lastmile_qr_scan"}, "is_reserved": 0}, {"lon": -77.03659816666666, "bike_id": "3acfc0a1bceda6dd40f49154053ea6b3", "lat": 38.92989733333334, "fusion_lon": 0.0, "fusion_lat": 0.0, "type": "electric_scooter", "name": "3acfc0a1bceda6dd40f49154053ea6b3", "is_disabled": 0, "rental_uris": {"ios": "https://dc.lft.to/lastmile_qr_scan", "android": "https://dc.lft.to/lastmile_qr_scan"}, "is_reserved": 0}, {"lon": -76.99852166666666, "bike_id": "de95591253a12dee93473c3d8327ba07", "lat": 38.90101583333333, "fusion_lon": 0.0, "fusion_lat": 0.0, "type": "electric_scooter", "name": "de95591253a12dee93473c3d8327ba07", "is_disabled": 0, "rental_uris": {"ios": "https://dc.lft.to/lastmile_qr_scan", "android": "https://dc.lft.to/lastmile_qr_scan"}, "is_reserved": 0}, {"lon": -77.02616116666667, "bike_id": "e687aa5d665dada5ae14fec4b0b209fa", "lat": 38.90024016666667, "fusion_lon": 0.0, "fusion_lat": 0.0, "type": "electric_scooter", "name": "e687aa5d665dada5ae14fec4b0b209fa", "is_disabled": 0, "rental_uris": {"ios": "https://dc.lft.to/lastmile_qr_scan", "android": "https://dc.lft.to/lastmile_qr_scan"}, "is_reserved": 0}, {"lon": -77.049818, "bike_id": "2f1b52beffd7feef50cbee34906431b6", "lat": 39.06296433333333, "fusion_lon": 0.0, "fusion_lat": 0.0, "type": "electric_bike", "name": "2f1b52beffd7feef50cbee34906431b6", "is_disabled": 0, "rental_uris": {"ios": "https://dc.lft.to/lastmile_qr_scan", "android": "https://dc.lft.to/lastmile_qr_scan"}, "is_reserved": 0}, {"lon": -77.05141216666667, "bike_id": "e240904fdddaeb9e5244776813bddb4c", "lat": 38.898644166666664, "fusion_lon": 0.0, "fusion_lat": 0.0, "type": "electric_scooter", "name": "e240904fdddaeb9e5244776813bddb4c", "is_disabled": 0, "rental_uris": {"ios": "https://dc.lft.to/lastmile_qr_scan", "android": "https://dc.lft.to/lastmile_qr_scan"}, "is_reserved": 0}, {"lon": -77.07660783333333, "bike_id": "93d36e5fb886f20eb0f7c37e23d091d9", "lat": 38.86262416666667, "fusion_lon": 0.0, "fusion_lat": 0.0, "type": "electric_bike", "name": "93d36e5fb886f20eb0f7c37e23d091d9", "is_disabled": 0, "rental_uris": {"ios": "https://dc.lft.to/lastmile_qr_scan", "android": "https://dc.lft.to/lastmile_qr_scan"}, "is_reserved": 0}, {"lon": -77.0243965, "bike_id": "a8c0856a6a79d3765fa230c55fbf0b93", "lat": 38.92261833333333, "fusion_lon": 0.0, "fusion_lat": 0.0, "type": "electric_scooter", "name": "a8c0856a6a79d3765fa230c55fbf0b93", "is_disabled": 0, "rental_uris": {"ios": "https://dc.lft.to/lastmile_qr_scan", "android": "https://dc.lft.to/lastmile_qr_scan"}, "is_reserved": 0}, {"lon": -76.99009416666667, "bike_id": "3164968cb2973a59d376b77a0b13cb67", "lat": 38.94602316666667, "fusion_lon": 0.0, "fusion_lat": 0.0, "type": "electric_scooter", "name": "3164968cb2973a59d376b77a0b13cb67", "is_disabled": 0, "rental_uris": {"ios": "https://dc.lft.to/lastmile_qr_scan", "android": "https://dc.lft.to/lastmile_qr_scan"}, "is_reserved": 0}, {"lon": -77.03866916666666, "bike_id": "0bac6286b29268742c3a008e3bd89650", "lat": 38.92011683333333, "fusion_lon": 0.0, "fusion_lat": 0.0, "type": "electric_scooter", "name": "0bac6286b29268742c3a008e3bd89650", "is_disabled": 0, "rental_uris": {"ios": "https://dc.lft.to/lastmile_qr_scan", "android": "https://dc.lft.to/lastmile_qr_scan"}, "is_reserved": 0}, {"lon": -76.99484483333333, "bike_id": "7935939d04da790ee450d04d5f3c4911", "lat": 38.87948133333333, "fusion_lon": 0.0, "fusion_lat": 0.0, "type": "electric_scooter", "name": "7935939d04da790ee450d04d5f3c4911", "is_disabled": 0, "rental_uris": {"ios": "https://dc.lft.to/lastmile_qr_scan", "android": "https://dc.lft.to/lastmile_qr_scan"}, "is_reserved": 0}, {"lon": -76.9936565, "bike_id": "d96bcb21d3558831d7b8dffe74813017", "lat": 38.9402435, "fusion_lon": 0.0, "fusion_lat": 0.0, "type": "electric_scooter", "name": "d96bcb21d3558831d7b8dffe74813017", "is_disabled": 0, "rental_uris": {"ios": "https://dc.lft.to/lastmile_qr_scan", "android": "https://dc.lft.to/lastmile_qr_scan"}, "is_reserved": 0}, {"lon": -76.98985416666666, "bike_id": "85dc791b4fbcc0b0d15b71f9d2c57118", "lat": 38.85928633333333, "fusion_lon": 0.0, "fusion_lat": 0.0, "type": "electric_scooter", "name": "85dc791b4fbcc0b0d15b71f9d2c57118", "is_disabled": 0, "rental_uris": {"ios": "https://dc.lft.to/lastmile_qr_scan", "android": "https://dc.lft.to/lastmile_qr_scan"}, "is_reserved": 0}, {"lon": -77.06341983333333, "bike_id": "d6d3d94cc8a1d46fa37260ba0c8634c1", "lat": 38.90684133333333, "fusion_lon": 0.0, "fusion_lat": 0.0, "type": "electric_scooter", "name": "d6d3d94cc8a1d46fa37260ba0c8634c1", "is_disabled": 0, "rental_uris": {"ios": "https://dc.lft.to/lastmile_qr_scan", "android": "https://dc.lft.to/lastmile_qr_scan"}, "is_reserved": 0}, {"lon": -77.03190166666667, "bike_id": "44f80abdb218ee8c566a820afe196299", "lat": 38.90362316666667, "fusion_lon": 0.0, "fusion_lat": 0.0, "type": "electric_scooter", "name": "44f80abdb218ee8c566a820afe196299", "is_disabled": 0, "rental_uris": {"ios": "https://dc.lft.to/lastmile_qr_scan", "android": "https://dc.lft.to/lastmile_qr_scan"}, "is_reserved": 0}, {"lon": -76.98073583333333, "bike_id": "9d319bced57d94aecd017f49d3178247", "lat": 38.90175216666667, "fusion_lon": 0.0, "fusion_lat": 0.0, "type": "electric_scooter", "name": "9d319bced57d94aecd017f49d3178247", "is_disabled": 0, "rental_uris": {"ios": "https://dc.lft.to/lastmile_qr_scan", "android": "https://dc.lft.to/lastmile_qr_scan"}, "is_reserved": 0}, {"lon": -77.0553545, "bike_id": "4bad69332669b09d0d43303c3c382962", "lat": 38.9342965, "fusion_lon": 0.0, "fusion_lat": 0.0, "type": "electric_scooter", "name": "4bad69332669b09d0d43303c3c382962", "is_disabled": 0, "rental_uris": {"ios": "https://dc.lft.to/lastmile_qr_scan", "android": "https://dc.lft.to/lastmile_qr_scan"}, "is_reserved": 0}, {"lon": -77.034997, "bike_id": "02d03686f0eaed6120b3c1461c828add", "lat": 38.924799, "fusion_lon": 0.0, "fusion_lat": 0.0, "type": "electric_scooter", "name": "02d03686f0eaed6120b3c1461c828add", "is_disabled": 0, "rental_uris": {"ios": "https://dc.lft.to/lastmile_qr_scan", "android": "https://dc.lft.to/lastmile_qr_scan"}, "is_reserved": 0}, {"lon": -77.0036315, "bike_id": "e6638d46739b4237834d3e7cf929e6d1", "lat": 38.89931083333333, "fusion_lon": 0.0, "fusion_lat": 0.0, "type": "electric_scooter", "name": "e6638d46739b4237834d3e7cf929e6d1", "is_disabled": 0, "rental_uris": {"ios": "https://dc.lft.to/lastmile_qr_scan", "android": "https://dc.lft.to/lastmile_qr_scan"}, "is_reserved": 0}, {"lon": -77.08459183333333, "bike_id": "21bf69c03e8704666c8c304a347a1ca4", "lat": 38.8481905, "fusion_lon": 0.0, "fusion_lat": 0.0, "type": "electric_bike", "name": "21bf69c03e8704666c8c304a347a1ca4", "is_disabled": 0, "rental_uris": {"ios": "https://dc.lft.to/lastmile_qr_scan", "android": "https://dc.lft.to/lastmile_qr_scan"}, "is_reserved": 0}, {"lon": -77.00697266666667, "bike_id": "cfbe93f4e0eb4c1a71db9f1963f9c997", "lat": 38.91740466666667, "fusion_lon": 0.0, "fusion_lat": 0.0, "type": "electric_scooter", "name": "cfbe93f4e0eb4c1a71db9f1963f9c997", "is_disabled": 0, "rental_uris": {"ios": "https://dc.lft.to/lastmile_qr_scan", "android": "https://dc.lft.to/lastmile_qr_scan"}, "is_reserved": 0}, {"lon": -76.9739415, "bike_id": "9c097841fe2959f8576705e8359f5ed5", "lat": 38.90560683333333, "fusion_lon": 0.0, "fusion_lat": 0.0, "type": "electric_scooter", "name": "9c097841fe2959f8576705e8359f5ed5", "is_disabled": 0, "rental_uris": {"ios": "https://dc.lft.to/lastmile_qr_scan", "android": "https://dc.lft.to/lastmile_qr_scan"}, "is_reserved": 0}, {"lon": -77.03665116666667, "bike_id": "720324313cca29a117ede8c5bf053450", "lat": 38.922632666666665, "fusion_lon": 0.0, "fusion_lat": 0.0, "type": "electric_scooter", "name": "720324313cca29a117ede8c5bf053450", "is_disabled": 0, "rental_uris": {"ios": "https://dc.lft.to/lastmile_qr_scan", "android": "https://dc.lft.to/lastmile_qr_scan"}, "is_reserved": 0}, {"lon": -77.03412383333334, "bike_id": "11e7c5bd5949bbfcf62c567e50d2cf3a", "lat": 38.9224205, "fusion_lon": 0.0, "fusion_lat": 0.0, "type": "electric_scooter", "name": "11e7c5bd5949bbfcf62c567e50d2cf3a", "is_disabled": 0, "rental_uris": {"ios": "https://dc.lft.to/lastmile_qr_scan", "android": "https://dc.lft.to/lastmile_qr_scan"}, "is_reserved": 0}, {"lon": -77.032629, "bike_id": "bf98c8943abe32b9dcccefa28ee2def4", "lat": 38.9341785, "fusion_lon": 0.0, "fusion_lat": 0.0, "type": "electric_scooter", "name": "bf98c8943abe32b9dcccefa28ee2def4", "is_disabled": 0, "rental_uris": {"ios": "https://dc.lft.to/lastmile_qr_scan", "android": "https://dc.lft.to/lastmile_qr_scan"}, "is_reserved": 0}, {"lon": -77.0389615, "bike_id": "205462d2436e43ef8e8ae0a62c1f87e6", "lat": 38.923574333333335, "fusion_lon": 0.0, "fusion_lat": 0.0, "type": "electric_scooter", "name": "205462d2436e43ef8e8ae0a62c1f87e6", "is_disabled": 0, "rental_uris": {"ios": "https://dc.lft.to/lastmile_qr_scan", "android": "https://dc.lft.to/lastmile_qr_scan"}, "is_reserved": 0}, {"lon": -77.02692783333333, "bike_id": "e8105c60df580f6fcd7f097a6ccde0db", "lat": 38.89706366666667, "fusion_lon": 0.0, "fusion_lat": 0.0, "type": "electric_scooter", "name": "e8105c60df580f6fcd7f097a6ccde0db", "is_disabled": 0, "rental_uris": {"ios": "https://dc.lft.to/lastmile_qr_scan", "android": "https://dc.lft.to/lastmile_qr_scan"}, "is_reserved": 0}, {"lon": -77.0350215, "bike_id": "e5373b8f1448a8106a80c1bfe4e2ef29", "lat": 38.937505, "fusion_lon": 0.0, "fusion_lat": 0.0, "type": "electric_scooter", "name": "e5373b8f1448a8106a80c1bfe4e2ef29", "is_disabled": 0, "rental_uris": {"ios": "https://dc.lft.to/lastmile_qr_scan", "android": "https://dc.lft.to/lastmile_qr_scan"}, "is_reserved": 0}, {"lon": -77.0397345, "bike_id": "af4581b7708bc3f8aaba221c127a047c", "lat": 38.911946, "fusion_lon": 0.0, "fusion_lat": 0.0, "type": "electric_scooter", "name": "af4581b7708bc3f8aaba221c127a047c", "is_disabled": 0, "rental_uris": {"ios": "https://dc.lft.to/lastmile_qr_scan", "android": "https://dc.lft.to/lastmile_qr_scan"}, "is_reserved": 0}, {"lon": -77.01330683333333, "bike_id": "946390639a9d40ee3bb0a8fbdb135eec", "lat": 38.87925366666666, "fusion_lon": 0.0, "fusion_lat": 0.0, "type": "electric_scooter", "name": "946390639a9d40ee3bb0a8fbdb135eec", "is_disabled": 0, "rental_uris": {"ios": "https://dc.lft.to/lastmile_qr_scan", "android": "https://dc.lft.to/lastmile_qr_scan"}, "is_reserved": 0}, {"lon": -77.02410316666666, "bike_id": "6eef2527c9fd8dc6103d9fc008a1a756", "lat": 38.921586166666664, "fusion_lon": 0.0, "fusion_lat": 0.0, "type": "electric_scooter", "name": "6eef2527c9fd8dc6103d9fc008a1a756", "is_disabled": 0, "rental_uris": {"ios": "https://dc.lft.to/lastmile_qr_scan", "android": "https://dc.lft.to/lastmile_qr_scan"}, "is_reserved": 0}, {"lon": -77.02785816666666, "bike_id": "3581aa5d46669a69fe9a1dff528ce584", "lat": 38.92783133333333, "fusion_lon": 0.0, "fusion_lat": 0.0, "type": "electric_scooter", "name": "3581aa5d46669a69fe9a1dff528ce584", "is_disabled": 0, "rental_uris": {"ios": "https://dc.lft.to/lastmile_qr_scan", "android": "https://dc.lft.to/lastmile_qr_scan"}, "is_reserved": 0}, {"lon": -76.98661566666667, "bike_id": "73ab12cd93a2d99ad522924a4e49e458", "lat": 38.91247466666667, "fusion_lon": 0.0, "fusion_lat": 0.0, "type": "electric_scooter", "name": "73ab12cd93a2d99ad522924a4e49e458", "is_disabled": 0, "rental_uris": {"ios": "https://dc.lft.to/lastmile_qr_scan", "android": "https://dc.lft.to/lastmile_qr_scan"}, "is_reserved": 0}, {"lon": -77.0364955, "bike_id": "b70ef3280294817e7bf0894023a96e0f", "lat": 38.903549166666664, "fusion_lon": 0.0, "fusion_lat": 0.0, "type": "electric_scooter", "name": "b70ef3280294817e7bf0894023a96e0f", "is_disabled": 0, "rental_uris": {"ios": "https://dc.lft.to/lastmile_qr_scan", "android": "https://dc.lft.to/lastmile_qr_scan"}, "is_reserved": 0}, {"lon": -77.04874533333333, "bike_id": "7191bfbde9a7b469ac90e96dcbcfc37a", "lat": 38.89234316666667, "fusion_lon": 0.0, "fusion_lat": 0.0, "type": "electric_scooter", "name": "7191bfbde9a7b469ac90e96dcbcfc37a", "is_disabled": 0, "rental_uris": {"ios": "https://dc.lft.to/lastmile_qr_scan", "android": "https://dc.lft.to/lastmile_qr_scan"}, "is_reserved": 0}, {"lon": -76.98839133333334, "bike_id": "d11543d3b88ba331fa6e652f76ff4a2c", "lat": 38.90123483333333, "fusion_lon": 0.0, "fusion_lat": 0.0, "type": "electric_scooter", "name": "d11543d3b88ba331fa6e652f76ff4a2c", "is_disabled": 0, "rental_uris": {"ios": "https://dc.lft.to/lastmile_qr_scan", "android": "https://dc.lft.to/lastmile_qr_scan"}, "is_reserved": 0}, {"lon": -77.03202516666667, "bike_id": "0ac4a2debda1e6d693dea6347e080572", "lat": 38.93047966666666, "fusion_lon": 0.0, "fusion_lat": 0.0, "type": "electric_scooter", "name": "0ac4a2debda1e6d693dea6347e080572", "is_disabled": 0, "rental_uris": {"ios": "https://dc.lft.to/lastmile_qr_scan", "android": "https://dc.lft.to/lastmile_qr_scan"}, "is_reserved": 0}, {"lon": -77.02385833333334, "bike_id": "12d1a80f6928606b113894d65754a6b3", "lat": 38.9078275, "fusion_lon": 0.0, "fusion_lat": 0.0, "type": "electric_scooter", "name": "12d1a80f6928606b113894d65754a6b3", "is_disabled": 0, "rental_uris": {"ios": "https://dc.lft.to/lastmile_qr_scan", "android": "https://dc.lft.to/lastmile_qr_scan"}, "is_reserved": 0}, {"lon": -77.055119, "bike_id": "2c14eb05efe7d08bc63a39c59ff83e8c", "lat": 38.89969266666667, "fusion_lon": 0.0, "fusion_lat": 0.0, "type": "electric_scooter", "name": "2c14eb05efe7d08bc63a39c59ff83e8c", "is_disabled": 0, "rental_uris": {"ios": "https://dc.lft.to/lastmile_qr_scan", "android": "https://dc.lft.to/lastmile_qr_scan"}, "is_reserved": 0}, {"lon": -77.03204716666667, "bike_id": "b1b20bdf941977425c72ba1ec0838d66", "lat": 38.90835166666667, "fusion_lon": 0.0, "fusion_lat": 0.0, "type": "electric_scooter", "name": "b1b20bdf941977425c72ba1ec0838d66", "is_disabled": 0, "rental_uris": {"ios": "https://dc.lft.to/lastmile_qr_scan", "android": "https://dc.lft.to/lastmile_qr_scan"}, "is_reserved": 0}, {"lon": -77.04498183333334, "bike_id": "e0f75aaa64ec211f6d1e23c10c2b8058", "lat": 38.91927333333334, "fusion_lon": 0.0, "fusion_lat": 0.0, "type": "electric_scooter", "name": "e0f75aaa64ec211f6d1e23c10c2b8058", "is_disabled": 0, "rental_uris": {"ios": "https://dc.lft.to/lastmile_qr_scan", "android": "https://dc.lft.to/lastmile_qr_scan"}, "is_reserved": 0}, {"lon": -77.0040355, "bike_id": "bd4e41d70f403783cdfbe95b64856495", "lat": 38.9213325, "fusion_lon": 0.0, "fusion_lat": 0.0, "type": "electric_scooter", "name": "bd4e41d70f403783cdfbe95b64856495", "is_disabled": 0, "rental_uris": {"ios": "https://dc.lft.to/lastmile_qr_scan", "android": "https://dc.lft.to/lastmile_qr_scan"}, "is_reserved": 0}, {"lon": -76.99754266666666, "bike_id": "411e059cc17bb4abd5be364994ec0ddb", "lat": 38.950093, "fusion_lon": 0.0, "fusion_lat": 0.0, "type": "electric_bike", "name": "411e059cc17bb4abd5be364994ec0ddb", "is_disabled": 0, "rental_uris": {"ios": "https://dc.lft.to/lastmile_qr_scan", "android": "https://dc.lft.to/lastmile_qr_scan"}, "is_reserved": 0}, {"lon": -77.023263, "bike_id": "8973202c837e64b0042edb9e0271eb1b", "lat": 38.93526416666667, "fusion_lon": 0.0, "fusion_lat": 0.0, "type": "electric_scooter", "name": "8973202c837e64b0042edb9e0271eb1b", "is_disabled": 0, "rental_uris": {"ios": "https://dc.lft.to/lastmile_qr_scan", "android": "https://dc.lft.to/lastmile_qr_scan"}, "is_reserved": 0}, {"lon": -77.01584833333334, "bike_id": "773a3735b2400c6f7562b3372da1786a", "lat": 38.883106, "fusion_lon": 0.0, "fusion_lat": 0.0, "type": "electric_scooter", "name": "773a3735b2400c6f7562b3372da1786a", "is_disabled": 0, "rental_uris": {"ios": "https://dc.lft.to/lastmile_qr_scan", "android": "https://dc.lft.to/lastmile_qr_scan"}, "is_reserved": 0}, {"lon": -76.9499795, "bike_id": "22c601bb7619f421c89447de39c2e86e", "lat": 38.8938085, "fusion_lon": 0.0, "fusion_lat": 0.0, "type": "electric_scooter", "name": "22c601bb7619f421c89447de39c2e86e", "is_disabled": 0, "rental_uris": {"ios": "https://dc.lft.to/lastmile_qr_scan", "android": "https://dc.lft.to/lastmile_qr_scan"}, "is_reserved": 0}, {"lon": -77.01090883333333, "bike_id": "38e03337768bea5b62ccd40ca82ed420", "lat": 38.908780166666666, "fusion_lon": 0.0, "fusion_lat": 0.0, "type": "electric_scooter", "name": "38e03337768bea5b62ccd40ca82ed420", "is_disabled": 0, "rental_uris": {"ios": "https://dc.lft.to/lastmile_qr_scan", "android": "https://dc.lft.to/lastmile_qr_scan"}, "is_reserved": 0}, {"lon": -77.0326275, "bike_id": "082adb2b8c1fd495cca1812c9e12f707", "lat": 38.937719666666666, "fusion_lon": 0.0, "fusion_lat": 0.0, "type": "electric_scooter", "name": "082adb2b8c1fd495cca1812c9e12f707", "is_disabled": 0, "rental_uris": {"ios": "https://dc.lft.to/lastmile_qr_scan", "android": "https://dc.lft.to/lastmile_qr_scan"}, "is_reserved": 0}, {"lon": -77.03252666666667, "bike_id": "8b20251705b0f3204b8334dd30a5c568", "lat": 38.931346166666664, "fusion_lon": 0.0, "fusion_lat": 0.0, "type": "electric_scooter", "name": "8b20251705b0f3204b8334dd30a5c568", "is_disabled": 0, "rental_uris": {"ios": "https://dc.lft.to/lastmile_qr_scan", "android": "https://dc.lft.to/lastmile_qr_scan"}, "is_reserved": 0}, {"lon": -77.0144115, "bike_id": "b14110a0c5b0b57ec2336937a49461f9", "lat": 38.905344666666664, "fusion_lon": 0.0, "fusion_lat": 0.0, "type": "electric_scooter", "name": "b14110a0c5b0b57ec2336937a49461f9", "is_disabled": 0, "rental_uris": {"ios": "https://dc.lft.to/lastmile_qr_scan", "android": "https://dc.lft.to/lastmile_qr_scan"}, "is_reserved": 0}, {"lon": -77.02087683333333, "bike_id": "0e6c6f59e2f73b440cd267900aedb7fd", "lat": 38.929116, "fusion_lon": 0.0, "fusion_lat": 0.0, "type": "electric_scooter", "name": "0e6c6f59e2f73b440cd267900aedb7fd", "is_disabled": 0, "rental_uris": {"ios": "https://dc.lft.to/lastmile_qr_scan", "android": "https://dc.lft.to/lastmile_qr_scan"}, "is_reserved": 0}, {"lon": -76.97858216666667, "bike_id": "de24a062fd884cf228160a010355d110", "lat": 38.90721, "fusion_lon": 0.0, "fusion_lat": 0.0, "type": "electric_scooter", "name": "de24a062fd884cf228160a010355d110", "is_disabled": 0, "rental_uris": {"ios": "https://dc.lft.to/lastmile_qr_scan", "android": "https://dc.lft.to/lastmile_qr_scan"}, "is_reserved": 0}, {"lon": -76.97561766666666, "bike_id": "5138a7c1b8c7190d0634d72d93610b99", "lat": 38.92456633333333, "fusion_lon": 0.0, "fusion_lat": 0.0, "type": "electric_bike", "name": "5138a7c1b8c7190d0634d72d93610b99", "is_disabled": 0, "rental_uris": {"ios": "https://dc.lft.to/lastmile_qr_scan", "android": "https://dc.lft.to/lastmile_qr_scan"}, "is_reserved": 0}, {"lon": -77.006659, "bike_id": "b776c4d56be5549c3176055921c7f171", "lat": 38.90028683333333, "fusion_lon": 0.0, "fusion_lat": 0.0, "type": "electric_scooter", "name": "b776c4d56be5549c3176055921c7f171", "is_disabled": 0, "rental_uris": {"ios": "https://dc.lft.to/lastmile_qr_scan", "android": "https://dc.lft.to/lastmile_qr_scan"}, "is_reserved": 0}, {"lon": -77.0392695, "bike_id": "6b9218a7a492273d21e32efad29aec9e", "lat": 38.927952166666664, "fusion_lon": 0.0, "fusion_lat": 0.0, "type": "electric_scooter", "name": "6b9218a7a492273d21e32efad29aec9e", "is_disabled": 0, "rental_uris": {"ios": "https://dc.lft.to/lastmile_qr_scan", "android": "https://dc.lft.to/lastmile_qr_scan"}, "is_reserved": 0}, {"lon": -77.036369, "bike_id": "379f2720083425b72cf9992ae565b9a7", "lat": 38.924632, "fusion_lon": 0.0, "fusion_lat": 0.0, "type": "electric_scooter", "name": "379f2720083425b72cf9992ae565b9a7", "is_disabled": 0, "rental_uris": {"ios": "https://dc.lft.to/lastmile_qr_scan", "android": "https://dc.lft.to/lastmile_qr_scan"}, "is_reserved": 0}, {"lon": -77.0600545, "bike_id": "8b2bd3a3969a3c3babcaa6cf695a9017", "lat": 38.80744166666667, "fusion_lon": 0.0, "fusion_lat": 0.0, "type": "electric_bike", "name": "8b2bd3a3969a3c3babcaa6cf695a9017", "is_disabled": 0, "rental_uris": {"ios": "https://dc.lft.to/lastmile_qr_scan", "android": "https://dc.lft.to/lastmile_qr_scan"}, "is_reserved": 0}, {"lon": -76.9977915, "bike_id": "ad7fbf92b3af65ed7b7557eaac2eeae8", "lat": 38.910494, "fusion_lon": 0.0, "fusion_lat": 0.0, "type": "electric_scooter", "name": "ad7fbf92b3af65ed7b7557eaac2eeae8", "is_disabled": 0, "rental_uris": {"ios": "https://dc.lft.to/lastmile_qr_scan", "android": "https://dc.lft.to/lastmile_qr_scan"}, "is_reserved": 0}, {"lon": -76.95234466666666, "bike_id": "ea88eba0b8d08ac14cd0d9a0c728293a", "lat": 38.8910225, "fusion_lon": 0.0, "fusion_lat": 0.0, "type": "electric_scooter", "name": "ea88eba0b8d08ac14cd0d9a0c728293a", "is_disabled": 0, "rental_uris": {"ios": "https://dc.lft.to/lastmile_qr_scan", "android": "https://dc.lft.to/lastmile_qr_scan"}, "is_reserved": 0}, {"lon": -77.0317855, "bike_id": "4d54ac31f16f306791ea012e8b13ac27", "lat": 38.90515766666667, "fusion_lon": 0.0, "fusion_lat": 0.0, "type": "electric_scooter", "name": "4d54ac31f16f306791ea012e8b13ac27", "is_disabled": 0, "rental_uris": {"ios": "https://dc.lft.to/lastmile_qr_scan", "android": "https://dc.lft.to/lastmile_qr_scan"}, "is_reserved": 0}, {"lon": -76.97616983333333, "bike_id": "8996dbc50eb3c05e7a4f6e3a1d5befa8", "lat": 38.926510666666665, "fusion_lon": 0.0, "fusion_lat": 0.0, "type": "electric_scooter", "name": "8996dbc50eb3c05e7a4f6e3a1d5befa8", "is_disabled": 0, "rental_uris": {"ios": "https://dc.lft.to/lastmile_qr_scan", "android": "https://dc.lft.to/lastmile_qr_scan"}, "is_reserved": 0}, {"lon": -77.01867833333333, "bike_id": "a0477824d0ec82895bbc6d449cd99101", "lat": 38.951543666666666, "fusion_lon": 0.0, "fusion_lat": 0.0, "type": "electric_scooter", "name": "a0477824d0ec82895bbc6d449cd99101", "is_disabled": 0, "rental_uris": {"ios": "https://dc.lft.to/lastmile_qr_scan", "android": "https://dc.lft.to/lastmile_qr_scan"}, "is_reserved": 0}, {"lon": -77.08811833333333, "bike_id": "091d004271527496e44889cb7cfb63ad", "lat": 38.91175, "fusion_lon": 0.0, "fusion_lat": 0.0, "type": "electric_bike", "name": "091d004271527496e44889cb7cfb63ad", "is_disabled": 0, "rental_uris": {"ios": "https://dc.lft.to/lastmile_qr_scan", "android": "https://dc.lft.to/lastmile_qr_scan"}, "is_reserved": 0}, {"lon": -77.041899, "bike_id": "fb5307965ede31287bcb449382ec3012", "lat": 38.92627616666667, "fusion_lon": 0.0, "fusion_lat": 0.0, "type": "electric_scooter", "name": "fb5307965ede31287bcb449382ec3012", "is_disabled": 0, "rental_uris": {"ios": "https://dc.lft.to/lastmile_qr_scan", "android": "https://dc.lft.to/lastmile_qr_scan"}, "is_reserved": 0}, {"lon": -76.991037, "bike_id": "a8f51afa900d3da875e70ce4f143a3ad", "lat": 38.903176333333334, "fusion_lon": 0.0, "fusion_lat": 0.0, "type": "electric_scooter", "name": "a8f51afa900d3da875e70ce4f143a3ad", "is_disabled": 0, "rental_uris": {"ios": "https://dc.lft.to/lastmile_qr_scan", "android": "https://dc.lft.to/lastmile_qr_scan"}, "is_reserved": 0}, {"lon": -77.03653883333334, "bike_id": "9123913e6adaf5795268ade092759895", "lat": 38.94177833333333, "fusion_lon": 0.0, "fusion_lat": 0.0, "type": "electric_scooter", "name": "9123913e6adaf5795268ade092759895", "is_disabled": 0, "rental_uris": {"ios": "https://dc.lft.to/lastmile_qr_scan", "android": "https://dc.lft.to/lastmile_qr_scan"}, "is_reserved": 0}, {"lon": -77.0387815, "bike_id": "83f940551ade134e1884dc9b0880e87a", "lat": 38.933052333333336, "fusion_lon": 0.0, "fusion_lat": 0.0, "type": "electric_scooter", "name": "83f940551ade134e1884dc9b0880e87a", "is_disabled": 0, "rental_uris": {"ios": "https://dc.lft.to/lastmile_qr_scan", "android": "https://dc.lft.to/lastmile_qr_scan"}, "is_reserved": 0}, {"lon": -76.981862, "bike_id": "49f1189e3c391d7b0487567946547287", "lat": 38.92606216666667, "fusion_lon": 0.0, "fusion_lat": 0.0, "type": "electric_scooter", "name": "49f1189e3c391d7b0487567946547287", "is_disabled": 0, "rental_uris": {"ios": "https://dc.lft.to/lastmile_qr_scan", "android": "https://dc.lft.to/lastmile_qr_scan"}, "is_reserved": 0}, {"lon": -76.94292283333333, "bike_id": "406e984f030e384729df06564150d6bd", "lat": 38.93869516666667, "fusion_lon": 0.0, "fusion_lat": 0.0, "type": "electric_bike", "name": "406e984f030e384729df06564150d6bd", "is_disabled": 0, "rental_uris": {"ios": "https://dc.lft.to/lastmile_qr_scan", "android": "https://dc.lft.to/lastmile_qr_scan"}, "is_reserved": 0}, {"lon": -77.02630083333334, "bike_id": "baee9021e4067e3ecd8248836dcba1eb", "lat": 38.96226016666667, "fusion_lon": 0.0, "fusion_lat": 0.0, "type": "electric_bike", "name": "baee9021e4067e3ecd8248836dcba1eb", "is_disabled": 0, "rental_uris": {"ios": "https://dc.lft.to/lastmile_qr_scan", "android": "https://dc.lft.to/lastmile_qr_scan"}, "is_reserved": 0}, {"lon": -77.00689666666666, "bike_id": "798a3fcc5387e9661f69924aed30d006", "lat": 38.87939, "fusion_lon": 0.0, "fusion_lat": 0.0, "type": "electric_scooter", "name": "798a3fcc5387e9661f69924aed30d006", "is_disabled": 0, "rental_uris": {"ios": "https://dc.lft.to/lastmile_qr_scan", "android": "https://dc.lft.to/lastmile_qr_scan"}, "is_reserved": 0}, {"lon": -76.95478566666667, "bike_id": "5dca5aa3259cf23cc9f2537b53d9071e", "lat": 38.88468316666667, "fusion_lon": 0.0, "fusion_lat": 0.0, "type": "electric_scooter", "name": "5dca5aa3259cf23cc9f2537b53d9071e", "is_disabled": 0, "rental_uris": {"ios": "https://dc.lft.to/lastmile_qr_scan", "android": "https://dc.lft.to/lastmile_qr_scan"}, "is_reserved": 0}, {"lon": -77.100923, "bike_id": "c315f49e0fe5b107dda112da8ced0d14", "lat": 38.9595685, "fusion_lon": 0.0, "fusion_lat": 0.0, "type": "electric_bike", "name": "c315f49e0fe5b107dda112da8ced0d14", "is_disabled": 0, "rental_uris": {"ios": "https://dc.lft.to/lastmile_qr_scan", "android": "https://dc.lft.to/lastmile_qr_scan"}, "is_reserved": 0}, {"lon": -76.9826275, "bike_id": "35a027235c4734863ca86bff9469bcd6", "lat": 38.908565333333335, "fusion_lon": 0.0, "fusion_lat": 0.0, "type": "electric_scooter", "name": "35a027235c4734863ca86bff9469bcd6", "is_disabled": 0, "rental_uris": {"ios": "https://dc.lft.to/lastmile_qr_scan", "android": "https://dc.lft.to/lastmile_qr_scan"}, "is_reserved": 0}, {"lon": -76.98881966666667, "bike_id": "9655ef3112804e04c25da438d51b3dc9", "lat": 38.866544166666664, "fusion_lon": 0.0, "fusion_lat": 0.0, "type": "electric_scooter", "name": "9655ef3112804e04c25da438d51b3dc9", "is_disabled": 0, "rental_uris": {"ios": "https://dc.lft.to/lastmile_qr_scan", "android": "https://dc.lft.to/lastmile_qr_scan"}, "is_reserved": 0}, {"lon": -77.00200333333333, "bike_id": "b7f4e611cc6481e715fccaaf89798fd1", "lat": 38.900335166666665, "fusion_lon": 0.0, "fusion_lat": 0.0, "type": "electric_scooter", "name": "b7f4e611cc6481e715fccaaf89798fd1", "is_disabled": 0, "rental_uris": {"ios": "https://dc.lft.to/lastmile_qr_scan", "android": "https://dc.lft.to/lastmile_qr_scan"}, "is_reserved": 0}, {"lon": -76.98592433333333, "bike_id": "b1671638a33c747d3a040be306232dfd", "lat": 38.9081065, "fusion_lon": 0.0, "fusion_lat": 0.0, "type": "electric_scooter", "name": "b1671638a33c747d3a040be306232dfd", "is_disabled": 0, "rental_uris": {"ios": "https://dc.lft.to/lastmile_qr_scan", "android": "https://dc.lft.to/lastmile_qr_scan"}, "is_reserved": 0}, {"lon": -76.99484233333334, "bike_id": "d8bce09147b54cb70943a0c5fab3d12d", "lat": 38.9157005, "fusion_lon": 0.0, "fusion_lat": 0.0, "type": "electric_scooter", "name": "d8bce09147b54cb70943a0c5fab3d12d", "is_disabled": 0, "rental_uris": {"ios": "https://dc.lft.to/lastmile_qr_scan", "android": "https://dc.lft.to/lastmile_qr_scan"}, "is_reserved": 0}, {"lon": -77.06476583333334, "bike_id": "ea3f30879d588d1d00cae6973d0137c4", "lat": 38.946512166666665, "fusion_lon": 0.0, "fusion_lat": 0.0, "type": "electric_scooter", "name": "ea3f30879d588d1d00cae6973d0137c4", "is_disabled": 0, "rental_uris": {"ios": "https://dc.lft.to/lastmile_qr_scan", "android": "https://dc.lft.to/lastmile_qr_scan"}, "is_reserved": 0}, {"lon": -76.99404383333334, "bike_id": "a3e2e5cb83644cd905b82914bdb4d517", "lat": 38.83137966666666, "fusion_lon": 0.0, "fusion_lat": 0.0, "type": "electric_bike", "name": "a3e2e5cb83644cd905b82914bdb4d517", "is_disabled": 0, "rental_uris": {"ios": "https://dc.lft.to/lastmile_qr_scan", "android": "https://dc.lft.to/lastmile_qr_scan"}, "is_reserved": 0}, {"lon": -76.93371783333333, "bike_id": "19e8fb185d909b7eeb558f3ddfdc8956", "lat": 38.899128, "fusion_lon": 0.0, "fusion_lat": 0.0, "type": "electric_scooter", "name": "19e8fb185d909b7eeb558f3ddfdc8956", "is_disabled": 0, "rental_uris": {"ios": "https://dc.lft.to/lastmile_qr_scan", "android": "https://dc.lft.to/lastmile_qr_scan"}, "is_reserved": 0}, {"lon": -77.04103216666667, "bike_id": "5519f9c0b10c19223c0cfca85a7f223e", "lat": 38.920344666666665, "fusion_lon": 0.0, "fusion_lat": 0.0, "type": "electric_scooter", "name": "5519f9c0b10c19223c0cfca85a7f223e", "is_disabled": 0, "rental_uris": {"ios": "https://dc.lft.to/lastmile_qr_scan", "android": "https://dc.lft.to/lastmile_qr_scan"}, "is_reserved": 0}, {"lon": -76.98895633333333, "bike_id": "39e76954ace3ae685700f85bf58bdd88", "lat": 38.91346733333334, "fusion_lon": 0.0, "fusion_lat": 0.0, "type": "electric_scooter", "name": "39e76954ace3ae685700f85bf58bdd88", "is_disabled": 0, "rental_uris": {"ios": "https://dc.lft.to/lastmile_qr_scan", "android": "https://dc.lft.to/lastmile_qr_scan"}, "is_reserved": 0}, {"lon": -77.01206016666667, "bike_id": "cddc5d59e332fb0e8d374047cbaa9abf", "lat": 38.88554533333333, "fusion_lon": 0.0, "fusion_lat": 0.0, "type": "electric_scooter", "name": "cddc5d59e332fb0e8d374047cbaa9abf", "is_disabled": 0, "rental_uris": {"ios": "https://dc.lft.to/lastmile_qr_scan", "android": "https://dc.lft.to/lastmile_qr_scan"}, "is_reserved": 0}, {"lon": -77.36091016666667, "bike_id": "8a7ba8ddbdd6474c0d0d9fdd72aaca4d", "lat": 38.93961066666667, "fusion_lon": 0.0, "fusion_lat": 0.0, "type": "electric_bike", "name": "8a7ba8ddbdd6474c0d0d9fdd72aaca4d", "is_disabled": 0, "rental_uris": {"ios": "https://dc.lft.to/lastmile_qr_scan", "android": "https://dc.lft.to/lastmile_qr_scan"}, "is_reserved": 0}, {"lon": -76.904734, "bike_id": "dade1fc44c6ed5accce2822a5849e4c8", "lat": 39.002943, "fusion_lon": 0.0, "fusion_lat": 0.0, "type": "electric_bike", "name": "dade1fc44c6ed5accce2822a5849e4c8", "is_disabled": 0, "rental_uris": {"ios": "https://dc.lft.to/lastmile_qr_scan", "android": "https://dc.lft.to/lastmile_qr_scan"}, "is_reserved": 0}, {"lon": -77.05302066666667, "bike_id": "746b66e7b909dababdd307c0c795ebc8", "lat": 38.898873, "fusion_lon": 0.0, "fusion_lat": 0.0, "type": "electric_scooter", "name": "746b66e7b909dababdd307c0c795ebc8", "is_disabled": 0, "rental_uris": {"ios": "https://dc.lft.to/lastmile_qr_scan", "android": "https://dc.lft.to/lastmile_qr_scan"}, "is_reserved": 0}, {"lon": -77.02374583333334, "bike_id": "895f6bb212e4cc75c24a88c5c0977961", "lat": 38.902043666666664, "fusion_lon": 0.0, "fusion_lat": 0.0, "type": "electric_scooter", "name": "895f6bb212e4cc75c24a88c5c0977961", "is_disabled": 0, "rental_uris": {"ios": "https://dc.lft.to/lastmile_qr_scan", "android": "https://dc.lft.to/lastmile_qr_scan"}, "is_reserved": 0}, {"lon": -77.02158433333334, "bike_id": "e899bfe1f2c104c0cd24ee311fb89406", "lat": 38.92999983333333, "fusion_lon": 0.0, "fusion_lat": 0.0, "type": "electric_scooter", "name": "e899bfe1f2c104c0cd24ee311fb89406", "is_disabled": 0, "rental_uris": {"ios": "https://dc.lft.to/lastmile_qr_scan", "android": "https://dc.lft.to/lastmile_qr_scan"}, "is_reserved": 0}, {"lon": -77.00579883333333, "bike_id": "79d4cb8acfb9d9d5bf2ee22d5eb671db", "lat": 38.87647966666667, "fusion_lon": 0.0, "fusion_lat": 0.0, "type": "electric_scooter", "name": "79d4cb8acfb9d9d5bf2ee22d5eb671db", "is_disabled": 0, "rental_uris": {"ios": "https://dc.lft.to/lastmile_qr_scan", "android": "https://dc.lft.to/lastmile_qr_scan"}, "is_reserved": 0}, {"lon": -76.94727233333333, "bike_id": "961b105868717adf3bf3baadfe68b81e", "lat": 38.897389833333335, "fusion_lon": 0.0, "fusion_lat": 0.0, "type": "electric_scooter", "name": "961b105868717adf3bf3baadfe68b81e", "is_disabled": 0, "rental_uris": {"ios": "https://dc.lft.to/lastmile_qr_scan", "android": "https://dc.lft.to/lastmile_qr_scan"}, "is_reserved": 0}, {"lon": -77.03287833333333, "bike_id": "8c81dd440275c4e586bf42a6a6f438df", "lat": 38.93980783333333, "fusion_lon": 0.0, "fusion_lat": 0.0, "type": "electric_scooter", "name": "8c81dd440275c4e586bf42a6a6f438df", "is_disabled": 0, "rental_uris": {"ios": "https://dc.lft.to/lastmile_qr_scan", "android": "https://dc.lft.to/lastmile_qr_scan"}, "is_reserved": 0}, {"lon": -77.016245, "bike_id": "48a4183c0f88deaf3a36fe9165662d86", "lat": 38.96571766666667, "fusion_lon": 0.0, "fusion_lat": 0.0, "type": "electric_scooter", "name": "48a4183c0f88deaf3a36fe9165662d86", "is_disabled": 0, "rental_uris": {"ios": "https://dc.lft.to/lastmile_qr_scan", "android": "https://dc.lft.to/lastmile_qr_scan"}, "is_reserved": 0}, {"lon": -77.020109, "bike_id": "b88c858904e18f136b7e4805bd529087", "lat": 38.924225166666666, "fusion_lon": 0.0, "fusion_lat": 0.0, "type": "electric_scooter", "name": "b88c858904e18f136b7e4805bd529087", "is_disabled": 0, "rental_uris": {"ios": "https://dc.lft.to/lastmile_qr_scan", "android": "https://dc.lft.to/lastmile_qr_scan"}, "is_reserved": 0}, {"lon": -76.97706966666667, "bike_id": "eaf437e205f81f37d5fd9bd1ee50c1c3", "lat": 38.94916116666667, "fusion_lon": 0.0, "fusion_lat": 0.0, "type": "electric_bike", "name": "eaf437e205f81f37d5fd9bd1ee50c1c3", "is_disabled": 0, "rental_uris": {"ios": "https://dc.lft.to/lastmile_qr_scan", "android": "https://dc.lft.to/lastmile_qr_scan"}, "is_reserved": 0}, {"lon": -77.03560433333334, "bike_id": "dd18d20ee064b473d44dd7a612e9606b", "lat": 38.92739533333334, "fusion_lon": 0.0, "fusion_lat": 0.0, "type": "electric_scooter", "name": "dd18d20ee064b473d44dd7a612e9606b", "is_disabled": 0, "rental_uris": {"ios": "https://dc.lft.to/lastmile_qr_scan", "android": "https://dc.lft.to/lastmile_qr_scan"}, "is_reserved": 0}, {"lon": -77.03282266666666, "bike_id": "2e940ace5b3210a08fc15a379c813b85", "lat": 38.93207433333333, "fusion_lon": 0.0, "fusion_lat": 0.0, "type": "electric_scooter", "name": "2e940ace5b3210a08fc15a379c813b85", "is_disabled": 0, "rental_uris": {"ios": "https://dc.lft.to/lastmile_qr_scan", "android": "https://dc.lft.to/lastmile_qr_scan"}, "is_reserved": 0}, {"lon": -77.0054305, "bike_id": "a6eafbf5359e6d383281c3fe3d5fdf1d", "lat": 38.912645, "fusion_lon": 0.0, "fusion_lat": 0.0, "type": "electric_scooter", "name": "a6eafbf5359e6d383281c3fe3d5fdf1d", "is_disabled": 0, "rental_uris": {"ios": "https://dc.lft.to/lastmile_qr_scan", "android": "https://dc.lft.to/lastmile_qr_scan"}, "is_reserved": 0}, {"lon": -76.96263016666667, "bike_id": "e1e73b71243dbea0e558ccaa6afb9af5", "lat": 38.88245083333333, "fusion_lon": 0.0, "fusion_lat": 0.0, "type": "electric_bike", "name": "e1e73b71243dbea0e558ccaa6afb9af5", "is_disabled": 0, "rental_uris": {"ios": "https://dc.lft.to/lastmile_qr_scan", "android": "https://dc.lft.to/lastmile_qr_scan"}, "is_reserved": 0}, {"lon": -77.0020135, "bike_id": "36c94614e12a3e37a3e18d5840a06e00", "lat": 38.89104433333333, "fusion_lon": 0.0, "fusion_lat": 0.0, "type": "electric_scooter", "name": "36c94614e12a3e37a3e18d5840a06e00", "is_disabled": 0, "rental_uris": {"ios": "https://dc.lft.to/lastmile_qr_scan", "android": "https://dc.lft.to/lastmile_qr_scan"}, "is_reserved": 0}, {"lon": -77.03175566666667, "bike_id": "e5a54e53f7f83e598ee71795f18af37b", "lat": 38.93603983333333, "fusion_lon": 0.0, "fusion_lat": 0.0, "type": "electric_scooter", "name": "e5a54e53f7f83e598ee71795f18af37b", "is_disabled": 0, "rental_uris": {"ios": "https://dc.lft.to/lastmile_qr_scan", "android": "https://dc.lft.to/lastmile_qr_scan"}, "is_reserved": 0}, {"lon": -77.03177133333334, "bike_id": "62296de026e26141bfbd82ada7b6e54e", "lat": 38.92917516666667, "fusion_lon": 0.0, "fusion_lat": 0.0, "type": "electric_scooter", "name": "62296de026e26141bfbd82ada7b6e54e", "is_disabled": 0, "rental_uris": {"ios": "https://dc.lft.to/lastmile_qr_scan", "android": "https://dc.lft.to/lastmile_qr_scan"}, "is_reserved": 0}, {"lon": -77.00657833333334, "bike_id": "3a77f8664768b3b5f3e03e52916be4f7", "lat": 38.94465, "fusion_lon": 0.0, "fusion_lat": 0.0, "type": "electric_scooter", "name": "3a77f8664768b3b5f3e03e52916be4f7", "is_disabled": 0, "rental_uris": {"ios": "https://dc.lft.to/lastmile_qr_scan", "android": "https://dc.lft.to/lastmile_qr_scan"}, "is_reserved": 0}, {"lon": -77.0344305, "bike_id": "f61d5ab6d137cf0a9715d2d0d08074ef", "lat": 38.910105333333334, "fusion_lon": 0.0, "fusion_lat": 0.0, "type": "electric_scooter", "name": "f61d5ab6d137cf0a9715d2d0d08074ef", "is_disabled": 0, "rental_uris": {"ios": "https://dc.lft.to/lastmile_qr_scan", "android": "https://dc.lft.to/lastmile_qr_scan"}, "is_reserved": 0}, {"lon": -77.00481283333333, "bike_id": "53682db3263a49c5a24b9538653c4fc0", "lat": 38.895831333333334, "fusion_lon": 0.0, "fusion_lat": 0.0, "type": "electric_scooter", "name": "53682db3263a49c5a24b9538653c4fc0", "is_disabled": 0, "rental_uris": {"ios": "https://dc.lft.to/lastmile_qr_scan", "android": "https://dc.lft.to/lastmile_qr_scan"}, "is_reserved": 0}, {"lon": -76.98771883333333, "bike_id": "8195a2010c21a288b1a429c0928eab3a", "lat": 38.86606666666667, "fusion_lon": 0.0, "fusion_lat": 0.0, "type": "electric_bike", "name": "8195a2010c21a288b1a429c0928eab3a", "is_disabled": 0, "rental_uris": {"ios": "https://dc.lft.to/lastmile_qr_scan", "android": "https://dc.lft.to/lastmile_qr_scan"}, "is_reserved": 0}, {"lon": -77.023883, "bike_id": "62a611a35071ccac3fddad3d9666affb", "lat": 38.919985833333335, "fusion_lon": 0.0, "fusion_lat": 0.0, "type": "electric_scooter", "name": "62a611a35071ccac3fddad3d9666affb", "is_disabled": 0, "rental_uris": {"ios": "https://dc.lft.to/lastmile_qr_scan", "android": "https://dc.lft.to/lastmile_qr_scan"}, "is_reserved": 0}, {"lon": -77.1856165, "bike_id": "576fe67f108d68817ee2251e7baf954a", "lat": 39.099764, "fusion_lon": 0.0, "fusion_lat": 0.0, "type": "electric_bike", "name": "576fe67f108d68817ee2251e7baf954a", "is_disabled": 0, "rental_uris": {"ios": "https://dc.lft.to/lastmile_qr_scan", "android": "https://dc.lft.to/lastmile_qr_scan"}, "is_reserved": 0}, {"lon": -77.0209, "bike_id": "5739e9b752b74a498c792148824a8fda", "lat": 38.95745383333333, "fusion_lon": 0.0, "fusion_lat": 0.0, "type": "electric_scooter", "name": "5739e9b752b74a498c792148824a8fda", "is_disabled": 0, "rental_uris": {"ios": "https://dc.lft.to/lastmile_qr_scan", "android": "https://dc.lft.to/lastmile_qr_scan"}, "is_reserved": 0}, {"lon": -77.05572466666666, "bike_id": "04a11b493b50c6dd4a9530e1e477ce13", "lat": 38.91602, "fusion_lon": 0.0, "fusion_lat": 0.0, "type": "electric_scooter", "name": "04a11b493b50c6dd4a9530e1e477ce13", "is_disabled": 0, "rental_uris": {"ios": "https://dc.lft.to/lastmile_qr_scan", "android": "https://dc.lft.to/lastmile_qr_scan"}, "is_reserved": 0}, {"lon": -77.02328583333333, "bike_id": "27d9e532473590bf33e0fdcd5c464d10", "lat": 38.922225, "fusion_lon": 0.0, "fusion_lat": 0.0, "type": "electric_scooter", "name": "27d9e532473590bf33e0fdcd5c464d10", "is_disabled": 0, "rental_uris": {"ios": "https://dc.lft.to/lastmile_qr_scan", "android": "https://dc.lft.to/lastmile_qr_scan"}, "is_reserved": 0}, {"lon": -76.99001166666666, "bike_id": "fe35eaa3bab86b700b5d2547fbed1b9e", "lat": 38.865060166666666, "fusion_lon": 0.0, "fusion_lat": 0.0, "type": "electric_scooter", "name": "fe35eaa3bab86b700b5d2547fbed1b9e", "is_disabled": 0, "rental_uris": {"ios": "https://dc.lft.to/lastmile_qr_scan", "android": "https://dc.lft.to/lastmile_qr_scan"}, "is_reserved": 0}, {"lon": -76.98095583333334, "bike_id": "3718bdb5f8423dbf01ff441c920df502", "lat": 38.95357333333333, "fusion_lon": 0.0, "fusion_lat": 0.0, "type": "electric_bike", "name": "3718bdb5f8423dbf01ff441c920df502", "is_disabled": 0, "rental_uris": {"ios": "https://dc.lft.to/lastmile_qr_scan", "android": "https://dc.lft.to/lastmile_qr_scan"}, "is_reserved": 0}, {"lon": -77.043876, "bike_id": "d0030aed2f3f91dfa17147c63851cc72", "lat": 38.9088695, "fusion_lon": 0.0, "fusion_lat": 0.0, "type": "electric_scooter", "name": "d0030aed2f3f91dfa17147c63851cc72", "is_disabled": 0, "rental_uris": {"ios": "https://dc.lft.to/lastmile_qr_scan", "android": "https://dc.lft.to/lastmile_qr_scan"}, "is_reserved": 0}, {"lon": -77.03336816666666, "bike_id": "f5736a790b67130e9757d0c48d4da71f", "lat": 38.93637833333333, "fusion_lon": 0.0, "fusion_lat": 0.0, "type": "electric_scooter", "name": "f5736a790b67130e9757d0c48d4da71f", "is_disabled": 0, "rental_uris": {"ios": "https://dc.lft.to/lastmile_qr_scan", "android": "https://dc.lft.to/lastmile_qr_scan"}, "is_reserved": 0}, {"lon": -76.98722866666667, "bike_id": "e91c100d2ab3962298cffce29d5bd3ad", "lat": 38.867131666666666, "fusion_lon": 0.0, "fusion_lat": 0.0, "type": "electric_scooter", "name": "e91c100d2ab3962298cffce29d5bd3ad", "is_disabled": 0, "rental_uris": {"ios": "https://dc.lft.to/lastmile_qr_scan", "android": "https://dc.lft.to/lastmile_qr_scan"}, "is_reserved": 0}, {"lon": -76.993359, "bike_id": "99e651168c52660c1ced368eaffc28bd", "lat": 38.871432166666665, "fusion_lon": 0.0, "fusion_lat": 0.0, "type": "electric_scooter", "name": "99e651168c52660c1ced368eaffc28bd", "is_disabled": 0, "rental_uris": {"ios": "https://dc.lft.to/lastmile_qr_scan", "android": "https://dc.lft.to/lastmile_qr_scan"}, "is_reserved": 0}, {"lon": -76.98705016666666, "bike_id": "5309a23ee8050ecdfdc79192e0b3679b", "lat": 38.865421833333336, "fusion_lon": 0.0, "fusion_lat": 0.0, "type": "electric_scooter", "name": "5309a23ee8050ecdfdc79192e0b3679b", "is_disabled": 0, "rental_uris": {"ios": "https://dc.lft.to/lastmile_qr_scan", "android": "https://dc.lft.to/lastmile_qr_scan"}, "is_reserved": 0}, {"lon": -77.0329505, "bike_id": "00bb9c7867488ca4ea47349116f7a1b2", "lat": 38.90355566666667, "fusion_lon": 0.0, "fusion_lat": 0.0, "type": "electric_scooter", "name": "00bb9c7867488ca4ea47349116f7a1b2", "is_disabled": 0, "rental_uris": {"ios": "https://dc.lft.to/lastmile_qr_scan", "android": "https://dc.lft.to/lastmile_qr_scan"}, "is_reserved": 0}, {"lon": -77.02652983333333, "bike_id": "682cdc04381b50da3d00b23bd394dfb2", "lat": 38.89729833333333, "fusion_lon": 0.0, "fusion_lat": 0.0, "type": "electric_scooter", "name": "682cdc04381b50da3d00b23bd394dfb2", "is_disabled": 0, "rental_uris": {"ios": "https://dc.lft.to/lastmile_qr_scan", "android": "https://dc.lft.to/lastmile_qr_scan"}, "is_reserved": 0}, {"lon": -76.94887466666667, "bike_id": "345b5d2327cc3b5b458ecc9c8a28f189", "lat": 38.89509733333333, "fusion_lon": 0.0, "fusion_lat": 0.0, "type": "electric_scooter", "name": "345b5d2327cc3b5b458ecc9c8a28f189", "is_disabled": 0, "rental_uris": {"ios": "https://dc.lft.to/lastmile_qr_scan", "android": "https://dc.lft.to/lastmile_qr_scan"}, "is_reserved": 0}, {"lon": -77.016651, "bike_id": "d67ad3f6e6c38ceff3cecb5c7b16cc56", "lat": 38.881062166666666, "fusion_lon": 0.0, "fusion_lat": 0.0, "type": "electric_scooter", "name": "d67ad3f6e6c38ceff3cecb5c7b16cc56", "is_disabled": 0, "rental_uris": {"ios": "https://dc.lft.to/lastmile_qr_scan", "android": "https://dc.lft.to/lastmile_qr_scan"}, "is_reserved": 0}, {"lon": -77.02734983333333, "bike_id": "33687aad030cddf6d8ac33c1efff3d86", "lat": 38.9107615, "fusion_lon": 0.0, "fusion_lat": 0.0, "type": "electric_scooter", "name": "33687aad030cddf6d8ac33c1efff3d86", "is_disabled": 0, "rental_uris": {"ios": "https://dc.lft.to/lastmile_qr_scan", "android": "https://dc.lft.to/lastmile_qr_scan"}, "is_reserved": 0}, {"lon": -77.01627216666667, "bike_id": "6343b15723e967bd8921d06d908aa3cf", "lat": 38.905724666666664, "fusion_lon": 0.0, "fusion_lat": 0.0, "type": "electric_scooter", "name": "6343b15723e967bd8921d06d908aa3cf", "is_disabled": 0, "rental_uris": {"ios": "https://dc.lft.to/lastmile_qr_scan", "android": "https://dc.lft.to/lastmile_qr_scan"}, "is_reserved": 0}, {"lon": -77.03901833333333, "bike_id": "ecc09a4e8c6620cd5853e7a186c16ca3", "lat": 38.918503333333334, "fusion_lon": 0.0, "fusion_lat": 0.0, "type": "electric_scooter", "name": "ecc09a4e8c6620cd5853e7a186c16ca3", "is_disabled": 0, "rental_uris": {"ios": "https://dc.lft.to/lastmile_qr_scan", "android": "https://dc.lft.to/lastmile_qr_scan"}, "is_reserved": 0}, {"lon": -76.999424, "bike_id": "3968278fc6449e7f80ee4b22d6f95e71", "lat": 38.906199, "fusion_lon": 0.0, "fusion_lat": 0.0, "type": "electric_scooter", "name": "3968278fc6449e7f80ee4b22d6f95e71", "is_disabled": 0, "rental_uris": {"ios": "https://dc.lft.to/lastmile_qr_scan", "android": "https://dc.lft.to/lastmile_qr_scan"}, "is_reserved": 0}, {"lon": -77.01239866666667, "bike_id": "8b30db6f24c1eae34efa76da17115f30", "lat": 38.89300383333333, "fusion_lon": 0.0, "fusion_lat": 0.0, "type": "electric_scooter", "name": "8b30db6f24c1eae34efa76da17115f30", "is_disabled": 0, "rental_uris": {"ios": "https://dc.lft.to/lastmile_qr_scan", "android": "https://dc.lft.to/lastmile_qr_scan"}, "is_reserved": 0}, {"lon": -77.02435583333333, "bike_id": "ad62ef2b78d18e5ec7ada0f9ac2609d8", "lat": 38.926566666666666, "fusion_lon": 0.0, "fusion_lat": 0.0, "type": "electric_scooter", "name": "ad62ef2b78d18e5ec7ada0f9ac2609d8", "is_disabled": 0, "rental_uris": {"ios": "https://dc.lft.to/lastmile_qr_scan", "android": "https://dc.lft.to/lastmile_qr_scan"}, "is_reserved": 0}, {"lon": -77.03182766666667, "bike_id": "2e64d69ea030745755d89e23b65200cd", "lat": 38.89220316666667, "fusion_lon": 0.0, "fusion_lat": 0.0, "type": "electric_scooter", "name": "2e64d69ea030745755d89e23b65200cd", "is_disabled": 0, "rental_uris": {"ios": "https://dc.lft.to/lastmile_qr_scan", "android": "https://dc.lft.to/lastmile_qr_scan"}, "is_reserved": 0}, {"lon": -77.0157345, "bike_id": "3be3294f724437e9f199d23b89060659", "lat": 38.965697166666665, "fusion_lon": 0.0, "fusion_lat": 0.0, "type": "electric_scooter", "name": "3be3294f724437e9f199d23b89060659", "is_disabled": 0, "rental_uris": {"ios": "https://dc.lft.to/lastmile_qr_scan", "android": "https://dc.lft.to/lastmile_qr_scan"}, "is_reserved": 0}, {"lon": -76.972991, "bike_id": "9502d9421a39b3aeaac8294f27fb8f8d", "lat": 38.91645966666667, "fusion_lon": 0.0, "fusion_lat": 0.0, "type": "electric_scooter", "name": "9502d9421a39b3aeaac8294f27fb8f8d", "is_disabled": 0, "rental_uris": {"ios": "https://dc.lft.to/lastmile_qr_scan", "android": "https://dc.lft.to/lastmile_qr_scan"}, "is_reserved": 0}, {"lon": -77.00603566666666, "bike_id": "d1809d1d1e5cb7d72c77f163de7db02e", "lat": 38.90563383333333, "fusion_lon": 0.0, "fusion_lat": 0.0, "type": "electric_scooter", "name": "d1809d1d1e5cb7d72c77f163de7db02e", "is_disabled": 0, "rental_uris": {"ios": "https://dc.lft.to/lastmile_qr_scan", "android": "https://dc.lft.to/lastmile_qr_scan"}, "is_reserved": 0}, {"lon": -76.94398683333333, "bike_id": "a784dd0e8da5afa9368258c736d70f5b", "lat": 38.881423, "fusion_lon": 0.0, "fusion_lat": 0.0, "type": "electric_scooter", "name": "a784dd0e8da5afa9368258c736d70f5b", "is_disabled": 0, "rental_uris": {"ios": "https://dc.lft.to/lastmile_qr_scan", "android": "https://dc.lft.to/lastmile_qr_scan"}, "is_reserved": 0}, {"lon": -76.9988765, "bike_id": "90ef679aaf1eb7a27010a479138dea91", "lat": 38.92051716666667, "fusion_lon": 0.0, "fusion_lat": 0.0, "type": "electric_scooter", "name": "90ef679aaf1eb7a27010a479138dea91", "is_disabled": 0, "rental_uris": {"ios": "https://dc.lft.to/lastmile_qr_scan", "android": "https://dc.lft.to/lastmile_qr_scan"}, "is_reserved": 0}, {"lon": -77.02281916666666, "bike_id": "2218830dd5f59e3bb6b6e1fd7f55c326", "lat": 38.912176333333335, "fusion_lon": 0.0, "fusion_lat": 0.0, "type": "electric_scooter", "name": "2218830dd5f59e3bb6b6e1fd7f55c326", "is_disabled": 0, "rental_uris": {"ios": "https://dc.lft.to/lastmile_qr_scan", "android": "https://dc.lft.to/lastmile_qr_scan"}, "is_reserved": 0}, {"lon": -77.041704, "bike_id": "9a1299b5184eb8a3a3d241756266b3d6", "lat": 38.923152333333334, "fusion_lon": 0.0, "fusion_lat": 0.0, "type": "electric_scooter", "name": "9a1299b5184eb8a3a3d241756266b3d6", "is_disabled": 0, "rental_uris": {"ios": "https://dc.lft.to/lastmile_qr_scan", "android": "https://dc.lft.to/lastmile_qr_scan"}, "is_reserved": 0}, {"lon": -76.99352566666667, "bike_id": "c4182343ffb8745935609b2d4c59f682", "lat": 38.845066, "fusion_lon": 0.0, "fusion_lat": 0.0, "type": "electric_bike", "name": "c4182343ffb8745935609b2d4c59f682", "is_disabled": 0, "rental_uris": {"ios": "https://dc.lft.to/lastmile_qr_scan", "android": "https://dc.lft.to/lastmile_qr_scan"}, "is_reserved": 0}, {"lon": -77.050428, "bike_id": "6238e18094e85ef86db5732c6e2f0a42", "lat": 38.92411666666667, "fusion_lon": 0.0, "fusion_lat": 0.0, "type": "electric_bike", "name": "6238e18094e85ef86db5732c6e2f0a42", "is_disabled": 0, "rental_uris": {"ios": "https://dc.lft.to/lastmile_qr_scan", "android": "https://dc.lft.to/lastmile_qr_scan"}, "is_reserved": 0}, {"lon": -77.01055633333333, "bike_id": "77249d10f23c8aa6a7246373c91c9e13", "lat": 38.8786665, "fusion_lon": 0.0, "fusion_lat": 0.0, "type": "electric_scooter", "name": "77249d10f23c8aa6a7246373c91c9e13", "is_disabled": 0, "rental_uris": {"ios": "https://dc.lft.to/lastmile_qr_scan", "android": "https://dc.lft.to/lastmile_qr_scan"}, "is_reserved": 0}, {"lon": -77.03301783333333, "bike_id": "0188fa93a6a7e80be31b7a677232f6db", "lat": 38.9009105, "fusion_lon": 0.0, "fusion_lat": 0.0, "type": "electric_scooter", "name": "0188fa93a6a7e80be31b7a677232f6db", "is_disabled": 0, "rental_uris": {"ios": "https://dc.lft.to/lastmile_qr_scan", "android": "https://dc.lft.to/lastmile_qr_scan"}, "is_reserved": 0}, {"lon": -77.015341, "bike_id": "bb97a4ab9f623425f437ebce796e2e72", "lat": 38.8874155, "fusion_lon": 0.0, "fusion_lat": 0.0, "type": "electric_scooter", "name": "bb97a4ab9f623425f437ebce796e2e72", "is_disabled": 0, "rental_uris": {"ios": "https://dc.lft.to/lastmile_qr_scan", "android": "https://dc.lft.to/lastmile_qr_scan"}, "is_reserved": 0}, {"lon": -77.04875916666667, "bike_id": "f5d20f8e70209075a406d293d1c0caf8", "lat": 38.892384666666665, "fusion_lon": 0.0, "fusion_lat": 0.0, "type": "electric_scooter", "name": "f5d20f8e70209075a406d293d1c0caf8", "is_disabled": 0, "rental_uris": {"ios": "https://dc.lft.to/lastmile_qr_scan", "android": "https://dc.lft.to/lastmile_qr_scan"}, "is_reserved": 0}, {"lon": -77.04761366666666, "bike_id": "e8810a52fcd659a3ce17915c4bf4a799", "lat": 38.91764383333334, "fusion_lon": 0.0, "fusion_lat": 0.0, "type": "electric_scooter", "name": "e8810a52fcd659a3ce17915c4bf4a799", "is_disabled": 0, "rental_uris": {"ios": "https://dc.lft.to/lastmile_qr_scan", "android": "https://dc.lft.to/lastmile_qr_scan"}, "is_reserved": 0}, {"lon": -77.02233466666667, "bike_id": "4d13386597aebadca35ab2fe080178b9", "lat": 38.96205416666667, "fusion_lon": 0.0, "fusion_lat": 0.0, "type": "electric_scooter", "name": "4d13386597aebadca35ab2fe080178b9", "is_disabled": 0, "rental_uris": {"ios": "https://dc.lft.to/lastmile_qr_scan", "android": "https://dc.lft.to/lastmile_qr_scan"}, "is_reserved": 0}, {"lon": -76.98228433333334, "bike_id": "a8f3f4276188d2718b05a9c659a34f19", "lat": 38.916465, "fusion_lon": 0.0, "fusion_lat": 0.0, "type": "electric_scooter", "name": "a8f3f4276188d2718b05a9c659a34f19", "is_disabled": 0, "rental_uris": {"ios": "https://dc.lft.to/lastmile_qr_scan", "android": "https://dc.lft.to/lastmile_qr_scan"}, "is_reserved": 0}, {"lon": -77.0297485, "bike_id": "a407e9fbf9e40012769e5b0f05df1fd5", "lat": 38.90652266666667, "fusion_lon": 0.0, "fusion_lat": 0.0, "type": "electric_scooter", "name": "a407e9fbf9e40012769e5b0f05df1fd5", "is_disabled": 0, "rental_uris": {"ios": "https://dc.lft.to/lastmile_qr_scan", "android": "https://dc.lft.to/lastmile_qr_scan"}, "is_reserved": 0}, {"lon": -77.028161, "bike_id": "a41ab5ff4848af60bf368e9564829425", "lat": 38.89515766666667, "fusion_lon": 0.0, "fusion_lat": 0.0, "type": "electric_scooter", "name": "a41ab5ff4848af60bf368e9564829425", "is_disabled": 0, "rental_uris": {"ios": "https://dc.lft.to/lastmile_qr_scan", "android": "https://dc.lft.to/lastmile_qr_scan"}, "is_reserved": 0}, {"lon": -76.9988535, "bike_id": "232212ea6ce8cc748c051e5fe911534d", "lat": 38.90951333333334, "fusion_lon": 0.0, "fusion_lat": 0.0, "type": "electric_scooter", "name": "232212ea6ce8cc748c051e5fe911534d", "is_disabled": 0, "rental_uris": {"ios": "https://dc.lft.to/lastmile_qr_scan", "android": "https://dc.lft.to/lastmile_qr_scan"}, "is_reserved": 0}, {"lon": -76.99224883333333, "bike_id": "0beeb2a22f5e80ca23e25610f9f7ff72", "lat": 38.922103666666665, "fusion_lon": 0.0, "fusion_lat": 0.0, "type": "electric_scooter", "name": "0beeb2a22f5e80ca23e25610f9f7ff72", "is_disabled": 0, "rental_uris": {"ios": "https://dc.lft.to/lastmile_qr_scan", "android": "https://dc.lft.to/lastmile_qr_scan"}, "is_reserved": 0}, {"lon": -77.0035285, "bike_id": "2aa6a1055b637b12f586862bbaf7d3a7", "lat": 38.88714183333333, "fusion_lon": 0.0, "fusion_lat": 0.0, "type": "electric_scooter", "name": "2aa6a1055b637b12f586862bbaf7d3a7", "is_disabled": 0, "rental_uris": {"ios": "https://dc.lft.to/lastmile_qr_scan", "android": "https://dc.lft.to/lastmile_qr_scan"}, "is_reserved": 0}, {"lon": -77.0506055, "bike_id": "1ce1dcb947c6fd4036921473ebdd6e60", "lat": 38.900847, "fusion_lon": 0.0, "fusion_lat": 0.0, "type": "electric_scooter", "name": "1ce1dcb947c6fd4036921473ebdd6e60", "is_disabled": 0, "rental_uris": {"ios": "https://dc.lft.to/lastmile_qr_scan", "android": "https://dc.lft.to/lastmile_qr_scan"}, "is_reserved": 0}, {"lon": -77.02977116666666, "bike_id": "735085f71a029b8cea9803a9304856ce", "lat": 38.906554, "fusion_lon": 0.0, "fusion_lat": 0.0, "type": "electric_scooter", "name": "735085f71a029b8cea9803a9304856ce", "is_disabled": 0, "rental_uris": {"ios": "https://dc.lft.to/lastmile_qr_scan", "android": "https://dc.lft.to/lastmile_qr_scan"}, "is_reserved": 0}, {"lon": -77.03292866666666, "bike_id": "967293e78733105cdfdca35b9931d263", "lat": 38.90979633333333, "fusion_lon": 0.0, "fusion_lat": 0.0, "type": "electric_scooter", "name": "967293e78733105cdfdca35b9931d263", "is_disabled": 0, "rental_uris": {"ios": "https://dc.lft.to/lastmile_qr_scan", "android": "https://dc.lft.to/lastmile_qr_scan"}, "is_reserved": 0}, {"lon": -77.03971666666666, "bike_id": "4db9c8d64fb7e367d08afaf5d983f0e0", "lat": 38.91188483333333, "fusion_lon": 0.0, "fusion_lat": 0.0, "type": "electric_scooter", "name": "4db9c8d64fb7e367d08afaf5d983f0e0", "is_disabled": 0, "rental_uris": {"ios": "https://dc.lft.to/lastmile_qr_scan", "android": "https://dc.lft.to/lastmile_qr_scan"}, "is_reserved": 0}, {"lon": -76.98013833333333, "bike_id": "39d7429efb2c4e5383da1d84089123dd", "lat": 38.903312, "fusion_lon": 0.0, "fusion_lat": 0.0, "type": "electric_scooter", "name": "39d7429efb2c4e5383da1d84089123dd", "is_disabled": 0, "rental_uris": {"ios": "https://dc.lft.to/lastmile_qr_scan", "android": "https://dc.lft.to/lastmile_qr_scan"}, "is_reserved": 0}, {"lon": -77.0036965, "bike_id": "3fe157d4d0c630572c1b65bb51b18e4d", "lat": 38.897287, "fusion_lon": 0.0, "fusion_lat": 0.0, "type": "electric_scooter", "name": "3fe157d4d0c630572c1b65bb51b18e4d", "is_disabled": 0, "rental_uris": {"ios": "https://dc.lft.to/lastmile_qr_scan", "android": "https://dc.lft.to/lastmile_qr_scan"}, "is_reserved": 0}, {"lon": -77.05422016666667, "bike_id": "a61c348c40d50db52c87cadcd1d77f90", "lat": 38.928391, "fusion_lon": 0.0, "fusion_lat": 0.0, "type": "electric_scooter", "name": "a61c348c40d50db52c87cadcd1d77f90", "is_disabled": 0, "rental_uris": {"ios": "https://dc.lft.to/lastmile_qr_scan", "android": "https://dc.lft.to/lastmile_qr_scan"}, "is_reserved": 0}, {"lon": -77.01926233333333, "bike_id": "9832d814179eb664a1469e7221071508", "lat": 38.92217766666667, "fusion_lon": 0.0, "fusion_lat": 0.0, "type": "electric_scooter", "name": "9832d814179eb664a1469e7221071508", "is_disabled": 0, "rental_uris": {"ios": "https://dc.lft.to/lastmile_qr_scan", "android": "https://dc.lft.to/lastmile_qr_scan"}, "is_reserved": 0}, {"lon": -77.1310115, "bike_id": "ebfe0667192522329d8b013076f9e34b", "lat": 39.024334, "fusion_lon": 0.0, "fusion_lat": 0.0, "type": "electric_bike", "name": "ebfe0667192522329d8b013076f9e34b", "is_disabled": 0, "rental_uris": {"ios": "https://dc.lft.to/lastmile_qr_scan", "android": "https://dc.lft.to/lastmile_qr_scan"}, "is_reserved": 0}, {"lon": -77.02070666666667, "bike_id": "3c8ea68e08b75be1f5764bd61565c0a1", "lat": 38.9326175, "fusion_lon": 0.0, "fusion_lat": 0.0, "type": "electric_bike", "name": "3c8ea68e08b75be1f5764bd61565c0a1", "is_disabled": 0, "rental_uris": {"ios": "https://dc.lft.to/lastmile_qr_scan", "android": "https://dc.lft.to/lastmile_qr_scan"}, "is_reserved": 0}, {"lon": -77.03467566666667, "bike_id": "9644332327f83f9ee7917e37f4360106", "lat": 38.92153666666667, "fusion_lon": 0.0, "fusion_lat": 0.0, "type": "electric_scooter", "name": "9644332327f83f9ee7917e37f4360106", "is_disabled": 0, "rental_uris": {"ios": "https://dc.lft.to/lastmile_qr_scan", "android": "https://dc.lft.to/lastmile_qr_scan"}, "is_reserved": 0}, {"lon": -77.055119, "bike_id": "440b00cfa835aac36db71100a52e4acf", "lat": 38.899669, "fusion_lon": 0.0, "fusion_lat": 0.0, "type": "electric_scooter", "name": "440b00cfa835aac36db71100a52e4acf", "is_disabled": 0, "rental_uris": {"ios": "https://dc.lft.to/lastmile_qr_scan", "android": "https://dc.lft.to/lastmile_qr_scan"}, "is_reserved": 0}, {"lon": -77.04242433333333, "bike_id": "5b894b4ccce7b12213ead559c3576d4c", "lat": 38.914812, "fusion_lon": 0.0, "fusion_lat": 0.0, "type": "electric_scooter", "name": "5b894b4ccce7b12213ead559c3576d4c", "is_disabled": 0, "rental_uris": {"ios": "https://dc.lft.to/lastmile_qr_scan", "android": "https://dc.lft.to/lastmile_qr_scan"}, "is_reserved": 0}, {"lon": -77.0275975, "bike_id": "0fa9039b4f5924090eb5b5cb5c3edea5", "lat": 38.94400616666667, "fusion_lon": 0.0, "fusion_lat": 0.0, "type": "electric_scooter", "name": "0fa9039b4f5924090eb5b5cb5c3edea5", "is_disabled": 0, "rental_uris": {"ios": "https://dc.lft.to/lastmile_qr_scan", "android": "https://dc.lft.to/lastmile_qr_scan"}, "is_reserved": 0}, {"lon": -77.02151933333333, "bike_id": "5a75b06eb197fafc2276954306edc7e5", "lat": 38.900957166666664, "fusion_lon": 0.0, "fusion_lat": 0.0, "type": "electric_scooter", "name": "5a75b06eb197fafc2276954306edc7e5", "is_disabled": 0, "rental_uris": {"ios": "https://dc.lft.to/lastmile_qr_scan", "android": "https://dc.lft.to/lastmile_qr_scan"}, "is_reserved": 0}, {"lon": -77.0306065, "bike_id": "4f53c26e27659aaba976d4c0d36b5ff6", "lat": 38.9028715, "fusion_lon": 0.0, "fusion_lat": 0.0, "type": "electric_scooter", "name": "4f53c26e27659aaba976d4c0d36b5ff6", "is_disabled": 0, "rental_uris": {"ios": "https://dc.lft.to/lastmile_qr_scan", "android": "https://dc.lft.to/lastmile_qr_scan"}, "is_reserved": 0}, {"lon": -77.03315666666667, "bike_id": "28a52f66483a6b3acc8ae49b0d509a0a", "lat": 38.91561633333333, "fusion_lon": 0.0, "fusion_lat": 0.0, "type": "electric_scooter", "name": "28a52f66483a6b3acc8ae49b0d509a0a", "is_disabled": 0, "rental_uris": {"ios": "https://dc.lft.to/lastmile_qr_scan", "android": "https://dc.lft.to/lastmile_qr_scan"}, "is_reserved": 0}, {"lon": -77.01997616666667, "bike_id": "cfea3dc7d4ae74fab088fb1cd0877132", "lat": 38.913638166666665, "fusion_lon": 0.0, "fusion_lat": 0.0, "type": "electric_scooter", "name": "cfea3dc7d4ae74fab088fb1cd0877132", "is_disabled": 0, "rental_uris": {"ios": "https://dc.lft.to/lastmile_qr_scan", "android": "https://dc.lft.to/lastmile_qr_scan"}, "is_reserved": 0}, {"lon": -77.03690983333334, "bike_id": "b2b0889c2c274f45800ea9af2c190a16", "lat": 38.91269466666667, "fusion_lon": 0.0, "fusion_lat": 0.0, "type": "electric_scooter", "name": "b2b0889c2c274f45800ea9af2c190a16", "is_disabled": 0, "rental_uris": {"ios": "https://dc.lft.to/lastmile_qr_scan", "android": "https://dc.lft.to/lastmile_qr_scan"}, "is_reserved": 0}, {"lon": -77.01004366666666, "bike_id": "7a18c5686857a720d3eeba31e8e0ea8c", "lat": 38.867109166666665, "fusion_lon": 0.0, "fusion_lat": 0.0, "type": "electric_scooter", "name": "7a18c5686857a720d3eeba31e8e0ea8c", "is_disabled": 0, "rental_uris": {"ios": "https://dc.lft.to/lastmile_qr_scan", "android": "https://dc.lft.to/lastmile_qr_scan"}, "is_reserved": 0}, {"lon": -77.02213083333334, "bike_id": "96505ad74840c28de3197b0327f31e56", "lat": 38.90986783333334, "fusion_lon": 0.0, "fusion_lat": 0.0, "type": "electric_scooter", "name": "96505ad74840c28de3197b0327f31e56", "is_disabled": 0, "rental_uris": {"ios": "https://dc.lft.to/lastmile_qr_scan", "android": "https://dc.lft.to/lastmile_qr_scan"}, "is_reserved": 0}, {"lon": -77.023925, "bike_id": "9e5e0742681d069aa47792badbb75ab6", "lat": 38.92004716666667, "fusion_lon": 0.0, "fusion_lat": 0.0, "type": "electric_scooter", "name": "9e5e0742681d069aa47792badbb75ab6", "is_disabled": 0, "rental_uris": {"ios": "https://dc.lft.to/lastmile_qr_scan", "android": "https://dc.lft.to/lastmile_qr_scan"}, "is_reserved": 0}, {"lon": -77.01154566666666, "bike_id": "1fbfa56ced3a979b2333213fa68ea150", "lat": 38.91402316666667, "fusion_lon": 0.0, "fusion_lat": 0.0, "type": "electric_scooter", "name": "1fbfa56ced3a979b2333213fa68ea150", "is_disabled": 0, "rental_uris": {"ios": "https://dc.lft.to/lastmile_qr_scan", "android": "https://dc.lft.to/lastmile_qr_scan"}, "is_reserved": 0}, {"lon": -77.01743133333333, "bike_id": "c55323d0899af3c28d23331d8c33428a", "lat": 38.90250483333333, "fusion_lon": 0.0, "fusion_lat": 0.0, "type": "electric_scooter", "name": "c55323d0899af3c28d23331d8c33428a", "is_disabled": 0, "rental_uris": {"ios": "https://dc.lft.to/lastmile_qr_scan", "android": "https://dc.lft.to/lastmile_qr_scan"}, "is_reserved": 0}, {"lon": -76.9753475, "bike_id": "70e8aa847b66a64333cc26eb23485b7a", "lat": 38.9032735, "fusion_lon": 0.0, "fusion_lat": 0.0, "type": "electric_bike", "name": "70e8aa847b66a64333cc26eb23485b7a", "is_disabled": 0, "rental_uris": {"ios": "https://dc.lft.to/lastmile_qr_scan", "android": "https://dc.lft.to/lastmile_qr_scan"}, "is_reserved": 0}, {"lon": -77.0201645, "bike_id": "9b53c3c24b2b329c280740c93d4b2b69", "lat": 38.899141666666665, "fusion_lon": 0.0, "fusion_lat": 0.0, "type": "electric_scooter", "name": "9b53c3c24b2b329c280740c93d4b2b69", "is_disabled": 0, "rental_uris": {"ios": "https://dc.lft.to/lastmile_qr_scan", "android": "https://dc.lft.to/lastmile_qr_scan"}, "is_reserved": 0}, {"lon": -77.05861183333333, "bike_id": "31a3a566819677b08bacb5dac586c308", "lat": 38.9360625, "fusion_lon": 0.0, "fusion_lat": 0.0, "type": "electric_scooter", "name": "31a3a566819677b08bacb5dac586c308", "is_disabled": 0, "rental_uris": {"ios": "https://dc.lft.to/lastmile_qr_scan", "android": "https://dc.lft.to/lastmile_qr_scan"}, "is_reserved": 0}, {"lon": -76.98715283333334, "bike_id": "6ea7ef101d655d55c3d5395824e1d0ba", "lat": 38.8662765, "fusion_lon": 0.0, "fusion_lat": 0.0, "type": "electric_scooter", "name": "6ea7ef101d655d55c3d5395824e1d0ba", "is_disabled": 0, "rental_uris": {"ios": "https://dc.lft.to/lastmile_qr_scan", "android": "https://dc.lft.to/lastmile_qr_scan"}, "is_reserved": 0}, {"lon": -77.07330883333333, "bike_id": "ea4179c667e69721f53dec311361de8b", "lat": 38.924000666666664, "fusion_lon": 0.0, "fusion_lat": 0.0, "type": "electric_scooter", "name": "ea4179c667e69721f53dec311361de8b", "is_disabled": 0, "rental_uris": {"ios": "https://dc.lft.to/lastmile_qr_scan", "android": "https://dc.lft.to/lastmile_qr_scan"}, "is_reserved": 0}, {"lon": -77.013831, "bike_id": "51152d6f93ac532a9935f9a3f4a88155", "lat": 38.88676483333333, "fusion_lon": 0.0, "fusion_lat": 0.0, "type": "electric_scooter", "name": "51152d6f93ac532a9935f9a3f4a88155", "is_disabled": 0, "rental_uris": {"ios": "https://dc.lft.to/lastmile_qr_scan", "android": "https://dc.lft.to/lastmile_qr_scan"}, "is_reserved": 0}, {"lon": -77.00976783333333, "bike_id": "3ba89f7ec72303225cb4f0b7b6191bc5", "lat": 38.89487666666667, "fusion_lon": 0.0, "fusion_lat": 0.0, "type": "electric_scooter", "name": "3ba89f7ec72303225cb4f0b7b6191bc5", "is_disabled": 0, "rental_uris": {"ios": "https://dc.lft.to/lastmile_qr_scan", "android": "https://dc.lft.to/lastmile_qr_scan"}, "is_reserved": 0}, {"lon": -77.03325033333333, "bike_id": "08e6b80e8b61611273687cb8c5094d23", "lat": 38.919684333333336, "fusion_lon": 0.0, "fusion_lat": 0.0, "type": "electric_scooter", "name": "08e6b80e8b61611273687cb8c5094d23", "is_disabled": 0, "rental_uris": {"ios": "https://dc.lft.to/lastmile_qr_scan", "android": "https://dc.lft.to/lastmile_qr_scan"}, "is_reserved": 0}, {"lon": -76.983478, "bike_id": "9e9a3bce1d6c9202ef56540295d71c02", "lat": 38.904537166666664, "fusion_lon": 0.0, "fusion_lat": 0.0, "type": "electric_scooter", "name": "9e9a3bce1d6c9202ef56540295d71c02", "is_disabled": 0, "rental_uris": {"ios": "https://dc.lft.to/lastmile_qr_scan", "android": "https://dc.lft.to/lastmile_qr_scan"}, "is_reserved": 0}, {"lon": -77.0219605, "bike_id": "15d46452dd80f2528ad57077a9e735b1", "lat": 38.900364833333335, "fusion_lon": 0.0, "fusion_lat": 0.0, "type": "electric_scooter", "name": "15d46452dd80f2528ad57077a9e735b1", "is_disabled": 0, "rental_uris": {"ios": "https://dc.lft.to/lastmile_qr_scan", "android": "https://dc.lft.to/lastmile_qr_scan"}, "is_reserved": 0}, {"lon": -77.05861966666667, "bike_id": "d7591d7cb2bdc92fc036d602784e7f01", "lat": 38.9360875, "fusion_lon": 0.0, "fusion_lat": 0.0, "type": "electric_scooter", "name": "d7591d7cb2bdc92fc036d602784e7f01", "is_disabled": 0, "rental_uris": {"ios": "https://dc.lft.to/lastmile_qr_scan", "android": "https://dc.lft.to/lastmile_qr_scan"}, "is_reserved": 0}, {"lon": -77.07435816666667, "bike_id": "6194baa1ade64bd8b10193ea0f1e1210", "lat": 38.999443166666666, "fusion_lon": 0.0, "fusion_lat": 0.0, "type": "electric_bike", "name": "6194baa1ade64bd8b10193ea0f1e1210", "is_disabled": 0, "rental_uris": {"ios": "https://dc.lft.to/lastmile_qr_scan", "android": "https://dc.lft.to/lastmile_qr_scan"}, "is_reserved": 0}, {"lon": -76.94922583333333, "bike_id": "9a8cdfb18f3346440b71ce50c088312f", "lat": 38.89354983333333, "fusion_lon": 0.0, "fusion_lat": 0.0, "type": "electric_scooter", "name": "9a8cdfb18f3346440b71ce50c088312f", "is_disabled": 0, "rental_uris": {"ios": "https://dc.lft.to/lastmile_qr_scan", "android": "https://dc.lft.to/lastmile_qr_scan"}, "is_reserved": 0}, {"lon": -77.04030266666666, "bike_id": "e53a678bb6a1759f2002c30f8c1f470e", "lat": 38.923871166666665, "fusion_lon": 0.0, "fusion_lat": 0.0, "type": "electric_scooter", "name": "e53a678bb6a1759f2002c30f8c1f470e", "is_disabled": 0, "rental_uris": {"ios": "https://dc.lft.to/lastmile_qr_scan", "android": "https://dc.lft.to/lastmile_qr_scan"}, "is_reserved": 0}, {"lon": -77.00014816666666, "bike_id": "b0bddad5fe99d9f7549708e19e7460b6", "lat": 38.919762166666665, "fusion_lon": 0.0, "fusion_lat": 0.0, "type": "electric_scooter", "name": "b0bddad5fe99d9f7549708e19e7460b6", "is_disabled": 0, "rental_uris": {"ios": "https://dc.lft.to/lastmile_qr_scan", "android": "https://dc.lft.to/lastmile_qr_scan"}, "is_reserved": 0}, {"lon": -77.020268, "bike_id": "d36d3911590f56b016dd885c6a990ce2", "lat": 38.924433, "fusion_lon": 0.0, "fusion_lat": 0.0, "type": "electric_scooter", "name": "d36d3911590f56b016dd885c6a990ce2", "is_disabled": 0, "rental_uris": {"ios": "https://dc.lft.to/lastmile_qr_scan", "android": "https://dc.lft.to/lastmile_qr_scan"}, "is_reserved": 0}, {"lon": -77.021781, "bike_id": "b57042717c7f698c0b8a0818ed74eeab", "lat": 38.90702866666667, "fusion_lon": 0.0, "fusion_lat": 0.0, "type": "electric_bike", "name": "b57042717c7f698c0b8a0818ed74eeab", "is_disabled": 0, "rental_uris": {"ios": "https://dc.lft.to/lastmile_qr_scan", "android": "https://dc.lft.to/lastmile_qr_scan"}, "is_reserved": 0},