{"data": {"bikes": [{"fusion_lon": 0.0, "fusion_lat": 0.0, "rental_uris": {"android": "https://dc.lft.to/lastmile_qr_scan", "ios": "https://dc.lft.to/lastmile_qr_scan"}, "is_disabled": 0, "type": "electric_bike", "is_reserved": 0, "name": "18ce51943e03bab2b07044ff7f2ad7fa", "lon": -77.03464983333333, "bike_id": "18ce51943e03bab2b07044ff7f2ad7fa", "lat": 38.916587666666665}, {"fusion_lon": 0.0, "fusion_lat": 0.0, "rental_uris": {"android": "https://dc.lft.to/lastmile_qr_scan", "ios": "https://dc.lft.to/lastmile_qr_scan"}, "is_disabled": 0, "type": "electric_scooter", "is_reserved": 0, "name": "763fd5c8641cf5550b9585ea056c2dad", "lon": -77.07850166666667, "bike_id": "763fd5c8641cf5550b9585ea056c2dad", "lat": 38.93149416666667}, {"fusion_lon": 0.0, "fusion_lat": 0.0, "rental_uris": {"android": "https://dc.lft.to/lastmile_qr_scan", "ios": "https://dc.lft.to/lastmile_qr_scan"}, "is_disabled": 0, "type": "electric_scooter", "is_reserved": 0, "name": "7b5e7bfeba8515dbfb77cfc07977552e", "lon": -77.0221275, "bike_id": "7b5e7bfeba8515dbfb77cfc07977552e", "lat": 38.92470866666667}, {"fusion_lon": 0.0, "fusion_lat": 0.0, "rental_uris": {"android": "https://dc.lft.to/lastmile_qr_scan", "ios": "https://dc.lft.to/lastmile_qr_scan"}, "is_disabled": 0, "type": "electric_scooter", "is_reserved": 0, "name": "973f6157376817bf57827e2f377f0538", "lon": -77.01951866666667, "bike_id": "973f6157376817bf57827e2f377f0538", "lat": 38.922564333333334}, {"fusion_lon": 0.0, "fusion_lat": 0.0, "rental_uris": {"android": "https://dc.lft.to/lastmile_qr_scan", "ios": "https://dc.lft.to/lastmile_qr_scan"}, "is_disabled": 0, "type": "electric_scooter", "is_reserved": 0, "name": "3cee6b37b66a783e97b08c8cb2cd0a19", "lon": -77.016093, "bike_id": "3cee6b37b66a783e97b08c8cb2cd0a19", "lat": 38.9158605}, {"fusion_lon": 0.0, "fusion_lat": 0.0, "rental_uris": {"android": "https://dc.lft.to/lastmile_qr_scan", "ios": "https://dc.lft.to/lastmile_qr_scan"}, "is_disabled": 0, "type": "electric_scooter", "is_reserved": 0, "name": "8270da2364a9dff21197c604bb8eb695", "lon": -77.02714666666667, "bike_id": "8270da2364a9dff21197c604bb8eb695", "lat": 38.91959833333333}, {"fusion_lon": 0.0, "fusion_lat": 0.0, "rental_uris": {"android": "https://dc.lft.to/lastmile_qr_scan", "ios": "https://dc.lft.to/lastmile_qr_scan"}, "is_disabled": 0, "type": "electric_scooter", "is_reserved": 0, "name": "e1db881917789ecedf72a92af4b1c9ed", "lon": -77.02425416666667, "bike_id": "e1db881917789ecedf72a92af4b1c9ed", "lat": 38.92067}, {"fusion_lon": 0.0, "fusion_lat": 0.0, "rental_uris": {"android": "https://dc.lft.to/lastmile_qr_scan", "ios": "https://dc.lft.to/lastmile_qr_scan"}, "is_disabled": 0, "type": "electric_scooter", "is_reserved": 0, "name": "79ad90cf5ce54a0f336a75c38556ab4b", "lon": -77.02031283333334, "bike_id": "79ad90cf5ce54a0f336a75c38556ab4b", "lat": 38.89866133333334}, {"fusion_lon": 0.0, "fusion_lat": 0.0, "rental_uris": {"android": "https://dc.lft.to/lastmile_qr_scan", "ios": "https://dc.lft.to/lastmile_qr_scan"}, "is_disabled": 0, "type": "electric_scooter", "is_reserved": 0, "name": "db2551c91614cf076ae428be360254b4", "lon": -77.02205716666667, "bike_id": "db2551c91614cf076ae428be360254b4", "lat": 38.895223333333334}, {"fusion_lon": 0.0, "fusion_lat": 0.0, "rental_uris": {"android": "https://dc.lft.to/lastmile_qr_scan", "ios": "https://dc.lft.to/lastmile_qr_scan"}, "is_disabled": 0, "type": "electric_scooter", "is_reserved": 0, "name": "ce965fd7c5af61afacfd99557e662a46", "lon": -77.04689216666667, "bike_id": "ce965fd7c5af61afacfd99557e662a46", "lat": 38.903012833333335}, {"fusion_lon": 0.0, "fusion_lat": 0.0, "rental_uris": {"android": "https://dc.lft.to/lastmile_qr_scan", "ios": "https://dc.lft.to/lastmile_qr_scan"}, "is_disabled": 0, "type": "electric_scooter", "is_reserved": 0, "name": "f5e116e5ac4b941d2c6849a526741de0", "lon": -77.0242925, "bike_id": "f5e116e5ac4b941d2c6849a526741de0", "lat": 38.905582833333334}, {"fusion_lon": 0.0, "fusion_lat": 0.0, "rental_uris": {"android": "https://dc.lft.to/lastmile_qr_scan", "ios": "https://dc.lft.to/lastmile_qr_scan"}, "is_disabled": 0, "type": "electric_scooter", "is_reserved": 0, "name": "9f65ef7472361f30f0bcda0ae4c439b8", "lon": -77.0500075, "bike_id": "9f65ef7472361f30f0bcda0ae4c439b8", "lat": 38.892269666666664}, {"fusion_lon": 0.0, "fusion_lat": 0.0, "rental_uris": {"android": "https://dc.lft.to/lastmile_qr_scan", "ios": "https://dc.lft.to/lastmile_qr_scan"}, "is_disabled": 0, "type": "electric_scooter", "is_reserved": 0, "name": "440d6e4be58854a8292efe775c625156", "lon": -76.9845455, "bike_id": "440d6e4be58854a8292efe775c625156", "lat": 38.892365166666664}, {"fusion_lon": 0.0, "fusion_lat": 0.0, "rental_uris": {"android": "https://dc.lft.to/lastmile_qr_scan", "ios": "https://dc.lft.to/lastmile_qr_scan"}, "is_disabled": 0, "type": "electric_scooter", "is_reserved": 0, "name": "61c914c984df0b0f3a8751f6c99e492e", "lon": -77.00450333333333, "bike_id": "61c914c984df0b0f3a8751f6c99e492e", "lat": 38.877327333333334}, {"fusion_lon": 0.0, "fusion_lat": 0.0, "rental_uris": {"android": "https://dc.lft.to/lastmile_qr_scan", "ios": "https://dc.lft.to/lastmile_qr_scan"}, "is_disabled": 0, "type": "electric_bike", "is_reserved": 0, "name": "4f5813f5afb36575d0d3853630779b82", "lon": -77.048864, "bike_id": "4f5813f5afb36575d0d3853630779b82", "lat": 38.90006133333333}, {"fusion_lon": 0.0, "fusion_lat": 0.0, "rental_uris": {"android": "https://dc.lft.to/lastmile_qr_scan", "ios": "https://dc.lft.to/lastmile_qr_scan"}, "is_disabled": 0, "type": "electric_scooter", "is_reserved": 0, "name": "675b5260332d2d171818b82397171643", "lon": -77.03661283333334, "bike_id": "675b5260332d2d171818b82397171643", "lat": 38.906754}, {"fusion_lon": 0.0, "fusion_lat": 0.0, "rental_uris": {"android": "https://dc.lft.to/lastmile_qr_scan", "ios": "https://dc.lft.to/lastmile_qr_scan"}, "is_disabled": 0, "type": "electric_scooter", "is_reserved": 0, "name": "0d3a1c70954ba9938d7c4d7134e54731", "lon": -77.05004083333333, "bike_id": "0d3a1c70954ba9938d7c4d7134e54731", "lat": 38.90086466666666}, {"fusion_lon": 0.0, "fusion_lat": 0.0, "rental_uris": {"android": "https://dc.lft.to/lastmile_qr_scan", "ios": "https://dc.lft.to/lastmile_qr_scan"}, "is_disabled": 0, "type": "electric_scooter", "is_reserved": 0, "name": "3180ba208c0375557f8514a3ae152cfb", "lon": -77.042465, "bike_id": "3180ba208c0375557f8514a3ae152cfb", "lat": 38.92062133333334}, {"fusion_lon": 0.0, "fusion_lat": 0.0, "rental_uris": {"android": "https://dc.lft.to/lastmile_qr_scan", "ios": "https://dc.lft.to/lastmile_qr_scan"}, "is_disabled": 0, "type": "electric_scooter", "is_reserved": 0, "name": "3fd59a8132c8a7349ee92ae599b01672", "lon": -77.01196683333333, "bike_id": "3fd59a8132c8a7349ee92ae599b01672", "lat": 38.89778366666667}, {"fusion_lon": 0.0, "fusion_lat": 0.0, "rental_uris": {"android": "https://dc.lft.to/lastmile_qr_scan", "ios": "https://dc.lft.to/lastmile_qr_scan"}, "is_disabled": 0, "type": "electric_scooter", "is_reserved": 0, "name": "9215e8e534462766570b24a1d660431b", "lon": -76.934803, "bike_id": "9215e8e534462766570b24a1d660431b", "lat": 38.894992}, {"fusion_lon": 0.0, "fusion_lat": 0.0, "rental_uris": {"android": "https://dc.lft.to/lastmile_qr_scan", "ios": "https://dc.lft.to/lastmile_qr_scan"}, "is_disabled": 0, "type": "electric_scooter", "is_reserved": 0, "name": "9718381cf4ae180ce838f62a76eaaf0b", "lon": -77.021159, "bike_id": "9718381cf4ae180ce838f62a76eaaf0b", "lat": 38.92322016666667}, {"fusion_lon": 0.0, "fusion_lat": 0.0, "rental_uris": {"android": "https://dc.lft.to/lastmile_qr_scan", "ios": "https://dc.lft.to/lastmile_qr_scan"}, "is_disabled": 0, "type": "electric_scooter", "is_reserved": 0, "name": "e97318c76d3b23f554f274d2dc30c589", "lon": -77.03770183333333, "bike_id": "e97318c76d3b23f554f274d2dc30c589", "lat": 38.916934833333336}, {"fusion_lon": 0.0, "fusion_lat": 0.0, "rental_uris": {"android": "https://dc.lft.to/lastmile_qr_scan", "ios": "https://dc.lft.to/lastmile_qr_scan"}, "is_disabled": 0, "type": "electric_scooter", "is_reserved": 0, "name": "20f9d31ac0ab2d9e867f4d59af1066bf", "lon": -76.9994255, "bike_id": "20f9d31ac0ab2d9e867f4d59af1066bf", "lat": 38.87788283333333}, {"fusion_lon": 0.0, "fusion_lat": 0.0, "rental_uris": {"android": "https://dc.lft.to/lastmile_qr_scan", "ios": "https://dc.lft.to/lastmile_qr_scan"}, "is_disabled": 0, "type": "electric_scooter", "is_reserved": 0, "name": "e502f2f59f8c3dc6c94328464a3dcd10", "lon": -77.02340716666667, "bike_id": "e502f2f59f8c3dc6c94328464a3dcd10", "lat": 38.9177975}, {"fusion_lon": 0.0, "fusion_lat": 0.0, "rental_uris": {"android": "https://dc.lft.to/lastmile_qr_scan", "ios": "https://dc.lft.to/lastmile_qr_scan"}, "is_disabled": 0, "type": "electric_scooter", "is_reserved": 0, "name": "6457288dd5a4ec938b553409f316497a", "lon": -77.03581033333333, "bike_id": "6457288dd5a4ec938b553409f316497a", "lat": 38.9022055}, {"fusion_lon": 0.0, "fusion_lat": 0.0, "rental_uris": {"android": "https://dc.lft.to/lastmile_qr_scan", "ios": "https://dc.lft.to/lastmile_qr_scan"}, "is_disabled": 0, "type": "electric_scooter", "is_reserved": 0, "name": "68a977f7d0c2bd328d0d1af6fdd78013", "lon": -76.9837345, "bike_id": "68a977f7d0c2bd328d0d1af6fdd78013", "lat": 38.8607845}, {"fusion_lon": 0.0, "fusion_lat": 0.0, "rental_uris": {"android": "https://dc.lft.to/lastmile_qr_scan", "ios": "https://dc.lft.to/lastmile_qr_scan"}, "is_disabled": 0, "type": "electric_scooter", "is_reserved": 0, "name": "4571caa31f170ef6052abf310fe18355", "lon": -76.97866283333333, "bike_id": "4571caa31f170ef6052abf310fe18355", "lat": 38.897158166666664}, {"fusion_lon": 0.0, "fusion_lat": 0.0, "rental_uris": {"android": "https://dc.lft.to/lastmile_qr_scan", "ios": "https://dc.lft.to/lastmile_qr_scan"}, "is_disabled": 0, "type": "electric_scooter", "is_reserved": 0, "name": "d5b0775df3ef31c4a69463c2eaa122ad", "lon": -77.0451085, "bike_id": "d5b0775df3ef31c4a69463c2eaa122ad", "lat": 38.900069333333334}, {"fusion_lon": 0.0, "fusion_lat": 0.0, "rental_uris": {"android": "https://dc.lft.to/lastmile_qr_scan", "ios": "https://dc.lft.to/lastmile_qr_scan"}, "is_disabled": 0, "type": "electric_scooter", "is_reserved": 0, "name": "437d2282639fe31a22efdcf9617d1655", "lon": -77.0240105, "bike_id": "437d2282639fe31a22efdcf9617d1655", "lat": 38.905752166666666}, {"fusion_lon": 0.0, "fusion_lat": 0.0, "rental_uris": {"android": "https://dc.lft.to/lastmile_qr_scan", "ios": "https://dc.lft.to/lastmile_qr_scan"}, "is_disabled": 0, "type": "electric_scooter", "is_reserved": 0, "name": "58a72c192aa0772f11189171c24dd3a2", "lon": -77.03179816666666, "bike_id": "58a72c192aa0772f11189171c24dd3a2", "lat": 38.905145}, {"fusion_lon": 0.0, "fusion_lat": 0.0, "rental_uris": {"android": "https://dc.lft.to/lastmile_qr_scan", "ios": "https://dc.lft.to/lastmile_qr_scan"}, "is_disabled": 0, "type": "electric_scooter", "is_reserved": 0, "name": "e207954b33854f4372a523937267f5a5", "lon": -77.0263165, "bike_id": "e207954b33854f4372a523937267f5a5", "lat": 38.90246416666667}, {"fusion_lon": 0.0, "fusion_lat": 0.0, "rental_uris": {"android": "https://dc.lft.to/lastmile_qr_scan", "ios": "https://dc.lft.to/lastmile_qr_scan"}, "is_disabled": 0, "type": "electric_scooter", "is_reserved": 0, "name": "cfcf5b4cdcdb42129314a95054392793", "lon": -76.9833435, "bike_id": "cfcf5b4cdcdb42129314a95054392793", "lat": 38.8954395}, {"fusion_lon": 0.0, "fusion_lat": 0.0, "rental_uris": {"android": "https://dc.lft.to/lastmile_qr_scan", "ios": "https://dc.lft.to/lastmile_qr_scan"}, "is_disabled": 0, "type": "electric_bike", "is_reserved": 0, "name": "3928d9b8abaca2ee8996a363669a8361", "lon": -77.029777, "bike_id": "3928d9b8abaca2ee8996a363669a8361", "lat": 38.931783833333334}, {"fusion_lon": 0.0, "fusion_lat": 0.0, "rental_uris": {"android": "https://dc.lft.to/lastmile_qr_scan", "ios": "https://dc.lft.to/lastmile_qr_scan"}, "is_disabled": 0, "type": "electric_bike", "is_reserved": 0, "name": "0d8dd8895ada92856192e4814c835a62", "lon": -77.04646733333334, "bike_id": "0d8dd8895ada92856192e4814c835a62", "lat": 38.81539883333333}, {"fusion_lon": 0.0, "fusion_lat": 0.0, "rental_uris": {"android": "https://dc.lft.to/lastmile_qr_scan", "ios": "https://dc.lft.to/lastmile_qr_scan"}, "is_disabled": 0, "type": "electric_scooter", "is_reserved": 0, "name": "1c829638bd7d3c5200069b4de0d34064", "lon": -77.0328365, "bike_id": "1c829638bd7d3c5200069b4de0d34064", "lat": 38.936679166666664}, {"fusion_lon": 0.0, "fusion_lat": 0.0, "rental_uris": {"android": "https://dc.lft.to/lastmile_qr_scan", "ios": "https://dc.lft.to/lastmile_qr_scan"}, "is_disabled": 0, "type": "electric_scooter", "is_reserved": 0, "name": "6fb9638fcb36aeef8059d5f70cb58be0", "lon": -77.01146333333334, "bike_id": "6fb9638fcb36aeef8059d5f70cb58be0", "lat": 38.9147705}, {"fusion_lon": 0.0, "fusion_lat": 0.0, "rental_uris": {"android": "https://dc.lft.to/lastmile_qr_scan", "ios": "https://dc.lft.to/lastmile_qr_scan"}, "is_disabled": 0, "type": "electric_scooter", "is_reserved": 0, "name": "58941a34aa6d9ffdfd6f8823dd02e10e", "lon": -77.04675, "bike_id": "58941a34aa6d9ffdfd6f8823dd02e10e", "lat": 38.893699}, {"fusion_lon": 0.0, "fusion_lat": 0.0, "rental_uris": {"android": "https://dc.lft.to/lastmile_qr_scan", "ios": "https://dc.lft.to/lastmile_qr_scan"}, "is_disabled": 0, "type": "electric_bike", "is_reserved": 0, "name": "0cc0d970789d1f66efc04c6aa9cb9fc0", "lon": -77.01265766666667, "bike_id": "0cc0d970789d1f66efc04c6aa9cb9fc0", "lat": 38.86466083333333}, {"fusion_lon": 0.0, "fusion_lat": 0.0, "rental_uris": {"android": "https://dc.lft.to/lastmile_qr_scan", "ios": "https://dc.lft.to/lastmile_qr_scan"}, "is_disabled": 0, "type": "electric_scooter", "is_reserved": 0, "name": "176fdb87e3bc23b22e98c3412eab2dc3", "lon": -77.02141266666666, "bike_id": "176fdb87e3bc23b22e98c3412eab2dc3", "lat": 38.93112}, {"fusion_lon": 0.0, "fusion_lat": 0.0, "rental_uris": {"android": "https://dc.lft.to/lastmile_qr_scan", "ios": "https://dc.lft.to/lastmile_qr_scan"}, "is_disabled": 0, "type": "electric_scooter", "is_reserved": 0, "name": "d67778393cc99fad17086cd547673d6d", "lon": -77.00583283333333, "bike_id": "d67778393cc99fad17086cd547673d6d", "lat": 38.9056125}, {"fusion_lon": 0.0, "fusion_lat": 0.0, "rental_uris": {"android": "https://dc.lft.to/lastmile_qr_scan", "ios": "https://dc.lft.to/lastmile_qr_scan"}, "is_disabled": 0, "type": "electric_scooter", "is_reserved": 0, "name": "4ad8eae3fdab7f75e48102c4c3ba6dc1", "lon": -76.98600883333333, "bike_id": "4ad8eae3fdab7f75e48102c4c3ba6dc1", "lat": 38.900253}, {"fusion_lon": 0.0, "fusion_lat": 0.0, "rental_uris": {"android": "https://dc.lft.to/lastmile_qr_scan", "ios": "https://dc.lft.to/lastmile_qr_scan"}, "is_disabled": 0, "type": "electric_scooter", "is_reserved": 0, "name": "4b7bc3000147e92e35c9491c98ee2c5b", "lon": -77.00977333333333, "bike_id": "4b7bc3000147e92e35c9491c98ee2c5b", "lat": 38.89845366666667}, {"fusion_lon": 0.0, "fusion_lat": 0.0, "rental_uris": {"android": "https://dc.lft.to/lastmile_qr_scan", "ios": "https://dc.lft.to/lastmile_qr_scan"}, "is_disabled": 0, "type": "electric_scooter", "is_reserved": 0, "name": "478f6f04222a9d831a0c8f8b9f8aa1be", "lon": -77.0472145, "bike_id": "478f6f04222a9d831a0c8f8b9f8aa1be", "lat": 38.899574666666666}, {"fusion_lon": 0.0, "fusion_lat": 0.0, "rental_uris": {"android": "https://dc.lft.to/lastmile_qr_scan", "ios": "https://dc.lft.to/lastmile_qr_scan"}, "is_disabled": 0, "type": "electric_scooter", "is_reserved": 0, "name": "2daf7a3edbf62d99ba14c4b3d5370706", "lon": -77.01513216666666, "bike_id": "2daf7a3edbf62d99ba14c4b3d5370706", "lat": 38.91042516666667}, {"fusion_lon": 0.0, "fusion_lat": 0.0, "rental_uris": {"android": "https://dc.lft.to/lastmile_qr_scan", "ios": "https://dc.lft.to/lastmile_qr_scan"}, "is_disabled": 0, "type": "electric_scooter", "is_reserved": 0, "name": "16e932a8ed3a8e79a85b3a19e8d2e87e", "lon": -77.04241483333334, "bike_id": "16e932a8ed3a8e79a85b3a19e8d2e87e", "lat": 38.92149833333333}, {"fusion_lon": 0.0, "fusion_lat": 0.0, "rental_uris": {"android": "https://dc.lft.to/lastmile_qr_scan", "ios": "https://dc.lft.to/lastmile_qr_scan"}, "is_disabled": 0, "type": "electric_scooter", "is_reserved": 0, "name": "9b24597074b1bdcebc5a6d1b405683e8", "lon": -77.02705633333333, "bike_id": "9b24597074b1bdcebc5a6d1b405683e8", "lat": 38.924971666666664}, {"fusion_lon": 0.0, "fusion_lat": 0.0, "rental_uris": {"android": "https://dc.lft.to/lastmile_qr_scan", "ios": "https://dc.lft.to/lastmile_qr_scan"}, "is_disabled": 0, "type": "electric_scooter", "is_reserved": 0, "name": "e565f21dd837c7c589accbe320ed498e", "lon": -77.02690383333334, "bike_id": "e565f21dd837c7c589accbe320ed498e", "lat": 38.925647166666664}, {"fusion_lon": 0.0, "fusion_lat": 0.0, "rental_uris": {"android": "https://dc.lft.to/lastmile_qr_scan", "ios": "https://dc.lft.to/lastmile_qr_scan"}, "is_disabled": 0, "type": "electric_scooter", "is_reserved": 0, "name": "2fd1bcb79c30590eed7ea2f04676197f", "lon": -77.04126266666667, "bike_id": "2fd1bcb79c30590eed7ea2f04676197f", "lat": 38.92112916666667}, {"fusion_lon": 0.0, "fusion_lat": 0.0, "rental_uris": {"android": "https://dc.lft.to/lastmile_qr_scan", "ios": "https://dc.lft.to/lastmile_qr_scan"}, "is_disabled": 0, "type": "electric_scooter", "is_reserved": 0, "name": "5bc937e0ee2da68495166436ea825551", "lon": -77.00304183333333, "bike_id": "5bc937e0ee2da68495166436ea825551", "lat": 38.8337815}, {"fusion_lon": 0.0, "fusion_lat": 0.0, "rental_uris": {"android": "https://dc.lft.to/lastmile_qr_scan", "ios": "https://dc.lft.to/lastmile_qr_scan"}, "is_disabled": 0, "type": "electric_scooter", "is_reserved": 0, "name": "e8678c1456d28971a47a7c28285567fe", "lon": -77.02742166666667, "bike_id": "e8678c1456d28971a47a7c28285567fe", "lat": 38.966468}, {"fusion_lon": 0.0, "fusion_lat": 0.0, "rental_uris": {"android": "https://dc.lft.to/lastmile_qr_scan", "ios": "https://dc.lft.to/lastmile_qr_scan"}, "is_disabled": 0, "type": "electric_bike", "is_reserved": 0, "name": "06e852145f0bbe1162988b44bf9c78ea", "lon": -77.00373633333334, "bike_id": "06e852145f0bbe1162988b44bf9c78ea", "lat": 38.836020833333336}, {"fusion_lon": 0.0, "fusion_lat": 0.0, "rental_uris": {"android": "https://dc.lft.to/lastmile_qr_scan", "ios": "https://dc.lft.to/lastmile_qr_scan"}, "is_disabled": 0, "type": "electric_bike", "is_reserved": 0, "name": "89774b5bbf514e116dd594ab0c7d6b6e", "lon": -76.97959966666667, "bike_id": "89774b5bbf514e116dd594ab0c7d6b6e", "lat": 38.920324666666666}, {"fusion_lon": 0.0, "fusion_lat": 0.0, "rental_uris": {"android": "https://dc.lft.to/lastmile_qr_scan", "ios": "https://dc.lft.to/lastmile_qr_scan"}, "is_disabled": 0, "type": "electric_scooter", "is_reserved": 0, "name": "a6e4d979c6b92833ec380c0277e358b5", "lon": -77.02373466666667, "bike_id": "a6e4d979c6b92833ec380c0277e358b5", "lat": 38.90215383333334}, {"fusion_lon": 0.0, "fusion_lat": 0.0, "rental_uris": {"android": "https://dc.lft.to/lastmile_qr_scan", "ios": "https://dc.lft.to/lastmile_qr_scan"}, "is_disabled": 0, "type": "electric_scooter", "is_reserved": 0, "name": "4dc64bd6f40dbb5b5cb28583ab5ff933", "lon": -76.9935025, "bike_id": "4dc64bd6f40dbb5b5cb28583ab5ff933", "lat": 38.90018583333333}, {"fusion_lon": 0.0, "fusion_lat": 0.0, "rental_uris": {"android": "https://dc.lft.to/lastmile_qr_scan", "ios": "https://dc.lft.to/lastmile_qr_scan"}, "is_disabled": 0, "type": "electric_scooter", "is_reserved": 0, "name": "56af914fcca4f424933bdfa9af388b96", "lon": -76.98628783333334, "bike_id": "56af914fcca4f424933bdfa9af388b96", "lat": 38.91003466666667}, {"fusion_lon": 0.0, "fusion_lat": 0.0, "rental_uris": {"android": "https://dc.lft.to/lastmile_qr_scan", "ios": "https://dc.lft.to/lastmile_qr_scan"}, "is_disabled": 0, "type": "electric_scooter", "is_reserved": 0, "name": "a8189b8e64ae4430ec078bd2428c651f", "lon": -77.0461135, "bike_id": "a8189b8e64ae4430ec078bd2428c651f", "lat": 38.914089833333335}, {"fusion_lon": 0.0, "fusion_lat": 0.0, "rental_uris": {"android": "https://dc.lft.to/lastmile_qr_scan", "ios": "https://dc.lft.to/lastmile_qr_scan"}, "is_disabled": 0, "type": "electric_scooter", "is_reserved": 0, "name": "44c6e0a7319e31a160b43b1b6d89bb5a", "lon": -77.04733433333334, "bike_id": "44c6e0a7319e31a160b43b1b6d89bb5a", "lat": 38.900321}, {"fusion_lon": 0.0, "fusion_lat": 0.0, "rental_uris": {"android": "https://dc.lft.to/lastmile_qr_scan", "ios": "https://dc.lft.to/lastmile_qr_scan"}, "is_disabled": 0, "type": "electric_scooter", "is_reserved": 0, "name": "c5491c5e459da80d862606619b7d39cf", "lon": -77.0324245, "bike_id": "c5491c5e459da80d862606619b7d39cf", "lat": 38.928875166666664}, {"fusion_lon": 0.0, "fusion_lat": 0.0, "rental_uris": {"android": "https://dc.lft.to/lastmile_qr_scan", "ios": "https://dc.lft.to/lastmile_qr_scan"}, "is_disabled": 0, "type": "electric_scooter", "is_reserved": 0, "name": "257a9150b09531be71cf99759846b2f5", "lon": -77.02202366666667, "bike_id": "257a9150b09531be71cf99759846b2f5", "lat": 38.92467233333333}, {"fusion_lon": 0.0, "fusion_lat": 0.0, "rental_uris": {"android": "https://dc.lft.to/lastmile_qr_scan", "ios": "https://dc.lft.to/lastmile_qr_scan"}, "is_disabled": 0, "type": "electric_scooter", "is_reserved": 0, "name": "a7e70d8288d8bbc3f0ac2295c9c85654", "lon": -77.01275766666667, "bike_id": "a7e70d8288d8bbc3f0ac2295c9c85654", "lat": 38.915403}, {"fusion_lon": 0.0, "fusion_lat": 0.0, "rental_uris": {"android": "https://dc.lft.to/lastmile_qr_scan", "ios": "https://dc.lft.to/lastmile_qr_scan"}, "is_disabled": 0, "type": "electric_scooter", "is_reserved": 0, "name": "ca9cdbb3f290f50f75b05c97bbaca8f1", "lon": -77.02342866666666, "bike_id": "ca9cdbb3f290f50f75b05c97bbaca8f1", "lat": 38.944909333333335}, {"fusion_lon": 0.0, "fusion_lat": 0.0, "rental_uris": {"android": "https://dc.lft.to/lastmile_qr_scan", "ios": "https://dc.lft.to/lastmile_qr_scan"}, "is_disabled": 0, "type": "electric_scooter", "is_reserved": 0, "name": "6783185dee3603495a28dd625c5f70d5", "lon": -77.03859, "bike_id": "6783185dee3603495a28dd625c5f70d5", "lat": 38.904025}, {"fusion_lon": 0.0, "fusion_lat": 0.0, "rental_uris": {"android": "https://dc.lft.to/lastmile_qr_scan", "ios": "https://dc.lft.to/lastmile_qr_scan"}, "is_disabled": 0, "type": "electric_scooter", "is_reserved": 0, "name": "33a6d64bc3810914e4fbbee7a7d17ee8", "lon": -77.06510466666667, "bike_id": "33a6d64bc3810914e4fbbee7a7d17ee8", "lat": 38.904054}, {"fusion_lon": 0.0, "fusion_lat": 0.0, "rental_uris": {"android": "https://dc.lft.to/lastmile_qr_scan", "ios": "https://dc.lft.to/lastmile_qr_scan"}, "is_disabled": 0, "type": "electric_scooter", "is_reserved": 0, "name": "3bbf87d23c8353a5d6cdce76d2ce687b", "lon": -77.04153216666667, "bike_id": "3bbf87d23c8353a5d6cdce76d2ce687b", "lat": 38.89949133333333}, {"fusion_lon": 0.0, "fusion_lat": 0.0, "rental_uris": {"android": "https://dc.lft.to/lastmile_qr_scan", "ios": "https://dc.lft.to/lastmile_qr_scan"}, "is_disabled": 0, "type": "electric_scooter", "is_reserved": 0, "name": "1aa95940426e915b5442c7c9df8edc2e", "lon": -77.03346083333334, "bike_id": "1aa95940426e915b5442c7c9df8edc2e", "lat": 38.884824333333334}, {"fusion_lon": 0.0, "fusion_lat": 0.0, "rental_uris": {"android": "https://dc.lft.to/lastmile_qr_scan", "ios": "https://dc.lft.to/lastmile_qr_scan"}, "is_disabled": 0, "type": "electric_scooter", "is_reserved": 0, "name": "733d80b508959d4c0f13f31cd3441197", "lon": -77.00301166666667, "bike_id": "733d80b508959d4c0f13f31cd3441197", "lat": 38.876593666666665}, {"fusion_lon": 0.0, "fusion_lat": 0.0, "rental_uris": {"android": "https://dc.lft.to/lastmile_qr_scan", "ios": "https://dc.lft.to/lastmile_qr_scan"}, "is_disabled": 0, "type": "electric_scooter", "is_reserved": 0, "name": "3955a1e18fc1c4eab5b29ac5d10aba36", "lon": -77.03027033333333, "bike_id": "3955a1e18fc1c4eab5b29ac5d10aba36", "lat": 38.90256766666667}, {"fusion_lon": 0.0, "fusion_lat": 0.0, "rental_uris": {"android": "https://dc.lft.to/lastmile_qr_scan", "ios": "https://dc.lft.to/lastmile_qr_scan"}, "is_disabled": 0, "type": "electric_scooter", "is_reserved": 0, "name": "0621e062fd06ab25e3ee77285adc7faf", "lon": -77.00591633333333, "bike_id": "0621e062fd06ab25e3ee77285adc7faf", "lat": 38.87209566666667}, {"fusion_lon": 0.0, "fusion_lat": 0.0, "rental_uris": {"android": "https://dc.lft.to/lastmile_qr_scan", "ios": "https://dc.lft.to/lastmile_qr_scan"}, "is_disabled": 0, "type": "electric_scooter", "is_reserved": 0, "name": "cf7e436e9ee53733db67490c8d617d2e", "lon": -77.0499815, "bike_id": "cf7e436e9ee53733db67490c8d617d2e", "lat": 38.892297}, {"fusion_lon": 0.0, "fusion_lat": 0.0, "rental_uris": {"android": "https://dc.lft.to/lastmile_qr_scan", "ios": "https://dc.lft.to/lastmile_qr_scan"}, "is_disabled": 0, "type": "electric_scooter", "is_reserved": 0, "name": "c3001570245ffc5d32a287a313c4148e", "lon": -77.08429316666667, "bike_id": "c3001570245ffc5d32a287a313c4148e", "lat": 38.93686666666667}, {"fusion_lon": 0.0, "fusion_lat": 0.0, "rental_uris": {"android": "https://dc.lft.to/lastmile_qr_scan", "ios": "https://dc.lft.to/lastmile_qr_scan"}, "is_disabled": 0, "type": "electric_scooter", "is_reserved": 0, "name": "d2137e3943408d702ebbfdeb1ef20c50", "lon": -77.01207233333334, "bike_id": "d2137e3943408d702ebbfdeb1ef20c50", "lat": 38.896780166666666}, {"fusion_lon": 0.0, "fusion_lat": 0.0, "rental_uris": {"android": "https://dc.lft.to/lastmile_qr_scan", "ios": "https://dc.lft.to/lastmile_qr_scan"}, "is_disabled": 0, "type": "electric_scooter", "is_reserved": 0, "name": "e3f762fd729020c8870b342ae3103392", "lon": -77.04481183333333, "bike_id": "e3f762fd729020c8870b342ae3103392", "lat": 38.91077533333333}, {"fusion_lon": 0.0, "fusion_lat": 0.0, "rental_uris": {"android": "https://dc.lft.to/lastmile_qr_scan", "ios": "https://dc.lft.to/lastmile_qr_scan"}, "is_disabled": 0, "type": "electric_scooter", "is_reserved": 0, "name": "8d033d61027cec634caac13b80c09b6f", "lon": -77.05790416666666, "bike_id": "8d033d61027cec634caac13b80c09b6f", "lat": 38.9027585}, {"fusion_lon": 0.0, "fusion_lat": 0.0, "rental_uris": {"android": "https://dc.lft.to/lastmile_qr_scan", "ios": "https://dc.lft.to/lastmile_qr_scan"}, "is_disabled": 0, "type": "electric_scooter", "is_reserved": 0, "name": "c7b338a9d4e11006b5026887ea4edafc", "lon": -77.0191085, "bike_id": "c7b338a9d4e11006b5026887ea4edafc", "lat": 38.9236065}, {"fusion_lon": 0.0, "fusion_lat": 0.0, "rental_uris": {"android": "https://dc.lft.to/lastmile_qr_scan", "ios": "https://dc.lft.to/lastmile_qr_scan"}, "is_disabled": 0, "type": "electric_scooter", "is_reserved": 0, "name": "0ea1efee2222587bc05087364dd80a52", "lon": -77.02197866666667, "bike_id": "0ea1efee2222587bc05087364dd80a52", "lat": 38.90225683333333}, {"fusion_lon": 0.0, "fusion_lat": 0.0, "rental_uris": {"android": "https://dc.lft.to/lastmile_qr_scan", "ios": "https://dc.lft.to/lastmile_qr_scan"}, "is_disabled": 0, "type": "electric_scooter", "is_reserved": 0, "name": "5a0fd7ffefa51f6899c40f1fa32fa230", "lon": -77.0215015, "bike_id": "5a0fd7ffefa51f6899c40f1fa32fa230", "lat": 38.9198895}, {"fusion_lon": 0.0, "fusion_lat": 0.0, "rental_uris": {"android": "https://dc.lft.to/lastmile_qr_scan", "ios": "https://dc.lft.to/lastmile_qr_scan"}, "is_disabled": 0, "type": "electric_scooter", "is_reserved": 0, "name": "175ac9f9db11a3ae7ade900e3289ef0e", "lon": -77.02053916666667, "bike_id": "175ac9f9db11a3ae7ade900e3289ef0e", "lat": 38.92768816666667}, {"fusion_lon": 0.0, "fusion_lat": 0.0, "rental_uris": {"android": "https://dc.lft.to/lastmile_qr_scan", "ios": "https://dc.lft.to/lastmile_qr_scan"}, "is_disabled": 0, "type": "electric_scooter", "is_reserved": 0, "name": "dc277731bfd685cfef13a7c259dca04d", "lon": -77.0281665, "bike_id": "dc277731bfd685cfef13a7c259dca04d", "lat": 38.907005833333336}, {"fusion_lon": 0.0, "fusion_lat": 0.0, "rental_uris": {"android": "https://dc.lft.to/lastmile_qr_scan", "ios": "https://dc.lft.to/lastmile_qr_scan"}, "is_disabled": 0, "type": "electric_scooter", "is_reserved": 0, "name": "f7caf7539e1106f15796f499ee13d681", "lon": -77.03286216666666, "bike_id": "f7caf7539e1106f15796f499ee13d681", "lat": 38.928417833333334}, {"fusion_lon": 0.0, "fusion_lat": 0.0, "rental_uris": {"android": "https://dc.lft.to/lastmile_qr_scan", "ios": "https://dc.lft.to/lastmile_qr_scan"}, "is_disabled": 0, "type": "electric_bike", "is_reserved": 0, "name": "1271681f1f01fed3fde554ec85f98b84", "lon": -77.12645233333333, "bike_id": "1271681f1f01fed3fde554ec85f98b84", "lat": 38.819005833333335}, {"fusion_lon": 0.0, "fusion_lat": 0.0, "rental_uris": {"android": "https://dc.lft.to/lastmile_qr_scan", "ios": "https://dc.lft.to/lastmile_qr_scan"}, "is_disabled": 0, "type": "electric_scooter", "is_reserved": 0, "name": "a9d6a15091d1937946a0ea5bfe80a6b6", "lon": -76.93632116666667, "bike_id": "a9d6a15091d1937946a0ea5bfe80a6b6", "lat": 38.883497166666665}, {"fusion_lon": 0.0, "fusion_lat": 0.0, "rental_uris": {"android": "https://dc.lft.to/lastmile_qr_scan", "ios": "https://dc.lft.to/lastmile_qr_scan"}, "is_disabled": 0, "type": "electric_scooter", "is_reserved": 0, "name": "661b02ecf494ed7f08a503246892facc", "lon": -77.02579266666666, "bike_id": "661b02ecf494ed7f08a503246892facc", "lat": 38.899531}, {"fusion_lon": 0.0, "fusion_lat": 0.0, "rental_uris": {"android": "https://dc.lft.to/lastmile_qr_scan", "ios": "https://dc.lft.to/lastmile_qr_scan"}, "is_disabled": 0, "type": "electric_scooter", "is_reserved": 0, "name": "35a4452b4dda55a861c0665e026ebaf5", "lon": -76.94290466666666, "bike_id": "35a4452b4dda55a861c0665e026ebaf5", "lat": 38.89844033333333}, {"fusion_lon": 0.0, "fusion_lat": 0.0, "rental_uris": {"android": "https://dc.lft.to/lastmile_qr_scan", "ios": "https://dc.lft.to/lastmile_qr_scan"}, "is_disabled": 0, "type": "electric_scooter", "is_reserved": 0, "name": "a70d206f56ad0a2cf72aa4ea4137168a", "lon": -77.04133766666666, "bike_id": "a70d206f56ad0a2cf72aa4ea4137168a", "lat": 38.900275}, {"fusion_lon": 0.0, "fusion_lat": 0.0, "rental_uris": {"android": "https://dc.lft.to/lastmile_qr_scan", "ios": "https://dc.lft.to/lastmile_qr_scan"}, "is_disabled": 0, "type": "electric_bike", "is_reserved": 0, "name": "e52d2ccd79504dac35056254c7b34bbf", "lon": -76.98921083333333, "bike_id": "e52d2ccd79504dac35056254c7b34bbf", "lat": 38.8663015}, {"fusion_lon": 0.0, "fusion_lat": 0.0, "rental_uris": {"android": "https://dc.lft.to/lastmile_qr_scan", "ios": "https://dc.lft.to/lastmile_qr_scan"}, "is_disabled": 0, "type": "electric_scooter", "is_reserved": 0, "name": "eb861cf857adb089f05ebb2833af0326", "lon": -77.03255116666666, "bike_id": "eb861cf857adb089f05ebb2833af0326", "lat": 38.939696}, {"fusion_lon": 0.0, "fusion_lat": 0.0, "rental_uris": {"android": "https://dc.lft.to/lastmile_qr_scan", "ios": "https://dc.lft.to/lastmile_qr_scan"}, "is_disabled": 0, "type": "electric_scooter", "is_reserved": 0, "name": "e6f573be11b525df9731b7d65686d0ad", "lon": -76.983149, "bike_id": "e6f573be11b525df9731b7d65686d0ad", "lat": 38.922516333333334}, {"fusion_lon": 0.0, "fusion_lat": 0.0, "rental_uris": {"android": "https://dc.lft.to/lastmile_qr_scan", "ios": "https://dc.lft.to/lastmile_qr_scan"}, "is_disabled": 0, "type": "electric_scooter", "is_reserved": 0, "name": "bef605374df68bec0fd8a9ccba88cc57", "lon": -76.99957683333334, "bike_id": "bef605374df68bec0fd8a9ccba88cc57", "lat": 38.9037785}, {"fusion_lon": 0.0, "fusion_lat": 0.0, "rental_uris": {"android": "https://dc.lft.to/lastmile_qr_scan", "ios": "https://dc.lft.to/lastmile_qr_scan"}, "is_disabled": 0, "type": "electric_scooter", "is_reserved": 0, "name": "1f5abaa1b0175ad0aae5a1b7a95a47d3", "lon": -77.036638, "bike_id": "1f5abaa1b0175ad0aae5a1b7a95a47d3", "lat": 38.923023}, {"fusion_lon": 0.0, "fusion_lat": 0.0, "rental_uris": {"android": "https://dc.lft.to/lastmile_qr_scan", "ios": "https://dc.lft.to/lastmile_qr_scan"}, "is_disabled": 0, "type": "electric_scooter", "is_reserved": 0, "name": "5dd08f8d940376f9ad9bebb41dba67c9", "lon": -77.03809233333334, "bike_id": "5dd08f8d940376f9ad9bebb41dba67c9", "lat": 38.90667466666667}, {"fusion_lon": 0.0, "fusion_lat": 0.0, "rental_uris": {"android": "https://dc.lft.to/lastmile_qr_scan", "ios": "https://dc.lft.to/lastmile_qr_scan"}, "is_disabled": 0, "type": "electric_scooter", "is_reserved": 0, "name": "de2f2f5f89420053bc5d25db41e837ec", "lon": -76.99593933333334, "bike_id": "de2f2f5f89420053bc5d25db41e837ec", "lat": 38.8843085}, {"fusion_lon": 0.0, "fusion_lat": 0.0, "rental_uris": {"android": "https://dc.lft.to/lastmile_qr_scan", "ios": "https://dc.lft.to/lastmile_qr_scan"}, "is_disabled": 0, "type": "electric_scooter", "is_reserved": 0, "name": "04f3bc07379d3b4e2cdac8c253a461c3", "lon": -77.04998, "bike_id": "04f3bc07379d3b4e2cdac8c253a461c3", "lat": 38.892259}, {"fusion_lon": 0.0, "fusion_lat": 0.0, "rental_uris": {"android": "https://dc.lft.to/lastmile_qr_scan", "ios": "https://dc.lft.to/lastmile_qr_scan"}, "is_disabled": 0, "type": "electric_scooter", "is_reserved": 0, "name": "860a7f768e1cf0aa4102d900ea00b663", "lon": -77.00959383333333, "bike_id": "860a7f768e1cf0aa4102d900ea00b663", "lat": 38.89606366666667}, {"fusion_lon": 0.0, "fusion_lat": 0.0, "rental_uris": {"android": "https://dc.lft.to/lastmile_qr_scan", "ios": "https://dc.lft.to/lastmile_qr_scan"}, "is_disabled": 0, "type": "electric_bike", "is_reserved": 0, "name": "38ab70ad9b2285b185af84611c7bf358", "lon": -76.99381183333334, "bike_id": "38ab70ad9b2285b185af84611c7bf358", "lat": 38.9909435}, {"fusion_lon": 0.0, "fusion_lat": 0.0, "rental_uris": {"android": "https://dc.lft.to/lastmile_qr_scan", "ios": "https://dc.lft.to/lastmile_qr_scan"}, "is_disabled": 0, "type": "electric_scooter", "is_reserved": 0, "name": "b3c144c6234183f676f6ca1f496c71d3", "lon": -77.04500616666667, "bike_id": "b3c144c6234183f676f6ca1f496c71d3", "lat": 38.911097833333336}, {"fusion_lon": 0.0, "fusion_lat": 0.0, "rental_uris": {"android": "https://dc.lft.to/lastmile_qr_scan", "ios": "https://dc.lft.to/lastmile_qr_scan"}, "is_disabled": 0, "type": "electric_scooter", "is_reserved": 0, "name": "caab45447a4f8db080878cd84b999872", "lon": -77.02239316666666, "bike_id": "caab45447a4f8db080878cd84b999872", "lat": 38.90151566666667}, {"fusion_lon": 0.0, "fusion_lat": 0.0, "rental_uris": {"android": "https://dc.lft.to/lastmile_qr_scan", "ios": "https://dc.lft.to/lastmile_qr_scan"}, "is_disabled": 0, "type": "electric_scooter", "is_reserved": 0, "name": "d12ff491c19ea0ef9a519df868d37086", "lon": -77.02668016666667, "bike_id": "d12ff491c19ea0ef9a519df868d37086", "lat": 38.89454116666667}, {"fusion_lon": 0.0, "fusion_lat": 0.0, "rental_uris": {"android": "https://dc.lft.to/lastmile_qr_scan", "ios": "https://dc.lft.to/lastmile_qr_scan"}, "is_disabled": 0, "type": "electric_scooter", "is_reserved": 0, "name": "ef3165ba8df5d676f4c6cb4984f784d6", "lon": -77.0200695, "bike_id": "ef3165ba8df5d676f4c6cb4984f784d6", "lat": 38.92406966666667}, {"fusion_lon": 0.0, "fusion_lat": 0.0, "rental_uris": {"android": "https://dc.lft.to/lastmile_qr_scan", "ios": "https://dc.lft.to/lastmile_qr_scan"}, "is_disabled": 0, "type": "electric_scooter", "is_reserved": 0, "name": "ae97865bb94c050547c6cc208941e66e", "lon": -76.924407, "bike_id": "ae97865bb94c050547c6cc208941e66e", "lat": 38.88512433333333}, {"fusion_lon": 0.0, "fusion_lat": 0.0, "rental_uris": {"android": "https://dc.lft.to/lastmile_qr_scan", "ios": "https://dc.lft.to/lastmile_qr_scan"}, "is_disabled": 0, "type": "electric_scooter", "is_reserved": 0, "name": "36659d469cb4350a937742a288a8b6c5", "lon": -77.02198266666667, "bike_id": "36659d469cb4350a937742a288a8b6c5", "lat": 38.91506033333334}, {"fusion_lon": 0.0, "fusion_lat": 0.0, "rental_uris": {"android": "https://dc.lft.to/lastmile_qr_scan", "ios": "https://dc.lft.to/lastmile_qr_scan"}, "is_disabled": 0, "type": "electric_scooter", "is_reserved": 0, "name": "b038aa05d699cac62faf9e48a9c22508", "lon": -77.01565083333334, "bike_id": "b038aa05d699cac62faf9e48a9c22508", "lat": 38.9136775}, {"fusion_lon": 0.0, "fusion_lat": 0.0, "rental_uris": {"android": "https://dc.lft.to/lastmile_qr_scan", "ios": "https://dc.lft.to/lastmile_qr_scan"}, "is_disabled": 0, "type": "electric_scooter", "is_reserved": 0, "name": "e9315b6ede03050fec7f8b18afda58cd", "lon": -77.07011116666666, "bike_id": "e9315b6ede03050fec7f8b18afda58cd", "lat": 38.905889}, {"fusion_lon": 0.0, "fusion_lat": 0.0, "rental_uris": {"android": "https://dc.lft.to/lastmile_qr_scan", "ios": "https://dc.lft.to/lastmile_qr_scan"}, "is_disabled": 0, "type": "electric_bike", "is_reserved": 0, "name": "b34860aafd1973950a2408ab643ea117", "lon": -76.90747783333333, "bike_id": "b34860aafd1973950a2408ab643ea117", "lat": 38.89618566666667}, {"fusion_lon": 0.0, "fusion_lat": 0.0, "rental_uris": {"android": "https://dc.lft.to/lastmile_qr_scan", "ios": "https://dc.lft.to/lastmile_qr_scan"}, "is_disabled": 0, "type": "electric_scooter", "is_reserved": 0, "name": "635b6ad79a5c9986c3903ebfd6c31bae", "lon": -76.97587966666667, "bike_id": "635b6ad79a5c9986c3903ebfd6c31bae", "lat": 38.90335283333334}, {"fusion_lon": 0.0, "fusion_lat": 0.0, "rental_uris": {"android": "https://dc.lft.to/lastmile_qr_scan", "ios": "https://dc.lft.to/lastmile_qr_scan"}, "is_disabled": 0, "type": "electric_scooter", "is_reserved": 0, "name": "9b278ba577b6d517761016485d160bef", "lon": -76.9911145, "bike_id": "9b278ba577b6d517761016485d160bef", "lat": 38.900242166666665}, {"fusion_lon": 0.0, "fusion_lat": 0.0, "rental_uris": {"android": "https://dc.lft.to/lastmile_qr_scan", "ios": "https://dc.lft.to/lastmile_qr_scan"}, "is_disabled": 0, "type": "electric_scooter", "is_reserved": 0, "name": "be3ae26257544cbba7a57b1501cace11", "lon": -77.04276266666666, "bike_id": "be3ae26257544cbba7a57b1501cace11", "lat": 38.915592833333335}, {"fusion_lon": 0.0, "fusion_lat": 0.0, "rental_uris": {"android": "https://dc.lft.to/lastmile_qr_scan", "ios": "https://dc.lft.to/lastmile_qr_scan"}, "is_disabled": 0, "type": "electric_scooter", "is_reserved": 0, "name": "84f0733d020b84ad0787808f304977f2", "lon": -77.012749, "bike_id": "84f0733d020b84ad0787808f304977f2", "lat": 38.9095215}, {"fusion_lon": 0.0, "fusion_lat": 0.0, "rental_uris": {"android": "https://dc.lft.to/lastmile_qr_scan", "ios": "https://dc.lft.to/lastmile_qr_scan"}, "is_disabled": 0, "type": "electric_scooter", "is_reserved": 0, "name": "b54fc20385bbd28ea2a65ef313207dfd", "lon": -77.01946216666667, "bike_id": "b54fc20385bbd28ea2a65ef313207dfd", "lat": 38.924149666666665}, {"fusion_lon": 0.0, "fusion_lat": 0.0, "rental_uris": {"android": "https://dc.lft.to/lastmile_qr_scan", "ios": "https://dc.lft.to/lastmile_qr_scan"}, "is_disabled": 0, "type": "electric_scooter", "is_reserved": 0, "name": "6b67fc3c77d53a2774ba40128628a3c5", "lon": -77.0040955, "bike_id": "6b67fc3c77d53a2774ba40128628a3c5", "lat": 38.908471166666665}, {"fusion_lon": 0.0, "fusion_lat": 0.0, "rental_uris": {"android": "https://dc.lft.to/lastmile_qr_scan", "ios": "https://dc.lft.to/lastmile_qr_scan"}, "is_disabled": 0, "type": "electric_scooter", "is_reserved": 0, "name": "35e0ad35775692bba0f224c547820621", "lon": -77.02963666666666, "bike_id": "35e0ad35775692bba0f224c547820621", "lat": 38.91173666666667}, {"fusion_lon": 0.0, "fusion_lat": 0.0, "rental_uris": {"android": "https://dc.lft.to/lastmile_qr_scan", "ios": "https://dc.lft.to/lastmile_qr_scan"}, "is_disabled": 0, "type": "electric_scooter", "is_reserved": 0, "name": "c0f7f15dc9c95b19cdf01a9c0bcfe1b4", "lon": -77.0499795, "bike_id": "c0f7f15dc9c95b19cdf01a9c0bcfe1b4", "lat": 38.892292}, {"fusion_lon": 0.0, "fusion_lat": 0.0, "rental_uris": {"android": "https://dc.lft.to/lastmile_qr_scan", "ios": "https://dc.lft.to/lastmile_qr_scan"}, "is_disabled": 0, "type": "electric_scooter", "is_reserved": 0, "name": "5757c192b7b52de5ae7811e59608d684", "lon": -77.00180083333333, "bike_id": "5757c192b7b52de5ae7811e59608d684", "lat": 38.88870266666667}, {"fusion_lon": 0.0, "fusion_lat": 0.0, "rental_uris": {"android": "https://dc.lft.to/lastmile_qr_scan", "ios": "https://dc.lft.to/lastmile_qr_scan"}, "is_disabled": 0, "type": "electric_scooter", "is_reserved": 0, "name": "05e628a1100a4d8e261413d85101e566", "lon": -77.0239635, "bike_id": "05e628a1100a4d8e261413d85101e566", "lat": 38.90704866666667}, {"fusion_lon": 0.0, "fusion_lat": 0.0, "rental_uris": {"android": "https://dc.lft.to/lastmile_qr_scan", "ios": "https://dc.lft.to/lastmile_qr_scan"}, "is_disabled": 0, "type": "electric_scooter", "is_reserved": 0, "name": "df39897b67c0e08e6549e435c354efe1", "lon": -77.00296833333333, "bike_id": "df39897b67c0e08e6549e435c354efe1", "lat": 38.9086585}, {"fusion_lon": 0.0, "fusion_lat": 0.0, "rental_uris": {"android": "https://dc.lft.to/lastmile_qr_scan", "ios": "https://dc.lft.to/lastmile_qr_scan"}, "is_disabled": 0, "type": "electric_scooter", "is_reserved": 0, "name": "ee979006d95894300a35cff0ba0f1150", "lon": -77.03250816666667, "bike_id": "ee979006d95894300a35cff0ba0f1150", "lat": 38.933805666666665}, {"fusion_lon": 0.0, "fusion_lat": 0.0, "rental_uris": {"android": "https://dc.lft.to/lastmile_qr_scan", "ios": "https://dc.lft.to/lastmile_qr_scan"}, "is_disabled": 0, "type": "electric_scooter", "is_reserved": 0, "name": "d9712f10c58dfdb776118bad88e8167b", "lon": -76.977132, "bike_id": "d9712f10c58dfdb776118bad88e8167b", "lat": 38.885200833333336}, {"fusion_lon": 0.0, "fusion_lat": 0.0, "rental_uris": {"android": "https://dc.lft.to/lastmile_qr_scan", "ios": "https://dc.lft.to/lastmile_qr_scan"}, "is_disabled": 0, "type": "electric_scooter", "is_reserved": 0, "name": "aaee1cb5d1ddb579d1798e35c5a124d5", "lon": -77.02675983333333, "bike_id": "aaee1cb5d1ddb579d1798e35c5a124d5", "lat": 38.9309915}, {"fusion_lon": 0.0, "fusion_lat": 0.0, "rental_uris": {"android": "https://dc.lft.to/lastmile_qr_scan", "ios": "https://dc.lft.to/lastmile_qr_scan"}, "is_disabled": 0, "type": "electric_scooter", "is_reserved": 0, "name": "08b99f166c239f13030ddcbcf3f413dc", "lon": -77.075304, "bike_id": "08b99f166c239f13030ddcbcf3f413dc", "lat": 38.90877233333333}, {"fusion_lon": 0.0, "fusion_lat": 0.0, "rental_uris": {"android": "https://dc.lft.to/lastmile_qr_scan", "ios": "https://dc.lft.to/lastmile_qr_scan"}, "is_disabled": 0, "type": "electric_scooter", "is_reserved": 0, "name": "c00a724c29bfe756283c1953ae67658d", "lon": -76.98929866666667, "bike_id": "c00a724c29bfe756283c1953ae67658d", "lat": 38.900042}, {"fusion_lon": 0.0, "fusion_lat": 0.0, "rental_uris": {"android": "https://dc.lft.to/lastmile_qr_scan", "ios": "https://dc.lft.to/lastmile_qr_scan"}, "is_disabled": 0, "type": "electric_scooter", "is_reserved": 0, "name": "1324495e40add53f3ed587f437fa3aa5", "lon": -77.0249195, "bike_id": "1324495e40add53f3ed587f437fa3aa5", "lat": 38.88497816666667}, {"fusion_lon": 0.0, "fusion_lat": 0.0, "rental_uris": {"android": "https://dc.lft.to/lastmile_qr_scan", "ios": "https://dc.lft.to/lastmile_qr_scan"}, "is_disabled": 0, "type": "electric_scooter", "is_reserved": 0, "name": "101439e419542574bc14c98a01275b3f", "lon": -77.0053455, "bike_id": "101439e419542574bc14c98a01275b3f", "lat": 38.87544116666667}, {"fusion_lon": 0.0, "fusion_lat": 0.0, "rental_uris": {"android": "https://dc.lft.to/lastmile_qr_scan", "ios": "https://dc.lft.to/lastmile_qr_scan"}, "is_disabled": 0, "type": "electric_scooter", "is_reserved": 0, "name": "dec88ce06f3a20af7034952222d9eba0", "lon": -77.03451766666667, "bike_id": "dec88ce06f3a20af7034952222d9eba0", "lat": 38.90393616666667}, {"fusion_lon": 0.0, "fusion_lat": 0.0, "rental_uris": {"android": "https://dc.lft.to/lastmile_qr_scan", "ios": "https://dc.lft.to/lastmile_qr_scan"}, "is_disabled": 0, "type": "electric_scooter", "is_reserved": 0, "name": "b6c3627730b7b416205cbde8767939a1", "lon": -77.04652383333334, "bike_id": "b6c3627730b7b416205cbde8767939a1", "lat": 38.89732016666667}, {"fusion_lon": 0.0, "fusion_lat": 0.0, "rental_uris": {"android": "https://dc.lft.to/lastmile_qr_scan", "ios": "https://dc.lft.to/lastmile_qr_scan"}, "is_disabled": 0, "type": "electric_scooter", "is_reserved": 0, "name": "721b67900fdb317cbe273e60384746e6", "lon": -77.01830583333333, "bike_id": "721b67900fdb317cbe273e60384746e6", "lat": 38.92195866666667}, {"fusion_lon": 0.0, "fusion_lat": 0.0, "rental_uris": {"android": "https://dc.lft.to/lastmile_qr_scan", "ios": "https://dc.lft.to/lastmile_qr_scan"}, "is_disabled": 0, "type": "electric_bike", "is_reserved": 0, "name": "ee19b1b70490bda9fd64aa90ee72f1d3", "lon": -77.00135783333333, "bike_id": "ee19b1b70490bda9fd64aa90ee72f1d3", "lat": 38.994954166666666}, {"fusion_lon": 0.0, "fusion_lat": 0.0, "rental_uris": {"android": "https://dc.lft.to/lastmile_qr_scan", "ios": "https://dc.lft.to/lastmile_qr_scan"}, "is_disabled": 0, "type": "electric_scooter", "is_reserved": 0, "name": "9e689b4c53182874b2417545e770039c", "lon": -77.03250283333334, "bike_id": "9e689b4c53182874b2417545e770039c", "lat": 38.90268783333333}, {"fusion_lon": 0.0, "fusion_lat": 0.0, "rental_uris": {"android": "https://dc.lft.to/lastmile_qr_scan", "ios": "https://dc.lft.to/lastmile_qr_scan"}, "is_disabled": 0, "type": "electric_scooter", "is_reserved": 0, "name": "e9f3333092e3728868623a6eb30cd746", "lon": -76.92632616666667, "bike_id": "e9f3333092e3728868623a6eb30cd746", "lat": 38.886234}, {"fusion_lon": 0.0, "fusion_lat": 0.0, "rental_uris": {"android": "https://dc.lft.to/lastmile_qr_scan", "ios": "https://dc.lft.to/lastmile_qr_scan"}, "is_disabled": 0, "type": "electric_scooter", "is_reserved": 0, "name": "1ba5b75a5a10dc965b5a712a8d4b9c91", "lon": -77.06010366666666, "bike_id": "1ba5b75a5a10dc965b5a712a8d4b9c91", "lat": 38.927065166666665}, {"fusion_lon": 0.0, "fusion_lat": 0.0, "rental_uris": {"android": "https://dc.lft.to/lastmile_qr_scan", "ios": "https://dc.lft.to/lastmile_qr_scan"}, "is_disabled": 0, "type": "electric_scooter", "is_reserved": 0, "name": "b72fdbb4175c89b8c937eb26dc9cd468", "lon": -76.99487033333334, "bike_id": "b72fdbb4175c89b8c937eb26dc9cd468", "lat": 38.9477545}, {"fusion_lon": 0.0, "fusion_lat": 0.0, "rental_uris": {"android": "https://dc.lft.to/lastmile_qr_scan", "ios": "https://dc.lft.to/lastmile_qr_scan"}, "is_disabled": 0, "type": "electric_scooter", "is_reserved": 0, "name": "dc715426380fe5f93944a8fa899d018e", "lon": -77.02977533333333, "bike_id": "dc715426380fe5f93944a8fa899d018e", "lat": 38.924798833333334}, {"fusion_lon": 0.0, "fusion_lat": 0.0, "rental_uris": {"android": "https://dc.lft.to/lastmile_qr_scan", "ios": "https://dc.lft.to/lastmile_qr_scan"}, "is_disabled": 0, "type": "electric_scooter", "is_reserved": 0, "name": "9667362b4c6802401453f40ed48706eb", "lon": -77.00983883333333, "bike_id": "9667362b4c6802401453f40ed48706eb", "lat": 38.9139835}, {"fusion_lon": 0.0, "fusion_lat": 0.0, "rental_uris": {"android": "https://dc.lft.to/lastmile_qr_scan", "ios": "https://dc.lft.to/lastmile_qr_scan"}, "is_disabled": 0, "type": "electric_scooter", "is_reserved": 0, "name": "2f1a0148a3752ea7c05b73c03cc5e895", "lon": -77.03183366666667, "bike_id": "2f1a0148a3752ea7c05b73c03cc5e895", "lat": 38.8838465}, {"fusion_lon": 0.0, "fusion_lat": 0.0, "rental_uris": {"android": "https://dc.lft.to/lastmile_qr_scan", "ios": "https://dc.lft.to/lastmile_qr_scan"}, "is_disabled": 0, "type": "electric_scooter", "is_reserved": 0, "name": "be50d724fe436d8717ef5969bcfec532", "lon": -77.0249985, "bike_id": "be50d724fe436d8717ef5969bcfec532", "lat": 38.9178185}, {"fusion_lon": 0.0, "fusion_lat": 0.0, "rental_uris": {"android": "https://dc.lft.to/lastmile_qr_scan", "ios": "https://dc.lft.to/lastmile_qr_scan"}, "is_disabled": 0, "type": "electric_bike", "is_reserved": 0, "name": "eec971b19be8de206ac7856a81c3ce4b", "lon": -77.04532183333333, "bike_id": "eec971b19be8de206ac7856a81c3ce4b", "lat": 39.03282566666667}, {"fusion_lon": 0.0, "fusion_lat": 0.0, "rental_uris": {"android": "https://dc.lft.to/lastmile_qr_scan", "ios": "https://dc.lft.to/lastmile_qr_scan"}, "is_disabled": 0, "type": "electric_scooter", "is_reserved": 0, "name": "d6aebdd51de25ea39aa91a883cc32754", "lon": -76.998527, "bike_id": "d6aebdd51de25ea39aa91a883cc32754", "lat": 38.90117733333334}, {"fusion_lon": 0.0, "fusion_lat": 0.0, "rental_uris": {"android": "https://dc.lft.to/lastmile_qr_scan", "ios": "https://dc.lft.to/lastmile_qr_scan"}, "is_disabled": 0, "type": "electric_bike", "is_reserved": 0, "name": "83e77dc5eccadc5c2f62b1b4d5a34d38", "lon": -77.089129, "bike_id": "83e77dc5eccadc5c2f62b1b4d5a34d38", "lat": 38.96725566666667}, {"fusion_lon": 0.0, "fusion_lat": 0.0, "rental_uris": {"android": "https://dc.lft.to/lastmile_qr_scan", "ios": "https://dc.lft.to/lastmile_qr_scan"}, "is_disabled": 0, "type": "electric_scooter", "is_reserved": 0, "name": "9bf9c08c03a4ab733887ef70d922b4c3", "lon": -77.021617, "bike_id": "9bf9c08c03a4ab733887ef70d922b4c3", "lat": 38.92611}, {"fusion_lon": 0.0, "fusion_lat": 0.0, "rental_uris": {"android": "https://dc.lft.to/lastmile_qr_scan", "ios": "https://dc.lft.to/lastmile_qr_scan"}, "is_disabled": 0, "type": "electric_scooter", "is_reserved": 0, "name": "e1c94ba0625527768237cd40a7324136", "lon": -77.03667866666666, "bike_id": "e1c94ba0625527768237cd40a7324136", "lat": 38.9224025}, {"fusion_lon": 0.0, "fusion_lat": 0.0, "rental_uris": {"android": "https://dc.lft.to/lastmile_qr_scan", "ios": "https://dc.lft.to/lastmile_qr_scan"}, "is_disabled": 0, "type": "electric_scooter", "is_reserved": 0, "name": "755e05569547607755875ebdd52420bc", "lon": -77.04089383333333, "bike_id": "755e05569547607755875ebdd52420bc", "lat": 38.892224666666664}, {"fusion_lon": 0.0, "fusion_lat": 0.0, "rental_uris": {"android": "https://dc.lft.to/lastmile_qr_scan", "ios": "https://dc.lft.to/lastmile_qr_scan"}, "is_disabled": 0, "type": "electric_scooter", "is_reserved": 0, "name": "fa5047a19c7ef5838fcaf85477edf28e", "lon": -77.02978816666666, "bike_id": "fa5047a19c7ef5838fcaf85477edf28e", "lat": 38.9215595}, {"fusion_lon": 0.0, "fusion_lat": 0.0, "rental_uris": {"android": "https://dc.lft.to/lastmile_qr_scan", "ios": "https://dc.lft.to/lastmile_qr_scan"}, "is_disabled": 0, "type": "electric_bike", "is_reserved": 0, "name": "7df413167cc6160d4fb5dc95aaa2927e", "lon": -76.964311, "bike_id": "7df413167cc6160d4fb5dc95aaa2927e", "lat": 38.91869366666667}, {"fusion_lon": 0.0, "fusion_lat": 0.0, "rental_uris": {"android": "https://dc.lft.to/lastmile_qr_scan", "ios": "https://dc.lft.to/lastmile_qr_scan"}, "is_disabled": 0, "type": "electric_scooter", "is_reserved": 0, "name": "c66d4dc5688f2d1f805603012d5f8ebc", "lon": -77.01957316666666, "bike_id": "c66d4dc5688f2d1f805603012d5f8ebc", "lat": 38.9225055}, {"fusion_lon": 0.0, "fusion_lat": 0.0, "rental_uris": {"android": "https://dc.lft.to/lastmile_qr_scan", "ios": "https://dc.lft.to/lastmile_qr_scan"}, "is_disabled": 0, "type": "electric_scooter", "is_reserved": 0, "name": "c25c974a413ec59eedfdbd9c3ab4c647", "lon": -77.066226, "bike_id": "c25c974a413ec59eedfdbd9c3ab4c647", "lat": 38.936813}, {"fusion_lon": 0.0, "fusion_lat": 0.0, "rental_uris": {"android": "https://dc.lft.to/lastmile_qr_scan", "ios": "https://dc.lft.to/lastmile_qr_scan"}, "is_disabled": 0, "type": "electric_scooter", "is_reserved": 0, "name": "716bc6d16e17098ca07a705857d1f281", "lon": -76.98701266666667, "bike_id": "716bc6d16e17098ca07a705857d1f281", "lat": 38.900146666666664}, {"fusion_lon": 0.0, "fusion_lat": 0.0, "rental_uris": {"android": "https://dc.lft.to/lastmile_qr_scan", "ios": "https://dc.lft.to/lastmile_qr_scan"}, "is_disabled": 0, "type": "electric_scooter", "is_reserved": 0, "name": "44e662ba8dc2ec4fa8d3253b479d196d", "lon": -77.029946, "bike_id": "44e662ba8dc2ec4fa8d3253b479d196d", "lat": 38.895709}, {"fusion_lon": 0.0, "fusion_lat": 0.0, "rental_uris": {"android": "https://dc.lft.to/lastmile_qr_scan", "ios": "https://dc.lft.to/lastmile_qr_scan"}, "is_disabled": 0, "type": "electric_scooter", "is_reserved": 0, "name": "6ad98a0bc964b2e8d2143b86c09652a4", "lon": -77.0283065, "bike_id": "6ad98a0bc964b2e8d2143b86c09652a4", "lat": 38.92231133333333}, {"fusion_lon": 0.0, "fusion_lat": 0.0, "rental_uris": {"android": "https://dc.lft.to/lastmile_qr_scan", "ios": "https://dc.lft.to/lastmile_qr_scan"}, "is_disabled": 0, "type": "electric_bike", "is_reserved": 0, "name": "b2f13fc3f057c552f485e26bcdd0c634", "lon": -77.00591233333333, "bike_id": "b2f13fc3f057c552f485e26bcdd0c634", "lat": 38.89797566666667}, {"fusion_lon": 0.0, "fusion_lat": 0.0, "rental_uris": {"android": "https://dc.lft.to/lastmile_qr_scan", "ios": "https://dc.lft.to/lastmile_qr_scan"}, "is_disabled": 0, "type": "electric_scooter", "is_reserved": 0, "name": "64b93e214f73f122a042040109dcadb1", "lon": -77.042034, "bike_id": "64b93e214f73f122a042040109dcadb1", "lat": 38.920551}, {"fusion_lon": 0.0, "fusion_lat": 0.0, "rental_uris": {"android": "https://dc.lft.to/lastmile_qr_scan", "ios": "https://dc.lft.to/lastmile_qr_scan"}, "is_disabled": 0, "type": "electric_scooter", "is_reserved": 0, "name": "5ac5ed396f403539a71d8d9a0bad5d46", "lon": -77.00050416666667, "bike_id": "5ac5ed396f403539a71d8d9a0bad5d46", "lat": 38.8876505}, {"fusion_lon": 0.0, "fusion_lat": 0.0, "rental_uris": {"android": "https://dc.lft.to/lastmile_qr_scan", "ios": "https://dc.lft.to/lastmile_qr_scan"}, "is_disabled": 0, "type": "electric_scooter", "is_reserved": 0, "name": "6c0619de857fd8e881933cc5c7ff103f", "lon": -77.046073, "bike_id": "6c0619de857fd8e881933cc5c7ff103f", "lat": 38.905847333333334}, {"fusion_lon": 0.0, "fusion_lat": 0.0, "rental_uris": {"android": "https://dc.lft.to/lastmile_qr_scan", "ios": "https://dc.lft.to/lastmile_qr_scan"}, "is_disabled": 0, "type": "electric_scooter", "is_reserved": 0, "name": "e107dc24787315e1bcab832e238fd898", "lon": -77.0352215, "bike_id": "e107dc24787315e1bcab832e238fd898", "lat": 38.9224955}, {"fusion_lon": 0.0, "fusion_lat": 0.0, "rental_uris": {"android": "https://dc.lft.to/lastmile_qr_scan", "ios": "https://dc.lft.to/lastmile_qr_scan"}, "is_disabled": 0, "type": "electric_scooter", "is_reserved": 0, "name": "e19493fb91947f8816489c9b993bd90e", "lon": -77.002178, "bike_id": "e19493fb91947f8816489c9b993bd90e", "lat": 38.91189633333333}, {"fusion_lon": 0.0, "fusion_lat": 0.0, "rental_uris": {"android": "https://dc.lft.to/lastmile_qr_scan", "ios": "https://dc.lft.to/lastmile_qr_scan"}, "is_disabled": 0, "type": "electric_scooter", "is_reserved": 0, "name": "874a7d0eaca3fc090c85a9186251ca84", "lon": -77.018789, "bike_id": "874a7d0eaca3fc090c85a9186251ca84", "lat": 38.9090215}, {"fusion_lon": 0.0, "fusion_lat": 0.0, "rental_uris": {"android": "https://dc.lft.to/lastmile_qr_scan", "ios": "https://dc.lft.to/lastmile_qr_scan"}, "is_disabled": 0, "type": "electric_scooter", "is_reserved": 0, "name": "2b86648d17dcaf1c8534118094ae424f", "lon": -77.042991, "bike_id": "2b86648d17dcaf1c8534118094ae424f", "lat": 38.922614333333335}, {"fusion_lon": 0.0, "fusion_lat": 0.0, "rental_uris": {"android": "https://dc.lft.to/lastmile_qr_scan", "ios": "https://dc.lft.to/lastmile_qr_scan"}, "is_disabled": 0, "type": "electric_scooter", "is_reserved": 0, "name": "edc8da0908448d24861ad18acb7549ab", "lon": -77.063726, "bike_id": "edc8da0908448d24861ad18acb7549ab", "lat": 38.908052}, {"fusion_lon": 0.0, "fusion_lat": 0.0, "rental_uris": {"android": "https://dc.lft.to/lastmile_qr_scan", "ios": "https://dc.lft.to/lastmile_qr_scan"}, "is_disabled": 0, "type": "electric_scooter", "is_reserved": 0, "name": "27e4a51d048c65ea692ab57a2963f40f", "lon": -76.93591433333333, "bike_id": "27e4a51d048c65ea692ab57a2963f40f", "lat": 38.909419166666666}, {"fusion_lon": 0.0, "fusion_lat": 0.0, "rental_uris": {"android": "https://dc.lft.to/lastmile_qr_scan", "ios": "https://dc.lft.to/lastmile_qr_scan"}, "is_disabled": 0, "type": "electric_bike", "is_reserved": 0, "name": "cd8c3b45c0212093d361928f9f04e326", "lon": -77.0131645, "bike_id": "cd8c3b45c0212093d361928f9f04e326", "lat": 38.88145333333333}, {"fusion_lon": 0.0, "fusion_lat": 0.0, "rental_uris": {"android": "https://dc.lft.to/lastmile_qr_scan", "ios": "https://dc.lft.to/lastmile_qr_scan"}, "is_disabled": 0, "type": "electric_scooter", "is_reserved": 0, "name": "2cda2b136eeb2eedab1022232b88cd91", "lon": -77.046332, "bike_id": "2cda2b136eeb2eedab1022232b88cd91", "lat": 38.915253}, {"fusion_lon": 0.0, "fusion_lat": 0.0, "rental_uris": {"android": "https://dc.lft.to/lastmile_qr_scan", "ios": "https://dc.lft.to/lastmile_qr_scan"}, "is_disabled": 0, "type": "electric_scooter", "is_reserved": 0, "name": "492fe8015f36c12375777e8e541a88a6", "lon": -77.0407415, "bike_id": "492fe8015f36c12375777e8e541a88a6", "lat": 38.90509316666667}, {"fusion_lon": 0.0, "fusion_lat": 0.0, "rental_uris": {"android": "https://dc.lft.to/lastmile_qr_scan", "ios": "https://dc.lft.to/lastmile_qr_scan"}, "is_disabled": 0, "type": "electric_scooter", "is_reserved": 0, "name": "a7b0c302acb48180ca1cfd41d96cdfd4", "lon": -77.025019, "bike_id": "a7b0c302acb48180ca1cfd41d96cdfd4", "lat": 38.9178395}, {"fusion_lon": 0.0, "fusion_lat": 0.0, "rental_uris": {"android": "https://dc.lft.to/lastmile_qr_scan", "ios": "https://dc.lft.to/lastmile_qr_scan"}, "is_disabled": 0, "type": "electric_scooter", "is_reserved": 0, "name": "e221e946fc07bd5039e8aa7211faaacf", "lon": -77.026975, "bike_id": "e221e946fc07bd5039e8aa7211faaacf", "lat": 38.913541}, {"fusion_lon": 0.0, "fusion_lat": 0.0, "rental_uris": {"android": "https://dc.lft.to/lastmile_qr_scan", "ios": "https://dc.lft.to/lastmile_qr_scan"}, "is_disabled": 0, "type": "electric_scooter", "is_reserved": 0, "name": "4bf8968e35453bbc72a8c5c887321ddb", "lon": -77.034579, "bike_id": "4bf8968e35453bbc72a8c5c887321ddb", "lat": 38.90949366666667}, {"fusion_lon": 0.0, "fusion_lat": 0.0, "rental_uris": {"android": "https://dc.lft.to/lastmile_qr_scan", "ios": "https://dc.lft.to/lastmile_qr_scan"}, "is_disabled": 0, "type": "electric_scooter", "is_reserved": 0, "name": "c6a982433afb20b80f70b9e16f4d9620", "lon": -77.03983583333333, "bike_id": "c6a982433afb20b80f70b9e16f4d9620", "lat": 38.906005}, {"fusion_lon": 0.0, "fusion_lat": 0.0, "rental_uris": {"android": "https://dc.lft.to/lastmile_qr_scan", "ios": "https://dc.lft.to/lastmile_qr_scan"}, "is_disabled": 0, "type": "electric_scooter", "is_reserved": 0, "name": "452d03017ef11debedb0137aeeabbaab", "lon": -77.0215235, "bike_id": "452d03017ef11debedb0137aeeabbaab", "lat": 38.919860666666665}, {"fusion_lon": 0.0, "fusion_lat": 0.0, "rental_uris": {"android": "https://dc.lft.to/lastmile_qr_scan", "ios": "https://dc.lft.to/lastmile_qr_scan"}, "is_disabled": 0, "type": "electric_bike", "is_reserved": 0, "name": "1245c342a28cc11a2f7bbff0b5ce5be8", "lon": -76.95135383333333, "bike_id": "1245c342a28cc11a2f7bbff0b5ce5be8", "lat": 39.084272166666665}, {"fusion_lon": 0.0, "fusion_lat": 0.0, "rental_uris": {"android": "https://dc.lft.to/lastmile_qr_scan", "ios": "https://dc.lft.to/lastmile_qr_scan"}, "is_disabled": 0, "type": "electric_scooter", "is_reserved": 0, "name": "d8f606d0cf21aa8c57ba4f55b0d5ede5", "lon": -77.05061933333333, "bike_id": "d8f606d0cf21aa8c57ba4f55b0d5ede5", "lat": 38.900603833333335}, {"fusion_lon": 0.0, "fusion_lat": 0.0, "rental_uris": {"android": "https://dc.lft.to/lastmile_qr_scan", "ios": "https://dc.lft.to/lastmile_qr_scan"}, "is_disabled": 0, "type": "electric_scooter", "is_reserved": 0, "name": "86ae594d8063a56bbc84cd1e7c45a68a", "lon": -77.02121933333333, "bike_id": "86ae594d8063a56bbc84cd1e7c45a68a", "lat": 38.940596666666664}, {"fusion_lon": 0.0, "fusion_lat": 0.0, "rental_uris": {"android": "https://dc.lft.to/lastmile_qr_scan", "ios": "https://dc.lft.to/lastmile_qr_scan"}, "is_disabled": 0, "type": "electric_scooter", "is_reserved": 0, "name": "4f5c19a483ca06125288cdcf8e6a493b", "lon": -77.052626, "bike_id": "4f5c19a483ca06125288cdcf8e6a493b", "lat": 38.90331583333333}, {"fusion_lon": 0.0, "fusion_lat": 0.0, "rental_uris": {"android": "https://dc.lft.to/lastmile_qr_scan", "ios": "https://dc.lft.to/lastmile_qr_scan"}, "is_disabled": 0, "type": "electric_scooter", "is_reserved": 0, "name": "8a69cea444dfbfe7e86842a72efaae36", "lon": -77.050153, "bike_id": "8a69cea444dfbfe7e86842a72efaae36", "lat": 38.90609666666667}, {"fusion_lon": 0.0, "fusion_lat": 0.0, "rental_uris": {"android": "https://dc.lft.to/lastmile_qr_scan", "ios": "https://dc.lft.to/lastmile_qr_scan"}, "is_disabled": 0, "type": "electric_scooter", "is_reserved": 0, "name": "8f003efd7ef0e71b593ef87c68b791e6", "lon": -77.024972, "bike_id": "8f003efd7ef0e71b593ef87c68b791e6", "lat": 38.9178665}, {"fusion_lon": 0.0, "fusion_lat": 0.0, "rental_uris": {"android": "https://dc.lft.to/lastmile_qr_scan", "ios": "https://dc.lft.to/lastmile_qr_scan"}, "is_disabled": 0, "type": "electric_scooter", "is_reserved": 0, "name": "1b9da35eb8c8fd5f8954fe4b18468580", "lon": -77.04181883333334, "bike_id": "1b9da35eb8c8fd5f8954fe4b18468580", "lat": 38.91909116666667}, {"fusion_lon": 0.0, "fusion_lat": 0.0, "rental_uris": {"android": "https://dc.lft.to/lastmile_qr_scan", "ios": "https://dc.lft.to/lastmile_qr_scan"}, "is_disabled": 0, "type": "electric_scooter", "is_reserved": 0, "name": "fa664494aa4bd291b818729c8c1e96c2", "lon": -77.02985666666666, "bike_id": "fa664494aa4bd291b818729c8c1e96c2", "lat": 38.947164666666666}, {"fusion_lon": 0.0, "fusion_lat": 0.0, "rental_uris": {"android": "https://dc.lft.to/lastmile_qr_scan", "ios": "https://dc.lft.to/lastmile_qr_scan"}, "is_disabled": 0, "type": "electric_scooter", "is_reserved": 0, "name": "993dfaed4859483079edf4a74ad7eb5c", "lon": -77.03964883333333, "bike_id": "993dfaed4859483079edf4a74ad7eb5c", "lat": 38.90123233333333}, {"fusion_lon": 0.0, "fusion_lat": 0.0, "rental_uris": {"android": "https://dc.lft.to/lastmile_qr_scan", "ios": "https://dc.lft.to/lastmile_qr_scan"}, "is_disabled": 0, "type": "electric_bike", "is_reserved": 0, "name": "fcda57a49abaeff1cbe63e1bf8d62afc", "lon": -76.9318955, "bike_id": "fcda57a49abaeff1cbe63e1bf8d62afc", "lat": 38.879539333333334}, {"fusion_lon": 0.0, "fusion_lat": 0.0, "rental_uris": {"android": "https://dc.lft.to/lastmile_qr_scan", "ios": "https://dc.lft.to/lastmile_qr_scan"}, "is_disabled": 0, "type": "electric_scooter", "is_reserved": 0, "name": "c84b598cb74d49ef6f829c2fb38d65e7", "lon": -77.02971416666666, "bike_id": "c84b598cb74d49ef6f829c2fb38d65e7", "lat": 38.91239616666667}, {"fusion_lon": 0.0, "fusion_lat": 0.0, "rental_uris": {"android": "https://dc.lft.to/lastmile_qr_scan", "ios": "https://dc.lft.to/lastmile_qr_scan"}, "is_disabled": 0, "type": "electric_bike", "is_reserved": 0, "name": "9f68149e216c9f0c2305c580984f9423", "lon": -76.95701, "bike_id": "9f68149e216c9f0c2305c580984f9423", "lat": 38.88869416666667}, {"fusion_lon": 0.0, "fusion_lat": 0.0, "rental_uris": {"android": "https://dc.lft.to/lastmile_qr_scan", "ios": "https://dc.lft.to/lastmile_qr_scan"}, "is_disabled": 0, "type": "electric_scooter", "is_reserved": 0, "name": "7223541fd9b4342742937508c1ed8450", "lon": -77.02415466666666, "bike_id": "7223541fd9b4342742937508c1ed8450", "lat": 38.8951375}, {"fusion_lon": 0.0, "fusion_lat": 0.0, "rental_uris": {"android": "https://dc.lft.to/lastmile_qr_scan", "ios": "https://dc.lft.to/lastmile_qr_scan"}, "is_disabled": 0, "type": "electric_scooter", "is_reserved": 0, "name": "81b4cd3ea7febed6f0350321264826f2", "lon": -77.06379266666667, "bike_id": "81b4cd3ea7febed6f0350321264826f2", "lat": 38.9083075}, {"fusion_lon": 0.0, "fusion_lat": 0.0, "rental_uris": {"android": "https://dc.lft.to/lastmile_qr_scan", "ios": "https://dc.lft.to/lastmile_qr_scan"}, "is_disabled": 0, "type": "electric_scooter", "is_reserved": 0, "name": "ee36292ae8351825c95f83d7c94304fc", "lon": -77.03209983333333, "bike_id": "ee36292ae8351825c95f83d7c94304fc", "lat": 38.902597166666666}, {"fusion_lon": 0.0, "fusion_lat": 0.0, "rental_uris": {"android": "https://dc.lft.to/lastmile_qr_scan", "ios": "https://dc.lft.to/lastmile_qr_scan"}, "is_disabled": 0, "type": "electric_scooter", "is_reserved": 0, "name": "423f85daa93995d18941e56cb5945fdc", "lon": -77.03285166666667, "bike_id": "423f85daa93995d18941e56cb5945fdc", "lat": 38.94748833333333}, {"fusion_lon": 0.0, "fusion_lat": 0.0, "rental_uris": {"android": "https://dc.lft.to/lastmile_qr_scan", "ios": "https://dc.lft.to/lastmile_qr_scan"}, "is_disabled": 0, "type": "electric_bike", "is_reserved": 0, "name": "70a2564b0405e0c52d90825b55b4bdc7", "lon": -77.0900085, "bike_id": "70a2564b0405e0c52d90825b55b4bdc7", "lat": 38.90902166666667}, {"fusion_lon": 0.0, "fusion_lat": 0.0, "rental_uris": {"android": "https://dc.lft.to/lastmile_qr_scan", "ios": "https://dc.lft.to/lastmile_qr_scan"}, "is_disabled": 0, "type": "electric_scooter", "is_reserved": 0, "name": "bc21a3aa0aff0582e9321ebfb7b016d2", "lon": -77.0447465, "bike_id": "bc21a3aa0aff0582e9321ebfb7b016d2", "lat": 38.90013666666667}, {"fusion_lon": 0.0, "fusion_lat": 0.0, "rental_uris": {"android": "https://dc.lft.to/lastmile_qr_scan", "ios": "https://dc.lft.to/lastmile_qr_scan"}, "is_disabled": 0, "type": "electric_scooter", "is_reserved": 0, "name": "21d4a2dccc124bac9eeb6320dd503bd9", "lon": -77.03446516666666, "bike_id": "21d4a2dccc124bac9eeb6320dd503bd9", "lat": 38.90945966666666}, {"fusion_lon": 0.0, "fusion_lat": 0.0, "rental_uris": {"android": "https://dc.lft.to/lastmile_qr_scan", "ios": "https://dc.lft.to/lastmile_qr_scan"}, "is_disabled": 0, "type": "electric_scooter", "is_reserved": 0, "name": "1740ae4a300fcd1c7f76d2c14671aa02", "lon": -77.07137716666666, "bike_id": "1740ae4a300fcd1c7f76d2c14671aa02", "lat": 38.92020466666666}, {"fusion_lon": 0.0, "fusion_lat": 0.0, "rental_uris": {"android": "https://dc.lft.to/lastmile_qr_scan", "ios": "https://dc.lft.to/lastmile_qr_scan"}, "is_disabled": 0, "type": "electric_bike", "is_reserved": 0, "name": "60d8d5d11969c68b052b9e273755ffdb", "lon": -77.096038, "bike_id": "60d8d5d11969c68b052b9e273755ffdb", "lat": 38.99185383333333}, {"fusion_lon": 0.0, "fusion_lat": 0.0, "rental_uris": {"android": "https://dc.lft.to/lastmile_qr_scan", "ios": "https://dc.lft.to/lastmile_qr_scan"}, "is_disabled": 0, "type": "electric_scooter", "is_reserved": 0, "name": "2fb65c8982251e562f96833b3e4deeb4", "lon": -77.06699483333334, "bike_id": "2fb65c8982251e562f96833b3e4deeb4", "lat": 38.914195}, {"fusion_lon": 0.0, "fusion_lat": 0.0, "rental_uris": {"android": "https://dc.lft.to/lastmile_qr_scan", "ios": "https://dc.lft.to/lastmile_qr_scan"}, "is_disabled": 0, "type": "electric_scooter", "is_reserved": 0, "name": "d8ef4f87c21d15d729789fe118cd10dc", "lon": -77.02701683333333, "bike_id": "d8ef4f87c21d15d729789fe118cd10dc", "lat": 38.89816}, {"fusion_lon": 0.0, "fusion_lat": 0.0, "rental_uris": {"android": "https://dc.lft.to/lastmile_qr_scan", "ios": "https://dc.lft.to/lastmile_qr_scan"}, "is_disabled": 0, "type": "electric_scooter", "is_reserved": 0, "name": "19ab450d4120d8905f704e62b29122a7", "lon": -77.065993, "bike_id": "19ab450d4120d8905f704e62b29122a7", "lat": 38.912188}, {"fusion_lon": 0.0, "fusion_lat": 0.0, "rental_uris": {"android": "https://dc.lft.to/lastmile_qr_scan", "ios": "https://dc.lft.to/lastmile_qr_scan"}, "is_disabled": 0, "type": "electric_scooter", "is_reserved": 0, "name": "08a0cb89b288b8fb617081284c8e1f55", "lon": -76.99640533333333, "bike_id": "08a0cb89b288b8fb617081284c8e1f55", "lat": 38.90021183333333}, {"fusion_lon": 0.0, "fusion_lat": 0.0, "rental_uris": {"android": "https://dc.lft.to/lastmile_qr_scan", "ios": "https://dc.lft.to/lastmile_qr_scan"}, "is_disabled": 0, "type": "electric_scooter", "is_reserved": 0, "name": "2fb24da9a12bdcb53bff2d5edc6e5b8f", "lon": -77.0448335, "bike_id": "2fb24da9a12bdcb53bff2d5edc6e5b8f", "lat": 38.911558666666664}, {"fusion_lon": 0.0, "fusion_lat": 0.0, "rental_uris": {"android": "https://dc.lft.to/lastmile_qr_scan", "ios": "https://dc.lft.to/lastmile_qr_scan"}, "is_disabled": 0, "type": "electric_scooter", "is_reserved": 0, "name": "b4465e4fcc4420c940797662a700ad15", "lon": -77.064019, "bike_id": "b4465e4fcc4420c940797662a700ad15", "lat": 38.91347066666667}, {"fusion_lon": 0.0, "fusion_lat": 0.0, "rental_uris": {"android": "https://dc.lft.to/lastmile_qr_scan", "ios": "https://dc.lft.to/lastmile_qr_scan"}, "is_disabled": 0, "type": "electric_scooter", "is_reserved": 0, "name": "625417c545252dab9342efdad888925c", "lon": -77.02213166666667, "bike_id": "625417c545252dab9342efdad888925c", "lat": 38.916382166666665}, {"fusion_lon": 0.0, "fusion_lat": 0.0, "rental_uris": {"android": "https://dc.lft.to/lastmile_qr_scan", "ios": "https://dc.lft.to/lastmile_qr_scan"}, "is_disabled": 0, "type": "electric_scooter", "is_reserved": 0, "name": "66da7ed00d1eca32b55249890129f206", "lon": -77.07542266666667, "bike_id": "66da7ed00d1eca32b55249890129f206", "lat": 38.91532216666667}, {"fusion_lon": 0.0, "fusion_lat": 0.0, "rental_uris": {"android": "https://dc.lft.to/lastmile_qr_scan", "ios": "https://dc.lft.to/lastmile_qr_scan"}, "is_disabled": 0, "type": "electric_scooter", "is_reserved": 0, "name": "990e65bfd66d8475b807f06ddac069ed", "lon": -77.020016, "bike_id": "990e65bfd66d8475b807f06ddac069ed", "lat": 38.885558833333334}, {"fusion_lon": 0.0, "fusion_lat": 0.0, "rental_uris": {"android": "https://dc.lft.to/lastmile_qr_scan", "ios": "https://dc.lft.to/lastmile_qr_scan"}, "is_disabled": 0, "type": "electric_scooter", "is_reserved": 0, "name": "e70afb02a278c43cdb564dd9406e40c9", "lon": -77.03385766666666, "bike_id": "e70afb02a278c43cdb564dd9406e40c9", "lat": 38.924608166666665}, {"fusion_lon": 0.0, "fusion_lat": 0.0, "rental_uris": {"android": "https://dc.lft.to/lastmile_qr_scan", "ios": "https://dc.lft.to/lastmile_qr_scan"}, "is_disabled": 0, "type": "electric_bike", "is_reserved": 0, "name": "136b3473c2b3b528e0a73b248b617372", "lon": -76.9180705, "bike_id": "136b3473c2b3b528e0a73b248b617372", "lat": 38.9999415}, {"fusion_lon": 0.0, "fusion_lat": 0.0, "rental_uris": {"android": "https://dc.lft.to/lastmile_qr_scan", "ios": "https://dc.lft.to/lastmile_qr_scan"}, "is_disabled": 0, "type": "electric_scooter", "is_reserved": 0, "name": "4ce161a5a1e55b9e23163913dd2a0a0c", "lon": -76.991111, "bike_id": "4ce161a5a1e55b9e23163913dd2a0a0c", "lat": 38.900239166666665}, {"fusion_lon": 0.0, "fusion_lat": 0.0, "rental_uris": {"android": "https://dc.lft.to/lastmile_qr_scan", "ios": "https://dc.lft.to/lastmile_qr_scan"}, "is_disabled": 0, "type": "electric_scooter", "is_reserved": 0, "name": "a64d11aed8b939276776bfa0a56a6adb", "lon": -77.017882, "bike_id": "a64d11aed8b939276776bfa0a56a6adb", "lat": 38.92124066666667}, {"fusion_lon": 0.0, "fusion_lat": 0.0, "rental_uris": {"android": "https://dc.lft.to/lastmile_qr_scan", "ios": "https://dc.lft.to/lastmile_qr_scan"}, "is_disabled": 0, "type": "electric_scooter", "is_reserved": 0, "name": "38acb1dd5a5c996ccdcdf50ae9e0ab4d", "lon": -77.03299033333333, "bike_id": "38acb1dd5a5c996ccdcdf50ae9e0ab4d", "lat": 38.90388033333333}, {"fusion_lon": 0.0, "fusion_lat": 0.0, "rental_uris": {"android": "https://dc.lft.to/lastmile_qr_scan", "ios": "https://dc.lft.to/lastmile_qr_scan"}, "is_disabled": 0, "type": "electric_scooter", "is_reserved": 0, "name": "a32dbe2a2d04e08aec4f961dd39c6a9b", "lon": -76.99853966666667, "bike_id": "a32dbe2a2d04e08aec4f961dd39c6a9b", "lat": 38.89621866666667}, {"fusion_lon": 0.0, "fusion_lat": 0.0, "rental_uris": {"android": "https://dc.lft.to/lastmile_qr_scan", "ios": "https://dc.lft.to/lastmile_qr_scan"}, "is_disabled": 0, "type": "electric_scooter", "is_reserved": 0, "name": "8da06ee7818ff881e3084dec28a55c2e", "lon": -76.9902015, "bike_id": "8da06ee7818ff881e3084dec28a55c2e", "lat": 38.865252}, {"fusion_lon": 0.0, "fusion_lat": 0.0, "rental_uris": {"android": "https://dc.lft.to/lastmile_qr_scan", "ios": "https://dc.lft.to/lastmile_qr_scan"}, "is_disabled": 0, "type": "electric_scooter", "is_reserved": 0, "name": "ce23f6e7bae51f6c4caebe43acd57db5", "lon": -77.029956, "bike_id": "ce23f6e7bae51f6c4caebe43acd57db5", "lat": 38.9013635}, {"fusion_lon": 0.0, "fusion_lat": 0.0, "rental_uris": {"android": "https://dc.lft.to/lastmile_qr_scan", "ios": "https://dc.lft.to/lastmile_qr_scan"}, "is_disabled": 0, "type": "electric_scooter", "is_reserved": 0, "name": "660b56ac62dddf7a033649f43138200c", "lon": -76.9319805, "bike_id": "660b56ac62dddf7a033649f43138200c", "lat": 38.882911}, {"fusion_lon": 0.0, "fusion_lat": 0.0, "rental_uris": {"android": "https://dc.lft.to/lastmile_qr_scan", "ios": "https://dc.lft.to/lastmile_qr_scan"}, "is_disabled": 0, "type": "electric_scooter", "is_reserved": 0, "name": "679f95a32c51ee08af79a035803906f0", "lon": -77.0205865, "bike_id": "679f95a32c51ee08af79a035803906f0", "lat": 38.89361366666667}, {"fusion_lon": 0.0, "fusion_lat": 0.0, "rental_uris": {"android": "https://dc.lft.to/lastmile_qr_scan", "ios": "https://dc.lft.to/lastmile_qr_scan"}, "is_disabled": 0, "type": "electric_scooter", "is_reserved": 0, "name": "dafb4234eeb95e5fd8b2a3424dcc889b", "lon": -77.04178616666667, "bike_id": "dafb4234eeb95e5fd8b2a3424dcc889b", "lat": 38.904736666666665}, {"fusion_lon": 0.0, "fusion_lat": 0.0, "rental_uris": {"android": "https://dc.lft.to/lastmile_qr_scan", "ios": "https://dc.lft.to/lastmile_qr_scan"}, "is_disabled": 0, "type": "electric_scooter", "is_reserved": 0, "name": "7b587bb499b585eed617334bb0b6bd54", "lon": -77.00752033333333, "bike_id": "7b587bb499b585eed617334bb0b6bd54", "lat": 38.898238666666664}, {"fusion_lon": 0.0, "fusion_lat": 0.0, "rental_uris": {"android": "https://dc.lft.to/lastmile_qr_scan", "ios": "https://dc.lft.to/lastmile_qr_scan"}, "is_disabled": 0, "type": "electric_scooter", "is_reserved": 0, "name": "eeb65f2201e738113cc674cc1ccb6ab6", "lon": -76.93209016666667, "bike_id": "eeb65f2201e738113cc674cc1ccb6ab6", "lat": 38.89849266666667}, {"fusion_lon": 0.0, "fusion_lat": 0.0, "rental_uris": {"android": "https://dc.lft.to/lastmile_qr_scan", "ios": "https://dc.lft.to/lastmile_qr_scan"}, "is_disabled": 0, "type": "electric_scooter", "is_reserved": 0, "name": "b26b2f9c3e6b917fb49a871cd3fc48d5", "lon": -77.07435983333333, "bike_id": "b26b2f9c3e6b917fb49a871cd3fc48d5", "lat": 38.93582166666667}, {"fusion_lon": 0.0, "fusion_lat": 0.0, "rental_uris": {"android": "https://dc.lft.to/lastmile_qr_scan", "ios": "https://dc.lft.to/lastmile_qr_scan"}, "is_disabled": 0, "type": "electric_scooter", "is_reserved": 0, "name": "43f78c3241dc93c1b414599161aa3a87", "lon": -77.01952483333334, "bike_id": "43f78c3241dc93c1b414599161aa3a87", "lat": 38.9236705}, {"fusion_lon": 0.0, "fusion_lat": 0.0, "rental_uris": {"android": "https://dc.lft.to/lastmile_qr_scan", "ios": "https://dc.lft.to/lastmile_qr_scan"}, "is_disabled": 0, "type": "electric_scooter", "is_reserved": 0, "name": "96d8832f68f90d3c04d1c1fbc90fe29d", "lon": -77.04188816666667, "bike_id": "96d8832f68f90d3c04d1c1fbc90fe29d", "lat": 38.920467}, {"fusion_lon": 0.0, "fusion_lat": 0.0, "rental_uris": {"android": "https://dc.lft.to/lastmile_qr_scan", "ios": "https://dc.lft.to/lastmile_qr_scan"}, "is_disabled": 0, "type": "electric_scooter", "is_reserved": 0, "name": "cff010c50825a9ee03cc8e631272f271", "lon": -77.03273433333334, "bike_id": "cff010c50825a9ee03cc8e631272f271", "lat": 38.929148}, {"fusion_lon": 0.0, "fusion_lat": 0.0, "rental_uris": {"android": "https://dc.lft.to/lastmile_qr_scan", "ios": "https://dc.lft.to/lastmile_qr_scan"}, "is_disabled": 0, "type": "electric_scooter", "is_reserved": 0, "name": "bbb09932d628989f69a60124eb1bdef7", "lon": -77.02116783333334, "bike_id": "bbb09932d628989f69a60124eb1bdef7", "lat": 38.93108516666667}, {"fusion_lon": 0.0, "fusion_lat": 0.0, "rental_uris": {"android": "https://dc.lft.to/lastmile_qr_scan", "ios": "https://dc.lft.to/lastmile_qr_scan"}, "is_disabled": 0, "type": "electric_scooter", "is_reserved": 0, "name": "6c28e56410e4e04a90c5ceaa6d24ec76", "lon": -77.05523816666667, "bike_id": "6c28e56410e4e04a90c5ceaa6d24ec76", "lat": 38.8972245}, {"fusion_lon": 0.0, "fusion_lat": 0.0, "rental_uris": {"android": "https://dc.lft.to/lastmile_qr_scan", "ios": "https://dc.lft.to/lastmile_qr_scan"}, "is_disabled": 0, "type": "electric_bike", "is_reserved": 0, "name": "34595d9132cd6cbd8f85ef9601ffdd6c", "lon": -76.993125, "bike_id": "34595d9132cd6cbd8f85ef9601ffdd6c", "lat": 38.94635783333333}, {"fusion_lon": 0.0, "fusion_lat": 0.0, "rental_uris": {"android": "https://dc.lft.to/lastmile_qr_scan", "ios": "https://dc.lft.to/lastmile_qr_scan"}, "is_disabled": 0, "type": "electric_scooter", "is_reserved": 0, "name": "77be8ea1545853166836f97fc45d1b35", "lon": -77.04503483333333, "bike_id": "77be8ea1545853166836f97fc45d1b35", "lat": 38.89253016666667}, {"fusion_lon": 0.0, "fusion_lat": 0.0, "rental_uris": {"android": "https://dc.lft.to/lastmile_qr_scan", "ios": "https://dc.lft.to/lastmile_qr_scan"}, "is_disabled": 0, "type": "electric_scooter", "is_reserved": 0, "name": "c07f97e1f127dc0627759c25b73ed77c", "lon": -77.02133616666667, "bike_id": "c07f97e1f127dc0627759c25b73ed77c", "lat": 38.92333333333333}, {"fusion_lon": 0.0, "fusion_lat": 0.0, "rental_uris": {"android": "https://dc.lft.to/lastmile_qr_scan", "ios": "https://dc.lft.to/lastmile_qr_scan"}, "is_disabled": 0, "type": "electric_scooter", "is_reserved": 0, "name": "930ab448b2da6588ca0abda58e658afd", "lon": -77.00991733333333, "bike_id": "930ab448b2da6588ca0abda58e658afd", "lat": 38.872843833333334}, {"fusion_lon": 0.0, "fusion_lat": 0.0, "rental_uris": {"android": "https://dc.lft.to/lastmile_qr_scan", "ios": "https://dc.lft.to/lastmile_qr_scan"}, "is_disabled": 0, "type": "electric_bike", "is_reserved": 0, "name": "b8a2d513c4f569da22ba433e0aeb0779", "lon": -77.06083583333333, "bike_id": "b8a2d513c4f569da22ba433e0aeb0779", "lat": 38.80435383333333}, {"fusion_lon": 0.0, "fusion_lat": 0.0, "rental_uris": {"android": "https://dc.lft.to/lastmile_qr_scan", "ios": "https://dc.lft.to/lastmile_qr_scan"}, "is_disabled": 0, "type": "electric_scooter", "is_reserved": 0, "name": "131150fec2cc035bb6b33d78a4b3e248", "lon": -77.03520683333333, "bike_id": "131150fec2cc035bb6b33d78a4b3e248", "lat": 38.922291}, {"fusion_lon": 0.0, "fusion_lat": 0.0, "rental_uris": {"android": "https://dc.lft.to/lastmile_qr_scan", "ios": "https://dc.lft.to/lastmile_qr_scan"}, "is_disabled": 0, "type": "electric_scooter", "is_reserved": 0, "name": "c44849f6899b714d5b4127520c249328", "lon": -77.0242, "bike_id": "c44849f6899b714d5b4127520c249328", "lat": 38.90559983333333}, {"fusion_lon": 0.0, "fusion_lat": 0.0, "rental_uris": {"android": "https://dc.lft.to/lastmile_qr_scan", "ios": "https://dc.lft.to/lastmile_qr_scan"}, "is_disabled": 0, "type": "electric_scooter", "is_reserved": 0, "name": "85158910afe7c42401ac872d0e613737", "lon": -77.02818766666667, "bike_id": "85158910afe7c42401ac872d0e613737", "lat": 38.922347333333335}, {"fusion_lon": 0.0, "fusion_lat": 0.0, "rental_uris": {"android": "https://dc.lft.to/lastmile_qr_scan", "ios": "https://dc.lft.to/lastmile_qr_scan"}, "is_disabled": 0, "type": "electric_scooter", "is_reserved": 0, "name": "54ac1ab494e1321ca878784ddc25ed79", "lon": -77.043526, "bike_id": "54ac1ab494e1321ca878784ddc25ed79", "lat": 38.90392033333333}, {"fusion_lon": 0.0, "fusion_lat": 0.0, "rental_uris": {"android": "https://dc.lft.to/lastmile_qr_scan", "ios": "https://dc.lft.to/lastmile_qr_scan"}, "is_disabled": 0, "type": "electric_scooter", "is_reserved": 0, "name": "7dd100bd3cbef292480c2df0dfcf8eae", "lon": -77.0298665, "bike_id": "7dd100bd3cbef292480c2df0dfcf8eae", "lat": 38.89719216666667}, {"fusion_lon": 0.0, "fusion_lat": 0.0, "rental_uris": {"android": "https://dc.lft.to/lastmile_qr_scan", "ios": "https://dc.lft.to/lastmile_qr_scan"}, "is_disabled": 0, "type": "electric_scooter", "is_reserved": 0, "name": "33f863dedf00e3cd03aab735f6001e9b", "lon": -77.07266966666667, "bike_id": "33f863dedf00e3cd03aab735f6001e9b", "lat": 38.90914766666667}, {"fusion_lon": 0.0, "fusion_lat": 0.0, "rental_uris": {"android": "https://dc.lft.to/lastmile_qr_scan", "ios": "https://dc.lft.to/lastmile_qr_scan"}, "is_disabled": 0, "type": "electric_scooter", "is_reserved": 0, "name": "e0b3b3805643e49980c0f16b6404a333", "lon": -77.02835583333334, "bike_id": "e0b3b3805643e49980c0f16b6404a333", "lat": 38.90151183333333}, {"fusion_lon": 0.0, "fusion_lat": 0.0, "rental_uris": {"android": "https://dc.lft.to/lastmile_qr_scan", "ios": "https://dc.lft.to/lastmile_qr_scan"}, "is_disabled": 0, "type": "electric_scooter", "is_reserved": 0, "name": "bd1fb1f611361a064513ccb94c51334a", "lon": -77.02812033333333, "bike_id": "bd1fb1f611361a064513ccb94c51334a", "lat": 38.902863833333335}, {"fusion_lon": 0.0, "fusion_lat": 0.0, "rental_uris": {"android": "https://dc.lft.to/lastmile_qr_scan", "ios": "https://dc.lft.to/lastmile_qr_scan"}, "is_disabled": 0, "type": "electric_scooter", "is_reserved": 0, "name": "3fea4013ca9dd38428cecebe8f6f9db1", "lon": -77.0216275, "bike_id": "3fea4013ca9dd38428cecebe8f6f9db1", "lat": 38.93070016666667}, {"fusion_lon": 0.0, "fusion_lat": 0.0, "rental_uris": {"android": "https://dc.lft.to/lastmile_qr_scan", "ios": "https://dc.lft.to/lastmile_qr_scan"}, "is_disabled": 0, "type": "electric_scooter", "is_reserved": 0, "name": "428cd2e6b0ee8297c2e97bc57f342575", "lon": -77.0221715, "bike_id": "428cd2e6b0ee8297c2e97bc57f342575", "lat": 38.8960405}, {"fusion_lon": 0.0, "fusion_lat": 0.0, "rental_uris": {"android": "https://dc.lft.to/lastmile_qr_scan", "ios": "https://dc.lft.to/lastmile_qr_scan"}, "is_disabled": 0, "type": "electric_scooter", "is_reserved": 0, "name": "014982dbb6c4dc184199e1a37eb8a52d", "lon": -77.03563216666667, "bike_id": "014982dbb6c4dc184199e1a37eb8a52d", "lat": 38.90370016666667}, {"fusion_lon": 0.0, "fusion_lat": 0.0, "rental_uris": {"android": "https://dc.lft.to/lastmile_qr_scan", "ios": "https://dc.lft.to/lastmile_qr_scan"}, "is_disabled": 0, "type": "electric_scooter", "is_reserved": 0, "name": "db95db277406fd3dc0f24a05a88c30b8", "lon": -77.0020495, "bike_id": "db95db277406fd3dc0f24a05a88c30b8", "lat": 38.90029166666667}, {"fusion_lon": 0.0, "fusion_lat": 0.0, "rental_uris": {"android": "https://dc.lft.to/lastmile_qr_scan", "ios": "https://dc.lft.to/lastmile_qr_scan"}, "is_disabled": 0, "type": "electric_scooter", "is_reserved": 0, "name": "e45f1698e3e5b3d1cb6bbbe9b1d4d7e5", "lon": -77.02847383333334, "bike_id": "e45f1698e3e5b3d1cb6bbbe9b1d4d7e5", "lat": 38.94192483333333}, {"fusion_lon": 0.0, "fusion_lat": 0.0, "rental_uris": {"android": "https://dc.lft.to/lastmile_qr_scan", "ios": "https://dc.lft.to/lastmile_qr_scan"}, "is_disabled": 0, "type": "electric_scooter", "is_reserved": 0, "name": "b0b5a91f4557e6c565e7f56613e13ab4", "lon": -77.04435316666667, "bike_id": "b0b5a91f4557e6c565e7f56613e13ab4", "lat": 38.896051166666666}, {"fusion_lon": 0.0, "fusion_lat": 0.0, "rental_uris": {"android": "https://dc.lft.to/lastmile_qr_scan", "ios": "https://dc.lft.to/lastmile_qr_scan"}, "is_disabled": 0, "type": "electric_scooter", "is_reserved": 0, "name": "214b57fdc4e83b4b2f844afe6a5f1716", "lon": -77.03311083333334, "bike_id": "214b57fdc4e83b4b2f844afe6a5f1716", "lat": 38.903891}, {"fusion_lon": 0.0, "fusion_lat": 0.0, "rental_uris": {"android": "https://dc.lft.to/lastmile_qr_scan", "ios": "https://dc.lft.to/lastmile_qr_scan"}, "is_disabled": 0, "type": "electric_scooter", "is_reserved": 0, "name": "16c4d93947885abdd48c1dd1edf2e063", "lon": -77.042658, "bike_id": "16c4d93947885abdd48c1dd1edf2e063", "lat": 38.92054816666667}, {"fusion_lon": 0.0, "fusion_lat": 0.0, "rental_uris": {"android": "https://dc.lft.to/lastmile_qr_scan", "ios": "https://dc.lft.to/lastmile_qr_scan"}, "is_disabled": 0, "type": "electric_scooter", "is_reserved": 0, "name": "8e8a22583a49301ffdc4afcdeaffdef5", "lon": -77.00293316666666, "bike_id": "8e8a22583a49301ffdc4afcdeaffdef5", "lat": 38.89198316666667}, {"fusion_lon": 0.0, "fusion_lat": 0.0, "rental_uris": {"android": "https://dc.lft.to/lastmile_qr_scan", "ios": "https://dc.lft.to/lastmile_qr_scan"}, "is_disabled": 0, "type": "electric_scooter", "is_reserved": 0, "name": "4c378bd2f4b358541606656fea0428dc", "lon": -77.03146966666667, "bike_id": "4c378bd2f4b358541606656fea0428dc", "lat": 38.92790033333333}, {"fusion_lon": 0.0, "fusion_lat": 0.0, "rental_uris": {"android": "https://dc.lft.to/lastmile_qr_scan", "ios": "https://dc.lft.to/lastmile_qr_scan"}, "is_disabled": 0, "type": "electric_scooter", "is_reserved": 0, "name": "fbb8079eb47f3c24a87d733bcb67f0af", "lon": -77.05234433333334, "bike_id": "fbb8079eb47f3c24a87d733bcb67f0af", "lat": 38.924678166666666}, {"fusion_lon": 0.0, "fusion_lat": 0.0, "rental_uris": {"android": "https://dc.lft.to/lastmile_qr_scan", "ios": "https://dc.lft.to/lastmile_qr_scan"}, "is_disabled": 0, "type": "electric_scooter", "is_reserved": 0, "name": "4acc593117825f0e3edb8d4a304826e0", "lon": -77.024843, "bike_id": "4acc593117825f0e3edb8d4a304826e0", "lat": 38.88013216666667}, {"fusion_lon": 0.0, "fusion_lat": 0.0, "rental_uris": {"android": "https://dc.lft.to/lastmile_qr_scan", "ios": "https://dc.lft.to/lastmile_qr_scan"}, "is_disabled": 0, "type": "electric_scooter", "is_reserved": 0, "name": "b169f4212dddaf123ace6dd01d23c448", "lon": -77.04471433333333, "bike_id": "b169f4212dddaf123ace6dd01d23c448", "lat": 38.894171}, {"fusion_lon": 0.0, "fusion_lat": 0.0, "rental_uris": {"android": "https://dc.lft.to/lastmile_qr_scan", "ios": "https://dc.lft.to/lastmile_qr_scan"}, "is_disabled": 0, "type": "electric_scooter", "is_reserved": 0, "name": "f8b2cb1197bdf7b4c50b200984017118", "lon": -77.0172075, "bike_id": "f8b2cb1197bdf7b4c50b200984017118", "lat": 38.90726683333333}, {"fusion_lon": 0.0, "fusion_lat": 0.0, "rental_uris": {"android": "https://dc.lft.to/lastmile_qr_scan", "ios": "https://dc.lft.to/lastmile_qr_scan"}, "is_disabled": 0, "type": "electric_scooter", "is_reserved": 0, "name": "10dbdc14948f229482a975723297f3be", "lon": -76.99396516666667, "bike_id": "10dbdc14948f229482a975723297f3be", "lat": 38.91003116666667}, {"fusion_lon": 0.0, "fusion_lat": 0.0, "rental_uris": {"android": "https://dc.lft.to/lastmile_qr_scan", "ios": "https://dc.lft.to/lastmile_qr_scan"}, "is_disabled": 0, "type": "electric_scooter", "is_reserved": 0, "name": "57eeca28707c8aad1da173b04ae056ee", "lon": -77.03970266666667, "bike_id": "57eeca28707c8aad1da173b04ae056ee", "lat": 38.90262366666666}, {"fusion_lon": 0.0, "fusion_lat": 0.0, "rental_uris": {"android": "https://dc.lft.to/lastmile_qr_scan", "ios": "https://dc.lft.to/lastmile_qr_scan"}, "is_disabled": 0, "type": "electric_scooter", "is_reserved": 0, "name": "13f19c2332570f37b5bce343f5609d84", "lon": -76.98829916666666, "bike_id": "13f19c2332570f37b5bce343f5609d84", "lat": 38.8909505}, {"fusion_lon": 0.0, "fusion_lat": 0.0, "rental_uris": {"android": "https://dc.lft.to/lastmile_qr_scan", "ios": "https://dc.lft.to/lastmile_qr_scan"}, "is_disabled": 0, "type": "electric_scooter", "is_reserved": 0, "name": "ab84e61806f9750d0dac0959b2e603e7", "lon": -77.018069, "bike_id": "ab84e61806f9750d0dac0959b2e603e7", "lat": 38.914243666666664}, {"fusion_lon": 0.0, "fusion_lat": 0.0, "rental_uris": {"android": "https://dc.lft.to/lastmile_qr_scan", "ios": "https://dc.lft.to/lastmile_qr_scan"}, "is_disabled": 0, "type": "electric_scooter", "is_reserved": 0, "name": "05275292fab2fcef034f2508f19626e3", "lon": -77.04658183333333, "bike_id": "05275292fab2fcef034f2508f19626e3", "lat": 38.894629}, {"fusion_lon": 0.0, "fusion_lat": 0.0, "rental_uris": {"android": "https://dc.lft.to/lastmile_qr_scan", "ios": "https://dc.lft.to/lastmile_qr_scan"}, "is_disabled": 0, "type": "electric_scooter", "is_reserved": 0, "name": "3ffde6b5d24768b0c6bbec43bacaad2c", "lon": -77.01553866666667, "bike_id": "3ffde6b5d24768b0c6bbec43bacaad2c", "lat": 38.89371466666667}, {"fusion_lon": 0.0, "fusion_lat": 0.0, "rental_uris": {"android": "https://dc.lft.to/lastmile_qr_scan", "ios": "https://dc.lft.to/lastmile_qr_scan"}, "is_disabled": 0, "type": "electric_scooter", "is_reserved": 0, "name": "8747d1db07d5e131a19e1f3b03443ae6", "lon": -76.98210616666667, "bike_id": "8747d1db07d5e131a19e1f3b03443ae6", "lat": 38.886428}, {"fusion_lon": 0.0, "fusion_lat": 0.0, "rental_uris": {"android": "https://dc.lft.to/lastmile_qr_scan", "ios": "https://dc.lft.to/lastmile_qr_scan"}, "is_disabled": 0, "type": "electric_scooter", "is_reserved": 0, "name": "6ac716f0bda3014703a7a3f61c147e56", "lon": -77.02128433333333, "bike_id": "6ac716f0bda3014703a7a3f61c147e56", "lat": 38.924218833333335}, {"fusion_lon": 0.0, "fusion_lat": 0.0, "rental_uris": {"android": "https://dc.lft.to/lastmile_qr_scan", "ios": "https://dc.lft.to/lastmile_qr_scan"}, "is_disabled": 0, "type": "electric_scooter", "is_reserved": 0, "name": "1593b494d85c80df7931524a34c4a673", "lon": -77.03957666666666, "bike_id": "1593b494d85c80df7931524a34c4a673", "lat": 38.89365683333333}, {"fusion_lon": 0.0, "fusion_lat": 0.0, "rental_uris": {"android": "https://dc.lft.to/lastmile_qr_scan", "ios": "https://dc.lft.to/lastmile_qr_scan"}, "is_disabled": 0, "type": "electric_scooter", "is_reserved": 0, "name": "ab0e596af41d86662445847aec33160b", "lon": -76.98112983333333, "bike_id": "ab0e596af41d86662445847aec33160b", "lat": 38.91470966666667}, {"fusion_lon": 0.0, "fusion_lat": 0.0, "rental_uris": {"android": "https://dc.lft.to/lastmile_qr_scan", "ios": "https://dc.lft.to/lastmile_qr_scan"}, "is_disabled": 0, "type": "electric_bike", "is_reserved": 0, "name": "d3b16ff9d6ec92aedba6a79f5a149262", "lon": -77.13935916666667, "bike_id": "d3b16ff9d6ec92aedba6a79f5a149262", "lat": 38.8466925}, {"fusion_lon": 0.0, "fusion_lat": 0.0, "rental_uris": {"android": "https://dc.lft.to/lastmile_qr_scan", "ios": "https://dc.lft.to/lastmile_qr_scan"}, "is_disabled": 0, "type": "electric_scooter", "is_reserved": 0, "name": "ce35e887d1a0662b71b4c7717ee69249", "lon": -77.032064, "bike_id": "ce35e887d1a0662b71b4c7717ee69249", "lat": 38.89884383333333}, {"fusion_lon": 0.0, "fusion_lat": 0.0, "rental_uris": {"android": "https://dc.lft.to/lastmile_qr_scan", "ios": "https://dc.lft.to/lastmile_qr_scan"}, "is_disabled": 0, "type": "electric_bike", "is_reserved": 0, "name": "3bcd1f2f1d7b80f138d7890d567f7d54", "lon": -76.98213866666667, "bike_id": "3bcd1f2f1d7b80f138d7890d567f7d54", "lat": 38.9850085}, {"fusion_lon": 0.0, "fusion_lat": 0.0, "rental_uris": {"android": "https://dc.lft.to/lastmile_qr_scan", "ios": "https://dc.lft.to/lastmile_qr_scan"}, "is_disabled": 0, "type": "electric_scooter", "is_reserved": 0, "name": "34b4399150c53b0f9d444e520e5c567c", "lon": -77.03278016666667, "bike_id": "34b4399150c53b0f9d444e520e5c567c", "lat": 38.93731583333334}, {"fusion_lon": 0.0, "fusion_lat": 0.0, "rental_uris": {"android": "https://dc.lft.to/lastmile_qr_scan", "ios": "https://dc.lft.to/lastmile_qr_scan"}, "is_disabled": 0, "type": "electric_bike", "is_reserved": 0, "name": "891eb9d847646ef681ffc7693373695e", "lon": -76.9842235, "bike_id": "891eb9d847646ef681ffc7693373695e", "lat": 38.909968166666665}, {"fusion_lon": 0.0, "fusion_lat": 0.0, "rental_uris": {"android": "https://dc.lft.to/lastmile_qr_scan", "ios": "https://dc.lft.to/lastmile_qr_scan"}, "is_disabled": 0, "type": "electric_scooter", "is_reserved": 0, "name": "ee2577197f1bca7a3c4713182c11cb08", "lon": -77.00174416666667, "bike_id": "ee2577197f1bca7a3c4713182c11cb08", "lat": 38.9406845}, {"fusion_lon": 0.0, "fusion_lat": 0.0, "rental_uris": {"android": "https://dc.lft.to/lastmile_qr_scan", "ios": "https://dc.lft.to/lastmile_qr_scan"}, "is_disabled": 0, "type": "electric_scooter", "is_reserved": 0, "name": "6fa95854f85a35426234306f5105e946", "lon": -76.97805266666667, "bike_id": "6fa95854f85a35426234306f5105e946", "lat": 38.92034833333334}, {"fusion_lon": 0.0, "fusion_lat": 0.0, "rental_uris": {"android": "https://dc.lft.to/lastmile_qr_scan", "ios": "https://dc.lft.to/lastmile_qr_scan"}, "is_disabled": 0, "type": "electric_scooter", "is_reserved": 0, "name": "6a35bbf984bf433d92ab68962d207575", "lon": -77.02160233333333, "bike_id": "6a35bbf984bf433d92ab68962d207575", "lat": 38.926099}, {"fusion_lon": 0.0, "fusion_lat": 0.0, "rental_uris": {"android": "https://dc.lft.to/lastmile_qr_scan", "ios": "https://dc.lft.to/lastmile_qr_scan"}, "is_disabled": 0, "type": "electric_scooter", "is_reserved": 0, "name": "130ff5209b85e4fc81d8887c5be1f9cf", "lon": -77.03202066666667, "bike_id": "130ff5209b85e4fc81d8887c5be1f9cf", "lat": 38.9035705}, {"fusion_lon": 0.0, "fusion_lat": 0.0, "rental_uris": {"android": "https://dc.lft.to/lastmile_qr_scan", "ios": "https://dc.lft.to/lastmile_qr_scan"}, "is_disabled": 0, "type": "electric_scooter", "is_reserved": 0, "name": "09805b663649ff63828c6cb781d49714", "lon": -77.02600566666666, "bike_id": "09805b663649ff63828c6cb781d49714", "lat": 38.916886166666664}, {"fusion_lon": 0.0, "fusion_lat": 0.0, "rental_uris": {"android": "https://dc.lft.to/lastmile_qr_scan", "ios": "https://dc.lft.to/lastmile_qr_scan"}, "is_disabled": 0, "type": "electric_scooter", "is_reserved": 0, "name": "3407ad4d2e8d076d8b2b0175d8120ac5", "lon": -77.04555166666667, "bike_id": "3407ad4d2e8d076d8b2b0175d8120ac5", "lat": 38.909674833333334}, {"fusion_lon": 0.0, "fusion_lat": 0.0, "rental_uris": {"android": "https://dc.lft.to/lastmile_qr_scan", "ios": "https://dc.lft.to/lastmile_qr_scan"}, "is_disabled": 0, "type": "electric_scooter", "is_reserved": 0, "name": "cb6fa87cc71feb6aede2b49bd4c0bf8d", "lon": -77.032177, "bike_id": "cb6fa87cc71feb6aede2b49bd4c0bf8d", "lat": 38.9012005}, {"fusion_lon": 0.0, "fusion_lat": 0.0, "rental_uris": {"android": "https://dc.lft.to/lastmile_qr_scan", "ios": "https://dc.lft.to/lastmile_qr_scan"}, "is_disabled": 0, "type": "electric_scooter", "is_reserved": 0, "name": "a8f60e15567260cff2ecaf912ba113f7", "lon": -77.0223825, "bike_id": "a8f60e15567260cff2ecaf912ba113f7", "lat": 38.92460833333333}, {"fusion_lon": 0.0, "fusion_lat": 0.0, "rental_uris": {"android": "https://dc.lft.to/lastmile_qr_scan", "ios": "https://dc.lft.to/lastmile_qr_scan"}, "is_disabled": 0, "type": "electric_scooter", "is_reserved": 0, "name": "0dc282bc9e397166f0a24c7e586d37fa", "lon": -77.02214716666667, "bike_id": "0dc282bc9e397166f0a24c7e586d37fa", "lat": 38.927365}, {"fusion_lon": 0.0, "fusion_lat": 0.0, "rental_uris": {"android": "https://dc.lft.to/lastmile_qr_scan", "ios": "https://dc.lft.to/lastmile_qr_scan"}, "is_disabled": 0, "type": "electric_scooter", "is_reserved": 0, "name": "f549417e389cae71c3bb6e6a59c2bcad", "lon": -77.03228783333333, "bike_id": "f549417e389cae71c3bb6e6a59c2bcad", "lat": 38.9287525}, {"fusion_lon": 0.0, "fusion_lat": 0.0, "rental_uris": {"android": "https://dc.lft.to/lastmile_qr_scan", "ios": "https://dc.lft.to/lastmile_qr_scan"}, "is_disabled": 0, "type": "electric_scooter", "is_reserved": 0, "name": "0178ff2ea266c31157aacdbd1a5068b4", "lon": -77.0281715, "bike_id": "0178ff2ea266c31157aacdbd1a5068b4", "lat": 38.9069825}, {"fusion_lon": 0.0, "fusion_lat": 0.0, "rental_uris": {"android": "https://dc.lft.to/lastmile_qr_scan", "ios": "https://dc.lft.to/lastmile_qr_scan"}, "is_disabled": 0, "type": "electric_scooter", "is_reserved": 0, "name": "b98d5fe992bdcc30c2d6916939ccb5af", "lon": -77.0314105, "bike_id": "b98d5fe992bdcc30c2d6916939ccb5af", "lat": 38.928080333333334}, {"fusion_lon": 0.0, "fusion_lat": 0.0, "rental_uris": {"android": "https://dc.lft.to/lastmile_qr_scan", "ios": "https://dc.lft.to/lastmile_qr_scan"}, "is_disabled": 0, "type": "electric_scooter", "is_reserved": 0, "name": "21f9ceca799dfcc8d059d148fa731a5f", "lon": -77.00185533333334, "bike_id": "21f9ceca799dfcc8d059d148fa731a5f", "lat": 38.9000845}, {"fusion_lon": 0.0, "fusion_lat": 0.0, "rental_uris": {"android": "https://dc.lft.to/lastmile_qr_scan", "ios": "https://dc.lft.to/lastmile_qr_scan"}, "is_disabled": 0, "type": "electric_scooter", "is_reserved": 0, "name": "dfadb50512563a94bf97abcecd9a6acf", "lon": -77.008899, "bike_id": "dfadb50512563a94bf97abcecd9a6acf", "lat": 38.923291}, {"fusion_lon": 0.0, "fusion_lat": 0.0, "rental_uris": {"android": "https://dc.lft.to/lastmile_qr_scan", "ios": "https://dc.lft.to/lastmile_qr_scan"}, "is_disabled": 0, "type": "electric_scooter", "is_reserved": 0, "name": "8f0ef92bf0a08f6eb7f03164f211743a", "lon": -77.002283, "bike_id": "8f0ef92bf0a08f6eb7f03164f211743a", "lat": 38.88226083333333}, {"fusion_lon": 0.0, "fusion_lat": 0.0, "rental_uris": {"android": "https://dc.lft.to/lastmile_qr_scan", "ios": "https://dc.lft.to/lastmile_qr_scan"}, "is_disabled": 0, "type": "electric_scooter", "is_reserved": 0, "name": "b37cfdf9ca2c3e7e6984b1005ad51177", "lon": -76.92929533333333, "bike_id": "b37cfdf9ca2c3e7e6984b1005ad51177", "lat": 38.90094716666667}, {"fusion_lon": 0.0, "fusion_lat": 0.0, "rental_uris": {"android": "https://dc.lft.to/lastmile_qr_scan", "ios": "https://dc.lft.to/lastmile_qr_scan"}, "is_disabled": 0, "type": "electric_scooter", "is_reserved": 0, "name": "32c57f86ebaac807c7a97f9b139ef0a3", "lon": -77.03372733333333, "bike_id": "32c57f86ebaac807c7a97f9b139ef0a3", "lat": 38.922368}, {"fusion_lon": 0.0, "fusion_lat": 0.0, "rental_uris": {"android": "https://dc.lft.to/lastmile_qr_scan", "ios": "https://dc.lft.to/lastmile_qr_scan"}, "is_disabled": 0, "type": "electric_scooter", "is_reserved": 0, "name": "287517b1b430dbb983f29260f821b1c7", "lon": -77.02140416666667, "bike_id": "287517b1b430dbb983f29260f821b1c7", "lat": 38.901940833333335}, {"fusion_lon": 0.0, "fusion_lat": 0.0, "rental_uris": {"android": "https://dc.lft.to/lastmile_qr_scan", "ios": "https://dc.lft.to/lastmile_qr_scan"}, "is_disabled": 0, "type": "electric_scooter", "is_reserved": 0, "name": "4a0ec4f0334c3bb3554051922a8cbafc", "lon": -77.05025333333333, "bike_id": "4a0ec4f0334c3bb3554051922a8cbafc", "lat": 38.8969475}, {"fusion_lon": 0.0, "fusion_lat": 0.0, "rental_uris": {"android": "https://dc.lft.to/lastmile_qr_scan", "ios": "https://dc.lft.to/lastmile_qr_scan"}, "is_disabled": 0, "type": "electric_scooter", "is_reserved": 0, "name": "4ac3df100406e0dd0c7fda1a349772aa", "lon": -77.045002, "bike_id": "4ac3df100406e0dd0c7fda1a349772aa", "lat": 38.8993795}, {"fusion_lon": 0.0, "fusion_lat": 0.0, "rental_uris": {"android": "https://dc.lft.to/lastmile_qr_scan", "ios": "https://dc.lft.to/lastmile_qr_scan"}, "is_disabled": 0, "type": "electric_scooter", "is_reserved": 0, "name": "2921e47ce39b4bc14c9057f257de730c", "lon": -77.018512, "bike_id": "2921e47ce39b4bc14c9057f257de730c", "lat": 38.909729}, {"fusion_lon": 0.0, "fusion_lat": 0.0, "rental_uris": {"android": "https://dc.lft.to/lastmile_qr_scan", "ios": "https://dc.lft.to/lastmile_qr_scan"}, "is_disabled": 0, "type": "electric_scooter", "is_reserved": 0, "name": "68d125a93db725dc08b342c564c7e88d", "lon": -77.07250766666667, "bike_id": "68d125a93db725dc08b342c564c7e88d", "lat": 38.93955116666667}, {"fusion_lon": 0.0, "fusion_lat": 0.0, "rental_uris": {"android": "https://dc.lft.to/lastmile_qr_scan", "ios": "https://dc.lft.to/lastmile_qr_scan"}, "is_disabled": 0, "type": "electric_scooter", "is_reserved": 0, "name": "d267ab2c4e7524da6ec68d442a067d5b", "lon": -77.0358015, "bike_id": "d267ab2c4e7524da6ec68d442a067d5b", "lat": 38.93300133333334}, {"fusion_lon": 0.0, "fusion_lat": 0.0, "rental_uris": {"android": "https://dc.lft.to/lastmile_qr_scan", "ios": "https://dc.lft.to/lastmile_qr_scan"}, "is_disabled": 0, "type": "electric_scooter", "is_reserved": 0, "name": "3292d2598b72d8c4d9270aa9a8ebca2c", "lon": -76.991649, "bike_id": "3292d2598b72d8c4d9270aa9a8ebca2c", "lat": 38.901237}, {"fusion_lon": 0.0, "fusion_lat": 0.0, "rental_uris": {"android": "https://dc.lft.to/lastmile_qr_scan", "ios": "https://dc.lft.to/lastmile_qr_scan"}, "is_disabled": 0, "type": "electric_scooter", "is_reserved": 0, "name": "f6604c255604d02c9f6feb344d63d7a4", "lon": -77.026034, "bike_id": "f6604c255604d02c9f6feb344d63d7a4", "lat": 38.89950366666667}, {"fusion_lon": 0.0, "fusion_lat": 0.0, "rental_uris": {"android": "https://dc.lft.to/lastmile_qr_scan", "ios": "https://dc.lft.to/lastmile_qr_scan"}, "is_disabled": 0, "type": "electric_scooter", "is_reserved": 0, "name": "a0d12750440b82ba1806837dcf10a6e6", "lon": -77.00292333333333, "bike_id": "a0d12750440b82ba1806837dcf10a6e6", "lat": 38.89351933333333}, {"fusion_lon": 0.0, "fusion_lat": 0.0, "rental_uris": {"android": "https://dc.lft.to/lastmile_qr_scan", "ios": "https://dc.lft.to/lastmile_qr_scan"}, "is_disabled": 0, "type": "electric_scooter", "is_reserved": 0, "name": "cbd927b9cb563891d4a36e7566603744", "lon": -77.03570533333334, "bike_id": "cbd927b9cb563891d4a36e7566603744", "lat": 38.90476016666667}, {"fusion_lon": 0.0, "fusion_lat": 0.0, "rental_uris": {"android": "https://dc.lft.to/lastmile_qr_scan", "ios": "https://dc.lft.to/lastmile_qr_scan"},