{"data": {"bikes": [{"lon": -77.01425866666666, "bike_id": "26be01aff13acf9201dc6f5e9a7f993b", "lat": 38.972172666666665, "fusion_lon": 0.0, "fusion_lat": 0.0, "type": "electric_bike", "name": "26be01aff13acf9201dc6f5e9a7f993b", "is_disabled": 0, "rental_uris": {"ios": "https://dc.lft.to/lastmile_qr_scan", "android": "https://dc.lft.to/lastmile_qr_scan"}, "is_reserved": 0}, {"lon": -77.045866, "bike_id": "9c01bc14698d84298f45fb98bf7f21f3", "lat": 38.90367233333333, "fusion_lon": 0.0, "fusion_lat": 0.0, "type": "electric_scooter", "name": "9c01bc14698d84298f45fb98bf7f21f3", "is_disabled": 0, "rental_uris": {"ios": "https://dc.lft.to/lastmile_qr_scan", "android": "https://dc.lft.to/lastmile_qr_scan"}, "is_reserved": 0}, {"lon": -77.0211635, "bike_id": "1c56c21174b076b37b77250b5a88d4ce", "lat": 38.91738483333334, "fusion_lon": 0.0, "fusion_lat": 0.0, "type": "electric_scooter", "name": "1c56c21174b076b37b77250b5a88d4ce", "is_disabled": 0, "rental_uris": {"ios": "https://dc.lft.to/lastmile_qr_scan", "android": "https://dc.lft.to/lastmile_qr_scan"}, "is_reserved": 0}, {"lon": -77.018363, "bike_id": "97a0cde71b3becea6164a3f816125cb7", "lat": 38.9093645, "fusion_lon": 0.0, "fusion_lat": 0.0, "type": "electric_scooter", "name": "97a0cde71b3becea6164a3f816125cb7", "is_disabled": 0, "rental_uris": {"ios": "https://dc.lft.to/lastmile_qr_scan", "android": "https://dc.lft.to/lastmile_qr_scan"}, "is_reserved": 0}, {"lon": -77.03458716666667, "bike_id": "71c82729f26d60848fb9519f050435ab", "lat": 38.90571166666667, "fusion_lon": 0.0, "fusion_lat": 0.0, "type": "electric_scooter", "name": "71c82729f26d60848fb9519f050435ab", "is_disabled": 0, "rental_uris": {"ios": "https://dc.lft.to/lastmile_qr_scan", "android": "https://dc.lft.to/lastmile_qr_scan"}, "is_reserved": 0}, {"lon": -77.03185966666666, "bike_id": "bf43d9b0e0dc21662a233968163a7be4", "lat": 38.914176499999996, "fusion_lon": 0.0, "fusion_lat": 0.0, "type": "electric_scooter", "name": "bf43d9b0e0dc21662a233968163a7be4", "is_disabled": 0, "rental_uris": {"ios": "https://dc.lft.to/lastmile_qr_scan", "android": "https://dc.lft.to/lastmile_qr_scan"}, "is_reserved": 0}, {"lon": -76.92997016666666, "bike_id": "d8f8872cf672569bbbae1dd0b425fbd8", "lat": 38.901859333333334, "fusion_lon": 0.0, "fusion_lat": 0.0, "type": "electric_scooter", "name": "d8f8872cf672569bbbae1dd0b425fbd8", "is_disabled": 0, "rental_uris": {"ios": "https://dc.lft.to/lastmile_qr_scan", "android": "https://dc.lft.to/lastmile_qr_scan"}, "is_reserved": 0}, {"lon": -77.034448, "bike_id": "e636e0aa0cae10a695e4a89f8162c771", "lat": 38.9097715, "fusion_lon": 0.0, "fusion_lat": 0.0, "type": "electric_scooter", "name": "e636e0aa0cae10a695e4a89f8162c771", "is_disabled": 0, "rental_uris": {"ios": "https://dc.lft.to/lastmile_qr_scan", "android": "https://dc.lft.to/lastmile_qr_scan"}, "is_reserved": 0}, {"lon": -77.034678, "bike_id": "0a47af79468da01eb6d7e9220ad2d161", "lat": 38.90871666666666, "fusion_lon": 0.0, "fusion_lat": 0.0, "type": "electric_scooter", "name": "0a47af79468da01eb6d7e9220ad2d161", "is_disabled": 0, "rental_uris": {"ios": "https://dc.lft.to/lastmile_qr_scan", "android": "https://dc.lft.to/lastmile_qr_scan"}, "is_reserved": 0}, {"lon": -77.06720733333333, "bike_id": "d0ebd194afe179d111ff35b1b0128f89", "lat": 38.90967233333333, "fusion_lon": 0.0, "fusion_lat": 0.0, "type": "electric_scooter", "name": "d0ebd194afe179d111ff35b1b0128f89", "is_disabled": 0, "rental_uris": {"ios": "https://dc.lft.to/lastmile_qr_scan", "android": "https://dc.lft.to/lastmile_qr_scan"}, "is_reserved": 0}, {"lon": -76.99719466666667, "bike_id": "9dd3dffdc5d39b102d3b0df330ee497b", "lat": 38.911091, "fusion_lon": 0.0, "fusion_lat": 0.0, "type": "electric_scooter", "name": "9dd3dffdc5d39b102d3b0df330ee497b", "is_disabled": 0, "rental_uris": {"ios": "https://dc.lft.to/lastmile_qr_scan", "android": "https://dc.lft.to/lastmile_qr_scan"}, "is_reserved": 0}, {"lon": -77.10920133333333, "bike_id": "c55ad0607573960608f8c88aaad829ff", "lat": 39.05201866666667, "fusion_lon": 0.0, "fusion_lat": 0.0, "type": "electric_bike", "name": "c55ad0607573960608f8c88aaad829ff", "is_disabled": 0, "rental_uris": {"ios": "https://dc.lft.to/lastmile_qr_scan", "android": "https://dc.lft.to/lastmile_qr_scan"}, "is_reserved": 0}, {"lon": -77.08577366666667, "bike_id": "ed24b0e3893aef2631cbbd85cecfa32f", "lat": 38.93354, "fusion_lon": 0.0, "fusion_lat": 0.0, "type": "electric_scooter", "name": "ed24b0e3893aef2631cbbd85cecfa32f", "is_disabled": 0, "rental_uris": {"ios": "https://dc.lft.to/lastmile_qr_scan", "android": "https://dc.lft.to/lastmile_qr_scan"}, "is_reserved": 0}, {"lon": -77.0111905, "bike_id": "f2aa8e2891eb1c5ca8cabb37dfea763f", "lat": 38.885466666666666, "fusion_lon": 0.0, "fusion_lat": 0.0, "type": "electric_scooter", "name": "f2aa8e2891eb1c5ca8cabb37dfea763f", "is_disabled": 0, "rental_uris": {"ios": "https://dc.lft.to/lastmile_qr_scan", "android": "https://dc.lft.to/lastmile_qr_scan"}, "is_reserved": 0}, {"lon": -77.02811583333333, "bike_id": "49a1a51e2d320415d489d8318644bf31", "lat": 38.88176633333333, "fusion_lon": 0.0, "fusion_lat": 0.0, "type": "electric_scooter", "name": "49a1a51e2d320415d489d8318644bf31", "is_disabled": 0, "rental_uris": {"ios": "https://dc.lft.to/lastmile_qr_scan", "android": "https://dc.lft.to/lastmile_qr_scan"}, "is_reserved": 0}, {"lon": -77.01416966666666, "bike_id": "6be327f3b2d8fc80c9bc76b25111450c", "lat": 38.92798633333334, "fusion_lon": 0.0, "fusion_lat": 0.0, "type": "electric_scooter", "name": "6be327f3b2d8fc80c9bc76b25111450c", "is_disabled": 0, "rental_uris": {"ios": "https://dc.lft.to/lastmile_qr_scan", "android": "https://dc.lft.to/lastmile_qr_scan"}, "is_reserved": 0}, {"lon": -77.05935733333334, "bike_id": "d24aef24074539bb8b76ec77b237d37a", "lat": 38.9124185, "fusion_lon": 0.0, "fusion_lat": 0.0, "type": "electric_scooter", "name": "d24aef24074539bb8b76ec77b237d37a", "is_disabled": 0, "rental_uris": {"ios": "https://dc.lft.to/lastmile_qr_scan", "android": "https://dc.lft.to/lastmile_qr_scan"}, "is_reserved": 0}, {"lon": -76.9884545, "bike_id": "8b069565d0e87db163d49dba64f372b4", "lat": 38.901264, "fusion_lon": 0.0, "fusion_lat": 0.0, "type": "electric_scooter", "name": "8b069565d0e87db163d49dba64f372b4", "is_disabled": 0, "rental_uris": {"ios": "https://dc.lft.to/lastmile_qr_scan", "android": "https://dc.lft.to/lastmile_qr_scan"}, "is_reserved": 0}, {"lon": -77.036698, "bike_id": "53e588afc03bab85a94694531538e331", "lat": 38.9168735, "fusion_lon": 0.0, "fusion_lat": 0.0, "type": "electric_scooter", "name": "53e588afc03bab85a94694531538e331", "is_disabled": 0, "rental_uris": {"ios": "https://dc.lft.to/lastmile_qr_scan", "android": "https://dc.lft.to/lastmile_qr_scan"}, "is_reserved": 0}, {"lon": -77.0328905, "bike_id": "7bcba3840de981e73f813cba1c8bf9a0", "lat": 38.897046, "fusion_lon": 0.0, "fusion_lat": 0.0, "type": "electric_bike", "name": "7bcba3840de981e73f813cba1c8bf9a0", "is_disabled": 0, "rental_uris": {"ios": "https://dc.lft.to/lastmile_qr_scan", "android": "https://dc.lft.to/lastmile_qr_scan"}, "is_reserved": 0}, {"lon": -77.00754016666667, "bike_id": "2cd152b336b8e2352574cc83aef08817", "lat": 38.899012166666665, "fusion_lon": 0.0, "fusion_lat": 0.0, "type": "electric_scooter", "name": "2cd152b336b8e2352574cc83aef08817", "is_disabled": 0, "rental_uris": {"ios": "https://dc.lft.to/lastmile_qr_scan", "android": "https://dc.lft.to/lastmile_qr_scan"}, "is_reserved": 0}, {"lon": -77.00953266666667, "bike_id": "c7068e97d270340a9fec1815b67a35cc", "lat": 38.87629716666667, "fusion_lon": 0.0, "fusion_lat": 0.0, "type": "electric_scooter", "name": "c7068e97d270340a9fec1815b67a35cc", "is_disabled": 0, "rental_uris": {"ios": "https://dc.lft.to/lastmile_qr_scan", "android": "https://dc.lft.to/lastmile_qr_scan"}, "is_reserved": 0}, {"lon": -76.98111833333333, "bike_id": "e6c19b9a883f95cd0874c0516ec68dfd", "lat": 38.9040415, "fusion_lon": 0.0, "fusion_lat": 0.0, "type": "electric_scooter", "name": "e6c19b9a883f95cd0874c0516ec68dfd", "is_disabled": 0, "rental_uris": {"ios": "https://dc.lft.to/lastmile_qr_scan", "android": "https://dc.lft.to/lastmile_qr_scan"}, "is_reserved": 0}, {"lon": -77.05509583333334, "bike_id": "12d2949cf6b725751cdfb8a771c0e42d", "lat": 38.904394833333335, "fusion_lon": 0.0, "fusion_lat": 0.0, "type": "electric_scooter", "name": "12d2949cf6b725751cdfb8a771c0e42d", "is_disabled": 0, "rental_uris": {"ios": "https://dc.lft.to/lastmile_qr_scan", "android": "https://dc.lft.to/lastmile_qr_scan"}, "is_reserved": 0}, {"lon": -77.05131783333333, "bike_id": "1ecf8a24ab627ef947b8857ad7879817", "lat": 38.923622333333334, "fusion_lon": 0.0, "fusion_lat": 0.0, "type": "electric_scooter", "name": "1ecf8a24ab627ef947b8857ad7879817", "is_disabled": 0, "rental_uris": {"ios": "https://dc.lft.to/lastmile_qr_scan", "android": "https://dc.lft.to/lastmile_qr_scan"}, "is_reserved": 0}, {"lon": -77.05045833333334, "bike_id": "a69ef24515035d4f40997aa1e641808d", "lat": 38.9238745, "fusion_lon": 0.0, "fusion_lat": 0.0, "type": "electric_scooter", "name": "a69ef24515035d4f40997aa1e641808d", "is_disabled": 0, "rental_uris": {"ios": "https://dc.lft.to/lastmile_qr_scan", "android": "https://dc.lft.to/lastmile_qr_scan"}, "is_reserved": 0}, {"lon": -76.98006216666667, "bike_id": "c476b45f479590ee03fef6d9b4f661df", "lat": 38.90429983333333, "fusion_lon": 0.0, "fusion_lat": 0.0, "type": "electric_scooter", "name": "c476b45f479590ee03fef6d9b4f661df", "is_disabled": 0, "rental_uris": {"ios": "https://dc.lft.to/lastmile_qr_scan", "android": "https://dc.lft.to/lastmile_qr_scan"}, "is_reserved": 0}, {"lon": -77.00356616666667, "bike_id": "9797403a91045d46933853fe8b1feb88", "lat": 38.8993775, "fusion_lon": 0.0, "fusion_lat": 0.0, "type": "electric_scooter", "name": "9797403a91045d46933853fe8b1feb88", "is_disabled": 0, "rental_uris": {"ios": "https://dc.lft.to/lastmile_qr_scan", "android": "https://dc.lft.to/lastmile_qr_scan"}, "is_reserved": 0}, {"lon": -77.03264316666667, "bike_id": "6352031642941330377bb2dbfcc873f3", "lat": 38.919946, "fusion_lon": 0.0, "fusion_lat": 0.0, "type": "electric_scooter", "name": "6352031642941330377bb2dbfcc873f3", "is_disabled": 0, "rental_uris": {"ios": "https://dc.lft.to/lastmile_qr_scan", "android": "https://dc.lft.to/lastmile_qr_scan"}, "is_reserved": 0}, {"lon": -77.02955633333333, "bike_id": "1d1903762a5dc330060d07b92b389314", "lat": 38.92168983333333, "fusion_lon": 0.0, "fusion_lat": 0.0, "type": "electric_scooter", "name": "1d1903762a5dc330060d07b92b389314", "is_disabled": 0, "rental_uris": {"ios": "https://dc.lft.to/lastmile_qr_scan", "android": "https://dc.lft.to/lastmile_qr_scan"}, "is_reserved": 0}, {"lon": -77.020123, "bike_id": "67eda3cd652b739632afd0be87247b54", "lat": 38.9240875, "fusion_lon": 0.0, "fusion_lat": 0.0, "type": "electric_scooter", "name": "67eda3cd652b739632afd0be87247b54", "is_disabled": 0, "rental_uris": {"ios": "https://dc.lft.to/lastmile_qr_scan", "android": "https://dc.lft.to/lastmile_qr_scan"}, "is_reserved": 0}, {"lon": -76.9839265, "bike_id": "b65697681125c7987f85fb74f41cf67e", "lat": 38.904662333333334, "fusion_lon": 0.0, "fusion_lat": 0.0, "type": "electric_scooter", "name": "b65697681125c7987f85fb74f41cf67e", "is_disabled": 0, "rental_uris": {"ios": "https://dc.lft.to/lastmile_qr_scan", "android": "https://dc.lft.to/lastmile_qr_scan"}, "is_reserved": 0}, {"lon": -77.10154066666666, "bike_id": "d472ddd6a60fab985db9ffe04c3321cc", "lat": 38.925272666666665, "fusion_lon": 0.0, "fusion_lat": 0.0, "type": "electric_scooter", "name": "d472ddd6a60fab985db9ffe04c3321cc", "is_disabled": 0, "rental_uris": {"ios": "https://dc.lft.to/lastmile_qr_scan", "android": "https://dc.lft.to/lastmile_qr_scan"}, "is_reserved": 0}, {"lon": -77.02381316666667, "bike_id": "347bcb1c8c871af0a396b391e1f53fe6", "lat": 38.9020235, "fusion_lon": 0.0, "fusion_lat": 0.0, "type": "electric_scooter", "name": "347bcb1c8c871af0a396b391e1f53fe6", "is_disabled": 0, "rental_uris": {"ios": "https://dc.lft.to/lastmile_qr_scan", "android": "https://dc.lft.to/lastmile_qr_scan"}, "is_reserved": 0}, {"lon": -77.02419633333334, "bike_id": "21773397a5ac212adfe0bb9da92b6ea8", "lat": 38.9335635, "fusion_lon": 0.0, "fusion_lat": 0.0, "type": "electric_bike", "name": "21773397a5ac212adfe0bb9da92b6ea8", "is_disabled": 0, "rental_uris": {"ios": "https://dc.lft.to/lastmile_qr_scan", "android": "https://dc.lft.to/lastmile_qr_scan"}, "is_reserved": 0}, {"lon": -77.021645, "bike_id": "911c044e4ef08df76ff45ae30a1c1fde", "lat": 38.9261405, "fusion_lon": 0.0, "fusion_lat": 0.0, "type": "electric_scooter", "name": "911c044e4ef08df76ff45ae30a1c1fde", "is_disabled": 0, "rental_uris": {"ios": "https://dc.lft.to/lastmile_qr_scan", "android": "https://dc.lft.to/lastmile_qr_scan"}, "is_reserved": 0}, {"lon": -76.9801375, "bike_id": "a6e2065f2f219874cd950d58955e3c46", "lat": 38.85315633333333, "fusion_lon": 0.0, "fusion_lat": 0.0, "type": "electric_bike", "name": "a6e2065f2f219874cd950d58955e3c46", "is_disabled": 0, "rental_uris": {"ios": "https://dc.lft.to/lastmile_qr_scan", "android": "https://dc.lft.to/lastmile_qr_scan"}, "is_reserved": 0}, {"lon": -77.02209716666667, "bike_id": "f941e1ee05fa895caf8d13a2036edbcd", "lat": 38.95097283333333, "fusion_lon": 0.0, "fusion_lat": 0.0, "type": "electric_scooter", "name": "f941e1ee05fa895caf8d13a2036edbcd", "is_disabled": 0, "rental_uris": {"ios": "https://dc.lft.to/lastmile_qr_scan", "android": "https://dc.lft.to/lastmile_qr_scan"}, "is_reserved": 0}, {"lon": -77.00570966666666, "bike_id": "55973b215411a37395d2bbdf2e668997", "lat": 38.876583833333335, "fusion_lon": 0.0, "fusion_lat": 0.0, "type": "electric_scooter", "name": "55973b215411a37395d2bbdf2e668997", "is_disabled": 0, "rental_uris": {"ios": "https://dc.lft.to/lastmile_qr_scan", "android": "https://dc.lft.to/lastmile_qr_scan"}, "is_reserved": 0}, {"lon": -77.02850116666667, "bike_id": "d2324fa8aaeb6f33063c0a4afd217dea", "lat": 38.932338666666666, "fusion_lon": 0.0, "fusion_lat": 0.0, "type": "electric_scooter", "name": "d2324fa8aaeb6f33063c0a4afd217dea", "is_disabled": 0, "rental_uris": {"ios": "https://dc.lft.to/lastmile_qr_scan", "android": "https://dc.lft.to/lastmile_qr_scan"}, "is_reserved": 0}, {"lon": -77.02607083333334, "bike_id": "10de2a8302afebca134d54ee4a7013f3", "lat": 38.9140575, "fusion_lon": 0.0, "fusion_lat": 0.0, "type": "electric_scooter", "name": "10de2a8302afebca134d54ee4a7013f3", "is_disabled": 0, "rental_uris": {"ios": "https://dc.lft.to/lastmile_qr_scan", "android": "https://dc.lft.to/lastmile_qr_scan"}, "is_reserved": 0}, {"lon": -77.00559866666667, "bike_id": "987200475ba514159972237e8434c643", "lat": 38.90562633333333, "fusion_lon": 0.0, "fusion_lat": 0.0, "type": "electric_scooter", "name": "987200475ba514159972237e8434c643", "is_disabled": 0, "rental_uris": {"ios": "https://dc.lft.to/lastmile_qr_scan", "android": "https://dc.lft.to/lastmile_qr_scan"}, "is_reserved": 0}, {"lon": -77.04536016666667, "bike_id": "ee6168015f681f3af0ca7ab68a6a3961", "lat": 38.91327783333333, "fusion_lon": 0.0, "fusion_lat": 0.0, "type": "electric_scooter", "name": "ee6168015f681f3af0ca7ab68a6a3961", "is_disabled": 0, "rental_uris": {"ios": "https://dc.lft.to/lastmile_qr_scan", "android": "https://dc.lft.to/lastmile_qr_scan"}, "is_reserved": 0}, {"lon": -77.03208233333334, "bike_id": "37cda2d0a2362e452c8196e75754b1d7", "lat": 38.91195733333333, "fusion_lon": 0.0, "fusion_lat": 0.0, "type": "electric_scooter", "name": "37cda2d0a2362e452c8196e75754b1d7", "is_disabled": 0, "rental_uris": {"ios": "https://dc.lft.to/lastmile_qr_scan", "android": "https://dc.lft.to/lastmile_qr_scan"}, "is_reserved": 0}, {"lon": -77.02589933333333, "bike_id": "ef94582c653b9e87d5fb376fbe32df6e", "lat": 38.907344, "fusion_lon": 0.0, "fusion_lat": 0.0, "type": "electric_scooter", "name": "ef94582c653b9e87d5fb376fbe32df6e", "is_disabled": 0, "rental_uris": {"ios": "https://dc.lft.to/lastmile_qr_scan", "android": "https://dc.lft.to/lastmile_qr_scan"}, "is_reserved": 0}, {"lon": -77.041621, "bike_id": "1b56c4a06bc02b50c75271969a754ec3", "lat": 38.90362616666667, "fusion_lon": 0.0, "fusion_lat": 0.0, "type": "electric_scooter", "name": "1b56c4a06bc02b50c75271969a754ec3", "is_disabled": 0, "rental_uris": {"ios": "https://dc.lft.to/lastmile_qr_scan", "android": "https://dc.lft.to/lastmile_qr_scan"}, "is_reserved": 0}, {"lon": -77.05923933333334, "bike_id": "2f060edc857e344500c1f93f37893e1a", "lat": 38.862416, "fusion_lon": 0.0, "fusion_lat": 0.0, "type": "electric_scooter", "name": "2f060edc857e344500c1f93f37893e1a", "is_disabled": 0, "rental_uris": {"ios": "https://dc.lft.to/lastmile_qr_scan", "android": "https://dc.lft.to/lastmile_qr_scan"}, "is_reserved": 0}, {"lon": -77.03994333333333, "bike_id": "80174df65e7a10faf11342ad68f28908", "lat": 38.92464116666667, "fusion_lon": 0.0, "fusion_lat": 0.0, "type": "electric_scooter", "name": "80174df65e7a10faf11342ad68f28908", "is_disabled": 0, "rental_uris": {"ios": "https://dc.lft.to/lastmile_qr_scan", "android": "https://dc.lft.to/lastmile_qr_scan"}, "is_reserved": 0}, {"lon": -77.01214283333333, "bike_id": "a284c2f576ebf46b377cb3bde1b2369d", "lat": 38.916860166666666, "fusion_lon": 0.0, "fusion_lat": 0.0, "type": "electric_scooter", "name": "a284c2f576ebf46b377cb3bde1b2369d", "is_disabled": 0, "rental_uris": {"ios": "https://dc.lft.to/lastmile_qr_scan", "android": "https://dc.lft.to/lastmile_qr_scan"}, "is_reserved": 0}, {"lon": -77.02386083333333, "bike_id": "be5a660eed7640bbeb1e39fa6b4e309c", "lat": 38.90021433333333, "fusion_lon": 0.0, "fusion_lat": 0.0, "type": "electric_scooter", "name": "be5a660eed7640bbeb1e39fa6b4e309c", "is_disabled": 0, "rental_uris": {"ios": "https://dc.lft.to/lastmile_qr_scan", "android": "https://dc.lft.to/lastmile_qr_scan"}, "is_reserved": 0}, {"lon": -77.01967483333334, "bike_id": "789455990f5a7133f4437586be98e16a", "lat": 38.977419, "fusion_lon": 0.0, "fusion_lat": 0.0, "type": "electric_scooter", "name": "789455990f5a7133f4437586be98e16a", "is_disabled": 0, "rental_uris": {"ios": "https://dc.lft.to/lastmile_qr_scan", "android": "https://dc.lft.to/lastmile_qr_scan"}, "is_reserved": 0}, {"lon": -77.02729266666667, "bike_id": "b9c4bbf5a592c966f7b7da066a1d7e7f", "lat": 38.93375133333333, "fusion_lon": 0.0, "fusion_lat": 0.0, "type": "electric_scooter", "name": "b9c4bbf5a592c966f7b7da066a1d7e7f", "is_disabled": 0, "rental_uris": {"ios": "https://dc.lft.to/lastmile_qr_scan", "android": "https://dc.lft.to/lastmile_qr_scan"}, "is_reserved": 0}, {"lon": -77.0147485, "bike_id": "2c92781989c9d37ddf36e4cf7b73ca1d", "lat": 38.896021166666664, "fusion_lon": 0.0, "fusion_lat": 0.0, "type": "electric_scooter", "name": "2c92781989c9d37ddf36e4cf7b73ca1d", "is_disabled": 0, "rental_uris": {"ios": "https://dc.lft.to/lastmile_qr_scan", "android": "https://dc.lft.to/lastmile_qr_scan"}, "is_reserved": 0}, {"lon": -77.00196433333333, "bike_id": "e6c92ca886716315750ebe5c09da0766", "lat": 38.90237583333333, "fusion_lon": 0.0, "fusion_lat": 0.0, "type": "electric_scooter", "name": "e6c92ca886716315750ebe5c09da0766", "is_disabled": 0, "rental_uris": {"ios": "https://dc.lft.to/lastmile_qr_scan", "android": "https://dc.lft.to/lastmile_qr_scan"}, "is_reserved": 0}, {"lon": -77.03970183333334, "bike_id": "d817620188174acf37ec4ca25b95fe6f", "lat": 38.923146833333334, "fusion_lon": 0.0, "fusion_lat": 0.0, "type": "electric_scooter", "name": "d817620188174acf37ec4ca25b95fe6f", "is_disabled": 0, "rental_uris": {"ios": "https://dc.lft.to/lastmile_qr_scan", "android": "https://dc.lft.to/lastmile_qr_scan"}, "is_reserved": 0}, {"lon": -77.00846683333333, "bike_id": "cd2192aaf6316a5e2b58cdbcb936a9fa", "lat": 38.916259833333335, "fusion_lon": 0.0, "fusion_lat": 0.0, "type": "electric_scooter", "name": "cd2192aaf6316a5e2b58cdbcb936a9fa", "is_disabled": 0, "rental_uris": {"ios": "https://dc.lft.to/lastmile_qr_scan", "android": "https://dc.lft.to/lastmile_qr_scan"}, "is_reserved": 0}, {"lon": -77.02423416666667, "bike_id": "a6b3fd2689b7f9382f6cb24e4946c112", "lat": 38.914041, "fusion_lon": 0.0, "fusion_lat": 0.0, "type": "electric_scooter", "name": "a6b3fd2689b7f9382f6cb24e4946c112", "is_disabled": 0, "rental_uris": {"ios": "https://dc.lft.to/lastmile_qr_scan", "android": "https://dc.lft.to/lastmile_qr_scan"}, "is_reserved": 0}, {"lon": -77.03666233333334, "bike_id": "1b8c05b53e047cbea2a6292692e79f5d", "lat": 38.920962333333335, "fusion_lon": 0.0, "fusion_lat": 0.0, "type": "electric_scooter", "name": "1b8c05b53e047cbea2a6292692e79f5d", "is_disabled": 0, "rental_uris": {"ios": "https://dc.lft.to/lastmile_qr_scan", "android": "https://dc.lft.to/lastmile_qr_scan"}, "is_reserved": 0}, {"lon": -77.034921, "bike_id": "6c6d55a57f6c08cf458109be3c7ddd21", "lat": 38.93270966666667, "fusion_lon": 0.0, "fusion_lat": 0.0, "type": "electric_scooter", "name": "6c6d55a57f6c08cf458109be3c7ddd21", "is_disabled": 0, "rental_uris": {"ios": "https://dc.lft.to/lastmile_qr_scan", "android": "https://dc.lft.to/lastmile_qr_scan"}, "is_reserved": 0}, {"lon": -76.98228083333333, "bike_id": "0b47eed6f8015b2acf4648388d2fde22", "lat": 38.91647916666667, "fusion_lon": 0.0, "fusion_lat": 0.0, "type": "electric_scooter", "name": "0b47eed6f8015b2acf4648388d2fde22", "is_disabled": 0, "rental_uris": {"ios": "https://dc.lft.to/lastmile_qr_scan", "android": "https://dc.lft.to/lastmile_qr_scan"}, "is_reserved": 0}, {"lon": -77.025521, "bike_id": "c66fb88e477c53d5e124861836ff3280", "lat": 38.941351, "fusion_lon": 0.0, "fusion_lat": 0.0, "type": "electric_scooter", "name": "c66fb88e477c53d5e124861836ff3280", "is_disabled": 0, "rental_uris": {"ios": "https://dc.lft.to/lastmile_qr_scan", "android": "https://dc.lft.to/lastmile_qr_scan"}, "is_reserved": 0}, {"lon": -77.04416583333334, "bike_id": "4fa692048d8cb5b4d9219d09d678aee6", "lat": 38.91251, "fusion_lon": 0.0, "fusion_lat": 0.0, "type": "electric_scooter", "name": "4fa692048d8cb5b4d9219d09d678aee6", "is_disabled": 0, "rental_uris": {"ios": "https://dc.lft.to/lastmile_qr_scan", "android": "https://dc.lft.to/lastmile_qr_scan"}, "is_reserved": 0}, {"lon": -76.94191166666667, "bike_id": "dfb9e1ae2a6195fe943016924bc700b9", "lat": 38.893141166666666, "fusion_lon": 0.0, "fusion_lat": 0.0, "type": "electric_bike", "name": "dfb9e1ae2a6195fe943016924bc700b9", "is_disabled": 0, "rental_uris": {"ios": "https://dc.lft.to/lastmile_qr_scan", "android": "https://dc.lft.to/lastmile_qr_scan"}, "is_reserved": 0}, {"lon": -77.05600616666666, "bike_id": "816e2568ba168ce67c08436364ac57e0", "lat": 38.936988, "fusion_lon": 0.0, "fusion_lat": 0.0, "type": "electric_scooter", "name": "816e2568ba168ce67c08436364ac57e0", "is_disabled": 0, "rental_uris": {"ios": "https://dc.lft.to/lastmile_qr_scan", "android": "https://dc.lft.to/lastmile_qr_scan"}, "is_reserved": 0}, {"lon": -77.03809866666667, "bike_id": "060de39ed14b6f7e85ae4ab6fd7c729d", "lat": 38.933952, "fusion_lon": 0.0, "fusion_lat": 0.0, "type": "electric_scooter", "name": "060de39ed14b6f7e85ae4ab6fd7c729d", "is_disabled": 0, "rental_uris": {"ios": "https://dc.lft.to/lastmile_qr_scan", "android": "https://dc.lft.to/lastmile_qr_scan"}, "is_reserved": 0}, {"lon": -77.00214283333334, "bike_id": "dd4997fef8f790efa77cd8af67ff1221", "lat": 38.90026866666667, "fusion_lon": 0.0, "fusion_lat": 0.0, "type": "electric_scooter", "name": "dd4997fef8f790efa77cd8af67ff1221", "is_disabled": 0, "rental_uris": {"ios": "https://dc.lft.to/lastmile_qr_scan", "android": "https://dc.lft.to/lastmile_qr_scan"}, "is_reserved": 0}, {"lon": -76.97330883333333, "bike_id": "90b9a51ff589aae1b6f6820f98073bfa", "lat": 38.9041125, "fusion_lon": 0.0, "fusion_lat": 0.0, "type": "electric_scooter", "name": "90b9a51ff589aae1b6f6820f98073bfa", "is_disabled": 0, "rental_uris": {"ios": "https://dc.lft.to/lastmile_qr_scan", "android": "https://dc.lft.to/lastmile_qr_scan"}, "is_reserved": 0}, {"lon": -76.98844016666666, "bike_id": "968d0155075091e8c50988557c80cb90", "lat": 38.8427795, "fusion_lon": 0.0, "fusion_lat": 0.0, "type": "electric_bike", "name": "968d0155075091e8c50988557c80cb90", "is_disabled": 0, "rental_uris": {"ios": "https://dc.lft.to/lastmile_qr_scan", "android": "https://dc.lft.to/lastmile_qr_scan"}, "is_reserved": 0}, {"lon": -76.94423, "bike_id": "2de51fd1592907077532dab2084717a3", "lat": 38.966184166666665, "fusion_lon": 0.0, "fusion_lat": 0.0, "type": "electric_bike", "name": "2de51fd1592907077532dab2084717a3", "is_disabled": 0, "rental_uris": {"ios": "https://dc.lft.to/lastmile_qr_scan", "android": "https://dc.lft.to/lastmile_qr_scan"}, "is_reserved": 0}, {"lon": -77.00669666666667, "bike_id": "df9931d66ef694c36776f616712f8b37", "lat": 38.945023166666665, "fusion_lon": 0.0, "fusion_lat": 0.0, "type": "electric_bike", "name": "df9931d66ef694c36776f616712f8b37", "is_disabled": 0, "rental_uris": {"ios": "https://dc.lft.to/lastmile_qr_scan", "android": "https://dc.lft.to/lastmile_qr_scan"}, "is_reserved": 0}, {"lon": -77.003899, "bike_id": "ccfd60fbf08f8d482cf3b7e33a1ef502", "lat": 38.908116666666665, "fusion_lon": 0.0, "fusion_lat": 0.0, "type": "electric_scooter", "name": "ccfd60fbf08f8d482cf3b7e33a1ef502", "is_disabled": 0, "rental_uris": {"ios": "https://dc.lft.to/lastmile_qr_scan", "android": "https://dc.lft.to/lastmile_qr_scan"}, "is_reserved": 0}, {"lon": -76.99432, "bike_id": "876a0a67c7289321dc14fb8aea8ed83c", "lat": 38.836071833333335, "fusion_lon": 0.0, "fusion_lat": 0.0, "type": "electric_scooter", "name": "876a0a67c7289321dc14fb8aea8ed83c", "is_disabled": 0, "rental_uris": {"ios": "https://dc.lft.to/lastmile_qr_scan", "android": "https://dc.lft.to/lastmile_qr_scan"}, "is_reserved": 0}, {"lon": -77.02380433333333, "bike_id": "6d7b6e8643d28121dd9d0f241aff737b", "lat": 38.89968183333333, "fusion_lon": 0.0, "fusion_lat": 0.0, "type": "electric_scooter", "name": "6d7b6e8643d28121dd9d0f241aff737b", "is_disabled": 0, "rental_uris": {"ios": "https://dc.lft.to/lastmile_qr_scan", "android": "https://dc.lft.to/lastmile_qr_scan"}, "is_reserved": 0}, {"lon": -77.03625966666667, "bike_id": "48e40e375d624f56ec80b664c141958e", "lat": 38.91858833333333, "fusion_lon": 0.0, "fusion_lat": 0.0, "type": "electric_scooter", "name": "48e40e375d624f56ec80b664c141958e", "is_disabled": 0, "rental_uris": {"ios": "https://dc.lft.to/lastmile_qr_scan", "android": "https://dc.lft.to/lastmile_qr_scan"}, "is_reserved": 0}, {"lon": -76.99495133333333, "bike_id": "601e359b04ed6237b708c105fe5a5727", "lat": 38.88348966666667, "fusion_lon": 0.0, "fusion_lat": 0.0, "type": "electric_scooter", "name": "601e359b04ed6237b708c105fe5a5727", "is_disabled": 0, "rental_uris": {"ios": "https://dc.lft.to/lastmile_qr_scan", "android": "https://dc.lft.to/lastmile_qr_scan"}, "is_reserved": 0}, {"lon": -76.94570466666667, "bike_id": "1984c98d125dae058cd878dd8c78a138", "lat": 38.86617966666667, "fusion_lon": 0.0, "fusion_lat": 0.0, "type": "electric_bike", "name": "1984c98d125dae058cd878dd8c78a138", "is_disabled": 0, "rental_uris": {"ios": "https://dc.lft.to/lastmile_qr_scan", "android": "https://dc.lft.to/lastmile_qr_scan"}, "is_reserved": 0}, {"lon": -77.0916845, "bike_id": "675278b31a147098a9f73a92a95c1998", "lat": 38.945588, "fusion_lon": 0.0, "fusion_lat": 0.0, "type": "electric_scooter", "name": "675278b31a147098a9f73a92a95c1998", "is_disabled": 0, "rental_uris": {"ios": "https://dc.lft.to/lastmile_qr_scan", "android": "https://dc.lft.to/lastmile_qr_scan"}, "is_reserved": 0}, {"lon": -77.02161933333333, "bike_id": "edb7670b51010f5593d95489d706df2d", "lat": 38.88741516666666, "fusion_lon": 0.0, "fusion_lat": 0.0, "type": "electric_scooter", "name": "edb7670b51010f5593d95489d706df2d", "is_disabled": 0, "rental_uris": {"ios": "https://dc.lft.to/lastmile_qr_scan", "android": "https://dc.lft.to/lastmile_qr_scan"}, "is_reserved": 0}, {"lon": -77.033507, "bike_id": "2d95e38472dbfd9b3c93a7d9ffd8a3e2", "lat": 38.8923635, "fusion_lon": 0.0, "fusion_lat": 0.0, "type": "electric_scooter", "name": "2d95e38472dbfd9b3c93a7d9ffd8a3e2", "is_disabled": 0, "rental_uris": {"ios": "https://dc.lft.to/lastmile_qr_scan", "android": "https://dc.lft.to/lastmile_qr_scan"}, "is_reserved": 0}, {"lon": -77.03253316666667, "bike_id": "bf673b26ebb7a6d4ac2270c9eccbb92e", "lat": 38.909599, "fusion_lon": 0.0, "fusion_lat": 0.0, "type": "electric_scooter", "name": "bf673b26ebb7a6d4ac2270c9eccbb92e", "is_disabled": 0, "rental_uris": {"ios": "https://dc.lft.to/lastmile_qr_scan", "android": "https://dc.lft.to/lastmile_qr_scan"}, "is_reserved": 0}, {"lon": -77.026098, "bike_id": "d208de7983f090daa7a82c6f39711a1d", "lat": 38.92986283333333, "fusion_lon": 0.0, "fusion_lat": 0.0, "type": "electric_scooter", "name": "d208de7983f090daa7a82c6f39711a1d", "is_disabled": 0, "rental_uris": {"ios": "https://dc.lft.to/lastmile_qr_scan", "android": "https://dc.lft.to/lastmile_qr_scan"}, "is_reserved": 0}, {"lon": -77.03126216666666, "bike_id": "0c94375ed79042447dae481792d60ef3", "lat": 38.904471666666666, "fusion_lon": 0.0, "fusion_lat": 0.0, "type": "electric_scooter", "name": "0c94375ed79042447dae481792d60ef3", "is_disabled": 0, "rental_uris": {"ios": "https://dc.lft.to/lastmile_qr_scan", "android": "https://dc.lft.to/lastmile_qr_scan"}, "is_reserved": 0}, {"lon": -77.11577983333333, "bike_id": "2db6ea1e16b79ee98604f24898f04070", "lat": 38.993450333333335, "fusion_lon": 0.0, "fusion_lat": 0.0, "type": "electric_bike", "name": "2db6ea1e16b79ee98604f24898f04070", "is_disabled": 0, "rental_uris": {"ios": "https://dc.lft.to/lastmile_qr_scan", "android": "https://dc.lft.to/lastmile_qr_scan"}, "is_reserved": 0}, {"lon": -77.0335145, "bike_id": "e8bc90ff3b60b979513382e7660e529c", "lat": 38.892592666666665, "fusion_lon": 0.0, "fusion_lat": 0.0, "type": "electric_scooter", "name": "e8bc90ff3b60b979513382e7660e529c", "is_disabled": 0, "rental_uris": {"ios": "https://dc.lft.to/lastmile_qr_scan", "android": "https://dc.lft.to/lastmile_qr_scan"}, "is_reserved": 0}, {"lon": -77.03216, "bike_id": "bc5609f09b985a6f07edb4562db62c93", "lat": 38.916379, "fusion_lon": 0.0, "fusion_lat": 0.0, "type": "electric_scooter", "name": "bc5609f09b985a6f07edb4562db62c93", "is_disabled": 0, "rental_uris": {"ios": "https://dc.lft.to/lastmile_qr_scan", "android": "https://dc.lft.to/lastmile_qr_scan"}, "is_reserved": 0}, {"lon": -77.13902283333333, "bike_id": "cbfadc51ea320a508ff36f56d778bdad", "lat": 38.896758, "fusion_lon": 0.0, "fusion_lat": 0.0, "type": "electric_bike", "name": "cbfadc51ea320a508ff36f56d778bdad", "is_disabled": 0, "rental_uris": {"ios": "https://dc.lft.to/lastmile_qr_scan", "android": "https://dc.lft.to/lastmile_qr_scan"}, "is_reserved": 0}, {"lon": -77.01480666666667, "bike_id": "3418c74dc392c0a4e9f42cfba58cf244", "lat": 38.958683666666666, "fusion_lon": 0.0, "fusion_lat": 0.0, "type": "electric_scooter", "name": "3418c74dc392c0a4e9f42cfba58cf244", "is_disabled": 0, "rental_uris": {"ios": "https://dc.lft.to/lastmile_qr_scan", "android": "https://dc.lft.to/lastmile_qr_scan"}, "is_reserved": 0}, {"lon": -76.94990633333333, "bike_id": "5f0b01470fd50769b6b433e3e10d7322", "lat": 38.894011666666664, "fusion_lon": 0.0, "fusion_lat": 0.0, "type": "electric_scooter", "name": "5f0b01470fd50769b6b433e3e10d7322", "is_disabled": 0, "rental_uris": {"ios": "https://dc.lft.to/lastmile_qr_scan", "android": "https://dc.lft.to/lastmile_qr_scan"}, "is_reserved": 0}, {"lon": -77.03255216666666, "bike_id": "6004b030374b6a9b0061d4b0e0f0f1cd", "lat": 38.8970615, "fusion_lon": 0.0, "fusion_lat": 0.0, "type": "electric_bike", "name": "6004b030374b6a9b0061d4b0e0f0f1cd", "is_disabled": 0, "rental_uris": {"ios": "https://dc.lft.to/lastmile_qr_scan", "android": "https://dc.lft.to/lastmile_qr_scan"}, "is_reserved": 0}, {"lon": -77.01408183333334, "bike_id": "93194bae6b073972b63edaeb2cea68ad", "lat": 38.92827916666667, "fusion_lon": 0.0, "fusion_lat": 0.0, "type": "electric_scooter", "name": "93194bae6b073972b63edaeb2cea68ad", "is_disabled": 0, "rental_uris": {"ios": "https://dc.lft.to/lastmile_qr_scan", "android": "https://dc.lft.to/lastmile_qr_scan"}, "is_reserved": 0}, {"lon": -77.03198316666666, "bike_id": "c2659328e2dc5495502011b65c794430", "lat": 38.922864833333335, "fusion_lon": 0.0, "fusion_lat": 0.0, "type": "electric_scooter", "name": "c2659328e2dc5495502011b65c794430", "is_disabled": 0, "rental_uris": {"ios": "https://dc.lft.to/lastmile_qr_scan", "android": "https://dc.lft.to/lastmile_qr_scan"}, "is_reserved": 0}, {"lon": -77.0432245, "bike_id": "bd3fb6a110eb400e55393bca436396ce", "lat": 38.91881566666667, "fusion_lon": 0.0, "fusion_lat": 0.0, "type": "electric_scooter", "name": "bd3fb6a110eb400e55393bca436396ce", "is_disabled": 0, "rental_uris": {"ios": "https://dc.lft.to/lastmile_qr_scan", "android": "https://dc.lft.to/lastmile_qr_scan"}, "is_reserved": 0}, {"lon": -77.0013865, "bike_id": "e4f8261f3cb4f6cdcadc888a16261ec3", "lat": 38.842810166666666, "fusion_lon": 0.0, "fusion_lat": 0.0, "type": "electric_scooter", "name": "e4f8261f3cb4f6cdcadc888a16261ec3", "is_disabled": 0, "rental_uris": {"ios": "https://dc.lft.to/lastmile_qr_scan", "android": "https://dc.lft.to/lastmile_qr_scan"}, "is_reserved": 0}, {"lon": -77.02692766666667, "bike_id": "3f8db6fc07ac099e6a8d5a25296113a3", "lat": 38.948850666666665, "fusion_lon": 0.0, "fusion_lat": 0.0, "type": "electric_scooter", "name": "3f8db6fc07ac099e6a8d5a25296113a3", "is_disabled": 0, "rental_uris": {"ios": "https://dc.lft.to/lastmile_qr_scan", "android": "https://dc.lft.to/lastmile_qr_scan"}, "is_reserved": 0}, {"lon": -76.98536316666667, "bike_id": "e25e3bed08dd84cc6b739a82e84864dc", "lat": 38.910221166666666, "fusion_lon": 0.0, "fusion_lat": 0.0, "type": "electric_scooter", "name": "e25e3bed08dd84cc6b739a82e84864dc", "is_disabled": 0, "rental_uris": {"ios": "https://dc.lft.to/lastmile_qr_scan", "android": "https://dc.lft.to/lastmile_qr_scan"}, "is_reserved": 0}, {"lon": -77.036533, "bike_id": "1b890c5c21b1f4a749cd92056336f44e", "lat": 38.92104416666667, "fusion_lon": 0.0, "fusion_lat": 0.0, "type": "electric_scooter", "name": "1b890c5c21b1f4a749cd92056336f44e", "is_disabled": 0, "rental_uris": {"ios": "https://dc.lft.to/lastmile_qr_scan", "android": "https://dc.lft.to/lastmile_qr_scan"}, "is_reserved": 0}, {"lon": -77.02682016666667, "bike_id": "6a4200eded13fbc47142a7381f14b7b5", "lat": 38.98486333333334, "fusion_lon": 0.0, "fusion_lat": 0.0, "type": "electric_scooter", "name": "6a4200eded13fbc47142a7381f14b7b5", "is_disabled": 0, "rental_uris": {"ios": "https://dc.lft.to/lastmile_qr_scan", "android": "https://dc.lft.to/lastmile_qr_scan"}, "is_reserved": 0}, {"lon": -77.01542766666667, "bike_id": "626620e81b8b710dc6be6df8801d2ab8", "lat": 38.8831965, "fusion_lon": 0.0, "fusion_lat": 0.0, "type": "electric_scooter", "name": "626620e81b8b710dc6be6df8801d2ab8", "is_disabled": 0, "rental_uris": {"ios": "https://dc.lft.to/lastmile_qr_scan", "android": "https://dc.lft.to/lastmile_qr_scan"}, "is_reserved": 0}, {"lon": -77.04256733333334, "bike_id": "6f2f0d8746e89b52f74bea0560e09b45", "lat": 38.916892833333335, "fusion_lon": 0.0, "fusion_lat": 0.0, "type": "electric_scooter", "name": "6f2f0d8746e89b52f74bea0560e09b45", "is_disabled": 0, "rental_uris": {"ios": "https://dc.lft.to/lastmile_qr_scan", "android": "https://dc.lft.to/lastmile_qr_scan"}, "is_reserved": 0}, {"lon": -77.02156333333333, "bike_id": "d23a6ca8229562676032c52269e39ca6", "lat": 38.926018, "fusion_lon": 0.0, "fusion_lat": 0.0, "type": "electric_scooter", "name": "d23a6ca8229562676032c52269e39ca6", "is_disabled": 0, "rental_uris": {"ios": "https://dc.lft.to/lastmile_qr_scan", "android": "https://dc.lft.to/lastmile_qr_scan"}, "is_reserved": 0}, {"lon": -77.06345516666667, "bike_id": "cb5cded274f695a07b78764a99696f11", "lat": 38.94447383333333, "fusion_lon": 0.0, "fusion_lat": 0.0, "type": "electric_scooter", "name": "cb5cded274f695a07b78764a99696f11", "is_disabled": 0, "rental_uris": {"ios": "https://dc.lft.to/lastmile_qr_scan", "android": "https://dc.lft.to/lastmile_qr_scan"}, "is_reserved": 0}, {"lon": -77.02697333333333, "bike_id": "3e3af217180c1936d4802d43521c6afc", "lat": 38.90669483333333, "fusion_lon": 0.0, "fusion_lat": 0.0, "type": "electric_scooter", "name": "3e3af217180c1936d4802d43521c6afc", "is_disabled": 0, "rental_uris": {"ios": "https://dc.lft.to/lastmile_qr_scan", "android": "https://dc.lft.to/lastmile_qr_scan"}, "is_reserved": 0}, {"lon": -77.00287216666666, "bike_id": "1a0290362302ab3c950cd3e109fc14f0", "lat": 38.911608333333334, "fusion_lon": 0.0, "fusion_lat": 0.0, "type": "electric_bike", "name": "1a0290362302ab3c950cd3e109fc14f0", "is_disabled": 0, "rental_uris": {"ios": "https://dc.lft.to/lastmile_qr_scan", "android": "https://dc.lft.to/lastmile_qr_scan"}, "is_reserved": 0}, {"lon": -77.044782, "bike_id": "543696bf39a24d5e50f821778e386446", "lat": 38.900492166666666, "fusion_lon": 0.0, "fusion_lat": 0.0, "type": "electric_scooter", "name": "543696bf39a24d5e50f821778e386446", "is_disabled": 0, "rental_uris": {"ios": "https://dc.lft.to/lastmile_qr_scan", "android": "https://dc.lft.to/lastmile_qr_scan"}, "is_reserved": 0}, {"lon": -77.01486683333333, "bike_id": "34a89d7abbd21a8f4a872622a9c80ee6", "lat": 38.92677716666667, "fusion_lon": 0.0, "fusion_lat": 0.0, "type": "electric_scooter", "name": "34a89d7abbd21a8f4a872622a9c80ee6", "is_disabled": 0, "rental_uris": {"ios": "https://dc.lft.to/lastmile_qr_scan", "android": "https://dc.lft.to/lastmile_qr_scan"}, "is_reserved": 0}, {"lon": -77.044872, "bike_id": "6dc11bbb874183bb840643e209babed9", "lat": 38.907147, "fusion_lon": 0.0, "fusion_lat": 0.0, "type": "electric_scooter", "name": "6dc11bbb874183bb840643e209babed9", "is_disabled": 0, "rental_uris": {"ios": "https://dc.lft.to/lastmile_qr_scan", "android": "https://dc.lft.to/lastmile_qr_scan"}, "is_reserved": 0}, {"lon": -76.93174766666667, "bike_id": "176f5b01bb5f1398450a7ba6790dff28", "lat": 38.89885783333333, "fusion_lon": 0.0, "fusion_lat": 0.0, "type": "electric_scooter", "name": "176f5b01bb5f1398450a7ba6790dff28", "is_disabled": 0, "rental_uris": {"ios": "https://dc.lft.to/lastmile_qr_scan", "android": "https://dc.lft.to/lastmile_qr_scan"}, "is_reserved": 0}, {"lon": -77.00383266666667, "bike_id": "4c0ee8ea2804137d1e66f30637286706", "lat": 38.87638416666667, "fusion_lon": 0.0, "fusion_lat": 0.0, "type": "electric_scooter", "name": "4c0ee8ea2804137d1e66f30637286706", "is_disabled": 0, "rental_uris": {"ios": "https://dc.lft.to/lastmile_qr_scan", "android": "https://dc.lft.to/lastmile_qr_scan"}, "is_reserved": 0}, {"lon": -76.98615366666667, "bike_id": "ca3ef25b4e4266e4e253dcd5214c6711", "lat": 38.90585933333333, "fusion_lon": 0.0, "fusion_lat": 0.0, "type": "electric_scooter", "name": "ca3ef25b4e4266e4e253dcd5214c6711", "is_disabled": 0, "rental_uris": {"ios": "https://dc.lft.to/lastmile_qr_scan", "android": "https://dc.lft.to/lastmile_qr_scan"}, "is_reserved": 0}, {"lon": -77.03162533333334, "bike_id": "6bccc36bca99db3c612b9b9513f178fe", "lat": 38.884199, "fusion_lon": 0.0, "fusion_lat": 0.0, "type": "electric_scooter", "name": "6bccc36bca99db3c612b9b9513f178fe", "is_disabled": 0, "rental_uris": {"ios": "https://dc.lft.to/lastmile_qr_scan", "android": "https://dc.lft.to/lastmile_qr_scan"}, "is_reserved": 0}, {"lon": -77.021712, "bike_id": "1777c45dd8751ec47a973c98f0dd662b", "lat": 38.94290633333333, "fusion_lon": 0.0, "fusion_lat": 0.0, "type": "electric_scooter", "name": "1777c45dd8751ec47a973c98f0dd662b", "is_disabled": 0, "rental_uris": {"ios": "https://dc.lft.to/lastmile_qr_scan", "android": "https://dc.lft.to/lastmile_qr_scan"}, "is_reserved": 0}, {"lon": -77.0481125, "bike_id": "039306f6656bf8ec2058aba1476c1717", "lat": 38.91635433333333, "fusion_lon": 0.0, "fusion_lat": 0.0, "type": "electric_scooter", "name": "039306f6656bf8ec2058aba1476c1717", "is_disabled": 0, "rental_uris": {"ios": "https://dc.lft.to/lastmile_qr_scan", "android": "https://dc.lft.to/lastmile_qr_scan"}, "is_reserved": 0}, {"lon": -77.0340435, "bike_id": "c55857475bd6349b6606095c2cef3f75", "lat": 38.93127333333333, "fusion_lon": 0.0, "fusion_lat": 0.0, "type": "electric_scooter", "name": "c55857475bd6349b6606095c2cef3f75", "is_disabled": 0, "rental_uris": {"ios": "https://dc.lft.to/lastmile_qr_scan", "android": "https://dc.lft.to/lastmile_qr_scan"}, "is_reserved": 0}, {"lon": -77.06490283333333, "bike_id": "0742875ae4786c778cc1f9b4ed487711", "lat": 38.92903333333334, "fusion_lon": 0.0, "fusion_lat": 0.0, "type": "electric_scooter", "name": "0742875ae4786c778cc1f9b4ed487711", "is_disabled": 0, "rental_uris": {"ios": "https://dc.lft.to/lastmile_qr_scan", "android": "https://dc.lft.to/lastmile_qr_scan"}, "is_reserved": 0}, {"lon": -77.02674816666666, "bike_id": "6c4c7711ce756412c41f4403be8dd545", "lat": 38.9842855, "fusion_lon": 0.0, "fusion_lat": 0.0, "type": "electric_scooter", "name": "6c4c7711ce756412c41f4403be8dd545", "is_disabled": 0, "rental_uris": {"ios": "https://dc.lft.to/lastmile_qr_scan", "android": "https://dc.lft.to/lastmile_qr_scan"}, "is_reserved": 0}, {"lon": -77.02388116666667, "bike_id": "8e95e891acc99cd6f6dc901ae26466bc", "lat": 38.90850916666667, "fusion_lon": 0.0, "fusion_lat": 0.0, "type": "electric_scooter", "name": "8e95e891acc99cd6f6dc901ae26466bc", "is_disabled": 0, "rental_uris": {"ios": "https://dc.lft.to/lastmile_qr_scan", "android": "https://dc.lft.to/lastmile_qr_scan"}, "is_reserved": 0}, {"lon": -76.98037633333334, "bike_id": "6dbb00475e08187c6f6bbac66ede35f7", "lat": 38.88967683333333, "fusion_lon": 0.0, "fusion_lat": 0.0, "type": "electric_scooter", "name": "6dbb00475e08187c6f6bbac66ede35f7", "is_disabled": 0, "rental_uris": {"ios": "https://dc.lft.to/lastmile_qr_scan", "android": "https://dc.lft.to/lastmile_qr_scan"}, "is_reserved": 0}, {"lon": -77.02294666666667, "bike_id": "0303bd13104204412d48f859fae9eee6", "lat": 38.916766, "fusion_lon": 0.0, "fusion_lat": 0.0, "type": "electric_scooter", "name": "0303bd13104204412d48f859fae9eee6", "is_disabled": 0, "rental_uris": {"ios": "https://dc.lft.to/lastmile_qr_scan", "android": "https://dc.lft.to/lastmile_qr_scan"}, "is_reserved": 0}, {"lon": -77.04815766666667, "bike_id": "59db7e7e97698e8258e75b32747af1e3", "lat": 38.920429166666665, "fusion_lon": 0.0, "fusion_lat": 0.0, "type": "electric_scooter", "name": "59db7e7e97698e8258e75b32747af1e3", "is_disabled": 0, "rental_uris": {"ios": "https://dc.lft.to/lastmile_qr_scan", "android": "https://dc.lft.to/lastmile_qr_scan"}, "is_reserved": 0}, {"lon": -77.002143, "bike_id": "b0502905ce9445a62be0e3e9d8847725", "lat": 38.90032583333333, "fusion_lon": 0.0, "fusion_lat": 0.0, "type": "electric_scooter", "name": "b0502905ce9445a62be0e3e9d8847725", "is_disabled": 0, "rental_uris": {"ios": "https://dc.lft.to/lastmile_qr_scan", "android": "https://dc.lft.to/lastmile_qr_scan"}, "is_reserved": 0}, {"lon": -77.0261155, "bike_id": "caf2a542ea2d890f22cc04ad62d3b7cc", "lat": 38.916896, "fusion_lon": 0.0, "fusion_lat": 0.0, "type": "electric_scooter", "name": "caf2a542ea2d890f22cc04ad62d3b7cc", "is_disabled": 0, "rental_uris": {"ios": "https://dc.lft.to/lastmile_qr_scan", "android": "https://dc.lft.to/lastmile_qr_scan"}, "is_reserved": 0}, {"lon": -77.037708, "bike_id": "92eaeb94e693c98688eddbec07982d55", "lat": 38.925576, "fusion_lon": 0.0, "fusion_lat": 0.0, "type": "electric_scooter", "name": "92eaeb94e693c98688eddbec07982d55", "is_disabled": 0, "rental_uris": {"ios": "https://dc.lft.to/lastmile_qr_scan", "android": "https://dc.lft.to/lastmile_qr_scan"}, "is_reserved": 0}, {"lon": -77.00884383333333, "bike_id": "5a95789e8dd980ff1ff3eee95a162bba", "lat": 38.91712616666667, "fusion_lon": 0.0, "fusion_lat": 0.0, "type": "electric_scooter", "name": "5a95789e8dd980ff1ff3eee95a162bba", "is_disabled": 0, "rental_uris": {"ios": "https://dc.lft.to/lastmile_qr_scan", "android": "https://dc.lft.to/lastmile_qr_scan"}, "is_reserved": 0}, {"lon": -77.0258775, "bike_id": "8e38a6cd32d5b0732fd6518dbfe1df88", "lat": 38.89220183333333, "fusion_lon": 0.0, "fusion_lat": 0.0, "type": "electric_scooter", "name": "8e38a6cd32d5b0732fd6518dbfe1df88", "is_disabled": 0, "rental_uris": {"ios": "https://dc.lft.to/lastmile_qr_scan", "android": "https://dc.lft.to/lastmile_qr_scan"}, "is_reserved": 0}, {"lon": -76.99464483333334, "bike_id": "497845984a08d5b7275006025807ce39", "lat": 38.862252833333336, "fusion_lon": 0.0, "fusion_lat": 0.0, "type": "electric_scooter", "name": "497845984a08d5b7275006025807ce39", "is_disabled": 0, "rental_uris": {"ios": "https://dc.lft.to/lastmile_qr_scan", "android": "https://dc.lft.to/lastmile_qr_scan"}, "is_reserved": 0}, {"lon": -77.002034, "bike_id": "9f2cf2fc9ea424a89afed6fa99a3ff68", "lat": 38.90040533333333, "fusion_lon": 0.0, "fusion_lat": 0.0, "type": "electric_scooter", "name": "9f2cf2fc9ea424a89afed6fa99a3ff68", "is_disabled": 0, "rental_uris": {"ios": "https://dc.lft.to/lastmile_qr_scan", "android": "https://dc.lft.to/lastmile_qr_scan"}, "is_reserved": 0}, {"lon": -76.98147833333333, "bike_id": "fd1b723b94ffd27dec7f5a88346ea036", "lat": 38.90316383333333, "fusion_lon": 0.0, "fusion_lat": 0.0, "type": "electric_scooter", "name": "fd1b723b94ffd27dec7f5a88346ea036", "is_disabled": 0, "rental_uris": {"ios": "https://dc.lft.to/lastmile_qr_scan", "android": "https://dc.lft.to/lastmile_qr_scan"}, "is_reserved": 0}, {"lon": -77.03261483333333, "bike_id": "c16ce702db7c150eacb82fe85a9891a0", "lat": 38.9293435, "fusion_lon": 0.0, "fusion_lat": 0.0, "type": "electric_scooter", "name": "c16ce702db7c150eacb82fe85a9891a0", "is_disabled": 0, "rental_uris": {"ios": "https://dc.lft.to/lastmile_qr_scan", "android": "https://dc.lft.to/lastmile_qr_scan"}, "is_reserved": 0}, {"lon": -77.04344016666667, "bike_id": "44e68f316756c2ad83736369f1e65a08", "lat": 38.90811933333333, "fusion_lon": 0.0, "fusion_lat": 0.0, "type": "electric_scooter", "name": "44e68f316756c2ad83736369f1e65a08", "is_disabled": 0, "rental_uris": {"ios": "https://dc.lft.to/lastmile_qr_scan", "android": "https://dc.lft.to/lastmile_qr_scan"}, "is_reserved": 0}, {"lon": -77.04350466666666, "bike_id": "f170cff11ccbdf87d80939880485fc69", "lat": 38.90390716666667, "fusion_lon": 0.0, "fusion_lat": 0.0, "type": "electric_scooter", "name": "f170cff11ccbdf87d80939880485fc69", "is_disabled": 0, "rental_uris": {"ios": "https://dc.lft.to/lastmile_qr_scan", "android": "https://dc.lft.to/lastmile_qr_scan"}, "is_reserved": 0}, {"lon": -77.030298, "bike_id": "46c99a8a5f7e8024745a413fbbd7369b", "lat": 38.88393216666667, "fusion_lon": 0.0, "fusion_lat": 0.0, "type": "electric_scooter", "name": "46c99a8a5f7e8024745a413fbbd7369b", "is_disabled": 0, "rental_uris": {"ios": "https://dc.lft.to/lastmile_qr_scan", "android": "https://dc.lft.to/lastmile_qr_scan"}, "is_reserved": 0}, {"lon": -77.02975233333333, "bike_id": "ab92e99a95ae8ffd282af79e5b948b59", "lat": 38.90707183333333, "fusion_lon": 0.0, "fusion_lat": 0.0, "type": "electric_scooter", "name": "ab92e99a95ae8ffd282af79e5b948b59", "is_disabled": 0, "rental_uris": {"ios": "https://dc.lft.to/lastmile_qr_scan", "android": "https://dc.lft.to/lastmile_qr_scan"}, "is_reserved": 0}, {"lon": -76.9985075, "bike_id": "efb6c5d28494a86307fb425ec22cd7e2", "lat": 38.89076583333333, "fusion_lon": 0.0, "fusion_lat": 0.0, "type": "electric_scooter", "name": "efb6c5d28494a86307fb425ec22cd7e2", "is_disabled": 0, "rental_uris": {"ios": "https://dc.lft.to/lastmile_qr_scan", "android": "https://dc.lft.to/lastmile_qr_scan"}, "is_reserved": 0}, {"lon": -76.9880295, "bike_id": "0d31db97a43ed1f41faad8d5b48f50b7", "lat": 38.8672585, "fusion_lon": 0.0, "fusion_lat": 0.0, "type": "electric_scooter", "name": "0d31db97a43ed1f41faad8d5b48f50b7", "is_disabled": 0, "rental_uris": {"ios": "https://dc.lft.to/lastmile_qr_scan", "android": "https://dc.lft.to/lastmile_qr_scan"}, "is_reserved": 0}, {"lon": -77.03091983333333, "bike_id": "ed4870b5f7fa985edb758e199a3fdd7a", "lat": 38.927036666666666, "fusion_lon": 0.0, "fusion_lat": 0.0, "type": "electric_scooter", "name": "ed4870b5f7fa985edb758e199a3fdd7a", "is_disabled": 0, "rental_uris": {"ios": "https://dc.lft.to/lastmile_qr_scan", "android": "https://dc.lft.to/lastmile_qr_scan"}, "is_reserved": 0}, {"lon": -77.04864716666667, "bike_id": "6d851faedfd4ef741704c1743a733e28", "lat": 38.89221333333333, "fusion_lon": 0.0, "fusion_lat": 0.0, "type": "electric_scooter", "name": "6d851faedfd4ef741704c1743a733e28", "is_disabled": 0, "rental_uris": {"ios": "https://dc.lft.to/lastmile_qr_scan", "android": "https://dc.lft.to/lastmile_qr_scan"}, "is_reserved": 0}, {"lon": -77.00196866666667, "bike_id": "c9ec3e570ace05e67ed8bd59b2dc6c08", "lat": 38.90234016666667, "fusion_lon": 0.0, "fusion_lat": 0.0, "type": "electric_scooter", "name": "c9ec3e570ace05e67ed8bd59b2dc6c08", "is_disabled": 0, "rental_uris": {"ios": "https://dc.lft.to/lastmile_qr_scan", "android": "https://dc.lft.to/lastmile_qr_scan"}, "is_reserved": 0}, {"lon": -77.0326225, "bike_id": "2df86d4fb717e743c9c06bf781617cc2", "lat": 38.905894333333336, "fusion_lon": 0.0, "fusion_lat": 0.0, "type": "electric_scooter", "name": "2df86d4fb717e743c9c06bf781617cc2", "is_disabled": 0, "rental_uris": {"ios": "https://dc.lft.to/lastmile_qr_scan", "android": "https://dc.lft.to/lastmile_qr_scan"}, "is_reserved": 0}, {"lon": -77.022362, "bike_id": "91a01ed08056c19b26f1d8104b74de05", "lat": 38.915622166666665, "fusion_lon": 0.0, "fusion_lat": 0.0, "type": "electric_scooter", "name": "91a01ed08056c19b26f1d8104b74de05", "is_disabled": 0, "rental_uris": {"ios": "https://dc.lft.to/lastmile_qr_scan", "android": "https://dc.lft.to/lastmile_qr_scan"}, "is_reserved": 0}, {"lon": -77.079074, "bike_id": "fa56cb557aa7ff0e9537eecdea9fdd29", "lat": 38.931225166666664, "fusion_lon": 0.0, "fusion_lat": 0.0, "type": "electric_scooter", "name": "fa56cb557aa7ff0e9537eecdea9fdd29", "is_disabled": 0, "rental_uris": {"ios": "https://dc.lft.to/lastmile_qr_scan", "android": "https://dc.lft.to/lastmile_qr_scan"}, "is_reserved": 0}, {"lon": -77.035969, "bike_id": "6c00ca09b450105941f7f4769c824e54", "lat": 38.93936166666667, "fusion_lon": 0.0, "fusion_lat": 0.0, "type": "electric_scooter", "name": "6c00ca09b450105941f7f4769c824e54", "is_disabled": 0, "rental_uris": {"ios": "https://dc.lft.to/lastmile_qr_scan", "android": "https://dc.lft.to/lastmile_qr_scan"}, "is_reserved": 0}, {"lon": -76.99461516666666, "bike_id": "b36889d1ee8ca2b41eba8cf0812b9ab9", "lat": 38.94066383333333, "fusion_lon": 0.0, "fusion_lat": 0.0, "type": "electric_scooter", "name": "b36889d1ee8ca2b41eba8cf0812b9ab9", "is_disabled": 0, "rental_uris": {"ios": "https://dc.lft.to/lastmile_qr_scan", "android": "https://dc.lft.to/lastmile_qr_scan"}, "is_reserved": 0}, {"lon": -77.0239035, "bike_id": "eecea7e58770f95f914e3b75a5881e9e", "lat": 38.907352833333334, "fusion_lon": 0.0, "fusion_lat": 0.0, "type": "electric_scooter", "name": "eecea7e58770f95f914e3b75a5881e9e", "is_disabled": 0, "rental_uris": {"ios": "https://dc.lft.to/lastmile_qr_scan", "android": "https://dc.lft.to/lastmile_qr_scan"}, "is_reserved": 0}, {"lon": -77.0294935, "bike_id": "cfbe9af0a9508dce7d2e8b74c2655aff", "lat": 38.9046485, "fusion_lon": 0.0, "fusion_lat": 0.0, "type": "electric_scooter", "name": "cfbe9af0a9508dce7d2e8b74c2655aff", "is_disabled": 0, "rental_uris": {"ios": "https://dc.lft.to/lastmile_qr_scan", "android": "https://dc.lft.to/lastmile_qr_scan"}, "is_reserved": 0}, {"lon": -77.031094, "bike_id": "11d4d71452e43fec32c37d4b3dd5bc3d", "lat": 38.92046066666666, "fusion_lon": 0.0, "fusion_lat": 0.0, "type": "electric_bike", "name": "11d4d71452e43fec32c37d4b3dd5bc3d", "is_disabled": 0, "rental_uris": {"ios": "https://dc.lft.to/lastmile_qr_scan", "android": "https://dc.lft.to/lastmile_qr_scan"}, "is_reserved": 0}, {"lon": -76.97672333333334, "bike_id": "b89281dbc1b963ff5bde3c10411f9047", "lat": 38.95242666666667, "fusion_lon": 0.0, "fusion_lat": 0.0, "type": "electric_bike", "name": "b89281dbc1b963ff5bde3c10411f9047", "is_disabled": 0, "rental_uris": {"ios": "https://dc.lft.to/lastmile_qr_scan", "android": "https://dc.lft.to/lastmile_qr_scan"}, "is_reserved": 0}, {"lon": -77.04174533333334, "bike_id": "2f98db5b866947bd430bb1c36e762242", "lat": 38.91702316666667, "fusion_lon": 0.0, "fusion_lat": 0.0, "type": "electric_scooter", "name": "2f98db5b866947bd430bb1c36e762242", "is_disabled": 0, "rental_uris": {"ios": "https://dc.lft.to/lastmile_qr_scan", "android": "https://dc.lft.to/lastmile_qr_scan"}, "is_reserved": 0}, {"lon": -77.001099, "bike_id": "b48d107376379a5d1a0c389742b5fe7f", "lat": 38.919692, "fusion_lon": 0.0, "fusion_lat": 0.0, "type": "electric_scooter", "name": "b48d107376379a5d1a0c389742b5fe7f", "is_disabled": 0, "rental_uris": {"ios": "https://dc.lft.to/lastmile_qr_scan", "android": "https://dc.lft.to/lastmile_qr_scan"}, "is_reserved": 0}, {"lon": -77.0326685, "bike_id": "6a18af7b70c98e8011df1a11dbe18eaf", "lat": 38.93235333333333, "fusion_lon": 0.0, "fusion_lat": 0.0, "type": "electric_scooter", "name": "6a18af7b70c98e8011df1a11dbe18eaf", "is_disabled": 0, "rental_uris": {"ios": "https://dc.lft.to/lastmile_qr_scan", "android": "https://dc.lft.to/lastmile_qr_scan"}, "is_reserved": 0}, {"lon": -76.99864366666667, "bike_id": "7969a3b46c051d76a3deb00b4f6eddfa", "lat": 38.900267166666666, "fusion_lon": 0.0, "fusion_lat": 0.0, "type": "electric_scooter", "name": "7969a3b46c051d76a3deb00b4f6eddfa", "is_disabled": 0, "rental_uris": {"ios": "https://dc.lft.to/lastmile_qr_scan", "android": "https://dc.lft.to/lastmile_qr_scan"}, "is_reserved": 0}, {"lon": -77.03199883333333, "bike_id": "ad526c2dd567db2d8035649fe55a7568", "lat": 38.92280016666667, "fusion_lon": 0.0, "fusion_lat": 0.0, "type": "electric_scooter", "name": "ad526c2dd567db2d8035649fe55a7568", "is_disabled": 0, "rental_uris": {"ios": "https://dc.lft.to/lastmile_qr_scan", "android": "https://dc.lft.to/lastmile_qr_scan"}, "is_reserved": 0}, {"lon": -76.99790466666667, "bike_id": "dfe55b44b6687f78c3c1ed6227ce4310", "lat": 38.89090783333333, "fusion_lon": 0.0, "fusion_lat": 0.0, "type": "electric_scooter", "name": "dfe55b44b6687f78c3c1ed6227ce4310", "is_disabled": 0, "rental_uris": {"ios": "https://dc.lft.to/lastmile_qr_scan", "android": "https://dc.lft.to/lastmile_qr_scan"}, "is_reserved": 0}, {"lon": -77.00588433333333, "bike_id": "34f87f194fc0d84e46b227bcc0ecc0a7", "lat": 38.900271333333336, "fusion_lon": 0.0, "fusion_lat": 0.0, "type": "electric_scooter", "name": "34f87f194fc0d84e46b227bcc0ecc0a7", "is_disabled": 0, "rental_uris": {"ios": "https://dc.lft.to/lastmile_qr_scan", "android": "https://dc.lft.to/lastmile_qr_scan"}, "is_reserved": 0}, {"lon": -77.026144, "bike_id": "622d375d92b51bfab9371ec8a19b10f3", "lat": 38.929856, "fusion_lon": 0.0, "fusion_lat": 0.0, "type": "electric_scooter", "name": "622d375d92b51bfab9371ec8a19b10f3", "is_disabled": 0, "rental_uris": {"ios": "https://dc.lft.to/lastmile_qr_scan", "android": "https://dc.lft.to/lastmile_qr_scan"}, "is_reserved": 0}, {"lon": -77.03165466666667, "bike_id": "2ba61f5ddc9a659dbd59a705cdb7a084", "lat": 38.916811833333334, "fusion_lon": 0.0, "fusion_lat": 0.0, "type": "electric_scooter", "name": "2ba61f5ddc9a659dbd59a705cdb7a084", "is_disabled": 0, "rental_uris": {"ios": "https://dc.lft.to/lastmile_qr_scan", "android": "https://dc.lft.to/lastmile_qr_scan"}, "is_reserved": 0}, {"lon": -77.0586055, "bike_id": "6b6a71a0d7222887c5500634158120de", "lat": 38.9360825, "fusion_lon": 0.0, "fusion_lat": 0.0, "type": "electric_scooter", "name": "6b6a71a0d7222887c5500634158120de", "is_disabled": 0, "rental_uris": {"ios": "https://dc.lft.to/lastmile_qr_scan", "android": "https://dc.lft.to/lastmile_qr_scan"}, "is_reserved": 0}, {"lon": -77.02160766666667, "bike_id": "6e6bb09774e32442ce928d80e73d2da5", "lat": 38.909665833333335, "fusion_lon": 0.0, "fusion_lat": 0.0, "type": "electric_scooter", "name": "6e6bb09774e32442ce928d80e73d2da5", "is_disabled": 0, "rental_uris": {"ios": "https://dc.lft.to/lastmile_qr_scan", "android": "https://dc.lft.to/lastmile_qr_scan"}, "is_reserved": 0}, {"lon": -76.9810805, "bike_id": "5d5409eafe41e60afc8336cf6acacde3", "lat": 38.87728883333333, "fusion_lon": 0.0, "fusion_lat": 0.0, "type": "electric_bike", "name": "5d5409eafe41e60afc8336cf6acacde3", "is_disabled": 0, "rental_uris": {"ios": "https://dc.lft.to/lastmile_qr_scan", "android": "https://dc.lft.to/lastmile_qr_scan"}, "is_reserved": 0}, {"lon": -77.021869, "bike_id": "9581809f98d2e6f2b2fa67078176b7eb", "lat": 38.9198915, "fusion_lon": 0.0, "fusion_lat": 0.0, "type": "electric_scooter", "name": "9581809f98d2e6f2b2fa67078176b7eb", "is_disabled": 0, "rental_uris": {"ios": "https://dc.lft.to/lastmile_qr_scan", "android": "https://dc.lft.to/lastmile_qr_scan"}, "is_reserved": 0}, {"lon": -76.98248383333333, "bike_id": "b90507e5f6c77e966f482b95b468726c", "lat": 38.86455133333333, "fusion_lon": 0.0, "fusion_lat": 0.0, "type": "electric_scooter", "name": "b90507e5f6c77e966f482b95b468726c", "is_disabled": 0, "rental_uris": {"ios": "https://dc.lft.to/lastmile_qr_scan", "android": "https://dc.lft.to/lastmile_qr_scan"}, "is_reserved": 0}, {"lon": -77.046963, "bike_id": "f696956ffe1af76146081ffd022fd0ed", "lat": 38.9189925, "fusion_lon": 0.0, "fusion_lat": 0.0, "type": "electric_scooter", "name": "f696956ffe1af76146081ffd022fd0ed", "is_disabled": 0, "rental_uris": {"ios": "https://dc.lft.to/lastmile_qr_scan", "android": "https://dc.lft.to/lastmile_qr_scan"}, "is_reserved": 0}, {"lon": -77.03064633333334, "bike_id": "742adde4fd5f2b465136d82ba0560d21", "lat": 38.92466066666667, "fusion_lon": 0.0, "fusion_lat": 0.0, "type": "electric_scooter", "name": "742adde4fd5f2b465136d82ba0560d21", "is_disabled": 0, "rental_uris": {"ios": "https://dc.lft.to/lastmile_qr_scan", "android": "https://dc.lft.to/lastmile_qr_scan"}, "is_reserved": 0}, {"lon": -77.00188033333333, "bike_id": "dd5f545b4e8d704184597738adfe456c", "lat": 38.8947595, "fusion_lon": 0.0, "fusion_lat": 0.0, "type": "electric_scooter", "name": "dd5f545b4e8d704184597738adfe456c", "is_disabled": 0, "rental_uris": {"ios": "https://dc.lft.to/lastmile_qr_scan", "android": "https://dc.lft.to/lastmile_qr_scan"}, "is_reserved": 0}, {"lon": -77.01502916666666, "bike_id": "accab7d4f0a514dc4042d3d60dd0ade3", "lat": 38.945333166666664, "fusion_lon": 0.0, "fusion_lat": 0.0, "type": "electric_scooter", "name": "accab7d4f0a514dc4042d3d60dd0ade3", "is_disabled": 0, "rental_uris": {"ios": "https://dc.lft.to/lastmile_qr_scan", "android": "https://dc.lft.to/lastmile_qr_scan"}, "is_reserved": 0}, {"lon": -76.94924733333333, "bike_id": "5f852dacbb8215c4bc37a1497699dc13", "lat": 38.89539033333333, "fusion_lon": 0.0, "fusion_lat": 0.0, "type": "electric_scooter", "name": "5f852dacbb8215c4bc37a1497699dc13", "is_disabled": 0, "rental_uris": {"ios": "https://dc.lft.to/lastmile_qr_scan", "android": "https://dc.lft.to/lastmile_qr_scan"}, "is_reserved": 0}, {"lon": -77.01266233333334, "bike_id": "e2b805c4fd7c9a2b4579c46d22767d72", "lat": 38.91540466666667, "fusion_lon": 0.0, "fusion_lat": 0.0, "type": "electric_scooter", "name": "e2b805c4fd7c9a2b4579c46d22767d72", "is_disabled": 0, "rental_uris": {"ios": "https://dc.lft.to/lastmile_qr_scan", "android": "https://dc.lft.to/lastmile_qr_scan"}, "is_reserved": 0}, {"lon": -77.02111216666667, "bike_id": "03e6a7c384d0490be6f38e67c2d957bf", "lat": 38.906027, "fusion_lon": 0.0, "fusion_lat": 0.0, "type": "electric_scooter", "name": "03e6a7c384d0490be6f38e67c2d957bf", "is_disabled": 0, "rental_uris": {"ios": "https://dc.lft.to/lastmile_qr_scan", "android": "https://dc.lft.to/lastmile_qr_scan"}, "is_reserved": 0}, {"lon": -76.98923933333333, "bike_id": "49a676475fc0cfb8d69203da69c45106", "lat": 38.8580945, "fusion_lon": 0.0, "fusion_lat": 0.0, "type": "electric_scooter", "name": "49a676475fc0cfb8d69203da69c45106", "is_disabled": 0, "rental_uris": {"ios": "https://dc.lft.to/lastmile_qr_scan", "android": "https://dc.lft.to/lastmile_qr_scan"}, "is_reserved": 0}, {"lon": -77.04387866666667, "bike_id": "898d3b6fb36db893792fcc40b26cffac", "lat": 39.047182, "fusion_lon": 0.0, "fusion_lat": 0.0, "type": "electric_bike", "name": "898d3b6fb36db893792fcc40b26cffac", "is_disabled": 0, "rental_uris": {"ios": "https://dc.lft.to/lastmile_qr_scan", "android": "https://dc.lft.to/lastmile_qr_scan"}, "is_reserved": 0}, {"lon": -77.0364585, "bike_id": "828fef7dd23199f6208a39049782e2ed", "lat": 38.984926, "fusion_lon": 0.0, "fusion_lat": 0.0, "type": "electric_bike", "name": "828fef7dd23199f6208a39049782e2ed", "is_disabled": 0, "rental_uris": {"ios": "https://dc.lft.to/lastmile_qr_scan", "android": "https://dc.lft.to/lastmile_qr_scan"}, "is_reserved": 0}, {"lon": -77.00197633333333, "bike_id": "6928ccc0fd8f0fa6198e7e614f9bc9cf", "lat": 38.902385333333335, "fusion_lon": 0.0, "fusion_lat": 0.0, "type": "electric_scooter", "name": "6928ccc0fd8f0fa6198e7e614f9bc9cf", "is_disabled": 0, "rental_uris": {"ios": "https://dc.lft.to/lastmile_qr_scan", "android": "https://dc.lft.to/lastmile_qr_scan"}, "is_reserved": 0}, {"lon": -77.02208766666666, "bike_id": "4abda14131006b29ff3ef293e7cd3e58", "lat": 38.9141325, "fusion_lon": 0.0, "fusion_lat": 0.0, "type": "electric_scooter", "name": "4abda14131006b29ff3ef293e7cd3e58", "is_disabled": 0, "rental_uris": {"ios": "https://dc.lft.to/lastmile_qr_scan", "android": "https://dc.lft.to/lastmile_qr_scan"}, "is_reserved": 0}, {"lon": -77.04679783333333, "bike_id": "cc839ad51216dd2ae9eadca1c891b054", "lat": 38.906142, "fusion_lon": 0.0, "fusion_lat": 0.0, "type": "electric_scooter", "name": "cc839ad51216dd2ae9eadca1c891b054", "is_disabled": 0, "rental_uris": {"ios": "https://dc.lft.to/lastmile_qr_scan", "android": "https://dc.lft.to/lastmile_qr_scan"}, "is_reserved": 0}, {"lon": -77.04997816666666, "bike_id": "228919714a063f51133a2d0b60870095", "lat": 38.892301833333335, "fusion_lon": 0.0, "fusion_lat": 0.0, "type": "electric_scooter", "name": "228919714a063f51133a2d0b60870095", "is_disabled": 0, "rental_uris": {"ios": "https://dc.lft.to/lastmile_qr_scan", "android": "https://dc.lft.to/lastmile_qr_scan"}, "is_reserved": 0}, {"lon": -77.02223116666667, "bike_id": "ddbe14e7320daea48f98b9348fa02501", "lat": 38.926052166666665, "fusion_lon": 0.0, "fusion_lat": 0.0, "type": "electric_scooter", "name": "ddbe14e7320daea48f98b9348fa02501", "is_disabled": 0, "rental_uris": {"ios": "https://dc.lft.to/lastmile_qr_scan", "android": "https://dc.lft.to/lastmile_qr_scan"}, "is_reserved": 0}, {"lon": -77.04400866666667, "bike_id": "b1ae9e785859d8e8c6b957e712f145f1", "lat": 38.924475, "fusion_lon": 0.0, "fusion_lat": 0.0, "type": "electric_scooter", "name": "b1ae9e785859d8e8c6b957e712f145f1", "is_disabled": 0, "rental_uris": {"ios": "https://dc.lft.to/lastmile_qr_scan", "android": "https://dc.lft.to/lastmile_qr_scan"}, "is_reserved": 0}, {"lon": -77.02186816666666, "bike_id": "4024ee7bf0d19c9e8a3085608e332eb2", "lat": 38.9394925, "fusion_lon": 0.0, "fusion_lat": 0.0, "type": "electric_scooter", "name": "4024ee7bf0d19c9e8a3085608e332eb2", "is_disabled": 0, "rental_uris": {"ios": "https://dc.lft.to/lastmile_qr_scan", "android": "https://dc.lft.to/lastmile_qr_scan"}, "is_reserved": 0}, {"lon": -77.0375625, "bike_id": "b965197e38a352f11c5f1c8d2d88c071", "lat": 38.911942, "fusion_lon": 0.0, "fusion_lat": 0.0, "type": "electric_scooter", "name": "b965197e38a352f11c5f1c8d2d88c071", "is_disabled": 0, "rental_uris": {"ios": "https://dc.lft.to/lastmile_qr_scan", "android": "https://dc.lft.to/lastmile_qr_scan"}, "is_reserved": 0}, {"lon": -77.007323, "bike_id": "89a4cf0075ec6e287050f3f0af930356", "lat": 38.89855633333333, "fusion_lon": 0.0, "fusion_lat": 0.0, "type": "electric_scooter", "name": "89a4cf0075ec6e287050f3f0af930356", "is_disabled": 0, "rental_uris": {"ios": "https://dc.lft.to/lastmile_qr_scan", "android": "https://dc.lft.to/lastmile_qr_scan"}, "is_reserved": 0}, {"lon": -77.03774666666666, "bike_id": "6d6e835d8ca3f2111ee97c19a56837ec", "lat": 38.916871666666665, "fusion_lon": 0.0, "fusion_lat": 0.0, "type": "electric_scooter", "name": "6d6e835d8ca3f2111ee97c19a56837ec", "is_disabled": 0, "rental_uris": {"ios": "https://dc.lft.to/lastmile_qr_scan", "android": "https://dc.lft.to/lastmile_qr_scan"}, "is_reserved": 0}, {"lon": -77.02255616666666, "bike_id": "63f7da53b085621185319a5df533827b", "lat": 38.92522316666667, "fusion_lon": 0.0, "fusion_lat": 0.0, "type": "electric_scooter", "name": "63f7da53b085621185319a5df533827b", "is_disabled": 0, "rental_uris": {"ios": "https://dc.lft.to/lastmile_qr_scan", "android": "https://dc.lft.to/lastmile_qr_scan"}, "is_reserved": 0}, {"lon": -76.94996066666667, "bike_id": "d7c12111a5b1e91f6a41b1f5074a0a94", "lat": 38.89381, "fusion_lon": 0.0, "fusion_lat": 0.0, "type": "electric_scooter", "name": "d7c12111a5b1e91f6a41b1f5074a0a94", "is_disabled": 0, "rental_uris": {"ios": "https://dc.lft.to/lastmile_qr_scan", "android": "https://dc.lft.to/lastmile_qr_scan"}, "is_reserved": 0}, {"lon": -77.075922, "bike_id": "53a2593b3ac338f5d5ec338efe331cbc", "lat": 38.912175833333336, "fusion_lon": 0.0, "fusion_lat": 0.0, "type": "electric_scooter", "name": "53a2593b3ac338f5d5ec338efe331cbc", "is_disabled": 0, "rental_uris": {"ios": "https://dc.lft.to/lastmile_qr_scan", "android": "https://dc.lft.to/lastmile_qr_scan"}, "is_reserved": 0}, {"lon": -77.0201025, "bike_id": "95e107af60f4162f58da8503b61d57bc", "lat": 38.897347333333336, "fusion_lon": 0.0, "fusion_lat": 0.0, "type": "electric_scooter", "name": "95e107af60f4162f58da8503b61d57bc", "is_disabled": 0, "rental_uris": {"ios": "https://dc.lft.to/lastmile_qr_scan", "android": "https://dc.lft.to/lastmile_qr_scan"}, "is_reserved": 0}, {"lon": -77.04079466666667, "bike_id": "396f91471db03fc2c71ae3b0a8b49398", "lat": 38.90571116666667, "fusion_lon": 0.0, "fusion_lat": 0.0, "type": "electric_scooter", "name": "396f91471db03fc2c71ae3b0a8b49398", "is_disabled": 0, "rental_uris": {"ios": "https://dc.lft.to/lastmile_qr_scan", "android": "https://dc.lft.to/lastmile_qr_scan"}, "is_reserved": 0}, {"lon": -77.02762433333334, "bike_id": "281b5cafa65df48e4e5ffd5a642d5d99", "lat": 38.954247333333335, "fusion_lon": 0.0, "fusion_lat": 0.0, "type": "electric_scooter", "name": "281b5cafa65df48e4e5ffd5a642d5d99", "is_disabled": 0, "rental_uris": {"ios": "https://dc.lft.to/lastmile_qr_scan", "android": "https://dc.lft.to/lastmile_qr_scan"}, "is_reserved": 0}, {"lon": -77.01545183333333, "bike_id": "f64f6b6ae767d258679960b8bde5ff8c", "lat": 38.884964333333336, "fusion_lon": 0.0, "fusion_lat": 0.0, "type": "electric_scooter", "name": "f64f6b6ae767d258679960b8bde5ff8c", "is_disabled": 0, "rental_uris": {"ios": "https://dc.lft.to/lastmile_qr_scan", "android": "https://dc.lft.to/lastmile_qr_scan"}, "is_reserved": 0}, {"lon": -77.02473916666666, "bike_id": "826f8b9d6af26b1b5fe96b6ee3d2b116", "lat": 38.90391416666667, "fusion_lon": 0.0, "fusion_lat": 0.0, "type": "electric_scooter", "name": "826f8b9d6af26b1b5fe96b6ee3d2b116", "is_disabled": 0, "rental_uris": {"ios": "https://dc.lft.to/lastmile_qr_scan", "android": "https://dc.lft.to/lastmile_qr_scan"}, "is_reserved": 0}, {"lon": -77.01818166666666, "bike_id": "593c5a834264fb2ce9abe229336096a8", "lat": 38.92367183333333, "fusion_lon": 0.0, "fusion_lat": 0.0, "type": "electric_scooter", "name": "593c5a834264fb2ce9abe229336096a8", "is_disabled": 0, "rental_uris": {"ios": "https://dc.lft.to/lastmile_qr_scan", "android": "https://dc.lft.to/lastmile_qr_scan"}, "is_reserved": 0}, {"lon": -77.03039983333333, "bike_id": "5a3b5d812ecd4f666d213a4ce844de79", "lat": 38.87836166666666, "fusion_lon": 0.0, "fusion_lat": 0.0, "type": "electric_scooter", "name": "5a3b5d812ecd4f666d213a4ce844de79", "is_disabled": 0, "rental_uris": {"ios": "https://dc.lft.to/lastmile_qr_scan", "android": "https://dc.lft.to/lastmile_qr_scan"}, "is_reserved": 0}, {"lon": -77.02950483333333, "bike_id": "1a4c178957e5ad7efc6f8e0d5d6c4dab", "lat": 38.90493933333333, "fusion_lon": 0.0, "fusion_lat": 0.0, "type": "electric_scooter", "name": "1a4c178957e5ad7efc6f8e0d5d6c4dab", "is_disabled": 0, "rental_uris": {"ios": "https://dc.lft.to/lastmile_qr_scan", "android": "https://dc.lft.to/lastmile_qr_scan"}, "is_reserved": 0}, {"lon": -77.03954233333333, "bike_id": "e21ae48d160fb00a192059b1a2be5b66", "lat": 38.902691, "fusion_lon": 0.0, "fusion_lat": 0.0, "type": "electric_scooter", "name": "e21ae48d160fb00a192059b1a2be5b66", "is_disabled": 0, "rental_uris": {"ios": "https://dc.lft.to/lastmile_qr_scan", "android": "https://dc.lft.to/lastmile_qr_scan"}, "is_reserved": 0}, {"lon": -77.0033115, "bike_id": "c3841d4aebbd632cf30c331442184758", "lat": 38.885006, "fusion_lon": 0.0, "fusion_lat": 0.0, "type": "electric_scooter", "name": "c3841d4aebbd632cf30c331442184758", "is_disabled": 0, "rental_uris": {"ios": "https://dc.lft.to/lastmile_qr_scan", "android": "https://dc.lft.to/lastmile_qr_scan"}, "is_reserved": 0}, {"lon": -77.02947766666666, "bike_id": "ce5123869a138562e58cdbfbe8087319", "lat": 38.9049175, "fusion_lon": 0.0, "fusion_lat": 0.0, "type": "electric_scooter", "name": "ce5123869a138562e58cdbfbe8087319", "is_disabled": 0, "rental_uris": {"ios": "https://dc.lft.to/lastmile_qr_scan", "android": "https://dc.lft.to/lastmile_qr_scan"}, "is_reserved": 0}, {"lon": -77.01046683333334, "bike_id": "48b90513cfc2071e8d3c9bbc42abcb47", "lat": 38.866619, "fusion_lon": 0.0, "fusion_lat": 0.0, "type": "electric_scooter", "name": "48b90513cfc2071e8d3c9bbc42abcb47", "is_disabled": 0, "rental_uris": {"ios": "https://dc.lft.to/lastmile_qr_scan", "android": "https://dc.lft.to/lastmile_qr_scan"}, "is_reserved": 0}, {"lon": -77.01309333333333, "bike_id": "47745160c889edbeabe1a741eb34574c", "lat": 38.907320666666664, "fusion_lon": 0.0, "fusion_lat": 0.0, "type": "electric_scooter", "name": "47745160c889edbeabe1a741eb34574c", "is_disabled": 0, "rental_uris": {"ios": "https://dc.lft.to/lastmile_qr_scan", "android": "https://dc.lft.to/lastmile_qr_scan"}, "is_reserved": 0}, {"lon": -77.05107683333334, "bike_id": "2ed0f66bb519456e5f0a8df356bcee85", "lat": 38.92306683333334, "fusion_lon": 0.0, "fusion_lat": 0.0, "type": "electric_scooter", "name": "2ed0f66bb519456e5f0a8df356bcee85", "is_disabled": 0, "rental_uris": {"ios": "https://dc.lft.to/lastmile_qr_scan", "android": "https://dc.lft.to/lastmile_qr_scan"}, "is_reserved": 0}, {"lon": -77.0257675, "bike_id": "4118976eccaadfe3f83674962e142620", "lat": 38.914061, "fusion_lon": 0.0, "fusion_lat": 0.0, "type": "electric_scooter", "name": "4118976eccaadfe3f83674962e142620", "is_disabled": 0, "rental_uris": {"ios": "https://dc.lft.to/lastmile_qr_scan", "android": "https://dc.lft.to/lastmile_qr_scan"}, "is_reserved": 0}, {"lon": -77.00307666666667, "bike_id": "191f7db76547812ecc80a4deece927b6", "lat": 38.89494633333333, "fusion_lon": 0.0, "fusion_lat": 0.0, "type": "electric_scooter", "name": "191f7db76547812ecc80a4deece927b6", "is_disabled": 0, "rental_uris": {"ios": "https://dc.lft.to/lastmile_qr_scan", "android": "https://dc.lft.to/lastmile_qr_scan"}, "is_reserved": 0}, {"lon": -77.026386, "bike_id": "974927b689363af4d47ef578f1d6b6d8", "lat": 38.904221, "fusion_lon": 0.0, "fusion_lat": 0.0, "type": "electric_scooter", "name": "974927b689363af4d47ef578f1d6b6d8", "is_disabled": 0, "rental_uris": {"ios": "https://dc.lft.to/lastmile_qr_scan", "android": "https://dc.lft.to/lastmile_qr_scan"}, "is_reserved": 0}, {"lon": -77.02012766666667, "bike_id": "2334ebdb561ecbc180ba93a06929f42e", "lat": 38.924176833333334, "fusion_lon": 0.0, "fusion_lat": 0.0, "type": "electric_scooter", "name": "2334ebdb561ecbc180ba93a06929f42e", "is_disabled": 0, "rental_uris": {"ios": "https://dc.lft.to/lastmile_qr_scan", "android": "https://dc.lft.to/lastmile_qr_scan"}, "is_reserved": 0}, {"lon": -77.0110405, "bike_id": "d2e690cb7767e8fbfe442c86d7c55bc3", "lat": 38.90357016666667, "fusion_lon": 0.0, "fusion_lat": 0.0, "type": "electric_scooter", "name": "d2e690cb7767e8fbfe442c86d7c55bc3", "is_disabled": 0, "rental_uris": {"ios": "https://dc.lft.to/lastmile_qr_scan", "android": "https://dc.lft.to/lastmile_qr_scan"}, "is_reserved": 0}, {"lon": -77.03883816666666, "bike_id": "62ad7b00bdf74fbc27d2fd4622b198c6", "lat": 38.925203333333336, "fusion_lon": 0.0, "fusion_lat": 0.0, "type": "electric_scooter", "name": "62ad7b00bdf74fbc27d2fd4622b198c6", "is_disabled": 0, "rental_uris": {"ios": "https://dc.lft.to/lastmile_qr_scan", "android": "https://dc.lft.to/lastmile_qr_scan"}, "is_reserved": 0}, {"lon": -77.02235983333334, "bike_id": "3bf0843ca8987323d6c1fb4ad320398a", "lat": 38.91562033333334, "fusion_lon": 0.0, "fusion_lat": 0.0, "type": "electric_scooter", "name": "3bf0843ca8987323d6c1fb4ad320398a", "is_disabled": 0, "rental_uris": {"ios": "https://dc.lft.to/lastmile_qr_scan", "android": "https://dc.lft.to/lastmile_qr_scan"}, "is_reserved": 0}, {"lon": -77.02494583333333, "bike_id": "93cebc894c02b8c6a2b4509613394762", "lat": 38.9072975, "fusion_lon": 0.0, "fusion_lat": 0.0, "type": "electric_scooter", "name": "93cebc894c02b8c6a2b4509613394762", "is_disabled": 0, "rental_uris": {"ios": "https://dc.lft.to/lastmile_qr_scan", "android": "https://dc.lft.to/lastmile_qr_scan"}, "is_reserved": 0}, {"lon": -77.04172933333334, "bike_id": "9cea88827df34a6343a7c0d8cb72288e", "lat": 38.906272666666666, "fusion_lon": 0.0, "fusion_lat": 0.0, "type": "electric_scooter", "name": "9cea88827df34a6343a7c0d8cb72288e", "is_disabled": 0, "rental_uris": {"ios": "https://dc.lft.to/lastmile_qr_scan", "android": "https://dc.lft.to/lastmile_qr_scan"}, "is_reserved": 0}, {"lon": -77.0239475, "bike_id": "f005af281ee53fc16adf1c4366f711a9", "lat": 38.92072066666667, "fusion_lon": 0.0, "fusion_lat": 0.0, "type": "electric_scooter", "name": "f005af281ee53fc16adf1c4366f711a9", "is_disabled": 0, "rental_uris": {"ios": "https://dc.lft.to/lastmile_qr_scan", "android": "https://dc.lft.to/lastmile_qr_scan"}, "is_reserved": 0}, {"lon": -77.03269983333334, "bike_id": "8b2c46f6d293b708eb59560adeac66ea", "lat": 38.93237933333333, "fusion_lon": 0.0, "fusion_lat": 0.0, "type": "electric_scooter", "name": "8b2c46f6d293b708eb59560adeac66ea", "is_disabled": 0, "rental_uris": {"ios": "https://dc.lft.to/lastmile_qr_scan", "android": "https://dc.lft.to/lastmile_qr_scan"}, "is_reserved": 0}, {"lon": -77.0742205, "bike_id": "4664d2c910c04e37083e86c5d29d2784", "lat": 38.9627035, "fusion_lon": 0.0, "fusion_lat": 0.0, "type": "electric_scooter", "name": "4664d2c910c04e37083e86c5d29d2784", "is_disabled": 0, "rental_uris": {"ios": "https://dc.lft.to/lastmile_qr_scan", "android": "https://dc.lft.to/lastmile_qr_scan"}, "is_reserved": 0}, {"lon": -77.03649716666666, "bike_id": "2a4e023358bbfefb66cfec7a501828fd", "lat": 38.917449, "fusion_lon": 0.0, "fusion_lat": 0.0, "type": "electric_scooter", "name": "2a4e023358bbfefb66cfec7a501828fd", "is_disabled": 0, "rental_uris": {"ios": "https://dc.lft.to/lastmile_qr_scan", "android": "https://dc.lft.to/lastmile_qr_scan"}, "is_reserved": 0}, {"lon": -77.10596216666667, "bike_id": "eb3e001f9bda5e747307ebd67b3dc397", "lat": 38.90384616666667, "fusion_lon": 0.0, "fusion_lat": 0.0, "type": "electric_bike", "name": "eb3e001f9bda5e747307ebd67b3dc397", "is_disabled": 0, "rental_uris": {"ios": "https://dc.lft.to/lastmile_qr_scan", "android": "https://dc.lft.to/lastmile_qr_scan"}, "is_reserved": 0}, {"lon": -77.02599633333334, "bike_id": "57822fcb75537b0168c88c6f402f0389", "lat": 38.920329333333335, "fusion_lon": 0.0, "fusion_lat": 0.0, "type": "electric_scooter", "name": "57822fcb75537b0168c88c6f402f0389", "is_disabled": 0, "rental_uris": {"ios": "https://dc.lft.to/lastmile_qr_scan", "android": "https://dc.lft.to/lastmile_qr_scan"}, "is_reserved": 0}, {"lon": -77.02584333333333, "bike_id": "94047352ea635ca58b93c9ab747152e5", "lat": 38.892319, "fusion_lon": 0.0, "fusion_lat": 0.0, "type": "electric_scooter", "name": "94047352ea635ca58b93c9ab747152e5", "is_disabled": 0, "rental_uris": {"ios": "https://dc.lft.to/lastmile_qr_scan", "android": "https://dc.lft.to/lastmile_qr_scan"}, "is_reserved": 0}, {"lon": -77.02208616666667, "bike_id": "97d298f933d0a9065bb4b7875fbf09bb", "lat": 38.900336333333335, "fusion_lon": 0.0, "fusion_lat": 0.0, "type": "electric_scooter", "name": "97d298f933d0a9065bb4b7875fbf09bb", "is_disabled": 0, "rental_uris": {"ios": "https://dc.lft.to/lastmile_qr_scan", "android": "https://dc.lft.to/lastmile_qr_scan"}, "is_reserved": 0}, {"lon": -77.04128233333333, "bike_id": "c887801ee27bc7cee0822d5e142e5af0", "lat": 38.90620666666667, "fusion_lon": 0.0, "fusion_lat": 0.0, "type": "electric_scooter", "name": "c887801ee27bc7cee0822d5e142e5af0", "is_disabled": 0, "rental_uris": {"ios": "https://dc.lft.to/lastmile_qr_scan", "android": "https://dc.lft.to/lastmile_qr_scan"}, "is_reserved": 0}, {"lon": -77.011338, "bike_id": "c8848502dd7fb856fd27c31f07d6b7f3", "lat": 38.8852495, "fusion_lon": 0.0, "fusion_lat": 0.0, "type": "electric_scooter", "name": "c8848502dd7fb856fd27c31f07d6b7f3", "is_disabled": 0, "rental_uris": {"ios": "https://dc.lft.to/lastmile_qr_scan", "android": "https://dc.lft.to/lastmile_qr_scan"}, "is_reserved": 0}, {"lon": -77.02396333333333, "bike_id": "3af012ac5b9f1e89ccaa83496d914cad", "lat": 38.90416883333333, "fusion_lon": 0.0, "fusion_lat": 0.0, "type": "electric_scooter", "name": "3af012ac5b9f1e89ccaa83496d914cad", "is_disabled": 0, "rental_uris": {"ios": "https://dc.lft.to/lastmile_qr_scan", "android": "https://dc.lft.to/lastmile_qr_scan"}, "is_reserved": 0}, {"lon": -77.05861833333333, "bike_id": "5ac67e9570c789ef3b135be595f2f3f5", "lat": 38.9360645, "fusion_lon": 0.0, "fusion_lat": 0.0, "type": "electric_scooter", "name": "5ac67e9570c789ef3b135be595f2f3f5", "is_disabled": 0, "rental_uris": {"ios": "https://dc.lft.to/lastmile_qr_scan", "android": "https://dc.lft.to/lastmile_qr_scan"}, "is_reserved": 0}, {"lon": -77.03444983333333, "bike_id": "d0079a4f63fb26ea89a3729e9db28638", "lat": 38.90729866666667, "fusion_lon": 0.0, "fusion_lat": 0.0, "type": "electric_scooter", "name": "d0079a4f63fb26ea89a3729e9db28638", "is_disabled": 0, "rental_uris": {"ios": "https://dc.lft.to/lastmile_qr_scan", "android": "https://dc.lft.to/lastmile_qr_scan"}, "is_reserved": 0}, {"lon": -77.04590283333333, "bike_id": "6cd17844288aeacc9d29f1b98c688767", "lat": 38.91929366666667, "fusion_lon": 0.0, "fusion_lat": 0.0, "type": "electric_scooter", "name": "6cd17844288aeacc9d29f1b98c688767", "is_disabled": 0, "rental_uris": {"ios": "https://dc.lft.to/lastmile_qr_scan", "android": "https://dc.lft.to/lastmile_qr_scan"}, "is_reserved": 0}, {"lon": -77.05335833333334, "bike_id": "097451bad752b0dfa7a5f57fea49f9a0", "lat": 38.901477666666665, "fusion_lon": 0.0, "fusion_lat": 0.0, "type": "electric_scooter", "name": "097451bad752b0dfa7a5f57fea49f9a0", "is_disabled": 0, "rental_uris": {"ios": "https://dc.lft.to/lastmile_qr_scan", "android": "https://dc.lft.to/lastmile_qr_scan"}, "is_reserved": 0}, {"lon": -77.0356055, "bike_id": "db9251931dd02a34948ff51dd740a9ce", "lat": 38.90838133333333, "fusion_lon": 0.0, "fusion_lat": 0.0, "type": "electric_scooter", "name": "db9251931dd02a34948ff51dd740a9ce", "is_disabled": 0, "rental_uris": {"ios": "https://dc.lft.to/lastmile_qr_scan", "android": "https://dc.lft.to/lastmile_qr_scan"}, "is_reserved": 0}, {"lon": -77.0227275, "bike_id": "6c7fab08188a9cdee9062c099b505062", "lat": 38.912738833333336, "fusion_lon": 0.0, "fusion_lat": 0.0, "type": "electric_scooter", "name": "6c7fab08188a9cdee9062c099b505062", "is_disabled": 0, "rental_uris": {"ios": "https://dc.lft.to/lastmile_qr_scan", "android": "https://dc.lft.to/lastmile_qr_scan"}, "is_reserved": 0}, {"lon": -77.0351725, "bike_id": "0ebabad230a20da4b9fd370aee0ead1c", "lat": 38.923355, "fusion_lon": 0.0, "fusion_lat": 0.0, "type": "electric_scooter", "name": "0ebabad230a20da4b9fd370aee0ead1c", "is_disabled": 0, "rental_uris": {"ios": "https://dc.lft.to/lastmile_qr_scan", "android": "https://dc.lft.to/lastmile_qr_scan"}, "is_reserved": 0}, {"lon": -77.02746016666667, "bike_id": "95556dd4804ae038bd9745011a7851b3", "lat": 38.943922, "fusion_lon": 0.0, "fusion_lat": 0.0, "type": "electric_scooter", "name": "95556dd4804ae038bd9745011a7851b3", "is_disabled": 0, "rental_uris": {"ios": "https://dc.lft.to/lastmile_qr_scan", "android": "https://dc.lft.to/lastmile_qr_scan"}, "is_reserved": 0}, {"lon": -76.97331716666666, "bike_id": "a2c14f4246b0f39b16d143255de0f290", "lat": 38.90411366666667, "fusion_lon": 0.0, "fusion_lat": 0.0, "type": "electric_scooter", "name": "a2c14f4246b0f39b16d143255de0f290", "is_disabled": 0, "rental_uris": {"ios": "https://dc.lft.to/lastmile_qr_scan", "android": "https://dc.lft.to/lastmile_qr_scan"}, "is_reserved": 0}, {"lon": -77.03419333333333, "bike_id": "4a9cdcbc5f3f43da43cb8369b9b44609", "lat": 38.9273425, "fusion_lon": 0.0, "fusion_lat": 0.0, "type": "electric_scooter", "name": "4a9cdcbc5f3f43da43cb8369b9b44609", "is_disabled": 0, "rental_uris": {"ios": "https://dc.lft.to/lastmile_qr_scan", "android": "https://dc.lft.to/lastmile_qr_scan"}, "is_reserved": 0}, {"lon": -76.98546466666667, "bike_id": "c4d698a519ccc6ecf93ad6735ebdfced", "lat": 38.925034333333336, "fusion_lon": 0.0, "fusion_lat": 0.0, "type": "electric_bike", "name": "c4d698a519ccc6ecf93ad6735ebdfced", "is_disabled": 0, "rental_uris": {"ios": "https://dc.lft.to/lastmile_qr_scan", "android": "https://dc.lft.to/lastmile_qr_scan"}, "is_reserved": 0}, {"lon": -76.98833183333333, "bike_id": "5260910325af827dcabb71a0ef15426f", "lat": 38.896669833333334, "fusion_lon": 0.0, "fusion_lat": 0.0, "type": "electric_scooter", "name": "5260910325af827dcabb71a0ef15426f", "is_disabled": 0, "rental_uris": {"ios": "https://dc.lft.to/lastmile_qr_scan", "android": "https://dc.lft.to/lastmile_qr_scan"}, "is_reserved": 0}, {"lon": -77.03284666666667, "bike_id": "ebeacea0d7eba4f1d79944455e160a3d", "lat": 38.94657, "fusion_lon": 0.0, "fusion_lat": 0.0, "type": "electric_bike", "name": "ebeacea0d7eba4f1d79944455e160a3d", "is_disabled": 0, "rental_uris": {"ios": "https://dc.lft.to/lastmile_qr_scan", "android": "https://dc.lft.to/lastmile_qr_scan"}, "is_reserved": 0}, {"lon": -77.03184766666666, "bike_id": "7d020d549f66e50a0e34fdb03ab0ac8f", "lat": 38.914181, "fusion_lon": 0.0, "fusion_lat": 0.0, "type": "electric_scooter", "name": "7d020d549f66e50a0e34fdb03ab0ac8f", "is_disabled": 0, "rental_uris": {"ios": "https://dc.lft.to/lastmile_qr_scan", "android": "https://dc.lft.to/lastmile_qr_scan"}, "is_reserved": 0}, {"lon": -77.02305466666667, "bike_id": "860714549e492164712f0b2a304d20f2", "lat": 38.92725016666667, "fusion_lon": 0.0, "fusion_lat": 0.0, "type": "electric_scooter", "name": "860714549e492164712f0b2a304d20f2", "is_disabled": 0, "rental_uris": {"ios": "https://dc.lft.to/lastmile_qr_scan", "android": "https://dc.lft.to/lastmile_qr_scan"}, "is_reserved": 0}, {"lon": -77.01666916666667, "bike_id": "c9e2386d6a12a48dfd59753afd81a2ba", "lat": 38.8810905, "fusion_lon": 0.0, "fusion_lat": 0.0, "type": "electric_bike", "name": "c9e2386d6a12a48dfd59753afd81a2ba", "is_disabled": 0, "rental_uris": {"ios": "https://dc.lft.to/lastmile_qr_scan", "android": "https://dc.lft.to/lastmile_qr_scan"}, "is_reserved": 0}, {"lon": -77.02803416666667, "bike_id": "57e0d2a46c2f30b093b53867e36988d7", "lat": 38.9073155, "fusion_lon": 0.0, "fusion_lat": 0.0, "type": "electric_scooter", "name": "57e0d2a46c2f30b093b53867e36988d7", "is_disabled": 0, "rental_uris": {"ios": "https://dc.lft.to/lastmile_qr_scan", "android": "https://dc.lft.to/lastmile_qr_scan"}, "is_reserved": 0}, {"lon": -77.00007483333333, "bike_id": "a62a58b1b7d2f07e072f5e4984b98c88", "lat": 38.897382, "fusion_lon": 0.0, "fusion_lat": 0.0, "type": "electric_scooter", "name": "a62a58b1b7d2f07e072f5e4984b98c88", "is_disabled": 0, "rental_uris": {"ios": "https://dc.lft.to/lastmile_qr_scan", "android": "https://dc.lft.to/lastmile_qr_scan"}, "is_reserved": 0}, {"lon": -77.01521633333333, "bike_id": "0d1855d14c724a432a31aa957ad79268", "lat": 38.885056, "fusion_lon": 0.0, "fusion_lat": 0.0, "type": "electric_scooter", "name": "0d1855d14c724a432a31aa957ad79268", "is_disabled": 0, "rental_uris": {"ios": "https://dc.lft.to/lastmile_qr_scan", "android": "https://dc.lft.to/lastmile_qr_scan"}, "is_reserved": 0}, {"lon": -77.045028, "bike_id": "52cd6e6a449f214ad4edb126ae6d2e7b", "lat": 38.91951316666667, "fusion_lon": 0.0, "fusion_lat": 0.0, "type": "electric_scooter", "name": "52cd6e6a449f214ad4edb126ae6d2e7b", "is_disabled": 0, "rental_uris": {"ios": "https://dc.lft.to/lastmile_qr_scan", "android": "https://dc.lft.to/lastmile_qr_scan"}, "is_reserved": 0}, {"lon": -76.964934, "bike_id": "101ba503d70bbca16a21fa35192273af", "lat": 38.876410166666666, "fusion_lon": 0.0, "fusion_lat": 0.0, "type": "electric_scooter", "name": "101ba503d70bbca16a21fa35192273af", "is_disabled": 0, "rental_uris": {"ios": "https://dc.lft.to/lastmile_qr_scan", "android": "https://dc.lft.to/lastmile_qr_scan"}, "is_reserved": 0}, {"lon": -77.05758333333333, "bike_id": "42a7a9df180f55cac0d8e2c83f7da4e4", "lat": 38.92495983333333, "fusion_lon": 0.0, "fusion_lat": 0.0, "type": "electric_bike", "name": "42a7a9df180f55cac0d8e2c83f7da4e4", "is_disabled": 0, "rental_uris": {"ios": "https://dc.lft.to/lastmile_qr_scan", "android": "https://dc.lft.to/lastmile_qr_scan"}, "is_reserved": 0}, {"lon": -76.9975795, "bike_id": "71b69f8872a60d061fab0845bb284223", "lat": 38.88765083333333, "fusion_lon": 0.0, "fusion_lat": 0.0, "type": "electric_scooter", "name": "71b69f8872a60d061fab0845bb284223", "is_disabled": 0, "rental_uris": {"ios": "https://dc.lft.to/lastmile_qr_scan", "android": "https://dc.lft.to/lastmile_qr_scan"}, "is_reserved": 0}, {"lon": -77.02834666666666, "bike_id": "af095ba9c832a4661bf9a329d3b0266e", "lat": 38.887691, "fusion_lon": 0.0, "fusion_lat": 0.0, "type": "electric_scooter", "name": "af095ba9c832a4661bf9a329d3b0266e", "is_disabled": 0, "rental_uris": {"ios": "https://dc.lft.to/lastmile_qr_scan", "android": "https://dc.lft.to/lastmile_qr_scan"}, "is_reserved": 0}, {"lon": -77.10804766666666, "bike_id": "b87d8612e2da3cffe0450b30e8e10192", "lat": 38.812062166666664, "fusion_lon": 0.0, "fusion_lat": 0.0, "type": "electric_bike", "name": "b87d8612e2da3cffe0450b30e8e10192", "is_disabled": 0, "rental_uris": {"ios": "https://dc.lft.to/lastmile_qr_scan", "android": "https://dc.lft.to/lastmile_qr_scan"}, "is_reserved": 0}, {"lon": -77.0320755, "bike_id": "d6244f2d66bf7a81e92ea31b32bc6560", "lat": 38.909735833333336, "fusion_lon": 0.0, "fusion_lat": 0.0, "type": "electric_scooter", "name": "d6244f2d66bf7a81e92ea31b32bc6560", "is_disabled": 0, "rental_uris": {"ios": "https://dc.lft.to/lastmile_qr_scan", "android": "https://dc.lft.to/lastmile_qr_scan"}, "is_reserved": 0}, {"lon": -77.03323133333333, "bike_id": "7863cd4e94f4d96f1dbd4079158277b2", "lat": 38.914005333333336, "fusion_lon": 0.0, "fusion_lat": 0.0, "type": "electric_scooter", "name": "7863cd4e94f4d96f1dbd4079158277b2", "is_disabled": 0, "rental_uris": {"ios": "https://dc.lft.to/lastmile_qr_scan", "android": "https://dc.lft.to/lastmile_qr_scan"}, "is_reserved": 0}, {"lon": -76.97646766666666, "bike_id": "094d60c0d589ca593bdd6edb3e97cd26", "lat": 38.887769, "fusion_lon": 0.0, "fusion_lat": 0.0, "type": "electric_scooter", "name": "094d60c0d589ca593bdd6edb3e97cd26", "is_disabled": 0, "rental_uris": {"ios": "https://dc.lft.to/lastmile_qr_scan", "android": "https://dc.lft.to/lastmile_qr_scan"}, "is_reserved": 0}, {"lon": -77.0241225, "bike_id": "727c78a3e59dbf56680d81240dd56ad2", "lat": 38.91692166666667, "fusion_lon": 0.0, "fusion_lat": 0.0, "type": "electric_scooter", "name": "727c78a3e59dbf56680d81240dd56ad2", "is_disabled": 0, "rental_uris": {"ios": "https://dc.lft.to/lastmile_qr_scan", "android": "https://dc.lft.to/lastmile_qr_scan"}, "is_reserved": 0}, {"lon": -77.032085, "bike_id": "082382a7bb6309972a80982af2aca654", "lat": 38.89661616666667, "fusion_lon": 0.0, "fusion_lat": 0.0, "type": "electric_scooter", "name": "082382a7bb6309972a80982af2aca654", "is_disabled": 0, "rental_uris": {"ios": "https://dc.lft.to/lastmile_qr_scan", "android": "https://dc.lft.to/lastmile_qr_scan"}, "is_reserved": 0}, {"lon": -77.03840766666667, "bike_id": "4fa23fe816d55f394ed7b5024919d1bf", "lat": 38.910918333333335, "fusion_lon": 0.0, "fusion_lat": 0.0, "type": "electric_scooter", "name": "4fa23fe816d55f394ed7b5024919d1bf", "is_disabled": 0, "rental_uris": {"ios": "https://dc.lft.to/lastmile_qr_scan", "android": "https://dc.lft.to/lastmile_qr_scan"}, "is_reserved": 0}, {"lon": -77.01656666666666, "bike_id": "4f0fe575b917a38abafb257bafac9962", "lat": 38.88138883333333, "fusion_lon": 0.0, "fusion_lat": 0.0, "type": "electric_scooter", "name": "4f0fe575b917a38abafb257bafac9962", "is_disabled": 0, "rental_uris": {"ios": "https://dc.lft.to/lastmile_qr_scan", "android": "https://dc.lft.to/lastmile_qr_scan"}, "is_reserved": 0}, {"lon": -77.0613525, "bike_id": "2573b0bc4f1fc57a39c05cb4c54eacbd", "lat": 38.9052445, "fusion_lon": 0.0, "fusion_lat": 0.0, "type": "electric_scooter", "name": "2573b0bc4f1fc57a39c05cb4c54eacbd", "is_disabled": 0, "rental_uris": {"ios": "https://dc.lft.to/lastmile_qr_scan", "android": "https://dc.lft.to/lastmile_qr_scan"}, "is_reserved": 0}, {"lon": -76.980991, "bike_id": "b61d9c5136ab80d085a9dfcd47e074ee", "lat": 38.90408333333333, "fusion_lon": 0.0, "fusion_lat": 0.0, "type": "electric_scooter", "name": "b61d9c5136ab80d085a9dfcd47e074ee", "is_disabled": 0, "rental_uris": {"ios": "https://dc.lft.to/lastmile_qr_scan", "android": "https://dc.lft.to/lastmile_qr_scan"}, "is_reserved": 0}, {"lon": -77.044549, "bike_id": "1322ace3f168daa79d6827202c046475", "lat": 38.90826666666667, "fusion_lon": 0.0, "fusion_lat": 0.0, "type": "electric_scooter", "name": "1322ace3f168daa79d6827202c046475", "is_disabled": 0, "rental_uris": {"ios": "https://dc.lft.to/lastmile_qr_scan", "android": "https://dc.lft.to/lastmile_qr_scan"}, "is_reserved": 0}, {"lon": -77.02524566666666, "bike_id": "14c266f43c204eed79e570cb74c84fab", "lat": 38.932839666666666, "fusion_lon": 0.0, "fusion_lat": 0.0, "type": "electric_scooter", "name": "14c266f43c204eed79e570cb74c84fab", "is_disabled": 0, "rental_uris": {"ios": "https://dc.lft.to/lastmile_qr_scan", "android": "https://dc.lft.to/lastmile_qr_scan"}, "is_reserved": 0}, {"lon": -76.9919315, "bike_id": "a9edc583e0fbaacca2aecdc6d24ab681", "lat": 38.88265833333333, "fusion_lon": 0.0, "fusion_lat": 0.0, "type": "electric_scooter", "name": "a9edc583e0fbaacca2aecdc6d24ab681", "is_disabled": 0, "rental_uris": {"ios": "https://dc.lft.to/lastmile_qr_scan", "android": "https://dc.lft.to/lastmile_qr_scan"}, "is_reserved": 0}, {"lon": -77.04038033333333, "bike_id": "c7fa84d91d1dbb89815880635275b56a", "lat": 38.918866666666666, "fusion_lon": 0.0, "fusion_lat": 0.0, "type": "electric_scooter", "name": "c7fa84d91d1dbb89815880635275b56a", "is_disabled": 0, "rental_uris": {"ios": "https://dc.lft.to/lastmile_qr_scan", "android": "https://dc.lft.to/lastmile_qr_scan"}, "is_reserved": 0}, {"lon": -77.03218883333334, "bike_id": "1be28fe819887931068fbabd0ea98b7b", "lat": 38.9140375, "fusion_lon": 0.0, "fusion_lat": 0.0, "type": "electric_scooter", "name": "1be28fe819887931068fbabd0ea98b7b", "is_disabled": 0, "rental_uris": {"ios": "https://dc.lft.to/lastmile_qr_scan", "android": "https://dc.lft.to/lastmile_qr_scan"}, "is_reserved": 0}, {"lon": -77.04744716666667, "bike_id": "ba154ed9f7299aafaeb058d3a2672128", "lat": 38.923155333333334, "fusion_lon": 0.0, "fusion_lat": 0.0, "type": "electric_scooter", "name": "ba154ed9f7299aafaeb058d3a2672128", "is_disabled": 0, "rental_uris": {"ios": "https://dc.lft.to/lastmile_qr_scan", "android": "https://dc.lft.to/lastmile_qr_scan"}, "is_reserved": 0}, {"lon": -77.03811666666667, "bike_id": "2d6790f3c2cfa936c77ee410e46c251b", "lat": 38.90554783333333, "fusion_lon": 0.0, "fusion_lat": 0.0, "type": "electric_scooter", "name": "2d6790f3c2cfa936c77ee410e46c251b", "is_disabled": 0, "rental_uris": {"ios": "https://dc.lft.to/lastmile_qr_scan", "android": "https://dc.lft.to/lastmile_qr_scan"}, "is_reserved": 0}, {"lon": -77.02299233333333, "bike_id": "7ce194d039e14fd9e227e38138bd1131", "lat": 38.89865916666667, "fusion_lon": 0.0, "fusion_lat": 0.0, "type": "electric_scooter", "name": "7ce194d039e14fd9e227e38138bd1131", "is_disabled": 0, "rental_uris": {"ios": "https://dc.lft.to/lastmile_qr_scan", "android": "https://dc.lft.to/lastmile_qr_scan"}, "is_reserved": 0}, {"lon": -77.02940216666667, "bike_id": "e36250ce12f9114cb0ec0e0900db66bc", "lat": 38.90710516666667, "fusion_lon": 0.0, "fusion_lat": 0.0, "type": "electric_scooter", "name": "e36250ce12f9114cb0ec0e0900db66bc", "is_disabled": 0, "rental_uris": {"ios": "https://dc.lft.to/lastmile_qr_scan", "android": "https://dc.lft.to/lastmile_qr_scan"}, "is_reserved": 0}, {"lon": -76.98270583333333, "bike_id": "e49a4da39f50b613baebde39c1c001e7", "lat": 38.88526383333333, "fusion_lon": 0.0, "fusion_lat": 0.0, "type": "electric_scooter", "name": "e49a4da39f50b613baebde39c1c001e7", "is_disabled": 0, "rental_uris": {"ios": "https://dc.lft.to/lastmile_qr_scan", "android": "https://dc.lft.to/lastmile_qr_scan"}, "is_reserved": 0}, {"lon": -77.01506633333334, "bike_id": "13c60442f86140de9005d4be2c46f90b", "lat": 38.91860416666667, "fusion_lon": 0.0, "fusion_lat": 0.0, "type": "electric_scooter", "name": "13c60442f86140de9005d4be2c46f90b", "is_disabled": 0, "rental_uris": {"ios": "https://dc.lft.to/lastmile_qr_scan", "android": "https://dc.lft.to/lastmile_qr_scan"}, "is_reserved": 0}, {"lon": -77.073297, "bike_id": "76764a533069eef8c3c8e43a79e9e7f3", "lat": 38.895921, "fusion_lon": 0.0, "fusion_lat": 0.0, "type": "electric_bike", "name": "76764a533069eef8c3c8e43a79e9e7f3", "is_disabled": 0, "rental_uris": {"ios": "https://dc.lft.to/lastmile_qr_scan", "android": "https://dc.lft.to/lastmile_qr_scan"}, "is_reserved": 0}, {"lon": -77.02662483333333, "bike_id": "f540fe0ad5f4b6ea1d2e0b914d6a6707", "lat": 38.9105705, "fusion_lon": 0.0, "fusion_lat": 0.0, "type": "electric_scooter", "name": "f540fe0ad5f4b6ea1d2e0b914d6a6707", "is_disabled": 0, "rental_uris": {"ios": "https://dc.lft.to/lastmile_qr_scan", "android": "https://dc.lft.to/lastmile_qr_scan"}, "is_reserved": 0}, {"lon": -77.02183416666666, "bike_id": "3472086b4f6a04c52ea4cd22362a88a1", "lat": 38.901943833333334, "fusion_lon": 0.0, "fusion_lat": 0.0, "type": "electric_scooter", "name": "3472086b4f6a04c52ea4cd22362a88a1", "is_disabled": 0, "rental_uris": {"ios": "https://dc.lft.to/lastmile_qr_scan", "android": "https://dc.lft.to/lastmile_qr_scan"}, "is_reserved": 0}, {"lon": -77.002022, "bike_id": "738e0463b2e90b25094449b0b6a50c7b", "lat": 38.90022716666667, "fusion_lon": 0.0, "fusion_lat": 0.0, "type": "electric_scooter", "name": "738e0463b2e90b25094449b0b6a50c7b", "is_disabled": 0, "rental_uris": {"ios": "https://dc.lft.to/lastmile_qr_scan", "android": "https://dc.lft.to/lastmile_qr_scan"}, "is_reserved": 0}, {"lon": -77.003502, "bike_id": "1c213432fc628517ef6f72fc211b30a8", "lat": 38.8992605, "fusion_lon": 0.0, "fusion_lat": 0.0, "type": "electric_scooter", "name": "1c213432fc628517ef6f72fc211b30a8", "is_disabled": 0, "rental_uris": {"ios": "https://dc.lft.to/lastmile_qr_scan", "android": "https://dc.lft.to/lastmile_qr_scan"}, "is_reserved": 0}, {"lon": -77.03295866666667, "bike_id": "e1022ae0face1e74f884600f4b5dd320", "lat": 38.9111035, "fusion_lon": 0.0, "fusion_lat": 0.0, "type": "electric_scooter", "name": "e1022ae0face1e74f884600f4b5dd320", "is_disabled": 0, "rental_uris": {"ios": "https://dc.lft.to/lastmile_qr_scan", "android": "https://dc.lft.to/lastmile_qr_scan"}, "is_reserved": 0}, {"lon": -77.03241233333334, "bike_id": "ed9e55dec2ce35ec5cbc9e2aeafd4661", "lat": 38.90721416666667, "fusion_lon": 0.0, "fusion_lat": 0.0, "type": "electric_scooter", "name": "ed9e55dec2ce35ec5cbc9e2aeafd4661", "is_disabled": 0, "rental_uris": {"ios": "https://dc.lft.to/lastmile_qr_scan", "android": "https://dc.lft.to/lastmile_qr_scan"}, "is_reserved": 0}, {"lon": -77.036774, "bike_id": "c86626eaf91fb81a798237b57845c3f6", "lat": 38.939353833333335, "fusion_lon": 0.0, "fusion_lat": 0.0, "type": "electric_scooter", "name": "c86626eaf91fb81a798237b57845c3f6", "is_disabled": 0, "rental_uris": {"ios": "https://dc.lft.to/lastmile_qr_scan", "android": "https://dc.lft.to/lastmile_qr_scan"}, "is_reserved": 0}, {"lon": -77.01136766666667, "bike_id": "0b37760ec01a8c07143a85409a705649", "lat": 38.9072625, "fusion_lon": 0.0, "fusion_lat": 0.0, "type": "electric_scooter", "name": "0b37760ec01a8c07143a85409a705649", "is_disabled": 0, "rental_uris": {"ios": "https://dc.lft.to/lastmile_qr_scan", "android": "https://dc.lft.to/lastmile_qr_scan"}, "is_reserved": 0}, {"lon": -77.02547916666667, "bike_id": "3b37baf912f782ee4a025b6f6625a31a", "lat": 38.91409566666667, "fusion_lon": 0.0, "fusion_lat": 0.0, "type": "electric_scooter", "name": "3b37baf912f782ee4a025b6f6625a31a", "is_disabled": 0, "rental_uris": {"ios": "https://dc.lft.to/lastmile_qr_scan", "android": "https://dc.lft.to/lastmile_qr_scan"}, "is_reserved": 0}, {"lon": -76.99783766666667, "bike_id": "aeff74bd001df2544e07c586323afe81", "lat": 38.84429466666667, "fusion_lon": 0.0, "fusion_lat": 0.0, "type": "electric_scooter", "name": "aeff74bd001df2544e07c586323afe81", "is_disabled": 0, "rental_uris": {"ios": "https://dc.lft.to/lastmile_qr_scan", "android": "https://dc.lft.to/lastmile_qr_scan"}, "is_reserved": 0}, {"lon": -76.984996, "bike_id": "abc8e50c20409d6fd684693e2318cfae", "lat": 38.879419, "fusion_lon": 0.0, "fusion_lat": 0.0, "type": "electric_bike", "name": "abc8e50c20409d6fd684693e2318cfae", "is_disabled": 0, "rental_uris": {"ios": "https://dc.lft.to/lastmile_qr_scan", "android": "https://dc.lft.to/lastmile_qr_scan"}, "is_reserved": 0}, {"lon": -77.03994233333333, "bike_id": "c4654aced94447a841df1717dcf5de07", "lat": 38.924513, "fusion_lon": 0.0, "fusion_lat": 0.0, "type": "electric_scooter", "name": "c4654aced94447a841df1717dcf5de07", "is_disabled": 0, "rental_uris": {"ios": "https://dc.lft.to/lastmile_qr_scan", "android": "https://dc.lft.to/lastmile_qr_scan"}, "is_reserved": 0}, {"lon": -77.00432533333333, "bike_id": "2053924632ff9d097a1a268a700064d8", "lat": 38.91338416666667, "fusion_lon": 0.0, "fusion_lat": 0.0, "type": "electric_scooter", "name": "2053924632ff9d097a1a268a700064d8", "is_disabled": 0, "rental_uris": {"ios": "https://dc.lft.to/lastmile_qr_scan", "android": "https://dc.lft.to/lastmile_qr_scan"}, "is_reserved": 0}, {"lon": -77.0397045, "bike_id": "7d56a08e8c6118fb221a60020781ae66", "lat": 38.931461166666665, "fusion_lon": 0.0, "fusion_lat": 0.0, "type": "electric_scooter", "name": "7d56a08e8c6118fb221a60020781ae66", "is_disabled": 0, "rental_uris": {"ios": "https://dc.lft.to/lastmile_qr_scan", "android": "https://dc.lft.to/lastmile_qr_scan"}, "is_reserved": 0}, {"lon": -77.04944233333333, "bike_id": "0d95c9d9ff564ac8b73f661463ca7a7a", "lat": 38.90848316666667, "fusion_lon": 0.0, "fusion_lat": 0.0, "type": "electric_scooter", "name": "0d95c9d9ff564ac8b73f661463ca7a7a", "is_disabled": 0, "rental_uris": {"ios": "https://dc.lft.to/lastmile_qr_scan", "android": "https://dc.lft.to/lastmile_qr_scan"}, "is_reserved": 0}, {"lon": -77.032818, "bike_id": "bfbfd9b4b549f21e660e61f2819ae518", "lat": 38.936443833333335, "fusion_lon": 0.0, "fusion_lat": 0.0, "type": "electric_scooter", "name": "bfbfd9b4b549f21e660e61f2819ae518", "is_disabled": 0, "rental_uris": {"ios": "https://dc.lft.to/lastmile_qr_scan", "android": "https://dc.lft.to/lastmile_qr_scan"}, "is_reserved": 0}, {"lon": -76.94632883333334, "bike_id": "8dca7425015dbdc7f5b4f64f4a8eac85", "lat": 38.898323500000004, "fusion_lon": 0.0, "fusion_lat": 0.0, "type": "electric_scooter", "name": "8dca7425015dbdc7f5b4f64f4a8eac85", "is_disabled": 0, "rental_uris": {"ios": "https://dc.lft.to/lastmile_qr_scan", "android": "https://dc.lft.to/lastmile_qr_scan"}, "is_reserved": 0}, {"lon": -77.04043866666666, "bike_id": "fa25b002f0b955bebec03d928289eba0", "lat": 38.923179833333336, "fusion_lon": 0.0, "fusion_lat": 0.0, "type": "electric_scooter", "name": "fa25b002f0b955bebec03d928289eba0", "is_disabled": 0, "rental_uris": {"ios": "https://dc.lft.to/lastmile_qr_scan", "android": "https://dc.lft.to/lastmile_qr_scan"}, "is_reserved": 0}, {"lon": -77.02230366666667, "bike_id": "0a02840ae6a08a5f06cf7d2a21761319", "lat": 38.922647166666664, "fusion_lon": 0.0, "fusion_lat": 0.0, "type": "electric_scooter", "name": "0a02840ae6a08a5f06cf7d2a21761319", "is_disabled": 0, "rental_uris": {"ios": "https://dc.lft.to/lastmile_qr_scan", "android": "https://dc.lft.to/lastmile_qr_scan"}, "is_reserved": 0},