{"data": {"bikes": [{"fusion_lat": 0.0, "type": "electric_bike", "name": "aa79e17b053fa0effc0d06d4b11dbc3f", "fusion_lon": 0.0, "bike_id": "aa79e17b053fa0effc0d06d4b11dbc3f", "is_reserved": 0, "rental_uris": {"android": "https://dc.lft.to/lastmile_qr_scan", "ios": "https://dc.lft.to/lastmile_qr_scan"}, "lat": 38.846105333333334, "is_disabled": 0, "lon": -77.08969266666666}, {"fusion_lat": 0.0, "type": "electric_scooter", "name": "204404d2aea71b9c0de9ff1656b337ad", "fusion_lon": 0.0, "bike_id": "204404d2aea71b9c0de9ff1656b337ad", "is_reserved": 0, "rental_uris": {"android": "https://dc.lft.to/lastmile_qr_scan", "ios": "https://dc.lft.to/lastmile_qr_scan"}, "lat": 38.90692883333333, "is_disabled": 0, "lon": -77.03695666666667}, {"fusion_lat": 0.0, "type": "electric_scooter", "name": "21c455a031174465b1fd7f8c26f733f5", "fusion_lon": 0.0, "bike_id": "21c455a031174465b1fd7f8c26f733f5", "is_reserved": 0, "rental_uris": {"android": "https://dc.lft.to/lastmile_qr_scan", "ios": "https://dc.lft.to/lastmile_qr_scan"}, "lat": 38.93014016666667, "is_disabled": 0, "lon": -77.05517233333333}, {"fusion_lat": 0.0, "type": "electric_scooter", "name": "4d971028ca26d9e3bb3552148a32e595", "fusion_lon": 0.0, "bike_id": "4d971028ca26d9e3bb3552148a32e595", "is_reserved": 0, "rental_uris": {"android": "https://dc.lft.to/lastmile_qr_scan", "ios": "https://dc.lft.to/lastmile_qr_scan"}, "lat": 38.9243175, "is_disabled": 0, "lon": -77.04250033333334}, {"fusion_lat": 0.0, "type": "electric_scooter", "name": "fddb7b619d6fb13e170af01ffde7c684", "fusion_lon": 0.0, "bike_id": "fddb7b619d6fb13e170af01ffde7c684", "is_reserved": 0, "rental_uris": {"android": "https://dc.lft.to/lastmile_qr_scan", "ios": "https://dc.lft.to/lastmile_qr_scan"}, "lat": 38.892956833333336, "is_disabled": 0, "lon": -77.01235683333333}, {"fusion_lat": 0.0, "type": "electric_scooter", "name": "f5313319b203f99ee27d146266de4f64", "fusion_lon": 0.0, "bike_id": "f5313319b203f99ee27d146266de4f64", "is_reserved": 0, "rental_uris": {"android": "https://dc.lft.to/lastmile_qr_scan", "ios": "https://dc.lft.to/lastmile_qr_scan"}, "lat": 38.892344, "is_disabled": 0, "lon": -77.019793}, {"fusion_lat": 0.0, "type": "electric_scooter", "name": "72ff9e2de55ada0c9020c4a0b2a19bba", "fusion_lon": 0.0, "bike_id": "72ff9e2de55ada0c9020c4a0b2a19bba", "is_reserved": 0, "rental_uris": {"android": "https://dc.lft.to/lastmile_qr_scan", "ios": "https://dc.lft.to/lastmile_qr_scan"}, "lat": 38.922420333333335, "is_disabled": 0, "lon": -77.04245216666666}, {"fusion_lat": 0.0, "type": "electric_scooter", "name": "28f59d54e7443435d4cfcdad83083cec", "fusion_lon": 0.0, "bike_id": "28f59d54e7443435d4cfcdad83083cec", "is_reserved": 0, "rental_uris": {"android": "https://dc.lft.to/lastmile_qr_scan", "ios": "https://dc.lft.to/lastmile_qr_scan"}, "lat": 38.9167745, "is_disabled": 0, "lon": -77.02291983333333}, {"fusion_lat": 0.0, "type": "electric_scooter", "name": "aa5e06fcd3bf57f916bb50fcf08eba05", "fusion_lon": 0.0, "bike_id": "aa5e06fcd3bf57f916bb50fcf08eba05", "is_reserved": 0, "rental_uris": {"android": "https://dc.lft.to/lastmile_qr_scan", "ios": "https://dc.lft.to/lastmile_qr_scan"}, "lat": 38.93294683333333, "is_disabled": 0, "lon": -77.046302}, {"fusion_lat": 0.0, "type": "electric_scooter", "name": "932dc27e5ad5c9dd80533b6de9f9b240", "fusion_lon": 0.0, "bike_id": "932dc27e5ad5c9dd80533b6de9f9b240", "is_reserved": 0, "rental_uris": {"android": "https://dc.lft.to/lastmile_qr_scan", "ios": "https://dc.lft.to/lastmile_qr_scan"}, "lat": 38.89226633333333, "is_disabled": 0, "lon": -77.04336883333333}, {"fusion_lat": 0.0, "type": "electric_scooter", "name": "172f0b7f47a8cff02c453263fc771a8e", "fusion_lon": 0.0, "bike_id": "172f0b7f47a8cff02c453263fc771a8e", "is_reserved": 0, "rental_uris": {"android": "https://dc.lft.to/lastmile_qr_scan", "ios": "https://dc.lft.to/lastmile_qr_scan"}, "lat": 38.901605, "is_disabled": 0, "lon": -77.04395766666667}, {"fusion_lat": 0.0, "type": "electric_scooter", "name": "6a11df74518b4106b3cd736c0d95dfbd", "fusion_lon": 0.0, "bike_id": "6a11df74518b4106b3cd736c0d95dfbd", "is_reserved": 0, "rental_uris": {"android": "https://dc.lft.to/lastmile_qr_scan", "ios": "https://dc.lft.to/lastmile_qr_scan"}, "lat": 38.91716366666667, "is_disabled": 0, "lon": -77.03859516666667}, {"fusion_lat": 0.0, "type": "electric_scooter", "name": "091eceb62804a7deb49131bec0ce283e", "fusion_lon": 0.0, "bike_id": "091eceb62804a7deb49131bec0ce283e", "is_reserved": 0, "rental_uris": {"android": "https://dc.lft.to/lastmile_qr_scan", "ios": "https://dc.lft.to/lastmile_qr_scan"}, "lat": 38.90709, "is_disabled": 0, "lon": -77.02705483333334}, {"fusion_lat": 0.0, "type": "electric_bike", "name": "803e377338db59a78399e671d2d7e1a9", "fusion_lon": 0.0, "bike_id": "803e377338db59a78399e671d2d7e1a9", "is_reserved": 0, "rental_uris": {"android": "https://dc.lft.to/lastmile_qr_scan", "ios": "https://dc.lft.to/lastmile_qr_scan"}, "lat": 38.993497166666664, "is_disabled": 0, "lon": -77.1158635}, {"fusion_lat": 0.0, "type": "electric_scooter", "name": "3eb30c80e2681fdfd33f331389e2137b", "fusion_lon": 0.0, "bike_id": "3eb30c80e2681fdfd33f331389e2137b", "is_reserved": 0, "rental_uris": {"android": "https://dc.lft.to/lastmile_qr_scan", "ios": "https://dc.lft.to/lastmile_qr_scan"}, "lat": 38.86657566666667, "is_disabled": 0, "lon": -76.98522933333334}, {"fusion_lat": 0.0, "type": "electric_scooter", "name": "f39a372f3ef489cde9fe0d9bdb90adec", "fusion_lon": 0.0, "bike_id": "f39a372f3ef489cde9fe0d9bdb90adec", "is_reserved": 0, "rental_uris": {"android": "https://dc.lft.to/lastmile_qr_scan", "ios": "https://dc.lft.to/lastmile_qr_scan"}, "lat": 38.913534, "is_disabled": 0, "lon": -77.03859766666666}, {"fusion_lat": 0.0, "type": "electric_scooter", "name": "3c3c48d746622cd13f72a3c616033f55", "fusion_lon": 0.0, "bike_id": "3c3c48d746622cd13f72a3c616033f55", "is_reserved": 0, "rental_uris": {"android": "https://dc.lft.to/lastmile_qr_scan", "ios": "https://dc.lft.to/lastmile_qr_scan"}, "lat": 38.87742266666667, "is_disabled": 0, "lon": -77.0177255}, {"fusion_lat": 0.0, "type": "electric_scooter", "name": "05ddbd22c1c3883966220013d967cad7", "fusion_lon": 0.0, "bike_id": "05ddbd22c1c3883966220013d967cad7", "is_reserved": 0, "rental_uris": {"android": "https://dc.lft.to/lastmile_qr_scan", "ios": "https://dc.lft.to/lastmile_qr_scan"}, "lat": 38.92365433333333, "is_disabled": 0, "lon": -77.05052683333334}, {"fusion_lat": 0.0, "type": "electric_scooter", "name": "0b14b1e50c75a5f4a65d114beb94c180", "fusion_lon": 0.0, "bike_id": "0b14b1e50c75a5f4a65d114beb94c180", "is_reserved": 0, "rental_uris": {"android": "https://dc.lft.to/lastmile_qr_scan", "ios": "https://dc.lft.to/lastmile_qr_scan"}, "lat": 38.89233466666667, "is_disabled": 0, "lon": -77.04370283333333}, {"fusion_lat": 0.0, "type": "electric_bike", "name": "80a7b603ce01c7909c82fb01c8e06890", "fusion_lon": 0.0, "bike_id": "80a7b603ce01c7909c82fb01c8e06890", "is_reserved": 0, "rental_uris": {"android": "https://dc.lft.to/lastmile_qr_scan", "ios": "https://dc.lft.to/lastmile_qr_scan"}, "lat": 38.82785833333333, "is_disabled": 0, "lon": -77.009235}, {"fusion_lat": 0.0, "type": "electric_scooter", "name": "f97ecefa5deca01985247d6436050ae5", "fusion_lon": 0.0, "bike_id": "f97ecefa5deca01985247d6436050ae5", "is_reserved": 0, "rental_uris": {"android": "https://dc.lft.to/lastmile_qr_scan", "ios": "https://dc.lft.to/lastmile_qr_scan"}, "lat": 38.9279495, "is_disabled": 0, "lon": -77.0436015}, {"fusion_lat": 0.0, "type": "electric_scooter", "name": "48d14613b41394f9229fa90d5c3a973d", "fusion_lon": 0.0, "bike_id": "48d14613b41394f9229fa90d5c3a973d", "is_reserved": 0, "rental_uris": {"android": "https://dc.lft.to/lastmile_qr_scan", "ios": "https://dc.lft.to/lastmile_qr_scan"}, "lat": 38.905584, "is_disabled": 0, "lon": -76.98383183333334}, {"fusion_lat": 0.0, "type": "electric_scooter", "name": "13ff82f520d09e92f04c65caa4b62302", "fusion_lon": 0.0, "bike_id": "13ff82f520d09e92f04c65caa4b62302", "is_reserved": 0, "rental_uris": {"android": "https://dc.lft.to/lastmile_qr_scan", "ios": "https://dc.lft.to/lastmile_qr_scan"}, "lat": 38.925923166666664, "is_disabled": 0, "lon": -77.03746466666666}, {"fusion_lat": 0.0, "type": "electric_scooter", "name": "805f8d823159d1bf9eb03cb89b4c4199", "fusion_lon": 0.0, "bike_id": "805f8d823159d1bf9eb03cb89b4c4199", "is_reserved": 0, "rental_uris": {"android": "https://dc.lft.to/lastmile_qr_scan", "ios": "https://dc.lft.to/lastmile_qr_scan"}, "lat": 38.918334, "is_disabled": 0, "lon": -77.0394335}, {"fusion_lat": 0.0, "type": "electric_scooter", "name": "699eb33087f32f354c098d13bcbca74e", "fusion_lon": 0.0, "bike_id": "699eb33087f32f354c098d13bcbca74e", "is_reserved": 0, "rental_uris": {"android": "https://dc.lft.to/lastmile_qr_scan", "ios": "https://dc.lft.to/lastmile_qr_scan"}, "lat": 38.892249666666665, "is_disabled": 0, "lon": -77.02777633333334}, {"fusion_lat": 0.0, "type": "electric_scooter", "name": "18bdb33bcee36ab57ec10a853e5278af", "fusion_lon": 0.0, "bike_id": "18bdb33bcee36ab57ec10a853e5278af", "is_reserved": 0, "rental_uris": {"android": "https://dc.lft.to/lastmile_qr_scan", "ios": "https://dc.lft.to/lastmile_qr_scan"}, "lat": 38.93605566666667, "is_disabled": 0, "lon": -77.02915183333333}, {"fusion_lat": 0.0, "type": "electric_bike", "name": "45b5359c44bf1b82b91bd89b27517477", "fusion_lon": 0.0, "bike_id": "45b5359c44bf1b82b91bd89b27517477", "is_reserved": 0, "rental_uris": {"android": "https://dc.lft.to/lastmile_qr_scan", "ios": "https://dc.lft.to/lastmile_qr_scan"}, "lat": 38.95644633333333, "is_disabled": 0, "lon": -77.02259083333334}, {"fusion_lat": 0.0, "type": "electric_scooter", "name": "d465a356578fb05add4742b945f7c9ee", "fusion_lon": 0.0, "bike_id": "d465a356578fb05add4742b945f7c9ee", "is_reserved": 0, "rental_uris": {"android": "https://dc.lft.to/lastmile_qr_scan", "ios": "https://dc.lft.to/lastmile_qr_scan"}, "lat": 38.93979133333333, "is_disabled": 0, "lon": -77.03258116666667}, {"fusion_lat": 0.0, "type": "electric_scooter", "name": "1b448e34c176d97aacbc4ae6c7440d1e", "fusion_lon": 0.0, "bike_id": "1b448e34c176d97aacbc4ae6c7440d1e", "is_reserved": 0, "rental_uris": {"android": "https://dc.lft.to/lastmile_qr_scan", "ios": "https://dc.lft.to/lastmile_qr_scan"}, "lat": 38.8922675, "is_disabled": 0, "lon": -77.03184916666666}, {"fusion_lat": 0.0, "type": "electric_scooter", "name": "89a8af47c75eb2b1afd96b293250062d", "fusion_lon": 0.0, "bike_id": "89a8af47c75eb2b1afd96b293250062d", "is_reserved": 0, "rental_uris": {"android": "https://dc.lft.to/lastmile_qr_scan", "ios": "https://dc.lft.to/lastmile_qr_scan"}, "lat": 38.8874785, "is_disabled": 0, "lon": -77.0316265}, {"fusion_lat": 0.0, "type": "electric_scooter", "name": "e52dc5a56865ff48ba1b343447fc54fa", "fusion_lon": 0.0, "bike_id": "e52dc5a56865ff48ba1b343447fc54fa", "is_reserved": 0, "rental_uris": {"android": "https://dc.lft.to/lastmile_qr_scan", "ios": "https://dc.lft.to/lastmile_qr_scan"}, "lat": 38.903587333333334, "is_disabled": 0, "lon": -77.04234433333333}, {"fusion_lat": 0.0, "type": "electric_scooter", "name": "0eebadb9f40dc22cf84efef7a440231a", "fusion_lon": 0.0, "bike_id": "0eebadb9f40dc22cf84efef7a440231a", "is_reserved": 0, "rental_uris": {"android": "https://dc.lft.to/lastmile_qr_scan", "ios": "https://dc.lft.to/lastmile_qr_scan"}, "lat": 38.9104505, "is_disabled": 0, "lon": -77.031837}, {"fusion_lat": 0.0, "type": "electric_scooter", "name": "a3ce5df826dc86f5ee7f5f8603111aad", "fusion_lon": 0.0, "bike_id": "a3ce5df826dc86f5ee7f5f8603111aad", "is_reserved": 0, "rental_uris": {"android": "https://dc.lft.to/lastmile_qr_scan", "ios": "https://dc.lft.to/lastmile_qr_scan"}, "lat": 38.9010345, "is_disabled": 0, "lon": -77.04500433333334}, {"fusion_lat": 0.0, "type": "electric_scooter", "name": "4ba9e4347e6623bcca292c47a3befd73", "fusion_lon": 0.0, "bike_id": "4ba9e4347e6623bcca292c47a3befd73", "is_reserved": 0, "rental_uris": {"android": "https://dc.lft.to/lastmile_qr_scan", "ios": "https://dc.lft.to/lastmile_qr_scan"}, "lat": 38.89169283333333, "is_disabled": 0, "lon": -76.951772}, {"fusion_lat": 0.0, "type": "electric_bike", "name": "66e69731d942a6f36122839da8520a80", "fusion_lon": 0.0, "bike_id": "66e69731d942a6f36122839da8520a80", "is_reserved": 0, "rental_uris": {"android": "https://dc.lft.to/lastmile_qr_scan", "ios": "https://dc.lft.to/lastmile_qr_scan"}, "lat": 38.823304666666665, "is_disabled": 0, "lon": -77.05629016666667}, {"fusion_lat": 0.0, "type": "electric_scooter", "name": "34b89a552e6237840859fa0c0d4df555", "fusion_lon": 0.0, "bike_id": "34b89a552e6237840859fa0c0d4df555", "is_reserved": 0, "rental_uris": {"android": "https://dc.lft.to/lastmile_qr_scan", "ios": "https://dc.lft.to/lastmile_qr_scan"}, "lat": 38.90224666666667, "is_disabled": 0, "lon": -77.023567}, {"fusion_lat": 0.0, "type": "electric_scooter", "name": "dd042ee809a850a7af39439ad7654596", "fusion_lon": 0.0, "bike_id": "dd042ee809a850a7af39439ad7654596", "is_reserved": 0, "rental_uris": {"android": "https://dc.lft.to/lastmile_qr_scan", "ios": "https://dc.lft.to/lastmile_qr_scan"}, "lat": 38.94204516666667, "is_disabled": 0, "lon": -77.02512583333333}, {"fusion_lat": 0.0, "type": "electric_scooter", "name": "e590bf3f019c8f027969cdf1e0eb5c98", "fusion_lon": 0.0, "bike_id": "e590bf3f019c8f027969cdf1e0eb5c98", "is_reserved": 0, "rental_uris": {"android": "https://dc.lft.to/lastmile_qr_scan", "ios": "https://dc.lft.to/lastmile_qr_scan"}, "lat": 38.925712833333336, "is_disabled": 0, "lon": -77.03749666666667}, {"fusion_lat": 0.0, "type": "electric_scooter", "name": "e6cb3553fb40f338477e34455a9d649c", "fusion_lon": 0.0, "bike_id": "e6cb3553fb40f338477e34455a9d649c", "is_reserved": 0, "rental_uris": {"android": "https://dc.lft.to/lastmile_qr_scan", "ios": "https://dc.lft.to/lastmile_qr_scan"}, "lat": 38.90661883333333, "is_disabled": 0, "lon": -77.03871883333333}, {"fusion_lat": 0.0, "type": "electric_scooter", "name": "ca53f625007b7995d94877e6fc6fd298", "fusion_lon": 0.0, "bike_id": "ca53f625007b7995d94877e6fc6fd298", "is_reserved": 0, "rental_uris": {"android": "https://dc.lft.to/lastmile_qr_scan", "ios": "https://dc.lft.to/lastmile_qr_scan"}, "lat": 38.959339666666665, "is_disabled": 0, "lon": -77.03129083333333}, {"fusion_lat": 0.0, "type": "electric_scooter", "name": "d7f5defd55d623bbd7b162be808bd928", "fusion_lon": 0.0, "bike_id": "d7f5defd55d623bbd7b162be808bd928", "is_reserved": 0, "rental_uris": {"android": "https://dc.lft.to/lastmile_qr_scan", "ios": "https://dc.lft.to/lastmile_qr_scan"}, "lat": 38.94293066666667, "is_disabled": 0, "lon": -77.02172883333333}, {"fusion_lat": 0.0, "type": "electric_scooter", "name": "4fe75b094f7def878229f4f1cc132cc9", "fusion_lon": 0.0, "bike_id": "4fe75b094f7def878229f4f1cc132cc9", "is_reserved": 0, "rental_uris": {"android": "https://dc.lft.to/lastmile_qr_scan", "ios": "https://dc.lft.to/lastmile_qr_scan"}, "lat": 38.92708666666667, "is_disabled": 0, "lon": -77.02410466666667}, {"fusion_lat": 0.0, "type": "electric_scooter", "name": "e7a24d86fcd01bb3d10c3e0407ada25a", "fusion_lon": 0.0, "bike_id": "e7a24d86fcd01bb3d10c3e0407ada25a", "is_reserved": 0, "rental_uris": {"android": "https://dc.lft.to/lastmile_qr_scan", "ios": "https://dc.lft.to/lastmile_qr_scan"}, "lat": 38.8736385, "is_disabled": 0, "lon": -76.97010016666667}, {"fusion_lat": 0.0, "type": "electric_scooter", "name": "5a71b180d0b4346f25f6200eccfa749a", "fusion_lon": 0.0, "bike_id": "5a71b180d0b4346f25f6200eccfa749a", "is_reserved": 0, "rental_uris": {"android": "https://dc.lft.to/lastmile_qr_scan", "ios": "https://dc.lft.to/lastmile_qr_scan"}, "lat": 38.906337666666666, "is_disabled": 0, "lon": -77.05127433333334}, {"fusion_lat": 0.0, "type": "electric_scooter", "name": "0204607f23e2abab5e2bf00d412ab13d", "fusion_lon": 0.0, "bike_id": "0204607f23e2abab5e2bf00d412ab13d", "is_reserved": 0, "rental_uris": {"android": "https://dc.lft.to/lastmile_qr_scan", "ios": "https://dc.lft.to/lastmile_qr_scan"}, "lat": 38.928402166666665, "is_disabled": 0, "lon": -77.03288383333333}, {"fusion_lat": 0.0, "type": "electric_scooter", "name": "6408d224af0d2e37f85d6ff800caf945", "fusion_lon": 0.0, "bike_id": "6408d224af0d2e37f85d6ff800caf945", "is_reserved": 0, "rental_uris": {"android": "https://dc.lft.to/lastmile_qr_scan", "ios": "https://dc.lft.to/lastmile_qr_scan"}, "lat": 38.90543516666666, "is_disabled": 0, "lon": -77.03944216666666}, {"fusion_lat": 0.0, "type": "electric_bike", "name": "db26bdac1645ec22acbf8eca73836cc2", "fusion_lon": 0.0, "bike_id": "db26bdac1645ec22acbf8eca73836cc2", "is_reserved": 0, "rental_uris": {"android": "https://dc.lft.to/lastmile_qr_scan", "ios": "https://dc.lft.to/lastmile_qr_scan"}, "lat": 38.846108, "is_disabled": 0, "lon": -76.9691405}, {"fusion_lat": 0.0, "type": "electric_scooter", "name": "79cafc16206def33fe4b62c76451a22c", "fusion_lon": 0.0, "bike_id": "79cafc16206def33fe4b62c76451a22c", "is_reserved": 0, "rental_uris": {"android": "https://dc.lft.to/lastmile_qr_scan", "ios": "https://dc.lft.to/lastmile_qr_scan"}, "lat": 38.913399, "is_disabled": 0, "lon": -77.03640366666667}, {"fusion_lat": 0.0, "type": "electric_scooter", "name": "8b74572917bd79f4d0247d685bfc336c", "fusion_lon": 0.0, "bike_id": "8b74572917bd79f4d0247d685bfc336c", "is_reserved": 0, "rental_uris": {"android": "https://dc.lft.to/lastmile_qr_scan", "ios": "https://dc.lft.to/lastmile_qr_scan"}, "lat": 38.90774433333333, "is_disabled": 0, "lon": -77.0010385}, {"fusion_lat": 0.0, "type": "electric_scooter", "name": "789ab5da20e8406e87351a229e47e048", "fusion_lon": 0.0, "bike_id": "789ab5da20e8406e87351a229e47e048", "is_reserved": 0, "rental_uris": {"android": "https://dc.lft.to/lastmile_qr_scan", "ios": "https://dc.lft.to/lastmile_qr_scan"}, "lat": 38.909449333333335, "is_disabled": 0, "lon": -77.04488983333333}, {"fusion_lat": 0.0, "type": "electric_scooter", "name": "9feee1172e971a159cd884a327f4e81b", "fusion_lon": 0.0, "bike_id": "9feee1172e971a159cd884a327f4e81b", "is_reserved": 0, "rental_uris": {"android": "https://dc.lft.to/lastmile_qr_scan", "ios": "https://dc.lft.to/lastmile_qr_scan"}, "lat": 38.926200333333334, "is_disabled": 0, "lon": -77.04323316666667}, {"fusion_lat": 0.0, "type": "electric_scooter", "name": "9c537085556ec8e8f49d69cad37fe723", "fusion_lon": 0.0, "bike_id": "9c537085556ec8e8f49d69cad37fe723", "is_reserved": 0, "rental_uris": {"android": "https://dc.lft.to/lastmile_qr_scan", "ios": "https://dc.lft.to/lastmile_qr_scan"}, "lat": 38.903536833333334, "is_disabled": 0, "lon": -76.98278183333333}, {"fusion_lat": 0.0, "type": "electric_scooter", "name": "1de5088741b2bdb69875e40a0c1788de", "fusion_lon": 0.0, "bike_id": "1de5088741b2bdb69875e40a0c1788de", "is_reserved": 0, "rental_uris": {"android": "https://dc.lft.to/lastmile_qr_scan", "ios": "https://dc.lft.to/lastmile_qr_scan"}, "lat": 38.957279666666665, "is_disabled": 0, "lon": -77.0241115}, {"fusion_lat": 0.0, "type": "electric_scooter", "name": "7799d9a4a9e707d85a6dea53f89711a8", "fusion_lon": 0.0, "bike_id": "7799d9a4a9e707d85a6dea53f89711a8", "is_reserved": 0, "rental_uris": {"android": "https://dc.lft.to/lastmile_qr_scan", "ios": "https://dc.lft.to/lastmile_qr_scan"}, "lat": 38.915531, "is_disabled": 0, "lon": -77.02433983333333}, {"fusion_lat": 0.0, "type": "electric_scooter", "name": "b67659018a63747c08c0d768a4e2c1b0", "fusion_lon": 0.0, "bike_id": "b67659018a63747c08c0d768a4e2c1b0", "is_reserved": 0, "rental_uris": {"android": "https://dc.lft.to/lastmile_qr_scan", "ios": "https://dc.lft.to/lastmile_qr_scan"}, "lat": 38.90049883333333, "is_disabled": 0, "lon": -77.0487675}, {"fusion_lat": 0.0, "type": "electric_scooter", "name": "8b76d89c6d030b0f66ae4745d4ed8f6a", "fusion_lon": 0.0, "bike_id": "8b76d89c6d030b0f66ae4745d4ed8f6a", "is_reserved": 0, "rental_uris": {"android": "https://dc.lft.to/lastmile_qr_scan", "ios": "https://dc.lft.to/lastmile_qr_scan"}, "lat": 38.892238666666664, "is_disabled": 0, "lon": -77.031907}, {"fusion_lat": 0.0, "type": "electric_scooter", "name": "540f42bfec5bc761ec533c44edba890d", "fusion_lon": 0.0, "bike_id": "540f42bfec5bc761ec533c44edba890d", "is_reserved": 0, "rental_uris": {"android": "https://dc.lft.to/lastmile_qr_scan", "ios": "https://dc.lft.to/lastmile_qr_scan"}, "lat": 38.921462166666664, "is_disabled": 0, "lon": -77.03506466666667}, {"fusion_lat": 0.0, "type": "electric_scooter", "name": "c36a91cf1d6637ed628eafa7a7b6060d", "fusion_lon": 0.0, "bike_id": "c36a91cf1d6637ed628eafa7a7b6060d", "is_reserved": 0, "rental_uris": {"android": "https://dc.lft.to/lastmile_qr_scan", "ios": "https://dc.lft.to/lastmile_qr_scan"}, "lat": 38.911116, "is_disabled": 0, "lon": -77.0208025}, {"fusion_lat": 0.0, "type": "electric_scooter", "name": "2b13d4f905773255e94be2b8d8273ff7", "fusion_lon": 0.0, "bike_id": "2b13d4f905773255e94be2b8d8273ff7", "is_reserved": 0, "rental_uris": {"android": "https://dc.lft.to/lastmile_qr_scan", "ios": "https://dc.lft.to/lastmile_qr_scan"}, "lat": 38.90710716666667, "is_disabled": 0, "lon": -77.074237}, {"fusion_lat": 0.0, "type": "electric_scooter", "name": "01355f8fad40491d714a33e48b50fc7e", "fusion_lon": 0.0, "bike_id": "01355f8fad40491d714a33e48b50fc7e", "is_reserved": 0, "rental_uris": {"android": "https://dc.lft.to/lastmile_qr_scan", "ios": "https://dc.lft.to/lastmile_qr_scan"}, "lat": 38.90561016666667, "is_disabled": 0, "lon": -77.00230766666667}, {"fusion_lat": 0.0, "type": "electric_scooter", "name": "49e39603d4606af719aa6a105e9b2024", "fusion_lon": 0.0, "bike_id": "49e39603d4606af719aa6a105e9b2024", "is_reserved": 0, "rental_uris": {"android": "https://dc.lft.to/lastmile_qr_scan", "ios": "https://dc.lft.to/lastmile_qr_scan"}, "lat": 38.91717083333333, "is_disabled": 0, "lon": -77.03859316666667}, {"fusion_lat": 0.0, "type": "electric_scooter", "name": "259e83840d8ae43f6e9f882d0aa11f9f", "fusion_lon": 0.0, "bike_id": "259e83840d8ae43f6e9f882d0aa11f9f", "is_reserved": 0, "rental_uris": {"android": "https://dc.lft.to/lastmile_qr_scan", "ios": "https://dc.lft.to/lastmile_qr_scan"}, "lat": 38.899146, "is_disabled": 0, "lon": -76.9337005}, {"fusion_lat": 0.0, "type": "electric_scooter", "name": "fe76b123ce3045728e2928c2a815bb3a", "fusion_lon": 0.0, "bike_id": "fe76b123ce3045728e2928c2a815bb3a", "is_reserved": 0, "rental_uris": {"android": "https://dc.lft.to/lastmile_qr_scan", "ios": "https://dc.lft.to/lastmile_qr_scan"}, "lat": 38.90011233333333, "is_disabled": 0, "lon": -77.0260605}, {"fusion_lat": 0.0, "type": "electric_scooter", "name": "e80bb490858f7f676ecbf3c4911357a6", "fusion_lon": 0.0, "bike_id": "e80bb490858f7f676ecbf3c4911357a6", "is_reserved": 0, "rental_uris": {"android": "https://dc.lft.to/lastmile_qr_scan", "ios": "https://dc.lft.to/lastmile_qr_scan"}, "lat": 38.9140535, "is_disabled": 0, "lon": -77.02017833333333}, {"fusion_lat": 0.0, "type": "electric_scooter", "name": "85bd8a74a5041e89f7085f9c2ed2f217", "fusion_lon": 0.0, "bike_id": "85bd8a74a5041e89f7085f9c2ed2f217", "is_reserved": 0, "rental_uris": {"android": "https://dc.lft.to/lastmile_qr_scan", "ios": "https://dc.lft.to/lastmile_qr_scan"}, "lat": 38.896112, "is_disabled": 0, "lon": -77.04472883333334}, {"fusion_lat": 0.0, "type": "electric_scooter", "name": "3f5ac2cce1f7a77e8c64f2357d978e9f", "fusion_lon": 0.0, "bike_id": "3f5ac2cce1f7a77e8c64f2357d978e9f", "is_reserved": 0, "rental_uris": {"android": "https://dc.lft.to/lastmile_qr_scan", "ios": "https://dc.lft.to/lastmile_qr_scan"}, "lat": 38.90261783333333, "is_disabled": 0, "lon": -77.003368}, {"fusion_lat": 0.0, "type": "electric_scooter", "name": "1b76541255edc539595c80e000d47fef", "fusion_lon": 0.0, "bike_id": "1b76541255edc539595c80e000d47fef", "is_reserved": 0, "rental_uris": {"android": "https://dc.lft.to/lastmile_qr_scan", "ios": "https://dc.lft.to/lastmile_qr_scan"}, "lat": 38.917086, "is_disabled": 0, "lon": -77.02382766666666}, {"fusion_lat": 0.0, "type": "electric_scooter", "name": "116cfe44cf19a8cf3c9c9d4d9ff86b59", "fusion_lon": 0.0, "bike_id": "116cfe44cf19a8cf3c9c9d4d9ff86b59", "is_reserved": 0, "rental_uris": {"android": "https://dc.lft.to/lastmile_qr_scan", "ios": "https://dc.lft.to/lastmile_qr_scan"}, "lat": 38.8974135, "is_disabled": 0, "lon": -77.04327783333333}, {"fusion_lat": 0.0, "type": "electric_bike", "name": "320e4f584b9207b6795425618eeb2319", "fusion_lon": 0.0, "bike_id": "320e4f584b9207b6795425618eeb2319", "is_reserved": 0, "rental_uris": {"android": "https://dc.lft.to/lastmile_qr_scan", "ios": "https://dc.lft.to/lastmile_qr_scan"}, "lat": 38.919034833333335, "is_disabled": 0, "lon": -77.070418}, {"fusion_lat": 0.0, "type": "electric_scooter", "name": "046fa64c914c54c702fadf018dcad667", "fusion_lon": 0.0, "bike_id": "046fa64c914c54c702fadf018dcad667", "is_reserved": 0, "rental_uris": {"android": "https://dc.lft.to/lastmile_qr_scan", "ios": "https://dc.lft.to/lastmile_qr_scan"}, "lat": 38.92009633333333, "is_disabled": 0, "lon": -77.03210183333333}, {"fusion_lat": 0.0, "type": "electric_scooter", "name": "db592eefb4ee798e136f4e40356bb570", "fusion_lon": 0.0, "bike_id": "db592eefb4ee798e136f4e40356bb570", "is_reserved": 0, "rental_uris": {"android": "https://dc.lft.to/lastmile_qr_scan", "ios": "https://dc.lft.to/lastmile_qr_scan"}, "lat": 38.9214765, "is_disabled": 0, "lon": -77.03881716666666}, {"fusion_lat": 0.0, "type": "electric_scooter", "name": "b97bf2172a5f493ba2decf1039a7eeb9", "fusion_lon": 0.0, "bike_id": "b97bf2172a5f493ba2decf1039a7eeb9", "is_reserved": 0, "rental_uris": {"android": "https://dc.lft.to/lastmile_qr_scan", "ios": "https://dc.lft.to/lastmile_qr_scan"}, "lat": 38.929137833333336, "is_disabled": 0, "lon": -77.02194466666667}, {"fusion_lat": 0.0, "type": "electric_scooter", "name": "0e7b3f758928a5dd9bab3377b50c2130", "fusion_lon": 0.0, "bike_id": "0e7b3f758928a5dd9bab3377b50c2130", "is_reserved": 0, "rental_uris": {"android": "https://dc.lft.to/lastmile_qr_scan", "ios": "https://dc.lft.to/lastmile_qr_scan"}, "lat": 38.90783866666666, "is_disabled": 0, "lon": -77.07259316666666}, {"fusion_lat": 0.0, "type": "electric_scooter", "name": "6d461813fc8d7ab14d37584794fd7d4c", "fusion_lon": 0.0, "bike_id": "6d461813fc8d7ab14d37584794fd7d4c", "is_reserved": 0, "rental_uris": {"android": "https://dc.lft.to/lastmile_qr_scan", "ios": "https://dc.lft.to/lastmile_qr_scan"}, "lat": 38.92715066666667, "is_disabled": 0, "lon": -77.02083583333334}, {"fusion_lat": 0.0, "type": "electric_scooter", "name": "022bed6f2f4707a7acde71deed7b9c75", "fusion_lon": 0.0, "bike_id": "022bed6f2f4707a7acde71deed7b9c75", "is_reserved": 0, "rental_uris": {"android": "https://dc.lft.to/lastmile_qr_scan", "ios": "https://dc.lft.to/lastmile_qr_scan"}, "lat": 38.9195915, "is_disabled": 0, "lon": -77.01437066666666}, {"fusion_lat": 0.0, "type": "electric_scooter", "name": "472e45b1cc33eaf01cc902ea7fac4c93", "fusion_lon": 0.0, "bike_id": "472e45b1cc33eaf01cc902ea7fac4c93", "is_reserved": 0, "rental_uris": {"android": "https://dc.lft.to/lastmile_qr_scan", "ios": "https://dc.lft.to/lastmile_qr_scan"}, "lat": 38.90513466666667, "is_disabled": 0, "lon": -77.068889}, {"fusion_lat": 0.0, "type": "electric_bike", "name": "99476f5de1d4fa403593a29b6296a264", "fusion_lon": 0.0, "bike_id": "99476f5de1d4fa403593a29b6296a264", "is_reserved": 0, "rental_uris": {"android": "https://dc.lft.to/lastmile_qr_scan", "ios": "https://dc.lft.to/lastmile_qr_scan"}, "lat": 38.872783, "is_disabled": 0, "lon": -77.23330883333334}, {"fusion_lat": 0.0, "type": "electric_scooter", "name": "fb011c5002a2a9f48cef24ba4bc273ac", "fusion_lon": 0.0, "bike_id": "fb011c5002a2a9f48cef24ba4bc273ac", "is_reserved": 0, "rental_uris": {"android": "https://dc.lft.to/lastmile_qr_scan", "ios": "https://dc.lft.to/lastmile_qr_scan"}, "lat": 38.901709833333335, "is_disabled": 0, "lon": -77.060021}, {"fusion_lat": 0.0, "type": "electric_scooter", "name": "90e03567b6acbdf581755a13bcd1b75c", "fusion_lon": 0.0, "bike_id": "90e03567b6acbdf581755a13bcd1b75c", "is_reserved": 0, "rental_uris": {"android": "https://dc.lft.to/lastmile_qr_scan", "ios": "https://dc.lft.to/lastmile_qr_scan"}, "lat": 38.893641833333334, "is_disabled": 0, "lon": -76.94830966666666}, {"fusion_lat": 0.0, "type": "electric_scooter", "name": "37be69f15b62d3fbd2999130a28a315d", "fusion_lon": 0.0, "bike_id": "37be69f15b62d3fbd2999130a28a315d", "is_reserved": 0, "rental_uris": {"android": "https://dc.lft.to/lastmile_qr_scan", "ios": "https://dc.lft.to/lastmile_qr_scan"}, "lat": 38.90070733333334, "is_disabled": 0, "lon": -77.02184866666667}, {"fusion_lat": 0.0, "type": "electric_scooter", "name": "4fac9dc07c1e0a4b4cbabff8c5b05deb", "fusion_lon": 0.0, "bike_id": "4fac9dc07c1e0a4b4cbabff8c5b05deb", "is_reserved": 0, "rental_uris": {"android": "https://dc.lft.to/lastmile_qr_scan", "ios": "https://dc.lft.to/lastmile_qr_scan"}, "lat": 38.898421, "is_disabled": 0, "lon": -76.946398}, {"fusion_lat": 0.0, "type": "electric_scooter", "name": "d1e040503dbe646a665e835587478c7b", "fusion_lon": 0.0, "bike_id": "d1e040503dbe646a665e835587478c7b", "is_reserved": 0, "rental_uris": {"android": "https://dc.lft.to/lastmile_qr_scan", "ios": "https://dc.lft.to/lastmile_qr_scan"}, "lat": 38.908803666666664, "is_disabled": 0, "lon": -77.0466375}, {"fusion_lat": 0.0, "type": "electric_scooter", "name": "b16a0cb366ad76be045a5cbb169f9ab8", "fusion_lon": 0.0, "bike_id": "b16a0cb366ad76be045a5cbb169f9ab8", "is_reserved": 0, "rental_uris": {"android": "https://dc.lft.to/lastmile_qr_scan", "ios": "https://dc.lft.to/lastmile_qr_scan"}, "lat": 38.9268645, "is_disabled": 0, "lon": -77.029723}, {"fusion_lat": 0.0, "type": "electric_scooter", "name": "c536f21ab5e73e3c1f36fa072984c6e3", "fusion_lon": 0.0, "bike_id": "c536f21ab5e73e3c1f36fa072984c6e3", "is_reserved": 0, "rental_uris": {"android": "https://dc.lft.to/lastmile_qr_scan", "ios": "https://dc.lft.to/lastmile_qr_scan"}, "lat": 38.908303, "is_disabled": 0, "lon": -77.04352733333333}, {"fusion_lat": 0.0, "type": "electric_scooter", "name": "1cfb615781be120d085e3ebc45138203", "fusion_lon": 0.0, "bike_id": "1cfb615781be120d085e3ebc45138203", "is_reserved": 0, "rental_uris": {"android": "https://dc.lft.to/lastmile_qr_scan", "ios": "https://dc.lft.to/lastmile_qr_scan"}, "lat": 38.89230383333334, "is_disabled": 0, "lon": -77.05004583333333}, {"fusion_lat": 0.0, "type": "electric_bike", "name": "fec06e42c8d370eee07597abcf3cadb5", "fusion_lon": 0.0, "bike_id": "fec06e42c8d370eee07597abcf3cadb5", "is_reserved": 0, "rental_uris": {"android": "https://dc.lft.to/lastmile_qr_scan", "ios": "https://dc.lft.to/lastmile_qr_scan"}, "lat": 38.8131225, "is_disabled": 0, "lon": -77.1097235}, {"fusion_lat": 0.0, "type": "electric_bike", "name": "bffb33392c9ec2eb7ef9dcdfe4de5a8b", "fusion_lon": 0.0, "bike_id": "bffb33392c9ec2eb7ef9dcdfe4de5a8b", "is_reserved": 0, "rental_uris": {"android": "https://dc.lft.to/lastmile_qr_scan", "ios": "https://dc.lft.to/lastmile_qr_scan"}, "lat": 38.94509716666666, "is_disabled": 0, "lon": -77.006766}, {"fusion_lat": 0.0, "type": "electric_scooter", "name": "5bc1076778daba85574514ab075eb625", "fusion_lon": 0.0, "bike_id": "5bc1076778daba85574514ab075eb625", "is_reserved": 0, "rental_uris": {"android": "https://dc.lft.to/lastmile_qr_scan", "ios": "https://dc.lft.to/lastmile_qr_scan"}, "lat": 38.920868166666665, "is_disabled": 0, "lon": -77.012071}, {"fusion_lat": 0.0, "type": "electric_scooter", "name": "dde5670f57ed8efef5cdf0391ab41fc6", "fusion_lon": 0.0, "bike_id": "dde5670f57ed8efef5cdf0391ab41fc6", "is_reserved": 0, "rental_uris": {"android": "https://dc.lft.to/lastmile_qr_scan", "ios": "https://dc.lft.to/lastmile_qr_scan"}, "lat": 38.92925433333333, "is_disabled": 0, "lon": -77.03766983333334}, {"fusion_lat": 0.0, "type": "electric_scooter", "name": "6fe5e369e417a52caf7a7a1ad6b84834", "fusion_lon": 0.0, "bike_id": "6fe5e369e417a52caf7a7a1ad6b84834", "is_reserved": 0, "rental_uris": {"android": "https://dc.lft.to/lastmile_qr_scan", "ios": "https://dc.lft.to/lastmile_qr_scan"}, "lat": 38.929784166666664, "is_disabled": 0, "lon": -77.05511}, {"fusion_lat": 0.0, "type": "electric_scooter", "name": "dd72f5a538e4449e7a25bd203627a80f", "fusion_lon": 0.0, "bike_id": "dd72f5a538e4449e7a25bd203627a80f", "is_reserved": 0, "rental_uris": {"android": "https://dc.lft.to/lastmile_qr_scan", "ios": "https://dc.lft.to/lastmile_qr_scan"}, "lat": 38.91486866666666, "is_disabled": 0, "lon": -77.02561383333334}, {"fusion_lat": 0.0, "type": "electric_scooter", "name": "a59ea209c6cfbd6bd612a15facda672f", "fusion_lon": 0.0, "bike_id": "a59ea209c6cfbd6bd612a15facda672f", "is_reserved": 0, "rental_uris": {"android": "https://dc.lft.to/lastmile_qr_scan", "ios": "https://dc.lft.to/lastmile_qr_scan"}, "lat": 38.90659333333333, "is_disabled": 0, "lon": -77.03154}, {"fusion_lat": 0.0, "type": "electric_scooter", "name": "6d2fd5dc4e08851e5d88e83092e76e7c", "fusion_lon": 0.0, "bike_id": "6d2fd5dc4e08851e5d88e83092e76e7c", "is_reserved": 0, "rental_uris": {"android": "https://dc.lft.to/lastmile_qr_scan", "ios": "https://dc.lft.to/lastmile_qr_scan"}, "lat": 38.89965266666667, "is_disabled": 0, "lon": -77.01575933333334}, {"fusion_lat": 0.0, "type": "electric_scooter", "name": "c7353f1aab509cc4e4d0f406bf9ca5bf", "fusion_lon": 0.0, "bike_id": "c7353f1aab509cc4e4d0f406bf9ca5bf", "is_reserved": 0, "rental_uris": {"android": "https://dc.lft.to/lastmile_qr_scan", "ios": "https://dc.lft.to/lastmile_qr_scan"}, "lat": 38.909740666666664, "is_disabled": 0, "lon": -77.03863333333334}, {"fusion_lat": 0.0, "type": "electric_scooter", "name": "b0041102627d01d7bfb4f25828110915", "fusion_lon": 0.0, "bike_id": "b0041102627d01d7bfb4f25828110915", "is_reserved": 0, "rental_uris": {"android": "https://dc.lft.to/lastmile_qr_scan", "ios": "https://dc.lft.to/lastmile_qr_scan"}, "lat": 38.916943, "is_disabled": 0, "lon": -77.042635}, {"fusion_lat": 0.0, "type": "electric_scooter", "name": "1c324f28a6b0613e2d6b203af45c6fb0", "fusion_lon": 0.0, "bike_id": "1c324f28a6b0613e2d6b203af45c6fb0", "is_reserved": 0, "rental_uris": {"android": "https://dc.lft.to/lastmile_qr_scan", "ios": "https://dc.lft.to/lastmile_qr_scan"}, "lat": 38.907231333333335, "is_disabled": 0, "lon": -76.99816883333334}, {"fusion_lat": 0.0, "type": "electric_scooter", "name": "65294a779f1f1af12ecc706686967bb3", "fusion_lon": 0.0, "bike_id": "65294a779f1f1af12ecc706686967bb3", "is_reserved": 0, "rental_uris": {"android": "https://dc.lft.to/lastmile_qr_scan", "ios": "https://dc.lft.to/lastmile_qr_scan"}, "lat": 38.942659166666665, "is_disabled": 0, "lon": -77.02841266666667}, {"fusion_lat": 0.0, "type": "electric_bike", "name": "e26af6dc8d2eac992c4012212cddb617", "fusion_lon": 0.0, "bike_id": "e26af6dc8d2eac992c4012212cddb617", "is_reserved": 0, "rental_uris": {"android": "https://dc.lft.to/lastmile_qr_scan", "ios": "https://dc.lft.to/lastmile_qr_scan"}, "lat": 38.94553916666667, "is_disabled": 0, "lon": -76.8954325}, {"fusion_lat": 0.0, "type": "electric_scooter", "name": "4e06d38d5f64b49be87a2f322f6f5f5b", "fusion_lon": 0.0, "bike_id": "4e06d38d5f64b49be87a2f322f6f5f5b", "is_reserved": 0, "rental_uris": {"android": "https://dc.lft.to/lastmile_qr_scan", "ios": "https://dc.lft.to/lastmile_qr_scan"}, "lat": 38.89808983333333, "is_disabled": 0, "lon": -77.039653}, {"fusion_lat": 0.0, "type": "electric_scooter", "name": "cb0b6f0771e01e50a1d58fed3474b5af", "fusion_lon": 0.0, "bike_id": "cb0b6f0771e01e50a1d58fed3474b5af", "is_reserved": 0, "rental_uris": {"android": "https://dc.lft.to/lastmile_qr_scan", "ios": "https://dc.lft.to/lastmile_qr_scan"}, "lat": 38.91991733333333, "is_disabled": 0, "lon": -77.02367483333333}, {"fusion_lat": 0.0, "type": "electric_scooter", "name": "64592eb10dc243fabb5a62adda9dfee7", "fusion_lon": 0.0, "bike_id": "64592eb10dc243fabb5a62adda9dfee7", "is_reserved": 0, "rental_uris": {"android": "https://dc.lft.to/lastmile_qr_scan", "ios": "https://dc.lft.to/lastmile_qr_scan"}, "lat": 38.909486333333334, "is_disabled": 0, "lon": -77.03211366666666}, {"fusion_lat": 0.0, "type": "electric_scooter", "name": "2883cd7d0e41adb6e6cceefbfdbd59d5", "fusion_lon": 0.0, "bike_id": "2883cd7d0e41adb6e6cceefbfdbd59d5", "is_reserved": 0, "rental_uris": {"android": "https://dc.lft.to/lastmile_qr_scan", "ios": "https://dc.lft.to/lastmile_qr_scan"}, "lat": 38.8774685, "is_disabled": 0, "lon": -77.01762666666667}, {"fusion_lat": 0.0, "type": "electric_scooter", "name": "73cda70f98810dbfac977489af311eaf", "fusion_lon": 0.0, "bike_id": "73cda70f98810dbfac977489af311eaf", "is_reserved": 0, "rental_uris": {"android": "https://dc.lft.to/lastmile_qr_scan", "ios": "https://dc.lft.to/lastmile_qr_scan"}, "lat": 38.91711516666667, "is_disabled": 0, "lon": -77.03419233333334}, {"fusion_lat": 0.0, "type": "electric_bike", "name": "f7a865dda69ab8f530b1692086d7d99f", "fusion_lon": 0.0, "bike_id": "f7a865dda69ab8f530b1692086d7d99f", "is_reserved": 0, "rental_uris": {"android": "https://dc.lft.to/lastmile_qr_scan", "ios": "https://dc.lft.to/lastmile_qr_scan"}, "lat": 38.949742, "is_disabled": 0, "lon": -77.07390116666667}, {"fusion_lat": 0.0, "type": "electric_scooter", "name": "49532c46295123b03f024b92f5c3868f", "fusion_lon": 0.0, "bike_id": "49532c46295123b03f024b92f5c3868f", "is_reserved": 0, "rental_uris": {"android": "https://dc.lft.to/lastmile_qr_scan", "ios": "https://dc.lft.to/lastmile_qr_scan"}, "lat": 38.92144316666667, "is_disabled": 0, "lon": -77.020735}, {"fusion_lat": 0.0, "type": "electric_scooter", "name": "0f6ae7965fad8180f2817bf97c5fd0cc", "fusion_lon": 0.0, "bike_id": "0f6ae7965fad8180f2817bf97c5fd0cc", "is_reserved": 0, "rental_uris": {"android": "https://dc.lft.to/lastmile_qr_scan", "ios": "https://dc.lft.to/lastmile_qr_scan"}, "lat": 38.8916885, "is_disabled": 0, "lon": -77.0155}, {"fusion_lat": 0.0, "type": "electric_scooter", "name": "a7d4e0cbbb35c0499a35f846749f78b2", "fusion_lon": 0.0, "bike_id": "a7d4e0cbbb35c0499a35f846749f78b2", "is_reserved": 0, "rental_uris": {"android": "https://dc.lft.to/lastmile_qr_scan", "ios": "https://dc.lft.to/lastmile_qr_scan"}, "lat": 38.906506666666665, "is_disabled": 0, "lon": -77.0481765}, {"fusion_lat": 0.0, "type": "electric_scooter", "name": "40a33e394bb77fe806c2c2ed81bf66ed", "fusion_lon": 0.0, "bike_id": "40a33e394bb77fe806c2c2ed81bf66ed", "is_reserved": 0, "rental_uris": {"android": "https://dc.lft.to/lastmile_qr_scan", "ios": "https://dc.lft.to/lastmile_qr_scan"}, "lat": 38.93714816666667, "is_disabled": 0, "lon": -77.03638033333333}, {"fusion_lat": 0.0, "type": "electric_scooter", "name": "7685e17d7d0e43af646b0d7663581a69", "fusion_lon": 0.0, "bike_id": "7685e17d7d0e43af646b0d7663581a69", "is_reserved": 0, "rental_uris": {"android": "https://dc.lft.to/lastmile_qr_scan", "ios": "https://dc.lft.to/lastmile_qr_scan"}, "lat": 38.92131466666667, "is_disabled": 0, "lon": -76.9955665}, {"fusion_lat": 0.0, "type": "electric_scooter", "name": "2c61cacea04744d4afbd990288b34428", "fusion_lon": 0.0, "bike_id": "2c61cacea04744d4afbd990288b34428", "is_reserved": 0, "rental_uris": {"android": "https://dc.lft.to/lastmile_qr_scan", "ios": "https://dc.lft.to/lastmile_qr_scan"}, "lat": 38.92069583333333, "is_disabled": 0, "lon": -77.02362183333334}, {"fusion_lat": 0.0, "type": "electric_scooter", "name": "60df3703255c54bf3a94c403c9a6dc98", "fusion_lon": 0.0, "bike_id": "60df3703255c54bf3a94c403c9a6dc98", "is_reserved": 0, "rental_uris": {"android": "https://dc.lft.to/lastmile_qr_scan", "ios": "https://dc.lft.to/lastmile_qr_scan"}, "lat": 38.90829866666667, "is_disabled": 0, "lon": -77.00225583333334}, {"fusion_lat": 0.0, "type": "electric_scooter", "name": "3ba49a20ed3be4c0a51bc1a68afba083", "fusion_lon": 0.0, "bike_id": "3ba49a20ed3be4c0a51bc1a68afba083", "is_reserved": 0, "rental_uris": {"android": "https://dc.lft.to/lastmile_qr_scan", "ios": "https://dc.lft.to/lastmile_qr_scan"}, "lat": 38.94180583333333, "is_disabled": 0, "lon": -77.02755333333333}, {"fusion_lat": 0.0, "type": "electric_scooter", "name": "7a44f7dc558f53a6aa27e04a8a5198f7", "fusion_lon": 0.0, "bike_id": "7a44f7dc558f53a6aa27e04a8a5198f7", "is_reserved": 0, "rental_uris": {"android": "https://dc.lft.to/lastmile_qr_scan", "ios": "https://dc.lft.to/lastmile_qr_scan"}, "lat": 38.89351883333333, "is_disabled": 0, "lon": -77.00336383333334}, {"fusion_lat": 0.0, "type": "electric_scooter", "name": "e468808a49cd7589bbbd15febbed1ccd", "fusion_lon": 0.0, "bike_id": "e468808a49cd7589bbbd15febbed1ccd", "is_reserved": 0, "rental_uris": {"android": "https://dc.lft.to/lastmile_qr_scan", "ios": "https://dc.lft.to/lastmile_qr_scan"}, "lat": 38.92005416666667, "is_disabled": 0, "lon": -77.03212633333334}, {"fusion_lat": 0.0, "type": "electric_scooter", "name": "160a220db483c961eab6bbf94495b09f", "fusion_lon": 0.0, "bike_id": "160a220db483c961eab6bbf94495b09f", "is_reserved": 0, "rental_uris": {"android": "https://dc.lft.to/lastmile_qr_scan", "ios": "https://dc.lft.to/lastmile_qr_scan"}, "lat": 38.940807, "is_disabled": 0, "lon": -77.02725666666667}, {"fusion_lat": 0.0, "type": "electric_scooter", "name": "ad39dd16ee25e0c4aafff947c94a3cc8", "fusion_lon": 0.0, "bike_id": "ad39dd16ee25e0c4aafff947c94a3cc8", "is_reserved": 0, "rental_uris": {"android": "https://dc.lft.to/lastmile_qr_scan", "ios": "https://dc.lft.to/lastmile_qr_scan"}, "lat": 38.91679283333333, "is_disabled": 0, "lon": -77.03688033333333}, {"fusion_lat": 0.0, "type": "electric_scooter", "name": "a0b04792dbc91e624c547b2ff2864665", "fusion_lon": 0.0, "bike_id": "a0b04792dbc91e624c547b2ff2864665", "is_reserved": 0, "rental_uris": {"android": "https://dc.lft.to/lastmile_qr_scan", "ios": "https://dc.lft.to/lastmile_qr_scan"}, "lat": 38.92680516666667, "is_disabled": 0, "lon": -77.01479316666666}, {"fusion_lat": 0.0, "type": "electric_scooter", "name": "0adf9edec3e6da83fe424b2029ba0b4a", "fusion_lon": 0.0, "bike_id": "0adf9edec3e6da83fe424b2029ba0b4a", "is_reserved": 0, "rental_uris": {"android": "https://dc.lft.to/lastmile_qr_scan", "ios": "https://dc.lft.to/lastmile_qr_scan"}, "lat": 38.88117666666667, "is_disabled": 0, "lon": -76.990093}, {"fusion_lat": 0.0, "type": "electric_scooter", "name": "4cf2ca54ab8688c9c289e3f751622b7e", "fusion_lon": 0.0, "bike_id": "4cf2ca54ab8688c9c289e3f751622b7e", "is_reserved": 0, "rental_uris": {"android": "https://dc.lft.to/lastmile_qr_scan", "ios": "https://dc.lft.to/lastmile_qr_scan"}, "lat": 38.92788, "is_disabled": 0, "lon": -77.031552}, {"fusion_lat": 0.0, "type": "electric_scooter", "name": "3ec481be6cd5b2664c8f8d960e163fb2", "fusion_lon": 0.0, "bike_id": "3ec481be6cd5b2664c8f8d960e163fb2", "is_reserved": 0, "rental_uris": {"android": "https://dc.lft.to/lastmile_qr_scan", "ios": "https://dc.lft.to/lastmile_qr_scan"}, "lat": 38.9112455, "is_disabled": 0, "lon": -77.02202016666666}, {"fusion_lat": 0.0, "type": "electric_scooter", "name": "96bef7d592424d1121d783228112dfba", "fusion_lon": 0.0, "bike_id": "96bef7d592424d1121d783228112dfba", "is_reserved": 0, "rental_uris": {"android": "https://dc.lft.to/lastmile_qr_scan", "ios": "https://dc.lft.to/lastmile_qr_scan"}, "lat": 38.900093, "is_disabled": 0, "lon": -77.03977666666667}, {"fusion_lat": 0.0, "type": "electric_scooter", "name": "c10783cd95525a8082ea5dd0c0fce54b", "fusion_lon": 0.0, "bike_id": "c10783cd95525a8082ea5dd0c0fce54b", "is_reserved": 0, "rental_uris": {"android": "https://dc.lft.to/lastmile_qr_scan", "ios": "https://dc.lft.to/lastmile_qr_scan"}, "lat": 38.91735366666666, "is_disabled": 0, "lon": -77.01803466666667}, {"fusion_lat": 0.0, "type": "electric_scooter", "name": "50bb49baca1e971482afa3b945ac7c18", "fusion_lon": 0.0, "bike_id": "50bb49baca1e971482afa3b945ac7c18", "is_reserved": 0, "rental_uris": {"android": "https://dc.lft.to/lastmile_qr_scan", "ios": "https://dc.lft.to/lastmile_qr_scan"}, "lat": 38.90982833333333, "is_disabled": 0, "lon": -77.03242183333333}, {"fusion_lat": 0.0, "type": "electric_scooter", "name": "32dc8340ed8a0b96e3fd6fcf1d613bd1", "fusion_lon": 0.0, "bike_id": "32dc8340ed8a0b96e3fd6fcf1d613bd1", "is_reserved": 0, "rental_uris": {"android": "https://dc.lft.to/lastmile_qr_scan", "ios": "https://dc.lft.to/lastmile_qr_scan"}, "lat": 38.920107, "is_disabled": 0, "lon": -77.0240335}, {"fusion_lat": 0.0, "type": "electric_scooter", "name": "4b774eed707a56d7983a4ae01381d69f", "fusion_lon": 0.0, "bike_id": "4b774eed707a56d7983a4ae01381d69f", "is_reserved": 0, "rental_uris": {"android": "https://dc.lft.to/lastmile_qr_scan", "ios": "https://dc.lft.to/lastmile_qr_scan"}, "lat": 38.911733, "is_disabled": 0, "lon": -77.00453816666666}, {"fusion_lat": 0.0, "type": "electric_scooter", "name": "c2a9122572d61ed15710a530742afc84", "fusion_lon": 0.0, "bike_id": "c2a9122572d61ed15710a530742afc84", "is_reserved": 0, "rental_uris": {"android": "https://dc.lft.to/lastmile_qr_scan", "ios": "https://dc.lft.to/lastmile_qr_scan"}, "lat": 38.90972683333333, "is_disabled": 0, "lon": -77.03447333333334}, {"fusion_lat": 0.0, "type": "electric_bike", "name": "da67e12c352311699821246beced679c", "fusion_lon": 0.0, "bike_id": "da67e12c352311699821246beced679c", "is_reserved": 0, "rental_uris": {"android": "https://dc.lft.to/lastmile_qr_scan", "ios": "https://dc.lft.to/lastmile_qr_scan"}, "lat": 38.829542000000004, "is_disabled": 0, "lon": -77.12356283333334}, {"fusion_lat": 0.0, "type": "electric_scooter", "name": "829f45a4d7bcd14ef0e5cafd72b9d7b8", "fusion_lon": 0.0, "bike_id": "829f45a4d7bcd14ef0e5cafd72b9d7b8", "is_reserved": 0, "rental_uris": {"android": "https://dc.lft.to/lastmile_qr_scan", "ios": "https://dc.lft.to/lastmile_qr_scan"}, "lat": 38.9314565, "is_disabled": 0, "lon": -77.02989033333333}, {"fusion_lat": 0.0, "type": "electric_bike", "name": "354178c03f94246ebe7c33e8a93cad20", "fusion_lon": 0.0, "bike_id": "354178c03f94246ebe7c33e8a93cad20", "is_reserved": 0, "rental_uris": {"android": "https://dc.lft.to/lastmile_qr_scan", "ios": "https://dc.lft.to/lastmile_qr_scan"}, "lat": 38.937727833333334, "is_disabled": 0, "lon": -77.03367083333333}, {"fusion_lat": 0.0, "type": "electric_scooter", "name": "2439d706e9778dd2078cc06d9aa32e35", "fusion_lon": 0.0, "bike_id": "2439d706e9778dd2078cc06d9aa32e35", "is_reserved": 0, "rental_uris": {"android": "https://dc.lft.to/lastmile_qr_scan", "ios": "https://dc.lft.to/lastmile_qr_scan"}, "lat": 38.91065666666667, "is_disabled": 0, "lon": -77.05309833333334}, {"fusion_lat": 0.0, "type": "electric_scooter", "name": "6a8bcc2bc4f6ba6e1805a1cc727d50ae", "fusion_lon": 0.0, "bike_id": "6a8bcc2bc4f6ba6e1805a1cc727d50ae", "is_reserved": 0, "rental_uris": {"android": "https://dc.lft.to/lastmile_qr_scan", "ios": "https://dc.lft.to/lastmile_qr_scan"}, "lat": 38.92745133333333, "is_disabled": 0, "lon": -77.0214855}, {"fusion_lat": 0.0, "type": "electric_scooter", "name": "40b5c2c4a23f8ee2dcbf345142585a9e", "fusion_lon": 0.0, "bike_id": "40b5c2c4a23f8ee2dcbf345142585a9e", "is_reserved": 0, "rental_uris": {"android": "https://dc.lft.to/lastmile_qr_scan", "ios": "https://dc.lft.to/lastmile_qr_scan"}, "lat": 38.905310666666665, "is_disabled": 0, "lon": -77.06852883333333}, {"fusion_lat": 0.0, "type": "electric_scooter", "name": "d43e16053b85fe8bdf836dfe7d87ac2e", "fusion_lon": 0.0, "bike_id": "d43e16053b85fe8bdf836dfe7d87ac2e", "is_reserved": 0, "rental_uris": {"android": "https://dc.lft.to/lastmile_qr_scan", "ios": "https://dc.lft.to/lastmile_qr_scan"}, "lat": 38.9196605, "is_disabled": 0, "lon": -77.0450665}, {"fusion_lat": 0.0, "type": "electric_scooter", "name": "a5ba0d51d57120d22ce6ee0d050d7cc0", "fusion_lon": 0.0, "bike_id": "a5ba0d51d57120d22ce6ee0d050d7cc0", "is_reserved": 0, "rental_uris": {"android": "https://dc.lft.to/lastmile_qr_scan", "ios": "https://dc.lft.to/lastmile_qr_scan"}, "lat": 38.872311, "is_disabled": 0, "lon": -77.01174733333333}, {"fusion_lat": 0.0, "type": "electric_scooter", "name": "2d2b659132f0ecbbe6bf683aa1d7f061", "fusion_lon": 0.0, "bike_id": "2d2b659132f0ecbbe6bf683aa1d7f061", "is_reserved": 0, "rental_uris": {"android": "https://dc.lft.to/lastmile_qr_scan", "ios": "https://dc.lft.to/lastmile_qr_scan"}, "lat": 38.888475666666665, "is_disabled": 0, "lon": -76.92681666666667}, {"fusion_lat": 0.0, "type": "electric_scooter", "name": "d0eda3f382aed7c82ddb70848e004921", "fusion_lon": 0.0, "bike_id": "d0eda3f382aed7c82ddb70848e004921", "is_reserved": 0, "rental_uris": {"android": "https://dc.lft.to/lastmile_qr_scan", "ios": "https://dc.lft.to/lastmile_qr_scan"}, "lat": 38.92132083333333, "is_disabled": 0, "lon": -77.01805583333334}, {"fusion_lat": 0.0, "type": "electric_scooter", "name": "80b3d829612c31a75a9f2c0b7ead7a65", "fusion_lon": 0.0, "bike_id": "80b3d829612c31a75a9f2c0b7ead7a65", "is_reserved": 0, "rental_uris": {"android": "https://dc.lft.to/lastmile_qr_scan", "ios": "https://dc.lft.to/lastmile_qr_scan"}, "lat": 38.91646183333334, "is_disabled": 0, "lon": -77.036572}, {"fusion_lat": 0.0, "type": "electric_bike", "name": "c3d07daafc3aca2fd83f5a7cb9393f17", "fusion_lon": 0.0, "bike_id": "c3d07daafc3aca2fd83f5a7cb9393f17", "is_reserved": 0, "rental_uris": {"android": "https://dc.lft.to/lastmile_qr_scan", "ios": "https://dc.lft.to/lastmile_qr_scan"}, "lat": 38.98549, "is_disabled": 0, "lon": -77.004011}, {"fusion_lat": 0.0, "type": "electric_scooter", "name": "decd467b3000718426e384af22bc677e", "fusion_lon": 0.0, "bike_id": "decd467b3000718426e384af22bc677e", "is_reserved": 0, "rental_uris": {"android": "https://dc.lft.to/lastmile_qr_scan", "ios": "https://dc.lft.to/lastmile_qr_scan"}, "lat": 38.918118, "is_disabled": 0, "lon": -77.0336685}, {"fusion_lat": 0.0, "type": "electric_scooter", "name": "714c65e2c3b55434856b80bb370e8e1c", "fusion_lon": 0.0, "bike_id": "714c65e2c3b55434856b80bb370e8e1c", "is_reserved": 0, "rental_uris": {"android": "https://dc.lft.to/lastmile_qr_scan", "ios": "https://dc.lft.to/lastmile_qr_scan"}, "lat": 38.907309166666664, "is_disabled": 0, "lon": -77.04340633333334}, {"fusion_lat": 0.0, "type": "electric_scooter", "name": "2a7a8983b7cbad148ab9fe75e1faa829", "fusion_lon": 0.0, "bike_id": "2a7a8983b7cbad148ab9fe75e1faa829", "is_reserved": 0, "rental_uris": {"android": "https://dc.lft.to/lastmile_qr_scan", "ios": "https://dc.lft.to/lastmile_qr_scan"}, "lat": 38.9079435, "is_disabled": 0, "lon": -77.03841}, {"fusion_lat": 0.0, "type": "electric_scooter", "name": "b5ce0d46f3c773a5f89070130b412a4c", "fusion_lon": 0.0, "bike_id": "b5ce0d46f3c773a5f89070130b412a4c", "is_reserved": 0, "rental_uris": {"android": "https://dc.lft.to/lastmile_qr_scan", "ios": "https://dc.lft.to/lastmile_qr_scan"}, "lat": 38.90743883333333, "is_disabled": 0, "lon": -77.0077385}, {"fusion_lat": 0.0, "type": "electric_bike", "name": "d4e86871ad95b0494a9314f7e0048af7", "fusion_lon": 0.0, "bike_id": "d4e86871ad95b0494a9314f7e0048af7", "is_reserved": 0, "rental_uris": {"android": "https://dc.lft.to/lastmile_qr_scan", "ios": "https://dc.lft.to/lastmile_qr_scan"}, "lat": 38.996774, "is_disabled": 0, "lon": -77.03785716666667}, {"fusion_lat": 0.0, "type": "electric_scooter", "name": "b613700d0ef8bc435258e618b41dfc5b", "fusion_lon": 0.0, "bike_id": "b613700d0ef8bc435258e618b41dfc5b", "is_reserved": 0, "rental_uris": {"android": "https://dc.lft.to/lastmile_qr_scan", "ios": "https://dc.lft.to/lastmile_qr_scan"}, "lat": 38.8719615, "is_disabled": 0, "lon": -77.00569633333333}, {"fusion_lat": 0.0, "type": "electric_bike", "name": "7c0591a50ed8ec822ce4df5267aae167", "fusion_lon": 0.0, "bike_id": "7c0591a50ed8ec822ce4df5267aae167", "is_reserved": 0, "rental_uris": {"android": "https://dc.lft.to/lastmile_qr_scan", "ios": "https://dc.lft.to/lastmile_qr_scan"}, "lat": 38.869386666666664, "is_disabled": 0, "lon": -77.09468333333334}, {"fusion_lat": 0.0, "type": "electric_scooter", "name": "5b40f9d17c53c124154adba8c8c803f7", "fusion_lon": 0.0, "bike_id": "5b40f9d17c53c124154adba8c8c803f7", "is_reserved": 0, "rental_uris": {"android": "https://dc.lft.to/lastmile_qr_scan", "ios": "https://dc.lft.to/lastmile_qr_scan"}, "lat": 38.93558983333333, "is_disabled": 0, "lon": -77.08207033333333}, {"fusion_lat": 0.0, "type": "electric_scooter", "name": "4dfb5ed4761c2c20ea93d053aee91aea", "fusion_lon": 0.0, "bike_id": "4dfb5ed4761c2c20ea93d053aee91aea", "is_reserved": 0, "rental_uris": {"android": "https://dc.lft.to/lastmile_qr_scan", "ios": "https://dc.lft.to/lastmile_qr_scan"}, "lat": 38.9051375, "is_disabled": 0, "lon": -77.048351}, {"fusion_lat": 0.0, "type": "electric_scooter", "name": "17d4bf62eb7a7b735c06b008616d0ba7", "fusion_lon": 0.0, "bike_id": "17d4bf62eb7a7b735c06b008616d0ba7", "is_reserved": 0, "rental_uris": {"android": "https://dc.lft.to/lastmile_qr_scan", "ios": "https://dc.lft.to/lastmile_qr_scan"}, "lat": 38.90006433333333, "is_disabled": 0, "lon": -77.02629366666666}, {"fusion_lat": 0.0, "type": "electric_scooter", "name": "408cf9edc2e84efd4e7ec4343f9de6fc", "fusion_lon": 0.0, "bike_id": "408cf9edc2e84efd4e7ec4343f9de6fc", "is_reserved": 0, "rental_uris": {"android": "https://dc.lft.to/lastmile_qr_scan", "ios": "https://dc.lft.to/lastmile_qr_scan"}, "lat": 38.89224333333333, "is_disabled": 0, "lon": -77.02346583333333}, {"fusion_lat": 0.0, "type": "electric_scooter", "name": "23e03953712b3c40f3978a61e05ba24c", "fusion_lon": 0.0, "bike_id": "23e03953712b3c40f3978a61e05ba24c", "is_reserved": 0, "rental_uris": {"android": "https://dc.lft.to/lastmile_qr_scan", "ios": "https://dc.lft.to/lastmile_qr_scan"}, "lat": 38.93102433333333, "is_disabled": 0, "lon": -77.032806}, {"fusion_lat": 0.0, "type": "electric_scooter", "name": "b78ced5a296066147ec1a6f9106c720d", "fusion_lon": 0.0, "bike_id": "b78ced5a296066147ec1a6f9106c720d", "is_reserved": 0, "rental_uris": {"android": "https://dc.lft.to/lastmile_qr_scan", "ios": "https://dc.lft.to/lastmile_qr_scan"}, "lat": 38.885922, "is_disabled": 0, "lon": -77.01232866666666}, {"fusion_lat": 0.0, "type": "electric_scooter", "name": "0b26656370f8636971f22d6d915850ea", "fusion_lon": 0.0, "bike_id": "0b26656370f8636971f22d6d915850ea", "is_reserved": 0, "rental_uris": {"android": "https://dc.lft.to/lastmile_qr_scan", "ios": "https://dc.lft.to/lastmile_qr_scan"}, "lat": 38.8928025, "is_disabled": 0, "lon": -77.031721}, {"fusion_lat": 0.0, "type": "electric_scooter", "name": "0345a4df42e1bac709be130547e5d031", "fusion_lon": 0.0, "bike_id": "0345a4df42e1bac709be130547e5d031", "is_reserved": 0, "rental_uris": {"android": "https://dc.lft.to/lastmile_qr_scan", "ios": "https://dc.lft.to/lastmile_qr_scan"}, "lat": 38.86504266666667, "is_disabled": 0, "lon": -76.99009066666666}, {"fusion_lat": 0.0, "type": "electric_scooter", "name": "a913245825346cee31878e71ef22c66a", "fusion_lon": 0.0, "bike_id": "a913245825346cee31878e71ef22c66a", "is_reserved": 0, "rental_uris": {"android": "https://dc.lft.to/lastmile_qr_scan", "ios": "https://dc.lft.to/lastmile_qr_scan"}, "lat": 38.925789333333334, "is_disabled": 0, "lon": -77.0261525}, {"fusion_lat": 0.0, "type": "electric_scooter", "name": "6b612550bd7d13cca750de4e3f5617bf", "fusion_lon": 0.0, "bike_id": "6b612550bd7d13cca750de4e3f5617bf", "is_reserved": 0, "rental_uris": {"android": "https://dc.lft.to/lastmile_qr_scan", "ios": "https://dc.lft.to/lastmile_qr_scan"}, "lat": 38.887403, "is_disabled": 0, "lon": -77.02733666666667}, {"fusion_lat": 0.0, "type": "electric_scooter", "name": "55a53549166fa281d2f48309c00b7398", "fusion_lon": 0.0, "bike_id": "55a53549166fa281d2f48309c00b7398", "is_reserved": 0, "rental_uris": {"android": "https://dc.lft.to/lastmile_qr_scan", "ios": "https://dc.lft.to/lastmile_qr_scan"}, "lat": 38.89234183333333, "is_disabled": 0, "lon": -77.03144066666667}, {"fusion_lat": 0.0, "type": "electric_scooter", "name": "d2cd3ba6b35fc3a051b4fbe685d7666b", "fusion_lon": 0.0, "bike_id": "d2cd3ba6b35fc3a051b4fbe685d7666b", "is_reserved": 0, "rental_uris": {"android": "https://dc.lft.to/lastmile_qr_scan", "ios": "https://dc.lft.to/lastmile_qr_scan"}, "lat": 38.9072305, "is_disabled": 0, "lon": -77.032027}, {"fusion_lat": 0.0, "type": "electric_scooter", "name": "da3168776f83fd95b3b11e096fc31207", "fusion_lon": 0.0, "bike_id": "da3168776f83fd95b3b11e096fc31207", "is_reserved": 0, "rental_uris": {"android": "https://dc.lft.to/lastmile_qr_scan", "ios": "https://dc.lft.to/lastmile_qr_scan"}, "lat": 38.910560333333336, "is_disabled": 0, "lon": -77.05319316666667}, {"fusion_lat": 0.0, "type": "electric_scooter", "name": "ca00004639e4e83b0092a85afe1fc37b", "fusion_lon": 0.0, "bike_id": "ca00004639e4e83b0092a85afe1fc37b", "is_reserved": 0, "rental_uris": {"android": "https://dc.lft.to/lastmile_qr_scan", "ios": "https://dc.lft.to/lastmile_qr_scan"}, "lat": 38.93091366666667, "is_disabled": 0, "lon": -77.0375095}, {"fusion_lat": 0.0, "type": "electric_scooter", "name": "1f6ba0d7b42e9fa1d0fc7cdcbae012aa", "fusion_lon": 0.0, "bike_id": "1f6ba0d7b42e9fa1d0fc7cdcbae012aa", "is_reserved": 0, "rental_uris": {"android": "https://dc.lft.to/lastmile_qr_scan", "ios": "https://dc.lft.to/lastmile_qr_scan"}, "lat": 38.8867915, "is_disabled": 0, "lon": -76.95468383333333}, {"fusion_lat": 0.0, "type": "electric_scooter", "name": "cec65b92b3ab98fc035019b4534ce810", "fusion_lon": 0.0, "bike_id": "cec65b92b3ab98fc035019b4534ce810", "is_reserved": 0, "rental_uris": {"android": "https://dc.lft.to/lastmile_qr_scan", "ios": "https://dc.lft.to/lastmile_qr_scan"}, "lat": 38.90884616666666, "is_disabled": 0, "lon": -76.9854325}, {"fusion_lat": 0.0, "type": "electric_scooter", "name": "e79d33fc0bff13b52e8174f66286dda5", "fusion_lon": 0.0, "bike_id": "e79d33fc0bff13b52e8174f66286dda5", "is_reserved": 0, "rental_uris": {"android": "https://dc.lft.to/lastmile_qr_scan", "ios": "https://dc.lft.to/lastmile_qr_scan"}, "lat": 38.90586283333333, "is_disabled": 0, "lon": -77.02596266666667}, {"fusion_lat": 0.0, "type": "electric_scooter", "name": "8c9d687e77414bec92c90ade43053609", "fusion_lon": 0.0, "bike_id": "8c9d687e77414bec92c90ade43053609", "is_reserved": 0, "rental_uris": {"android": "https://dc.lft.to/lastmile_qr_scan", "ios": "https://dc.lft.to/lastmile_qr_scan"}, "lat": 38.9046855, "is_disabled": 0, "lon": -76.98055133333334}, {"fusion_lat": 0.0, "type": "electric_scooter", "name": "c3aaff63aa73af56346a4f9409238402", "fusion_lon": 0.0, "bike_id": "c3aaff63aa73af56346a4f9409238402", "is_reserved": 0, "rental_uris": {"android": "https://dc.lft.to/lastmile_qr_scan", "ios": "https://dc.lft.to/lastmile_qr_scan"}, "lat": 38.89234183333333, "is_disabled": 0, "lon": -77.023853}, {"fusion_lat": 0.0, "type": "electric_scooter", "name": "5db295ee39bbd84e3093272924a00d6e", "fusion_lon": 0.0, "bike_id": "5db295ee39bbd84e3093272924a00d6e", "is_reserved": 0, "rental_uris": {"android": "https://dc.lft.to/lastmile_qr_scan", "ios": "https://dc.lft.to/lastmile_qr_scan"}, "lat": 38.91103566666666, "is_disabled": 0, "lon": -77.04486066666666}, {"fusion_lat": 0.0, "type": "electric_scooter", "name": "06f4cfe3aeaea2933717541c207f7235", "fusion_lon": 0.0, "bike_id": "06f4cfe3aeaea2933717541c207f7235", "is_reserved": 0, "rental_uris": {"android": "https://dc.lft.to/lastmile_qr_scan", "ios": "https://dc.lft.to/lastmile_qr_scan"}, "lat": 38.872455333333335, "is_disabled": 0, "lon": -76.97733083333334}, {"fusion_lat": 0.0, "type": "electric_scooter", "name": "32b7c4140be8dd20b0c0b0f4f9bbd87e", "fusion_lon": 0.0, "bike_id": "32b7c4140be8dd20b0c0b0f4f9bbd87e", "is_reserved": 0, "rental_uris": {"android": "https://dc.lft.to/lastmile_qr_scan", "ios": "https://dc.lft.to/lastmile_qr_scan"}, "lat": 38.89996516666667, "is_disabled": 0, "lon": -77.0012685}, {"fusion_lat": 0.0, "type": "electric_scooter", "name": "341ccc8303c1493e83622181b9b912fb", "fusion_lon": 0.0, "bike_id": "341ccc8303c1493e83622181b9b912fb", "is_reserved": 0, "rental_uris": {"android": "https://dc.lft.to/lastmile_qr_scan", "ios": "https://dc.lft.to/lastmile_qr_scan"}, "lat": 38.893589, "is_disabled": 0, "lon": -77.02223016666667}, {"fusion_lat": 0.0, "type": "electric_scooter", "name": "c30967162f1f913213bd4a79e10f2c1d", "fusion_lon": 0.0, "bike_id": "c30967162f1f913213bd4a79e10f2c1d", "is_reserved": 0, "rental_uris": {"android": "https://dc.lft.to/lastmile_qr_scan", "ios": "https://dc.lft.to/lastmile_qr_scan"}, "lat": 38.8932965, "is_disabled": 0, "lon": -77.046791}, {"fusion_lat": 0.0, "type": "electric_scooter", "name": "9a6032a16ae34226847e331ec396addb", "fusion_lon": 0.0, "bike_id": "9a6032a16ae34226847e331ec396addb", "is_reserved": 0, "rental_uris": {"android": "https://dc.lft.to/lastmile_qr_scan", "ios": "https://dc.lft.to/lastmile_qr_scan"}, "lat": 38.90020833333333, "is_disabled": 0, "lon": -77.044152}, {"fusion_lat": 0.0, "type": "electric_scooter", "name": "a5ef108ccc5b2fe36fd6cdea3e76053b", "fusion_lon": 0.0, "bike_id": "a5ef108ccc5b2fe36fd6cdea3e76053b", "is_reserved": 0, "rental_uris": {"android": "https://dc.lft.to/lastmile_qr_scan", "ios": "https://dc.lft.to/lastmile_qr_scan"}, "lat": 38.919720166666664, "is_disabled": 0, "lon": -77.012172}, {"fusion_lat": 0.0, "type": "electric_scooter", "name": "c1e8a5c1ac9fd81d01bf34addce60ff2", "fusion_lon": 0.0, "bike_id": "c1e8a5c1ac9fd81d01bf34addce60ff2", "is_reserved": 0, "rental_uris": {"android": "https://dc.lft.to/lastmile_qr_scan", "ios": "https://dc.lft.to/lastmile_qr_scan"}, "lat": 38.915975, "is_disabled": 0, "lon": -77.03194233333333}, {"fusion_lat": 0.0, "type": "electric_scooter", "name": "4adf60a4e54419adf3c87eb98587ddb6", "fusion_lon": 0.0, "bike_id": "4adf60a4e54419adf3c87eb98587ddb6", "is_reserved": 0, "rental_uris": {"android": "https://dc.lft.to/lastmile_qr_scan", "ios": "https://dc.lft.to/lastmile_qr_scan"}, "lat": 38.928237, "is_disabled": 0, "lon": -77.021536}, {"fusion_lat": 0.0, "type": "electric_scooter", "name": "55cfa7323ec9ecf36219a15138590331", "fusion_lon": 0.0, "bike_id": "55cfa7323ec9ecf36219a15138590331", "is_reserved": 0, "rental_uris": {"android": "https://dc.lft.to/lastmile_qr_scan", "ios": "https://dc.lft.to/lastmile_qr_scan"}, "lat": 38.939614666666664, "is_disabled": 0, "lon": -77.02510433333333}, {"fusion_lat": 0.0, "type": "electric_scooter", "name": "8e36e987cfd6a11c1e0c51b5ee78a17f", "fusion_lon": 0.0, "bike_id": "8e36e987cfd6a11c1e0c51b5ee78a17f", "is_reserved": 0, "rental_uris": {"android": "https://dc.lft.to/lastmile_qr_scan", "ios": "https://dc.lft.to/lastmile_qr_scan"}, "lat": 38.9959595, "is_disabled": 0, "lon": -77.03218866666667}, {"fusion_lat": 0.0, "type": "electric_scooter", "name": "ad672f6f49bd67b6022848a2b9034a66", "fusion_lon": 0.0, "bike_id": "ad672f6f49bd67b6022848a2b9034a66", "is_reserved": 0, "rental_uris": {"android": "https://dc.lft.to/lastmile_qr_scan", "ios": "https://dc.lft.to/lastmile_qr_scan"}, "lat": 38.88449766666667, "is_disabled": 0, "lon": -76.92952316666667}, {"fusion_lat": 0.0, "type": "electric_scooter", "name": "0340277dad799404f927e8193a19f109", "fusion_lon": 0.0, "bike_id": "0340277dad799404f927e8193a19f109", "is_reserved": 0, "rental_uris": {"android": "https://dc.lft.to/lastmile_qr_scan", "ios": "https://dc.lft.to/lastmile_qr_scan"}, "lat": 38.90390083333333, "is_disabled": 0, "lon": -77.03848633333334}, {"fusion_lat": 0.0, "type": "electric_scooter", "name": "77dfbdaf645568c66cee097556adf93b", "fusion_lon": 0.0, "bike_id": "77dfbdaf645568c66cee097556adf93b", "is_reserved": 0, "rental_uris": {"android": "https://dc.lft.to/lastmile_qr_scan", "ios": "https://dc.lft.to/lastmile_qr_scan"}, "lat": 38.909737666666665, "is_disabled": 0, "lon": -77.03869566666667}, {"fusion_lat": 0.0, "type": "electric_scooter", "name": "7ac95c1f27b6ed3d86f58e462c2a9d44", "fusion_lon": 0.0, "bike_id": "7ac95c1f27b6ed3d86f58e462c2a9d44", "is_reserved": 0, "rental_uris": {"android": "https://dc.lft.to/lastmile_qr_scan", "ios": "https://dc.lft.to/lastmile_qr_scan"}, "lat": 38.887987833333334, "is_disabled": 0, "lon": -76.93356683333333}, {"fusion_lat": 0.0, "type": "electric_scooter", "name": "2c48472c768d7aecd45c948671dc93c6", "fusion_lon": 0.0, "bike_id": "2c48472c768d7aecd45c948671dc93c6", "is_reserved": 0, "rental_uris": {"android": "https://dc.lft.to/lastmile_qr_scan", "ios": "https://dc.lft.to/lastmile_qr_scan"}, "lat": 38.90656833333333, "is_disabled": 0, "lon": -77.03875283333333}, {"fusion_lat": 0.0, "type": "electric_scooter", "name": "d8b08256a6cd3bc1ab43c1c03c159722", "fusion_lon": 0.0, "bike_id": "d8b08256a6cd3bc1ab43c1c03c159722", "is_reserved": 0, "rental_uris": {"android": "https://dc.lft.to/lastmile_qr_scan", "ios": "https://dc.lft.to/lastmile_qr_scan"}, "lat": 38.915525, "is_disabled": 0, "lon": -77.02556416666667}, {"fusion_lat": 0.0, "type": "electric_scooter", "name": "fb20ac773af8e703bbec5f1dd6c8e70b", "fusion_lon": 0.0, "bike_id": "fb20ac773af8e703bbec5f1dd6c8e70b", "is_reserved": 0, "rental_uris": {"android": "https://dc.lft.to/lastmile_qr_scan", "ios": "https://dc.lft.to/lastmile_qr_scan"}, "lat": 38.917885, "is_disabled": 0, "lon": -77.03183066666666}, {"fusion_lat": 0.0, "type": "electric_scooter", "name": "870dfe42907d26cdaad19e0fe9979979", "fusion_lon": 0.0, "bike_id": "870dfe42907d26cdaad19e0fe9979979", "is_reserved": 0, "rental_uris": {"android": "https://dc.lft.to/lastmile_qr_scan", "ios": "https://dc.lft.to/lastmile_qr_scan"}, "lat": 38.909718, "is_disabled": 0, "lon": -77.034724}, {"fusion_lat": 0.0, "type": "electric_scooter", "name": "4c8eb1e3bcafd063e3794fcb14878f18", "fusion_lon": 0.0, "bike_id": "4c8eb1e3bcafd063e3794fcb14878f18", "is_reserved": 0, "rental_uris": {"android": "https://dc.lft.to/lastmile_qr_scan", "ios": "https://dc.lft.to/lastmile_qr_scan"}, "lat": 38.91802833333333, "is_disabled": 0, "lon": -77.0344215}, {"fusion_lat": 0.0, "type": "electric_scooter", "name": "3df856a1a22fbe2afea1d95ec1c8cebc", "fusion_lon": 0.0, "bike_id": "3df856a1a22fbe2afea1d95ec1c8cebc", "is_reserved": 0, "rental_uris": {"android": "https://dc.lft.to/lastmile_qr_scan", "ios": "https://dc.lft.to/lastmile_qr_scan"}, "lat": 38.922382, "is_disabled": 0, "lon": -77.03086566666667}, {"fusion_lat": 0.0, "type": "electric_scooter", "name": "085e806228264365aa50b976440d9199", "fusion_lon": 0.0, "bike_id": "085e806228264365aa50b976440d9199", "is_reserved": 0, "rental_uris": {"android": "https://dc.lft.to/lastmile_qr_scan", "ios": "https://dc.lft.to/lastmile_qr_scan"}, "lat": 38.876226333333335, "is_disabled": 0, "lon": -77.00567083333334}, {"fusion_lat": 0.0, "type": "electric_scooter", "name": "0c5b5ceac5966c458ad6aef8ccb16419", "fusion_lon": 0.0, "bike_id": "0c5b5ceac5966c458ad6aef8ccb16419", "is_reserved": 0, "rental_uris": {"android": "https://dc.lft.to/lastmile_qr_scan", "ios": "https://dc.lft.to/lastmile_qr_scan"}, "lat": 38.900672, "is_disabled": 0, "lon": -76.92744566666667}, {"fusion_lat": 0.0, "type": "electric_scooter", "name": "0cdf2680151b277ce5b23e788ec290db", "fusion_lon": 0.0, "bike_id": "0cdf2680151b277ce5b23e788ec290db", "is_reserved": 0, "rental_uris": {"android": "https://dc.lft.to/lastmile_qr_scan", "ios": "https://dc.lft.to/lastmile_qr_scan"}, "lat": 38.90142783333334, "is_disabled": 0, "lon": -77.03232133333333}, {"fusion_lat": 0.0, "type": "electric_scooter", "name": "16858f4ebd781eb898136dcaa86b0fd6", "fusion_lon": 0.0, "bike_id": "16858f4ebd781eb898136dcaa86b0fd6", "is_reserved": 0, "rental_uris": {"android": "https://dc.lft.to/lastmile_qr_scan", "ios": "https://dc.lft.to/lastmile_qr_scan"}, "lat": 38.89983016666667, "is_disabled": 0, "lon": -77.0482325}, {"fusion_lat": 0.0, "type": "electric_scooter", "name": "f8ec74e0280f7cb752f46728168ab4a6", "fusion_lon": 0.0, "bike_id": "f8ec74e0280f7cb752f46728168ab4a6", "is_reserved": 0, "rental_uris": {"android": "https://dc.lft.to/lastmile_qr_scan", "ios": "https://dc.lft.to/lastmile_qr_scan"}, "lat": 38.83565883333333, "is_disabled": 0, "lon": -76.994986}, {"fusion_lat": 0.0, "type": "electric_scooter", "name": "9165b210a09662ab4c9c76749f3c8ba2", "fusion_lon": 0.0, "bike_id": "9165b210a09662ab4c9c76749f3c8ba2", "is_reserved": 0, "rental_uris": {"android": "https://dc.lft.to/lastmile_qr_scan", "ios": "https://dc.lft.to/lastmile_qr_scan"}, "lat": 38.883241, "is_disabled": 0, "lon": -76.9921935}, {"fusion_lat": 0.0, "type": "electric_scooter", "name": "3100fc8a50c07adab7b3dab9158c5f86", "fusion_lon": 0.0, "bike_id": "3100fc8a50c07adab7b3dab9158c5f86", "is_reserved": 0, "rental_uris": {"android": "https://dc.lft.to/lastmile_qr_scan", "ios": "https://dc.lft.to/lastmile_qr_scan"}, "lat": 38.939236333333334, "is_disabled": 0, "lon": -77.03268716666666}, {"fusion_lat": 0.0, "type": "electric_scooter", "name": "5a307a7fcf6bdeae87551230b33a192f", "fusion_lon": 0.0, "bike_id": "5a307a7fcf6bdeae87551230b33a192f", "is_reserved": 0, "rental_uris": {"android": "https://dc.lft.to/lastmile_qr_scan", "ios": "https://dc.lft.to/lastmile_qr_scan"}, "lat": 38.929477166666665, "is_disabled": 0, "lon": -77.01642116666666}, {"fusion_lat": 0.0, "type": "electric_scooter", "name": "1c74307225590bda2e27178077ab891b", "fusion_lon": 0.0, "bike_id": "1c74307225590bda2e27178077ab891b", "is_reserved": 0, "rental_uris": {"android": "https://dc.lft.to/lastmile_qr_scan", "ios": "https://dc.lft.to/lastmile_qr_scan"}, "lat": 38.9067255, "is_disabled": 0, "lon": -77.00031783333333}, {"fusion_lat": 0.0, "type": "electric_scooter", "name": "e59688aa49c96bfe3ebfc67c79b7b312", "fusion_lon": 0.0, "bike_id": "e59688aa49c96bfe3ebfc67c79b7b312", "is_reserved": 0, "rental_uris": {"android": "https://dc.lft.to/lastmile_qr_scan", "ios": "https://dc.lft.to/lastmile_qr_scan"}, "lat": 38.91790016666667, "is_disabled": 0, "lon": -77.0231455}, {"fusion_lat": 0.0, "type": "electric_scooter", "name": "bbd9da510416a2fe945a4ea0655910b8", "fusion_lon": 0.0, "bike_id": "bbd9da510416a2fe945a4ea0655910b8", "is_reserved": 0, "rental_uris": {"android": "https://dc.lft.to/lastmile_qr_scan", "ios": "https://dc.lft.to/lastmile_qr_scan"}, "lat": 38.90970466666667, "is_disabled": 0, "lon": -77.03866366666666}, {"fusion_lat": 0.0, "type": "electric_scooter", "name": "ee9d4bf027ed8cdb63f8582bc2a7c597", "fusion_lon": 0.0, "bike_id": "ee9d4bf027ed8cdb63f8582bc2a7c597", "is_reserved": 0, "rental_uris": {"android": "https://dc.lft.to/lastmile_qr_scan", "ios": "https://dc.lft.to/lastmile_qr_scan"}, "lat": 38.91072833333333, "is_disabled": 0, "lon": -77.03466366666666}, {"fusion_lat": 0.0, "type": "electric_scooter", "name": "fed1202b83679d512c1b3fadd517f7ad", "fusion_lon": 0.0, "bike_id": "fed1202b83679d512c1b3fadd517f7ad", "is_reserved": 0, "rental_uris": {"android": "https://dc.lft.to/lastmile_qr_scan", "ios": "https://dc.lft.to/lastmile_qr_scan"}, "lat": 38.92269683333333, "is_disabled": 0, "lon": -77.03409583333334}, {"fusion_lat": 0.0, "type": "electric_scooter", "name": "b2b5fe6a46022828a7f086c80f202d23", "fusion_lon": 0.0, "bike_id": "b2b5fe6a46022828a7f086c80f202d23", "is_reserved": 0, "rental_uris": {"android": "https://dc.lft.to/lastmile_qr_scan", "ios": "https://dc.lft.to/lastmile_qr_scan"}, "lat": 38.93132766666667, "is_disabled": 0, "lon": -77.023575}, {"fusion_lat": 0.0, "type": "electric_scooter", "name": "8b55ed5c3bd927915953fb90baa1e7af", "fusion_lon": 0.0, "bike_id": "8b55ed5c3bd927915953fb90baa1e7af", "is_reserved": 0, "rental_uris": {"android": "https://dc.lft.to/lastmile_qr_scan", "ios": "https://dc.lft.to/lastmile_qr_scan"}, "lat": 38.864189833333334, "is_disabled": 0, "lon": -76.97444283333333}, {"fusion_lat": 0.0, "type": "electric_scooter", "name": "9f72a71dbfb6c215360153dd541246a0", "fusion_lon": 0.0, "bike_id": "9f72a71dbfb6c215360153dd541246a0", "is_reserved": 0, "rental_uris": {"android": "https://dc.lft.to/lastmile_qr_scan", "ios": "https://dc.lft.to/lastmile_qr_scan"}, "lat": 38.95731983333334, "is_disabled": 0, "lon": -77.02404083333333}, {"fusion_lat": 0.0, "type": "electric_bike", "name": "7fe6d5e3b950a8203e29d31565dd679b", "fusion_lon": 0.0, "bike_id": "7fe6d5e3b950a8203e29d31565dd679b", "is_reserved": 0, "rental_uris": {"android": "https://dc.lft.to/lastmile_qr_scan", "ios": "https://dc.lft.to/lastmile_qr_scan"}, "lat": 38.80757166666667, "is_disabled": 0, "lon": -77.0946765}, {"fusion_lat": 0.0, "type": "electric_scooter", "name": "4d722e4742b7aa372dbbef9573a21dc4", "fusion_lon": 0.0, "bike_id": "4d722e4742b7aa372dbbef9573a21dc4", "is_reserved": 0, "rental_uris": {"android": "https://dc.lft.to/lastmile_qr_scan", "ios": "https://dc.lft.to/lastmile_qr_scan"}, "lat": 38.901946, "is_disabled": 0, "lon": -77.048505}, {"fusion_lat": 0.0, "type": "electric_scooter", "name": "b263e8182f8f2536ac52caaefefd6426", "fusion_lon": 0.0, "bike_id": "b263e8182f8f2536ac52caaefefd6426", "is_reserved": 0, "rental_uris": {"android": "https://dc.lft.to/lastmile_qr_scan", "ios": "https://dc.lft.to/lastmile_qr_scan"}, "lat": 38.925067, "is_disabled": 0, "lon": -77.03792516666667}, {"fusion_lat": 0.0, "type": "electric_scooter", "name": "58a6426aeb14f056a58c7c56a6f7ec6a", "fusion_lon": 0.0, "bike_id": "58a6426aeb14f056a58c7c56a6f7ec6a", "is_reserved": 0, "rental_uris": {"android": "https://dc.lft.to/lastmile_qr_scan", "ios": "https://dc.lft.to/lastmile_qr_scan"}, "lat": 38.914118, "is_disabled": 0, "lon": -77.01838716666667}, {"fusion_lat": 0.0, "type": "electric_scooter", "name": "a08918ac3b93a6db515935c578ba1799", "fusion_lon": 0.0, "bike_id": "a08918ac3b93a6db515935c578ba1799", "is_reserved": 0, "rental_uris": {"android": "https://dc.lft.to/lastmile_qr_scan", "ios": "https://dc.lft.to/lastmile_qr_scan"}, "lat": 38.89888466666667, "is_disabled": 0, "lon": -77.03945116666667}, {"fusion_lat": 0.0, "type": "electric_bike", "name": "ddae41a63d12cc56cc3bae4b96163c56", "fusion_lon": 0.0, "bike_id": "ddae41a63d12cc56cc3bae4b96163c56", "is_reserved": 0, "rental_uris": {"android": "https://dc.lft.to/lastmile_qr_scan", "ios": "https://dc.lft.to/lastmile_qr_scan"}, "lat": 38.872972833333336, "is_disabled": 0, "lon": -77.13931966666667}, {"fusion_lat": 0.0, "type": "electric_scooter", "name": "87dd8ff0c8d2ef6f11cfd9f2b13780e8", "fusion_lon": 0.0, "bike_id": "87dd8ff0c8d2ef6f11cfd9f2b13780e8", "is_reserved": 0, "rental_uris": {"android": "https://dc.lft.to/lastmile_qr_scan", "ios": "https://dc.lft.to/lastmile_qr_scan"}, "lat": 38.92121183333333, "is_disabled": 0, "lon": -77.01797033333334}, {"fusion_lat": 0.0, "type": "electric_scooter", "name": "032c51c13d7ad977600f993f71dcf271", "fusion_lon": 0.0, "bike_id": "032c51c13d7ad977600f993f71dcf271", "is_reserved": 0, "rental_uris": {"android": "https://dc.lft.to/lastmile_qr_scan", "ios": "https://dc.lft.to/lastmile_qr_scan"}, "lat": 38.906611833333336, "is_disabled": 0, "lon": -77.03875916666667}, {"fusion_lat": 0.0, "type": "electric_bike", "name": "6b6990c7949ef0878f2622eb36caa57d", "fusion_lon": 0.0, "bike_id": "6b6990c7949ef0878f2622eb36caa57d", "is_reserved": 0, "rental_uris": {"android": "https://dc.lft.to/lastmile_qr_scan", "ios": "https://dc.lft.to/lastmile_qr_scan"}, "lat": 38.85374366666667, "is_disabled": 0, "lon": -77.12465683333333}, {"fusion_lat": 0.0, "type": "electric_scooter", "name": "ed1d48b004b5c3e31edef18d88681a55", "fusion_lon": 0.0, "bike_id": "ed1d48b004b5c3e31edef18d88681a55", "is_reserved": 0, "rental_uris": {"android": "https://dc.lft.to/lastmile_qr_scan", "ios": "https://dc.lft.to/lastmile_qr_scan"}, "lat": 38.91808066666667, "is_disabled": 0, "lon": -77.03439683333333}, {"fusion_lat": 0.0, "type": "electric_scooter", "name": "80d1f78f888763cd3631bd7f9aaf52a8", "fusion_lon": 0.0, "bike_id": "80d1f78f888763cd3631bd7f9aaf52a8", "is_reserved": 0, "rental_uris": {"android": "https://dc.lft.to/lastmile_qr_scan", "ios": "https://dc.lft.to/lastmile_qr_scan"}, "lat": 38.9073725, "is_disabled": 0, "lon": -77.02693916666666}, {"fusion_lat": 0.0, "type": "electric_scooter", "name": "ec15a975c04cdecbda27e9220522bee0", "fusion_lon": 0.0, "bike_id": "ec15a975c04cdecbda27e9220522bee0", "is_reserved": 0, "rental_uris": {"android": "https://dc.lft.to/lastmile_qr_scan", "ios": "https://dc.lft.to/lastmile_qr_scan"}, "lat": 38.89723883333333, "is_disabled": 0, "lon": -77.02731683333333}, {"fusion_lat": 0.0, "type": "electric_scooter", "name": "c39f2a51a134c14149375022e66cd16f", "fusion_lon": 0.0, "bike_id": "c39f2a51a134c14149375022e66cd16f", "is_reserved": 0, "rental_uris": {"android": "https://dc.lft.to/lastmile_qr_scan", "ios": "https://dc.lft.to/lastmile_qr_scan"}, "lat": 38.892418, "is_disabled": 0, "lon": -77.04163616666666}, {"fusion_lat": 0.0, "type": "electric_scooter", "name": "f16c858e1503dcb85f8fe6c5d19ad75c", "fusion_lon": 0.0, "bike_id": "f16c858e1503dcb85f8fe6c5d19ad75c", "is_reserved": 0, "rental_uris": {"android": "https://dc.lft.to/lastmile_qr_scan", "ios": "https://dc.lft.to/lastmile_qr_scan"}, "lat": 38.8923355, "is_disabled": 0, "lon": -77.05002816666666}, {"fusion_lat": 0.0, "type": "electric_scooter", "name": "1167af90c09f60a824e89c24da5596be", "fusion_lon": 0.0, "bike_id": "1167af90c09f60a824e89c24da5596be", "is_reserved": 0, "rental_uris": {"android": "https://dc.lft.to/lastmile_qr_scan", "ios": "https://dc.lft.to/lastmile_qr_scan"}, "lat": 38.90877416666667, "is_disabled": 0, "lon": -77.03459316666667}, {"fusion_lat": 0.0, "type": "electric_scooter", "name": "f20adaa027bffd586c4f640d8aa14663", "fusion_lon": 0.0, "bike_id": "f20adaa027bffd586c4f640d8aa14663", "is_reserved": 0, "rental_uris": {"android": "https://dc.lft.to/lastmile_qr_scan", "ios": "https://dc.lft.to/lastmile_qr_scan"}, "lat": 38.919292166666665, "is_disabled": 0, "lon": -77.03152366666667}, {"fusion_lat": 0.0, "type": "electric_scooter", "name": "a39c24f09ea13c242ce72369fa5095b7", "fusion_lon": 0.0, "bike_id": "a39c24f09ea13c242ce72369fa5095b7", "is_reserved": 0, "rental_uris": {"android": "https://dc.lft.to/lastmile_qr_scan", "ios": "https://dc.lft.to/lastmile_qr_scan"}, "lat": 38.9244065, "is_disabled": 0, "lon": -77.03405233333334}, {"fusion_lat": 0.0, "type": "electric_scooter", "name": "901f39c8b3757a64b08a14a5e47be4c0", "fusion_lon": 0.0, "bike_id": "901f39c8b3757a64b08a14a5e47be4c0", "is_reserved": 0, "rental_uris": {"android": "https://dc.lft.to/lastmile_qr_scan", "ios": "https://dc.lft.to/lastmile_qr_scan"}, "lat": 38.9001285, "is_disabled": 0, "lon": -76.93032383333333}, {"fusion_lat": 0.0, "type": "electric_scooter", "name": "ba0266153e489777d3e98efd8a6842bf", "fusion_lon": 0.0, "bike_id": "ba0266153e489777d3e98efd8a6842bf", "is_reserved": 0, "rental_uris": {"android": "https://dc.lft.to/lastmile_qr_scan", "ios": "https://dc.lft.to/lastmile_qr_scan"}, "lat": 38.866978833333334, "is_disabled": 0, "lon": -76.98592916666666}, {"fusion_lat": 0.0, "type": "electric_scooter", "name": "9622cc3b7ecf85afc6c0b64415acf219", "fusion_lon": 0.0, "bike_id": "9622cc3b7ecf85afc6c0b64415acf219", "is_reserved": 0, "rental_uris": {"android": "https://dc.lft.to/lastmile_qr_scan", "ios": "https://dc.lft.to/lastmile_qr_scan"}, "lat": 38.90736666666667, "is_disabled": 0, "lon": -77.04492566666667}, {"fusion_lat": 0.0, "type": "electric_bike", "name": "daf2aff3d8e3373643bb69dcc8bcc5ad", "fusion_lon": 0.0, "bike_id": "daf2aff3d8e3373643bb69dcc8bcc5ad", "is_reserved": 0, "rental_uris": {"android": "https://dc.lft.to/lastmile_qr_scan", "ios": "https://dc.lft.to/lastmile_qr_scan"}, "lat": 38.90484166666667, "is_disabled": 0, "lon": -76.97331883333334}, {"fusion_lat": 0.0, "type": "electric_scooter", "name": "d4258a13d3c1ea1739256f3b16d5b934", "fusion_lon": 0.0, "bike_id": "d4258a13d3c1ea1739256f3b16d5b934", "is_reserved": 0, "rental_uris": {"android": "https://dc.lft.to/lastmile_qr_scan", "ios": "https://dc.lft.to/lastmile_qr_scan"}, "lat": 38.9097455, "is_disabled": 0, "lon": -77.03471766666667}, {"fusion_lat": 0.0, "type": "electric_scooter", "name": "c76cdaa53c566714f3c3fb50f54ac3b4", "fusion_lon": 0.0, "bike_id": "c76cdaa53c566714f3c3fb50f54ac3b4", "is_reserved": 0, "rental_uris": {"android": "https://dc.lft.to/lastmile_qr_scan", "ios": "https://dc.lft.to/lastmile_qr_scan"}, "lat": 38.924845, "is_disabled": 0, "lon": -77.021402}, {"fusion_lat": 0.0, "type": "electric_scooter", "name": "e526441c98929aae785653a9cc3ac631", "fusion_lon": 0.0, "bike_id": "e526441c98929aae785653a9cc3ac631", "is_reserved": 0, "rental_uris": {"android": "https://dc.lft.to/lastmile_qr_scan", "ios": "https://dc.lft.to/lastmile_qr_scan"}, "lat": 38.92537183333334, "is_disabled": 0, "lon": -76.97216966666667}, {"fusion_lat": 0.0, "type": "electric_scooter", "name": "0f067d48cfe936f0de049d1ac1d3b28f", "fusion_lon": 0.0, "bike_id": "0f067d48cfe936f0de049d1ac1d3b28f", "is_reserved": 0, "rental_uris": {"android": "https://dc.lft.to/lastmile_qr_scan", "ios": "https://dc.lft.to/lastmile_qr_scan"}, "lat": 38.91936533333333, "is_disabled": 0, "lon": -77.0315215}, {"fusion_lat": 0.0, "type": "electric_scooter", "name": "138599985da5a60159b7afe7f3511b0d", "fusion_lon": 0.0, "bike_id": "138599985da5a60159b7afe7f3511b0d", "is_reserved": 0, "rental_uris": {"android": "https://dc.lft.to/lastmile_qr_scan", "ios": "https://dc.lft.to/lastmile_qr_scan"}, "lat": 38.89705516666667, "is_disabled": 0, "lon": -77.027272}, {"fusion_lat": 0.0, "type": "electric_scooter", "name": "6cbd565f3e3b174ea29bace75db2b683", "fusion_lon": 0.0, "bike_id": "6cbd565f3e3b174ea29bace75db2b683", "is_reserved": 0, "rental_uris": {"android": "https://dc.lft.to/lastmile_qr_scan", "ios": "https://dc.lft.to/lastmile_qr_scan"}, "lat": 38.90139933333333, "is_disabled": 0, "lon": -77.01613366666666}, {"fusion_lat": 0.0, "type": "electric_scooter", "name": "30f2e9361ca6df5f7075cd0a9490cc04", "fusion_lon": 0.0, "bike_id": "30f2e9361ca6df5f7075cd0a9490cc04", "is_reserved": 0, "rental_uris": {"android": "https://dc.lft.to/lastmile_qr_scan", "ios": "https://dc.lft.to/lastmile_qr_scan"}, "lat": 38.89224983333333, "is_disabled": 0, "lon": -77.0322245}, {"fusion_lat": 0.0, "type": "electric_scooter", "name": "f04def5edd337ae8250b34e9d987cc6f", "fusion_lon": 0.0, "bike_id": "f04def5edd337ae8250b34e9d987cc6f", "is_reserved": 0, "rental_uris": {"android": "https://dc.lft.to/lastmile_qr_scan", "ios": "https://dc.lft.to/lastmile_qr_scan"}, "lat": 38.915495, "is_disabled": 0, "lon": -77.038548}, {"fusion_lat": 0.0, "type": "electric_scooter", "name": "89cba921a8c8362ea94fb22c8871f929", "fusion_lon": 0.0, "bike_id": "89cba921a8c8362ea94fb22c8871f929", "is_reserved": 0, "rental_uris": {"android": "https://dc.lft.to/lastmile_qr_scan", "ios": "https://dc.lft.to/lastmile_qr_scan"}, "lat": 38.94911833333333, "is_disabled": 0, "lon": -77.07892666666666}, {"fusion_lat": 0.0, "type": "electric_scooter", "name": "e2fb5dfcc74a3e60db7aea1051973fe0", "fusion_lon": 0.0, "bike_id": "e2fb5dfcc74a3e60db7aea1051973fe0", "is_reserved": 0, "rental_uris": {"android": "https://dc.lft.to/lastmile_qr_scan", "ios": "https://dc.lft.to/lastmile_qr_scan"}, "lat": 38.89730383333333, "is_disabled": 0, "lon": -77.055678}, {"fusion_lat": 0.0, "type": "electric_scooter", "name": "f2380b3a1b3b7208613b78242fe09a22", "fusion_lon": 0.0, "bike_id": "f2380b3a1b3b7208613b78242fe09a22", "is_reserved": 0, "rental_uris": {"android": "https://dc.lft.to/lastmile_qr_scan", "ios": "https://dc.lft.to/lastmile_qr_scan"}, "lat": 38.907826666666665, "is_disabled": 0, "lon": -77.04513783333333}, {"fusion_lat": 0.0, "type": "electric_scooter", "name": "4160c6c90d215fa6f80c4a6eb915516f", "fusion_lon": 0.0, "bike_id": "4160c6c90d215fa6f80c4a6eb915516f", "is_reserved": 0, "rental_uris": {"android": "https://dc.lft.to/lastmile_qr_scan", "ios": "https://dc.lft.to/lastmile_qr_scan"}, "lat": 38.90439383333333, "is_disabled": 0, "lon": -76.98490683333333}, {"fusion_lat": 0.0, "type": "electric_scooter", "name": "a185a6a0fa9433ffe8382ab5998d74f8", "fusion_lon": 0.0, "bike_id": "a185a6a0fa9433ffe8382ab5998d74f8", "is_reserved": 0, "rental_uris": {"android": "https://dc.lft.to/lastmile_qr_scan", "ios": "https://dc.lft.to/lastmile_qr_scan"}, "lat": 38.92252516666667, "is_disabled": 0, "lon": -77.03524266666666}, {"fusion_lat": 0.0, "type": "electric_scooter", "name": "7efd92d065d3bed7db04e961b17e5728", "fusion_lon": 0.0, "bike_id": "7efd92d065d3bed7db04e961b17e5728", "is_reserved": 0, "rental_uris": {"android": "https://dc.lft.to/lastmile_qr_scan", "ios": "https://dc.lft.to/lastmile_qr_scan"}, "lat": 38.9057795, "is_disabled": 0, "lon": -77.02201033333333}, {"fusion_lat": 0.0, "type": "electric_bike", "name": "582bfceacdd1e54d5611e1404c5bb431", "fusion_lon": 0.0, "bike_id": "582bfceacdd1e54d5611e1404c5bb431", "is_reserved": 0, "rental_uris": {"android": "https://dc.lft.to/lastmile_qr_scan", "ios": "https://dc.lft.to/lastmile_qr_scan"}, "lat": 38.94913966666667, "is_disabled": 0, "lon": -77.00803483333334}, {"fusion_lat": 0.0, "type": "electric_bike", "name": "f4bdc22a70fbf5169f19d20a1376a402", "fusion_lon": 0.0, "bike_id": "f4bdc22a70fbf5169f19d20a1376a402", "is_reserved": 0, "rental_uris": {"android": "https://dc.lft.to/lastmile_qr_scan", "ios": "https://dc.lft.to/lastmile_qr_scan"}, "lat": 38.9681675, "is_disabled": 0, "lon": -77.07227216666666}, {"fusion_lat": 0.0, "type": "electric_scooter", "name": "fd42a0497ba7f3eac16bde24e7d546db", "fusion_lon": 0.0, "bike_id": "fd42a0497ba7f3eac16bde24e7d546db", "is_reserved": 0, "rental_uris": {"android": "https://dc.lft.to/lastmile_qr_scan", "ios": "https://dc.lft.to/lastmile_qr_scan"}, "lat": 38.91962566666667, "is_disabled": 0, "lon": -77.0318855}, {"fusion_lat": 0.0, "type": "electric_scooter", "name": "135df6f0b77ec34f109284aa9ae65bb0", "fusion_lon": 0.0, "bike_id": "135df6f0b77ec34f109284aa9ae65bb0", "is_reserved": 0, "rental_uris": {"android": "https://dc.lft.to/lastmile_qr_scan", "ios": "https://dc.lft.to/lastmile_qr_scan"}, "lat": 38.9078825, "is_disabled": 0, "lon": -77.03859333333334}, {"fusion_lat": 0.0, "type": "electric_scooter", "name": "41f356ccd5187b4d6e1ce4b8e01ff4f0", "fusion_lon": 0.0, "bike_id": "41f356ccd5187b4d6e1ce4b8e01ff4f0", "is_reserved": 0, "rental_uris": {"android": "https://dc.lft.to/lastmile_qr_scan", "ios": "https://dc.lft.to/lastmile_qr_scan"}, "lat": 38.906956, "is_disabled": 0, "lon": -77.035982}, {"fusion_lat": 0.0, "type": "electric_scooter", "name": "ca0afc4b49752a4545079acce1dd39cf", "fusion_lon": 0.0, "bike_id": "ca0afc4b49752a4545079acce1dd39cf", "is_reserved": 0, "rental_uris": {"android": "https://dc.lft.to/lastmile_qr_scan", "ios": "https://dc.lft.to/lastmile_qr_scan"}, "lat": 38.91462283333333, "is_disabled": 0, "lon": -77.01890166666666}, {"fusion_lat": 0.0, "type": "electric_scooter", "name": "ea3ead098caa92501aebe804b5c936cc", "fusion_lon": 0.0, "bike_id": "ea3ead098caa92501aebe804b5c936cc", "is_reserved": 0, "rental_uris": {"android": "https://dc.lft.to/lastmile_qr_scan", "ios": "https://dc.lft.to/lastmile_qr_scan"}, "lat": 38.909423333333336, "is_disabled": 0, "lon": -77.046684}, {"fusion_lat": 0.0, "type": "electric_scooter", "name": "373d85d8e442664ed8d3f18e2259e12b", "fusion_lon": 0.0, "bike_id": "373d85d8e442664ed8d3f18e2259e12b", "is_reserved": 0, "rental_uris": {"android": "https://dc.lft.to/lastmile_qr_scan", "ios": "https://dc.lft.to/lastmile_qr_scan"}, "lat": 38.93445716666667, "is_disabled": 0, "lon": -77.0298255}, {"fusion_lat": 0.0, "type": "electric_scooter", "name": "e2c1901c79dd0914e7301846a6c4ae3a", "fusion_lon": 0.0, "bike_id": "e2c1901c79dd0914e7301846a6c4ae3a", "is_reserved": 0, "rental_uris": {"android": "https://dc.lft.to/lastmile_qr_scan", "ios": "https://dc.lft.to/lastmile_qr_scan"}, "lat": 38.905758, "is_disabled": 0, "lon": -77.022059}, {"fusion_lat": 0.0, "type": "electric_scooter", "name": "c09fb9b43f4315d8a7cf7434577058d2", "fusion_lon": 0.0, "bike_id": "c09fb9b43f4315d8a7cf7434577058d2", "is_reserved": 0, "rental_uris": {"android": "https://dc.lft.to/lastmile_qr_scan", "ios": "https://dc.lft.to/lastmile_qr_scan"}, "lat": 38.90864666666667, "is_disabled": 0, "lon": -77.08598433333333}, {"fusion_lat": 0.0, "type": "electric_bike", "name": "f197fdbc0ffc038c34eb44465500ec95", "fusion_lon": 0.0, "bike_id": "f197fdbc0ffc038c34eb44465500ec95", "is_reserved": 0, "rental_uris": {"android": "https://dc.lft.to/lastmile_qr_scan", "ios": "https://dc.lft.to/lastmile_qr_scan"}, "lat": 38.96320333333333, "is_disabled": 0, "lon": -76.97360583333334}, {"fusion_lat": 0.0, "type": "electric_bike", "name": "6001bd59fb345c6819ff3714ed393825", "fusion_lon": 0.0, "bike_id": "6001bd59fb345c6819ff3714ed393825", "is_reserved": 0, "rental_uris": {"android": "https://dc.lft.to/lastmile_qr_scan", "ios": "https://dc.lft.to/lastmile_qr_scan"}, "lat": 38.86615966666667, "is_disabled": 0, "lon": -76.94572}, {"fusion_lat": 0.0, "type": "electric_bike", "name": "c0071f4c6bde2e4c6c3bd716df8dfe6a", "fusion_lon": 0.0, "bike_id": "c0071f4c6bde2e4c6c3bd716df8dfe6a", "is_reserved": 0, "rental_uris": {"android": "https://dc.lft.to/lastmile_qr_scan", "ios": "https://dc.lft.to/lastmile_qr_scan"}, "lat": 38.969030833333335, "is_disabled": 0, "lon": -76.994929}, {"fusion_lat": 0.0, "type": "electric_scooter", "name": "0f6c500aa09711a7b6675397eba814bc", "fusion_lon": 0.0, "bike_id": "0f6c500aa09711a7b6675397eba814bc", "is_reserved": 0, "rental_uris": {"android": "https://dc.lft.to/lastmile_qr_scan", "ios": "https://dc.lft.to/lastmile_qr_scan"}, "lat": 38.923437, "is_disabled": 0, "lon": -77.0341835}, {"fusion_lat": 0.0, "type": "electric_scooter", "name": "b0b18542d2d638135e42b89e11f4e0e7", "fusion_lon": 0.0, "bike_id": "b0b18542d2d638135e42b89e11f4e0e7", "is_reserved": 0, "rental_uris": {"android": "https://dc.lft.to/lastmile_qr_scan", "ios": "https://dc.lft.to/lastmile_qr_scan"}, "lat": 38.922475166666665, "is_disabled": 0, "lon": -77.03087683333334}, {"fusion_lat": 0.0, "type": "electric_scooter", "name": "7cd471d4a0250fcdfaca310efa299405", "fusion_lon": 0.0, "bike_id": "7cd471d4a0250fcdfaca310efa299405", "is_reserved": 0, "rental_uris": {"android": "https://dc.lft.to/lastmile_qr_scan", "ios": "https://dc.lft.to/lastmile_qr_scan"}, "lat": 38.920553166666664, "is_disabled": 0, "lon": -77.0339435}, {"fusion_lat": 0.0, "type": "electric_scooter", "name": "d65a3b08285efed14ca8837b44013c4c", "fusion_lon": 0.0, "bike_id": "d65a3b08285efed14ca8837b44013c4c", "is_reserved": 0, "rental_uris": {"android": "https://dc.lft.to/lastmile_qr_scan", "ios": "https://dc.lft.to/lastmile_qr_scan"}, "lat": 38.92880133333333, "is_disabled": 0, "lon": -77.03653633333333}, {"fusion_lat": 0.0, "type": "electric_scooter", "name": "463f8b4a59a3cd8216622ef8156f1ff6", "fusion_lon": 0.0, "bike_id": "463f8b4a59a3cd8216622ef8156f1ff6", "is_reserved": 0, "rental_uris": {"android": "https://dc.lft.to/lastmile_qr_scan", "ios": "https://dc.lft.to/lastmile_qr_scan"}, "lat": 38.933661, "is_disabled": 0, "lon": -77.02968}, {"fusion_lat": 0.0, "type": "electric_scooter", "name": "a113862a33da51553cb8693d8b60a32e", "fusion_lon": 0.0, "bike_id": "a113862a33da51553cb8693d8b60a32e", "is_reserved": 0, "rental_uris": {"android": "https://dc.lft.to/lastmile_qr_scan", "ios": "https://dc.lft.to/lastmile_qr_scan"}, "lat": 38.917082666666666, "is_disabled": 0, "lon": -77.0342485}, {"fusion_lat": 0.0, "type": "electric_scooter", "name": "dc26f5fafa3c994f6229ddeeb3c7b704", "fusion_lon": 0.0, "bike_id": "dc26f5fafa3c994f6229ddeeb3c7b704", "is_reserved": 0, "rental_uris": {"android": "https://dc.lft.to/lastmile_qr_scan", "ios": "https://dc.lft.to/lastmile_qr_scan"}, "lat": 38.924301166666666, "is_disabled": 0, "lon": -77.0518205}, {"fusion_lat": 0.0, "type": "electric_scooter", "name": "3d8cbf4eb6c23d98b793c80355aaad23", "fusion_lon": 0.0, "bike_id": "3d8cbf4eb6c23d98b793c80355aaad23", "is_reserved": 0, "rental_uris": {"android": "https://dc.lft.to/lastmile_qr_scan", "ios": "https://dc.lft.to/lastmile_qr_scan"}, "lat": 38.9258685, "is_disabled": 0, "lon": -77.03988933333333}, {"fusion_lat": 0.0, "type": "electric_scooter", "name": "183bad9fec5d5c1ab9275916f4eb535c", "fusion_lon": 0.0, "bike_id": "183bad9fec5d5c1ab9275916f4eb535c", "is_reserved": 0, "rental_uris": {"android": "https://dc.lft.to/lastmile_qr_scan", "ios": "https://dc.lft.to/lastmile_qr_scan"}, "lat": 38.8762725, "is_disabled": 0, "lon": -77.012636}, {"fusion_lat": 0.0, "type": "electric_scooter", "name": "614c49de67d550866f08f9c27828b9a2", "fusion_lon": 0.0, "bike_id": "614c49de67d550866f08f9c27828b9a2", "is_reserved": 0, "rental_uris": {"android": "https://dc.lft.to/lastmile_qr_scan", "ios": "https://dc.lft.to/lastmile_qr_scan"}, "lat": 38.898863, "is_disabled": 0, "lon": -77.03928566666667}, {"fusion_lat": 0.0, "type": "electric_scooter", "name": "d878eb162844045c05a6b9608eb975b6", "fusion_lon": 0.0, "bike_id": "d878eb162844045c05a6b9608eb975b6", "is_reserved": 0, "rental_uris": {"android": "https://dc.lft.to/lastmile_qr_scan", "ios": "https://dc.lft.to/lastmile_qr_scan"}, "lat": 38.924837, "is_disabled": 0, "lon": -77.0415265}, {"fusion_lat": 0.0, "type": "electric_scooter", "name": "a85ced959074d1c323920dbf269f5bdf", "fusion_lon": 0.0, "bike_id": "a85ced959074d1c323920dbf269f5bdf", "is_reserved": 0, "rental_uris": {"android": "https://dc.lft.to/lastmile_qr_scan", "ios": "https://dc.lft.to/lastmile_qr_scan"}, "lat": 38.8728835, "is_disabled": 0, "lon": -77.00983233333334}, {"fusion_lat": 0.0, "type": "electric_scooter", "name": "6942d131a38f381100d6d437dc012919", "fusion_lon": 0.0, "bike_id": "6942d131a38f381100d6d437dc012919", "is_reserved": 0, "rental_uris": {"android": "https://dc.lft.to/lastmile_qr_scan", "ios": "https://dc.lft.to/lastmile_qr_scan"}, "lat": 38.9359085, "is_disabled": 0, "lon": -77.0351215}, {"fusion_lat": 0.0, "type": "electric_scooter", "name": "74a618ab507e042ddc65f565494f29c8", "fusion_lon": 0.0, "bike_id": "74a618ab507e042ddc65f565494f29c8", "is_reserved": 0, "rental_uris": {"android": "https://dc.lft.to/lastmile_qr_scan", "ios": "https://dc.lft.to/lastmile_qr_scan"}, "lat": 38.90316983333334, "is_disabled": 0, "lon": -76.99124516666667}, {"fusion_lat": 0.0, "type": "electric_scooter", "name": "0bcf3cb46f5617fbf260b26eb60500ac", "fusion_lon": 0.0, "bike_id": "0bcf3cb46f5617fbf260b26eb60500ac", "is_reserved": 0, "rental_uris": {"android": "https://dc.lft.to/lastmile_qr_scan", "ios": "https://dc.lft.to/lastmile_qr_scan"}, "lat": 38.860087, "is_disabled": 0, "lon": -76.9851745}, {"fusion_lat": 0.0, "type": "electric_scooter", "name": "c8b452c4d999d5e03250c8a3c2181d3c", "fusion_lon": 0.0, "bike_id": "c8b452c4d999d5e03250c8a3c2181d3c", "is_reserved": 0, "rental_uris": {"android": "https://dc.lft.to/lastmile_qr_scan", "ios": "https://dc.lft.to/lastmile_qr_scan"}, "lat": 38.922579999999996, "is_disabled": 0, "lon": -77.02040516666666}, {"fusion_lat": 0.0, "type": "electric_bike", "name": "cfc721adddf9d81d1e6cb90ab203935f", "fusion_lon": 0.0, "bike_id": "cfc721adddf9d81d1e6cb90ab203935f", "is_reserved": 0, "rental_uris": {"android": "https://dc.lft.to/lastmile_qr_scan", "ios": "https://dc.lft.to/lastmile_qr_scan"}, "lat": 38.89886716666667, "is_disabled": 0, "lon": -77.03267433333333}, {"fusion_lat": 0.0, "type": "electric_scooter", "name": "dea5cdf2a681738ce68a68deb8a7c24c", "fusion_lon": 0.0, "bike_id": "dea5cdf2a681738ce68a68deb8a7c24c", "is_reserved": 0, "rental_uris": {"android": "https://dc.lft.to/lastmile_qr_scan", "ios": "https://dc.lft.to/lastmile_qr_scan"}, "lat": 38.924018, "is_disabled": 0, "lon": -77.02977033333333}, {"fusion_lat": 0.0, "type": "electric_scooter", "name": "37e404ac370c37b20a81a14a29c93f97", "fusion_lon": 0.0, "bike_id": "37e404ac370c37b20a81a14a29c93f97", "is_reserved": 0, "rental_uris": {"android": "https://dc.lft.to/lastmile_qr_scan", "ios": "https://dc.lft.to/lastmile_qr_scan"}, "lat": 38.94324833333334, "is_disabled": 0, "lon": -77.02680933333333}, {"fusion_lat": 0.0, "type": "electric_scooter", "name": "f2e971b9146b9b5d1ebc2a54a4e03ccf", "fusion_lon": 0.0, "bike_id": "f2e971b9146b9b5d1ebc2a54a4e03ccf", "is_reserved": 0, "rental_uris": {"android": "https://dc.lft.to/lastmile_qr_scan", "ios": "https://dc.lft.to/lastmile_qr_scan"}, "lat": 38.8746585, "is_disabled": 0, "lon": -77.01900383333333}, {"fusion_lat": 0.0, "type": "electric_scooter", "name": "9f49c50acd300c30d46474c6f98e4f4c", "fusion_lon": 0.0, "bike_id": "9f49c50acd300c30d46474c6f98e4f4c", "is_reserved": 0, "rental_uris": {"android": "https://dc.lft.to/lastmile_qr_scan", "ios": "https://dc.lft.to/lastmile_qr_scan"}, "lat": 38.90954583333333, "is_disabled": 0, "lon": -76.98541866666666}, {"fusion_lat": 0.0, "type": "electric_scooter", "name": "52df21c9a64e651f7d0c42c140e0f730", "fusion_lon": 0.0, "bike_id": "52df21c9a64e651f7d0c42c140e0f730", "is_reserved": 0, "rental_uris": {"android": "https://dc.lft.to/lastmile_qr_scan", "ios": "https://dc.lft.to/lastmile_qr_scan"}, "lat": 38.880842333333334, "is_disabled": 0, "lon": -76.99839016666667}, {"fusion_lat": 0.0, "type": "electric_scooter", "name": "2ae68af2c4ca2852f4d50a0f0cefc153", "fusion_lon": 0.0, "bike_id": "2ae68af2c4ca2852f4d50a0f0cefc153", "is_reserved": 0, "rental_uris": {"android": "https://dc.lft.to/lastmile_qr_scan", "ios": "https://dc.lft.to/lastmile_qr_scan"}, "lat": 38.95281116666666, "is_disabled": 0, "lon": -77.06982133333334}, {"fusion_lat": 0.0, "type": "electric_scooter", "name": "325b595ca3d40f8c2debcb08040610dc", "fusion_lon": 0.0, "bike_id": "325b595ca3d40f8c2debcb08040610dc", "is_reserved": 0, "rental_uris": {"android": "https://dc.lft.to/lastmile_qr_scan", "ios": "https://dc.lft.to/lastmile_qr_scan"}, "lat": 38.916419833333336, "is_disabled": 0, "lon": -77.042666}, {"fusion_lat": 0.0, "type": "electric_scooter", "name": "6e6101e7864f965e1f348d26cda22b79", "fusion_lon": 0.0, "bike_id": "6e6101e7864f965e1f348d26cda22b79", "is_reserved": 0, "rental_uris": {"android": "https://dc.lft.to/lastmile_qr_scan", "ios": "https://dc.lft.to/lastmile_qr_scan"}, "lat": 38.89334733333333, "is_disabled": 0, "lon": -77.01209033333333}, {"fusion_lat": 0.0, "type": "electric_scooter", "name": "77b79c47255505624f90ce137ccd6169", "fusion_lon": 0.0, "bike_id": "77b79c47255505624f90ce137ccd6169", "is_reserved": 0, "rental_uris": {"android": "https://dc.lft.to/lastmile_qr_scan", "ios": "https://dc.lft.to/lastmile_qr_scan"}, "lat": 38.87315983333333, "is_disabled": 0, "lon": -77.00579116666667}, {"fusion_lat": 0.0, "type": "electric_scooter", "name": "10a44d6580e4ebc1d030bcd8bafad5c8", "fusion_lon": 0.0, "bike_id": "10a44d6580e4ebc1d030bcd8bafad5c8", "is_reserved": 0, "rental_uris": {"android": "https://dc.lft.to/lastmile_qr_scan", "ios": "https://dc.lft.to/lastmile_qr_scan"}, "lat": 38.88812683333333, "is_disabled": 0, "lon": -76.9334815}, {"fusion_lat": 0.0, "type": "electric_scooter", "name": "ab7bace40733ca9dfe5286c3f7852777", "fusion_lon": 0.0, "bike_id": "ab7bace40733ca9dfe5286c3f7852777", "is_reserved": 0, "rental_uris": {"android": "https://dc.lft.to/lastmile_qr_scan", "ios": "https://dc.lft.to/lastmile_qr_scan"}, "lat": 38.89236916666667, "is_disabled": 0, "lon": -77.03188366666667}, {"fusion_lat": 0.0, "type": "electric_scooter", "name": "47433c2eb791e314f6956687128e9b2d", "fusion_lon": 0.0, "bike_id": "47433c2eb791e314f6956687128e9b2d", "is_reserved": 0, "rental_uris": {"android": "https://dc.lft.to/lastmile_qr_scan", "ios": "https://dc.lft.to/lastmile_qr_scan"}, "lat": 38.897261666666665, "is_disabled": 0, "lon": -77.0271}, {"fusion_lat": 0.0, "type": "electric_scooter", "name": "e9fba21ff4165f5d18ca5c5a51578996", "fusion_lon": 0.0, "bike_id": "e9fba21ff4165f5d18ca5c5a51578996", "is_reserved": 0, "rental_uris": {"android": "https://dc.lft.to/lastmile_qr_scan", "ios": "https://dc.lft.to/lastmile_qr_scan"}, "lat": 38.92108866666667, "is_disabled": 0, "lon": -77.04219633333334}, {"fusion_lat": 0.0, "type": "electric_scooter", "name": "5d3d24d919f603028af98a7c0cf95ab4", "fusion_lon": 0.0, "bike_id": "5d3d24d919f603028af98a7c0cf95ab4", "is_reserved": 0, "rental_uris": {"android": "https://dc.lft.to/lastmile_qr_scan", "ios": "https://dc.lft.to/lastmile_qr_scan"}, "lat": 38.9171845, "is_disabled": 0, "lon": -77.02534683333333}, {"fusion_lat": 0.0, "type": "electric_scooter", "name": "383235151663c0fec559ee23f8ac9c47", "fusion_lon": 0.0, "bike_id": "383235151663c0fec559ee23f8ac9c47", "is_reserved": 0, "rental_uris": {"android": "https://dc.lft.to/lastmile_qr_scan", "ios": "https://dc.lft.to/lastmile_qr_scan"}, "lat": 38.92846433333333, "is_disabled": 0, "lon": -77.03285216666667}, {"fusion_lat": 0.0, "type": "electric_scooter", "name": "97490c407d326a5adf6636f1b9b00254", "fusion_lon": 0.0, "bike_id": "97490c407d326a5adf6636f1b9b00254", "is_reserved": 0, "rental_uris": {"android": "https://dc.lft.to/lastmile_qr_scan", "ios": "https://dc.lft.to/lastmile_qr_scan"}, "lat": 38.909707833333336, "is_disabled": 0, "lon": -77.02420416666666},