{"data": {"bikes": [{"fusion_lat": 0.0, "bike_id": "b5ae0b8a2671f4209567fb559968e16d", "fusion_lon": 0.0, "lon": -76.98600183333333, "lat": 38.866812, "is_reserved": 0, "is_disabled": 0, "rental_uris": {"android": "https://dc.lft.to/lastmile_qr_scan", "ios": "https://dc.lft.to/lastmile_qr_scan"}, "name": "b5ae0b8a2671f4209567fb559968e16d", "type": "electric_scooter"}, {"fusion_lat": 0.0, "bike_id": "f78603d52ff37d46fe16a01a1a14ea06", "fusion_lon": 0.0, "lon": -77.05050366666667, "lat": 38.90517416666667, "is_reserved": 0, "is_disabled": 0, "rental_uris": {"android": "https://dc.lft.to/lastmile_qr_scan", "ios": "https://dc.lft.to/lastmile_qr_scan"}, "name": "f78603d52ff37d46fe16a01a1a14ea06", "type": "electric_scooter"}, {"fusion_lat": 0.0, "bike_id": "2de47c373f9ad1e70ad7eb35a5dc68e4", "fusion_lon": 0.0, "lon": -77.0350465, "lat": 38.921425, "is_reserved": 0, "is_disabled": 0, "rental_uris": {"android": "https://dc.lft.to/lastmile_qr_scan", "ios": "https://dc.lft.to/lastmile_qr_scan"}, "name": "2de47c373f9ad1e70ad7eb35a5dc68e4", "type": "electric_scooter"}, {"fusion_lat": 0.0, "bike_id": "adf1ec5b42a7bc395a8405229d8d680d", "fusion_lon": 0.0, "lon": -77.02455783333333, "lat": 38.90248166666667, "is_reserved": 0, "is_disabled": 0, "rental_uris": {"android": "https://dc.lft.to/lastmile_qr_scan", "ios": "https://dc.lft.to/lastmile_qr_scan"}, "name": "adf1ec5b42a7bc395a8405229d8d680d", "type": "electric_scooter"}, {"fusion_lat": 0.0, "bike_id": "330abca57f2e2d01ef24ac220b65409f", "fusion_lon": 0.0, "lon": -77.03203916666666, "lat": 38.9164275, "is_reserved": 0, "is_disabled": 0, "rental_uris": {"android": "https://dc.lft.to/lastmile_qr_scan", "ios": "https://dc.lft.to/lastmile_qr_scan"}, "name": "330abca57f2e2d01ef24ac220b65409f", "type": "electric_scooter"}, {"fusion_lat": 0.0, "bike_id": "9c511c76a131e530c159ad0744d8cefa", "fusion_lon": 0.0, "lon": -77.00604966666667, "lat": 38.90580716666667, "is_reserved": 0, "is_disabled": 0, "rental_uris": {"android": "https://dc.lft.to/lastmile_qr_scan", "ios": "https://dc.lft.to/lastmile_qr_scan"}, "name": "9c511c76a131e530c159ad0744d8cefa", "type": "electric_scooter"}, {"fusion_lat": 0.0, "bike_id": "e20d6045ae0707b79afc8e4d8ddf87c0", "fusion_lon": 0.0, "lon": -77.04898866666667, "lat": 38.892226, "is_reserved": 0, "is_disabled": 0, "rental_uris": {"android": "https://dc.lft.to/lastmile_qr_scan", "ios": "https://dc.lft.to/lastmile_qr_scan"}, "name": "e20d6045ae0707b79afc8e4d8ddf87c0", "type": "electric_scooter"}, {"fusion_lat": 0.0, "bike_id": "dc267c2215d0c9e1576cefec74aa7ed5", "fusion_lon": 0.0, "lon": -77.0317595, "lat": 38.8962635, "is_reserved": 0, "is_disabled": 0, "rental_uris": {"android": "https://dc.lft.to/lastmile_qr_scan", "ios": "https://dc.lft.to/lastmile_qr_scan"}, "name": "dc267c2215d0c9e1576cefec74aa7ed5", "type": "electric_scooter"}, {"fusion_lat": 0.0, "bike_id": "a9158e9bf103aa5f70ba8e7af89a6ed7", "fusion_lon": 0.0, "lon": -77.06103433333334, "lat": 38.905271, "is_reserved": 0, "is_disabled": 0, "rental_uris": {"android": "https://dc.lft.to/lastmile_qr_scan", "ios": "https://dc.lft.to/lastmile_qr_scan"}, "name": "a9158e9bf103aa5f70ba8e7af89a6ed7", "type": "electric_scooter"}, {"fusion_lat": 0.0, "bike_id": "7a674c6a45373d862148ff5a4adb0f18", "fusion_lon": 0.0, "lon": -76.991231, "lat": 38.908993833333334, "is_reserved": 0, "is_disabled": 0, "rental_uris": {"android": "https://dc.lft.to/lastmile_qr_scan", "ios": "https://dc.lft.to/lastmile_qr_scan"}, "name": "7a674c6a45373d862148ff5a4adb0f18", "type": "electric_scooter"}, {"fusion_lat": 0.0, "bike_id": "15bcd46a94ab35cd7111429bd9b6dec5", "fusion_lon": 0.0, "lon": -76.98710816666667, "lat": 38.866877833333334, "is_reserved": 0, "is_disabled": 0, "rental_uris": {"android": "https://dc.lft.to/lastmile_qr_scan", "ios": "https://dc.lft.to/lastmile_qr_scan"}, "name": "15bcd46a94ab35cd7111429bd9b6dec5", "type": "electric_scooter"}, {"fusion_lat": 0.0, "bike_id": "921a5f69f3c26bb97fc1873c15b0ed63", "fusion_lon": 0.0, "lon": -77.01405033333333, "lat": 38.928511666666665, "is_reserved": 0, "is_disabled": 0, "rental_uris": {"android": "https://dc.lft.to/lastmile_qr_scan", "ios": "https://dc.lft.to/lastmile_qr_scan"}, "name": "921a5f69f3c26bb97fc1873c15b0ed63", "type": "electric_scooter"}, {"fusion_lat": 0.0, "bike_id": "2f1aa1e54a53c3fee147e35f8bdd3b20", "fusion_lon": 0.0, "lon": -77.00887083333333, "lat": 38.926487333333334, "is_reserved": 0, "is_disabled": 0, "rental_uris": {"android": "https://dc.lft.to/lastmile_qr_scan", "ios": "https://dc.lft.to/lastmile_qr_scan"}, "name": "2f1aa1e54a53c3fee147e35f8bdd3b20", "type": "electric_scooter"}, {"fusion_lat": 0.0, "bike_id": "67608a5b40f808dbf853ab5777742bdd", "fusion_lon": 0.0, "lon": -77.04674416666667, "lat": 38.895558, "is_reserved": 0, "is_disabled": 0, "rental_uris": {"android": "https://dc.lft.to/lastmile_qr_scan", "ios": "https://dc.lft.to/lastmile_qr_scan"}, "name": "67608a5b40f808dbf853ab5777742bdd", "type": "electric_scooter"}, {"fusion_lat": 0.0, "bike_id": "4d7a39ed1742609824469fd60f2fbcfe", "fusion_lon": 0.0, "lon": -77.020042, "lat": 38.887378166666664, "is_reserved": 0, "is_disabled": 0, "rental_uris": {"android": "https://dc.lft.to/lastmile_qr_scan", "ios": "https://dc.lft.to/lastmile_qr_scan"}, "name": "4d7a39ed1742609824469fd60f2fbcfe", "type": "electric_scooter"}, {"fusion_lat": 0.0, "bike_id": "0898553c6ef474c6ab51802a792a685f", "fusion_lon": 0.0, "lon": -77.02494066666667, "lat": 38.927419666666665, "is_reserved": 0, "is_disabled": 0, "rental_uris": {"android": "https://dc.lft.to/lastmile_qr_scan", "ios": "https://dc.lft.to/lastmile_qr_scan"}, "name": "0898553c6ef474c6ab51802a792a685f", "type": "electric_scooter"}, {"fusion_lat": 0.0, "bike_id": "7e8cb00bf097eeafc645f74816bf7913", "fusion_lon": 0.0, "lon": -76.99490233333333, "lat": 38.86245816666667, "is_reserved": 0, "is_disabled": 0, "rental_uris": {"android": "https://dc.lft.to/lastmile_qr_scan", "ios": "https://dc.lft.to/lastmile_qr_scan"}, "name": "7e8cb00bf097eeafc645f74816bf7913", "type": "electric_scooter"}, {"fusion_lat": 0.0, "bike_id": "6e16cf2f450a1a24697ccf17f7e5484e", "fusion_lon": 0.0, "lon": -77.0453235, "lat": 38.91328, "is_reserved": 0, "is_disabled": 0, "rental_uris": {"android": "https://dc.lft.to/lastmile_qr_scan", "ios": "https://dc.lft.to/lastmile_qr_scan"}, "name": "6e16cf2f450a1a24697ccf17f7e5484e", "type": "electric_scooter"}, {"fusion_lat": 0.0, "bike_id": "252a30c5060d1bf05db412d594efb82f", "fusion_lon": 0.0, "lon": -77.04373016666666, "lat": 38.89224033333333, "is_reserved": 0, "is_disabled": 0, "rental_uris": {"android": "https://dc.lft.to/lastmile_qr_scan", "ios": "https://dc.lft.to/lastmile_qr_scan"}, "name": "252a30c5060d1bf05db412d594efb82f", "type": "electric_scooter"}, {"fusion_lat": 0.0, "bike_id": "a772ee57a2980e5b33afa8cd857d4471", "fusion_lon": 0.0, "lon": -77.0216265, "lat": 38.894751166666666, "is_reserved": 0, "is_disabled": 0, "rental_uris": {"android": "https://dc.lft.to/lastmile_qr_scan", "ios": "https://dc.lft.to/lastmile_qr_scan"}, "name": "a772ee57a2980e5b33afa8cd857d4471", "type": "electric_scooter"}, {"fusion_lat": 0.0, "bike_id": "52da7f40a4366c775fff1597d7008510", "fusion_lon": 0.0, "lon": -77.050221, "lat": 38.90079883333333, "is_reserved": 0, "is_disabled": 0, "rental_uris": {"android": "https://dc.lft.to/lastmile_qr_scan", "ios": "https://dc.lft.to/lastmile_qr_scan"}, "name": "52da7f40a4366c775fff1597d7008510", "type": "electric_scooter"}, {"fusion_lat": 0.0, "bike_id": "50165d8c85891baf5ff2aaff778df18f", "fusion_lon": 0.0, "lon": -77.01981066666667, "lat": 38.960286333333336, "is_reserved": 0, "is_disabled": 0, "rental_uris": {"android": "https://dc.lft.to/lastmile_qr_scan", "ios": "https://dc.lft.to/lastmile_qr_scan"}, "name": "50165d8c85891baf5ff2aaff778df18f", "type": "electric_scooter"}, {"fusion_lat": 0.0, "bike_id": "93d75fcd7b22d81eb8064c851b4bdbbe", "fusion_lon": 0.0, "lon": -77.05483566666666, "lat": 38.935431666666666, "is_reserved": 0, "is_disabled": 0, "rental_uris": {"android": "https://dc.lft.to/lastmile_qr_scan", "ios": "https://dc.lft.to/lastmile_qr_scan"}, "name": "93d75fcd7b22d81eb8064c851b4bdbbe", "type": "electric_scooter"}, {"fusion_lat": 0.0, "bike_id": "2fc4726555362334e632b96bd312fff3", "fusion_lon": 0.0, "lon": -76.93180166666667, "lat": 38.898864333333336, "is_reserved": 0, "is_disabled": 0, "rental_uris": {"android": "https://dc.lft.to/lastmile_qr_scan", "ios": "https://dc.lft.to/lastmile_qr_scan"}, "name": "2fc4726555362334e632b96bd312fff3", "type": "electric_scooter"}, {"fusion_lat": 0.0, "bike_id": "4aa8c32f4a3ee634ee91effd6ff3eebb", "fusion_lon": 0.0, "lon": -77.04510316666666, "lat": 38.892186333333335, "is_reserved": 0, "is_disabled": 0, "rental_uris": {"android": "https://dc.lft.to/lastmile_qr_scan", "ios": "https://dc.lft.to/lastmile_qr_scan"}, "name": "4aa8c32f4a3ee634ee91effd6ff3eebb", "type": "electric_scooter"}, {"fusion_lat": 0.0, "bike_id": "22a03a9ae12672e2e6ed77a750dc3945", "fusion_lon": 0.0, "lon": -76.974285, "lat": 38.93233566666667, "is_reserved": 0, "is_disabled": 0, "rental_uris": {"android": "https://dc.lft.to/lastmile_qr_scan", "ios": "https://dc.lft.to/lastmile_qr_scan"}, "name": "22a03a9ae12672e2e6ed77a750dc3945", "type": "electric_bike"}, {"fusion_lat": 0.0, "bike_id": "d7e23691678bcd49fdf954e2894dd32d", "fusion_lon": 0.0, "lon": -77.04375733333333, "lat": 38.892197833333334, "is_reserved": 0, "is_disabled": 0, "rental_uris": {"android": "https://dc.lft.to/lastmile_qr_scan", "ios": "https://dc.lft.to/lastmile_qr_scan"}, "name": "d7e23691678bcd49fdf954e2894dd32d", "type": "electric_scooter"}, {"fusion_lat": 0.0, "bike_id": "e888bc47517c619c695cd897084d4e90", "fusion_lon": 0.0, "lon": -77.03736216666667, "lat": 38.9356715, "is_reserved": 0, "is_disabled": 0, "rental_uris": {"android": "https://dc.lft.to/lastmile_qr_scan", "ios": "https://dc.lft.to/lastmile_qr_scan"}, "name": "e888bc47517c619c695cd897084d4e90", "type": "electric_scooter"}, {"fusion_lat": 0.0, "bike_id": "ce2849c1011d60a958dce2521c6ba5f1", "fusion_lon": 0.0, "lon": -77.02584183333333, "lat": 38.9203425, "is_reserved": 0, "is_disabled": 0, "rental_uris": {"android": "https://dc.lft.to/lastmile_qr_scan", "ios": "https://dc.lft.to/lastmile_qr_scan"}, "name": "ce2849c1011d60a958dce2521c6ba5f1", "type": "electric_scooter"}, {"fusion_lat": 0.0, "bike_id": "fbf1eeca6deac3b66df5b2fd0a9fcb15", "fusion_lon": 0.0, "lon": -77.01975666666667, "lat": 38.884006666666664, "is_reserved": 0, "is_disabled": 0, "rental_uris": {"android": "https://dc.lft.to/lastmile_qr_scan", "ios": "https://dc.lft.to/lastmile_qr_scan"}, "name": "fbf1eeca6deac3b66df5b2fd0a9fcb15", "type": "electric_scooter"}, {"fusion_lat": 0.0, "bike_id": "05836d6b09adf661398b8ac308e8e62b", "fusion_lon": 0.0, "lon": -77.05766383333334, "lat": 38.93381383333333, "is_reserved": 0, "is_disabled": 0, "rental_uris": {"android": "https://dc.lft.to/lastmile_qr_scan", "ios": "https://dc.lft.to/lastmile_qr_scan"}, "name": "05836d6b09adf661398b8ac308e8e62b", "type": "electric_scooter"}, {"fusion_lat": 0.0, "bike_id": "9357b63f507585ffffa4108370561921", "fusion_lon": 0.0, "lon": -77.00651716666667, "lat": 38.871609166666666, "is_reserved": 0, "is_disabled": 0, "rental_uris": {"android": "https://dc.lft.to/lastmile_qr_scan", "ios": "https://dc.lft.to/lastmile_qr_scan"}, "name": "9357b63f507585ffffa4108370561921", "type": "electric_scooter"}, {"fusion_lat": 0.0, "bike_id": "a95fd7bf271af9cb8538fb8e7e0e0d15", "fusion_lon": 0.0, "lon": -77.02793833333334, "lat": 38.899499666666664, "is_reserved": 0, "is_disabled": 0, "rental_uris": {"android": "https://dc.lft.to/lastmile_qr_scan", "ios": "https://dc.lft.to/lastmile_qr_scan"}, "name": "a95fd7bf271af9cb8538fb8e7e0e0d15", "type": "electric_scooter"}, {"fusion_lat": 0.0, "bike_id": "e9aebd259ca029c561238edb5f3d41f2", "fusion_lon": 0.0, "lon": -77.04740866666667, "lat": 38.8972755, "is_reserved": 0, "is_disabled": 0, "rental_uris": {"android": "https://dc.lft.to/lastmile_qr_scan", "ios": "https://dc.lft.to/lastmile_qr_scan"}, "name": "e9aebd259ca029c561238edb5f3d41f2", "type": "electric_bike"}, {"fusion_lat": 0.0, "bike_id": "63890f0c8578969f8f9a9c77e60d7f5c", "fusion_lon": 0.0, "lon": -77.0263615, "lat": 38.91685566666666, "is_reserved": 0, "is_disabled": 0, "rental_uris": {"android": "https://dc.lft.to/lastmile_qr_scan", "ios": "https://dc.lft.to/lastmile_qr_scan"}, "name": "63890f0c8578969f8f9a9c77e60d7f5c", "type": "electric_scooter"}, {"fusion_lat": 0.0, "bike_id": "0c2631c7863fdcc5e089cfd4e4a788b1", "fusion_lon": 0.0, "lon": -77.02101266666666, "lat": 38.921549166666665, "is_reserved": 0, "is_disabled": 0, "rental_uris": {"android": "https://dc.lft.to/lastmile_qr_scan", "ios": "https://dc.lft.to/lastmile_qr_scan"}, "name": "0c2631c7863fdcc5e089cfd4e4a788b1", "type": "electric_scooter"}, {"fusion_lat": 0.0, "bike_id": "44675eeca40570d5a19ea526fcda042f", "fusion_lon": 0.0, "lon": -77.028311, "lat": 38.914213333333336, "is_reserved": 0, "is_disabled": 0, "rental_uris": {"android": "https://dc.lft.to/lastmile_qr_scan", "ios": "https://dc.lft.to/lastmile_qr_scan"}, "name": "44675eeca40570d5a19ea526fcda042f", "type": "electric_scooter"}, {"fusion_lat": 0.0, "bike_id": "fbf1d8310380d015ea336a49e26b9b42", "fusion_lon": 0.0, "lon": -77.0273435, "lat": 38.932007166666665, "is_reserved": 0, "is_disabled": 0, "rental_uris": {"android": "https://dc.lft.to/lastmile_qr_scan", "ios": "https://dc.lft.to/lastmile_qr_scan"}, "name": "fbf1d8310380d015ea336a49e26b9b42", "type": "electric_scooter"}, {"fusion_lat": 0.0, "bike_id": "29c88f9c19a5ff00d5a0d01a9f6cedd0", "fusion_lon": 0.0, "lon": -77.02582983333333, "lat": 38.93187983333333, "is_reserved": 0, "is_disabled": 0, "rental_uris": {"android": "https://dc.lft.to/lastmile_qr_scan", "ios": "https://dc.lft.to/lastmile_qr_scan"}, "name": "29c88f9c19a5ff00d5a0d01a9f6cedd0", "type": "electric_scooter"}, {"fusion_lat": 0.0, "bike_id": "f1d871ae8b9e22b6536097b89cafa532", "fusion_lon": 0.0, "lon": -77.03181466666666, "lat": 38.89221666666667, "is_reserved": 0, "is_disabled": 0, "rental_uris": {"android": "https://dc.lft.to/lastmile_qr_scan", "ios": "https://dc.lft.to/lastmile_qr_scan"}, "name": "f1d871ae8b9e22b6536097b89cafa532", "type": "electric_scooter"}, {"fusion_lat": 0.0, "bike_id": "d681d2104010c78e7dfdd0b45e52f05a", "fusion_lon": 0.0, "lon": -77.02156766666667, "lat": 38.92683483333333, "is_reserved": 0, "is_disabled": 0, "rental_uris": {"android": "https://dc.lft.to/lastmile_qr_scan", "ios": "https://dc.lft.to/lastmile_qr_scan"}, "name": "d681d2104010c78e7dfdd0b45e52f05a", "type": "electric_scooter"}, {"fusion_lat": 0.0, "bike_id": "73964849a1920126ff1a7173ddb1275d", "fusion_lon": 0.0, "lon": -77.0332825, "lat": 38.90965033333333, "is_reserved": 0, "is_disabled": 0, "rental_uris": {"android": "https://dc.lft.to/lastmile_qr_scan", "ios": "https://dc.lft.to/lastmile_qr_scan"}, "name": "73964849a1920126ff1a7173ddb1275d", "type": "electric_scooter"}, {"fusion_lat": 0.0, "bike_id": "c7147e3cf46639d658063bbdaf9bb4cb", "fusion_lon": 0.0, "lon": -76.93186883333334, "lat": 38.89874783333333, "is_reserved": 0, "is_disabled": 0, "rental_uris": {"android": "https://dc.lft.to/lastmile_qr_scan", "ios": "https://dc.lft.to/lastmile_qr_scan"}, "name": "c7147e3cf46639d658063bbdaf9bb4cb", "type": "electric_scooter"}, {"fusion_lat": 0.0, "bike_id": "57079ef9569bbb85e2154e7701da95ac", "fusion_lon": 0.0, "lon": -77.0790785, "lat": 38.8393385, "is_reserved": 0, "is_disabled": 0, "rental_uris": {"android": "https://dc.lft.to/lastmile_qr_scan", "ios": "https://dc.lft.to/lastmile_qr_scan"}, "name": "57079ef9569bbb85e2154e7701da95ac", "type": "electric_bike"}, {"fusion_lat": 0.0, "bike_id": "3853afc5b5bed128ea27a8e1fa58ad6a", "fusion_lon": 0.0, "lon": -77.04035066666667, "lat": 38.9012145, "is_reserved": 0, "is_disabled": 0, "rental_uris": {"android": "https://dc.lft.to/lastmile_qr_scan", "ios": "https://dc.lft.to/lastmile_qr_scan"}, "name": "3853afc5b5bed128ea27a8e1fa58ad6a", "type": "electric_scooter"}, {"fusion_lat": 0.0, "bike_id": "8ad96c5da241128cfaf6eae3192d3339", "fusion_lon": 0.0, "lon": -77.03672966666667, "lat": 38.922690833333334, "is_reserved": 0, "is_disabled": 0, "rental_uris": {"android": "https://dc.lft.to/lastmile_qr_scan", "ios": "https://dc.lft.to/lastmile_qr_scan"}, "name": "8ad96c5da241128cfaf6eae3192d3339", "type": "electric_scooter"}, {"fusion_lat": 0.0, "bike_id": "3fb95b28ef0a8816ae3629723f3b3e74", "fusion_lon": 0.0, "lon": -77.03066066666666, "lat": 38.92242816666667, "is_reserved": 0, "is_disabled": 0, "rental_uris": {"android": "https://dc.lft.to/lastmile_qr_scan", "ios": "https://dc.lft.to/lastmile_qr_scan"}, "name": "3fb95b28ef0a8816ae3629723f3b3e74", "type": "electric_scooter"}, {"fusion_lat": 0.0, "bike_id": "ca6a4076639e5167ffe738e4aff6b700", "fusion_lon": 0.0, "lon": -77.03601066666667, "lat": 38.93482616666667, "is_reserved": 0, "is_disabled": 0, "rental_uris": {"android": "https://dc.lft.to/lastmile_qr_scan", "ios": "https://dc.lft.to/lastmile_qr_scan"}, "name": "ca6a4076639e5167ffe738e4aff6b700", "type": "electric_scooter"}, {"fusion_lat": 0.0, "bike_id": "1eeda289ec2e26e006729e918842f5fc", "fusion_lon": 0.0, "lon": -77.04162916666667, "lat": 38.91980866666667, "is_reserved": 0, "is_disabled": 0, "rental_uris": {"android": "https://dc.lft.to/lastmile_qr_scan", "ios": "https://dc.lft.to/lastmile_qr_scan"}, "name": "1eeda289ec2e26e006729e918842f5fc", "type": "electric_scooter"}, {"fusion_lat": 0.0, "bike_id": "c2f3ab62890d95a593642770fc448fa3", "fusion_lon": 0.0, "lon": -76.9968645, "lat": 38.8869295, "is_reserved": 0, "is_disabled": 0, "rental_uris": {"android": "https://dc.lft.to/lastmile_qr_scan", "ios": "https://dc.lft.to/lastmile_qr_scan"}, "name": "c2f3ab62890d95a593642770fc448fa3", "type": "electric_scooter"}, {"fusion_lat": 0.0, "bike_id": "2f12ea9e9de970227c61591b6d868a8c", "fusion_lon": 0.0, "lon": -77.053404, "lat": 38.852605, "is_reserved": 0, "is_disabled": 0, "rental_uris": {"android": "https://dc.lft.to/lastmile_qr_scan", "ios": "https://dc.lft.to/lastmile_qr_scan"}, "name": "2f12ea9e9de970227c61591b6d868a8c", "type": "electric_bike"}, {"fusion_lat": 0.0, "bike_id": "5277a84e1856c1d6aa359161380ebeca", "fusion_lon": 0.0, "lon": -77.0344505, "lat": 38.918002, "is_reserved": 0, "is_disabled": 0, "rental_uris": {"android": "https://dc.lft.to/lastmile_qr_scan", "ios": "https://dc.lft.to/lastmile_qr_scan"}, "name": "5277a84e1856c1d6aa359161380ebeca", "type": "electric_scooter"}, {"fusion_lat": 0.0, "bike_id": "7a6d49f76e9d8137c5689c0f6afe3c5e", "fusion_lon": 0.0, "lon": -76.92193433333334, "lat": 38.89490283333333, "is_reserved": 0, "is_disabled": 0, "rental_uris": {"android": "https://dc.lft.to/lastmile_qr_scan", "ios": "https://dc.lft.to/lastmile_qr_scan"}, "name": "7a6d49f76e9d8137c5689c0f6afe3c5e", "type": "electric_bike"}, {"fusion_lat": 0.0, "bike_id": "9cc928b3974b41bd20b2a0f80db5d72b", "fusion_lon": 0.0, "lon": -77.004374, "lat": 38.87745116666667, "is_reserved": 0, "is_disabled": 0, "rental_uris": {"android": "https://dc.lft.to/lastmile_qr_scan", "ios": "https://dc.lft.to/lastmile_qr_scan"}, "name": "9cc928b3974b41bd20b2a0f80db5d72b", "type": "electric_scooter"}, {"fusion_lat": 0.0, "bike_id": "4a9ed9eea860489c99c720010e244dea", "fusion_lon": 0.0, "lon": -77.02776966666667, "lat": 38.891913333333335, "is_reserved": 0, "is_disabled": 0, "rental_uris": {"android": "https://dc.lft.to/lastmile_qr_scan", "ios": "https://dc.lft.to/lastmile_qr_scan"}, "name": "4a9ed9eea860489c99c720010e244dea", "type": "electric_scooter"}, {"fusion_lat": 0.0, "bike_id": "8f6afcbe00d29158a9cb1d77ba66b98c", "fusion_lon": 0.0, "lon": -76.98253633333333, "lat": 38.90470766666667, "is_reserved": 0, "is_disabled": 0, "rental_uris": {"android": "https://dc.lft.to/lastmile_qr_scan", "ios": "https://dc.lft.to/lastmile_qr_scan"}, "name": "8f6afcbe00d29158a9cb1d77ba66b98c", "type": "electric_scooter"}, {"fusion_lat": 0.0, "bike_id": "23b09979038592087e769f1ed14ad83d", "fusion_lon": 0.0, "lon": -77.11971583333333, "lat": 38.8490195, "is_reserved": 0, "is_disabled": 0, "rental_uris": {"android": "https://dc.lft.to/lastmile_qr_scan", "ios": "https://dc.lft.to/lastmile_qr_scan"}, "name": "23b09979038592087e769f1ed14ad83d", "type": "electric_bike"}, {"fusion_lat": 0.0, "bike_id": "108e1e3c509447aaac14e6feeaa999fb", "fusion_lon": 0.0, "lon": -77.00330033333333, "lat": 38.893641833333334, "is_reserved": 0, "is_disabled": 0, "rental_uris": {"android": "https://dc.lft.to/lastmile_qr_scan", "ios": "https://dc.lft.to/lastmile_qr_scan"}, "name": "108e1e3c509447aaac14e6feeaa999fb", "type": "electric_scooter"}, {"fusion_lat": 0.0, "bike_id": "bc0d7542d5730f5bd6e3fc72b3450a29", "fusion_lon": 0.0, "lon": -76.9774435, "lat": 38.864731166666665, "is_reserved": 0, "is_disabled": 0, "rental_uris": {"android": "https://dc.lft.to/lastmile_qr_scan", "ios": "https://dc.lft.to/lastmile_qr_scan"}, "name": "bc0d7542d5730f5bd6e3fc72b3450a29", "type": "electric_scooter"}, {"fusion_lat": 0.0, "bike_id": "99c92d4ea8ae167ef3be4d44c134bd7e", "fusion_lon": 0.0, "lon": -77.03847866666666, "lat": 38.9216725, "is_reserved": 0, "is_disabled": 0, "rental_uris": {"android": "https://dc.lft.to/lastmile_qr_scan", "ios": "https://dc.lft.to/lastmile_qr_scan"}, "name": "99c92d4ea8ae167ef3be4d44c134bd7e", "type": "electric_scooter"}, {"fusion_lat": 0.0, "bike_id": "3ed3ba49cdc093eaa943fdcd0fbd65e0", "fusion_lon": 0.0, "lon": -77.04509683333333, "lat": 38.91105066666667, "is_reserved": 0, "is_disabled": 0, "rental_uris": {"android": "https://dc.lft.to/lastmile_qr_scan", "ios": "https://dc.lft.to/lastmile_qr_scan"}, "name": "3ed3ba49cdc093eaa943fdcd0fbd65e0", "type": "electric_scooter"}, {"fusion_lat": 0.0, "bike_id": "51d9bd420b66584d53efc7c62c624826", "fusion_lon": 0.0, "lon": -77.03544966666666, "lat": 38.924179, "is_reserved": 0, "is_disabled": 0, "rental_uris": {"android": "https://dc.lft.to/lastmile_qr_scan", "ios": "https://dc.lft.to/lastmile_qr_scan"}, "name": "51d9bd420b66584d53efc7c62c624826", "type": "electric_scooter"}, {"fusion_lat": 0.0, "bike_id": "a82b211fde71bd65ddcdbf037033bee2", "fusion_lon": 0.0, "lon": -77.07608116666667, "lat": 38.920524, "is_reserved": 0, "is_disabled": 0, "rental_uris": {"android": "https://dc.lft.to/lastmile_qr_scan", "ios": "https://dc.lft.to/lastmile_qr_scan"}, "name": "a82b211fde71bd65ddcdbf037033bee2", "type": "electric_scooter"}, {"fusion_lat": 0.0, "bike_id": "9477362364e098c3d047d208f6982280", "fusion_lon": 0.0, "lon": -77.03171566666667, "lat": 38.91815883333334, "is_reserved": 0, "is_disabled": 0, "rental_uris": {"android": "https://dc.lft.to/lastmile_qr_scan", "ios": "https://dc.lft.to/lastmile_qr_scan"}, "name": "9477362364e098c3d047d208f6982280", "type": "electric_scooter"}, {"fusion_lat": 0.0, "bike_id": "4eac334c8a8d753c2cc8d83d2a411932", "fusion_lon": 0.0, "lon": -77.04183416666666, "lat": 38.89250333333333, "is_reserved": 0, "is_disabled": 0, "rental_uris": {"android": "https://dc.lft.to/lastmile_qr_scan", "ios": "https://dc.lft.to/lastmile_qr_scan"}, "name": "4eac334c8a8d753c2cc8d83d2a411932", "type": "electric_scooter"}, {"fusion_lat": 0.0, "bike_id": "0f87fe0dd977e878d76ac231908b4569", "fusion_lon": 0.0, "lon": -77.017862, "lat": 38.88598366666667, "is_reserved": 0, "is_disabled": 0, "rental_uris": {"android": "https://dc.lft.to/lastmile_qr_scan", "ios": "https://dc.lft.to/lastmile_qr_scan"}, "name": "0f87fe0dd977e878d76ac231908b4569", "type": "electric_scooter"}, {"fusion_lat": 0.0, "bike_id": "fcb67326961235f724b26c70a9d8fee5", "fusion_lon": 0.0, "lon": -77.02844, "lat": 38.88743616666667, "is_reserved": 0, "is_disabled": 0, "rental_uris": {"android": "https://dc.lft.to/lastmile_qr_scan", "ios": "https://dc.lft.to/lastmile_qr_scan"}, "name": "fcb67326961235f724b26c70a9d8fee5", "type": "electric_scooter"}, {"fusion_lat": 0.0, "bike_id": "2e7c9320a37cfc420a9d2c1b2636281f", "fusion_lon": 0.0, "lon": -77.0220565, "lat": 38.92238016666667, "is_reserved": 0, "is_disabled": 0, "rental_uris": {"android": "https://dc.lft.to/lastmile_qr_scan", "ios": "https://dc.lft.to/lastmile_qr_scan"}, "name": "2e7c9320a37cfc420a9d2c1b2636281f", "type": "electric_scooter"}, {"fusion_lat": 0.0, "bike_id": "5e74106956d57729dcac09a252664501", "fusion_lon": 0.0, "lon": -77.06341333333333, "lat": 38.90683716666667, "is_reserved": 0, "is_disabled": 0, "rental_uris": {"android": "https://dc.lft.to/lastmile_qr_scan", "ios": "https://dc.lft.to/lastmile_qr_scan"}, "name": "5e74106956d57729dcac09a252664501", "type": "electric_scooter"}, {"fusion_lat": 0.0, "bike_id": "c7e2710616dc86ee2ebca6ccfafc122c", "fusion_lon": 0.0, "lon": -77.03495216666667, "lat": 38.93752683333334, "is_reserved": 0, "is_disabled": 0, "rental_uris": {"android": "https://dc.lft.to/lastmile_qr_scan", "ios": "https://dc.lft.to/lastmile_qr_scan"}, "name": "c7e2710616dc86ee2ebca6ccfafc122c", "type": "electric_scooter"}, {"fusion_lat": 0.0, "bike_id": "3b9a3108f39d00ea2a28404805911b8b", "fusion_lon": 0.0, "lon": -77.0045375, "lat": 38.876589, "is_reserved": 0, "is_disabled": 0, "rental_uris": {"android": "https://dc.lft.to/lastmile_qr_scan", "ios": "https://dc.lft.to/lastmile_qr_scan"}, "name": "3b9a3108f39d00ea2a28404805911b8b", "type": "electric_scooter"}, {"fusion_lat": 0.0, "bike_id": "4b389d6a817c3254b0a86e981bda4f6f", "fusion_lon": 0.0, "lon": -76.98354183333333, "lat": 38.887683, "is_reserved": 0, "is_disabled": 0, "rental_uris": {"android": "https://dc.lft.to/lastmile_qr_scan", "ios": "https://dc.lft.to/lastmile_qr_scan"}, "name": "4b389d6a817c3254b0a86e981bda4f6f", "type": "electric_scooter"}, {"fusion_lat": 0.0, "bike_id": "f2e121a71f0ce4edcc2c8769f82dca9c", "fusion_lon": 0.0, "lon": -77.0326125, "lat": 38.915603, "is_reserved": 0, "is_disabled": 0, "rental_uris": {"android": "https://dc.lft.to/lastmile_qr_scan", "ios": "https://dc.lft.to/lastmile_qr_scan"}, "name": "f2e121a71f0ce4edcc2c8769f82dca9c", "type": "electric_scooter"}, {"fusion_lat": 0.0, "bike_id": "bb475cd0869a5d5b12b9b06eb1b76fa1", "fusion_lon": 0.0, "lon": -77.04272016666667, "lat": 38.9224495, "is_reserved": 0, "is_disabled": 0, "rental_uris": {"android": "https://dc.lft.to/lastmile_qr_scan", "ios": "https://dc.lft.to/lastmile_qr_scan"}, "name": "bb475cd0869a5d5b12b9b06eb1b76fa1", "type": "electric_scooter"}, {"fusion_lat": 0.0, "bike_id": "b50f40ba6cc2e96d6ab198e5364b2fcb", "fusion_lon": 0.0, "lon": -77.03427916666666, "lat": 38.92241716666667, "is_reserved": 0, "is_disabled": 0, "rental_uris": {"android": "https://dc.lft.to/lastmile_qr_scan", "ios": "https://dc.lft.to/lastmile_qr_scan"}, "name": "b50f40ba6cc2e96d6ab198e5364b2fcb", "type": "electric_scooter"}, {"fusion_lat": 0.0, "bike_id": "366cc483ae09892a075ea5501015841d", "fusion_lon": 0.0, "lon": -77.03847233333333, "lat": 38.910167333333334, "is_reserved": 0, "is_disabled": 0, "rental_uris": {"android": "https://dc.lft.to/lastmile_qr_scan", "ios": "https://dc.lft.to/lastmile_qr_scan"}, "name": "366cc483ae09892a075ea5501015841d", "type": "electric_scooter"}, {"fusion_lat": 0.0, "bike_id": "74803ddc84e1dac3cfbcdc40dadaf46a", "fusion_lon": 0.0, "lon": -76.94635516666666, "lat": 38.89831933333333, "is_reserved": 0, "is_disabled": 0, "rental_uris": {"android": "https://dc.lft.to/lastmile_qr_scan", "ios": "https://dc.lft.to/lastmile_qr_scan"}, "name": "74803ddc84e1dac3cfbcdc40dadaf46a", "type": "electric_scooter"}, {"fusion_lat": 0.0, "bike_id": "66175631981ffba71a88af6d1799f7ea", "fusion_lon": 0.0, "lon": -77.0283045, "lat": 38.88731, "is_reserved": 0, "is_disabled": 0, "rental_uris": {"android": "https://dc.lft.to/lastmile_qr_scan", "ios": "https://dc.lft.to/lastmile_qr_scan"}, "name": "66175631981ffba71a88af6d1799f7ea", "type": "electric_scooter"}, {"fusion_lat": 0.0, "bike_id": "8a664612b98e086aa2890238ff29b2ba", "fusion_lon": 0.0, "lon": -76.97393566666666, "lat": 38.905571333333334, "is_reserved": 0, "is_disabled": 0, "rental_uris": {"android": "https://dc.lft.to/lastmile_qr_scan", "ios": "https://dc.lft.to/lastmile_qr_scan"}, "name": "8a664612b98e086aa2890238ff29b2ba", "type": "electric_scooter"}, {"fusion_lat": 0.0, "bike_id": "813ae045bba9c27ceb6c53f705358bfe", "fusion_lon": 0.0, "lon": -77.02305833333334, "lat": 38.94086683333333, "is_reserved": 0, "is_disabled": 0, "rental_uris": {"android": "https://dc.lft.to/lastmile_qr_scan", "ios": "https://dc.lft.to/lastmile_qr_scan"}, "name": "813ae045bba9c27ceb6c53f705358bfe", "type": "electric_scooter"}, {"fusion_lat": 0.0, "bike_id": "d7599fce2501e1a4fa2254d1e8c104fa", "fusion_lon": 0.0, "lon": -76.97549583333333, "lat": 38.90320166666667, "is_reserved": 0, "is_disabled": 0, "rental_uris": {"android": "https://dc.lft.to/lastmile_qr_scan", "ios": "https://dc.lft.to/lastmile_qr_scan"}, "name": "d7599fce2501e1a4fa2254d1e8c104fa", "type": "electric_scooter"}, {"fusion_lat": 0.0, "bike_id": "48930ee806c085789fa52cd614e4e9c2", "fusion_lon": 0.0, "lon": -77.10542333333333, "lat": 38.85508766666667, "is_reserved": 0, "is_disabled": 0, "rental_uris": {"android": "https://dc.lft.to/lastmile_qr_scan", "ios": "https://dc.lft.to/lastmile_qr_scan"}, "name": "48930ee806c085789fa52cd614e4e9c2", "type": "electric_bike"}, {"fusion_lat": 0.0, "bike_id": "1b2804c1de26f066e137ee8d17ea7d9c", "fusion_lon": 0.0, "lon": -77.02197166666667, "lat": 38.90020616666666, "is_reserved": 0, "is_disabled": 0, "rental_uris": {"android": "https://dc.lft.to/lastmile_qr_scan", "ios": "https://dc.lft.to/lastmile_qr_scan"}, "name": "1b2804c1de26f066e137ee8d17ea7d9c", "type": "electric_scooter"}, {"fusion_lat": 0.0, "bike_id": "d6835fcac963d3f3e1dfa2aa46e6ed62", "fusion_lon": 0.0, "lon": -77.05023383333334, "lat": 38.901563, "is_reserved": 0, "is_disabled": 0, "rental_uris": {"android": "https://dc.lft.to/lastmile_qr_scan", "ios": "https://dc.lft.to/lastmile_qr_scan"}, "name": "d6835fcac963d3f3e1dfa2aa46e6ed62", "type": "electric_scooter"}, {"fusion_lat": 0.0, "bike_id": "791d9890054bec15b5cbdc13cc5ab92b", "fusion_lon": 0.0, "lon": -77.03198383333333, "lat": 38.912517, "is_reserved": 0, "is_disabled": 0, "rental_uris": {"android": "https://dc.lft.to/lastmile_qr_scan", "ios": "https://dc.lft.to/lastmile_qr_scan"}, "name": "791d9890054bec15b5cbdc13cc5ab92b", "type": "electric_scooter"}, {"fusion_lat": 0.0, "bike_id": "69c418c0ccf19f92f4c381f1d84465e0", "fusion_lon": 0.0, "lon": -77.06904616666667, "lat": 38.90395783333334, "is_reserved": 0, "is_disabled": 0, "rental_uris": {"android": "https://dc.lft.to/lastmile_qr_scan", "ios": "https://dc.lft.to/lastmile_qr_scan"}, "name": "69c418c0ccf19f92f4c381f1d84465e0", "type": "electric_bike"}, {"fusion_lat": 0.0, "bike_id": "7db97b597e72269e1989e496d146f18d", "fusion_lon": 0.0, "lon": -77.006521, "lat": 38.871571833333334, "is_reserved": 0, "is_disabled": 0, "rental_uris": {"android": "https://dc.lft.to/lastmile_qr_scan", "ios": "https://dc.lft.to/lastmile_qr_scan"}, "name": "7db97b597e72269e1989e496d146f18d", "type": "electric_scooter"}, {"fusion_lat": 0.0, "bike_id": "14279e91c66c804bab2b8afc1e5dd8aa", "fusion_lon": 0.0, "lon": -76.99366233333333, "lat": 38.86144783333334, "is_reserved": 0, "is_disabled": 0, "rental_uris": {"android": "https://dc.lft.to/lastmile_qr_scan", "ios": "https://dc.lft.to/lastmile_qr_scan"}, "name": "14279e91c66c804bab2b8afc1e5dd8aa", "type": "electric_scooter"}, {"fusion_lat": 0.0, "bike_id": "dae10bde962e8e1e68304408e0974658", "fusion_lon": 0.0, "lon": -76.935474, "lat": 38.8901855, "is_reserved": 0, "is_disabled": 0, "rental_uris": {"android": "https://dc.lft.to/lastmile_qr_scan", "ios": "https://dc.lft.to/lastmile_qr_scan"}, "name": "dae10bde962e8e1e68304408e0974658", "type": "electric_scooter"}, {"fusion_lat": 0.0, "bike_id": "c1a09d48813059d536e01ed35c2d11b7", "fusion_lon": 0.0, "lon": -77.030552, "lat": 38.884206, "is_reserved": 0, "is_disabled": 0, "rental_uris": {"android": "https://dc.lft.to/lastmile_qr_scan", "ios": "https://dc.lft.to/lastmile_qr_scan"}, "name": "c1a09d48813059d536e01ed35c2d11b7", "type": "electric_scooter"}, {"fusion_lat": 0.0, "bike_id": "b8c2bf8a1149faaf9094212a2524b568", "fusion_lon": 0.0, "lon": -76.95750783333334, "lat": 38.88428316666667, "is_reserved": 0, "is_disabled": 0, "rental_uris": {"android": "https://dc.lft.to/lastmile_qr_scan", "ios": "https://dc.lft.to/lastmile_qr_scan"}, "name": "b8c2bf8a1149faaf9094212a2524b568", "type": "electric_scooter"}, {"fusion_lat": 0.0, "bike_id": "f7f0b481b0e343864ee81b792a0e6ced", "fusion_lon": 0.0, "lon": -77.04472683333333, "lat": 38.90864716666667, "is_reserved": 0, "is_disabled": 0, "rental_uris": {"android": "https://dc.lft.to/lastmile_qr_scan", "ios": "https://dc.lft.to/lastmile_qr_scan"}, "name": "f7f0b481b0e343864ee81b792a0e6ced", "type": "electric_scooter"}, {"fusion_lat": 0.0, "bike_id": "4e4f4f0e396ed2bc5736fb74705159b4", "fusion_lon": 0.0, "lon": -77.043016, "lat": 38.908984833333335, "is_reserved": 0, "is_disabled": 0, "rental_uris": {"android": "https://dc.lft.to/lastmile_qr_scan", "ios": "https://dc.lft.to/lastmile_qr_scan"}, "name": "4e4f4f0e396ed2bc5736fb74705159b4", "type": "electric_scooter"}, {"fusion_lat": 0.0, "bike_id": "67349c16f5793be2afbb639e6429035f", "fusion_lon": 0.0, "lon": -77.03181083333334, "lat": 38.902915, "is_reserved": 0, "is_disabled": 0, "rental_uris": {"android": "https://dc.lft.to/lastmile_qr_scan", "ios": "https://dc.lft.to/lastmile_qr_scan"}, "name": "67349c16f5793be2afbb639e6429035f", "type": "electric_scooter"}, {"fusion_lat": 0.0, "bike_id": "8eebe53338b65eee5e7f40fd0097e677", "fusion_lon": 0.0, "lon": -77.03345033333333, "lat": 38.92434166666666, "is_reserved": 0, "is_disabled": 0, "rental_uris": {"android": "https://dc.lft.to/lastmile_qr_scan", "ios": "https://dc.lft.to/lastmile_qr_scan"}, "name": "8eebe53338b65eee5e7f40fd0097e677", "type": "electric_scooter"}, {"fusion_lat": 0.0, "bike_id": "c5d8afaab5762491fc932276fd2f66b3", "fusion_lon": 0.0, "lon": -77.0406685, "lat": 38.90962016666667, "is_reserved": 0, "is_disabled": 0, "rental_uris": {"android": "https://dc.lft.to/lastmile_qr_scan", "ios": "https://dc.lft.to/lastmile_qr_scan"}, "name": "c5d8afaab5762491fc932276fd2f66b3", "type": "electric_scooter"}, {"fusion_lat": 0.0, "bike_id": "19bb91f44f6ded502d5622bc4fbddfd8", "fusion_lon": 0.0, "lon": -77.03477166666667, "lat": 38.9087725, "is_reserved": 0, "is_disabled": 0, "rental_uris": {"android": "https://dc.lft.to/lastmile_qr_scan", "ios": "https://dc.lft.to/lastmile_qr_scan"}, "name": "19bb91f44f6ded502d5622bc4fbddfd8", "type": "electric_scooter"}, {"fusion_lat": 0.0, "bike_id": "f6a600dabc35d0264171e44f8e092d39", "fusion_lon": 0.0, "lon": -76.98946833333333, "lat": 38.90185683333333, "is_reserved": 0, "is_disabled": 0, "rental_uris": {"android": "https://dc.lft.to/lastmile_qr_scan", "ios": "https://dc.lft.to/lastmile_qr_scan"}, "name": "f6a600dabc35d0264171e44f8e092d39", "type": "electric_scooter"}, {"fusion_lat": 0.0, "bike_id": "145240dde6b3b67b564361e222328246", "fusion_lon": 0.0, "lon": -76.97753383333334, "lat": 38.864859333333335, "is_reserved": 0, "is_disabled": 0, "rental_uris": {"android": "https://dc.lft.to/lastmile_qr_scan", "ios": "https://dc.lft.to/lastmile_qr_scan"}, "name": "145240dde6b3b67b564361e222328246", "type": "electric_bike"}, {"fusion_lat": 0.0, "bike_id": "5a8a8b74f84cdbb3500978b5ca6855d6", "fusion_lon": 0.0, "lon": -77.021998, "lat": 38.911237, "is_reserved": 0, "is_disabled": 0, "rental_uris": {"android": "https://dc.lft.to/lastmile_qr_scan", "ios": "https://dc.lft.to/lastmile_qr_scan"}, "name": "5a8a8b74f84cdbb3500978b5ca6855d6", "type": "electric_scooter"}, {"fusion_lat": 0.0, "bike_id": "963a378cc5d8f5e1f667e251d8cc88f2", "fusion_lon": 0.0, "lon": -76.999342, "lat": 38.843106166666665, "is_reserved": 0, "is_disabled": 0, "rental_uris": {"android": "https://dc.lft.to/lastmile_qr_scan", "ios": "https://dc.lft.to/lastmile_qr_scan"}, "name": "963a378cc5d8f5e1f667e251d8cc88f2", "type": "electric_scooter"}, {"fusion_lat": 0.0, "bike_id": "fb1e70725f648c5aaf509dd8822e14df", "fusion_lon": 0.0, "lon": -77.05710016666667, "lat": 38.92597133333334, "is_reserved": 0, "is_disabled": 0, "rental_uris": {"android": "https://dc.lft.to/lastmile_qr_scan", "ios": "https://dc.lft.to/lastmile_qr_scan"}, "name": "fb1e70725f648c5aaf509dd8822e14df", "type": "electric_bike"}, {"fusion_lat": 0.0, "bike_id": "0f860bc736484d29ad4cf265ed080142", "fusion_lon": 0.0, "lon": -77.03542416666667, "lat": 38.925875833333336, "is_reserved": 0, "is_disabled": 0, "rental_uris": {"android": "https://dc.lft.to/lastmile_qr_scan", "ios": "https://dc.lft.to/lastmile_qr_scan"}, "name": "0f860bc736484d29ad4cf265ed080142", "type": "electric_scooter"}, {"fusion_lat": 0.0, "bike_id": "bb1152b92b6e9bc384186f1d88ad9041", "fusion_lon": 0.0, "lon": -77.18566283333334, "lat": 39.0996955, "is_reserved": 0, "is_disabled": 0, "rental_uris": {"android": "https://dc.lft.to/lastmile_qr_scan", "ios": "https://dc.lft.to/lastmile_qr_scan"}, "name": "bb1152b92b6e9bc384186f1d88ad9041", "type": "electric_bike"}, {"fusion_lat": 0.0, "bike_id": "e678bd13d5ae909e5ac106655e1650e0", "fusion_lon": 0.0, "lon": -77.02094266666667, "lat": 38.92150916666667, "is_reserved": 0, "is_disabled": 0, "rental_uris": {"android": "https://dc.lft.to/lastmile_qr_scan", "ios": "https://dc.lft.to/lastmile_qr_scan"}, "name": "e678bd13d5ae909e5ac106655e1650e0", "type": "electric_scooter"}, {"fusion_lat": 0.0, "bike_id": "a0884e34987d33141a08b77bc51fb901", "fusion_lon": 0.0, "lon": -77.0412695, "lat": 38.92719983333333, "is_reserved": 0, "is_disabled": 0, "rental_uris": {"android": "https://dc.lft.to/lastmile_qr_scan", "ios": "https://dc.lft.to/lastmile_qr_scan"}, "name": "a0884e34987d33141a08b77bc51fb901", "type": "electric_scooter"}, {"fusion_lat": 0.0, "bike_id": "0b357ea0e3427a442a2b3cb4b51c8db2", "fusion_lon": 0.0, "lon": -77.04652933333334, "lat": 39.054970833333336, "is_reserved": 0, "is_disabled": 0, "rental_uris": {"android": "https://dc.lft.to/lastmile_qr_scan", "ios": "https://dc.lft.to/lastmile_qr_scan"}, "name": "0b357ea0e3427a442a2b3cb4b51c8db2", "type": "electric_bike"}, {"fusion_lat": 0.0, "bike_id": "a3a07022674f62a5f76849f5fce723d7", "fusion_lon": 0.0, "lon": -77.0295345, "lat": 38.88503766666667, "is_reserved": 0, "is_disabled": 0, "rental_uris": {"android": "https://dc.lft.to/lastmile_qr_scan", "ios": "https://dc.lft.to/lastmile_qr_scan"}, "name": "a3a07022674f62a5f76849f5fce723d7", "type": "electric_scooter"}, {"fusion_lat": 0.0, "bike_id": "763cd5fbb036a3fa1b1e229e94ea4be7", "fusion_lon": 0.0, "lon": -77.03677616666667, "lat": 38.9037545, "is_reserved": 0, "is_disabled": 0, "rental_uris": {"android": "https://dc.lft.to/lastmile_qr_scan", "ios": "https://dc.lft.to/lastmile_qr_scan"}, "name": "763cd5fbb036a3fa1b1e229e94ea4be7", "type": "electric_scooter"}, {"fusion_lat": 0.0, "bike_id": "8eee91f28660ff52151e673cd4691225", "fusion_lon": 0.0, "lon": -77.03883883333333, "lat": 38.948700333333335, "is_reserved": 0, "is_disabled": 0, "rental_uris": {"android": "https://dc.lft.to/lastmile_qr_scan", "ios": "https://dc.lft.to/lastmile_qr_scan"}, "name": "8eee91f28660ff52151e673cd4691225", "type": "electric_scooter"}, {"fusion_lat": 0.0, "bike_id": "8f294c5b35c7e414acaf4324d7b38dbe", "fusion_lon": 0.0, "lon": -76.95657533333333, "lat": 38.8962455, "is_reserved": 0, "is_disabled": 0, "rental_uris": {"android": "https://dc.lft.to/lastmile_qr_scan", "ios": "https://dc.lft.to/lastmile_qr_scan"}, "name": "8f294c5b35c7e414acaf4324d7b38dbe", "type": "electric_scooter"}, {"fusion_lat": 0.0, "bike_id": "9663e692a8f0ec727b0df6f358e088ae", "fusion_lon": 0.0, "lon": -77.04335516666667, "lat": 38.90246833333333, "is_reserved": 0, "is_disabled": 0, "rental_uris": {"android": "https://dc.lft.to/lastmile_qr_scan", "ios": "https://dc.lft.to/lastmile_qr_scan"}, "name": "9663e692a8f0ec727b0df6f358e088ae", "type": "electric_scooter"}, {"fusion_lat": 0.0, "bike_id": "5dbbc55114c5adc392deeeac3d81fb57", "fusion_lon": 0.0, "lon": -77.03334633333333, "lat": 38.90380016666667, "is_reserved": 0, "is_disabled": 0, "rental_uris": {"android": "https://dc.lft.to/lastmile_qr_scan", "ios": "https://dc.lft.to/lastmile_qr_scan"}, "name": "5dbbc55114c5adc392deeeac3d81fb57", "type": "electric_scooter"}, {"fusion_lat": 0.0, "bike_id": "aae8c78945d78fd4d0277fc120efd754", "fusion_lon": 0.0, "lon": -77.02477583333334, "lat": 38.9169035, "is_reserved": 0, "is_disabled": 0, "rental_uris": {"android": "https://dc.lft.to/lastmile_qr_scan", "ios": "https://dc.lft.to/lastmile_qr_scan"}, "name": "aae8c78945d78fd4d0277fc120efd754", "type": "electric_scooter"}, {"fusion_lat": 0.0, "bike_id": "7f6e1887c70ddf648d95b8ffc9ba998e", "fusion_lon": 0.0, "lon": -77.16239233333333, "lat": 38.886639333333335, "is_reserved": 0, "is_disabled": 0, "rental_uris": {"android": "https://dc.lft.to/lastmile_qr_scan", "ios": "https://dc.lft.to/lastmile_qr_scan"}, "name": "7f6e1887c70ddf648d95b8ffc9ba998e", "type": "electric_bike"}, {"fusion_lat": 0.0, "bike_id": "3a11a4b74f0fe2f5d5bb82a095282266", "fusion_lon": 0.0, "lon": -76.9985125, "lat": 38.96248633333333, "is_reserved": 0, "is_disabled": 0, "rental_uris": {"android": "https://dc.lft.to/lastmile_qr_scan", "ios": "https://dc.lft.to/lastmile_qr_scan"}, "name": "3a11a4b74f0fe2f5d5bb82a095282266", "type": "electric_bike"}, {"fusion_lat": 0.0, "bike_id": "f0135b6d8561dd04a23f511c4cd43584", "fusion_lon": 0.0, "lon": -77.06029983333333, "lat": 38.93356583333333, "is_reserved": 0, "is_disabled": 0, "rental_uris": {"android": "https://dc.lft.to/lastmile_qr_scan", "ios": "https://dc.lft.to/lastmile_qr_scan"}, "name": "f0135b6d8561dd04a23f511c4cd43584", "type": "electric_scooter"}, {"fusion_lat": 0.0, "bike_id": "9ebafa15d5f9f6a2f9944c46fcb71313", "fusion_lon": 0.0, "lon": -77.05255983333333, "lat": 38.92734983333333, "is_reserved": 0, "is_disabled": 0, "rental_uris": {"android": "https://dc.lft.to/lastmile_qr_scan", "ios": "https://dc.lft.to/lastmile_qr_scan"}, "name": "9ebafa15d5f9f6a2f9944c46fcb71313", "type": "electric_scooter"}, {"fusion_lat": 0.0, "bike_id": "8726b3932f65e015672a18d9421ab0b0", "fusion_lon": 0.0, "lon": -77.024625, "lat": 38.941970166666664, "is_reserved": 0, "is_disabled": 0, "rental_uris": {"android": "https://dc.lft.to/lastmile_qr_scan", "ios": "https://dc.lft.to/lastmile_qr_scan"}, "name": "8726b3932f65e015672a18d9421ab0b0", "type": "electric_scooter"}, {"fusion_lat": 0.0, "bike_id": "c55dfbf74a436eccb9b393e5f4fd49a7", "fusion_lon": 0.0, "lon": -77.0324395, "lat": 38.904842333333335, "is_reserved": 0, "is_disabled": 0, "rental_uris": {"android": "https://dc.lft.to/lastmile_qr_scan", "ios": "https://dc.lft.to/lastmile_qr_scan"}, "name": "c55dfbf74a436eccb9b393e5f4fd49a7", "type": "electric_scooter"}, {"fusion_lat": 0.0, "bike_id": "3dd0f7cc31d090b669554dbd3636dc27", "fusion_lon": 0.0, "lon": -77.03231116666667, "lat": 38.896409, "is_reserved": 0, "is_disabled": 0, "rental_uris": {"android": "https://dc.lft.to/lastmile_qr_scan", "ios": "https://dc.lft.to/lastmile_qr_scan"}, "name": "3dd0f7cc31d090b669554dbd3636dc27", "type": "electric_scooter"}, {"fusion_lat": 0.0, "bike_id": "7771a80ff351d02d4b5c7049e21c2c8b", "fusion_lon": 0.0, "lon": -77.02271266666666, "lat": 38.924578833333335, "is_reserved": 0, "is_disabled": 0, "rental_uris": {"android": "https://dc.lft.to/lastmile_qr_scan", "ios": "https://dc.lft.to/lastmile_qr_scan"}, "name": "7771a80ff351d02d4b5c7049e21c2c8b", "type": "electric_scooter"}, {"fusion_lat": 0.0, "bike_id": "c02986c7c16ee39921f383421ea0742a", "fusion_lon": 0.0, "lon": -77.0507655, "lat": 38.901805333333336, "is_reserved": 0, "is_disabled": 0, "rental_uris": {"android": "https://dc.lft.to/lastmile_qr_scan", "ios": "https://dc.lft.to/lastmile_qr_scan"}, "name": "c02986c7c16ee39921f383421ea0742a", "type": "electric_scooter"}, {"fusion_lat": 0.0, "bike_id": "80f89dc2a2f489921fea6fdf0eff9c7c", "fusion_lon": 0.0, "lon": -77.02496566666667, "lat": 38.9169505, "is_reserved": 0, "is_disabled": 0, "rental_uris": {"android": "https://dc.lft.to/lastmile_qr_scan", "ios": "https://dc.lft.to/lastmile_qr_scan"}, "name": "80f89dc2a2f489921fea6fdf0eff9c7c", "type": "electric_scooter"}, {"fusion_lat": 0.0, "bike_id": "bd43ef0a8178847fc4d021a7a8b7bb7e", "fusion_lon": 0.0, "lon": -77.06714583333333, "lat": 38.914409666666664, "is_reserved": 0, "is_disabled": 0, "rental_uris": {"android": "https://dc.lft.to/lastmile_qr_scan", "ios": "https://dc.lft.to/lastmile_qr_scan"}, "name": "bd43ef0a8178847fc4d021a7a8b7bb7e", "type": "electric_scooter"}, {"fusion_lat": 0.0, "bike_id": "71eee9b874b146f326468163154817f3", "fusion_lon": 0.0, "lon": -77.02389083333334, "lat": 38.91682266666667, "is_reserved": 0, "is_disabled": 0, "rental_uris": {"android": "https://dc.lft.to/lastmile_qr_scan", "ios": "https://dc.lft.to/lastmile_qr_scan"}, "name": "71eee9b874b146f326468163154817f3", "type": "electric_scooter"}, {"fusion_lat": 0.0, "bike_id": "d234569b3d7bdd0529a3912df53361be", "fusion_lon": 0.0, "lon": -77.032725, "lat": 38.91998483333333, "is_reserved": 0, "is_disabled": 0, "rental_uris": {"android": "https://dc.lft.to/lastmile_qr_scan", "ios": "https://dc.lft.to/lastmile_qr_scan"}, "name": "d234569b3d7bdd0529a3912df53361be", "type": "electric_scooter"}, {"fusion_lat": 0.0, "bike_id": "026a2b8ae52bc3ab97988aa940c288a3", "fusion_lon": 0.0, "lon": -77.0435595, "lat": 38.900277833333334, "is_reserved": 0, "is_disabled": 0, "rental_uris": {"android": "https://dc.lft.to/lastmile_qr_scan", "ios": "https://dc.lft.to/lastmile_qr_scan"}, "name": "026a2b8ae52bc3ab97988aa940c288a3", "type": "electric_scooter"}, {"fusion_lat": 0.0, "bike_id": "8a634a066d969aea50df0b689fde59aa", "fusion_lon": 0.0, "lon": -77.05511533333333, "lat": 38.929851, "is_reserved": 0, "is_disabled": 0, "rental_uris": {"android": "https://dc.lft.to/lastmile_qr_scan", "ios": "https://dc.lft.to/lastmile_qr_scan"}, "name": "8a634a066d969aea50df0b689fde59aa", "type": "electric_scooter"}, {"fusion_lat": 0.0, "bike_id": "b4b7abe4a9af8c8956697711217379e5", "fusion_lon": 0.0, "lon": -77.11288183333333, "lat": 39.047507333333336, "is_reserved": 0, "is_disabled": 0, "rental_uris": {"android": "https://dc.lft.to/lastmile_qr_scan", "ios": "https://dc.lft.to/lastmile_qr_scan"}, "name": "b4b7abe4a9af8c8956697711217379e5", "type": "electric_bike"}, {"fusion_lat": 0.0, "bike_id": "db6d12f04b1ca03bfe109d34070d5326", "fusion_lon": 0.0, "lon": -77.0322325, "lat": 38.925867333333336, "is_reserved": 0, "is_disabled": 0, "rental_uris": {"android": "https://dc.lft.to/lastmile_qr_scan", "ios": "https://dc.lft.to/lastmile_qr_scan"}, "name": "db6d12f04b1ca03bfe109d34070d5326", "type": "electric_scooter"}, {"fusion_lat": 0.0, "bike_id": "013857d2e8e8e1ff6cb0d518e76b8c8e", "fusion_lon": 0.0, "lon": -77.01411983333334, "lat": 38.91477783333333, "is_reserved": 0, "is_disabled": 0, "rental_uris": {"android": "https://dc.lft.to/lastmile_qr_scan", "ios": "https://dc.lft.to/lastmile_qr_scan"}, "name": "013857d2e8e8e1ff6cb0d518e76b8c8e", "type": "electric_scooter"}, {"fusion_lat": 0.0, "bike_id": "0d4fa4e8eec0686671567220b379fbf7", "fusion_lon": 0.0, "lon": -77.02841883333333, "lat": 38.925812, "is_reserved": 0, "is_disabled": 0, "rental_uris": {"android": "https://dc.lft.to/lastmile_qr_scan", "ios": "https://dc.lft.to/lastmile_qr_scan"}, "name": "0d4fa4e8eec0686671567220b379fbf7", "type": "electric_scooter"}, {"fusion_lat": 0.0, "bike_id": "35b42b8f464a8631005c1feb4fe68c71", "fusion_lon": 0.0, "lon": -77.02062016666666, "lat": 38.923630333333335, "is_reserved": 0, "is_disabled": 0, "rental_uris": {"android": "https://dc.lft.to/lastmile_qr_scan", "ios": "https://dc.lft.to/lastmile_qr_scan"}, "name": "35b42b8f464a8631005c1feb4fe68c71", "type": "electric_scooter"}, {"fusion_lat": 0.0, "bike_id": "62d7d2a4678ae540c9c7a10e2614a9ea", "fusion_lon": 0.0, "lon": -77.02878966666667, "lat": 38.91690116666667, "is_reserved": 0, "is_disabled": 0, "rental_uris": {"android": "https://dc.lft.to/lastmile_qr_scan", "ios": "https://dc.lft.to/lastmile_qr_scan"}, "name": "62d7d2a4678ae540c9c7a10e2614a9ea", "type": "electric_scooter"}, {"fusion_lat": 0.0, "bike_id": "6aa3f1f47724713beda3826d13ecb231", "fusion_lon": 0.0, "lon": -76.98195233333334, "lat": 38.96737566666667, "is_reserved": 0, "is_disabled": 0, "rental_uris": {"android": "https://dc.lft.to/lastmile_qr_scan", "ios": "https://dc.lft.to/lastmile_qr_scan"}, "name": "6aa3f1f47724713beda3826d13ecb231", "type": "electric_bike"}, {"fusion_lat": 0.0, "bike_id": "c7f14e5beaf44b0001bf39a1d0302508", "fusion_lon": 0.0, "lon": -77.028466, "lat": 38.9341805, "is_reserved": 0, "is_disabled": 0, "rental_uris": {"android": "https://dc.lft.to/lastmile_qr_scan", "ios": "https://dc.lft.to/lastmile_qr_scan"}, "name": "c7f14e5beaf44b0001bf39a1d0302508", "type": "electric_scooter"}, {"fusion_lat": 0.0, "bike_id": "acc41031b0fd52c14ba04394777a3713", "fusion_lon": 0.0, "lon": -77.06644233333333, "lat": 38.905878666666666, "is_reserved": 0, "is_disabled": 0, "rental_uris": {"android": "https://dc.lft.to/lastmile_qr_scan", "ios": "https://dc.lft.to/lastmile_qr_scan"}, "name": "acc41031b0fd52c14ba04394777a3713", "type": "electric_scooter"}, {"fusion_lat": 0.0, "bike_id": "3c2925ef142cd5496cc291c982f068c1", "fusion_lon": 0.0, "lon": -77.02778166666667, "lat": 38.891963833333335, "is_reserved": 0, "is_disabled": 0, "rental_uris": {"android": "https://dc.lft.to/lastmile_qr_scan", "ios": "https://dc.lft.to/lastmile_qr_scan"}, "name": "3c2925ef142cd5496cc291c982f068c1", "type": "electric_scooter"}, {"fusion_lat": 0.0, "bike_id": "f0278dd6b7ae40a937943f29d78025ea", "fusion_lon": 0.0, "lon": -77.033983, "lat": 38.90718583333334, "is_reserved": 0, "is_disabled": 0, "rental_uris": {"android": "https://dc.lft.to/lastmile_qr_scan", "ios": "https://dc.lft.to/lastmile_qr_scan"}, "name": "f0278dd6b7ae40a937943f29d78025ea", "type": "electric_scooter"}, {"fusion_lat": 0.0, "bike_id": "b88b0df2c5772e1269282abd7d330df8", "fusion_lon": 0.0, "lon": -76.9983735, "lat": 38.8945585, "is_reserved": 0, "is_disabled": 0, "rental_uris": {"android": "https://dc.lft.to/lastmile_qr_scan", "ios": "https://dc.lft.to/lastmile_qr_scan"}, "name": "b88b0df2c5772e1269282abd7d330df8", "type": "electric_scooter"}, {"fusion_lat": 0.0, "bike_id": "93dbdfa5b797f3c0641fc39ff1fbcb6c", "fusion_lon": 0.0, "lon": -77.02098033333333, "lat": 38.881791, "is_reserved": 0, "is_disabled": 0, "rental_uris": {"android": "https://dc.lft.to/lastmile_qr_scan", "ios": "https://dc.lft.to/lastmile_qr_scan"}, "name": "93dbdfa5b797f3c0641fc39ff1fbcb6c", "type": "electric_scooter"}, {"fusion_lat": 0.0, "bike_id": "eac717ff48401dfff71fbea358a56bb3", "fusion_lon": 0.0, "lon": -77.01345166666667, "lat": 38.878119, "is_reserved": 0, "is_disabled": 0, "rental_uris": {"android": "https://dc.lft.to/lastmile_qr_scan", "ios": "https://dc.lft.to/lastmile_qr_scan"}, "name": "eac717ff48401dfff71fbea358a56bb3", "type": "electric_scooter"}, {"fusion_lat": 0.0, "bike_id": "8f0c0749759257167bab8bc0d283730a", "fusion_lon": 0.0, "lon": -77.0228735, "lat": 38.90785916666667, "is_reserved": 0, "is_disabled": 0, "rental_uris": {"android": "https://dc.lft.to/lastmile_qr_scan", "ios": "https://dc.lft.to/lastmile_qr_scan"}, "name": "8f0c0749759257167bab8bc0d283730a", "type": "electric_scooter"}, {"fusion_lat": 0.0, "bike_id": "3c5ae125f09b5326cf7c73aefa97834e", "fusion_lon": 0.0, "lon": -77.03441366666667, "lat": 38.93310916666667, "is_reserved": 0, "is_disabled": 0, "rental_uris": {"android": "https://dc.lft.to/lastmile_qr_scan", "ios": "https://dc.lft.to/lastmile_qr_scan"}, "name": "3c5ae125f09b5326cf7c73aefa97834e", "type": "electric_scooter"}, {"fusion_lat": 0.0, "bike_id": "c5afa7fe1bad793cd185bb72604a296d", "fusion_lon": 0.0, "lon": -77.03760283333334, "lat": 38.9077725, "is_reserved": 0, "is_disabled": 0, "rental_uris": {"android": "https://dc.lft.to/lastmile_qr_scan", "ios": "https://dc.lft.to/lastmile_qr_scan"}, "name": "c5afa7fe1bad793cd185bb72604a296d", "type": "electric_scooter"}, {"fusion_lat": 0.0, "bike_id": "1295e80fa6bfadb091229577337c41b5", "fusion_lon": 0.0, "lon": -76.97865783333333, "lat": 38.883034, "is_reserved": 0, "is_disabled": 0, "rental_uris": {"android": "https://dc.lft.to/lastmile_qr_scan", "ios": "https://dc.lft.to/lastmile_qr_scan"}, "name": "1295e80fa6bfadb091229577337c41b5", "type": "electric_scooter"}, {"fusion_lat": 0.0, "bike_id": "b95426f045b7feea1d326a777e4fae40", "fusion_lon": 0.0, "lon": -77.03819433333334, "lat": 38.909650666666664, "is_reserved": 0, "is_disabled": 0, "rental_uris": {"android": "https://dc.lft.to/lastmile_qr_scan", "ios": "https://dc.lft.to/lastmile_qr_scan"}, "name": "b95426f045b7feea1d326a777e4fae40", "type": "electric_scooter"}, {"fusion_lat": 0.0, "bike_id": "b0c9db7c7fbe437424644e93bc699ece", "fusion_lon": 0.0, "lon": -77.01767566666666, "lat": 38.887284, "is_reserved": 0, "is_disabled": 0, "rental_uris": {"android": "https://dc.lft.to/lastmile_qr_scan", "ios": "https://dc.lft.to/lastmile_qr_scan"}, "name": "b0c9db7c7fbe437424644e93bc699ece", "type": "electric_scooter"}, {"fusion_lat": 0.0, "bike_id": "d037e75b1cf4f6717db6fbbf527d3ba5", "fusion_lon": 0.0, "lon": -77.02555883333333, "lat": 38.9416945, "is_reserved": 0, "is_disabled": 0, "rental_uris": {"android": "https://dc.lft.to/lastmile_qr_scan", "ios": "https://dc.lft.to/lastmile_qr_scan"}, "name": "d037e75b1cf4f6717db6fbbf527d3ba5", "type": "electric_scooter"}, {"fusion_lat": 0.0, "bike_id": "b6a180406685b9956940041e2a9d0909", "fusion_lon": 0.0, "lon": -77.02969, "lat": 38.912734666666665, "is_reserved": 0, "is_disabled": 0, "rental_uris": {"android": "https://dc.lft.to/lastmile_qr_scan", "ios": "https://dc.lft.to/lastmile_qr_scan"}, "name": "b6a180406685b9956940041e2a9d0909", "type": "electric_scooter"}, {"fusion_lat": 0.0, "bike_id": "f13827611a0e683f56ca7bc65c487067", "fusion_lon": 0.0, "lon": -77.06288766666667, "lat": 38.86544516666667, "is_reserved": 0, "is_disabled": 0, "rental_uris": {"android": "https://dc.lft.to/lastmile_qr_scan", "ios": "https://dc.lft.to/lastmile_qr_scan"}, "name": "f13827611a0e683f56ca7bc65c487067", "type": "electric_bike"}, {"fusion_lat": 0.0, "bike_id": "45cb31dca8311c686f67cf97e237a218", "fusion_lon": 0.0, "lon": -77.0700665, "lat": 38.905939000000004, "is_reserved": 0, "is_disabled": 0, "rental_uris": {"android": "https://dc.lft.to/lastmile_qr_scan", "ios": "https://dc.lft.to/lastmile_qr_scan"}, "name": "45cb31dca8311c686f67cf97e237a218", "type": "electric_scooter"}, {"fusion_lat": 0.0, "bike_id": "e45be7a68fb52bab4bf931ac9f78b414", "fusion_lon": 0.0, "lon": -77.0386705, "lat": 38.9201175, "is_reserved": 0, "is_disabled": 0, "rental_uris": {"android": "https://dc.lft.to/lastmile_qr_scan", "ios": "https://dc.lft.to/lastmile_qr_scan"}, "name": "e45be7a68fb52bab4bf931ac9f78b414", "type": "electric_scooter"}, {"fusion_lat": 0.0, "bike_id": "a58714217d3d52bf5a3382c2ec51f0d8", "fusion_lon": 0.0, "lon": -77.03443983333334, "lat": 38.917975166666665, "is_reserved": 0, "is_disabled": 0, "rental_uris": {"android": "https://dc.lft.to/lastmile_qr_scan", "ios": "https://dc.lft.to/lastmile_qr_scan"}, "name": "a58714217d3d52bf5a3382c2ec51f0d8", "type": "electric_scooter"}, {"fusion_lat": 0.0, "bike_id": "e6f98587b8ee7b1c6d85c95ac97a180f", "fusion_lon": 0.0, "lon": -76.98591116666667, "lat": 38.88397466666667, "is_reserved": 0, "is_disabled": 0, "rental_uris": {"android": "https://dc.lft.to/lastmile_qr_scan", "ios": "https://dc.lft.to/lastmile_qr_scan"}, "name": "e6f98587b8ee7b1c6d85c95ac97a180f", "type": "electric_scooter"}, {"fusion_lat": 0.0, "bike_id": "d7184461b443e48b5252fac21e07aba8", "fusion_lon": 0.0, "lon": -77.04979466666667, "lat": 39.062940166666664, "is_reserved": 0, "is_disabled": 0, "rental_uris": {"android": "https://dc.lft.to/lastmile_qr_scan", "ios": "https://dc.lft.to/lastmile_qr_scan"}, "name": "d7184461b443e48b5252fac21e07aba8", "type": "electric_bike"}, {"fusion_lat": 0.0, "bike_id": "550003fa90b26c48c613618488240967", "fusion_lon": 0.0, "lon": -77.01370416666667, "lat": 38.92863716666667, "is_reserved": 0, "is_disabled": 0, "rental_uris": {"android": "https://dc.lft.to/lastmile_qr_scan", "ios": "https://dc.lft.to/lastmile_qr_scan"}, "name": "550003fa90b26c48c613618488240967", "type": "electric_scooter"}, {"fusion_lat": 0.0, "bike_id": "53f678877a8475f058e604c27f7eb05e", "fusion_lon": 0.0, "lon": -77.02710983333333, "lat": 38.91676916666667, "is_reserved": 0, "is_disabled": 0, "rental_uris": {"android": "https://dc.lft.to/lastmile_qr_scan", "ios": "https://dc.lft.to/lastmile_qr_scan"}, "name": "53f678877a8475f058e604c27f7eb05e", "type": "electric_scooter"}, {"fusion_lat": 0.0, "bike_id": "93efc2d38255170282792f49b5c219fd", "fusion_lon": 0.0, "lon": -77.02315066666667, "lat": 38.927842, "is_reserved": 0, "is_disabled": 0, "rental_uris": {"android": "https://dc.lft.to/lastmile_qr_scan", "ios": "https://dc.lft.to/lastmile_qr_scan"}, "name": "93efc2d38255170282792f49b5c219fd", "type": "electric_scooter"}, {"fusion_lat": 0.0, "bike_id": "40dbc02d344432daeeb2f8f8ebce9b99", "fusion_lon": 0.0, "lon": -77.0416955, "lat": 38.905645, "is_reserved": 0, "is_disabled": 0, "rental_uris": {"android": "https://dc.lft.to/lastmile_qr_scan", "ios": "https://dc.lft.to/lastmile_qr_scan"}, "name": "40dbc02d344432daeeb2f8f8ebce9b99", "type": "electric_scooter"}, {"fusion_lat": 0.0, "bike_id": "84159aaaa23e3f94365eac735735b12e", "fusion_lon": 0.0, "lon": -77.01783233333333, "lat": 38.88412116666667, "is_reserved": 0, "is_disabled": 0, "rental_uris": {"android": "https://dc.lft.to/lastmile_qr_scan", "ios": "https://dc.lft.to/lastmile_qr_scan"}, "name": "84159aaaa23e3f94365eac735735b12e", "type": "electric_scooter"}, {"fusion_lat": 0.0, "bike_id": "3d6dfe6406877e3bf117648757ed0776", "fusion_lon": 0.0, "lon": -77.0318445, "lat": 38.892270333333336, "is_reserved": 0, "is_disabled": 0, "rental_uris": {"android": "https://dc.lft.to/lastmile_qr_scan", "ios": "https://dc.lft.to/lastmile_qr_scan"}, "name": "3d6dfe6406877e3bf117648757ed0776", "type": "electric_scooter"}, {"fusion_lat": 0.0, "bike_id": "2f547f9190656a90f73d53ecb097221b", "fusion_lon": 0.0, "lon": -76.93375883333333, "lat": 38.91031233333333, "is_reserved": 0, "is_disabled": 0, "rental_uris": {"android": "https://dc.lft.to/lastmile_qr_scan", "ios": "https://dc.lft.to/lastmile_qr_scan"}, "name": "2f547f9190656a90f73d53ecb097221b", "type": "electric_scooter"}, {"fusion_lat": 0.0, "bike_id": "a61db7d1cbcc5c81b9f64e7f25e0629e", "fusion_lon": 0.0, "lon": -77.02682916666667, "lat": 38.94327766666667, "is_reserved": 0, "is_disabled": 0, "rental_uris": {"android": "https://dc.lft.to/lastmile_qr_scan", "ios": "https://dc.lft.to/lastmile_qr_scan"}, "name": "a61db7d1cbcc5c81b9f64e7f25e0629e", "type": "electric_scooter"}, {"fusion_lat": 0.0, "bike_id": "ea385d61b9ae5950f9f8a4bb1b35864e", "fusion_lon": 0.0, "lon": -76.985013, "lat": 38.8666995, "is_reserved": 0, "is_disabled": 0, "rental_uris": {"android": "https://dc.lft.to/lastmile_qr_scan", "ios": "https://dc.lft.to/lastmile_qr_scan"}, "name": "ea385d61b9ae5950f9f8a4bb1b35864e", "type": "electric_scooter"}, {"fusion_lat": 0.0, "bike_id": "39718a225c1414ac4d5c7eafff145de7", "fusion_lon": 0.0, "lon": -77.04483016666667, "lat": 38.91023966666667, "is_reserved": 0, "is_disabled": 0, "rental_uris": {"android": "https://dc.lft.to/lastmile_qr_scan", "ios": "https://dc.lft.to/lastmile_qr_scan"}, "name": "39718a225c1414ac4d5c7eafff145de7", "type": "electric_scooter"}, {"fusion_lat": 0.0, "bike_id": "c576dad91c3d161a08cf9e5f9682e61d", "fusion_lon": 0.0, "lon": -76.93348083333333, "lat": 38.89902933333333, "is_reserved": 0, "is_disabled": 0, "rental_uris": {"android": "https://dc.lft.to/lastmile_qr_scan", "ios": "https://dc.lft.to/lastmile_qr_scan"}, "name": "c576dad91c3d161a08cf9e5f9682e61d", "type": "electric_scooter"}, {"fusion_lat": 0.0, "bike_id": "fd44c702bfeb7fd884ea5b6209438c1d", "fusion_lon": 0.0, "lon": -76.99105416666667, "lat": 38.903186166666664, "is_reserved": 0, "is_disabled": 0, "rental_uris": {"android": "https://dc.lft.to/lastmile_qr_scan", "ios": "https://dc.lft.to/lastmile_qr_scan"}, "name": "fd44c702bfeb7fd884ea5b6209438c1d", "type": "electric_scooter"}, {"fusion_lat": 0.0, "bike_id": "9249f5422174c22ab5bac2d7e940061c", "fusion_lon": 0.0, "lon": -77.0045255, "lat": 38.876573, "is_reserved": 0, "is_disabled": 0, "rental_uris": {"android": "https://dc.lft.to/lastmile_qr_scan", "ios": "https://dc.lft.to/lastmile_qr_scan"}, "name": "9249f5422174c22ab5bac2d7e940061c", "type": "electric_scooter"}, {"fusion_lat": 0.0, "bike_id": "b6a5eb3d53ea4d0ecda20294dd725dd8", "fusion_lon": 0.0, "lon": -77.12495566666666, "lat": 38.827792333333335, "is_reserved": 0, "is_disabled": 0, "rental_uris": {"android": "https://dc.lft.to/lastmile_qr_scan", "ios": "https://dc.lft.to/lastmile_qr_scan"}, "name": "b6a5eb3d53ea4d0ecda20294dd725dd8", "type": "electric_bike"}, {"fusion_lat": 0.0, "bike_id": "edd328d6f89d6ed418e60d595d2d1b5b", "fusion_lon": 0.0, "lon": -77.07594183333333, "lat": 38.912162333333335, "is_reserved": 0, "is_disabled": 0, "rental_uris": {"android": "https://dc.lft.to/lastmile_qr_scan", "ios": "https://dc.lft.to/lastmile_qr_scan"}, "name": "edd328d6f89d6ed418e60d595d2d1b5b", "type": "electric_scooter"}, {"fusion_lat": 0.0, "bike_id": "31ffba603e70513cfacdd8ba158cc40c", "fusion_lon": 0.0, "lon": -77.0406515, "lat": 38.901155333333335, "is_reserved": 0, "is_disabled": 0, "rental_uris": {"android": "https://dc.lft.to/lastmile_qr_scan", "ios": "https://dc.lft.to/lastmile_qr_scan"}, "name": "31ffba603e70513cfacdd8ba158cc40c", "type": "electric_scooter"}, {"fusion_lat": 0.0, "bike_id": "91e3e73870f520d8c8bfc4503355f4fb", "fusion_lon": 0.0, "lon": -77.00285616666666, "lat": 38.957067, "is_reserved": 0, "is_disabled": 0, "rental_uris": {"android": "https://dc.lft.to/lastmile_qr_scan", "ios": "https://dc.lft.to/lastmile_qr_scan"}, "name": "91e3e73870f520d8c8bfc4503355f4fb", "type": "electric_bike"}, {"fusion_lat": 0.0, "bike_id": "d8b5bbea1f417de6fb363c6c7710d6f3", "fusion_lon": 0.0, "lon": -77.00570166666667, "lat": 38.902136, "is_reserved": 0, "is_disabled": 0, "rental_uris": {"android": "https://dc.lft.to/lastmile_qr_scan", "ios": "https://dc.lft.to/lastmile_qr_scan"}, "name": "d8b5bbea1f417de6fb363c6c7710d6f3", "type": "electric_scooter"}, {"fusion_lat": 0.0, "bike_id": "62d898308119b4b4a08e1df42014f874", "fusion_lon": 0.0, "lon": -77.02978266666666, "lat": 38.930622666666665, "is_reserved": 0, "is_disabled": 0, "rental_uris": {"android": "https://dc.lft.to/lastmile_qr_scan", "ios": "https://dc.lft.to/lastmile_qr_scan"}, "name": "62d898308119b4b4a08e1df42014f874", "type": "electric_scooter"}, {"fusion_lat": 0.0, "bike_id": "506101d89eec03c0f011287fb4ec5baa", "fusion_lon": 0.0, "lon": -77.10648683333334, "lat": 38.93609383333333, "is_reserved": 0, "is_disabled": 0, "rental_uris": {"android": "https://dc.lft.to/lastmile_qr_scan", "ios": "https://dc.lft.to/lastmile_qr_scan"}, "name": "506101d89eec03c0f011287fb4ec5baa", "type": "electric_bike"}, {"fusion_lat": 0.0, "bike_id": "cf979a3969f43e5b9b43252afdd5f7a0", "fusion_lon": 0.0, "lon": -77.03518483333333, "lat": 38.923519666666664, "is_reserved": 0, "is_disabled": 0, "rental_uris": {"android": "https://dc.lft.to/lastmile_qr_scan", "ios": "https://dc.lft.to/lastmile_qr_scan"}, "name": "cf979a3969f43e5b9b43252afdd5f7a0", "type": "electric_scooter"}, {"fusion_lat": 0.0, "bike_id": "89f797c57d96f35f3512951b624977f6", "fusion_lon": 0.0, "lon": -77.034447, "lat": 38.918017, "is_reserved": 0, "is_disabled": 0, "rental_uris": {"android": "https://dc.lft.to/lastmile_qr_scan", "ios": "https://dc.lft.to/lastmile_qr_scan"}, "name": "89f797c57d96f35f3512951b624977f6", "type": "electric_scooter"}, {"fusion_lat": 0.0, "bike_id": "2b8b7fd305640099f0048777ef4df758", "fusion_lon": 0.0, "lon": -77.03198833333333, "lat": 38.903717666666665, "is_reserved": 0, "is_disabled": 0, "rental_uris": {"android": "https://dc.lft.to/lastmile_qr_scan", "ios": "https://dc.lft.to/lastmile_qr_scan"}, "name": "2b8b7fd305640099f0048777ef4df758", "type": "electric_scooter"}, {"fusion_lat": 0.0, "bike_id": "88a36a210b8eab7809135673da0ffeb6", "fusion_lon": 0.0, "lon": -76.99850916666666, "lat": 38.841632, "is_reserved": 0, "is_disabled": 0, "rental_uris": {"android": "https://dc.lft.to/lastmile_qr_scan", "ios": "https://dc.lft.to/lastmile_qr_scan"}, "name": "88a36a210b8eab7809135673da0ffeb6", "type": "electric_scooter"}, {"fusion_lat": 0.0, "bike_id": "2231fa9c35300230ec4dfb0f1b63515d", "fusion_lon": 0.0, "lon": -77.033062, "lat": 38.898351, "is_reserved": 0, "is_disabled": 0, "rental_uris": {"android": "https://dc.lft.to/lastmile_qr_scan", "ios": "https://dc.lft.to/lastmile_qr_scan"}, "name": "2231fa9c35300230ec4dfb0f1b63515d", "type": "electric_scooter"}, {"fusion_lat": 0.0, "bike_id": "0de338d1ab4269c2943ef1e41d32f8be", "fusion_lon": 0.0, "lon": -77.0466365, "lat": 38.90009533333333, "is_reserved": 0, "is_disabled": 0, "rental_uris": {"android": "https://dc.lft.to/lastmile_qr_scan", "ios": "https://dc.lft.to/lastmile_qr_scan"}, "name": "0de338d1ab4269c2943ef1e41d32f8be", "type": "electric_scooter"}, {"fusion_lat": 0.0, "bike_id": "fccb7786c401e1777ec289cc1f77a3f5", "fusion_lon": 0.0, "lon": -77.027152, "lat": 38.934752833333334, "is_reserved": 0, "is_disabled": 0, "rental_uris": {"android": "https://dc.lft.to/lastmile_qr_scan", "ios": "https://dc.lft.to/lastmile_qr_scan"}, "name": "fccb7786c401e1777ec289cc1f77a3f5", "type": "electric_scooter"}, {"fusion_lat": 0.0, "bike_id": "0491b34c9d4cd46cc9901829f7618d48", "fusion_lon": 0.0, "lon": -76.98557783333334, "lat": 38.899541, "is_reserved": 0, "is_disabled": 0, "rental_uris": {"android": "https://dc.lft.to/lastmile_qr_scan", "ios": "https://dc.lft.to/lastmile_qr_scan"}, "name": "0491b34c9d4cd46cc9901829f7618d48", "type": "electric_scooter"}, {"fusion_lat": 0.0, "bike_id": "ee142a808e8332918eb1c5dac02479e2", "fusion_lon": 0.0, "lon": -77.02535416666667, "lat": 38.92744866666666, "is_reserved": 0, "is_disabled": 0, "rental_uris": {"android": "https://dc.lft.to/lastmile_qr_scan", "ios": "https://dc.lft.to/lastmile_qr_scan"}, "name": "ee142a808e8332918eb1c5dac02479e2", "type": "electric_scooter"}, {"fusion_lat": 0.0, "bike_id": "bc021244cbf8f52904cdf1b79d095730", "fusion_lon": 0.0, "lon": -76.985966, "lat": 38.86683683333333, "is_reserved": 0, "is_disabled": 0, "rental_uris": {"android": "https://dc.lft.to/lastmile_qr_scan", "ios": "https://dc.lft.to/lastmile_qr_scan"}, "name": "bc021244cbf8f52904cdf1b79d095730", "type": "electric_scooter"}, {"fusion_lat": 0.0, "bike_id": "3ca0c7cd7002f0e5b7f580fdb59fe233", "fusion_lon": 0.0, "lon": -77.04344316666666, "lat": 38.910556666666665, "is_reserved": 0, "is_disabled": 0, "rental_uris": {"android": "https://dc.lft.to/lastmile_qr_scan", "ios": "https://dc.lft.to/lastmile_qr_scan"}, "name": "3ca0c7cd7002f0e5b7f580fdb59fe233", "type": "electric_scooter"}, {"fusion_lat": 0.0, "bike_id": "bf822fd127041b91359f1ca5bba9c323", "fusion_lon": 0.0, "lon": -77.052246, "lat": 38.924262, "is_reserved": 0, "is_disabled": 0, "rental_uris": {"android": "https://dc.lft.to/lastmile_qr_scan", "ios": "https://dc.lft.to/lastmile_qr_scan"}, "name": "bf822fd127041b91359f1ca5bba9c323", "type": "electric_scooter"}, {"fusion_lat": 0.0, "bike_id": "9444c2dcf8dc4e79c32d15dd3a79a17c", "fusion_lon": 0.0, "lon": -77.03881783333334, "lat": 38.902755166666665, "is_reserved": 0, "is_disabled": 0, "rental_uris": {"android": "https://dc.lft.to/lastmile_qr_scan", "ios": "https://dc.lft.to/lastmile_qr_scan"}, "name": "9444c2dcf8dc4e79c32d15dd3a79a17c", "type": "electric_scooter"}, {"fusion_lat": 0.0, "bike_id": "a5e01c5bc89d39892b3c214868b568d1", "fusion_lon": 0.0, "lon": -77.026386, "lat": 38.9621365, "is_reserved": 0, "is_disabled": 0, "rental_uris": {"android": "https://dc.lft.to/lastmile_qr_scan", "ios": "https://dc.lft.to/lastmile_qr_scan"}, "name": "a5e01c5bc89d39892b3c214868b568d1", "type": "electric_bike"}, {"fusion_lat": 0.0, "bike_id": "2937aa9dc72912cdb5c2de302684a8d2", "fusion_lon": 0.0, "lon": -76.9948125, "lat": 38.886118833333335, "is_reserved": 0, "is_disabled": 0, "rental_uris": {"android": "https://dc.lft.to/lastmile_qr_scan", "ios": "https://dc.lft.to/lastmile_qr_scan"}, "name": "2937aa9dc72912cdb5c2de302684a8d2", "type": "electric_scooter"}, {"fusion_lat": 0.0, "bike_id": "42ce9d36417383ad4609612d3e71ff47", "fusion_lon": 0.0, "lon": -77.04403383333333, "lat": 38.90228233333333, "is_reserved": 0, "is_disabled": 0, "rental_uris": {"android": "https://dc.lft.to/lastmile_qr_scan", "ios": "https://dc.lft.to/lastmile_qr_scan"}, "name": "42ce9d36417383ad4609612d3e71ff47", "type": "electric_scooter"}, {"fusion_lat": 0.0, "bike_id": "e0ab5fe127be2d64ec834114c71ebc77", "fusion_lon": 0.0, "lon": -77.02209466666666, "lat": 38.887354, "is_reserved": 0, "is_disabled": 0, "rental_uris": {"android": "https://dc.lft.to/lastmile_qr_scan", "ios": "https://dc.lft.to/lastmile_qr_scan"}, "name": "e0ab5fe127be2d64ec834114c71ebc77", "type": "electric_scooter"}, {"fusion_lat": 0.0, "bike_id": "196fd3f5292140bc49d076ed021139d9", "fusion_lon": 0.0, "lon": -76.98287166666667, "lat": 38.916390666666665, "is_reserved": 0, "is_disabled": 0, "rental_uris": {"android": "https://dc.lft.to/lastmile_qr_scan", "ios": "https://dc.lft.to/lastmile_qr_scan"}, "name": "196fd3f5292140bc49d076ed021139d9", "type": "electric_scooter"}, {"fusion_lat": 0.0, "bike_id": "877079b5257194840501a4f2f57723d6", "fusion_lon": 0.0, "lon": -76.98529016666667, "lat": 38.866836, "is_reserved": 0, "is_disabled": 0, "rental_uris": {"android": "https://dc.lft.to/lastmile_qr_scan", "ios": "https://dc.lft.to/lastmile_qr_scan"}, "name": "877079b5257194840501a4f2f57723d6", "type": "electric_scooter"}, {"fusion_lat": 0.0, "bike_id": "f33ed062cd4c6fdf7a6371b522eadff7", "fusion_lon": 0.0, "lon": -77.02423, "lat": 38.926536, "is_reserved": 0, "is_disabled": 0, "rental_uris": {"android": "https://dc.lft.to/lastmile_qr_scan", "ios": "https://dc.lft.to/lastmile_qr_scan"}, "name": "f33ed062cd4c6fdf7a6371b522eadff7", "type": "electric_scooter"}, {"fusion_lat": 0.0, "bike_id": "f21932af4c2d6bde81d6e8f585a25fd6", "fusion_lon": 0.0, "lon": -77.048625, "lat": 38.905339, "is_reserved": 0, "is_disabled": 0, "rental_uris": {"android": "https://dc.lft.to/lastmile_qr_scan", "ios": "https://dc.lft.to/lastmile_qr_scan"}, "name": "f21932af4c2d6bde81d6e8f585a25fd6", "type": "electric_scooter"}, {"fusion_lat": 0.0, "bike_id": "b67b89039c2db58b708ae3e628dfe865", "fusion_lon": 0.0, "lon": -77.03911833333333, "lat": 38.925673, "is_reserved": 0, "is_disabled": 0, "rental_uris": {"android": "https://dc.lft.to/lastmile_qr_scan", "ios": "https://dc.lft.to/lastmile_qr_scan"}, "name": "b67b89039c2db58b708ae3e628dfe865", "type": "electric_scooter"}, {"fusion_lat": 0.0, "bike_id": "d920e573a22645063e1c6a29a830f0d7", "fusion_lon": 0.0, "lon": -77.02764566666667, "lat": 38.934603833333334, "is_reserved": 0, "is_disabled": 0, "rental_uris": {"android": "https://dc.lft.to/lastmile_qr_scan", "ios": "https://dc.lft.to/lastmile_qr_scan"}, "name": "d920e573a22645063e1c6a29a830f0d7", "type": "electric_scooter"}, {"fusion_lat": 0.0, "bike_id": "85e54bfdac022246114cc4015903cf71", "fusion_lon": 0.0, "lon": -77.03210233333333, "lat": 38.9141735, "is_reserved": 0, "is_disabled": 0, "rental_uris": {"android": "https://dc.lft.to/lastmile_qr_scan", "ios": "https://dc.lft.to/lastmile_qr_scan"}, "name": "85e54bfdac022246114cc4015903cf71", "type": "electric_scooter"}, {"fusion_lat": 0.0, "bike_id": "4c5a2433e052ec642ec94d2850b6768b", "fusion_lon": 0.0, "lon": -77.02716166666667, "lat": 38.91675433333333, "is_reserved": 0, "is_disabled": 0, "rental_uris": {"android": "https://dc.lft.to/lastmile_qr_scan", "ios": "https://dc.lft.to/lastmile_qr_scan"}, "name": "4c5a2433e052ec642ec94d2850b6768b", "type": "electric_scooter"}, {"fusion_lat": 0.0, "bike_id": "b9e2c2d3060e422afa10cc25e0d8033f", "fusion_lon": 0.0, "lon": -77.099659, "lat": 38.857853666666664, "is_reserved": 0, "is_disabled": 0, "rental_uris": {"android": "https://dc.lft.to/lastmile_qr_scan", "ios": "https://dc.lft.to/lastmile_qr_scan"}, "name": "b9e2c2d3060e422afa10cc25e0d8033f", "type": "electric_bike"}, {"fusion_lat": 0.0, "bike_id": "8ec90c020dd6580c99a10ec6caf5dc45", "fusion_lon": 0.0, "lon": -77.0259265, "lat": 38.892634, "is_reserved": 0, "is_disabled": 0, "rental_uris": {"android": "https://dc.lft.to/lastmile_qr_scan", "ios": "https://dc.lft.to/lastmile_qr_scan"}, "name": "8ec90c020dd6580c99a10ec6caf5dc45", "type": "electric_scooter"}, {"fusion_lat": 0.0, "bike_id": "11dacd45872d691965af2118ca9d045b", "fusion_lon": 0.0, "lon": -77.03189883333333, "lat": 38.90436916666667, "is_reserved": 0, "is_disabled": 0, "rental_uris": {"android": "https://dc.lft.to/lastmile_qr_scan", "ios": "https://dc.lft.to/lastmile_qr_scan"}, "name": "11dacd45872d691965af2118ca9d045b", "type": "electric_scooter"}, {"fusion_lat": 0.0, "bike_id": "7b2b8d134faa7c32813e97c4169f03d2", "fusion_lon": 0.0, "lon": -77.03519333333334, "lat": 38.92193566666667, "is_reserved": 0, "is_disabled": 0, "rental_uris": {"android": "https://dc.lft.to/lastmile_qr_scan", "ios": "https://dc.lft.to/lastmile_qr_scan"}, "name": "7b2b8d134faa7c32813e97c4169f03d2", "type": "electric_scooter"}, {"fusion_lat": 0.0, "bike_id": "7095787b3f0e0dd0ab6b92400302476a", "fusion_lon": 0.0, "lon": -77.02038516666667, "lat": 38.908666, "is_reserved": 0, "is_disabled": 0, "rental_uris": {"android": "https://dc.lft.to/lastmile_qr_scan", "ios": "https://dc.lft.to/lastmile_qr_scan"}, "name": "7095787b3f0e0dd0ab6b92400302476a", "type": "electric_scooter"}, {"fusion_lat": 0.0, "bike_id": "1f4a825f5e53dc61441ff6e60016010d", "fusion_lon": 0.0, "lon": -77.026631, "lat": 38.91684033333333, "is_reserved": 0, "is_disabled": 0, "rental_uris": {"android": "https://dc.lft.to/lastmile_qr_scan", "ios": "https://dc.lft.to/lastmile_qr_scan"}, "name": "1f4a825f5e53dc61441ff6e60016010d", "type": "electric_scooter"}, {"fusion_lat": 0.0, "bike_id": "1d0c40f76ff784a63b6e947d68e673fa", "fusion_lon": 0.0, "lon": -77.0541975, "lat": 38.950432166666666, "is_reserved": 0, "is_disabled": 0, "rental_uris": {"android": "https://dc.lft.to/lastmile_qr_scan", "ios": "https://dc.lft.to/lastmile_qr_scan"}, "name": "1d0c40f76ff784a63b6e947d68e673fa", "type": "electric_scooter"}, {"fusion_lat": 0.0, "bike_id": "96b4836bf5248f8172a7999208ad486e", "fusion_lon": 0.0, "lon": -77.012829, "lat": 38.915625166666665, "is_reserved": 0, "is_disabled": 0, "rental_uris": {"android": "https://dc.lft.to/lastmile_qr_scan", "ios": "https://dc.lft.to/lastmile_qr_scan"}, "name": "96b4836bf5248f8172a7999208ad486e", "type": "electric_scooter"}, {"fusion_lat": 0.0, "bike_id": "d691bfcc5dd4abd0b29be231eb4a7e39", "fusion_lon": 0.0, "lon": -77.02658133333334, "lat": 38.9217405, "is_reserved": 0, "is_disabled": 0, "rental_uris": {"android": "https://dc.lft.to/lastmile_qr_scan", "ios": "https://dc.lft.to/lastmile_qr_scan"}, "name": "d691bfcc5dd4abd0b29be231eb4a7e39", "type": "electric_scooter"}, {"fusion_lat": 0.0, "bike_id": "0ca652fcde7d02ea0f750f44a94227c9", "fusion_lon": 0.0, "lon": -77.04311383333334, "lat": 38.922168666666664, "is_reserved": 0, "is_disabled": 0, "rental_uris": {"android": "https://dc.lft.to/lastmile_qr_scan", "ios": "https://dc.lft.to/lastmile_qr_scan"}, "name": "0ca652fcde7d02ea0f750f44a94227c9", "type": "electric_scooter"}, {"fusion_lat": 0.0, "bike_id": "68aa9da744c40e3d8b1208a1e561a6c4", "fusion_lon": 0.0, "lon": -77.04355916666667, "lat": 38.921719333333336, "is_reserved": 0, "is_disabled": 0, "rental_uris": {"android": "https://dc.lft.to/lastmile_qr_scan", "ios": "https://dc.lft.to/lastmile_qr_scan"}, "name": "68aa9da744c40e3d8b1208a1e561a6c4", "type": "electric_scooter"}, {"fusion_lat": 0.0, "bike_id": "d05f6d61c8bf4dcd9e4059c9ca967188", "fusion_lon": 0.0, "lon": -77.01879683333334, "lat": 38.937694666666665, "is_reserved": 0, "is_disabled": 0, "rental_uris": {"android": "https://dc.lft.to/lastmile_qr_scan", "ios": "https://dc.lft.to/lastmile_qr_scan"}, "name": "d05f6d61c8bf4dcd9e4059c9ca967188", "type": "electric_bike"}, {"fusion_lat": 0.0, "bike_id": "cfd3dbbe4022e85e2e1a3debb3508b86", "fusion_lon": 0.0, "lon": -76.98523166666666, "lat": 38.866853666666664, "is_reserved": 0, "is_disabled": 0, "rental_uris": {"android": "https://dc.lft.to/lastmile_qr_scan", "ios": "https://dc.lft.to/lastmile_qr_scan"}, "name": "cfd3dbbe4022e85e2e1a3debb3508b86", "type": "electric_scooter"}, {"fusion_lat": 0.0, "bike_id": "55ad5d84b414a90ebdf2bf3437cc5d6a", "fusion_lon": 0.0, "lon": -77.03175216666666, "lat": 38.892003, "is_reserved": 0, "is_disabled": 0, "rental_uris": {"android": "https://dc.lft.to/lastmile_qr_scan", "ios": "https://dc.lft.to/lastmile_qr_scan"}, "name": "55ad5d84b414a90ebdf2bf3437cc5d6a", "type": "electric_scooter"}, {"fusion_lat": 0.0, "bike_id": "cc0adb19cbf9e1bcff3729406917c3a1", "fusion_lon": 0.0, "lon": -77.02267283333333, "lat": 38.937576166666666, "is_reserved": 0, "is_disabled": 0, "rental_uris": {"android": "https://dc.lft.to/lastmile_qr_scan", "ios": "https://dc.lft.to/lastmile_qr_scan"}, "name": "cc0adb19cbf9e1bcff3729406917c3a1", "type": "electric_scooter"}, {"fusion_lat": 0.0, "bike_id": "4347a482efe081346820a45e4d6cdc76", "fusion_lon": 0.0, "lon": -77.04610783333334, "lat": 38.915496166666664, "is_reserved": 0, "is_disabled": 0, "rental_uris": {"android": "https://dc.lft.to/lastmile_qr_scan", "ios": "https://dc.lft.to/lastmile_qr_scan"}, "name": "4347a482efe081346820a45e4d6cdc76", "type": "electric_scooter"}, {"fusion_lat": 0.0, "bike_id": "21b0ac38e24f6c8ba146d48c5d770176", "fusion_lon": 0.0, "lon": -77.04488916666666, "lat": 38.89226716666667, "is_reserved": 0, "is_disabled": 0, "rental_uris": {"android": "https://dc.lft.to/lastmile_qr_scan", "ios": "https://dc.lft.to/lastmile_qr_scan"}, "name": "21b0ac38e24f6c8ba146d48c5d770176", "type": "electric_scooter"}, {"fusion_lat": 0.0, "bike_id": "b56596dc5b9409a490edb587a70be11f", "fusion_lon": 0.0, "lon": -76.93061316666666, "lat": 38.88386583333333, "is_reserved": 0, "is_disabled": 0, "rental_uris": {"android": "https://dc.lft.to/lastmile_qr_scan", "ios": "https://dc.lft.to/lastmile_qr_scan"}, "name": "b56596dc5b9409a490edb587a70be11f", "type": "electric_scooter"}, {"fusion_lat": 0.0, "bike_id": "7f7347e9ac738df7ab7d62ded0114f64", "fusion_lon": 0.0, "lon": -77.005256, "lat": 38.929778166666665, "is_reserved": 0, "is_disabled": 0, "rental_uris": {"android": "https://dc.lft.to/lastmile_qr_scan", "ios": "https://dc.lft.to/lastmile_qr_scan"}, "name": "7f7347e9ac738df7ab7d62ded0114f64", "type": "electric_scooter"}, {"fusion_lat": 0.0, "bike_id": "ced9db062d435d6ca9b846957d353196", "fusion_lon": 0.0, "lon": -77.05748533333333, "lat": 38.93348066666667, "is_reserved": 0, "is_disabled": 0, "rental_uris": {"android": "https://dc.lft.to/lastmile_qr_scan", "ios": "https://dc.lft.to/lastmile_qr_scan"}, "name": "ced9db062d435d6ca9b846957d353196", "type": "electric_scooter"}, {"fusion_lat": 0.0, "bike_id": "f8881dc6e4b475fc93452bd7273f3c1c", "fusion_lon": 0.0, "lon": -77.03187633333333, "lat": 38.917449166666664, "is_reserved": 0, "is_disabled": 0, "rental_uris": {"android": "https://dc.lft.to/lastmile_qr_scan", "ios": "https://dc.lft.to/lastmile_qr_scan"}, "name": "f8881dc6e4b475fc93452bd7273f3c1c", "type": "electric_scooter"}, {"fusion_lat": 0.0, "bike_id": "05b05637755e968c3629a93579f939ff", "fusion_lon": 0.0, "lon": -76.98028916666667, "lat": 38.8532125, "is_reserved": 0, "is_disabled": 0, "rental_uris": {"android": "https://dc.lft.to/lastmile_qr_scan", "ios": "https://dc.lft.to/lastmile_qr_scan"}, "name": "05b05637755e968c3629a93579f939ff", "type": "electric_bike"}, {"fusion_lat": 0.0, "bike_id": "bfad0397b4716f21cfcd3d82c26caf6a", "fusion_lon": 0.0, "lon": -77.03223533333333, "lat": 38.9146675, "is_reserved": 0, "is_disabled": 0, "rental_uris": {"android": "https://dc.lft.to/lastmile_qr_scan", "ios": "https://dc.lft.to/lastmile_qr_scan"}, "name": "bfad0397b4716f21cfcd3d82c26caf6a", "type": "electric_scooter"}, {"fusion_lat": 0.0, "bike_id": "20cb1ec8fe73950f17fcdc8e36c6242d", "fusion_lon": 0.0, "lon": -76.98988383333334, "lat": 38.933651833333336, "is_reserved": 0, "is_disabled": 0, "rental_uris": {"android": "https://dc.lft.to/lastmile_qr_scan", "ios": "https://dc.lft.to/lastmile_qr_scan"}, "name": "20cb1ec8fe73950f17fcdc8e36c6242d", "type": "electric_scooter"}, {"fusion_lat": 0.0, "bike_id": "f67342fc27c1a3f25afd59f8db331e9d", "fusion_lon": 0.0, "lon": -77.02010333333334, "lat": 38.92417366666667, "is_reserved": 0, "is_disabled": 0, "rental_uris": {"android": "https://dc.lft.to/lastmile_qr_scan", "ios": "https://dc.lft.to/lastmile_qr_scan"}, "name": "f67342fc27c1a3f25afd59f8db331e9d", "type": "electric_scooter"}, {"fusion_lat": 0.0, "bike_id": "3ee3e9a8dcc90202e6f5829559252f9f", "fusion_lon": 0.0, "lon": -77.04643716666666, "lat": 38.892209666666666, "is_reserved": 0, "is_disabled": 0, "rental_uris": {"android": "https://dc.lft.to/lastmile_qr_scan", "ios": "https://dc.lft.to/lastmile_qr_scan"}, "name": "3ee3e9a8dcc90202e6f5829559252f9f", "type": "electric_scooter"}, {"fusion_lat": 0.0, "bike_id": "c2ac5d448af177841adaa6e93fae831b", "fusion_lon": 0.0, "lon": -76.9373515, "lat": 38.890121, "is_reserved": 0, "is_disabled": 0, "rental_uris": {"android": "https://dc.lft.to/lastmile_qr_scan", "ios": "https://dc.lft.to/lastmile_qr_scan"}, "name": "c2ac5d448af177841adaa6e93fae831b", "type": "electric_scooter"}, {"fusion_lat": 0.0, "bike_id": "8f6823c702cfabac79d5cf91891537d5", "fusion_lon": 0.0, "lon": -77.03269316666666, "lat": 38.901289166666665, "is_reserved": 0, "is_disabled": 0, "rental_uris": {"android": "https://dc.lft.to/lastmile_qr_scan", "ios": "https://dc.lft.to/lastmile_qr_scan"}, "name": "8f6823c702cfabac79d5cf91891537d5", "type": "electric_scooter"}, {"fusion_lat": 0.0, "bike_id": "07edb83a656132ebbf8915562e984788", "fusion_lon": 0.0, "lon": -76.99069583333333, "lat": 38.89816233333333, "is_reserved": 0, "is_disabled": 0, "rental_uris": {"android": "https://dc.lft.to/lastmile_qr_scan", "ios": "https://dc.lft.to/lastmile_qr_scan"}, "name": "07edb83a656132ebbf8915562e984788", "type": "electric_bike"}, {"fusion_lat": 0.0, "bike_id": "6d26e1d5d59cd925de2c2fbcff41e8e3", "fusion_lon": 0.0, "lon": -77.03222366666667, "lat": 38.89725833333333, "is_reserved": 0, "is_disabled": 0, "rental_uris": {"android": "https://dc.lft.to/lastmile_qr_scan", "ios": "https://dc.lft.to/lastmile_qr_scan"}, "name": "6d26e1d5d59cd925de2c2fbcff41e8e3", "type": "electric_scooter"}, {"fusion_lat": 0.0, "bike_id": "f1f48f5482e543dddea1bc70f545d7ec", "fusion_lon": 0.0, "lon": -77.03181966666666, "lat": 38.8922785, "is_reserved": 0, "is_disabled": 0, "rental_uris": {"android": "https://dc.lft.to/lastmile_qr_scan", "ios": "https://dc.lft.to/lastmile_qr_scan"}, "name": "f1f48f5482e543dddea1bc70f545d7ec", "type": "electric_scooter"}, {"fusion_lat": 0.0, "bike_id": "16ac5048581e702623a0f932d7d6eb5b", "fusion_lon": 0.0, "lon": -77.01912833333333, "lat": 38.937706, "is_reserved": 0, "is_disabled": 0, "rental_uris": {"android": "https://dc.lft.to/lastmile_qr_scan", "ios": "https://dc.lft.to/lastmile_qr_scan"}, "name": "16ac5048581e702623a0f932d7d6eb5b", "type": "electric_bike"}, {"fusion_lat": 0.0, "bike_id": "e7e35689231e0176ffe8ffa41b6d12aa", "fusion_lon": 0.0, "lon": -77.03507433333333, "lat": 38.92334133333333, "is_reserved": 0, "is_disabled": 0, "rental_uris": {"android": "https://dc.lft.to/lastmile_qr_scan", "ios": "https://dc.lft.to/lastmile_qr_scan"}, "name": "e7e35689231e0176ffe8ffa41b6d12aa", "type": "electric_scooter"}, {"fusion_lat": 0.0, "bike_id": "b32686f59c445473f8eb6d9369e2a683", "fusion_lon": 0.0, "lon": -77.03534483333334, "lat": 38.92484433333333, "is_reserved": 0, "is_disabled": 0, "rental_uris": {"android": "https://dc.lft.to/lastmile_qr_scan", "ios": "https://dc.lft.to/lastmile_qr_scan"}, "name": "b32686f59c445473f8eb6d9369e2a683", "type": "electric_scooter"}, {"fusion_lat": 0.0, "bike_id": "888c44996049625ac62974c779caa8ea", "fusion_lon": 0.0, "lon": -77.0038175, "lat": 38.876341833333335, "is_reserved": 0, "is_disabled": 0, "rental_uris": {"android": "https://dc.lft.to/lastmile_qr_scan", "ios": "https://dc.lft.to/lastmile_qr_scan"}, "name": "888c44996049625ac62974c779caa8ea", "type": "electric_scooter"}, {"fusion_lat": 0.0, "bike_id": "a7e3b2f179b3d231ba4ef1ea031b297e", "fusion_lon": 0.0, "lon": -76.9488625, "lat": 38.895049666666665, "is_reserved": 0, "is_disabled": 0, "rental_uris": {"android": "https://dc.lft.to/lastmile_qr_scan", "ios": "https://dc.lft.to/lastmile_qr_scan"}, "name": "a7e3b2f179b3d231ba4ef1ea031b297e", "type": "electric_scooter"}, {"fusion_lat": 0.0, "bike_id": "55377fd5163c795b7c9d2f747a92e48e", "fusion_lon": 0.0, "lon": -77.02743083333333, "lat": 38.91691333333333, "is_reserved": 0, "is_disabled": 0, "rental_uris": {"android": "https://dc.lft.to/lastmile_qr_scan", "ios": "https://dc.lft.to/lastmile_qr_scan"}, "name": "55377fd5163c795b7c9d2f747a92e48e", "type": "electric_scooter"}, {"fusion_lat": 0.0, "bike_id": "22191ceabd39e9414ca16af8079f9ff0", "fusion_lon": 0.0, "lon": -77.00298933333333, "lat": 38.891969833333334, "is_reserved": 0, "is_disabled": 0, "rental_uris": {"android": "https://dc.lft.to/lastmile_qr_scan", "ios": "https://dc.lft.to/lastmile_qr_scan"}, "name": "22191ceabd39e9414ca16af8079f9ff0", "type": "electric_scooter"}, {"fusion_lat": 0.0, "bike_id": "99c4dcfef77bacfd1c616e18ef182ab0", "fusion_lon": 0.0, "lon": -77.03039233333334, "lat": 38.90267866666667, "is_reserved": 0, "is_disabled": 0, "rental_uris": {"android": "https://dc.lft.to/lastmile_qr_scan", "ios": "https://dc.lft.to/lastmile_qr_scan"}, "name": "99c4dcfef77bacfd1c616e18ef182ab0", "type": "electric_scooter"}, {"fusion_lat": 0.0, "bike_id": "59ffbc22b58ba718be2ba084642e655e", "fusion_lon": 0.0, "lon": -77.01593016666666, "lat": 38.8849455, "is_reserved": 0, "is_disabled": 0, "rental_uris": {"android": "https://dc.lft.to/lastmile_qr_scan", "ios": "https://dc.lft.to/lastmile_qr_scan"}, "name": "59ffbc22b58ba718be2ba084642e655e", "type": "electric_scooter"}, {"fusion_lat": 0.0, "bike_id": "271877232d57a0a83a1c0b985f234545", "fusion_lon": 0.0, "lon": -77.02657916666666, "lat": 38.926072166666664, "is_reserved": 0, "is_disabled": 0, "rental_uris": {"android": "https://dc.lft.to/lastmile_qr_scan", "ios": "https://dc.lft.to/lastmile_qr_scan"}, "name": "271877232d57a0a83a1c0b985f234545", "type": "electric_scooter"}, {"fusion_lat": 0.0, "bike_id": "45cbdc0dc30c03f5ce85fa2f51abcb8f", "fusion_lon": 0.0, "lon": -77.0214185, "lat": 38.92477016666667, "is_reserved": 0, "is_disabled": 0, "rental_uris": {"android": "https://dc.lft.to/lastmile_qr_scan", "ios": "https://dc.lft.to/lastmile_qr_scan"}, "name": "45cbdc0dc30c03f5ce85fa2f51abcb8f", "type": "electric_scooter"}, {"fusion_lat": 0.0, "bike_id": "5c044b1cdd0d6b129a2df0c7398b8a0c", "fusion_lon": 0.0, "lon": -76.94731366666667, "lat": 38.897345666666666, "is_reserved": 0, "is_disabled": 0, "rental_uris": {"android": "https://dc.lft.to/lastmile_qr_scan", "ios": "https://dc.lft.to/lastmile_qr_scan"}, "name": "5c044b1cdd0d6b129a2df0c7398b8a0c", "type": "electric_scooter"}, {"fusion_lat": 0.0, "bike_id": "6a6a9fc861322f969ad3c5fddbec8e35", "fusion_lon": 0.0, "lon": -77.04676883333333, "lat": 38.91104216666667, "is_reserved": 0, "is_disabled": 0, "rental_uris": {"android": "https://dc.lft.to/lastmile_qr_scan", "ios": "https://dc.lft.to/lastmile_qr_scan"}, "name": "6a6a9fc861322f969ad3c5fddbec8e35", "type": "electric_scooter"}, {"fusion_lat": 0.0, "bike_id": "b9a622175002f5a385f338a7044ac552", "fusion_lon": 0.0, "lon": -77.032823, "lat": 38.9409485, "is_reserved": 0, "is_disabled": 0, "rental_uris": {"android": "https://dc.lft.to/lastmile_qr_scan", "ios": "https://dc.lft.to/lastmile_qr_scan"}, "name": "b9a622175002f5a385f338a7044ac552", "type": "electric_scooter"}, {"fusion_lat": 0.0, "bike_id": "b07577276c9e8fee652b09377e0b9aa9", "fusion_lon": 0.0, "lon": -76.997798, "lat": 38.84420866666667, "is_reserved": 0, "is_disabled": 0, "rental_uris": {"android": "https://dc.lft.to/lastmile_qr_scan", "ios": "https://dc.lft.to/lastmile_qr_scan"}, "name": "b07577276c9e8fee652b09377e0b9aa9", "type": "electric_scooter"}, {"fusion_lat": 0.0, "bike_id": "f7209efcafa3426e942d8c5e749c5bde", "fusion_lon": 0.0, "lon": -77.05297366666667, "lat": 38.90520433333333, "is_reserved": 0, "is_disabled": 0, "rental_uris": {"android": "https://dc.lft.to/lastmile_qr_scan", "ios": "https://dc.lft.to/lastmile_qr_scan"}, "name": "f7209efcafa3426e942d8c5e749c5bde", "type": "electric_scooter"}, {"fusion_lat": 0.0, "bike_id": "cc05db8f0bc8ef2e3b8ea52e0ffb4b65", "fusion_lon": 0.0, "lon": -77.02172916666666, "lat": 38.94294383333333, "is_reserved": 0, "is_disabled": 0, "rental_uris": {"android": "https://dc.lft.to/lastmile_qr_scan", "ios": "https://dc.lft.to/lastmile_qr_scan"}, "name": "cc05db8f0bc8ef2e3b8ea52e0ffb4b65", "type": "electric_scooter"}, {"fusion_lat": 0.0, "bike_id": "24217f0bee2cc5069ceda032af6618c9", "fusion_lon": 0.0, "lon": -77.041861, "lat": 38.89250083333334, "is_reserved": 0, "is_disabled": 0, "rental_uris": {"android": "https://dc.lft.to/lastmile_qr_scan", "ios": "https://dc.lft.to/lastmile_qr_scan"}, "name": "24217f0bee2cc5069ceda032af6618c9", "type": "electric_scooter"}, {"fusion_lat": 0.0, "bike_id": "b4266c51440f351e1a1a13572aae73ff", "fusion_lon": 0.0, "lon": -77.02239516666667, "lat": 38.9086235, "is_reserved": 0, "is_disabled": 0, "rental_uris": {"android": "https://dc.lft.to/lastmile_qr_scan", "ios": "https://dc.lft.to/lastmile_qr_scan"}, "name": "b4266c51440f351e1a1a13572aae73ff", "type": "electric_scooter"}, {"fusion_lat": 0.0, "bike_id": "47197b922664a08bcb2176846acd4e32", "fusion_lon": 0.0, "lon": -77.02447966666666, "lat": 38.903186166666664, "is_reserved": 0, "is_disabled": 0, "rental_uris": {"android": "https://dc.lft.to/lastmile_qr_scan", "ios": "https://dc.lft.to/lastmile_qr_scan"}, "name": "47197b922664a08bcb2176846acd4e32", "type": "electric_scooter"}, {"fusion_lat": 0.0, "bike_id": "cb1b48ce46d639a2c985c4f8b10f830b", "fusion_lon": 0.0, "lon": -77.03783033333333, "lat": 38.99667383333333, "is_reserved": 0, "is_disabled": 0, "rental_uris": {"android": "https://dc.lft.to/lastmile_qr_scan", "ios": "https://dc.lft.to/lastmile_qr_scan"}, "name": "cb1b48ce46d639a2c985c4f8b10f830b", "type": "electric_bike"}, {"fusion_lat": 0.0, "bike_id": "c1485d5abdfba6ec66cc03ad5978afeb", "fusion_lon": 0.0, "lon": -77.03086616666667, "lat": 38.93858433333333, "is_reserved": 0, "is_disabled": 0, "rental_uris": {"android": "https://dc.lft.to/lastmile_qr_scan", "ios": "https://dc.lft.to/lastmile_qr_scan"}, "name": "c1485d5abdfba6ec66cc03ad5978afeb", "type": "electric_scooter"}, {"fusion_lat": 0.0, "bike_id": "f42f293556b147f4d2e5b12b3dc748aa", "fusion_lon": 0.0, "lon": -77.00459183333334, "lat": 38.91441416666667, "is_reserved": 0, "is_disabled": 0, "rental_uris": {"android": "https://dc.lft.to/lastmile_qr_scan", "ios": "https://dc.lft.to/lastmile_qr_scan"}, "name": "f42f293556b147f4d2e5b12b3dc748aa", "type": "electric_scooter"}, {"fusion_lat": 0.0, "bike_id": "1ebb06db1e5708905c2ab243a7859437", "fusion_lon": 0.0, "lon": -76.94974416666666, "lat": 38.893695666666666, "is_reserved": 0, "is_disabled": 0, "rental_uris": {"android": "https://dc.lft.to/lastmile_qr_scan", "ios": "https://dc.lft.to/lastmile_qr_scan"}, "name": "1ebb06db1e5708905c2ab243a7859437", "type": "electric_scooter"}, {"fusion_lat": 0.0, "bike_id": "fe536f64a240a81f5403ab7d678c0272", "fusion_lon": 0.0, "lon": -77.03184216666666, "lat": 38.919203333333336, "is_reserved": 0, "is_disabled": 0, "rental_uris": {"android": "https://dc.lft.to/lastmile_qr_scan", "ios": "https://dc.lft.to/lastmile_qr_scan"}, "name": "fe536f64a240a81f5403ab7d678c0272", "type": "electric_scooter"}, {"fusion_lat": 0.0, "bike_id": "b563ed7642f311ce7d922dc59dedc285", "fusion_lon": 0.0, "lon": -77.046715, "lat": 38.905037, "is_reserved": 0, "is_disabled": 0, "rental_uris": {"android": "https://dc.lft.to/lastmile_qr_scan", "ios": "https://dc.lft.to/lastmile_qr_scan"}, "name": "b563ed7642f311ce7d922dc59dedc285", "type": "electric_scooter"}, {"fusion_lat": 0.0, "bike_id": "69a7d9e40148539317101a437ef5a731", "fusion_lon": 0.0, "lon": -77.04029133333333, "lat": 38.898941, "is_reserved": 0, "is_disabled": 0, "rental_uris": {"android": "https://dc.lft.to/lastmile_qr_scan", "ios": "https://dc.lft.to/lastmile_qr_scan"}, "name": "69a7d9e40148539317101a437ef5a731", "type": "electric_scooter"}, {"fusion_lat": 0.0, "bike_id": "3d6f63435f591c3ef15e87233767e301", "fusion_lon": 0.0, "lon": -77.04347016666667, "lat": 38.90518, "is_reserved": 0, "is_disabled": 0, "rental_uris": {"android": "https://dc.lft.to/lastmile_qr_scan", "ios": "https://dc.lft.to/lastmile_qr_scan"}, "name": "3d6f63435f591c3ef15e87233767e301", "type": "electric_scooter"}, {"fusion_lat": 0.0, "bike_id": "4c16cfee34e10f9ff4b76f2a90f1c2c6", "fusion_lon": 0.0, "lon": -77.0219935, "lat": 38.9222905, "is_reserved": 0, "is_disabled": 0, "rental_uris": {"android": "https://dc.lft.to/lastmile_qr_scan", "ios": "https://dc.lft.to/lastmile_qr_scan"}, "name": "4c16cfee34e10f9ff4b76f2a90f1c2c6", "type": "electric_scooter"}, {"fusion_lat": 0.0, "bike_id": "c0499732f98a6ead44cff749185a596d", "fusion_lon": 0.0, "lon": -77.0282855, "lat": 38.931438166666666, "is_reserved": 0, "is_disabled": 0, "rental_uris": {"android": "https://dc.lft.to/lastmile_qr_scan", "ios": "https://dc.lft.to/lastmile_qr_scan"}, "name": "c0499732f98a6ead44cff749185a596d", "type": "electric_scooter"}, {"fusion_lat": 0.0, "bike_id": "8ffc766cc904db7f26f14b3a41ca2183", "fusion_lon": 0.0, "lon": -76.98195466666667, "lat": 38.899465666666664, "is_reserved": 0, "is_disabled": 0, "rental_uris": {"android": "https://dc.lft.to/lastmile_qr_scan", "ios": "https://dc.lft.to/lastmile_qr_scan"}, "name": "8ffc766cc904db7f26f14b3a41ca2183", "type": "electric_scooter"}, {"fusion_lat": 0.0, "bike_id": "d5d8ca9ad8a0d36e0f55bdfaca4aa8f8", "fusion_lon": 0.0, "lon": -77.01963016666667, "lat": 38.921944833333335, "is_reserved": 0, "is_disabled": 0, "rental_uris": {"android": "https://dc.lft.to/lastmile_qr_scan", "ios": "https://dc.lft.to/lastmile_qr_scan"}, "name": "d5d8ca9ad8a0d36e0f55bdfaca4aa8f8", "type": "electric_scooter"}, {"fusion_lat": 0.0, "bike_id": "da92c476e0d8fe946166ba4a16007459", "fusion_lon": 0.0, "lon": -77.03278633333333, "lat": 38.9285195, "is_reserved": 0, "is_disabled": 0, "rental_uris": {"android": "https://dc.lft.to/lastmile_qr_scan", "ios": "https://dc.lft.to/lastmile_qr_scan"}, "name": "da92c476e0d8fe946166ba4a16007459", "type": "electric_scooter"}, {"fusion_lat": 0.0, "bike_id": "87395236d80ad98ac0cdcac35f05fe3f", "fusion_lon": 0.0, "lon": -77.08578333333334, "lat": 38.844302166666665, "is_reserved": 0, "is_disabled": 0, "rental_uris": {"android": "https://dc.lft.to/lastmile_qr_scan", "ios": "https://dc.lft.to/lastmile_qr_scan"}, "name": "87395236d80ad98ac0cdcac35f05fe3f", "type": "electric_bike"}, {"fusion_lat": 0.0, "bike_id": "ed7a5b2b460d74916a5b546cf0bb6b4c", "fusion_lon": 0.0, "lon": -77.03945733333333, "lat": 38.898978, "is_reserved": 0, "is_disabled": 0, "rental_uris": {"android": "https://dc.lft.to/lastmile_qr_scan", "ios": "https://dc.lft.to/lastmile_qr_scan"}, "name": "ed7a5b2b460d74916a5b546cf0bb6b4c", "type": "electric_scooter"}, {"fusion_lat": 0.0, "bike_id": "25ed59b91e994b02922f8fafd4d233c8", "fusion_lon": 0.0, "lon": -77.02678, "lat": 38.91693216666667, "is_reserved": 0, "is_disabled": 0, "rental_uris": {"android": "https://dc.lft.to/lastmile_qr_scan", "ios": "https://dc.lft.to/lastmile_qr_scan"}, "name": "25ed59b91e994b02922f8fafd4d233c8", "type": "electric_scooter"}, {"fusion_lat": 0.0, "bike_id": "2c4162e17903d7963026df8623775e0b", "fusion_lon": 0.0, "lon": -77.03306633333334, "lat": 38.89836533333333, "is_reserved": 0, "is_disabled": 0, "rental_uris": {"android": "https://dc.lft.to/lastmile_qr_scan", "ios": "https://dc.lft.to/lastmile_qr_scan"}, "name": "2c4162e17903d7963026df8623775e0b", "type": "electric_scooter"}, {"fusion_lat": 0.0, "bike_id": "9655adef7f88ab22533a1f3458b011ed", "fusion_lon": 0.0, "lon": -76.9808615, "lat": 38.907072166666666, "is_reserved": 0, "is_disabled": 0, "rental_uris": {"android": "https://dc.lft.to/lastmile_qr_scan", "ios": "https://dc.lft.to/lastmile_qr_scan"}, "name": "9655adef7f88ab22533a1f3458b011ed", "type": "electric_scooter"}, {"fusion_lat": 0.0, "bike_id": "7522c65d0196f9cfe7aac1a162950e8d", "fusion_lon": 0.0, "lon": -77.04089383333333, "lat": 38.911901666666665, "is_reserved": 0, "is_disabled": 0, "rental_uris": {"android": "https://dc.lft.to/lastmile_qr_scan", "ios": "https://dc.lft.to/lastmile_qr_scan"}, "name": "7522c65d0196f9cfe7aac1a162950e8d", "type": "electric_scooter"}, {"fusion_lat": 0.0, "bike_id": "b6f8d4ecddc0e78c3a0e0e1ae170564c", "fusion_lon": 0.0, "lon": -77.038419, "lat": 38.913242833333335, "is_reserved": 0, "is_disabled": 0, "rental_uris": {"android": "https://dc.lft.to/lastmile_qr_scan", "ios": "https://dc.lft.to/lastmile_qr_scan"}, "name": "b6f8d4ecddc0e78c3a0e0e1ae170564c", "type": "electric_scooter"}, {"fusion_lat": 0.0, "bike_id": "19970dee22f2b183cdb1b9262ef3b345", "fusion_lon": 0.0, "lon": -76.93735216666667, "lat": 38.890109333333335, "is_reserved": 0, "is_disabled": 0, "rental_uris": {"android": "https://dc.lft.to/lastmile_qr_scan", "ios": "https://dc.lft.to/lastmile_qr_scan"}, "name": "19970dee22f2b183cdb1b9262ef3b345", "type": "electric_scooter"}, {"fusion_lat": 0.0, "bike_id": "c8126c04a5983005de6fc873b120c2c7", "fusion_lon": 0.0, "lon": -76.98907316666667, "lat": 38.86664566666666, "is_reserved": 0, "is_disabled": 0, "rental_uris": {"android": "https://dc.lft.to/lastmile_qr_scan", "ios": "https://dc.lft.to/lastmile_qr_scan"}, "name": "c8126c04a5983005de6fc873b120c2c7", "type": "electric_scooter"}, {"fusion_lat": 0.0, "bike_id": "b859d306cac5cf69eee043d54bfe2b77", "fusion_lon": 0.0, "lon": -77.04651366666667, "lat": 38.89823583333333, "is_reserved": 0, "is_disabled": 0, "rental_uris": {"android": "https://dc.lft.to/lastmile_qr_scan", "ios": "https://dc.lft.to/lastmile_qr_scan"}, "name": "b859d306cac5cf69eee043d54bfe2b77", "type": "electric_scooter"}, {"fusion_lat": 0.0, "bike_id": "35ba64571fd8aa24bc88e9df1c3881eb", "fusion_lon": 0.0, "lon": -77.02179316666667, "lat": 38.89961733333333, "is_reserved": 0, "is_disabled": 0, "rental_uris": {"android": "https://dc.lft.to/lastmile_qr_scan", "ios": "https://dc.lft.to/lastmile_qr_scan"}, "name": "35ba64571fd8aa24bc88e9df1c3881eb", "type": "electric_scooter"}, {"fusion_lat": 0.0, "bike_id": "68bcb155bcacc9611f9083caa3b8f328", "fusion_lon": 0.0, "lon": -77.02854316666667, "lat": 38.89372616666667, "is_reserved": 0, "is_disabled": 0, "rental_uris": {"android": "https://dc.lft.to/lastmile_qr_scan", "ios": "https://dc.lft.to/lastmile_qr_scan"}, "name": "68bcb155bcacc9611f9083caa3b8f328", "type": "electric_scooter"}, {"fusion_lat": 0.0, "bike_id": "c2679dcd720151f97b542d5706d4719c", "fusion_lon": 0.0, "lon": -77.1084235, "lat": 38.812023333333336, "is_reserved": 0, "is_disabled": 0, "rental_uris": {"android": "https://dc.lft.to/lastmile_qr_scan", "ios": "https://dc.lft.to/lastmile_qr_scan"}, "name": "c2679dcd720151f97b542d5706d4719c", "type": "electric_bike"}, {"fusion_lat": 0.0, "bike_id": "4e900e963065500e8fdd2256c051cd73", "fusion_lon": 0.0, "lon": -77.025512, "lat": 38.93089583333333, "is_reserved": 0, "is_disabled": 0, "rental_uris": {"android": "https://dc.lft.to/lastmile_qr_scan", "ios": "https://dc.lft.to/lastmile_qr_scan"}, "name": "4e900e963065500e8fdd2256c051cd73", "type": "electric_scooter"}, {"fusion_lat": 0.0, "bike_id": "dc63a88d87a42c104ce7fb903de80c7f", "fusion_lon": 0.0, "lon": -76.9900425, "lat": 38.865032166666666, "is_reserved": 0, "is_disabled": 0, "rental_uris": {"android": "https://dc.lft.to/lastmile_qr_scan", "ios": "https://dc.lft.to/lastmile_qr_scan"}, "name": "dc63a88d87a42c104ce7fb903de80c7f", "type": "electric_scooter"}, {"fusion_lat": 0.0, "bike_id": "7a77e37e68789f1f5dfa1fa35bca57c4", "fusion_lon": 0.0, "lon": -77.0269625, "lat": 38.8953875, "is_reserved": 0, "is_disabled": 0, "rental_uris": {"android": "https://dc.lft.to/lastmile_qr_scan", "ios": "https://dc.lft.to/lastmile_qr_scan"}, "name": "7a77e37e68789f1f5dfa1fa35bca57c4", "type": "electric_scooter"},