{"data": {"bikes": [{"type": "electric_scooter", "name": "3e8a054c055c361fc8689049b4fd8c4e", "lat": 38.91927333333334, "fusion_lat": 0.0, "bike_id": "3e8a054c055c361fc8689049b4fd8c4e", "is_reserved": 0, "lon": -77.031879, "is_disabled": 0, "fusion_lon": 0.0, "rental_uris": {"android": "https://dc.lft.to/lastmile_qr_scan", "ios": "https://dc.lft.to/lastmile_qr_scan"}}, {"type": "electric_scooter", "name": "b420029b56cbe3f96a2685fff0ddb610", "lat": 38.91637566666667, "fusion_lat": 0.0, "bike_id": "b420029b56cbe3f96a2685fff0ddb610", "is_reserved": 0, "lon": -77.02552466666667, "is_disabled": 0, "fusion_lon": 0.0, "rental_uris": {"android": "https://dc.lft.to/lastmile_qr_scan", "ios": "https://dc.lft.to/lastmile_qr_scan"}}, {"type": "electric_scooter", "name": "1fdf81fc18b920c354e752c42126bc62", "lat": 38.918834833333335, "fusion_lat": 0.0, "bike_id": "1fdf81fc18b920c354e752c42126bc62", "is_reserved": 0, "lon": -77.02196583333334, "is_disabled": 0, "fusion_lon": 0.0, "rental_uris": {"android": "https://dc.lft.to/lastmile_qr_scan", "ios": "https://dc.lft.to/lastmile_qr_scan"}}, {"type": "electric_bike", "name": "caa4e10056512231236fbe5a1228f73c", "lat": 38.89618183333333, "fusion_lat": 0.0, "bike_id": "caa4e10056512231236fbe5a1228f73c", "is_reserved": 0, "lon": -76.90731833333334, "is_disabled": 0, "fusion_lon": 0.0, "rental_uris": {"android": "https://dc.lft.to/lastmile_qr_scan", "ios": "https://dc.lft.to/lastmile_qr_scan"}}, {"type": "electric_bike", "name": "7bdbcbe0f2af3d52ee898aff0aa61e95", "lat": 38.846135333333336, "fusion_lat": 0.0, "bike_id": "7bdbcbe0f2af3d52ee898aff0aa61e95", "is_reserved": 0, "lon": -76.96913283333333, "is_disabled": 0, "fusion_lon": 0.0, "rental_uris": {"android": "https://dc.lft.to/lastmile_qr_scan", "ios": "https://dc.lft.to/lastmile_qr_scan"}}, {"type": "electric_scooter", "name": "2d45e8078a9034b6cf342d4dafcc900f", "lat": 38.89733583333334, "fusion_lat": 0.0, "bike_id": "2d45e8078a9034b6cf342d4dafcc900f", "is_reserved": 0, "lon": -77.03360683333334, "is_disabled": 0, "fusion_lon": 0.0, "rental_uris": {"android": "https://dc.lft.to/lastmile_qr_scan", "ios": "https://dc.lft.to/lastmile_qr_scan"}}, {"type": "electric_scooter", "name": "7a2f31b506335678e0703131a6d024d4", "lat": 38.91907, "fusion_lat": 0.0, "bike_id": "7a2f31b506335678e0703131a6d024d4", "is_reserved": 0, "lon": -77.03122366666666, "is_disabled": 0, "fusion_lon": 0.0, "rental_uris": {"android": "https://dc.lft.to/lastmile_qr_scan", "ios": "https://dc.lft.to/lastmile_qr_scan"}}, {"type": "electric_scooter", "name": "7c533ab6d47754a74e11a08bf4455b8a", "lat": 38.89756933333334, "fusion_lat": 0.0, "bike_id": "7c533ab6d47754a74e11a08bf4455b8a", "is_reserved": 0, "lon": -77.01884133333333, "is_disabled": 0, "fusion_lon": 0.0, "rental_uris": {"android": "https://dc.lft.to/lastmile_qr_scan", "ios": "https://dc.lft.to/lastmile_qr_scan"}}, {"type": "electric_bike", "name": "baaa0cd5da2e0a6acd18581fd29b95a3", "lat": 38.900308333333335, "fusion_lat": 0.0, "bike_id": "baaa0cd5da2e0a6acd18581fd29b95a3", "is_reserved": 0, "lon": -77.00219183333333, "is_disabled": 0, "fusion_lon": 0.0, "rental_uris": {"android": "https://dc.lft.to/lastmile_qr_scan", "ios": "https://dc.lft.to/lastmile_qr_scan"}}, {"type": "electric_bike", "name": "85b4db39665beeda61fdf8f3a3686b58", "lat": 38.87425916666667, "fusion_lat": 0.0, "bike_id": "85b4db39665beeda61fdf8f3a3686b58", "is_reserved": 0, "lon": -77.08562383333333, "is_disabled": 0, "fusion_lon": 0.0, "rental_uris": {"android": "https://dc.lft.to/lastmile_qr_scan", "ios": "https://dc.lft.to/lastmile_qr_scan"}}, {"type": "electric_bike", "name": "cb58d0cd53727a12748bc93920e6e8a6", "lat": 38.8755475, "fusion_lat": 0.0, "bike_id": "cb58d0cd53727a12748bc93920e6e8a6", "is_reserved": 0, "lon": -77.10694966666667, "is_disabled": 0, "fusion_lon": 0.0, "rental_uris": {"android": "https://dc.lft.to/lastmile_qr_scan", "ios": "https://dc.lft.to/lastmile_qr_scan"}}, {"type": "electric_bike", "name": "555a7deb33cbafcaa31ec57632544ab5", "lat": 38.89100533333333, "fusion_lat": 0.0, "bike_id": "555a7deb33cbafcaa31ec57632544ab5", "is_reserved": 0, "lon": -76.934802, "is_disabled": 0, "fusion_lon": 0.0, "rental_uris": {"android": "https://dc.lft.to/lastmile_qr_scan", "ios": "https://dc.lft.to/lastmile_qr_scan"}}, {"type": "electric_scooter", "name": "9ad760bd2af1b3129a340ed699572203", "lat": 38.92507233333333, "fusion_lat": 0.0, "bike_id": "9ad760bd2af1b3129a340ed699572203", "is_reserved": 0, "lon": -77.05757483333333, "is_disabled": 0, "fusion_lon": 0.0, "rental_uris": {"android": "https://dc.lft.to/lastmile_qr_scan", "ios": "https://dc.lft.to/lastmile_qr_scan"}}, {"type": "electric_bike", "name": "964963bbbb0554546f4769fa5f798ef2", "lat": 38.874939, "fusion_lat": 0.0, "bike_id": "964963bbbb0554546f4769fa5f798ef2", "is_reserved": 0, "lon": -77.21122233333334, "is_disabled": 0, "fusion_lon": 0.0, "rental_uris": {"android": "https://dc.lft.to/lastmile_qr_scan", "ios": "https://dc.lft.to/lastmile_qr_scan"}}, {"type": "electric_scooter", "name": "2db8f4462f40f94ecff054714c83a111", "lat": 38.90266166666667, "fusion_lat": 0.0, "bike_id": "2db8f4462f40f94ecff054714c83a111", "is_reserved": 0, "lon": -77.029942, "is_disabled": 0, "fusion_lon": 0.0, "rental_uris": {"android": "https://dc.lft.to/lastmile_qr_scan", "ios": "https://dc.lft.to/lastmile_qr_scan"}}, {"type": "electric_scooter", "name": "3bce8f86fe97fac0d6683e65e76034d3", "lat": 38.88747, "fusion_lat": 0.0, "bike_id": "3bce8f86fe97fac0d6683e65e76034d3", "is_reserved": 0, "lon": -77.0284375, "is_disabled": 0, "fusion_lon": 0.0, "rental_uris": {"android": "https://dc.lft.to/lastmile_qr_scan", "ios": "https://dc.lft.to/lastmile_qr_scan"}}, {"type": "electric_scooter", "name": "bb8b9f1d6b2f4f34dba80af6c9e1ae72", "lat": 38.90468966666667, "fusion_lat": 0.0, "bike_id": "bb8b9f1d6b2f4f34dba80af6c9e1ae72", "is_reserved": 0, "lon": -77.03954366666666, "is_disabled": 0, "fusion_lon": 0.0, "rental_uris": {"android": "https://dc.lft.to/lastmile_qr_scan", "ios": "https://dc.lft.to/lastmile_qr_scan"}}, {"type": "electric_scooter", "name": "124a2cdc746b0ea06d891c157ffc5e43", "lat": 38.914077166666665, "fusion_lat": 0.0, "bike_id": "124a2cdc746b0ea06d891c157ffc5e43", "is_reserved": 0, "lon": -77.032188, "is_disabled": 0, "fusion_lon": 0.0, "rental_uris": {"android": "https://dc.lft.to/lastmile_qr_scan", "ios": "https://dc.lft.to/lastmile_qr_scan"}}, {"type": "electric_scooter", "name": "59f709d2b9e22f33c0725c1e66f7de6d", "lat": 38.9347635, "fusion_lat": 0.0, "bike_id": "59f709d2b9e22f33c0725c1e66f7de6d", "is_reserved": 0, "lon": -77.08661966666666, "is_disabled": 0, "fusion_lon": 0.0, "rental_uris": {"android": "https://dc.lft.to/lastmile_qr_scan", "ios": "https://dc.lft.to/lastmile_qr_scan"}}, {"type": "electric_scooter", "name": "60fe14c46eb031ea9da5f5e9462b6461", "lat": 38.90633616666667, "fusion_lat": 0.0, "bike_id": "60fe14c46eb031ea9da5f5e9462b6461", "is_reserved": 0, "lon": -77.01016416666667, "is_disabled": 0, "fusion_lon": 0.0, "rental_uris": {"android": "https://dc.lft.to/lastmile_qr_scan", "ios": "https://dc.lft.to/lastmile_qr_scan"}}, {"type": "electric_scooter", "name": "28f21611977c017628ae537e7ec6f799", "lat": 38.909291333333336, "fusion_lat": 0.0, "bike_id": "28f21611977c017628ae537e7ec6f799", "is_reserved": 0, "lon": -77.02692383333333, "is_disabled": 0, "fusion_lon": 0.0, "rental_uris": {"android": "https://dc.lft.to/lastmile_qr_scan", "ios": "https://dc.lft.to/lastmile_qr_scan"}}, {"type": "electric_scooter", "name": "e871da6fbe22441e2f8598d0806952a4", "lat": 38.90867333333333, "fusion_lat": 0.0, "bike_id": "e871da6fbe22441e2f8598d0806952a4", "is_reserved": 0, "lon": -77.07159883333334, "is_disabled": 0, "fusion_lon": 0.0, "rental_uris": {"android": "https://dc.lft.to/lastmile_qr_scan", "ios": "https://dc.lft.to/lastmile_qr_scan"}}, {"type": "electric_bike", "name": "bb86f36f7d7362404827cd019d37d22d", "lat": 38.86449016666667, "fusion_lat": 0.0, "bike_id": "bb86f36f7d7362404827cd019d37d22d", "is_reserved": 0, "lon": -77.10684666666667, "is_disabled": 0, "fusion_lon": 0.0, "rental_uris": {"android": "https://dc.lft.to/lastmile_qr_scan", "ios": "https://dc.lft.to/lastmile_qr_scan"}}, {"type": "electric_scooter", "name": "e78a7175c3ea8ce1a0497f646088035c", "lat": 38.89528633333333, "fusion_lat": 0.0, "bike_id": "e78a7175c3ea8ce1a0497f646088035c", "is_reserved": 0, "lon": -77.04847466666666, "is_disabled": 0, "fusion_lon": 0.0, "rental_uris": {"android": "https://dc.lft.to/lastmile_qr_scan", "ios": "https://dc.lft.to/lastmile_qr_scan"}}, {"type": "electric_scooter", "name": "8fb68c9b9f48db3d2980c7de4b55465a", "lat": 38.934280333333334, "fusion_lat": 0.0, "bike_id": "8fb68c9b9f48db3d2980c7de4b55465a", "is_reserved": 0, "lon": -77.05581566666666, "is_disabled": 0, "fusion_lon": 0.0, "rental_uris": {"android": "https://dc.lft.to/lastmile_qr_scan", "ios": "https://dc.lft.to/lastmile_qr_scan"}}, {"type": "electric_scooter", "name": "562a5f4caf45d21bf5ffe4729cf3237f", "lat": 38.939321666666665, "fusion_lat": 0.0, "bike_id": "562a5f4caf45d21bf5ffe4729cf3237f", "is_reserved": 0, "lon": -77.027885, "is_disabled": 0, "fusion_lon": 0.0, "rental_uris": {"android": "https://dc.lft.to/lastmile_qr_scan", "ios": "https://dc.lft.to/lastmile_qr_scan"}}, {"type": "electric_scooter", "name": "5d8efc2693efd7ecefbfc3cb66cec5ef", "lat": 38.87701966666667, "fusion_lat": 0.0, "bike_id": "5d8efc2693efd7ecefbfc3cb66cec5ef", "is_reserved": 0, "lon": -77.01763, "is_disabled": 0, "fusion_lon": 0.0, "rental_uris": {"android": "https://dc.lft.to/lastmile_qr_scan", "ios": "https://dc.lft.to/lastmile_qr_scan"}}, {"type": "electric_bike", "name": "9e78c81aadc231912ad1c0f3debd4916", "lat": 38.839338166666664, "fusion_lat": 0.0, "bike_id": "9e78c81aadc231912ad1c0f3debd4916", "is_reserved": 0, "lon": -77.07897816666667, "is_disabled": 0, "fusion_lon": 0.0, "rental_uris": {"android": "https://dc.lft.to/lastmile_qr_scan", "ios": "https://dc.lft.to/lastmile_qr_scan"}}, {"type": "electric_scooter", "name": "0c65d07711046896a34803148445863f", "lat": 38.9025425, "fusion_lat": 0.0, "bike_id": "0c65d07711046896a34803148445863f", "is_reserved": 0, "lon": -77.0300065, "is_disabled": 0, "fusion_lon": 0.0, "rental_uris": {"android": "https://dc.lft.to/lastmile_qr_scan", "ios": "https://dc.lft.to/lastmile_qr_scan"}}, {"type": "electric_scooter", "name": "a3c93b77dd6e0c460d837ebd1b4e15b7", "lat": 38.92522733333333, "fusion_lat": 0.0, "bike_id": "a3c93b77dd6e0c460d837ebd1b4e15b7", "is_reserved": 0, "lon": -77.041113, "is_disabled": 0, "fusion_lon": 0.0, "rental_uris": {"android": "https://dc.lft.to/lastmile_qr_scan", "ios": "https://dc.lft.to/lastmile_qr_scan"}}, {"type": "electric_scooter", "name": "0ad41a8393f14f1e78b4a491a2e0758e", "lat": 38.8936635, "fusion_lat": 0.0, "bike_id": "0ad41a8393f14f1e78b4a491a2e0758e", "is_reserved": 0, "lon": -77.015532, "is_disabled": 0, "fusion_lon": 0.0, "rental_uris": {"android": "https://dc.lft.to/lastmile_qr_scan", "ios": "https://dc.lft.to/lastmile_qr_scan"}}, {"type": "electric_scooter", "name": "566f254a4acb88010709ffbae60b63e2", "lat": 38.900564, "fusion_lat": 0.0, "bike_id": "566f254a4acb88010709ffbae60b63e2", "is_reserved": 0, "lon": -77.02970933333333, "is_disabled": 0, "fusion_lon": 0.0, "rental_uris": {"android": "https://dc.lft.to/lastmile_qr_scan", "ios": "https://dc.lft.to/lastmile_qr_scan"}}, {"type": "electric_scooter", "name": "df716beef259d63b3835e2e3493030f4", "lat": 38.915735166666664, "fusion_lat": 0.0, "bike_id": "df716beef259d63b3835e2e3493030f4", "is_reserved": 0, "lon": -77.01240333333334, "is_disabled": 0, "fusion_lon": 0.0, "rental_uris": {"android": "https://dc.lft.to/lastmile_qr_scan", "ios": "https://dc.lft.to/lastmile_qr_scan"}}, {"type": "electric_scooter", "name": "59c3411fac3b708bd5e90acdf8671d9a", "lat": 38.9181865, "fusion_lat": 0.0, "bike_id": "59c3411fac3b708bd5e90acdf8671d9a", "is_reserved": 0, "lon": -77.01294233333333, "is_disabled": 0, "fusion_lon": 0.0, "rental_uris": {"android": "https://dc.lft.to/lastmile_qr_scan", "ios": "https://dc.lft.to/lastmile_qr_scan"}}, {"type": "electric_scooter", "name": "b43487404167c677d145b5528e580f55", "lat": 38.898369833333334, "fusion_lat": 0.0, "bike_id": "b43487404167c677d145b5528e580f55", "is_reserved": 0, "lon": -77.04550266666666, "is_disabled": 0, "fusion_lon": 0.0, "rental_uris": {"android": "https://dc.lft.to/lastmile_qr_scan", "ios": "https://dc.lft.to/lastmile_qr_scan"}}, {"type": "electric_scooter", "name": "076d995ba496f962ea6b6c84bda39cb3", "lat": 38.92874616666667, "fusion_lat": 0.0, "bike_id": "076d995ba496f962ea6b6c84bda39cb3", "is_reserved": 0, "lon": -77.03353416666667, "is_disabled": 0, "fusion_lon": 0.0, "rental_uris": {"android": "https://dc.lft.to/lastmile_qr_scan", "ios": "https://dc.lft.to/lastmile_qr_scan"}}, {"type": "electric_scooter", "name": "93331258ea2b6cc19fa63fe33ef2e3a7", "lat": 38.91268633333333, "fusion_lat": 0.0, "bike_id": "93331258ea2b6cc19fa63fe33ef2e3a7", "is_reserved": 0, "lon": -77.041083, "is_disabled": 0, "fusion_lon": 0.0, "rental_uris": {"android": "https://dc.lft.to/lastmile_qr_scan", "ios": "https://dc.lft.to/lastmile_qr_scan"}}, {"type": "electric_scooter", "name": "115d09d8df2b8b25af2d66e659475239", "lat": 38.96824316666667, "fusion_lat": 0.0, "bike_id": "115d09d8df2b8b25af2d66e659475239", "is_reserved": 0, "lon": -77.00912466666666, "is_disabled": 0, "fusion_lon": 0.0, "rental_uris": {"android": "https://dc.lft.to/lastmile_qr_scan", "ios": "https://dc.lft.to/lastmile_qr_scan"}}, {"type": "electric_scooter", "name": "0e3ffe618fe983d5061a6728ee506e97", "lat": 38.89231316666667, "fusion_lat": 0.0, "bike_id": "0e3ffe618fe983d5061a6728ee506e97", "is_reserved": 0, "lon": -77.02384466666666, "is_disabled": 0, "fusion_lon": 0.0, "rental_uris": {"android": "https://dc.lft.to/lastmile_qr_scan", "ios": "https://dc.lft.to/lastmile_qr_scan"}}, {"type": "electric_scooter", "name": "8fc7542bb306addd6cdb07d051d25a9f", "lat": 38.89825833333333, "fusion_lat": 0.0, "bike_id": "8fc7542bb306addd6cdb07d051d25a9f", "is_reserved": 0, "lon": -77.0106435, "is_disabled": 0, "fusion_lon": 0.0, "rental_uris": {"android": "https://dc.lft.to/lastmile_qr_scan", "ios": "https://dc.lft.to/lastmile_qr_scan"}}, {"type": "electric_scooter", "name": "9fd20f4b627691cb7cfe38bf7886c5e1", "lat": 38.91975766666667, "fusion_lat": 0.0, "bike_id": "9fd20f4b627691cb7cfe38bf7886c5e1", "is_reserved": 0, "lon": -77.03963016666667, "is_disabled": 0, "fusion_lon": 0.0, "rental_uris": {"android": "https://dc.lft.to/lastmile_qr_scan", "ios": "https://dc.lft.to/lastmile_qr_scan"}}, {"type": "electric_scooter", "name": "63335620264ef1b43a10fc4e6cc265c1", "lat": 38.89740833333333, "fusion_lat": 0.0, "bike_id": "63335620264ef1b43a10fc4e6cc265c1", "is_reserved": 0, "lon": -77.04619283333334, "is_disabled": 0, "fusion_lon": 0.0, "rental_uris": {"android": "https://dc.lft.to/lastmile_qr_scan", "ios": "https://dc.lft.to/lastmile_qr_scan"}}, {"type": "electric_scooter", "name": "ccac2f48ed772eb27c5d7f3de2919535", "lat": 38.898324, "fusion_lat": 0.0, "bike_id": "ccac2f48ed772eb27c5d7f3de2919535", "is_reserved": 0, "lon": -76.93177566666667, "is_disabled": 0, "fusion_lon": 0.0, "rental_uris": {"android": "https://dc.lft.to/lastmile_qr_scan", "ios": "https://dc.lft.to/lastmile_qr_scan"}}, {"type": "electric_scooter", "name": "49d19eb6b0ae8fb7402f279c01038cb6", "lat": 38.956416833333336, "fusion_lat": 0.0, "bike_id": "49d19eb6b0ae8fb7402f279c01038cb6", "is_reserved": 0, "lon": -77.01615566666666, "is_disabled": 0, "fusion_lon": 0.0, "rental_uris": {"android": "https://dc.lft.to/lastmile_qr_scan", "ios": "https://dc.lft.to/lastmile_qr_scan"}}, {"type": "electric_scooter", "name": "6de224b54688d18bdbda1ecfdae50f6d", "lat": 38.9014285, "fusion_lat": 0.0, "bike_id": "6de224b54688d18bdbda1ecfdae50f6d", "is_reserved": 0, "lon": -77.018175, "is_disabled": 0, "fusion_lon": 0.0, "rental_uris": {"android": "https://dc.lft.to/lastmile_qr_scan", "ios": "https://dc.lft.to/lastmile_qr_scan"}}, {"type": "electric_scooter", "name": "22c46cad016226378e06fd1e5279dba4", "lat": 38.92861116666667, "fusion_lat": 0.0, "bike_id": "22c46cad016226378e06fd1e5279dba4", "is_reserved": 0, "lon": -77.014084, "is_disabled": 0, "fusion_lon": 0.0, "rental_uris": {"android": "https://dc.lft.to/lastmile_qr_scan", "ios": "https://dc.lft.to/lastmile_qr_scan"}}, {"type": "electric_scooter", "name": "b02b241b34b2dc7759d1d77b086b1a2d", "lat": 38.9141475, "fusion_lat": 0.0, "bike_id": "b02b241b34b2dc7759d1d77b086b1a2d", "is_reserved": 0, "lon": -77.03168716666667, "is_disabled": 0, "fusion_lon": 0.0, "rental_uris": {"android": "https://dc.lft.to/lastmile_qr_scan", "ios": "https://dc.lft.to/lastmile_qr_scan"}}, {"type": "electric_scooter", "name": "e19b81c931d86b3396d42fdd8584919d", "lat": 38.89536233333333, "fusion_lat": 0.0, "bike_id": "e19b81c931d86b3396d42fdd8584919d", "is_reserved": 0, "lon": -77.024237, "is_disabled": 0, "fusion_lon": 0.0, "rental_uris": {"android": "https://dc.lft.to/lastmile_qr_scan", "ios": "https://dc.lft.to/lastmile_qr_scan"}}, {"type": "electric_scooter", "name": "356b6fe5bdb805d75645b50827ac514d", "lat": 38.840550666666665, "fusion_lat": 0.0, "bike_id": "356b6fe5bdb805d75645b50827ac514d", "is_reserved": 0, "lon": -76.97667116666666, "is_disabled": 0, "fusion_lon": 0.0, "rental_uris": {"android": "https://dc.lft.to/lastmile_qr_scan", "ios": "https://dc.lft.to/lastmile_qr_scan"}}, {"type": "electric_scooter", "name": "064cf063036465088adc2649ca6d565b", "lat": 38.914767833333336, "fusion_lat": 0.0, "bike_id": "064cf063036465088adc2649ca6d565b", "is_reserved": 0, "lon": -77.0217195, "is_disabled": 0, "fusion_lon": 0.0, "rental_uris": {"android": "https://dc.lft.to/lastmile_qr_scan", "ios": "https://dc.lft.to/lastmile_qr_scan"}}, {"type": "electric_scooter", "name": "70e4db00006b51933ef63b3537d0765e", "lat": 38.93979216666666, "fusion_lat": 0.0, "bike_id": "70e4db00006b51933ef63b3537d0765e", "is_reserved": 0, "lon": -77.03262416666666, "is_disabled": 0, "fusion_lon": 0.0, "rental_uris": {"android": "https://dc.lft.to/lastmile_qr_scan", "ios": "https://dc.lft.to/lastmile_qr_scan"}}, {"type": "electric_scooter", "name": "b3d023c732cd832e9aa072e2cf67aaf6", "lat": 38.89487116666667, "fusion_lat": 0.0, "bike_id": "b3d023c732cd832e9aa072e2cf67aaf6", "is_reserved": 0, "lon": -77.0026215, "is_disabled": 0, "fusion_lon": 0.0, "rental_uris": {"android": "https://dc.lft.to/lastmile_qr_scan", "ios": "https://dc.lft.to/lastmile_qr_scan"}}, {"type": "electric_scooter", "name": "7a08787c65cb709c97acd0e35ed5c200", "lat": 38.924369666666664, "fusion_lat": 0.0, "bike_id": "7a08787c65cb709c97acd0e35ed5c200", "is_reserved": 0, "lon": -77.03406966666667, "is_disabled": 0, "fusion_lon": 0.0, "rental_uris": {"android": "https://dc.lft.to/lastmile_qr_scan", "ios": "https://dc.lft.to/lastmile_qr_scan"}}, {"type": "electric_scooter", "name": "3a2e40016326786eff043b0ec7df8aaf", "lat": 38.924471, "fusion_lat": 0.0, "bike_id": "3a2e40016326786eff043b0ec7df8aaf", "is_reserved": 0, "lon": -77.02141233333333, "is_disabled": 0, "fusion_lon": 0.0, "rental_uris": {"android": "https://dc.lft.to/lastmile_qr_scan", "ios": "https://dc.lft.to/lastmile_qr_scan"}}, {"type": "electric_scooter", "name": "3ea992bd402583caa345dcc60c952762", "lat": 38.866606, "fusion_lat": 0.0, "bike_id": "3ea992bd402583caa345dcc60c952762", "is_reserved": 0, "lon": -76.9888565, "is_disabled": 0, "fusion_lon": 0.0, "rental_uris": {"android": "https://dc.lft.to/lastmile_qr_scan", "ios": "https://dc.lft.to/lastmile_qr_scan"}}, {"type": "electric_scooter", "name": "2824618116ace24e1afe82c849304e24", "lat": 38.924876833333336, "fusion_lat": 0.0, "bike_id": "2824618116ace24e1afe82c849304e24", "is_reserved": 0, "lon": -77.02135116666666, "is_disabled": 0, "fusion_lon": 0.0, "rental_uris": {"android": "https://dc.lft.to/lastmile_qr_scan", "ios": "https://dc.lft.to/lastmile_qr_scan"}}, {"type": "electric_scooter", "name": "4e1424ec18f460f8ab11ec179d2a8707", "lat": 38.92474983333334, "fusion_lat": 0.0, "bike_id": "4e1424ec18f460f8ab11ec179d2a8707", "is_reserved": 0, "lon": -77.02215733333334, "is_disabled": 0, "fusion_lon": 0.0, "rental_uris": {"android": "https://dc.lft.to/lastmile_qr_scan", "ios": "https://dc.lft.to/lastmile_qr_scan"}}, {"type": "electric_bike", "name": "80e5905cba67d36d0b12c01456709af7", "lat": 38.797006833333334, "fusion_lat": 0.0, "bike_id": "80e5905cba67d36d0b12c01456709af7", "is_reserved": 0, "lon": -77.003683, "is_disabled": 0, "fusion_lon": 0.0, "rental_uris": {"android": "https://dc.lft.to/lastmile_qr_scan", "ios": "https://dc.lft.to/lastmile_qr_scan"}}, {"type": "electric_scooter", "name": "dcd44169f8dd415238b76f62d5a65303", "lat": 38.890423166666665, "fusion_lat": 0.0, "bike_id": "dcd44169f8dd415238b76f62d5a65303", "is_reserved": 0, "lon": -76.95244116666667, "is_disabled": 0, "fusion_lon": 0.0, "rental_uris": {"android": "https://dc.lft.to/lastmile_qr_scan", "ios": "https://dc.lft.to/lastmile_qr_scan"}}, {"type": "electric_scooter", "name": "4d3d02e8d06bbc7d152863ede571b2ab", "lat": 38.89951583333333, "fusion_lat": 0.0, "bike_id": "4d3d02e8d06bbc7d152863ede571b2ab", "is_reserved": 0, "lon": -76.98165433333334, "is_disabled": 0, "fusion_lon": 0.0, "rental_uris": {"android": "https://dc.lft.to/lastmile_qr_scan", "ios": "https://dc.lft.to/lastmile_qr_scan"}}, {"type": "electric_scooter", "name": "008976c0a9d2f929b6cde6a3ea6ccd38", "lat": 38.9079055, "fusion_lat": 0.0, "bike_id": "008976c0a9d2f929b6cde6a3ea6ccd38", "is_reserved": 0, "lon": -77.02709766666666, "is_disabled": 0, "fusion_lon": 0.0, "rental_uris": {"android": "https://dc.lft.to/lastmile_qr_scan", "ios": "https://dc.lft.to/lastmile_qr_scan"}}, {"type": "electric_scooter", "name": "e6d38488f48c90dd9926a5660fc37eb8", "lat": 38.8978915, "fusion_lat": 0.0, "bike_id": "e6d38488f48c90dd9926a5660fc37eb8", "is_reserved": 0, "lon": -77.0135155, "is_disabled": 0, "fusion_lon": 0.0, "rental_uris": {"android": "https://dc.lft.to/lastmile_qr_scan", "ios": "https://dc.lft.to/lastmile_qr_scan"}}, {"type": "electric_scooter", "name": "b779460ee846fedbc450be7027d8815c", "lat": 38.928678166666664, "fusion_lat": 0.0, "bike_id": "b779460ee846fedbc450be7027d8815c", "is_reserved": 0, "lon": -77.02723183333333, "is_disabled": 0, "fusion_lon": 0.0, "rental_uris": {"android": "https://dc.lft.to/lastmile_qr_scan", "ios": "https://dc.lft.to/lastmile_qr_scan"}}, {"type": "electric_scooter", "name": "8054fc6378c70f02db825bbfdccb2bc3", "lat": 38.909692166666666, "fusion_lat": 0.0, "bike_id": "8054fc6378c70f02db825bbfdccb2bc3", "is_reserved": 0, "lon": -77.04518716666666, "is_disabled": 0, "fusion_lon": 0.0, "rental_uris": {"android": "https://dc.lft.to/lastmile_qr_scan", "ios": "https://dc.lft.to/lastmile_qr_scan"}}, {"type": "electric_scooter", "name": "4ae4146aaefbc4fa5aad8a11cc1a845a", "lat": 38.89221116666667, "fusion_lat": 0.0, "bike_id": "4ae4146aaefbc4fa5aad8a11cc1a845a", "is_reserved": 0, "lon": -77.01353483333334, "is_disabled": 0, "fusion_lon": 0.0, "rental_uris": {"android": "https://dc.lft.to/lastmile_qr_scan", "ios": "https://dc.lft.to/lastmile_qr_scan"}}, {"type": "electric_scooter", "name": "a9bd8791faa65eeca6f5bdc510d291c2", "lat": 38.899149666666666, "fusion_lat": 0.0, "bike_id": "a9bd8791faa65eeca6f5bdc510d291c2", "is_reserved": 0, "lon": -77.032932, "is_disabled": 0, "fusion_lon": 0.0, "rental_uris": {"android": "https://dc.lft.to/lastmile_qr_scan", "ios": "https://dc.lft.to/lastmile_qr_scan"}}, {"type": "electric_scooter", "name": "11420cb5536b22e9323cf5750c2dbeca", "lat": 38.90489983333333, "fusion_lat": 0.0, "bike_id": "11420cb5536b22e9323cf5750c2dbeca", "is_reserved": 0, "lon": -77.02916633333334, "is_disabled": 0, "fusion_lon": 0.0, "rental_uris": {"android": "https://dc.lft.to/lastmile_qr_scan", "ios": "https://dc.lft.to/lastmile_qr_scan"}}, {"type": "electric_scooter", "name": "072164fe0d3caf831610cf52ce2aeb0b", "lat": 38.93747416666667, "fusion_lat": 0.0, "bike_id": "072164fe0d3caf831610cf52ce2aeb0b", "is_reserved": 0, "lon": -77.02518966666666, "is_disabled": 0, "fusion_lon": 0.0, "rental_uris": {"android": "https://dc.lft.to/lastmile_qr_scan", "ios": "https://dc.lft.to/lastmile_qr_scan"}}, {"type": "electric_scooter", "name": "9889fdbc294af79627041a95681b5c93", "lat": 38.92352233333333, "fusion_lat": 0.0, "bike_id": "9889fdbc294af79627041a95681b5c93", "is_reserved": 0, "lon": -77.04149166666667, "is_disabled": 0, "fusion_lon": 0.0, "rental_uris": {"android": "https://dc.lft.to/lastmile_qr_scan", "ios": "https://dc.lft.to/lastmile_qr_scan"}}, {"type": "electric_scooter", "name": "ee9b215fa95bd5674d2e45ff25c7acae", "lat": 38.9085205, "fusion_lat": 0.0, "bike_id": "ee9b215fa95bd5674d2e45ff25c7acae", "is_reserved": 0, "lon": -77.01968416666666, "is_disabled": 0, "fusion_lon": 0.0, "rental_uris": {"android": "https://dc.lft.to/lastmile_qr_scan", "ios": "https://dc.lft.to/lastmile_qr_scan"}}, {"type": "electric_scooter", "name": "61b382873091f0fd3ef3daf41c77ce12", "lat": 38.87781966666667, "fusion_lat": 0.0, "bike_id": "61b382873091f0fd3ef3daf41c77ce12", "is_reserved": 0, "lon": -76.99410266666666, "is_disabled": 0, "fusion_lon": 0.0, "rental_uris": {"android": "https://dc.lft.to/lastmile_qr_scan", "ios": "https://dc.lft.to/lastmile_qr_scan"}}, {"type": "electric_scooter", "name": "5bc1d0f4bcf89361e9aa75d838ec74c8", "lat": 38.920524666666665, "fusion_lat": 0.0, "bike_id": "5bc1d0f4bcf89361e9aa75d838ec74c8", "is_reserved": 0, "lon": -77.03442783333334, "is_disabled": 0, "fusion_lon": 0.0, "rental_uris": {"android": "https://dc.lft.to/lastmile_qr_scan", "ios": "https://dc.lft.to/lastmile_qr_scan"}}, {"type": "electric_scooter", "name": "1bbef067798de674cb4190fbab0a794a", "lat": 38.892325666666665, "fusion_lat": 0.0, "bike_id": "1bbef067798de674cb4190fbab0a794a", "is_reserved": 0, "lon": -77.03206016666667, "is_disabled": 0, "fusion_lon": 0.0, "rental_uris": {"android": "https://dc.lft.to/lastmile_qr_scan", "ios": "https://dc.lft.to/lastmile_qr_scan"}}, {"type": "electric_scooter", "name": "8dd193f3c10c1929c35adcbb7930d77f", "lat": 38.89916916666667, "fusion_lat": 0.0, "bike_id": "8dd193f3c10c1929c35adcbb7930d77f", "is_reserved": 0, "lon": -77.0281865, "is_disabled": 0, "fusion_lon": 0.0, "rental_uris": {"android": "https://dc.lft.to/lastmile_qr_scan", "ios": "https://dc.lft.to/lastmile_qr_scan"}}, {"type": "electric_scooter", "name": "13fc8b9da7d007224081cfc164a698a0", "lat": 38.91921283333333, "fusion_lat": 0.0, "bike_id": "13fc8b9da7d007224081cfc164a698a0", "is_reserved": 0, "lon": -77.034132, "is_disabled": 0, "fusion_lon": 0.0, "rental_uris": {"android": "https://dc.lft.to/lastmile_qr_scan", "ios": "https://dc.lft.to/lastmile_qr_scan"}}, {"type": "electric_scooter", "name": "a1021eff06deeb9e27d9d70f32d4385e", "lat": 38.907162, "fusion_lat": 0.0, "bike_id": "a1021eff06deeb9e27d9d70f32d4385e", "is_reserved": 0, "lon": -77.00210666666666, "is_disabled": 0, "fusion_lon": 0.0, "rental_uris": {"android": "https://dc.lft.to/lastmile_qr_scan", "ios": "https://dc.lft.to/lastmile_qr_scan"}}, {"type": "electric_scooter", "name": "c0dcb9e3e39fc384e7e57bb0f275742e", "lat": 38.90379766666667, "fusion_lat": 0.0, "bike_id": "c0dcb9e3e39fc384e7e57bb0f275742e", "is_reserved": 0, "lon": -77.0364295, "is_disabled": 0, "fusion_lon": 0.0, "rental_uris": {"android": "https://dc.lft.to/lastmile_qr_scan", "ios": "https://dc.lft.to/lastmile_qr_scan"}}, {"type": "electric_scooter", "name": "508f3df4183feed6c2e4dd56b250c4a3", "lat": 38.91834083333333, "fusion_lat": 0.0, "bike_id": "508f3df4183feed6c2e4dd56b250c4a3", "is_reserved": 0, "lon": -77.03508533333333, "is_disabled": 0, "fusion_lon": 0.0, "rental_uris": {"android": "https://dc.lft.to/lastmile_qr_scan", "ios": "https://dc.lft.to/lastmile_qr_scan"}}, {"type": "electric_scooter", "name": "7aaeea4677b0541bf44b1c417530b711", "lat": 38.902535666666665, "fusion_lat": 0.0, "bike_id": "7aaeea4677b0541bf44b1c417530b711", "is_reserved": 0, "lon": -77.03950983333333, "is_disabled": 0, "fusion_lon": 0.0, "rental_uris": {"android": "https://dc.lft.to/lastmile_qr_scan", "ios": "https://dc.lft.to/lastmile_qr_scan"}}, {"type": "electric_scooter", "name": "de0e439ae5b4d9952b6f40f37d4b9bea", "lat": 38.9065385, "fusion_lat": 0.0, "bike_id": "de0e439ae5b4d9952b6f40f37d4b9bea", "is_reserved": 0, "lon": -77.03867283333334, "is_disabled": 0, "fusion_lon": 0.0, "rental_uris": {"android": "https://dc.lft.to/lastmile_qr_scan", "ios": "https://dc.lft.to/lastmile_qr_scan"}}, {"type": "electric_scooter", "name": "f6cffe6c362baf243033807c727ffd51", "lat": 38.91059033333333, "fusion_lat": 0.0, "bike_id": "f6cffe6c362baf243033807c727ffd51", "is_reserved": 0, "lon": -77.004571, "is_disabled": 0, "fusion_lon": 0.0, "rental_uris": {"android": "https://dc.lft.to/lastmile_qr_scan", "ios": "https://dc.lft.to/lastmile_qr_scan"}}, {"type": "electric_bike", "name": "17d77a95db32f1a587d8deb5bcea056e", "lat": 38.9388255, "fusion_lat": 0.0, "bike_id": "17d77a95db32f1a587d8deb5bcea056e", "is_reserved": 0, "lon": -76.9903205, "is_disabled": 0, "fusion_lon": 0.0, "rental_uris": {"android": "https://dc.lft.to/lastmile_qr_scan", "ios": "https://dc.lft.to/lastmile_qr_scan"}}, {"type": "electric_scooter", "name": "d73c9912b4fc2352fb70d0db3b6904f9", "lat": 38.93568766666667, "fusion_lat": 0.0, "bike_id": "d73c9912b4fc2352fb70d0db3b6904f9", "is_reserved": 0, "lon": -77.0326065, "is_disabled": 0, "fusion_lon": 0.0, "rental_uris": {"android": "https://dc.lft.to/lastmile_qr_scan", "ios": "https://dc.lft.to/lastmile_qr_scan"}}, {"type": "electric_scooter", "name": "7623800f2c754473e7a52574cd4b21bf", "lat": 38.8728435, "fusion_lat": 0.0, "bike_id": "7623800f2c754473e7a52574cd4b21bf", "is_reserved": 0, "lon": -77.00985916666667, "is_disabled": 0, "fusion_lon": 0.0, "rental_uris": {"android": "https://dc.lft.to/lastmile_qr_scan", "ios": "https://dc.lft.to/lastmile_qr_scan"}}, {"type": "electric_scooter", "name": "1204edd8238eec5945ce4bb11dd02f77", "lat": 38.931329, "fusion_lat": 0.0, "bike_id": "1204edd8238eec5945ce4bb11dd02f77", "is_reserved": 0, "lon": -77.04339116666667, "is_disabled": 0, "fusion_lon": 0.0, "rental_uris": {"android": "https://dc.lft.to/lastmile_qr_scan", "ios": "https://dc.lft.to/lastmile_qr_scan"}}, {"type": "electric_scooter", "name": "52605dd916053b2fce4fd021ab36d558", "lat": 38.89839816666667, "fusion_lat": 0.0, "bike_id": "52605dd916053b2fce4fd021ab36d558", "is_reserved": 0, "lon": -77.0316775, "is_disabled": 0, "fusion_lon": 0.0, "rental_uris": {"android": "https://dc.lft.to/lastmile_qr_scan", "ios": "https://dc.lft.to/lastmile_qr_scan"}}, {"type": "electric_scooter", "name": "4722c0cd5fe79d81ce87d6168234c3d9", "lat": 38.883705, "fusion_lat": 0.0, "bike_id": "4722c0cd5fe79d81ce87d6168234c3d9", "is_reserved": 0, "lon": -76.9289145, "is_disabled": 0, "fusion_lon": 0.0, "rental_uris": {"android": "https://dc.lft.to/lastmile_qr_scan", "ios": "https://dc.lft.to/lastmile_qr_scan"}}, {"type": "electric_scooter", "name": "73ccfdc59b08fe67e5145ddc606de311", "lat": 38.957814, "fusion_lat": 0.0, "bike_id": "73ccfdc59b08fe67e5145ddc606de311", "is_reserved": 0, "lon": -77.027473, "is_disabled": 0, "fusion_lon": 0.0, "rental_uris": {"android": "https://dc.lft.to/lastmile_qr_scan", "ios": "https://dc.lft.to/lastmile_qr_scan"}}, {"type": "electric_scooter", "name": "f9c0adf1a030ef3a2109fadda247b86a", "lat": 38.9159865, "fusion_lat": 0.0, "bike_id": "f9c0adf1a030ef3a2109fadda247b86a", "is_reserved": 0, "lon": -76.98370066666666, "is_disabled": 0, "fusion_lon": 0.0, "rental_uris": {"android": "https://dc.lft.to/lastmile_qr_scan", "ios": "https://dc.lft.to/lastmile_qr_scan"}}, {"type": "electric_scooter", "name": "b0065fa719321277a44400ab83b8f2a0", "lat": 38.92765883333333, "fusion_lat": 0.0, "bike_id": "b0065fa719321277a44400ab83b8f2a0", "is_reserved": 0, "lon": -77.0273085, "is_disabled": 0, "fusion_lon": 0.0, "rental_uris": {"android": "https://dc.lft.to/lastmile_qr_scan", "ios": "https://dc.lft.to/lastmile_qr_scan"}}, {"type": "electric_scooter", "name": "5b9ac594fbf0b20bdfa4c1e88e049558", "lat": 38.8998455, "fusion_lat": 0.0, "bike_id": "5b9ac594fbf0b20bdfa4c1e88e049558", "is_reserved": 0, "lon": -76.98238633333334, "is_disabled": 0, "fusion_lon": 0.0, "rental_uris": {"android": "https://dc.lft.to/lastmile_qr_scan", "ios": "https://dc.lft.to/lastmile_qr_scan"}}, {"type": "electric_scooter", "name": "43e9636bf445d596697039abeeda1975", "lat": 38.90335133333333, "fusion_lat": 0.0, "bike_id": "43e9636bf445d596697039abeeda1975", "is_reserved": 0, "lon": -76.97579033333334, "is_disabled": 0, "fusion_lon": 0.0, "rental_uris": {"android": "https://dc.lft.to/lastmile_qr_scan", "ios": "https://dc.lft.to/lastmile_qr_scan"}}, {"type": "electric_bike", "name": "bfe3e85000fb4ec69107c4954f5969a7", "lat": 38.8433635, "fusion_lat": 0.0, "bike_id": "bfe3e85000fb4ec69107c4954f5969a7", "is_reserved": 0, "lon": -77.06398283333333, "is_disabled": 0, "fusion_lon": 0.0, "rental_uris": {"android": "https://dc.lft.to/lastmile_qr_scan", "ios": "https://dc.lft.to/lastmile_qr_scan"}}, {"type": "electric_scooter", "name": "f6cb238a09f21b05f6b91af20ac9f2c2", "lat": 38.923005333333336, "fusion_lat": 0.0, "bike_id": "f6cb238a09f21b05f6b91af20ac9f2c2", "is_reserved": 0, "lon": -77.027133, "is_disabled": 0, "fusion_lon": 0.0, "rental_uris": {"android": "https://dc.lft.to/lastmile_qr_scan", "ios": "https://dc.lft.to/lastmile_qr_scan"}}, {"type": "electric_scooter", "name": "bdf3d6acb9512b1f4662db58c45bd81e", "lat": 38.892591, "fusion_lat": 0.0, "bike_id": "bdf3d6acb9512b1f4662db58c45bd81e", "is_reserved": 0, "lon": -77.00344383333334, "is_disabled": 0, "fusion_lon": 0.0, "rental_uris": {"android": "https://dc.lft.to/lastmile_qr_scan", "ios": "https://dc.lft.to/lastmile_qr_scan"}}, {"type": "electric_bike", "name": "94f1cb599db0ef024fc9faa2516ceab2", "lat": 38.88715116666667, "fusion_lat": 0.0, "bike_id": "94f1cb599db0ef024fc9faa2516ceab2", "is_reserved": 0, "lon": -77.13302933333334, "is_disabled": 0, "fusion_lon": 0.0, "rental_uris": {"android": "https://dc.lft.to/lastmile_qr_scan", "ios": "https://dc.lft.to/lastmile_qr_scan"}}, {"type": "electric_scooter", "name": "ec46b11cd2afda1258e4f1674e331135", "lat": 38.916604, "fusion_lat": 0.0, "bike_id": "ec46b11cd2afda1258e4f1674e331135", "is_reserved": 0, "lon": -77.02709983333334, "is_disabled": 0, "fusion_lon": 0.0, "rental_uris": {"android": "https://dc.lft.to/lastmile_qr_scan", "ios": "https://dc.lft.to/lastmile_qr_scan"}}, {"type": "electric_scooter", "name": "1df22c4f030cc0bd37ba8961f0f043b1", "lat": 38.908156, "fusion_lat": 0.0, "bike_id": "1df22c4f030cc0bd37ba8961f0f043b1", "is_reserved": 0, "lon": -77.0385435, "is_disabled": 0, "fusion_lon": 0.0, "rental_uris": {"android": "https://dc.lft.to/lastmile_qr_scan", "ios": "https://dc.lft.to/lastmile_qr_scan"}}, {"type": "electric_scooter", "name": "65ad2ad7c321427e32ab4929d4ca9453", "lat": 38.918619166666666, "fusion_lat": 0.0, "bike_id": "65ad2ad7c321427e32ab4929d4ca9453", "is_reserved": 0, "lon": -77.0403705, "is_disabled": 0, "fusion_lon": 0.0, "rental_uris": {"android": "https://dc.lft.to/lastmile_qr_scan", "ios": "https://dc.lft.to/lastmile_qr_scan"}}, {"type": "electric_scooter", "name": "ba60071f3c2d7569f2a98dae1158a3a6", "lat": 38.88462116666667, "fusion_lat": 0.0, "bike_id": "ba60071f3c2d7569f2a98dae1158a3a6", "is_reserved": 0, "lon": -76.99573, "is_disabled": 0, "fusion_lon": 0.0, "rental_uris": {"android": "https://dc.lft.to/lastmile_qr_scan", "ios": "https://dc.lft.to/lastmile_qr_scan"}}, {"type": "electric_scooter", "name": "c07448eba01a63d5793c895a0f61ea45", "lat": 38.96740633333334, "fusion_lat": 0.0, "bike_id": "c07448eba01a63d5793c895a0f61ea45", "is_reserved": 0, "lon": -77.0086155, "is_disabled": 0, "fusion_lon": 0.0, "rental_uris": {"android": "https://dc.lft.to/lastmile_qr_scan", "ios": "https://dc.lft.to/lastmile_qr_scan"}}, {"type": "electric_scooter", "name": "cebd21205b791137e3961e6df505b089", "lat": 38.9028895, "fusion_lat": 0.0, "bike_id": "cebd21205b791137e3961e6df505b089", "is_reserved": 0, "lon": -77.0401145, "is_disabled": 0, "fusion_lon": 0.0, "rental_uris": {"android": "https://dc.lft.to/lastmile_qr_scan", "ios": "https://dc.lft.to/lastmile_qr_scan"}}, {"type": "electric_bike", "name": "68f821e9ed32098e20911c3ec15d754a", "lat": 38.857873166666664, "fusion_lat": 0.0, "bike_id": "68f821e9ed32098e20911c3ec15d754a", "is_reserved": 0, "lon": -77.12015866666667, "is_disabled": 0, "fusion_lon": 0.0, "rental_uris": {"android": "https://dc.lft.to/lastmile_qr_scan", "ios": "https://dc.lft.to/lastmile_qr_scan"}}, {"type": "electric_scooter", "name": "3beb2b0ac008f6d4679d2898e150823b", "lat": 38.92048666666667, "fusion_lat": 0.0, "bike_id": "3beb2b0ac008f6d4679d2898e150823b", "is_reserved": 0, "lon": -77.02573216666667, "is_disabled": 0, "fusion_lon": 0.0, "rental_uris": {"android": "https://dc.lft.to/lastmile_qr_scan", "ios": "https://dc.lft.to/lastmile_qr_scan"}}, {"type": "electric_scooter", "name": "8b9321a319349becd57b0ce251270845", "lat": 38.898199166666664, "fusion_lat": 0.0, "bike_id": "8b9321a319349becd57b0ce251270845", "is_reserved": 0, "lon": -77.03325983333333, "is_disabled": 0, "fusion_lon": 0.0, "rental_uris": {"android": "https://dc.lft.to/lastmile_qr_scan", "ios": "https://dc.lft.to/lastmile_qr_scan"}}, {"type": "electric_scooter", "name": "4d0e347e6684304206da4a5434097109", "lat": 38.8995415, "fusion_lat": 0.0, "bike_id": "4d0e347e6684304206da4a5434097109", "is_reserved": 0, "lon": -77.02793083333333, "is_disabled": 0, "fusion_lon": 0.0, "rental_uris": {"android": "https://dc.lft.to/lastmile_qr_scan", "ios": "https://dc.lft.to/lastmile_qr_scan"}}, {"type": "electric_scooter", "name": "e9d2a83dca0851f9a2c42dd014bffdc7", "lat": 38.89209316666667, "fusion_lat": 0.0, "bike_id": "e9d2a83dca0851f9a2c42dd014bffdc7", "is_reserved": 0, "lon": -76.95694116666667, "is_disabled": 0, "fusion_lon": 0.0, "rental_uris": {"android": "https://dc.lft.to/lastmile_qr_scan", "ios": "https://dc.lft.to/lastmile_qr_scan"}}, {"type": "electric_scooter", "name": "20e54be5cc08c1152d8b0e29a5ccb7b5", "lat": 38.91359116666667, "fusion_lat": 0.0, "bike_id": "20e54be5cc08c1152d8b0e29a5ccb7b5", "is_reserved": 0, "lon": -77.044033, "is_disabled": 0, "fusion_lon": 0.0, "rental_uris": {"android": "https://dc.lft.to/lastmile_qr_scan", "ios": "https://dc.lft.to/lastmile_qr_scan"}}, {"type": "electric_scooter", "name": "3cedc3f91efe5eda3a02c33580da178f", "lat": 38.94073733333333, "fusion_lat": 0.0, "bike_id": "3cedc3f91efe5eda3a02c33580da178f", "is_reserved": 0, "lon": -76.99939933333333, "is_disabled": 0, "fusion_lon": 0.0, "rental_uris": {"android": "https://dc.lft.to/lastmile_qr_scan", "ios": "https://dc.lft.to/lastmile_qr_scan"}}, {"type": "electric_scooter", "name": "a4f5e26690666a05f3b5a886e0092721", "lat": 38.917691833333336, "fusion_lat": 0.0, "bike_id": "a4f5e26690666a05f3b5a886e0092721", "is_reserved": 0, "lon": -77.04173733333333, "is_disabled": 0, "fusion_lon": 0.0, "rental_uris": {"android": "https://dc.lft.to/lastmile_qr_scan", "ios": "https://dc.lft.to/lastmile_qr_scan"}}, {"type": "electric_scooter", "name": "5d4159f97a82bfd490a402db88865373", "lat": 38.9213385, "fusion_lat": 0.0, "bike_id": "5d4159f97a82bfd490a402db88865373", "is_reserved": 0, "lon": -77.01166733333334, "is_disabled": 0, "fusion_lon": 0.0, "rental_uris": {"android": "https://dc.lft.to/lastmile_qr_scan", "ios": "https://dc.lft.to/lastmile_qr_scan"}}, {"type": "electric_bike", "name": "76a0264d58b9778dc94ace706e506925", "lat": 38.992210166666666, "fusion_lat": 0.0, "bike_id": "76a0264d58b9778dc94ace706e506925", "is_reserved": 0, "lon": -76.944448, "is_disabled": 0, "fusion_lon": 0.0, "rental_uris": {"android": "https://dc.lft.to/lastmile_qr_scan", "ios": "https://dc.lft.to/lastmile_qr_scan"}}, {"type": "electric_scooter", "name": "9f2a65fce477854b6cad139bb7ac48da", "lat": 38.925525666666665, "fusion_lat": 0.0, "bike_id": "9f2a65fce477854b6cad139bb7ac48da", "is_reserved": 0, "lon": -77.02708983333333, "is_disabled": 0, "fusion_lon": 0.0, "rental_uris": {"android": "https://dc.lft.to/lastmile_qr_scan", "ios": "https://dc.lft.to/lastmile_qr_scan"}}, {"type": "electric_scooter", "name": "79abb7e9a718642dc10fd928f037debf", "lat": 38.90010083333333, "fusion_lat": 0.0, "bike_id": "79abb7e9a718642dc10fd928f037debf", "is_reserved": 0, "lon": -76.98832216666666, "is_disabled": 0, "fusion_lon": 0.0, "rental_uris": {"android": "https://dc.lft.to/lastmile_qr_scan", "ios": "https://dc.lft.to/lastmile_qr_scan"}}, {"type": "electric_scooter", "name": "b1bce358771bad9f163ddf1ca47e8f3c", "lat": 38.93979433333333, "fusion_lat": 0.0, "bike_id": "b1bce358771bad9f163ddf1ca47e8f3c", "is_reserved": 0, "lon": -77.03262916666667, "is_disabled": 0, "fusion_lon": 0.0, "rental_uris": {"android": "https://dc.lft.to/lastmile_qr_scan", "ios": "https://dc.lft.to/lastmile_qr_scan"}}, {"type": "electric_scooter", "name": "ba106647b67f0feb20b20df748418d60", "lat": 38.865681, "fusion_lat": 0.0, "bike_id": "ba106647b67f0feb20b20df748418d60", "is_reserved": 0, "lon": -76.98335916666667, "is_disabled": 0, "fusion_lon": 0.0, "rental_uris": {"android": "https://dc.lft.to/lastmile_qr_scan", "ios": "https://dc.lft.to/lastmile_qr_scan"}}, {"type": "electric_scooter", "name": "f448e96820b36c0145c412dab1c36b68", "lat": 38.92847116666667, "fusion_lat": 0.0, "bike_id": "f448e96820b36c0145c412dab1c36b68", "is_reserved": 0, "lon": -77.05422516666667, "is_disabled": 0, "fusion_lon": 0.0, "rental_uris": {"android": "https://dc.lft.to/lastmile_qr_scan", "ios": "https://dc.lft.to/lastmile_qr_scan"}}, {"type": "electric_scooter", "name": "00dd785b89d68e367654705b0d30d22a", "lat": 38.8574295, "fusion_lat": 0.0, "bike_id": "00dd785b89d68e367654705b0d30d22a", "is_reserved": 0, "lon": -76.973731, "is_disabled": 0, "fusion_lon": 0.0, "rental_uris": {"android": "https://dc.lft.to/lastmile_qr_scan", "ios": "https://dc.lft.to/lastmile_qr_scan"}}, {"type": "electric_scooter", "name": "de2797a8ba28b0011132d9bcf6f940e8", "lat": 38.90103216666667, "fusion_lat": 0.0, "bike_id": "de2797a8ba28b0011132d9bcf6f940e8", "is_reserved": 0, "lon": -76.99488233333334, "is_disabled": 0, "fusion_lon": 0.0, "rental_uris": {"android": "https://dc.lft.to/lastmile_qr_scan", "ios": "https://dc.lft.to/lastmile_qr_scan"}}, {"type": "electric_scooter", "name": "efe5d50856f5f0ad3779371d495c4297", "lat": 38.904771833333335, "fusion_lat": 0.0, "bike_id": "efe5d50856f5f0ad3779371d495c4297", "is_reserved": 0, "lon": -77.04356583333333, "is_disabled": 0, "fusion_lon": 0.0, "rental_uris": {"android": "https://dc.lft.to/lastmile_qr_scan", "ios": "https://dc.lft.to/lastmile_qr_scan"}}, {"type": "electric_scooter", "name": "062f0144f39b8960e2ce00933c06d8c1", "lat": 38.905735666666665, "fusion_lat": 0.0, "bike_id": "062f0144f39b8960e2ce00933c06d8c1", "is_reserved": 0, "lon": -77.04358783333333, "is_disabled": 0, "fusion_lon": 0.0, "rental_uris": {"android": "https://dc.lft.to/lastmile_qr_scan", "ios": "https://dc.lft.to/lastmile_qr_scan"}}, {"type": "electric_scooter", "name": "796fc0e9fc8640826a9ed2439219f470", "lat": 38.91624616666667, "fusion_lat": 0.0, "bike_id": "796fc0e9fc8640826a9ed2439219f470", "is_reserved": 0, "lon": -77.04842516666666, "is_disabled": 0, "fusion_lon": 0.0, "rental_uris": {"android": "https://dc.lft.to/lastmile_qr_scan", "ios": "https://dc.lft.to/lastmile_qr_scan"}}, {"type": "electric_bike", "name": "01217902475263331e5f4a5c51113945", "lat": 38.93072983333333, "fusion_lat": 0.0, "bike_id": "01217902475263331e5f4a5c51113945", "is_reserved": 0, "lon": -77.03283733333333, "is_disabled": 0, "fusion_lon": 0.0, "rental_uris": {"android": "https://dc.lft.to/lastmile_qr_scan", "ios": "https://dc.lft.to/lastmile_qr_scan"}}, {"type": "electric_scooter", "name": "fa1ea1ea317bd16d291b20a19cc50be7", "lat": 38.893372166666666, "fusion_lat": 0.0, "bike_id": "fa1ea1ea317bd16d291b20a19cc50be7", "is_reserved": 0, "lon": -77.0225705, "is_disabled": 0, "fusion_lon": 0.0, "rental_uris": {"android": "https://dc.lft.to/lastmile_qr_scan", "ios": "https://dc.lft.to/lastmile_qr_scan"}}, {"type": "electric_scooter", "name": "f8fc564032ab8910a975ee25ca7e8b16", "lat": 38.90028516666667, "fusion_lat": 0.0, "bike_id": "f8fc564032ab8910a975ee25ca7e8b16", "is_reserved": 0, "lon": -77.00901983333333, "is_disabled": 0, "fusion_lon": 0.0, "rental_uris": {"android": "https://dc.lft.to/lastmile_qr_scan", "ios": "https://dc.lft.to/lastmile_qr_scan"}}, {"type": "electric_bike", "name": "bc9e3d5fd8c30dc3f5d5aaa81fc6d6f6", "lat": 38.895698, "fusion_lat": 0.0, "bike_id": "bc9e3d5fd8c30dc3f5d5aaa81fc6d6f6", "is_reserved": 0, "lon": -77.127366, "is_disabled": 0, "fusion_lon": 0.0, "rental_uris": {"android": "https://dc.lft.to/lastmile_qr_scan", "ios": "https://dc.lft.to/lastmile_qr_scan"}}, {"type": "electric_bike", "name": "e86f5bf26a6003a67f2790a7dc17f77a", "lat": 38.954663333333336, "fusion_lat": 0.0, "bike_id": "e86f5bf26a6003a67f2790a7dc17f77a", "is_reserved": 0, "lon": -76.990033, "is_disabled": 0, "fusion_lon": 0.0, "rental_uris": {"android": "https://dc.lft.to/lastmile_qr_scan", "ios": "https://dc.lft.to/lastmile_qr_scan"}}, {"type": "electric_scooter", "name": "7b2dd1ac5335b3d84c5757e2720a0515", "lat": 38.91265933333333, "fusion_lat": 0.0, "bike_id": "7b2dd1ac5335b3d84c5757e2720a0515", "is_reserved": 0, "lon": -77.033619, "is_disabled": 0, "fusion_lon": 0.0, "rental_uris": {"android": "https://dc.lft.to/lastmile_qr_scan", "ios": "https://dc.lft.to/lastmile_qr_scan"}}, {"type": "electric_scooter", "name": "cb40219a623ff81909ecb3bfe4d7d9ad", "lat": 38.904804166666665, "fusion_lat": 0.0, "bike_id": "cb40219a623ff81909ecb3bfe4d7d9ad", "is_reserved": 0, "lon": -77.06115316666667, "is_disabled": 0, "fusion_lon": 0.0, "rental_uris": {"android": "https://dc.lft.to/lastmile_qr_scan", "ios": "https://dc.lft.to/lastmile_qr_scan"}}, {"type": "electric_scooter", "name": "8a847c3af115ec37dab8487b27b0514a", "lat": 38.901200833333334, "fusion_lat": 0.0, "bike_id": "8a847c3af115ec37dab8487b27b0514a", "is_reserved": 0, "lon": -77.01672616666667, "is_disabled": 0, "fusion_lon": 0.0, "rental_uris": {"android": "https://dc.lft.to/lastmile_qr_scan", "ios": "https://dc.lft.to/lastmile_qr_scan"}}, {"type": "electric_scooter", "name": "bc76ba40795d111546d9324d20ef7cf4", "lat": 38.878905833333334, "fusion_lat": 0.0, "bike_id": "bc76ba40795d111546d9324d20ef7cf4", "is_reserved": 0, "lon": -77.022092, "is_disabled": 0, "fusion_lon": 0.0, "rental_uris": {"android": "https://dc.lft.to/lastmile_qr_scan", "ios": "https://dc.lft.to/lastmile_qr_scan"}}, {"type": "electric_scooter", "name": "efced4eb6d61525ba7263b1ad986629c", "lat": 38.886168, "fusion_lat": 0.0, "bike_id": "efced4eb6d61525ba7263b1ad986629c", "is_reserved": 0, "lon": -77.01525, "is_disabled": 0, "fusion_lon": 0.0, "rental_uris": {"android": "https://dc.lft.to/lastmile_qr_scan", "ios": "https://dc.lft.to/lastmile_qr_scan"}}, {"type": "electric_scooter", "name": "514bcc0cca9b93c77813bceba5b502bc", "lat": 38.92433033333333, "fusion_lat": 0.0, "bike_id": "514bcc0cca9b93c77813bceba5b502bc", "is_reserved": 0, "lon": -77.02123133333333, "is_disabled": 0, "fusion_lon": 0.0, "rental_uris": {"android": "https://dc.lft.to/lastmile_qr_scan", "ios": "https://dc.lft.to/lastmile_qr_scan"}}, {"type": "electric_scooter", "name": "0d528c52104654d07a4aea8beceb5b5b", "lat": 38.900488833333334, "fusion_lat": 0.0, "bike_id": "0d528c52104654d07a4aea8beceb5b5b", "is_reserved": 0, "lon": -76.98833916666666, "is_disabled": 0, "fusion_lon": 0.0, "rental_uris": {"android": "https://dc.lft.to/lastmile_qr_scan", "ios": "https://dc.lft.to/lastmile_qr_scan"}}, {"type": "electric_scooter", "name": "9a410a87f4f61093fd4d59391b127fe4", "lat": 38.91912516666667, "fusion_lat": 0.0, "bike_id": "9a410a87f4f61093fd4d59391b127fe4", "is_reserved": 0, "lon": -77.02946466666667, "is_disabled": 0, "fusion_lon": 0.0, "rental_uris": {"android": "https://dc.lft.to/lastmile_qr_scan", "ios": "https://dc.lft.to/lastmile_qr_scan"}}, {"type": "electric_scooter", "name": "4a01731b20c8be0b076efc6a2b5128dc", "lat": 38.900319333333336, "fusion_lat": 0.0, "bike_id": "4a01731b20c8be0b076efc6a2b5128dc", "is_reserved": 0, "lon": -77.012162, "is_disabled": 0, "fusion_lon": 0.0, "rental_uris": {"android": "https://dc.lft.to/lastmile_qr_scan", "ios": "https://dc.lft.to/lastmile_qr_scan"}}, {"type": "electric_scooter", "name": "2ed18aedc9eba2fe64aa97b1fb6e0660", "lat": 38.924197666666664, "fusion_lat": 0.0, "bike_id": "2ed18aedc9eba2fe64aa97b1fb6e0660", "is_reserved": 0, "lon": -77.05754533333334, "is_disabled": 0, "fusion_lon": 0.0, "rental_uris": {"android": "https://dc.lft.to/lastmile_qr_scan", "ios": "https://dc.lft.to/lastmile_qr_scan"}}, {"type": "electric_scooter", "name": "0e530b26efa04dbf448189188b4eb34e", "lat": 38.92360583333333, "fusion_lat": 0.0, "bike_id": "0e530b26efa04dbf448189188b4eb34e", "is_reserved": 0, "lon": -77.050295, "is_disabled": 0, "fusion_lon": 0.0, "rental_uris": {"android": "https://dc.lft.to/lastmile_qr_scan", "ios": "https://dc.lft.to/lastmile_qr_scan"}}, {"type": "electric_scooter", "name": "94621f131c070f5c7f76ed67648bfdcb", "lat": 38.91807216666667, "fusion_lat": 0.0, "bike_id": "94621f131c070f5c7f76ed67648bfdcb", "is_reserved": 0, "lon": -77.03436533333333, "is_disabled": 0, "fusion_lon": 0.0, "rental_uris": {"android": "https://dc.lft.to/lastmile_qr_scan", "ios": "https://dc.lft.to/lastmile_qr_scan"}}, {"type": "electric_scooter", "name": "4c61497d22bbcfd716522c82bcfd5699", "lat": 38.9274, "fusion_lat": 0.0, "bike_id": "4c61497d22bbcfd716522c82bcfd5699", "is_reserved": 0, "lon": -77.03633483333333, "is_disabled": 0, "fusion_lon": 0.0, "rental_uris": {"android": "https://dc.lft.to/lastmile_qr_scan", "ios": "https://dc.lft.to/lastmile_qr_scan"}}, {"type": "electric_scooter", "name": "ea08f199d35b81a457209a0fd2929c6f", "lat": 38.9525195, "fusion_lat": 0.0, "bike_id": "ea08f199d35b81a457209a0fd2929c6f", "is_reserved": 0, "lon": -77.00189066666667, "is_disabled": 0, "fusion_lon": 0.0, "rental_uris": {"android": "https://dc.lft.to/lastmile_qr_scan", "ios": "https://dc.lft.to/lastmile_qr_scan"}}, {"type": "electric_scooter", "name": "6d8a10d2a390c4bbc89d9c11d0e86583", "lat": 38.90675016666667, "fusion_lat": 0.0, "bike_id": "6d8a10d2a390c4bbc89d9c11d0e86583", "is_reserved": 0, "lon": -77.027084, "is_disabled": 0, "fusion_lon": 0.0, "rental_uris": {"android": "https://dc.lft.to/lastmile_qr_scan", "ios": "https://dc.lft.to/lastmile_qr_scan"}}, {"type": "electric_scooter", "name": "eba7e19714f9c0f784df78978940207b", "lat": 38.896593, "fusion_lat": 0.0, "bike_id": "eba7e19714f9c0f784df78978940207b", "is_reserved": 0, "lon": -77.0261435, "is_disabled": 0, "fusion_lon": 0.0, "rental_uris": {"android": "https://dc.lft.to/lastmile_qr_scan", "ios": "https://dc.lft.to/lastmile_qr_scan"}}, {"type": "electric_scooter", "name": "9e6669045b4812a3878696b1106803b3", "lat": 38.90148533333333, "fusion_lat": 0.0, "bike_id": "9e6669045b4812a3878696b1106803b3", "is_reserved": 0, "lon": -77.035588, "is_disabled": 0, "fusion_lon": 0.0, "rental_uris": {"android": "https://dc.lft.to/lastmile_qr_scan", "ios": "https://dc.lft.to/lastmile_qr_scan"}}, {"type": "electric_scooter", "name": "5671840227f085a83be28272c63e1482", "lat": 38.908691166666664, "fusion_lat": 0.0, "bike_id": "5671840227f085a83be28272c63e1482", "is_reserved": 0, "lon": -76.93337133333333, "is_disabled": 0, "fusion_lon": 0.0, "rental_uris": {"android": "https://dc.lft.to/lastmile_qr_scan", "ios": "https://dc.lft.to/lastmile_qr_scan"}}, {"type": "electric_scooter", "name": "7de4c90e562ae0596f33f001ceab6da7", "lat": 38.921396333333334, "fusion_lat": 0.0, "bike_id": "7de4c90e562ae0596f33f001ceab6da7", "is_reserved": 0, "lon": -77.03495083333334, "is_disabled": 0, "fusion_lon": 0.0, "rental_uris": {"android": "https://dc.lft.to/lastmile_qr_scan", "ios": "https://dc.lft.to/lastmile_qr_scan"}}, {"type": "electric_scooter", "name": "aa85b86c2f675f1dc281a67a48b4eb68", "lat": 38.927680333333335, "fusion_lat": 0.0, "bike_id": "aa85b86c2f675f1dc281a67a48b4eb68", "is_reserved": 0, "lon": -77.02733833333333, "is_disabled": 0, "fusion_lon": 0.0, "rental_uris": {"android": "https://dc.lft.to/lastmile_qr_scan", "ios": "https://dc.lft.to/lastmile_qr_scan"}}, {"type": "electric_scooter", "name": "9d4ef2f547a20354dddbaaea6a7f97ce", "lat": 38.905312333333335, "fusion_lat": 0.0, "bike_id": "9d4ef2f547a20354dddbaaea6a7f97ce", "is_reserved": 0, "lon": -76.9963465, "is_disabled": 0, "fusion_lon": 0.0, "rental_uris": {"android": "https://dc.lft.to/lastmile_qr_scan", "ios": "https://dc.lft.to/lastmile_qr_scan"}}, {"type": "electric_scooter", "name": "190b614f6af88149648d0b85fff655b1", "lat": 38.907266166666666, "fusion_lat": 0.0, "bike_id": "190b614f6af88149648d0b85fff655b1", "is_reserved": 0, "lon": -77.02824016666666, "is_disabled": 0, "fusion_lon": 0.0, "rental_uris": {"android": "https://dc.lft.to/lastmile_qr_scan", "ios": "https://dc.lft.to/lastmile_qr_scan"}}, {"type": "electric_scooter", "name": "87ffe65f8924ee474cc4818b6c93966b", "lat": 38.910124333333336, "fusion_lat": 0.0, "bike_id": "87ffe65f8924ee474cc4818b6c93966b", "is_reserved": 0, "lon": -77.0218945, "is_disabled": 0, "fusion_lon": 0.0, "rental_uris": {"android": "https://dc.lft.to/lastmile_qr_scan", "ios": "https://dc.lft.to/lastmile_qr_scan"}}, {"type": "electric_scooter", "name": "484427bc1189b6b043238f08b6366134", "lat": 38.92470616666667, "fusion_lat": 0.0, "bike_id": "484427bc1189b6b043238f08b6366134", "is_reserved": 0, "lon": -77.02265516666667, "is_disabled": 0, "fusion_lon": 0.0, "rental_uris": {"android": "https://dc.lft.to/lastmile_qr_scan", "ios": "https://dc.lft.to/lastmile_qr_scan"}}, {"type": "electric_scooter", "name": "ecb39c83599e62554c4bfe032f5da92b", "lat": 38.9098965, "fusion_lat": 0.0, "bike_id": "ecb39c83599e62554c4bfe032f5da92b", "is_reserved": 0, "lon": -77.03204466666666, "is_disabled": 0, "fusion_lon": 0.0, "rental_uris": {"android": "https://dc.lft.to/lastmile_qr_scan", "ios": "https://dc.lft.to/lastmile_qr_scan"}}, {"type": "electric_scooter", "name": "520a21c835f574efa6ff19b30a6875d4", "lat": 38.92567733333333, "fusion_lat": 0.0, "bike_id": "520a21c835f574efa6ff19b30a6875d4", "is_reserved": 0, "lon": -77.03642366666666, "is_disabled": 0, "fusion_lon": 0.0, "rental_uris": {"android": "https://dc.lft.to/lastmile_qr_scan", "ios": "https://dc.lft.to/lastmile_qr_scan"}}, {"type": "electric_scooter", "name": "3b73f9547cfa79ba5f0ef98726f3a73e", "lat": 38.89942333333333, "fusion_lat": 0.0, "bike_id": "3b73f9547cfa79ba5f0ef98726f3a73e", "is_reserved": 0, "lon": -77.02411133333334, "is_disabled": 0, "fusion_lon": 0.0, "rental_uris": {"android": "https://dc.lft.to/lastmile_qr_scan", "ios": "https://dc.lft.to/lastmile_qr_scan"}}, {"type": "electric_scooter", "name": "96f07d84c0aef0a6211f65445ab5677d", "lat": 38.90603816666667, "fusion_lat": 0.0, "bike_id": "96f07d84c0aef0a6211f65445ab5677d", "is_reserved": 0, "lon": -77.00174183333333, "is_disabled": 0, "fusion_lon": 0.0, "rental_uris": {"android": "https://dc.lft.to/lastmile_qr_scan", "ios": "https://dc.lft.to/lastmile_qr_scan"}}, {"type": "electric_scooter", "name": "a986201bfa0673d3b862251e2c6e98e7", "lat": 38.94478333333333, "fusion_lat": 0.0, "bike_id": "a986201bfa0673d3b862251e2c6e98e7", "is_reserved": 0, "lon": -77.0065355, "is_disabled": 0, "fusion_lon": 0.0, "rental_uris": {"android": "https://dc.lft.to/lastmile_qr_scan", "ios": "https://dc.lft.to/lastmile_qr_scan"}}, {"type": "electric_scooter", "name": "e5a0655cc2a39d3f955d25be4e790db5", "lat": 38.92728116666667, "fusion_lat": 0.0, "bike_id": "e5a0655cc2a39d3f955d25be4e790db5", "is_reserved": 0, "lon": -77.03234883333333, "is_disabled": 0, "fusion_lon": 0.0, "rental_uris": {"android": "https://dc.lft.to/lastmile_qr_scan", "ios": "https://dc.lft.to/lastmile_qr_scan"}}, {"type": "electric_scooter", "name": "ea2834fe2b1dbc1d38ceaa1bf09898d3", "lat": 38.85806433333333, "fusion_lat": 0.0, "bike_id": "ea2834fe2b1dbc1d38ceaa1bf09898d3", "is_reserved": 0, "lon": -76.9865405, "is_disabled": 0, "fusion_lon": 0.0, "rental_uris": {"android": "https://dc.lft.to/lastmile_qr_scan", "ios": "https://dc.lft.to/lastmile_qr_scan"}}, {"type": "electric_scooter", "name": "5ba4cbd69f14f3f41ea2da3af203d343", "lat": 38.914146, "fusion_lat": 0.0, "bike_id": "5ba4cbd69f14f3f41ea2da3af203d343", "is_reserved": 0, "lon": -77.02436366666667, "is_disabled": 0, "fusion_lon": 0.0, "rental_uris": {"android": "https://dc.lft.to/lastmile_qr_scan", "ios": "https://dc.lft.to/lastmile_qr_scan"}}, {"type": "electric_scooter", "name": "65005efb53b31e58122bba1027b3aa68", "lat": 38.9264425, "fusion_lat": 0.0, "bike_id": "65005efb53b31e58122bba1027b3aa68", "is_reserved": 0, "lon": -77.03704466666667, "is_disabled": 0, "fusion_lon": 0.0, "rental_uris": {"android": "https://dc.lft.to/lastmile_qr_scan", "ios": "https://dc.lft.to/lastmile_qr_scan"}}, {"type": "electric_bike", "name": "bfd85635c601877f90d72d1db130ac05", "lat": 38.82787966666667, "fusion_lat": 0.0, "bike_id": "bfd85635c601877f90d72d1db130ac05", "is_reserved": 0, "lon": -77.124884, "is_disabled": 0, "fusion_lon": 0.0, "rental_uris": {"android": "https://dc.lft.to/lastmile_qr_scan", "ios": "https://dc.lft.to/lastmile_qr_scan"}}, {"type": "electric_scooter", "name": "c99e9fe3ec655b560190761ae4c5e455", "lat": 38.86632783333334, "fusion_lat": 0.0, "bike_id": "c99e9fe3ec655b560190761ae4c5e455", "is_reserved": 0, "lon": -76.98711333333333, "is_disabled": 0, "fusion_lon": 0.0, "rental_uris": {"android": "https://dc.lft.to/lastmile_qr_scan", "ios": "https://dc.lft.to/lastmile_qr_scan"}}, {"type": "electric_scooter", "name": "450dc64a4e805a6e91e935850b794c5a", "lat": 38.920687666666666, "fusion_lat": 0.0, "bike_id": "450dc64a4e805a6e91e935850b794c5a", "is_reserved": 0, "lon": -76.9955805, "is_disabled": 0, "fusion_lon": 0.0, "rental_uris": {"android": "https://dc.lft.to/lastmile_qr_scan", "ios": "https://dc.lft.to/lastmile_qr_scan"}}, {"type": "electric_scooter", "name": "f45fc15ec20759b2e3cb9800fd1809ec", "lat": 38.901119333333334, "fusion_lat": 0.0, "bike_id": "f45fc15ec20759b2e3cb9800fd1809ec", "is_reserved": 0, "lon": -77.0317615, "is_disabled": 0, "fusion_lon": 0.0, "rental_uris": {"android": "https://dc.lft.to/lastmile_qr_scan", "ios": "https://dc.lft.to/lastmile_qr_scan"}}, {"type": "electric_scooter", "name": "4f0eacfe2c50b791f65b67f290cfc8ea", "lat": 38.9012795, "fusion_lat": 0.0, "bike_id": "4f0eacfe2c50b791f65b67f290cfc8ea", "is_reserved": 0, "lon": -77.04349016666667, "is_disabled": 0, "fusion_lon": 0.0, "rental_uris": {"android": "https://dc.lft.to/lastmile_qr_scan", "ios": "https://dc.lft.to/lastmile_qr_scan"}}, {"type": "electric_scooter", "name": "41769bace9e5ac0a33e9d4d6331ba671", "lat": 38.893998833333335, "fusion_lat": 0.0, "bike_id": "41769bace9e5ac0a33e9d4d6331ba671", "is_reserved": 0, "lon": -77.02167016666667, "is_disabled": 0, "fusion_lon": 0.0, "rental_uris": {"android": "https://dc.lft.to/lastmile_qr_scan", "ios": "https://dc.lft.to/lastmile_qr_scan"}}, {"type": "electric_scooter", "name": "34742807f45317f0ed1e824360b1b509", "lat": 38.88406416666667, "fusion_lat": 0.0, "bike_id": "34742807f45317f0ed1e824360b1b509", "is_reserved": 0, "lon": -77.01525883333333, "is_disabled": 0, "fusion_lon": 0.0, "rental_uris": {"android": "https://dc.lft.to/lastmile_qr_scan", "ios": "https://dc.lft.to/lastmile_qr_scan"}}, {"type": "electric_bike", "name": "ce0599e75a12dfa3c0125d508d539b9e", "lat": 38.90960833333333, "fusion_lat": 0.0, "bike_id": "ce0599e75a12dfa3c0125d508d539b9e", "is_reserved": 0, "lon": -76.9843965, "is_disabled": 0, "fusion_lon": 0.0, "rental_uris": {"android": "https://dc.lft.to/lastmile_qr_scan", "ios": "https://dc.lft.to/lastmile_qr_scan"}}, {"type": "electric_scooter", "name": "a71cca6634a57c3b3dcb24fd4db81bbb", "lat": 38.866844666666665, "fusion_lat": 0.0, "bike_id": "a71cca6634a57c3b3dcb24fd4db81bbb", "is_reserved": 0, "lon": -76.98567800000001, "is_disabled": 0, "fusion_lon": 0.0, "rental_uris": {"android": "https://dc.lft.to/lastmile_qr_scan", "ios": "https://dc.lft.to/lastmile_qr_scan"}}, {"type": "electric_scooter", "name": "ba334eb971bd88aedbe60860b2970e23", "lat": 38.903097833333334, "fusion_lat": 0.0, "bike_id": "ba334eb971bd88aedbe60860b2970e23", "is_reserved": 0, "lon": -77.038653, "is_disabled": 0, "fusion_lon": 0.0, "rental_uris": {"android": "https://dc.lft.to/lastmile_qr_scan", "ios": "https://dc.lft.to/lastmile_qr_scan"}}, {"type": "electric_scooter", "name": "8f3233b5a251918192f9837b9dbf76e7", "lat": 38.92464433333333, "fusion_lat": 0.0, "bike_id": "8f3233b5a251918192f9837b9dbf76e7", "is_reserved": 0, "lon": -77.002086, "is_disabled": 0, "fusion_lon": 0.0, "rental_uris": {"android": "https://dc.lft.to/lastmile_qr_scan", "ios": "https://dc.lft.to/lastmile_qr_scan"}}, {"type": "electric_scooter", "name": "2e93e486d4e8dc628f1def62d2337ad0", "lat": 38.927140666666666, "fusion_lat": 0.0, "bike_id": "2e93e486d4e8dc628f1def62d2337ad0", "is_reserved": 0, "lon": -77.0231275, "is_disabled": 0, "fusion_lon": 0.0, "rental_uris": {"android": "https://dc.lft.to/lastmile_qr_scan", "ios": "https://dc.lft.to/lastmile_qr_scan"}}, {"type": "electric_scooter", "name": "3367bab2f6c85ca161d3dab762240c49", "lat": 38.898341333333335, "fusion_lat": 0.0, "bike_id": "3367bab2f6c85ca161d3dab762240c49", "is_reserved": 0, "lon": -77.033544, "is_disabled": 0, "fusion_lon": 0.0, "rental_uris": {"android": "https://dc.lft.to/lastmile_qr_scan", "ios": "https://dc.lft.to/lastmile_qr_scan"}}, {"type": "electric_scooter", "name": "fe07cab4d3e8362360a423814fab6294", "lat": 38.8840265, "fusion_lat": 0.0, "bike_id": "fe07cab4d3e8362360a423814fab6294", "is_reserved": 0, "lon": -77.0177585, "is_disabled": 0, "fusion_lon": 0.0, "rental_uris": {"android": "https://dc.lft.to/lastmile_qr_scan", "ios": "https://dc.lft.to/lastmile_qr_scan"}}, {"type": "electric_scooter", "name": "032e13848a642e56c9e6e82b35d6a136", "lat": 38.931571, "fusion_lat": 0.0, "bike_id": "032e13848a642e56c9e6e82b35d6a136", "is_reserved": 0, "lon": -77.03611316666667, "is_disabled": 0, "fusion_lon": 0.0, "rental_uris": {"android": "https://dc.lft.to/lastmile_qr_scan", "ios": "https://dc.lft.to/lastmile_qr_scan"}}, {"type": "electric_scooter", "name": "e6066022bd680969b72ab012b5d135b6", "lat": 38.87923266666667, "fusion_lat": 0.0, "bike_id": "e6066022bd680969b72ab012b5d135b6", "is_reserved": 0, "lon": -77.01697633333333, "is_disabled": 0, "fusion_lon": 0.0, "rental_uris": {"android": "https://dc.lft.to/lastmile_qr_scan", "ios": "https://dc.lft.to/lastmile_qr_scan"}}, {"type": "electric_scooter", "name": "738778536b89e270fb86dee564e2ba07", "lat": 38.92419483333333, "fusion_lat": 0.0, "bike_id": "738778536b89e270fb86dee564e2ba07", "is_reserved": 0, "lon": -77.01943233333333, "is_disabled": 0, "fusion_lon": 0.0, "rental_uris": {"android": "https://dc.lft.to/lastmile_qr_scan", "ios": "https://dc.lft.to/lastmile_qr_scan"}}, {"type": "electric_scooter", "name": "532c17c3665ec31f6f3942fc99cc4c09", "lat": 38.851775, "fusion_lat": 0.0, "bike_id": "532c17c3665ec31f6f3942fc99cc4c09", "is_reserved": 0, "lon": -76.99581883333333, "is_disabled": 0, "fusion_lon": 0.0, "rental_uris": {"android": "https://dc.lft.to/lastmile_qr_scan", "ios": "https://dc.lft.to/lastmile_qr_scan"}}, {"type": "electric_scooter", "name": "d1ddba461953f1a64abc653226768d28", "lat": 38.895595666666665, "fusion_lat": 0.0, "bike_id": "d1ddba461953f1a64abc653226768d28", "is_reserved": 0, "lon": -77.0467705, "is_disabled": 0, "fusion_lon": 0.0, "rental_uris": {"android": "https://dc.lft.to/lastmile_qr_scan", "ios": "https://dc.lft.to/lastmile_qr_scan"}}, {"type": "electric_scooter", "name": "4da8e9230b5abb2c75ea6cdbe2222b01", "lat": 38.89222066666667, "fusion_lat": 0.0, "bike_id": "4da8e9230b5abb2c75ea6cdbe2222b01", "is_reserved": 0, "lon": -77.04687216666666, "is_disabled": 0, "fusion_lon": 0.0, "rental_uris": {"android": "https://dc.lft.to/lastmile_qr_scan", "ios": "https://dc.lft.to/lastmile_qr_scan"}}, {"type": "electric_scooter", "name": "141ab6ba7da0d327be5578f960874ba3", "lat": 38.90378333333334, "fusion_lat": 0.0, "bike_id": "141ab6ba7da0d327be5578f960874ba3", "is_reserved": 0, "lon": -77.03972783333333, "is_disabled": 0, "fusion_lon": 0.0, "rental_uris": {"android": "https://dc.lft.to/lastmile_qr_scan", "ios": "https://dc.lft.to/lastmile_qr_scan"}}, {"type": "electric_scooter", "name": "33eb05bed47796e35511460a3659ebe0", "lat": 38.897342333333334, "fusion_lat": 0.0, "bike_id": "33eb05bed47796e35511460a3659ebe0", "is_reserved": 0, "lon": -77.00369866666666, "is_disabled": 0, "fusion_lon": 0.0, "rental_uris": {"android": "https://dc.lft.to/lastmile_qr_scan", "ios": "https://dc.lft.to/lastmile_qr_scan"}}, {"type": "electric_scooter", "name": "5795c7bb561943236c9d4f9415de3cc8", "lat": 38.91771416666667, "fusion_lat": 0.0, "bike_id": "5795c7bb561943236c9d4f9415de3cc8", "is_reserved": 0, "lon": -77.014541, "is_disabled": 0, "fusion_lon": 0.0, "rental_uris": {"android": "https://dc.lft.to/lastmile_qr_scan", "ios": "https://dc.lft.to/lastmile_qr_scan"}}, {"type": "electric_scooter", "name": "4d2f49c74d01f3f2dc1893c93d8a61b2", "lat": 38.866254, "fusion_lat": 0.0, "bike_id": "4d2f49c74d01f3f2dc1893c93d8a61b2", "is_reserved": 0, "lon": -76.9872445, "is_disabled": 0, "fusion_lon": 0.0, "rental_uris": {"android": "https://dc.lft.to/lastmile_qr_scan", "ios": "https://dc.lft.to/lastmile_qr_scan"}}, {"type": "electric_scooter", "name": "03a527e1d4d2fd847b88b29b4d2558b7", "lat": 38.91645833333333, "fusion_lat": 0.0, "bike_id": "03a527e1d4d2fd847b88b29b4d2558b7", "is_reserved": 0, "lon": -77.03637716666667, "is_disabled": 0, "fusion_lon": 0.0, "rental_uris": {"android": "https://dc.lft.to/lastmile_qr_scan", "ios": "https://dc.lft.to/lastmile_qr_scan"}}, {"type": "electric_scooter", "name": "153a1fb869a15acdd8a98495fba5db48", "lat": 38.91109383333333, "fusion_lat": 0.0, "bike_id": "153a1fb869a15acdd8a98495fba5db48", "is_reserved": 0, "lon": -77.04394483333333, "is_disabled": 0, "fusion_lon": 0.0, "rental_uris": {"android": "https://dc.lft.to/lastmile_qr_scan", "ios": "https://dc.lft.to/lastmile_qr_scan"}}, {"type": "electric_scooter", "name": "fc14d42a2c6215d8c9cd0fa35e17c052", "lat": 38.93925266666667, "fusion_lat": 0.0, "bike_id": "fc14d42a2c6215d8c9cd0fa35e17c052", "is_reserved": 0, "lon": -77.036591, "is_disabled": 0, "fusion_lon": 0.0, "rental_uris": {"android": "https://dc.lft.to/lastmile_qr_scan", "ios": "https://dc.lft.to/lastmile_qr_scan"}}, {"type": "electric_scooter", "name": "da1cf1136d7743361c43035404389f20", "lat": 38.91710033333333, "fusion_lat": 0.0, "bike_id": "da1cf1136d7743361c43035404389f20", "is_reserved": 0, "lon": -77.03861366666666, "is_disabled": 0, "fusion_lon": 0.0, "rental_uris": {"android": "https://dc.lft.to/lastmile_qr_scan", "ios": "https://dc.lft.to/lastmile_qr_scan"}}, {"type": "electric_scooter", "name": "d4ae3695328c79eff380fa2ad38a3e5e", "lat": 38.91635383333333, "fusion_lat": 0.0, "bike_id": "d4ae3695328c79eff380fa2ad38a3e5e", "is_reserved": 0, "lon": -77.03202333333333, "is_disabled": 0, "fusion_lon": 0.0, "rental_uris": {"android": "https://dc.lft.to/lastmile_qr_scan", "ios": "https://dc.lft.to/lastmile_qr_scan"}}, {"type": "electric_bike", "name": "96ad12ec06d6aacff1d72e29dee3b478", "lat": 38.940529833333336, "fusion_lat": 0.0, "bike_id": "96ad12ec06d6aacff1d72e29dee3b478", "is_reserved": 0, "lon": -76.90417116666667, "is_disabled": 0, "fusion_lon": 0.0, "rental_uris": {"android": "https://dc.lft.to/lastmile_qr_scan", "ios": "https://dc.lft.to/lastmile_qr_scan"}}, {"type": "electric_scooter", "name": "5ea6d2d8c7b97da426076e7b47b79006", "lat": 38.89664883333333, "fusion_lat": 0.0, "bike_id": "5ea6d2d8c7b97da426076e7b47b79006", "is_reserved": 0, "lon": -77.0237215, "is_disabled": 0, "fusion_lon": 0.0, "rental_uris": {"android": "https://dc.lft.to/lastmile_qr_scan", "ios": "https://dc.lft.to/lastmile_qr_scan"}}, {"type": "electric_scooter", "name": "da71e85b35af77e6a6828b6ad2bc78ad", "lat": 38.892428, "fusion_lat": 0.0, "bike_id": "da71e85b35af77e6a6828b6ad2bc78ad", "is_reserved": 0, "lon": -77.03953116666666, "is_disabled": 0, "fusion_lon": 0.0, "rental_uris": {"android": "https://dc.lft.to/lastmile_qr_scan", "ios": "https://dc.lft.to/lastmile_qr_scan"}}, {"type": "electric_scooter", "name": "7a937860859e3681080c46b87ae377d8", "lat": 38.90139283333333, "fusion_lat": 0.0, "bike_id": "7a937860859e3681080c46b87ae377d8", "is_reserved": 0, "lon": -77.0347755, "is_disabled": 0, "fusion_lon": 0.0, "rental_uris": {"android": "https://dc.lft.to/lastmile_qr_scan", "ios": "https://dc.lft.to/lastmile_qr_scan"}}, {"type": "electric_scooter", "name": "cdc6037222314a68facfc9572cb3fc2d", "lat": 38.92230466666667, "fusion_lat": 0.0, "bike_id": "cdc6037222314a68facfc9572cb3fc2d", "is_reserved": 0, "lon": -77.0232915, "is_disabled": 0, "fusion_lon": 0.0, "rental_uris": {"android": "https://dc.lft.to/lastmile_qr_scan", "ios": "https://dc.lft.to/lastmile_qr_scan"}}, {"type": "electric_scooter", "name": "4643c44eebfcb3588e94611f56915caf", "lat": 38.879245833333336, "fusion_lat": 0.0, "bike_id": "4643c44eebfcb3588e94611f56915caf", "is_reserved": 0, "lon": -77.00538966666667, "is_disabled": 0, "fusion_lon": 0.0, "rental_uris": {"android": "https://dc.lft.to/lastmile_qr_scan", "ios": "https://dc.lft.to/lastmile_qr_scan"}}, {"type": "electric_scooter", "name": "bf0cf797a88c0e9e40c801f630dd04c4", "lat": 38.932849833333336, "fusion_lat": 0.0, "bike_id": "bf0cf797a88c0e9e40c801f630dd04c4", "is_reserved": 0, "lon": -77.0398515, "is_disabled": 0, "fusion_lon": 0.0, "rental_uris": {"android": "https://dc.lft.to/lastmile_qr_scan", "ios": "https://dc.lft.to/lastmile_qr_scan"}}, {"type": "electric_scooter", "name": "787e1e70b1e0bf8df44c07c8fd99151d", "lat": 38.9233605, "fusion_lat": 0.0, "bike_id": "787e1e70b1e0bf8df44c07c8fd99151d", "is_reserved": 0, "lon": -77.053446, "is_disabled": 0, "fusion_lon": 0.0, "rental_uris": {"android": "https://dc.lft.to/lastmile_qr_scan", "ios": "https://dc.lft.to/lastmile_qr_scan"}}, {"type": "electric_scooter", "name": "357c4c9bd50495850469474556b5735c", "lat": 38.9148335, "fusion_lat": 0.0, "bike_id": "357c4c9bd50495850469474556b5735c", "is_reserved": 0, "lon": -77.04174, "is_disabled": 0, "fusion_lon": 0.0, "rental_uris": {"android": "https://dc.lft.to/lastmile_qr_scan", "ios": "https://dc.lft.to/lastmile_qr_scan"}}, {"type": "electric_scooter", "name": "354ccc442cc1d090b80e3a1b3999fc64", "lat": 38.9032285, "fusion_lat": 0.0, "bike_id": "354ccc442cc1d090b80e3a1b3999fc64", "is_reserved": 0, "lon": -77.0382805, "is_disabled": 0, "fusion_lon": 0.0, "rental_uris": {"android": "https://dc.lft.to/lastmile_qr_scan", "ios": "https://dc.lft.to/lastmile_qr_scan"}}, {"type": "electric_scooter", "name": "7b9d20b6cc0722ff2c6627ae3f37646c", "lat": 38.896711, "fusion_lat": 0.0, "bike_id": "7b9d20b6cc0722ff2c6627ae3f37646c", "is_reserved": 0, "lon": -76.93203783333334, "is_disabled": 0, "fusion_lon": 0.0, "rental_uris": {"android": "https://dc.lft.to/lastmile_qr_scan", "ios": "https://dc.lft.to/lastmile_qr_scan"}}, {"type": "electric_scooter", "name": "1bdd70c51ac5f32221528e30318a4519", "lat": 38.91416133333333, "fusion_lat": 0.0, "bike_id": "1bdd70c51ac5f32221528e30318a4519", "is_reserved": 0, "lon": -77.02813583333334, "is_disabled": 0, "fusion_lon": 0.0, "rental_uris": {"android": "https://dc.lft.to/lastmile_qr_scan", "ios": "https://dc.lft.to/lastmile_qr_scan"}}, {"type": "electric_scooter", "name": "2eb1fe4e5988b26b116f1a2daca3dc59", "lat": 38.88738683333333, "fusion_lat": 0.0, "bike_id": "2eb1fe4e5988b26b116f1a2daca3dc59", "is_reserved": 0, "lon": -77.03169066666666, "is_disabled": 0, "fusion_lon": 0.0, "rental_uris": {"android": "https://dc.lft.to/lastmile_qr_scan", "ios": "https://dc.lft.to/lastmile_qr_scan"}}, {"type": "electric_scooter", "name": "e5ee6b6613100eed9c7b8ff59482d4a9", "lat": 38.89620766666667, "fusion_lat": 0.0, "bike_id": "e5ee6b6613100eed9c7b8ff59482d4a9", "is_reserved": 0, "lon": -77.04071966666666, "is_disabled": 0, "fusion_lon": 0.0, "rental_uris": {"android": "https://dc.lft.to/lastmile_qr_scan", "ios": "https://dc.lft.to/lastmile_qr_scan"}}, {"type": "electric_scooter", "name": "fa2b3b88afec55bcd52f577ed6b93bd4", "lat": 38.90006233333333, "fusion_lat": 0.0, "bike_id": "fa2b3b88afec55bcd52f577ed6b93bd4", "is_reserved": 0, "lon": -77.0394045, "is_disabled": 0, "fusion_lon": 0.0, "rental_uris": {"android": "https://dc.lft.to/lastmile_qr_scan", "ios": "https://dc.lft.to/lastmile_qr_scan"}}, {"type": "electric_scooter", "name": "2a5b6d1b3b4b22db2e53acf07dd6b907", "lat": 38.92603033333333, "fusion_lat": 0.0, "bike_id": "2a5b6d1b3b4b22db2e53acf07dd6b907", "is_reserved": 0, "lon": -77.02151516666666, "is_disabled": 0, "fusion_lon": 0.0, "rental_uris": {"android": "https://dc.lft.to/lastmile_qr_scan", "ios": "https://dc.lft.to/lastmile_qr_scan"}}, {"type": "electric_scooter", "name": "2f81412a0294e79054a5b55f6317c877", "lat": 38.900076166666665, "fusion_lat": 0.0, "bike_id": "2f81412a0294e79054a5b55f6317c877", "is_reserved": 0, "lon": -76.9883435, "is_disabled": 0, "fusion_lon": 0.0, "rental_uris": {"android": "https://dc.lft.to/lastmile_qr_scan", "ios": "https://dc.lft.to/lastmile_qr_scan"}}, {"type": "electric_scooter", "name": "13428649e6c4520151d47a578f4a2071", "lat": 38.922410166666666, "fusion_lat": 0.0, "bike_id": "13428649e6c4520151d47a578f4a2071", "is_reserved": 0, "lon": -77.03351616666667, "is_disabled": 0, "fusion_lon": 0.0, "rental_uris": {"android": "https://dc.lft.to/lastmile_qr_scan", "ios": "https://dc.lft.to/lastmile_qr_scan"}}, {"type": "electric_scooter", "name": "6ca9a3791223eda93e2d8a28cba22621", "lat": 38.899112333333335, "fusion_lat": 0.0, "bike_id": "6ca9a3791223eda93e2d8a28cba22621", "is_reserved": 0, "lon": -77.04478033333334, "is_disabled": 0, "fusion_lon": 0.0, "rental_uris": {"android": "https://dc.lft.to/lastmile_qr_scan", "ios": "https://dc.lft.to/lastmile_qr_scan"}}, {"type": "electric_scooter", "name": "6a4903f4c2d57c7818109971352438fd", "lat": 38.89888666666667, "fusion_lat": 0.0, "bike_id": "6a4903f4c2d57c7818109971352438fd", "is_reserved": 0, "lon": -77.007378, "is_disabled": 0, "fusion_lon": 0.0, "rental_uris": {"android": "https://dc.lft.to/lastmile_qr_scan", "ios": "https://dc.lft.to/lastmile_qr_scan"}}, {"type": "electric_scooter", "name": "c7481b7e902e973cf7fbb4deea886388", "lat": 38.899564, "fusion_lat": 0.0, "bike_id": "c7481b7e902e973cf7fbb4deea886388", "is_reserved": 0, "lon": -77.04581466666667, "is_disabled": 0, "fusion_lon": 0.0, "rental_uris": {"android": "https://dc.lft.to/lastmile_qr_scan", "ios": "https://dc.lft.to/lastmile_qr_scan"}}, {"type": "electric_scooter", "name": "cb0b76066ed3e875412c94b7a4a83bcd", "lat": 38.8758395, "fusion_lat": 0.0, "bike_id": "cb0b76066ed3e875412c94b7a4a83bcd", "is_reserved": 0, "lon": -77.00596316666666, "is_disabled": 0, "fusion_lon": 0.0, "rental_uris": {"android": "https://dc.lft.to/lastmile_qr_scan", "ios": "https://dc.lft.to/lastmile_qr_scan"}}, {"type": "electric_scooter", "name": "959b3f5119bcde6bc454f43e3c67604b", "lat": 38.89631583333333, "fusion_lat": 0.0, "bike_id": "959b3f5119bcde6bc454f43e3c67604b", "is_reserved": 0, "lon": -77.02673616666667, "is_disabled": 0, "fusion_lon": 0.0, "rental_uris": {"android": "https://dc.lft.to/lastmile_qr_scan", "ios": "https://dc.lft.to/lastmile_qr_scan"}}, {"type": "electric_scooter", "name": "d713d9a69d52b0ca7511a953e4354d36", "lat": 38.918256, "fusion_lat": 0.0, "bike_id": "d713d9a69d52b0ca7511a953e4354d36", "is_reserved": 0, "lon": -77.02696883333333, "is_disabled": 0, "fusion_lon": 0.0, "rental_uris": {"android": "https://dc.lft.to/lastmile_qr_scan", "ios": "https://dc.lft.to/lastmile_qr_scan"}}, {"type": "electric_scooter", "name": "6894ab5c56e9438dcad32931e7bf9171", "lat": 38.89801116666667, "fusion_lat": 0.0, "bike_id": "6894ab5c56e9438dcad32931e7bf9171", "is_reserved": 0, "lon": -77.04195116666666, "is_disabled": 0, "fusion_lon": 0.0, "rental_uris": {"android": "https://dc.lft.to/lastmile_qr_scan", "ios": "https://dc.lft.to/lastmile_qr_scan"}}, {"type": "electric_scooter", "name": "695f32cad0c797c14a053b4f2f6b5584", "lat": 38.89938016666667, "fusion_lat": 0.0, "bike_id": "695f32cad0c797c14a053b4f2f6b5584", "is_reserved": 0, "lon": -77.0318485, "is_disabled": 0, "fusion_lon": 0.0, "rental_uris": {"android": "https://dc.lft.to/lastmile_qr_scan", "ios": "https://dc.lft.to/lastmile_qr_scan"}}, {"type": "electric_scooter", "name": "b6ac3b69d11e04fff6bc64d0680e2c61", "lat": 38.917347166666666, "fusion_lat": 0.0, "bike_id": "b6ac3b69d11e04fff6bc64d0680e2c61", "is_reserved": 0, "lon": -77.04170666666667, "is_disabled": 0, "fusion_lon": 0.0, "rental_uris": {"android": "https://dc.lft.to/lastmile_qr_scan", "ios": "https://dc.lft.to/lastmile_qr_scan"}}, {"type": "electric_scooter", "name": "962af16a6b5128fdc9a4e4dc91e8f133", "lat": 38.911158, "fusion_lat": 0.0, "bike_id": "962af16a6b5128fdc9a4e4dc91e8f133", "is_reserved": 0, "lon": -77.045041, "is_disabled": 0, "fusion_lon": 0.0, "rental_uris": {"android": "https://dc.lft.to/lastmile_qr_scan", "ios": "https://dc.lft.to/lastmile_qr_scan"}}, {"type": "electric_scooter", "name": "5aaec5f65c007af5a53464d560dcf875", "lat": 38.93881983333333, "fusion_lat": 0.0, "bike_id": "5aaec5f65c007af5a53464d560dcf875", "is_reserved": 0, "lon": -77.03260533333334, "is_disabled": 0, "fusion_lon": 0.0, "rental_uris": {"android": "https://dc.lft.to/lastmile_qr_scan", "ios": "https://dc.lft.to/lastmile_qr_scan"}}, {"type": "electric_scooter", "name": "6446ead7754dc72c7eec7f9b2487e721", "lat": 38.91867583333333, "fusion_lat": 0.0, "bike_id": "6446ead7754dc72c7eec7f9b2487e721", "is_reserved": 0, "lon": -77.0365825, "is_disabled": 0, "fusion_lon": 0.0, "rental_uris": {"android": "https://dc.lft.to/lastmile_qr_scan", "ios": "https://dc.lft.to/lastmile_qr_scan"}}, {"type": "electric_scooter", "name": "4b567a5f1c897a9a2403d2e1f0259c30", "lat": 38.9172925, "fusion_lat": 0.0, "bike_id": "4b567a5f1c897a9a2403d2e1f0259c30", "is_reserved": 0, "lon": -77.0683495, "is_disabled": 0, "fusion_lon": 0.0, "rental_uris": {"android": "https://dc.lft.to/lastmile_qr_scan", "ios": "https://dc.lft.to/lastmile_qr_scan"}}, {"type": "electric_scooter", "name": "1d8fffa9cf431179a104bad101c24c7b", "lat": 38.901281, "fusion_lat": 0.0, "bike_id": "1d8fffa9cf431179a104bad101c24c7b", "is_reserved": 0, "lon": -77.043599, "is_disabled": 0, "fusion_lon": 0.0, "rental_uris": {"android": "https://dc.lft.to/lastmile_qr_scan", "ios": "https://dc.lft.to/lastmile_qr_scan"}}, {"type": "electric_scooter", "name": "69531185a96ad4eda98d8bba2b9d2b88", "lat": 38.90572, "fusion_lat": 0.0, "bike_id": "69531185a96ad4eda98d8bba2b9d2b88", "is_reserved": 0, "lon": -77.04346766666667, "is_disabled": 0, "fusion_lon": 0.0, "rental_uris": {"android": "https://dc.lft.to/lastmile_qr_scan", "ios": "https://dc.lft.to/lastmile_qr_scan"}}, {"type": "electric_bike", "name": "ff7c99a7f6d9c91ea4e6fdcb9e42ceed", "lat": 38.88650283333333, "fusion_lat": 0.0, "bike_id": "ff7c99a7f6d9c91ea4e6fdcb9e42ceed", "is_reserved": 0, "lon": -77.0283435, "is_disabled": 0, "fusion_lon": 0.0, "rental_uris": {"android": "https://dc.lft.to/lastmile_qr_scan", "ios": "https://dc.lft.to/lastmile_qr_scan"}}, {"type": "electric_scooter", "name": "e1ff21a4a995b94fbf3a45fe00f7fb3a", "lat": 38.883414333333334, "fusion_lat": 0.0, "bike_id": "e1ff21a4a995b94fbf3a45fe00f7fb3a", "is_reserved": 0, "lon": -77.02821533333334, "is_disabled": 0, "fusion_lon": 0.0, "rental_uris": {"android": "https://dc.lft.to/lastmile_qr_scan", "ios": "https://dc.lft.to/lastmile_qr_scan"}}, {"type": "electric_scooter", "name": "2e16c3099290c83cf1ecfa2ded7fdbc8", "lat": 38.900259166666665, "fusion_lat": 0.0, "bike_id": "2e16c3099290c83cf1ecfa2ded7fdbc8", "is_reserved": 0, "lon": -77.041596, "is_disabled": 0, "fusion_lon": 0.0, "rental_uris": {"android": "https://dc.lft.to/lastmile_qr_scan", "ios": "https://dc.lft.to/lastmile_qr_scan"}}, {"type": "electric_scooter", "name": "3a889c2ec0877d43aff1239345afc306", "lat": 38.91704933333333, "fusion_lat": 0.0, "bike_id": "3a889c2ec0877d43aff1239345afc306", "is_reserved": 0, "lon": -77.0283725, "is_disabled": 0, "fusion_lon": 0.0, "rental_uris": {"android": "https://dc.lft.to/lastmile_qr_scan", "ios": "https://dc.lft.to/lastmile_qr_scan"}}, {"type": "electric_scooter", "name": "a4981d31eac5a3ad7c0585af6ce4046d", "lat": 38.89226716666667, "fusion_lat": 0.0, "bike_id": "a4981d31eac5a3ad7c0585af6ce4046d", "is_reserved": 0, "lon": -77.04328816666667, "is_disabled": 0, "fusion_lon": 0.0, "rental_uris": {"android": "https://dc.lft.to/lastmile_qr_scan", "ios": "https://dc.lft.to/lastmile_qr_scan"}}, {"type": "electric_scooter", "name": "ae51f1f219cec6ca0e15a4a8d741e35a", "lat": 38.901653, "fusion_lat": 0.0, "bike_id": "ae51f1f219cec6ca0e15a4a8d741e35a", "is_reserved": 0, "lon": -76.930723, "is_disabled": 0, "fusion_lon": 0.0, "rental_uris": {"android": "https://dc.lft.to/lastmile_qr_scan", "ios": "https://dc.lft.to/lastmile_qr_scan"}}, {"type": "electric_scooter", "name": "2b947ac88393a648381519c3782a9929", "lat": 38.920399, "fusion_lat": 0.0, "bike_id": "2b947ac88393a648381519c3782a9929", "is_reserved": 0, "lon": -77.01661466666667, "is_disabled": 0, "fusion_lon": 0.0, "rental_uris": {"android": "https://dc.lft.to/lastmile_qr_scan", "ios": "https://dc.lft.to/lastmile_qr_scan"}}, {"type": "electric_scooter", "name": "45001c3393dade62f3e4a02728cb7430", "lat": 38.86627416666666, "fusion_lat": 0.0, "bike_id": "45001c3393dade62f3e4a02728cb7430", "is_reserved": 0, "lon": -76.98712916666666, "is_disabled": 0, "fusion_lon": 0.0, "rental_uris": {"android": "https://dc.lft.to/lastmile_qr_scan", "ios": "https://dc.lft.to/lastmile_qr_scan"}}, {"type": "electric_scooter", "name": "77ac368ceb0cdd0b2809b9b745d94cc6", "lat": 38.878891833333334, "fusion_lat": 0.0, "bike_id": "77ac368ceb0cdd0b2809b9b745d94cc6", "is_reserved": 0, "lon": -77.02322866666667, "is_disabled": 0, "fusion_lon": 0.0, "rental_uris": {"android": "https://dc.lft.to/lastmile_qr_scan", "ios": "https://dc.lft.to/lastmile_qr_scan"}}, {"type": "electric_scooter", "name": "1b67a9e364507702398ad8205c06beae", "lat": 38.9307515, "fusion_lat": 0.0, "bike_id": "1b67a9e364507702398ad8205c06beae", "is_reserved": 0, "lon": -77.03483183333333, "is_disabled": 0, "fusion_lon": 0.0, "rental_uris": {"android": "https://dc.lft.to/lastmile_qr_scan", "ios": "https://dc.lft.to/lastmile_qr_scan"}}, {"type": "electric_scooter", "name": "ef82223bb75f27f8759196650c825195", "lat": 38.917896166666665, "fusion_lat": 0.0, "bike_id": "ef82223bb75f27f8759196650c825195", "is_reserved": 0, "lon": -77.02307366666666, "is_disabled": 0, "fusion_lon": 0.0, "rental_uris": {"android": "https://dc.lft.to/lastmile_qr_scan", "ios": "https://dc.lft.to/lastmile_qr_scan"}}, {"type": "electric_scooter", "name": "7d451df46be6e3845f42a5ab8d5a8dda", "lat": 38.91265583333333, "fusion_lat": 0.0, "bike_id": "7d451df46be6e3845f42a5ab8d5a8dda", "is_reserved": 0, "lon": -77.04229483333333, "is_disabled": 0, "fusion_lon": 0.0, "rental_uris": {"android": "https://dc.lft.to/lastmile_qr_scan", "ios": "https://dc.lft.to/lastmile_qr_scan"}}, {"type": "electric_scooter", "name": "e42de7c776d4ea002829a026f3e308f2", "lat": 38.924684, "fusion_lat": 0.0, "bike_id": "e42de7c776d4ea002829a026f3e308f2", "is_reserved": 0, "lon": -77.02150116666667, "is_disabled": 0, "fusion_lon": 0.0, "rental_uris": {"android": "https://dc.lft.to/lastmile_qr_scan", "ios": "https://dc.lft.to/lastmile_qr_scan"}}, {"type": "electric_scooter", "name": "d73a237c3cddea60a4a24c5eaf62305c", "lat": 38.90307466666667, "fusion_lat": 0.0, "bike_id": "d73a237c3cddea60a4a24c5eaf62305c", "is_reserved": 0, "lon": -77.060255, "is_disabled": 0, "fusion_lon": 0.0, "rental_uris": {"android": "https://dc.lft.to/lastmile_qr_scan", "ios": "https://dc.lft.to/lastmile_qr_scan"}}, {"type": "electric_bike", "name": "339a80eac191ced42563157a4d7132e8", "lat": 38.8332705, "fusion_lat": 0.0, "bike_id": "339a80eac191ced42563157a4d7132e8", "is_reserved": 0, "lon": -76.99999116666666, "is_disabled": 0, "fusion_lon": 0.0, "rental_uris": {"android": "https://dc.lft.to/lastmile_qr_scan", "ios": "https://dc.lft.to/lastmile_qr_scan"}}, {"type": "electric_scooter", "name": "94c408888cb972640bc0f8ba1761c1f3", "lat": 38.86943133333333, "fusion_lat": 0.0, "bike_id": "94c408888cb972640bc0f8ba1761c1f3", "is_reserved": 0, "lon": -76.97854283333334, "is_disabled": 0, "fusion_lon": 0.0, "rental_uris": {"android": "https://dc.lft.to/lastmile_qr_scan", "ios": "https://dc.lft.to/lastmile_qr_scan"}}, {"type": "electric_scooter", "name": "29b5189565d836d63aad45ca08305218", "lat": 38.902539833333336, "fusion_lat": 0.0, "bike_id": "29b5189565d836d63aad45ca08305218", "is_reserved": 0, "lon": -77.00826566666667, "is_disabled": 0, "fusion_lon": 0.0, "rental_uris": {"android": "https://dc.lft.to/lastmile_qr_scan", "ios": "https://dc.lft.to/lastmile_qr_scan"}}, {"type": "electric_bike", "name": "f2df0c2cf5560e91fef8f8564b6d5a4d", "lat": 38.89063933333333, "fusion_lat": 0.0, "bike_id": "f2df0c2cf5560e91fef8f8564b6d5a4d", "is_reserved": 0, "lon": -77.18434083333334, "is_disabled": 0, "fusion_lon": 0.0, "rental_uris": {"android": "https://dc.lft.to/lastmile_qr_scan", "ios": "https://dc.lft.to/lastmile_qr_scan"}}, {"type": "electric_scooter", "name": "aae2617f0c484decf70dc75da70f5a0b", "lat": 38.89468183333334, "fusion_lat": 0.0, "bike_id": "aae2617f0c484decf70dc75da70f5a0b", "is_reserved": 0, "lon": -76.94963433333334, "is_disabled": 0, "fusion_lon": 0.0, "rental_uris": {"android": "https://dc.lft.to/lastmile_qr_scan", "ios": "https://dc.lft.to/lastmile_qr_scan"}}, {"type": "electric_scooter", "name": "aae0ef73bf83b1cf34717eae2bcf9db0", "lat": 38.93431433333333, "fusion_lat": 0.0, "bike_id": "aae0ef73bf83b1cf34717eae2bcf9db0", "is_reserved": 0, "lon": -77.03999966666667, "is_disabled": 0, "fusion_lon": 0.0, "rental_uris": {"android": "https://dc.lft.to/lastmile_qr_scan", "ios": "https://dc.lft.to/lastmile_qr_scan"}}, {"type": "electric_scooter", "name": "e6141bada8862a2f59e9d74283d0d29d", "lat": 38.90682283333334, "fusion_lat": 0.0, "bike_id": "e6141bada8862a2f59e9d74283d0d29d", "is_reserved": 0, "lon": -77.02696383333334, "is_disabled": 0, "fusion_lon": 0.0, "rental_uris": {"android": "https://dc.lft.to/lastmile_qr_scan", "ios": "https://dc.lft.to/lastmile_qr_scan"}}, {"type": "electric_bike", "name": "64c63522e85c815c75bcc094a7e9cbdc", "lat": 38.81993816666667, "fusion_lat": 0.0, "bike_id": "64c63522e85c815c75bcc094a7e9cbdc", "is_reserved": 0, "lon": -76.99801316666667, "is_disabled": 0, "fusion_lon": 0.0, "rental_uris": {"android": "https://dc.lft.to/lastmile_qr_scan", "ios": "https://dc.lft.to/lastmile_qr_scan"}}, {"type": "electric_scooter", "name": "3e62761a32e46d09326de87113a9501a", "lat": 38.88498583333333, "fusion_lat": 0.0, "bike_id": "3e62761a32e46d09326de87113a9501a", "is_reserved": 0, "lon": -77.02176316666667, "is_disabled": 0, "fusion_lon": 0.0, "rental_uris": {"android": "https://dc.lft.to/lastmile_qr_scan", "ios": "https://dc.lft.to/lastmile_qr_scan"}}, {"type": "electric_scooter", "name": "58d1c6a182d157a8554a4eec3fcdbcf6", "lat": 38.8669025, "fusion_lat": 0.0, "bike_id": "58d1c6a182d157a8554a4eec3fcdbcf6", "is_reserved": 0, "lon": -76.98542316666666, "is_disabled": 0, "fusion_lon": 0.0, "rental_uris": {"android": "https://dc.lft.to/lastmile_qr_scan", "ios": "https://dc.lft.to/lastmile_qr_scan"}}, {"type": "electric_bike", "name": "3860544c7da1164eb10f03dec9ff0cfc", "lat": 38.80659, "fusion_lat": 0.0, "bike_id": "3860544c7da1164eb10f03dec9ff0cfc", "is_reserved": 0, "lon": -77.08758916666666, "is_disabled": 0, "fusion_lon": 0.0, "rental_uris": {"android": "https://dc.lft.to/lastmile_qr_scan", "ios": "https://dc.lft.to/lastmile_qr_scan"}}, {"type": "electric_scooter", "name": "14c17d33224c0c4b01e68795dfda192e", "lat": 38.935161, "fusion_lat": 0.0, "bike_id": "14c17d33224c0c4b01e68795dfda192e", "is_reserved": 0, "lon": -77.0334645, "is_disabled": 0, "fusion_lon": 0.0, "rental_uris": {"android": "https://dc.lft.to/lastmile_qr_scan", "ios": "https://dc.lft.to/lastmile_qr_scan"}}, {"type": "electric_scooter", "name": "c50e0b36ad649bafa838eddf5b295c0d", "lat": 38.92928, "fusion_lat": 0.0, "bike_id": "c50e0b36ad649bafa838eddf5b295c0d", "is_reserved": 0, "lon": -77.032628, "is_disabled": 0, "fusion_lon": 0.0, "rental_uris": {"android": "https://dc.lft.to/lastmile_qr_scan", "ios": "https://dc.lft.to/lastmile_qr_scan"}}, {"type": "electric_scooter", "name": "d77aeda2836145fd45113b5ee9c466aa", "lat": 38.902301666666666, "fusion_lat": 0.0, "bike_id": "d77aeda2836145fd45113b5ee9c466aa", "is_reserved": 0, "lon": -77.04333666666666, "is_disabled": 0, "fusion_lon": 0.0, "rental_uris": {"android": "https://dc.lft.to/lastmile_qr_scan", "ios": "https://dc.lft.to/lastmile_qr_scan"}}, {"type": "electric_scooter", "name": "a9b97b5e194b528d90c09230485bbfa1", "lat": 38.89724916666667, "fusion_lat": 0.0, "bike_id": "a9b97b5e194b528d90c09230485bbfa1", "is_reserved": 0, "lon": -77.02704066666666, "is_disabled": 0, "fusion_lon": 0.0, "rental_uris": {"android": "https://dc.lft.to/lastmile_qr_scan", "ios": "https://dc.lft.to/lastmile_qr_scan"}}, {"type": "electric_scooter", "name": "1100f65e05712d341ed460e3aa2eb690", "lat": 38.92041366666667, "fusion_lat": 0.0, "bike_id": "1100f65e05712d341ed460e3aa2eb690", "is_reserved": 0, "lon": -77.016787, "is_disabled": 0, "fusion_lon": 0.0, "rental_uris": {"android": "https://dc.lft.to/lastmile_qr_scan", "ios": "https://dc.lft.to/lastmile_qr_scan"}}, {"type": "electric_bike", "name": "3dcfff364b378a16bd791375b81e0d8c", "lat": 38.9721945, "fusion_lat": 0.0, "bike_id": "3dcfff364b378a16bd791375b81e0d8c", "is_reserved": 0, "lon": -77.01429566666667, "is_disabled": 0, "fusion_lon": 0.0, "rental_uris": {"android": "https://dc.lft.to/lastmile_qr_scan", "ios": "https://dc.lft.to/lastmile_qr_scan"}}, {"type": "electric_bike", "name": "d34405236c248ea1af6dfe9aa83c7f2f", "lat": 38.794706, "fusion_lat": 0.0, "bike_id": "d34405236c248ea1af6dfe9aa83c7f2f", "is_reserved": 0, "lon": -76.99247133333333, "is_disabled": 0, "fusion_lon": 0.0, "rental_uris": {"android": "https://dc.lft.to/lastmile_qr_scan", "ios": "https://dc.lft.to/lastmile_qr_scan"}}, {"type": "electric_scooter", "name": "ca8ea8f2f09c70c5dc05f59ee509c7eb", "lat": 38.900459, "fusion_lat": 0.0, "bike_id": "ca8ea8f2f09c70c5dc05f59ee509c7eb", "is_reserved": 0, "lon": -77.00190016666667, "is_disabled": 0, "fusion_lon": 0.0, "rental_uris": {"android": "https://dc.lft.to/lastmile_qr_scan", "ios": "https://dc.lft.to/lastmile_qr_scan"}}, {"type": "electric_scooter", "name": "35b7718bdc84ea8033c5bc0c16d6f00f", "lat": 38.9438265, "fusion_lat": 0.0, "bike_id": "35b7718bdc84ea8033c5bc0c16d6f00f", "is_reserved": 0, "lon": -77.07698383333333, "is_disabled": 0, "fusion_lon": 0.0, "rental_uris": {"android": "https://dc.lft.to/lastmile_qr_scan", "ios": "https://dc.lft.to/lastmile_qr_scan"}}, {"type": "electric_scooter", "name": "458d6dcb1efa5e6363773a861e4cc3f9", "lat": 38.90032866666667, "fusion_lat": 0.0, "bike_id": "458d6dcb1efa5e6363773a861e4cc3f9", "is_reserved": 0, "lon": -77.05820716666666, "is_disabled": 0, "fusion_lon": 0.0, "rental_uris": {"android": "https://dc.lft.to/lastmile_qr_scan", "ios": "https://dc.lft.to/lastmile_qr_scan"}}, {"type": "electric_scooter", "name": "2800e0246af0b14c4bc15fef4452735e", "lat": 38.898343, "fusion_lat": 0.0, "bike_id": "2800e0246af0b14c4bc15fef4452735e", "is_reserved": 0, "lon": -77.0469505, "is_disabled": 0, "fusion_lon": 0.0, "rental_uris": {"android": "https://dc.lft.to/lastmile_qr_scan", "ios": "https://dc.lft.to/lastmile_qr_scan"}}, {"type": "electric_scooter", "name": "73f38980f717aa0e65eb04ac55a3c7f4", "lat": 38.8986835, "fusion_lat": 0.0, "bike_id": "73f38980f717aa0e65eb04ac55a3c7f4", "is_reserved": 0, "lon": -76.94634616666667, "is_disabled": 0, "fusion_lon": 0.0, "rental_uris": {"android": "https://dc.lft.to/lastmile_qr_scan", "ios": "https://dc.lft.to/lastmile_qr_scan"}}, {"type": "electric_scooter", "name": "67a289c1e7fb6086b9fbe7aa52369887", "lat": 38.8960725, "fusion_lat": 0.0, "bike_id": "67a289c1e7fb6086b9fbe7aa52369887", "is_reserved": 0, "lon": -77.02687166666666, "is_disabled": 0, "fusion_lon": 0.0, "rental_uris": {"android": "https://dc.lft.to/lastmile_qr_scan", "ios": "https://dc.lft.to/lastmile_qr_scan"}}, {"type": "electric_scooter", "name": "b4deeaeb8ac59fdc0de7eab3694f27a5", "lat": 38.892238166666665, "fusion_lat": 0.0, "bike_id": "b4deeaeb8ac59fdc0de7eab3694f27a5", "is_reserved": 0, "lon": -77.04372716666667, "is_disabled": 0, "fusion_lon": 0.0, "rental_uris": {"android": "https://dc.lft.to/lastmile_qr_scan", "ios": "https://dc.lft.to/lastmile_qr_scan"}}, {"type": "electric_scooter", "name": "117618bf1815920afd5b76d81c5f4873", "lat": 38.91121566666666, "fusion_lat": 0.0, "bike_id": "117618bf1815920afd5b76d81c5f4873", "is_reserved": 0, "lon": -77.038272, "is_disabled": 0, "fusion_lon": 0.0, "rental_uris": {"android": "https://dc.lft.to/lastmile_qr_scan", "ios": "https://dc.lft.to/lastmile_qr_scan"}}, {"type": "electric_scooter", "name": "bb5a1a65b79c964e0d4fc36050758f26", "lat": 38.92518666666667, "fusion_lat": 0.0, "bike_id": "bb5a1a65b79c964e0d4fc36050758f26", "is_reserved": 0, "lon": -77.05122733333333, "is_disabled": 0, "fusion_lon": 0.0, "rental_uris": {"android": "https://dc.lft.to/lastmile_qr_scan", "ios": "https://dc.lft.to/lastmile_qr_scan"}}, {"type": "electric_scooter", "name": "216caf64cea1cb82470ebd99ddec6ed3", "lat": 38.92316433333333, "fusion_lat": 0.0, "bike_id": "216caf64cea1cb82470ebd99ddec6ed3", "is_reserved": 0, "lon": -77.0212475, "is_disabled": 0, "fusion_lon": 0.0, "rental_uris": {"android": "https://dc.lft.to/lastmile_qr_scan", "ios": "https://dc.lft.to/lastmile_qr_scan"}}, {"type": "electric_scooter", "name": "d1fe34512b505b3cc74f682dc59f77bb", "lat": 38.892297, "fusion_lat": 0.0, "bike_id": "d1fe34512b505b3cc74f682dc59f77bb", "is_reserved": 0, "lon": -77.02205166666667, "is_disabled": 0, "fusion_lon": 0.0, "rental_uris": {"android": "https://dc.lft.to/lastmile_qr_scan", "ios": "https://dc.lft.to/lastmile_qr_scan"}}, {"type": "electric_scooter", "name": "65407ea3bddd450fa300348d4d6175db", "lat": 38.93267566666667, "fusion_lat": 0.0, "bike_id": "65407ea3bddd450fa300348d4d6175db", "is_reserved": 0, "lon": -77.03873183333333, "is_disabled": 0, "fusion_lon": 0.0, "rental_uris": {"android": "https://dc.lft.to/lastmile_qr_scan", "ios": "https://dc.lft.to/lastmile_qr_scan"}}, {"type": "electric_scooter", "name": "f634d51a45eac1224adcc6e7a54637cf", "lat": 38.90153883333333, "fusion_lat": 0.0, "bike_id": "f634d51a45eac1224adcc6e7a54637cf", "is_reserved": 0, "lon": -77.03567633333333, "is_disabled": 0, "fusion_lon": 0.0, "rental_uris": {"android": "https://dc.lft.to/lastmile_qr_scan", "ios": "https://dc.lft.to/lastmile_qr_scan"}}, {"type": "electric_scooter", "name": "ad80a3d2cd9ecc3c0fe5c67ca734366e", "lat": 38.909980833333336, "fusion_lat": 0.0, "bike_id": "ad80a3d2cd9ecc3c0fe5c67ca734366e", "is_reserved": 0, "lon": -77.0269575, "is_disabled": 0, "fusion_lon": 0.0, "rental_uris": {"android": "https://dc.lft.to/lastmile_qr_scan", "ios": "https://dc.lft.to/lastmile_qr_scan"}}, {"type": "electric_scooter", "name": "8a28203e1d94398675f06f46c94a0996", "lat": 38.89729616666666, "fusion_lat": 0.0, "bike_id": "8a28203e1d94398675f06f46c94a0996", "is_reserved": 0, "lon": -77.04739616666667, "is_disabled": 0, "fusion_lon": 0.0, "rental_uris": {"android": "https://dc.lft.to/lastmile_qr_scan", "ios": "https://dc.lft.to/lastmile_qr_scan"}}, {"type": "electric_scooter", "name": "05c268d5b0ac9c896d631e366a926b99", "lat": 38.909070666666665, "fusion_lat": 0.0, "bike_id": "05c268d5b0ac9c896d631e366a926b99", "is_reserved": 0, "lon": -77.072676, "is_disabled": 0, "fusion_lon": 0.0, "rental_uris": {"android": "https://dc.lft.to/lastmile_qr_scan", "ios": "https://dc.lft.to/lastmile_qr_scan"}}, {"type": "electric_scooter", "name": "a9e210d51543198c1ec1724808e24d0a", "lat": 38.941897166666664, "fusion_lat": 0.0, "bike_id": "a9e210d51543198c1ec1724808e24d0a", "is_reserved": 0, "lon": -77.02405566666667, "is_disabled": 0, "fusion_lon": 0.0, "rental_uris": {"android": "https://dc.lft.to/lastmile_qr_scan", "ios": "https://dc.lft.to/lastmile_qr_scan"}}, {"type": "electric_bike", "name": "1cf153048377eb3513de017ee0f70151", "lat": 38.9086865, "fusion_lat": 0.0, "bike_id": "1cf153048377eb3513de017ee0f70151", "is_reserved": 0, "lon": -76.99970483333334, "is_disabled": 0, "fusion_lon": 0.0, "rental_uris": {"android": "https://dc.lft.to/lastmile_qr_scan", "ios": "https://dc.lft.to/lastmile_qr_scan"}}, {"type": "electric_scooter", "name": "107c16e3311569666597be046a99446f", "lat": 38.9016495, "fusion_lat": 0.0, "bike_id": "107c16e3311569666597be046a99446f", "is_reserved": 0, "lon": -77.0220485, "is_disabled": 0, "fusion_lon": 0.0, "rental_uris": {"android": "https://dc.lft.to/lastmile_qr_scan", "ios": "https://dc.lft.to/lastmile_qr_scan"}}, {"type": "electric_scooter", "name": "0308a0ea72a2204b7aceb13a8717a55b", "lat": 38.909759333333334, "fusion_lat": 0.0, "bike_id": "0308a0ea72a2204b7aceb13a8717a55b", "is_reserved": 0, "lon": -77.02194416666667, "is_disabled": 0, "fusion_lon": 0.0, "rental_uris": {"android": "https://dc.lft.to/lastmile_qr_scan", "ios": "https://dc.lft.to/lastmile_qr_scan"}}, {"type": "electric_scooter", "name": "857bfb293010d7eb8f8661ac2799bc1a", "lat": 38.94784, "fusion_lat": 0.0, "bike_id": "857bfb293010d7eb8f8661ac2799bc1a", "is_reserved": 0, "lon": -77.08018966666667, "is_disabled": 0, "fusion_lon": 0.0, "rental_uris": {"android": "https://dc.lft.to/lastmile_qr_scan", "ios": "https://dc.lft.to/lastmile_qr_scan"}}, {"type": "electric_scooter", "name": "860f897d27e9a742b1b80c438afc072e", "lat": 38.903735166666664, "fusion_lat": 0.0, "bike_id": "860f897d27e9a742b1b80c438afc072e", "is_reserved": 0, "lon": -77.03715083333333, "is_disabled": 0, "fusion_lon": 0.0, "rental_uris": {"android": "https://dc.lft.to/lastmile_qr_scan", "ios": "https://dc.lft.to/lastmile_qr_scan"}}, {"type": "electric_scooter", "name": "902ff5d0057a8a3aecff8ccdef269a16", "lat": 38.8923465, "fusion_lat": 0.0, "bike_id": "902ff5d0057a8a3aecff8ccdef269a16", "is_reserved": 0, "lon": -77.021795, "is_disabled": 0, "fusion_lon": 0.0, "rental_uris": {"android": "https://dc.lft.to/lastmile_qr_scan", "ios": "https://dc.lft.to/lastmile_qr_scan"}}, {"type": "electric_scooter", "name": "4deef0baeaa5e4358c57f920a2e3ef60", "lat": 38.90158066666667, "fusion_lat": 0.0, "bike_id": "4deef0baeaa5e4358c57f920a2e3ef60", "is_reserved": 0, "lon": -77.0356275, "is_disabled": 0, "fusion_lon": 0.0, "rental_uris": {"android": "https://dc.lft.to/lastmile_qr_scan", "ios": "https://dc.lft.to/lastmile_qr_scan"}}, {"type": "electric_scooter", "name": "8ec89d20d510dc9c9616f3c6a0c20bf7", "lat": 38.8668345, "fusion_lat": 0.0, "bike_id": "8ec89d20d510dc9c9616f3c6a0c20bf7", "is_reserved": 0, "lon": -76.985686, "is_disabled": 0, "fusion_lon": 0.0, "rental_uris": {"android": "https://dc.lft.to/lastmile_qr_scan", "ios": "https://dc.lft.to/lastmile_qr_scan"}}, {"type": "electric_scooter", "name": "cc19fc298f441b2809bcbac89b05644f", "lat": 38.897491333333335, "fusion_lat": 0.0, "bike_id": "cc19fc298f441b2809bcbac89b05644f", "is_reserved": 0, "lon": -76.97970533333333, "is_disabled": 0, "fusion_lon": 0.0, "rental_uris": {"android": "https://dc.lft.to/lastmile_qr_scan", "ios": "https://dc.lft.to/lastmile_qr_scan"}}, {"type": "electric_scooter", "name": "c4180b8846af4e570a71db249515bcd0", "lat": 38.89754416666667, "fusion_lat": 0.0, "bike_id": "c4180b8846af4e570a71db249515bcd0", "is_reserved": 0, "lon": -77.05162066666666, "is_disabled": 0, "fusion_lon": 0.0, "rental_uris": {"android": "https://dc.lft.to/lastmile_qr_scan", "ios": "https://dc.lft.to/lastmile_qr_scan"}}, {"type": "electric_scooter", "name": "bfedfb1e14d516d6d6db2b061870856a", "lat": 38.91061333333333, "fusion_lat": 0.0, "bike_id": "bfedfb1e14d516d6d6db2b061870856a", "is_reserved": 0, "lon": -77.042366, "is_disabled": 0, "fusion_lon": 0.0, "rental_uris": {"android": "https://dc.lft.to/lastmile_qr_scan", "ios": "https://dc.lft.to/lastmile_qr_scan"}},