{"data": {"bikes": [{"name": "6ce4d4a363d3dbcb024d8b1abb7055c8", "type": "electric_scooter", "lat": 38.9045225, "is_reserved": 0, "lon": -77.01808616666666, "fusion_lon": 0.0, "is_disabled": 0, "fusion_lat": 0.0, "bike_id": "6ce4d4a363d3dbcb024d8b1abb7055c8", "rental_uris": {"ios": "https://dc.lft.to/lastmile_qr_scan", "android": "https://dc.lft.to/lastmile_qr_scan"}}, {"name": "1b6aa29985b2bc6bcb4fc3d064330e9c", "type": "electric_scooter", "lat": 38.912668, "is_reserved": 0, "lon": -77.006354, "fusion_lon": 0.0, "is_disabled": 0, "fusion_lat": 0.0, "bike_id": "1b6aa29985b2bc6bcb4fc3d064330e9c", "rental_uris": {"ios": "https://dc.lft.to/lastmile_qr_scan", "android": "https://dc.lft.to/lastmile_qr_scan"}}, {"name": "cf24c2a96e12977f348c3d4ef83f1bd5", "type": "electric_scooter", "lat": 38.89221233333333, "is_reserved": 0, "lon": -77.02142533333334, "fusion_lon": 0.0, "is_disabled": 0, "fusion_lat": 0.0, "bike_id": "cf24c2a96e12977f348c3d4ef83f1bd5", "rental_uris": {"ios": "https://dc.lft.to/lastmile_qr_scan", "android": "https://dc.lft.to/lastmile_qr_scan"}}, {"name": "20961ac3195a97339579d2e698fc9be1", "type": "electric_scooter", "lat": 38.9037715, "is_reserved": 0, "lon": -77.00749766666667, "fusion_lon": 0.0, "is_disabled": 0, "fusion_lat": 0.0, "bike_id": "20961ac3195a97339579d2e698fc9be1", "rental_uris": {"ios": "https://dc.lft.to/lastmile_qr_scan", "android": "https://dc.lft.to/lastmile_qr_scan"}}, {"name": "b5952724fd9cc0bfe5d2ab68a0747aea", "type": "electric_bike", "lat": 38.96507116666667, "is_reserved": 0, "lon": -77.028196, "fusion_lon": 0.0, "is_disabled": 0, "fusion_lat": 0.0, "bike_id": "b5952724fd9cc0bfe5d2ab68a0747aea", "rental_uris": {"ios": "https://dc.lft.to/lastmile_qr_scan", "android": "https://dc.lft.to/lastmile_qr_scan"}}, {"name": "fadf30bcd10466ece5737e1ce35ad457", "type": "electric_scooter", "lat": 38.92847, "is_reserved": 0, "lon": -77.05423866666666, "fusion_lon": 0.0, "is_disabled": 0, "fusion_lat": 0.0, "bike_id": "fadf30bcd10466ece5737e1ce35ad457", "rental_uris": {"ios": "https://dc.lft.to/lastmile_qr_scan", "android": "https://dc.lft.to/lastmile_qr_scan"}}, {"name": "656910df3bdbc243e89881a6a337da61", "type": "electric_scooter", "lat": 38.891977, "is_reserved": 0, "lon": -77.01551333333333, "fusion_lon": 0.0, "is_disabled": 0, "fusion_lat": 0.0, "bike_id": "656910df3bdbc243e89881a6a337da61", "rental_uris": {"ios": "https://dc.lft.to/lastmile_qr_scan", "android": "https://dc.lft.to/lastmile_qr_scan"}}, {"name": "550c1b26468b31444fdbd65a909b5799", "type": "electric_scooter", "lat": 38.891351, "is_reserved": 0, "lon": -77.003436, "fusion_lon": 0.0, "is_disabled": 0, "fusion_lat": 0.0, "bike_id": "550c1b26468b31444fdbd65a909b5799", "rental_uris": {"ios": "https://dc.lft.to/lastmile_qr_scan", "android": "https://dc.lft.to/lastmile_qr_scan"}}, {"name": "0c073320eccef7afe08c472512ee9193", "type": "electric_scooter", "lat": 38.879758, "is_reserved": 0, "lon": -76.98541533333334, "fusion_lon": 0.0, "is_disabled": 0, "fusion_lat": 0.0, "bike_id": "0c073320eccef7afe08c472512ee9193", "rental_uris": {"ios": "https://dc.lft.to/lastmile_qr_scan", "android": "https://dc.lft.to/lastmile_qr_scan"}}, {"name": "854035faa75248e1ef5de2bcabb6548b", "type": "electric_scooter", "lat": 38.90830416666667, "is_reserved": 0, "lon": -76.99700183333333, "fusion_lon": 0.0, "is_disabled": 0, "fusion_lat": 0.0, "bike_id": "854035faa75248e1ef5de2bcabb6548b", "rental_uris": {"ios": "https://dc.lft.to/lastmile_qr_scan", "android": "https://dc.lft.to/lastmile_qr_scan"}}, {"name": "c51b2b4083568140adaa371582930c65", "type": "electric_scooter", "lat": 38.89587566666667, "is_reserved": 0, "lon": -77.02600366666667, "fusion_lon": 0.0, "is_disabled": 0, "fusion_lat": 0.0, "bike_id": "c51b2b4083568140adaa371582930c65", "rental_uris": {"ios": "https://dc.lft.to/lastmile_qr_scan", "android": "https://dc.lft.to/lastmile_qr_scan"}}, {"name": "a9d3dc5d66d1de993c583271f2bde268", "type": "electric_bike", "lat": 39.03055, "is_reserved": 0, "lon": -77.0948545, "fusion_lon": 0.0, "is_disabled": 0, "fusion_lat": 0.0, "bike_id": "a9d3dc5d66d1de993c583271f2bde268", "rental_uris": {"ios": "https://dc.lft.to/lastmile_qr_scan", "android": "https://dc.lft.to/lastmile_qr_scan"}}, {"name": "7bc2bb49b6bcb89d70f549d09ea3a554", "type": "electric_scooter", "lat": 38.8767455, "is_reserved": 0, "lon": -77.000818, "fusion_lon": 0.0, "is_disabled": 0, "fusion_lat": 0.0, "bike_id": "7bc2bb49b6bcb89d70f549d09ea3a554", "rental_uris": {"ios": "https://dc.lft.to/lastmile_qr_scan", "android": "https://dc.lft.to/lastmile_qr_scan"}}, {"name": "d12ebb8ab7d61b44ac9e81c5f614bbd4", "type": "electric_scooter", "lat": 38.902612, "is_reserved": 0, "lon": -77.01816216666667, "fusion_lon": 0.0, "is_disabled": 0, "fusion_lat": 0.0, "bike_id": "d12ebb8ab7d61b44ac9e81c5f614bbd4", "rental_uris": {"ios": "https://dc.lft.to/lastmile_qr_scan", "android": "https://dc.lft.to/lastmile_qr_scan"}}, {"name": "b79508bc02da668b3cba3df88dce0b24", "type": "electric_scooter", "lat": 38.9052525, "is_reserved": 0, "lon": -77.05145266666666, "fusion_lon": 0.0, "is_disabled": 0, "fusion_lat": 0.0, "bike_id": "b79508bc02da668b3cba3df88dce0b24", "rental_uris": {"ios": "https://dc.lft.to/lastmile_qr_scan", "android": "https://dc.lft.to/lastmile_qr_scan"}}, {"name": "4e414eadf74673ca85bfc742593bd041", "type": "electric_bike", "lat": 38.9709295, "is_reserved": 0, "lon": -77.06967116666667, "fusion_lon": 0.0, "is_disabled": 0, "fusion_lat": 0.0, "bike_id": "4e414eadf74673ca85bfc742593bd041", "rental_uris": {"ios": "https://dc.lft.to/lastmile_qr_scan", "android": "https://dc.lft.to/lastmile_qr_scan"}}, {"name": "2bcc3ca5ab2ad8d8dd83302979a551f7", "type": "electric_scooter", "lat": 38.90263433333333, "is_reserved": 0, "lon": -77.01655116666667, "fusion_lon": 0.0, "is_disabled": 0, "fusion_lat": 0.0, "bike_id": "2bcc3ca5ab2ad8d8dd83302979a551f7", "rental_uris": {"ios": "https://dc.lft.to/lastmile_qr_scan", "android": "https://dc.lft.to/lastmile_qr_scan"}}, {"name": "fe482c9176ccda52044c7dc10bdc3243", "type": "electric_scooter", "lat": 38.89869266666667, "is_reserved": 0, "lon": -77.02632083333333, "fusion_lon": 0.0, "is_disabled": 0, "fusion_lat": 0.0, "bike_id": "fe482c9176ccda52044c7dc10bdc3243", "rental_uris": {"ios": "https://dc.lft.to/lastmile_qr_scan", "android": "https://dc.lft.to/lastmile_qr_scan"}}, {"name": "dab15689cb9b9f3760610d4dd981f194", "type": "electric_scooter", "lat": 38.90583133333333, "is_reserved": 0, "lon": -77.00264633333333, "fusion_lon": 0.0, "is_disabled": 0, "fusion_lat": 0.0, "bike_id": "dab15689cb9b9f3760610d4dd981f194", "rental_uris": {"ios": "https://dc.lft.to/lastmile_qr_scan", "android": "https://dc.lft.to/lastmile_qr_scan"}}, {"name": "13d36d6be70a747ca82463ff708b299a", "type": "electric_scooter", "lat": 38.9133245, "is_reserved": 0, "lon": -77.04867583333333, "fusion_lon": 0.0, "is_disabled": 0, "fusion_lat": 0.0, "bike_id": "13d36d6be70a747ca82463ff708b299a", "rental_uris": {"ios": "https://dc.lft.to/lastmile_qr_scan", "android": "https://dc.lft.to/lastmile_qr_scan"}}, {"name": "e0fbad989f20b375b7ad608dbbc6f760", "type": "electric_scooter", "lat": 38.91895933333333, "is_reserved": 0, "lon": -77.01617383333334, "fusion_lon": 0.0, "is_disabled": 0, "fusion_lat": 0.0, "bike_id": "e0fbad989f20b375b7ad608dbbc6f760", "rental_uris": {"ios": "https://dc.lft.to/lastmile_qr_scan", "android": "https://dc.lft.to/lastmile_qr_scan"}}, {"name": "5839efcb37253d70b4b7730dd1956510", "type": "electric_scooter", "lat": 38.93889183333334, "is_reserved": 0, "lon": -77.02465966666666, "fusion_lon": 0.0, "is_disabled": 0, "fusion_lat": 0.0, "bike_id": "5839efcb37253d70b4b7730dd1956510", "rental_uris": {"ios": "https://dc.lft.to/lastmile_qr_scan", "android": "https://dc.lft.to/lastmile_qr_scan"}}, {"name": "8a9638e40e39fe48ad3d5ce1046b3ec8", "type": "electric_scooter", "lat": 38.92628216666667, "is_reserved": 0, "lon": -77.0378185, "fusion_lon": 0.0, "is_disabled": 0, "fusion_lat": 0.0, "bike_id": "8a9638e40e39fe48ad3d5ce1046b3ec8", "rental_uris": {"ios": "https://dc.lft.to/lastmile_qr_scan", "android": "https://dc.lft.to/lastmile_qr_scan"}}, {"name": "329257b5861c135fdff4083d29ba4d2b", "type": "electric_scooter", "lat": 38.93141166666667, "is_reserved": 0, "lon": -77.038543, "fusion_lon": 0.0, "is_disabled": 0, "fusion_lat": 0.0, "bike_id": "329257b5861c135fdff4083d29ba4d2b", "rental_uris": {"ios": "https://dc.lft.to/lastmile_qr_scan", "android": "https://dc.lft.to/lastmile_qr_scan"}}, {"name": "022697abf0f5492eebb6ed5700b65451", "type": "electric_scooter", "lat": 38.9258545, "is_reserved": 0, "lon": -77.004747, "fusion_lon": 0.0, "is_disabled": 0, "fusion_lat": 0.0, "bike_id": "022697abf0f5492eebb6ed5700b65451", "rental_uris": {"ios": "https://dc.lft.to/lastmile_qr_scan", "android": "https://dc.lft.to/lastmile_qr_scan"}}, {"name": "137c2cc04818537527e1216c686ab9b4", "type": "electric_scooter", "lat": 38.9027725, "is_reserved": 0, "lon": -77.0462125, "fusion_lon": 0.0, "is_disabled": 0, "fusion_lat": 0.0, "bike_id": "137c2cc04818537527e1216c686ab9b4", "rental_uris": {"ios": "https://dc.lft.to/lastmile_qr_scan", "android": "https://dc.lft.to/lastmile_qr_scan"}}, {"name": "f7f25c91f60a7e28c0436ba49277bf66", "type": "electric_scooter", "lat": 38.877088666666666, "is_reserved": 0, "lon": -76.993841, "fusion_lon": 0.0, "is_disabled": 0, "fusion_lat": 0.0, "bike_id": "f7f25c91f60a7e28c0436ba49277bf66", "rental_uris": {"ios": "https://dc.lft.to/lastmile_qr_scan", "android": "https://dc.lft.to/lastmile_qr_scan"}}, {"name": "67109f4126e296bf4617ce60d05f0350", "type": "electric_scooter", "lat": 38.899320833333334, "is_reserved": 0, "lon": -77.033304, "fusion_lon": 0.0, "is_disabled": 0, "fusion_lat": 0.0, "bike_id": "67109f4126e296bf4617ce60d05f0350", "rental_uris": {"ios": "https://dc.lft.to/lastmile_qr_scan", "android": "https://dc.lft.to/lastmile_qr_scan"}}, {"name": "f8a8229d01ea8c96f40c570f5a1766ac", "type": "electric_scooter", "lat": 38.88769416666667, "is_reserved": 0, "lon": -76.92713066666667, "fusion_lon": 0.0, "is_disabled": 0, "fusion_lat": 0.0, "bike_id": "f8a8229d01ea8c96f40c570f5a1766ac", "rental_uris": {"ios": "https://dc.lft.to/lastmile_qr_scan", "android": "https://dc.lft.to/lastmile_qr_scan"}}, {"name": "5a67192acabbbad540a6f58cb775d7cf", "type": "electric_scooter", "lat": 38.90661683333333, "is_reserved": 0, "lon": -77.01160666666667, "fusion_lon": 0.0, "is_disabled": 0, "fusion_lat": 0.0, "bike_id": "5a67192acabbbad540a6f58cb775d7cf", "rental_uris": {"ios": "https://dc.lft.to/lastmile_qr_scan", "android": "https://dc.lft.to/lastmile_qr_scan"}}, {"name": "9e927fc153530c83577f20da173884e4", "type": "electric_scooter", "lat": 38.9191845, "is_reserved": 0, "lon": -77.03019766666667, "fusion_lon": 0.0, "is_disabled": 0, "fusion_lat": 0.0, "bike_id": "9e927fc153530c83577f20da173884e4", "rental_uris": {"ios": "https://dc.lft.to/lastmile_qr_scan", "android": "https://dc.lft.to/lastmile_qr_scan"}}, {"name": "5a7f33e07c1647d7dab18cb01e627176", "type": "electric_scooter", "lat": 38.84294533333333, "is_reserved": 0, "lon": -76.99947983333334, "fusion_lon": 0.0, "is_disabled": 0, "fusion_lat": 0.0, "bike_id": "5a7f33e07c1647d7dab18cb01e627176", "rental_uris": {"ios": "https://dc.lft.to/lastmile_qr_scan", "android": "https://dc.lft.to/lastmile_qr_scan"}}, {"name": "217a677afdee1c43566e0cbda31fad61", "type": "electric_bike", "lat": 38.85245716666667, "is_reserved": 0, "lon": -77.1142985, "fusion_lon": 0.0, "is_disabled": 0, "fusion_lat": 0.0, "bike_id": "217a677afdee1c43566e0cbda31fad61", "rental_uris": {"ios": "https://dc.lft.to/lastmile_qr_scan", "android": "https://dc.lft.to/lastmile_qr_scan"}}, {"name": "03c116e284bfb6e89682e27732d9da97", "type": "electric_scooter", "lat": 38.927584, "is_reserved": 0, "lon": -77.0537335, "fusion_lon": 0.0, "is_disabled": 0, "fusion_lat": 0.0, "bike_id": "03c116e284bfb6e89682e27732d9da97", "rental_uris": {"ios": "https://dc.lft.to/lastmile_qr_scan", "android": "https://dc.lft.to/lastmile_qr_scan"}}, {"name": "aa4caac371aeb69065c88ebe915300f8", "type": "electric_scooter", "lat": 38.967251, "is_reserved": 0, "lon": -77.023477, "fusion_lon": 0.0, "is_disabled": 0, "fusion_lat": 0.0, "bike_id": "aa4caac371aeb69065c88ebe915300f8", "rental_uris": {"ios": "https://dc.lft.to/lastmile_qr_scan", "android": "https://dc.lft.to/lastmile_qr_scan"}}, {"name": "7bc16ff0c335c39da85fafc064431041", "type": "electric_scooter", "lat": 38.9286465, "is_reserved": 0, "lon": -77.026096, "fusion_lon": 0.0, "is_disabled": 0, "fusion_lat": 0.0, "bike_id": "7bc16ff0c335c39da85fafc064431041", "rental_uris": {"ios": "https://dc.lft.to/lastmile_qr_scan", "android": "https://dc.lft.to/lastmile_qr_scan"}}, {"name": "51fabd97e55e85eef12c4553e7d88617", "type": "electric_scooter", "lat": 38.88717416666667, "is_reserved": 0, "lon": -77.01776066666666, "fusion_lon": 0.0, "is_disabled": 0, "fusion_lat": 0.0, "bike_id": "51fabd97e55e85eef12c4553e7d88617", "rental_uris": {"ios": "https://dc.lft.to/lastmile_qr_scan", "android": "https://dc.lft.to/lastmile_qr_scan"}}, {"name": "82b021b9d95e9f5fb14247100740c1af", "type": "electric_scooter", "lat": 38.904795166666666, "is_reserved": 0, "lon": -77.0418345, "fusion_lon": 0.0, "is_disabled": 0, "fusion_lat": 0.0, "bike_id": "82b021b9d95e9f5fb14247100740c1af", "rental_uris": {"ios": "https://dc.lft.to/lastmile_qr_scan", "android": "https://dc.lft.to/lastmile_qr_scan"}}, {"name": "b685ee7415e1c55d36a5c8f03a163528", "type": "electric_scooter", "lat": 38.93537166666667, "is_reserved": 0, "lon": -77.03307716666667, "fusion_lon": 0.0, "is_disabled": 0, "fusion_lat": 0.0, "bike_id": "b685ee7415e1c55d36a5c8f03a163528", "rental_uris": {"ios": "https://dc.lft.to/lastmile_qr_scan", "android": "https://dc.lft.to/lastmile_qr_scan"}}, {"name": "10951891ab1c0bfd2298bdd7a857c02a", "type": "electric_scooter", "lat": 38.902769, "is_reserved": 0, "lon": -77.03832833333334, "fusion_lon": 0.0, "is_disabled": 0, "fusion_lat": 0.0, "bike_id": "10951891ab1c0bfd2298bdd7a857c02a", "rental_uris": {"ios": "https://dc.lft.to/lastmile_qr_scan", "android": "https://dc.lft.to/lastmile_qr_scan"}}, {"name": "cb2cd9d012ba25784b7a0b3cce775b29", "type": "electric_scooter", "lat": 38.921164833333336, "is_reserved": 0, "lon": -77.03658216666666, "fusion_lon": 0.0, "is_disabled": 0, "fusion_lat": 0.0, "bike_id": "cb2cd9d012ba25784b7a0b3cce775b29", "rental_uris": {"ios": "https://dc.lft.to/lastmile_qr_scan", "android": "https://dc.lft.to/lastmile_qr_scan"}}, {"name": "1c425787d153ea6bc1ed159ecef84a71", "type": "electric_scooter", "lat": 38.901062333333336, "is_reserved": 0, "lon": -77.04978983333334, "fusion_lon": 0.0, "is_disabled": 0, "fusion_lat": 0.0, "bike_id": "1c425787d153ea6bc1ed159ecef84a71", "rental_uris": {"ios": "https://dc.lft.to/lastmile_qr_scan", "android": "https://dc.lft.to/lastmile_qr_scan"}}, {"name": "5ef86188497f0def96b88d8460d462d7", "type": "electric_scooter", "lat": 38.8994075, "is_reserved": 0, "lon": -77.02959516666667, "fusion_lon": 0.0, "is_disabled": 0, "fusion_lat": 0.0, "bike_id": "5ef86188497f0def96b88d8460d462d7", "rental_uris": {"ios": "https://dc.lft.to/lastmile_qr_scan", "android": "https://dc.lft.to/lastmile_qr_scan"}}, {"name": "3570e3b381cb71636485d06a21cde2a2", "type": "electric_bike", "lat": 38.9185635, "is_reserved": 0, "lon": -76.96095466666667, "fusion_lon": 0.0, "is_disabled": 0, "fusion_lat": 0.0, "bike_id": "3570e3b381cb71636485d06a21cde2a2", "rental_uris": {"ios": "https://dc.lft.to/lastmile_qr_scan", "android": "https://dc.lft.to/lastmile_qr_scan"}}, {"name": "d5dc2a3f9e114dddb68e442bb0fce9c0", "type": "electric_scooter", "lat": 38.89919116666667, "is_reserved": 0, "lon": -76.93382983333333, "fusion_lon": 0.0, "is_disabled": 0, "fusion_lat": 0.0, "bike_id": "d5dc2a3f9e114dddb68e442bb0fce9c0", "rental_uris": {"ios": "https://dc.lft.to/lastmile_qr_scan", "android": "https://dc.lft.to/lastmile_qr_scan"}}, {"name": "7b5a1acdabf44fdadcf004a3ab46450b", "type": "electric_bike", "lat": 38.906666, "is_reserved": 0, "lon": -76.99963, "fusion_lon": 0.0, "is_disabled": 0, "fusion_lat": 0.0, "bike_id": "7b5a1acdabf44fdadcf004a3ab46450b", "rental_uris": {"ios": "https://dc.lft.to/lastmile_qr_scan", "android": "https://dc.lft.to/lastmile_qr_scan"}}, {"name": "62e14af726c91efc6d48e650fb5e54f8", "type": "electric_scooter", "lat": 38.90902116666667, "is_reserved": 0, "lon": -77.08655983333334, "fusion_lon": 0.0, "is_disabled": 0, "fusion_lat": 0.0, "bike_id": "62e14af726c91efc6d48e650fb5e54f8", "rental_uris": {"ios": "https://dc.lft.to/lastmile_qr_scan", "android": "https://dc.lft.to/lastmile_qr_scan"}}, {"name": "de1459e195ce3754b4b6a8e52a88b940", "type": "electric_scooter", "lat": 38.9225305, "is_reserved": 0, "lon": -77.041389, "fusion_lon": 0.0, "is_disabled": 0, "fusion_lat": 0.0, "bike_id": "de1459e195ce3754b4b6a8e52a88b940", "rental_uris": {"ios": "https://dc.lft.to/lastmile_qr_scan", "android": "https://dc.lft.to/lastmile_qr_scan"}}, {"name": "892c7e7ced819d646dd0fe764bb1aa05", "type": "electric_scooter", "lat": 38.92318066666667, "is_reserved": 0, "lon": -77.04489983333333, "fusion_lon": 0.0, "is_disabled": 0, "fusion_lat": 0.0, "bike_id": "892c7e7ced819d646dd0fe764bb1aa05", "rental_uris": {"ios": "https://dc.lft.to/lastmile_qr_scan", "android": "https://dc.lft.to/lastmile_qr_scan"}}, {"name": "c80531cb63b69a2283afdd85fa611033", "type": "electric_scooter", "lat": 38.892435, "is_reserved": 0, "lon": -77.03173583333333, "fusion_lon": 0.0, "is_disabled": 0, "fusion_lat": 0.0, "bike_id": "c80531cb63b69a2283afdd85fa611033", "rental_uris": {"ios": "https://dc.lft.to/lastmile_qr_scan", "android": "https://dc.lft.to/lastmile_qr_scan"}}, {"name": "8c65ba3673a843e6add0227130df7dce", "type": "electric_scooter", "lat": 38.91718316666667, "is_reserved": 0, "lon": -77.02293133333333, "fusion_lon": 0.0, "is_disabled": 0, "fusion_lat": 0.0, "bike_id": "8c65ba3673a843e6add0227130df7dce", "rental_uris": {"ios": "https://dc.lft.to/lastmile_qr_scan", "android": "https://dc.lft.to/lastmile_qr_scan"}}, {"name": "7f46ecae304cf69234146766dc82bd9f", "type": "electric_bike", "lat": 38.8797775, "is_reserved": 0, "lon": -76.9159945, "fusion_lon": 0.0, "is_disabled": 0, "fusion_lat": 0.0, "bike_id": "7f46ecae304cf69234146766dc82bd9f", "rental_uris": {"ios": "https://dc.lft.to/lastmile_qr_scan", "android": "https://dc.lft.to/lastmile_qr_scan"}}, {"name": "bde528714bc5037fcaff6db2cabacae4", "type": "electric_scooter", "lat": 38.90379, "is_reserved": 0, "lon": -77.01638933333334, "fusion_lon": 0.0, "is_disabled": 0, "fusion_lat": 0.0, "bike_id": "bde528714bc5037fcaff6db2cabacae4", "rental_uris": {"ios": "https://dc.lft.to/lastmile_qr_scan", "android": "https://dc.lft.to/lastmile_qr_scan"}}, {"name": "ccd2ce8ed17702efce3905a275f7c0da", "type": "electric_bike", "lat": 38.82448816666667, "is_reserved": 0, "lon": -77.070491, "fusion_lon": 0.0, "is_disabled": 0, "fusion_lat": 0.0, "bike_id": "ccd2ce8ed17702efce3905a275f7c0da", "rental_uris": {"ios": "https://dc.lft.to/lastmile_qr_scan", "android": "https://dc.lft.to/lastmile_qr_scan"}}, {"name": "ac1d8157b259a505e7045896d7117b63", "type": "electric_scooter", "lat": 38.906772333333336, "is_reserved": 0, "lon": -77.03814333333334, "fusion_lon": 0.0, "is_disabled": 0, "fusion_lat": 0.0, "bike_id": "ac1d8157b259a505e7045896d7117b63", "rental_uris": {"ios": "https://dc.lft.to/lastmile_qr_scan", "android": "https://dc.lft.to/lastmile_qr_scan"}}, {"name": "8f588d01ab74c6c7aceb5e4ab29fe1ee", "type": "electric_scooter", "lat": 38.89454216666667, "is_reserved": 0, "lon": -77.019202, "fusion_lon": 0.0, "is_disabled": 0, "fusion_lat": 0.0, "bike_id": "8f588d01ab74c6c7aceb5e4ab29fe1ee", "rental_uris": {"ios": "https://dc.lft.to/lastmile_qr_scan", "android": "https://dc.lft.to/lastmile_qr_scan"}}, {"name": "ac63a494b535117a5b2fb8c5d2ec07f5", "type": "electric_scooter", "lat": 38.87629866666666, "is_reserved": 0, "lon": -76.965308, "fusion_lon": 0.0, "is_disabled": 0, "fusion_lat": 0.0, "bike_id": "ac63a494b535117a5b2fb8c5d2ec07f5", "rental_uris": {"ios": "https://dc.lft.to/lastmile_qr_scan", "android": "https://dc.lft.to/lastmile_qr_scan"}}, {"name": "ae8061d20491a024369f161236528527", "type": "electric_scooter", "lat": 38.93097866666667, "is_reserved": 0, "lon": -77.02539683333333, "fusion_lon": 0.0, "is_disabled": 0, "fusion_lat": 0.0, "bike_id": "ae8061d20491a024369f161236528527", "rental_uris": {"ios": "https://dc.lft.to/lastmile_qr_scan", "android": "https://dc.lft.to/lastmile_qr_scan"}}, {"name": "956be864cbf6982e12abcda07d8b1ce3", "type": "electric_bike", "lat": 38.838226166666665, "is_reserved": 0, "lon": -76.99681416666667, "fusion_lon": 0.0, "is_disabled": 0, "fusion_lat": 0.0, "bike_id": "956be864cbf6982e12abcda07d8b1ce3", "rental_uris": {"ios": "https://dc.lft.to/lastmile_qr_scan", "android": "https://dc.lft.to/lastmile_qr_scan"}}, {"name": "2d7c7c70c4e13220d6c471cb7ad75910", "type": "electric_scooter", "lat": 38.92357, "is_reserved": 0, "lon": -77.05310116666666, "fusion_lon": 0.0, "is_disabled": 0, "fusion_lat": 0.0, "bike_id": "2d7c7c70c4e13220d6c471cb7ad75910", "rental_uris": {"ios": "https://dc.lft.to/lastmile_qr_scan", "android": "https://dc.lft.to/lastmile_qr_scan"}}, {"name": "932fd62816380f1ea5fa209c382aea56", "type": "electric_scooter", "lat": 38.932876, "is_reserved": 0, "lon": -77.03980733333333, "fusion_lon": 0.0, "is_disabled": 0, "fusion_lat": 0.0, "bike_id": "932fd62816380f1ea5fa209c382aea56", "rental_uris": {"ios": "https://dc.lft.to/lastmile_qr_scan", "android": "https://dc.lft.to/lastmile_qr_scan"}}, {"name": "74dc0aed3550106e8879f62ca9403c1a", "type": "electric_scooter", "lat": 38.892419333333336, "is_reserved": 0, "lon": -77.01538016666667, "fusion_lon": 0.0, "is_disabled": 0, "fusion_lat": 0.0, "bike_id": "74dc0aed3550106e8879f62ca9403c1a", "rental_uris": {"ios": "https://dc.lft.to/lastmile_qr_scan", "android": "https://dc.lft.to/lastmile_qr_scan"}}, {"name": "c242a5824f485446d132619d70fdae19", "type": "electric_scooter", "lat": 38.86527533333334, "is_reserved": 0, "lon": -76.99027366666667, "fusion_lon": 0.0, "is_disabled": 0, "fusion_lat": 0.0, "bike_id": "c242a5824f485446d132619d70fdae19", "rental_uris": {"ios": "https://dc.lft.to/lastmile_qr_scan", "android": "https://dc.lft.to/lastmile_qr_scan"}}, {"name": "32e73bc299caef6ef6f43382e3228f74", "type": "electric_scooter", "lat": 38.908415, "is_reserved": 0, "lon": -77.02694933333333, "fusion_lon": 0.0, "is_disabled": 0, "fusion_lat": 0.0, "bike_id": "32e73bc299caef6ef6f43382e3228f74", "rental_uris": {"ios": "https://dc.lft.to/lastmile_qr_scan", "android": "https://dc.lft.to/lastmile_qr_scan"}}, {"name": "c0db827da3fc0f72ba6a35a7c6912ca4", "type": "electric_scooter", "lat": 38.897388666666664, "is_reserved": 0, "lon": -76.9384515, "fusion_lon": 0.0, "is_disabled": 0, "fusion_lat": 0.0, "bike_id": "c0db827da3fc0f72ba6a35a7c6912ca4", "rental_uris": {"ios": "https://dc.lft.to/lastmile_qr_scan", "android": "https://dc.lft.to/lastmile_qr_scan"}}, {"name": "72906bba15fe9f2710db0135ab298891", "type": "electric_scooter", "lat": 38.886894, "is_reserved": 0, "lon": -76.95767266666667, "fusion_lon": 0.0, "is_disabled": 0, "fusion_lat": 0.0, "bike_id": "72906bba15fe9f2710db0135ab298891", "rental_uris": {"ios": "https://dc.lft.to/lastmile_qr_scan", "android": "https://dc.lft.to/lastmile_qr_scan"}}, {"name": "8585526f046c09e9a8f19ba914dd00b1", "type": "electric_scooter", "lat": 38.955347833333335, "is_reserved": 0, "lon": -77.02467166666666, "fusion_lon": 0.0, "is_disabled": 0, "fusion_lat": 0.0, "bike_id": "8585526f046c09e9a8f19ba914dd00b1", "rental_uris": {"ios": "https://dc.lft.to/lastmile_qr_scan", "android": "https://dc.lft.to/lastmile_qr_scan"}}, {"name": "69ae31bf63d2223263d49ebc2b4f7656", "type": "electric_bike", "lat": 38.90299133333333, "is_reserved": 0, "lon": -76.944398, "fusion_lon": 0.0, "is_disabled": 0, "fusion_lat": 0.0, "bike_id": "69ae31bf63d2223263d49ebc2b4f7656", "rental_uris": {"ios": "https://dc.lft.to/lastmile_qr_scan", "android": "https://dc.lft.to/lastmile_qr_scan"}}, {"name": "0e4ea13d920d25df7d9e49b5ce10bf75", "type": "electric_scooter", "lat": 38.917184166666665, "is_reserved": 0, "lon": -77.01866733333334, "fusion_lon": 0.0, "is_disabled": 0, "fusion_lat": 0.0, "bike_id": "0e4ea13d920d25df7d9e49b5ce10bf75", "rental_uris": {"ios": "https://dc.lft.to/lastmile_qr_scan", "android": "https://dc.lft.to/lastmile_qr_scan"}}, {"name": "cbbfa855bfb15477a30ac2eb532abfee", "type": "electric_scooter", "lat": 38.90021983333333, "is_reserved": 0, "lon": -76.990776, "fusion_lon": 0.0, "is_disabled": 0, "fusion_lat": 0.0, "bike_id": "cbbfa855bfb15477a30ac2eb532abfee", "rental_uris": {"ios": "https://dc.lft.to/lastmile_qr_scan", "android": "https://dc.lft.to/lastmile_qr_scan"}}, {"name": "1d17f559fbd27eab0443c6ebca2c92dc", "type": "electric_scooter", "lat": 38.905624833333334, "is_reserved": 0, "lon": -77.02172866666666, "fusion_lon": 0.0, "is_disabled": 0, "fusion_lat": 0.0, "bike_id": "1d17f559fbd27eab0443c6ebca2c92dc", "rental_uris": {"ios": "https://dc.lft.to/lastmile_qr_scan", "android": "https://dc.lft.to/lastmile_qr_scan"}}, {"name": "81c0b7c6fa1d36df0c1edfc52fb15546", "type": "electric_scooter", "lat": 38.914971666666666, "is_reserved": 0, "lon": -77.03252283333333, "fusion_lon": 0.0, "is_disabled": 0, "fusion_lat": 0.0, "bike_id": "81c0b7c6fa1d36df0c1edfc52fb15546", "rental_uris": {"ios": "https://dc.lft.to/lastmile_qr_scan", "android": "https://dc.lft.to/lastmile_qr_scan"}}, {"name": "87cecbeaaf4bf8bd0be22f2ddaa3e2f2", "type": "electric_scooter", "lat": 38.91880283333333, "is_reserved": 0, "lon": -77.04195116666666, "fusion_lon": 0.0, "is_disabled": 0, "fusion_lat": 0.0, "bike_id": "87cecbeaaf4bf8bd0be22f2ddaa3e2f2", "rental_uris": {"ios": "https://dc.lft.to/lastmile_qr_scan", "android": "https://dc.lft.to/lastmile_qr_scan"}}, {"name": "9ca683c248a333ff080a0f3ce25df928", "type": "electric_scooter", "lat": 38.89968533333333, "is_reserved": 0, "lon": -76.937687, "fusion_lon": 0.0, "is_disabled": 0, "fusion_lat": 0.0, "bike_id": "9ca683c248a333ff080a0f3ce25df928", "rental_uris": {"ios": "https://dc.lft.to/lastmile_qr_scan", "android": "https://dc.lft.to/lastmile_qr_scan"}}, {"name": "62fcbd330cbced0c403826e7113157b4", "type": "electric_scooter", "lat": 38.918735, "is_reserved": 0, "lon": -77.03501966666667, "fusion_lon": 0.0, "is_disabled": 0, "fusion_lat": 0.0, "bike_id": "62fcbd330cbced0c403826e7113157b4", "rental_uris": {"ios": "https://dc.lft.to/lastmile_qr_scan", "android": "https://dc.lft.to/lastmile_qr_scan"}}, {"name": "87d231cfb0334443bad31bc9d45da5de", "type": "electric_scooter", "lat": 38.914365333333336, "is_reserved": 0, "lon": -77.00344233333334, "fusion_lon": 0.0, "is_disabled": 0, "fusion_lat": 0.0, "bike_id": "87d231cfb0334443bad31bc9d45da5de", "rental_uris": {"ios": "https://dc.lft.to/lastmile_qr_scan", "android": "https://dc.lft.to/lastmile_qr_scan"}}, {"name": "4c652415acad1e278ba781e1f96ed409", "type": "electric_scooter", "lat": 38.87683916666667, "is_reserved": 0, "lon": -77.00069833333333, "fusion_lon": 0.0, "is_disabled": 0, "fusion_lat": 0.0, "bike_id": "4c652415acad1e278ba781e1f96ed409", "rental_uris": {"ios": "https://dc.lft.to/lastmile_qr_scan", "android": "https://dc.lft.to/lastmile_qr_scan"}}, {"name": "8ed92f9429fd76e6b4bb7c8ceb52997f", "type": "electric_scooter", "lat": 38.900311, "is_reserved": 0, "lon": -76.99857166666666, "fusion_lon": 0.0, "is_disabled": 0, "fusion_lat": 0.0, "bike_id": "8ed92f9429fd76e6b4bb7c8ceb52997f", "rental_uris": {"ios": "https://dc.lft.to/lastmile_qr_scan", "android": "https://dc.lft.to/lastmile_qr_scan"}}, {"name": "c5a8cf2138e04eef2617d8aa9e2caff7", "type": "electric_scooter", "lat": 38.928882333333334, "is_reserved": 0, "lon": -77.0545195, "fusion_lon": 0.0, "is_disabled": 0, "fusion_lat": 0.0, "bike_id": "c5a8cf2138e04eef2617d8aa9e2caff7", "rental_uris": {"ios": "https://dc.lft.to/lastmile_qr_scan", "android": "https://dc.lft.to/lastmile_qr_scan"}}, {"name": "9038aede73a4f1d3691b63fac79029ce", "type": "electric_scooter", "lat": 38.9428175, "is_reserved": 0, "lon": -77.02506016666666, "fusion_lon": 0.0, "is_disabled": 0, "fusion_lat": 0.0, "bike_id": "9038aede73a4f1d3691b63fac79029ce", "rental_uris": {"ios": "https://dc.lft.to/lastmile_qr_scan", "android": "https://dc.lft.to/lastmile_qr_scan"}}, {"name": "f132a8add1673784806dd1ef7f4742db", "type": "electric_scooter", "lat": 38.90669483333333, "is_reserved": 0, "lon": -77.02709716666666, "fusion_lon": 0.0, "is_disabled": 0, "fusion_lat": 0.0, "bike_id": "f132a8add1673784806dd1ef7f4742db", "rental_uris": {"ios": "https://dc.lft.to/lastmile_qr_scan", "android": "https://dc.lft.to/lastmile_qr_scan"}}, {"name": "64d24c541546b4bb3a6db995fc09a2a6", "type": "electric_scooter", "lat": 38.9056195, "is_reserved": 0, "lon": -76.98135383333333, "fusion_lon": 0.0, "is_disabled": 0, "fusion_lat": 0.0, "bike_id": "64d24c541546b4bb3a6db995fc09a2a6", "rental_uris": {"ios": "https://dc.lft.to/lastmile_qr_scan", "android": "https://dc.lft.to/lastmile_qr_scan"}}, {"name": "c7b136ace73546d7e0aad32a03024e76", "type": "electric_scooter", "lat": 38.90847, "is_reserved": 0, "lon": -77.08534433333334, "fusion_lon": 0.0, "is_disabled": 0, "fusion_lat": 0.0, "bike_id": "c7b136ace73546d7e0aad32a03024e76", "rental_uris": {"ios": "https://dc.lft.to/lastmile_qr_scan", "android": "https://dc.lft.to/lastmile_qr_scan"}}, {"name": "9d7d2f8dab8d8936b4f19e24e57c8151", "type": "electric_scooter", "lat": 38.897687833333336, "is_reserved": 0, "lon": -77.02920883333333, "fusion_lon": 0.0, "is_disabled": 0, "fusion_lat": 0.0, "bike_id": "9d7d2f8dab8d8936b4f19e24e57c8151", "rental_uris": {"ios": "https://dc.lft.to/lastmile_qr_scan", "android": "https://dc.lft.to/lastmile_qr_scan"}}, {"name": "61a3d30966b3c1d67845e13916daf6e6", "type": "electric_bike", "lat": 38.8922135, "is_reserved": 0, "lon": -76.97023033333333, "fusion_lon": 0.0, "is_disabled": 0, "fusion_lat": 0.0, "bike_id": "61a3d30966b3c1d67845e13916daf6e6", "rental_uris": {"ios": "https://dc.lft.to/lastmile_qr_scan", "android": "https://dc.lft.to/lastmile_qr_scan"}}, {"name": "21ee913704d4bcc156fa458b57f27d40", "type": "electric_scooter", "lat": 38.8977445, "is_reserved": 0, "lon": -76.97730216666666, "fusion_lon": 0.0, "is_disabled": 0, "fusion_lat": 0.0, "bike_id": "21ee913704d4bcc156fa458b57f27d40", "rental_uris": {"ios": "https://dc.lft.to/lastmile_qr_scan", "android": "https://dc.lft.to/lastmile_qr_scan"}}, {"name": "0c65ee75f84164efc8ee8f57ce5d5ebd", "type": "electric_scooter", "lat": 38.940544833333334, "is_reserved": 0, "lon": -77.03288516666667, "fusion_lon": 0.0, "is_disabled": 0, "fusion_lat": 0.0, "bike_id": "0c65ee75f84164efc8ee8f57ce5d5ebd", "rental_uris": {"ios": "https://dc.lft.to/lastmile_qr_scan", "android": "https://dc.lft.to/lastmile_qr_scan"}}, {"name": "5fae4dd338d6e522cf08d278685d1f42", "type": "electric_scooter", "lat": 38.9277835, "is_reserved": 0, "lon": -77.02786733333333, "fusion_lon": 0.0, "is_disabled": 0, "fusion_lat": 0.0, "bike_id": "5fae4dd338d6e522cf08d278685d1f42", "rental_uris": {"ios": "https://dc.lft.to/lastmile_qr_scan", "android": "https://dc.lft.to/lastmile_qr_scan"}}, {"name": "c9bf51240ca78a672d6a3942ac023b2d", "type": "electric_scooter", "lat": 38.86375366666667, "is_reserved": 0, "lon": -76.99059216666667, "fusion_lon": 0.0, "is_disabled": 0, "fusion_lat": 0.0, "bike_id": "c9bf51240ca78a672d6a3942ac023b2d", "rental_uris": {"ios": "https://dc.lft.to/lastmile_qr_scan", "android": "https://dc.lft.to/lastmile_qr_scan"}}, {"name": "c944f3be1323e2ba34af1ab583993d9a", "type": "electric_scooter", "lat": 38.92092183333333, "is_reserved": 0, "lon": -77.03759033333333, "fusion_lon": 0.0, "is_disabled": 0, "fusion_lat": 0.0, "bike_id": "c944f3be1323e2ba34af1ab583993d9a", "rental_uris": {"ios": "https://dc.lft.to/lastmile_qr_scan", "android": "https://dc.lft.to/lastmile_qr_scan"}}, {"name": "7a75d3554feb70340b86f8dbcf75a117", "type": "electric_scooter", "lat": 38.90552866666667, "is_reserved": 0, "lon": -77.0465415, "fusion_lon": 0.0, "is_disabled": 0, "fusion_lat": 0.0, "bike_id": "7a75d3554feb70340b86f8dbcf75a117", "rental_uris": {"ios": "https://dc.lft.to/lastmile_qr_scan", "android": "https://dc.lft.to/lastmile_qr_scan"}}, {"name": "1148e7691493e51956a6b4247d6398d9", "type": "electric_scooter", "lat": 38.89372316666667, "is_reserved": 0, "lon": -77.01991433333333, "fusion_lon": 0.0, "is_disabled": 0, "fusion_lat": 0.0, "bike_id": "1148e7691493e51956a6b4247d6398d9", "rental_uris": {"ios": "https://dc.lft.to/lastmile_qr_scan", "android": "https://dc.lft.to/lastmile_qr_scan"}}, {"name": "edf7ff6f1605617e9fe2bd92f20eb1f7", "type": "electric_scooter", "lat": 38.908663833333335, "is_reserved": 0, "lon": -76.99954133333334, "fusion_lon": 0.0, "is_disabled": 0, "fusion_lat": 0.0, "bike_id": "edf7ff6f1605617e9fe2bd92f20eb1f7", "rental_uris": {"ios": "https://dc.lft.to/lastmile_qr_scan", "android": "https://dc.lft.to/lastmile_qr_scan"}}, {"name": "96fe709c2cf5c9637030d50b17add857", "type": "electric_scooter", "lat": 38.896105166666665, "is_reserved": 0, "lon": -77.04513816666666, "fusion_lon": 0.0, "is_disabled": 0, "fusion_lat": 0.0, "bike_id": "96fe709c2cf5c9637030d50b17add857", "rental_uris": {"ios": "https://dc.lft.to/lastmile_qr_scan", "android": "https://dc.lft.to/lastmile_qr_scan"}}, {"name": "2a9cfd42416641a6a6a6fb2f9fba4522", "type": "electric_scooter", "lat": 38.8982365, "is_reserved": 0, "lon": -77.042803, "fusion_lon": 0.0, "is_disabled": 0, "fusion_lat": 0.0, "bike_id": "2a9cfd42416641a6a6a6fb2f9fba4522", "rental_uris": {"ios": "https://dc.lft.to/lastmile_qr_scan", "android": "https://dc.lft.to/lastmile_qr_scan"}}, {"name": "423caae0782eb89115db7de0d2adb8f2", "type": "electric_scooter", "lat": 38.92580683333333, "is_reserved": 0, "lon": -77.052545, "fusion_lon": 0.0, "is_disabled": 0, "fusion_lat": 0.0, "bike_id": "423caae0782eb89115db7de0d2adb8f2", "rental_uris": {"ios": "https://dc.lft.to/lastmile_qr_scan", "android": "https://dc.lft.to/lastmile_qr_scan"}}, {"name": "3ba2a3e550b5fc549861a7099e0f6039", "type": "electric_scooter", "lat": 38.9346595, "is_reserved": 0, "lon": -77.02934616666667, "fusion_lon": 0.0, "is_disabled": 0, "fusion_lat": 0.0, "bike_id": "3ba2a3e550b5fc549861a7099e0f6039", "rental_uris": {"ios": "https://dc.lft.to/lastmile_qr_scan", "android": "https://dc.lft.to/lastmile_qr_scan"}}, {"name": "776c5a3dffd3b40c5321cf949286e819", "type": "electric_bike", "lat": 39.029351166666665, "is_reserved": 0, "lon": -77.04924466666667, "fusion_lon": 0.0, "is_disabled": 0, "fusion_lat": 0.0, "bike_id": "776c5a3dffd3b40c5321cf949286e819", "rental_uris": {"ios": "https://dc.lft.to/lastmile_qr_scan", "android": "https://dc.lft.to/lastmile_qr_scan"}}, {"name": "22640db6d09236803b9883aa353fdfcb", "type": "electric_scooter", "lat": 38.9177965, "is_reserved": 0, "lon": -77.041055, "fusion_lon": 0.0, "is_disabled": 0, "fusion_lat": 0.0, "bike_id": "22640db6d09236803b9883aa353fdfcb", "rental_uris": {"ios": "https://dc.lft.to/lastmile_qr_scan", "android": "https://dc.lft.to/lastmile_qr_scan"}}, {"name": "3ba98297062c1f95d02afa0507781fd2", "type": "electric_scooter", "lat": 38.88720333333333, "is_reserved": 0, "lon": -77.02830183333333, "fusion_lon": 0.0, "is_disabled": 0, "fusion_lat": 0.0, "bike_id": "3ba98297062c1f95d02afa0507781fd2", "rental_uris": {"ios": "https://dc.lft.to/lastmile_qr_scan", "android": "https://dc.lft.to/lastmile_qr_scan"}}, {"name": "63f158019a9e0368914f91dee3bd1d8f", "type": "electric_scooter", "lat": 38.933058833333334, "is_reserved": 0, "lon": -77.037685, "fusion_lon": 0.0, "is_disabled": 0, "fusion_lat": 0.0, "bike_id": "63f158019a9e0368914f91dee3bd1d8f", "rental_uris": {"ios": "https://dc.lft.to/lastmile_qr_scan", "android": "https://dc.lft.to/lastmile_qr_scan"}}, {"name": "aac065b1c40680b9e802c67cb440b268", "type": "electric_scooter", "lat": 38.90631233333333, "is_reserved": 0, "lon": -77.0512575, "fusion_lon": 0.0, "is_disabled": 0, "fusion_lat": 0.0, "bike_id": "aac065b1c40680b9e802c67cb440b268", "rental_uris": {"ios": "https://dc.lft.to/lastmile_qr_scan", "android": "https://dc.lft.to/lastmile_qr_scan"}}, {"name": "ef9cd38cf829da14469d0eafb37d0a7a", "type": "electric_scooter", "lat": 38.968251333333335, "is_reserved": 0, "lon": -77.01789183333334, "fusion_lon": 0.0, "is_disabled": 0, "fusion_lat": 0.0, "bike_id": "ef9cd38cf829da14469d0eafb37d0a7a", "rental_uris": {"ios": "https://dc.lft.to/lastmile_qr_scan", "android": "https://dc.lft.to/lastmile_qr_scan"}}, {"name": "cca2247aa5ab7eaef3d234be15907aec", "type": "electric_scooter", "lat": 38.92064716666667, "is_reserved": 0, "lon": -77.023628, "fusion_lon": 0.0, "is_disabled": 0, "fusion_lat": 0.0, "bike_id": "cca2247aa5ab7eaef3d234be15907aec", "rental_uris": {"ios": "https://dc.lft.to/lastmile_qr_scan", "android": "https://dc.lft.to/lastmile_qr_scan"}}, {"name": "66e1651137598dd3a8d2423e07e7d30f", "type": "electric_scooter", "lat": 38.90629116666667, "is_reserved": 0, "lon": -77.05123866666666, "fusion_lon": 0.0, "is_disabled": 0, "fusion_lat": 0.0, "bike_id": "66e1651137598dd3a8d2423e07e7d30f", "rental_uris": {"ios": "https://dc.lft.to/lastmile_qr_scan", "android": "https://dc.lft.to/lastmile_qr_scan"}}, {"name": "d18cec92339f70832b7139f23c12d05a", "type": "electric_scooter", "lat": 38.90558566666667, "is_reserved": 0, "lon": -77.0344655, "fusion_lon": 0.0, "is_disabled": 0, "fusion_lat": 0.0, "bike_id": "d18cec92339f70832b7139f23c12d05a", "rental_uris": {"ios": "https://dc.lft.to/lastmile_qr_scan", "android": "https://dc.lft.to/lastmile_qr_scan"}}, {"name": "d87be4a5657fd9901b2bf918c823c099", "type": "electric_scooter", "lat": 38.90660316666666, "is_reserved": 0, "lon": -77.05134133333334, "fusion_lon": 0.0, "is_disabled": 0, "fusion_lat": 0.0, "bike_id": "d87be4a5657fd9901b2bf918c823c099", "rental_uris": {"ios": "https://dc.lft.to/lastmile_qr_scan", "android": "https://dc.lft.to/lastmile_qr_scan"}}, {"name": "781a0db8b602b2bb16e13071ecaaf370", "type": "electric_scooter", "lat": 38.9301075, "is_reserved": 0, "lon": -77.02328016666667, "fusion_lon": 0.0, "is_disabled": 0, "fusion_lat": 0.0, "bike_id": "781a0db8b602b2bb16e13071ecaaf370", "rental_uris": {"ios": "https://dc.lft.to/lastmile_qr_scan", "android": "https://dc.lft.to/lastmile_qr_scan"}}, {"name": "2507b7041a96180336063f7df7f34b80", "type": "electric_scooter", "lat": 38.9004475, "is_reserved": 0, "lon": -77.04047116666666, "fusion_lon": 0.0, "is_disabled": 0, "fusion_lat": 0.0, "bike_id": "2507b7041a96180336063f7df7f34b80", "rental_uris": {"ios": "https://dc.lft.to/lastmile_qr_scan", "android": "https://dc.lft.to/lastmile_qr_scan"}}, {"name": "7f859f8cdefa6d43acabb2a9db336098", "type": "electric_scooter", "lat": 38.92329383333333, "is_reserved": 0, "lon": -77.03507, "fusion_lon": 0.0, "is_disabled": 0, "fusion_lat": 0.0, "bike_id": "7f859f8cdefa6d43acabb2a9db336098", "rental_uris": {"ios": "https://dc.lft.to/lastmile_qr_scan", "android": "https://dc.lft.to/lastmile_qr_scan"}}, {"name": "0d8c072dcee3156bc5661cc13ea7d555", "type": "electric_scooter", "lat": 38.89729766666667, "is_reserved": 0, "lon": -77.04335133333333, "fusion_lon": 0.0, "is_disabled": 0, "fusion_lat": 0.0, "bike_id": "0d8c072dcee3156bc5661cc13ea7d555", "rental_uris": {"ios": "https://dc.lft.to/lastmile_qr_scan", "android": "https://dc.lft.to/lastmile_qr_scan"}}, {"name": "2718d53dbe41850d1fecedd84035b8d2", "type": "electric_scooter", "lat": 38.91093216666667, "is_reserved": 0, "lon": -77.00494416666666, "fusion_lon": 0.0, "is_disabled": 0, "fusion_lat": 0.0, "bike_id": "2718d53dbe41850d1fecedd84035b8d2", "rental_uris": {"ios": "https://dc.lft.to/lastmile_qr_scan", "android": "https://dc.lft.to/lastmile_qr_scan"}}, {"name": "e0d6e1493f5d5e47d01ea37b31c98e52", "type": "electric_scooter", "lat": 38.900267666666664, "is_reserved": 0, "lon": -77.011867, "fusion_lon": 0.0, "is_disabled": 0, "fusion_lat": 0.0, "bike_id": "e0d6e1493f5d5e47d01ea37b31c98e52", "rental_uris": {"ios": "https://dc.lft.to/lastmile_qr_scan", "android": "https://dc.lft.to/lastmile_qr_scan"}}, {"name": "39959fd237e823f484c6cac263842daa", "type": "electric_scooter", "lat": 38.8949355, "is_reserved": 0, "lon": -77.01100016666666, "fusion_lon": 0.0, "is_disabled": 0, "fusion_lat": 0.0, "bike_id": "39959fd237e823f484c6cac263842daa", "rental_uris": {"ios": "https://dc.lft.to/lastmile_qr_scan", "android": "https://dc.lft.to/lastmile_qr_scan"}}, {"name": "bc9b4d82a7a587feeceb5be3f4930489", "type": "electric_scooter", "lat": 38.92558483333333, "is_reserved": 0, "lon": -77.06284783333334, "fusion_lon": 0.0, "is_disabled": 0, "fusion_lat": 0.0, "bike_id": "bc9b4d82a7a587feeceb5be3f4930489", "rental_uris": {"ios": "https://dc.lft.to/lastmile_qr_scan", "android": "https://dc.lft.to/lastmile_qr_scan"}}, {"name": "0c847e68b9ee833124b4559cc669e1f2", "type": "electric_scooter", "lat": 38.89222516666667, "is_reserved": 0, "lon": -77.04263, "fusion_lon": 0.0, "is_disabled": 0, "fusion_lat": 0.0, "bike_id": "0c847e68b9ee833124b4559cc669e1f2", "rental_uris": {"ios": "https://dc.lft.to/lastmile_qr_scan", "android": "https://dc.lft.to/lastmile_qr_scan"}}, {"name": "93bc9231505903530f83444ab8f984c9", "type": "electric_bike", "lat": 38.9285875, "is_reserved": 0, "lon": -77.10677666666666, "fusion_lon": 0.0, "is_disabled": 0, "fusion_lat": 0.0, "bike_id": "93bc9231505903530f83444ab8f984c9", "rental_uris": {"ios": "https://dc.lft.to/lastmile_qr_scan", "android": "https://dc.lft.to/lastmile_qr_scan"}}, {"name": "e27d015428f01a0710114a1459fede3d", "type": "electric_scooter", "lat": 38.863744, "is_reserved": 0, "lon": -77.01363116666667, "fusion_lon": 0.0, "is_disabled": 0, "fusion_lat": 0.0, "bike_id": "e27d015428f01a0710114a1459fede3d", "rental_uris": {"ios": "https://dc.lft.to/lastmile_qr_scan", "android": "https://dc.lft.to/lastmile_qr_scan"}}, {"name": "08ffc2031143b8e1505333fdcfb8301e", "type": "electric_scooter", "lat": 38.9306835, "is_reserved": 0, "lon": -77.02323866666667, "fusion_lon": 0.0, "is_disabled": 0, "fusion_lat": 0.0, "bike_id": "08ffc2031143b8e1505333fdcfb8301e", "rental_uris": {"ios": "https://dc.lft.to/lastmile_qr_scan", "android": "https://dc.lft.to/lastmile_qr_scan"}}, {"name": "a8933ee248a34b1f6f61f69190670374", "type": "electric_scooter", "lat": 38.883513666666666, "is_reserved": 0, "lon": -76.94936716666666, "fusion_lon": 0.0, "is_disabled": 0, "fusion_lat": 0.0, "bike_id": "a8933ee248a34b1f6f61f69190670374", "rental_uris": {"ios": "https://dc.lft.to/lastmile_qr_scan", "android": "https://dc.lft.to/lastmile_qr_scan"}}, {"name": "7b06e3c2f0981b7d6196494d73482413", "type": "electric_scooter", "lat": 38.924895166666666, "is_reserved": 0, "lon": -77.02712266666667, "fusion_lon": 0.0, "is_disabled": 0, "fusion_lat": 0.0, "bike_id": "7b06e3c2f0981b7d6196494d73482413", "rental_uris": {"ios": "https://dc.lft.to/lastmile_qr_scan", "android": "https://dc.lft.to/lastmile_qr_scan"}}, {"name": "e622099615372d040d1996f8bec06027", "type": "electric_scooter", "lat": 38.9073275, "is_reserved": 0, "lon": -77.04163166666666, "fusion_lon": 0.0, "is_disabled": 0, "fusion_lat": 0.0, "bike_id": "e622099615372d040d1996f8bec06027", "rental_uris": {"ios": "https://dc.lft.to/lastmile_qr_scan", "android": "https://dc.lft.to/lastmile_qr_scan"}}, {"name": "71a3ccd17e02be6194b830570f9c0e33", "type": "electric_scooter", "lat": 38.92170733333333, "is_reserved": 0, "lon": -77.04007333333334, "fusion_lon": 0.0, "is_disabled": 0, "fusion_lat": 0.0, "bike_id": "71a3ccd17e02be6194b830570f9c0e33", "rental_uris": {"ios": "https://dc.lft.to/lastmile_qr_scan", "android": "https://dc.lft.to/lastmile_qr_scan"}}, {"name": "ec19029a5460b1716b4495f09ff346e0", "type": "electric_scooter", "lat": 38.901810833333336, "is_reserved": 0, "lon": -77.022172, "fusion_lon": 0.0, "is_disabled": 0, "fusion_lat": 0.0, "bike_id": "ec19029a5460b1716b4495f09ff346e0", "rental_uris": {"ios": "https://dc.lft.to/lastmile_qr_scan", "android": "https://dc.lft.to/lastmile_qr_scan"}}, {"name": "6ef4cace58d8f1e2134a1839fef19b84", "type": "electric_scooter", "lat": 38.924038333333336, "is_reserved": 0, "lon": -77.05250883333333, "fusion_lon": 0.0, "is_disabled": 0, "fusion_lat": 0.0, "bike_id": "6ef4cace58d8f1e2134a1839fef19b84", "rental_uris": {"ios": "https://dc.lft.to/lastmile_qr_scan", "android": "https://dc.lft.to/lastmile_qr_scan"}}, {"name": "b72906b125ec9dafed7703face367d0e", "type": "electric_scooter", "lat": 38.91263383333333, "is_reserved": 0, "lon": -77.03555333333334, "fusion_lon": 0.0, "is_disabled": 0, "fusion_lat": 0.0, "bike_id": "b72906b125ec9dafed7703face367d0e", "rental_uris": {"ios": "https://dc.lft.to/lastmile_qr_scan", "android": "https://dc.lft.to/lastmile_qr_scan"}}, {"name": "6ed717a66cb2ee6bdfcc5432e41efeb4", "type": "electric_scooter", "lat": 38.892234, "is_reserved": 0, "lon": -77.04642733333333, "fusion_lon": 0.0, "is_disabled": 0, "fusion_lat": 0.0, "bike_id": "6ed717a66cb2ee6bdfcc5432e41efeb4", "rental_uris": {"ios": "https://dc.lft.to/lastmile_qr_scan", "android": "https://dc.lft.to/lastmile_qr_scan"}}, {"name": "1c430ca4fcfde203e1f9fab197a09946", "type": "electric_scooter", "lat": 38.9354635, "is_reserved": 0, "lon": -77.03462516666667, "fusion_lon": 0.0, "is_disabled": 0, "fusion_lat": 0.0, "bike_id": "1c430ca4fcfde203e1f9fab197a09946", "rental_uris": {"ios": "https://dc.lft.to/lastmile_qr_scan", "android": "https://dc.lft.to/lastmile_qr_scan"}}, {"name": "a1e6d045bd7272ba3520ef7a50cd6998", "type": "electric_scooter", "lat": 38.934987666666665, "is_reserved": 0, "lon": -77.02721033333333, "fusion_lon": 0.0, "is_disabled": 0, "fusion_lat": 0.0, "bike_id": "a1e6d045bd7272ba3520ef7a50cd6998", "rental_uris": {"ios": "https://dc.lft.to/lastmile_qr_scan", "android": "https://dc.lft.to/lastmile_qr_scan"}}, {"name": "6e4ba35a84ac03c7ab43efd56d627f6d", "type": "electric_scooter", "lat": 38.9110905, "is_reserved": 0, "lon": -77.04229183333334, "fusion_lon": 0.0, "is_disabled": 0, "fusion_lat": 0.0, "bike_id": "6e4ba35a84ac03c7ab43efd56d627f6d", "rental_uris": {"ios": "https://dc.lft.to/lastmile_qr_scan", "android": "https://dc.lft.to/lastmile_qr_scan"}}, {"name": "d6305f224a2802e7e1d050c35b4260be", "type": "electric_scooter", "lat": 38.90330683333333, "is_reserved": 0, "lon": -77.0252055, "fusion_lon": 0.0, "is_disabled": 0, "fusion_lat": 0.0, "bike_id": "d6305f224a2802e7e1d050c35b4260be", "rental_uris": {"ios": "https://dc.lft.to/lastmile_qr_scan", "android": "https://dc.lft.to/lastmile_qr_scan"}}, {"name": "f10981aa38c049bdf1679cd4f7c02a7c", "type": "electric_scooter", "lat": 38.929001, "is_reserved": 0, "lon": -77.02504216666667, "fusion_lon": 0.0, "is_disabled": 0, "fusion_lat": 0.0, "bike_id": "f10981aa38c049bdf1679cd4f7c02a7c", "rental_uris": {"ios": "https://dc.lft.to/lastmile_qr_scan", "android": "https://dc.lft.to/lastmile_qr_scan"}}, {"name": "89d441985071968f3956dbfb09b16a88", "type": "electric_scooter", "lat": 38.92059666666667, "is_reserved": 0, "lon": -77.03395866666666, "fusion_lon": 0.0, "is_disabled": 0, "fusion_lat": 0.0, "bike_id": "89d441985071968f3956dbfb09b16a88", "rental_uris": {"ios": "https://dc.lft.to/lastmile_qr_scan", "android": "https://dc.lft.to/lastmile_qr_scan"}}, {"name": "b28f9caa5e243c5d66dcf4ba7f1246ae", "type": "electric_scooter", "lat": 38.93652133333333, "is_reserved": 0, "lon": -77.036978, "fusion_lon": 0.0, "is_disabled": 0, "fusion_lat": 0.0, "bike_id": "b28f9caa5e243c5d66dcf4ba7f1246ae", "rental_uris": {"ios": "https://dc.lft.to/lastmile_qr_scan", "android": "https://dc.lft.to/lastmile_qr_scan"}}, {"name": "1a198b07950b6a7f243a8a988b90b3a6", "type": "electric_bike", "lat": 38.9228675, "is_reserved": 0, "lon": -77.03663083333333, "fusion_lon": 0.0, "is_disabled": 0, "fusion_lat": 0.0, "bike_id": "1a198b07950b6a7f243a8a988b90b3a6", "rental_uris": {"ios": "https://dc.lft.to/lastmile_qr_scan", "android": "https://dc.lft.to/lastmile_qr_scan"}}, {"name": "af1d5cdc83aa3a2f51ad7b72ff968d56", "type": "electric_scooter", "lat": 38.90031916666667, "is_reserved": 0, "lon": -77.0116485, "fusion_lon": 0.0, "is_disabled": 0, "fusion_lat": 0.0, "bike_id": "af1d5cdc83aa3a2f51ad7b72ff968d56", "rental_uris": {"ios": "https://dc.lft.to/lastmile_qr_scan", "android": "https://dc.lft.to/lastmile_qr_scan"}}, {"name": "073cc273b7cf810025643fef82b57173", "type": "electric_scooter", "lat": 38.8620415, "is_reserved": 0, "lon": -76.99465033333334, "fusion_lon": 0.0, "is_disabled": 0, "fusion_lat": 0.0, "bike_id": "073cc273b7cf810025643fef82b57173", "rental_uris": {"ios": "https://dc.lft.to/lastmile_qr_scan", "android": "https://dc.lft.to/lastmile_qr_scan"}}, {"name": "e6af24bcb8c62aedd5e7e4e17bb08e96", "type": "electric_scooter", "lat": 38.877353666666664, "is_reserved": 0, "lon": -76.97283416666667, "fusion_lon": 0.0, "is_disabled": 0, "fusion_lat": 0.0, "bike_id": "e6af24bcb8c62aedd5e7e4e17bb08e96", "rental_uris": {"ios": "https://dc.lft.to/lastmile_qr_scan", "android": "https://dc.lft.to/lastmile_qr_scan"}}, {"name": "e6685db6325c0496bb49a8573e5e496e", "type": "electric_scooter", "lat": 38.948390833333335, "is_reserved": 0, "lon": -77.02554266666667, "fusion_lon": 0.0, "is_disabled": 0, "fusion_lat": 0.0, "bike_id": "e6685db6325c0496bb49a8573e5e496e", "rental_uris": {"ios": "https://dc.lft.to/lastmile_qr_scan", "android": "https://dc.lft.to/lastmile_qr_scan"}}, {"name": "32e41cbd98bbe124f8c481b6b32507b7", "type": "electric_scooter", "lat": 38.93257783333333, "is_reserved": 0, "lon": -77.0328535, "fusion_lon": 0.0, "is_disabled": 0, "fusion_lat": 0.0, "bike_id": "32e41cbd98bbe124f8c481b6b32507b7", "rental_uris": {"ios": "https://dc.lft.to/lastmile_qr_scan", "android": "https://dc.lft.to/lastmile_qr_scan"}}, {"name": "34e7284dbecb084a64d39ff0fcae17a6", "type": "electric_scooter", "lat": 38.906709666666664, "is_reserved": 0, "lon": -77.03833816666666, "fusion_lon": 0.0, "is_disabled": 0, "fusion_lat": 0.0, "bike_id": "34e7284dbecb084a64d39ff0fcae17a6", "rental_uris": {"ios": "https://dc.lft.to/lastmile_qr_scan", "android": "https://dc.lft.to/lastmile_qr_scan"}}, {"name": "0d23746fdceff08952702d8dbace1c4e", "type": "electric_scooter", "lat": 38.866623, "is_reserved": 0, "lon": -76.98882683333333, "fusion_lon": 0.0, "is_disabled": 0, "fusion_lat": 0.0, "bike_id": "0d23746fdceff08952702d8dbace1c4e", "rental_uris": {"ios": "https://dc.lft.to/lastmile_qr_scan", "android": "https://dc.lft.to/lastmile_qr_scan"}}, {"name": "f36d8be978cd5a17aa22dcc6e76e532c", "type": "electric_scooter", "lat": 38.9268765, "is_reserved": 0, "lon": -77.0278235, "fusion_lon": 0.0, "is_disabled": 0, "fusion_lat": 0.0, "bike_id": "f36d8be978cd5a17aa22dcc6e76e532c", "rental_uris": {"ios": "https://dc.lft.to/lastmile_qr_scan", "android": "https://dc.lft.to/lastmile_qr_scan"}}, {"name": "e5a5e95e62eaa30e4458c5a684259b3a", "type": "electric_scooter", "lat": 38.865269166666664, "is_reserved": 0, "lon": -76.99024566666667, "fusion_lon": 0.0, "is_disabled": 0, "fusion_lat": 0.0, "bike_id": "e5a5e95e62eaa30e4458c5a684259b3a", "rental_uris": {"ios": "https://dc.lft.to/lastmile_qr_scan", "android": "https://dc.lft.to/lastmile_qr_scan"}}, {"name": "182d85dd5dc9c9bac3d7c99ce5c1595a", "type": "electric_scooter", "lat": 38.893986166666664, "is_reserved": 0, "lon": -77.02995116666666, "fusion_lon": 0.0, "is_disabled": 0, "fusion_lat": 0.0, "bike_id": "182d85dd5dc9c9bac3d7c99ce5c1595a", "rental_uris": {"ios": "https://dc.lft.to/lastmile_qr_scan", "android": "https://dc.lft.to/lastmile_qr_scan"}}, {"name": "5da65231714106fa041db1ef8af7a6ff", "type": "electric_scooter", "lat": 38.911129333333335, "is_reserved": 0, "lon": -77.038309, "fusion_lon": 0.0, "is_disabled": 0, "fusion_lat": 0.0, "bike_id": "5da65231714106fa041db1ef8af7a6ff", "rental_uris": {"ios": "https://dc.lft.to/lastmile_qr_scan", "android": "https://dc.lft.to/lastmile_qr_scan"}}, {"name": "b3c5fa86d0d866e50478385cce65a679", "type": "electric_scooter", "lat": 38.92477933333333, "is_reserved": 0, "lon": -77.03480283333333, "fusion_lon": 0.0, "is_disabled": 0, "fusion_lat": 0.0, "bike_id": "b3c5fa86d0d866e50478385cce65a679", "rental_uris": {"ios": "https://dc.lft.to/lastmile_qr_scan", "android": "https://dc.lft.to/lastmile_qr_scan"}}, {"name": "a1976c74c499d16c7554b57ac355ecfa", "type": "electric_bike", "lat": 38.9527315, "is_reserved": 0, "lon": -77.06979933333334, "fusion_lon": 0.0, "is_disabled": 0, "fusion_lat": 0.0, "bike_id": "a1976c74c499d16c7554b57ac355ecfa", "rental_uris": {"ios": "https://dc.lft.to/lastmile_qr_scan", "android": "https://dc.lft.to/lastmile_qr_scan"}}, {"name": "e1a9e080b28392ad9206f0168437294a", "type": "electric_scooter", "lat": 38.927386166666665, "is_reserved": 0, "lon": -77.03262933333333, "fusion_lon": 0.0, "is_disabled": 0, "fusion_lat": 0.0, "bike_id": "e1a9e080b28392ad9206f0168437294a", "rental_uris": {"ios": "https://dc.lft.to/lastmile_qr_scan", "android": "https://dc.lft.to/lastmile_qr_scan"}}, {"name": "b835c346b7a9f263af811af34f129c86", "type": "electric_scooter", "lat": 38.886081833333336, "is_reserved": 0, "lon": -76.99511933333334, "fusion_lon": 0.0, "is_disabled": 0, "fusion_lat": 0.0, "bike_id": "b835c346b7a9f263af811af34f129c86", "rental_uris": {"ios": "https://dc.lft.to/lastmile_qr_scan", "android": "https://dc.lft.to/lastmile_qr_scan"}}, {"name": "3696f837e0d91d5b0ce775ee0b070a92", "type": "electric_scooter", "lat": 38.92512883333333, "is_reserved": 0, "lon": -77.01937133333334, "fusion_lon": 0.0, "is_disabled": 0, "fusion_lat": 0.0, "bike_id": "3696f837e0d91d5b0ce775ee0b070a92", "rental_uris": {"ios": "https://dc.lft.to/lastmile_qr_scan", "android": "https://dc.lft.to/lastmile_qr_scan"}}, {"name": "892da0452d67b91a4c62776ca90dd4b1", "type": "electric_bike", "lat": 38.862813833333334, "is_reserved": 0, "lon": -77.063363, "fusion_lon": 0.0, "is_disabled": 0, "fusion_lat": 0.0, "bike_id": "892da0452d67b91a4c62776ca90dd4b1", "rental_uris": {"ios": "https://dc.lft.to/lastmile_qr_scan", "android": "https://dc.lft.to/lastmile_qr_scan"}}, {"name": "2c21c6506b236362c42358fa5dcafb28", "type": "electric_scooter", "lat": 38.9111265, "is_reserved": 0, "lon": -77.0139095, "fusion_lon": 0.0, "is_disabled": 0, "fusion_lat": 0.0, "bike_id": "2c21c6506b236362c42358fa5dcafb28", "rental_uris": {"ios": "https://dc.lft.to/lastmile_qr_scan", "android": "https://dc.lft.to/lastmile_qr_scan"}}, {"name": "f3ed57797b35667bf752966014189a61", "type": "electric_scooter", "lat": 38.92154433333333, "is_reserved": 0, "lon": -77.033886, "fusion_lon": 0.0, "is_disabled": 0, "fusion_lat": 0.0, "bike_id": "f3ed57797b35667bf752966014189a61", "rental_uris": {"ios": "https://dc.lft.to/lastmile_qr_scan", "android": "https://dc.lft.to/lastmile_qr_scan"}}, {"name": "20d92b7cffc6316f3497a104f2baef99", "type": "electric_scooter", "lat": 38.86373866666667, "is_reserved": 0, "lon": -76.990608, "fusion_lon": 0.0, "is_disabled": 0, "fusion_lat": 0.0, "bike_id": "20d92b7cffc6316f3497a104f2baef99", "rental_uris": {"ios": "https://dc.lft.to/lastmile_qr_scan", "android": "https://dc.lft.to/lastmile_qr_scan"}}, {"name": "fee5728852cc9c1e3e2c079718f0d287", "type": "electric_scooter", "lat": 38.91995883333333, "is_reserved": 0, "lon": -77.03876333333334, "fusion_lon": 0.0, "is_disabled": 0, "fusion_lat": 0.0, "bike_id": "fee5728852cc9c1e3e2c079718f0d287", "rental_uris": {"ios": "https://dc.lft.to/lastmile_qr_scan", "android": "https://dc.lft.to/lastmile_qr_scan"}}, {"name": "048b8e0cdf9b86bfb135351b179d1bc5", "type": "electric_scooter", "lat": 38.899954666666666, "is_reserved": 0, "lon": -76.99508433333334, "fusion_lon": 0.0, "is_disabled": 0, "fusion_lat": 0.0, "bike_id": "048b8e0cdf9b86bfb135351b179d1bc5", "rental_uris": {"ios": "https://dc.lft.to/lastmile_qr_scan", "android": "https://dc.lft.to/lastmile_qr_scan"}}, {"name": "56394ce237deb193d336c2991574c2e3", "type": "electric_scooter", "lat": 38.907290833333334, "is_reserved": 0, "lon": -77.0343995, "fusion_lon": 0.0, "is_disabled": 0, "fusion_lat": 0.0, "bike_id": "56394ce237deb193d336c2991574c2e3", "rental_uris": {"ios": "https://dc.lft.to/lastmile_qr_scan", "android": "https://dc.lft.to/lastmile_qr_scan"}}, {"name": "1d1bb52ca586be63c62a99f80143ab59", "type": "electric_bike", "lat": 38.94509933333333, "is_reserved": 0, "lon": -77.0067095, "fusion_lon": 0.0, "is_disabled": 0, "fusion_lat": 0.0, "bike_id": "1d1bb52ca586be63c62a99f80143ab59", "rental_uris": {"ios": "https://dc.lft.to/lastmile_qr_scan", "android": "https://dc.lft.to/lastmile_qr_scan"}}, {"name": "aaaf194d86404669c116ec7e806e98f8", "type": "electric_scooter", "lat": 38.91758166666666, "is_reserved": 0, "lon": -77.0396415, "fusion_lon": 0.0, "is_disabled": 0, "fusion_lat": 0.0, "bike_id": "aaaf194d86404669c116ec7e806e98f8", "rental_uris": {"ios": "https://dc.lft.to/lastmile_qr_scan", "android": "https://dc.lft.to/lastmile_qr_scan"}}, {"name": "18f12d8566f7e54f6888020b3cb1f721", "type": "electric_scooter", "lat": 38.90558766666667, "is_reserved": 0, "lon": -77.02174416666666, "fusion_lon": 0.0, "is_disabled": 0, "fusion_lat": 0.0, "bike_id": "18f12d8566f7e54f6888020b3cb1f721", "rental_uris": {"ios": "https://dc.lft.to/lastmile_qr_scan", "android": "https://dc.lft.to/lastmile_qr_scan"}}, {"name": "4c6e18e38eb256e0186b8b44c76fd3cc", "type": "electric_scooter", "lat": 38.86418116666667, "is_reserved": 0, "lon": -76.980466, "fusion_lon": 0.0, "is_disabled": 0, "fusion_lat": 0.0, "bike_id": "4c6e18e38eb256e0186b8b44c76fd3cc", "rental_uris": {"ios": "https://dc.lft.to/lastmile_qr_scan", "android": "https://dc.lft.to/lastmile_qr_scan"}}, {"name": "3ddcaba4e1428b23ff8680642e3cda73", "type": "electric_scooter", "lat": 38.90143783333333, "is_reserved": 0, "lon": -77.033279, "fusion_lon": 0.0, "is_disabled": 0, "fusion_lat": 0.0, "bike_id": "3ddcaba4e1428b23ff8680642e3cda73", "rental_uris": {"ios": "https://dc.lft.to/lastmile_qr_scan", "android": "https://dc.lft.to/lastmile_qr_scan"}}, {"name": "cce0d2aa6d124ba21a1456b545ea9e86", "type": "electric_scooter", "lat": 38.91679, "is_reserved": 0, "lon": -77.03686916666666, "fusion_lon": 0.0, "is_disabled": 0, "fusion_lat": 0.0, "bike_id": "cce0d2aa6d124ba21a1456b545ea9e86", "rental_uris": {"ios": "https://dc.lft.to/lastmile_qr_scan", "android": "https://dc.lft.to/lastmile_qr_scan"}}, {"name": "2ac1b186bf7f23f1d46582980e83fa74", "type": "electric_scooter", "lat": 38.93049766666667, "is_reserved": 0, "lon": -77.0278665, "fusion_lon": 0.0, "is_disabled": 0, "fusion_lat": 0.0, "bike_id": "2ac1b186bf7f23f1d46582980e83fa74", "rental_uris": {"ios": "https://dc.lft.to/lastmile_qr_scan", "android": "https://dc.lft.to/lastmile_qr_scan"}}, {"name": "74fca9383e2cefc59f4c8560cef18ad6", "type": "electric_scooter", "lat": 38.927101, "is_reserved": 0, "lon": -77.02291216666667, "fusion_lon": 0.0, "is_disabled": 0, "fusion_lat": 0.0, "bike_id": "74fca9383e2cefc59f4c8560cef18ad6", "rental_uris": {"ios": "https://dc.lft.to/lastmile_qr_scan", "android": "https://dc.lft.to/lastmile_qr_scan"}}, {"name": "27163f70f33566dc086e04d618fcaae0", "type": "electric_scooter", "lat": 38.92447383333333, "is_reserved": 0, "lon": -77.03368966666666, "fusion_lon": 0.0, "is_disabled": 0, "fusion_lat": 0.0, "bike_id": "27163f70f33566dc086e04d618fcaae0", "rental_uris": {"ios": "https://dc.lft.to/lastmile_qr_scan", "android": "https://dc.lft.to/lastmile_qr_scan"}}, {"name": "e9d5ad6ca587368bb74156dbf16a4c3d", "type": "electric_scooter", "lat": 38.972359166666664, "is_reserved": 0, "lon": -77.0271215, "fusion_lon": 0.0, "is_disabled": 0, "fusion_lat": 0.0, "bike_id": "e9d5ad6ca587368bb74156dbf16a4c3d", "rental_uris": {"ios": "https://dc.lft.to/lastmile_qr_scan", "android": "https://dc.lft.to/lastmile_qr_scan"}}, {"name": "93002cb80a26affd697a99f417da8f80", "type": "electric_scooter", "lat": 38.924495666666665, "is_reserved": 0, "lon": -77.02035066666667, "fusion_lon": 0.0, "is_disabled": 0, "fusion_lat": 0.0, "bike_id": "93002cb80a26affd697a99f417da8f80", "rental_uris": {"ios": "https://dc.lft.to/lastmile_qr_scan", "android": "https://dc.lft.to/lastmile_qr_scan"}}, {"name": "898461f9fa1fdaf3cf9e442452961bb3", "type": "electric_scooter", "lat": 38.94094916666667, "is_reserved": 0, "lon": -77.03281033333333, "fusion_lon": 0.0, "is_disabled": 0, "fusion_lat": 0.0, "bike_id": "898461f9fa1fdaf3cf9e442452961bb3", "rental_uris": {"ios": "https://dc.lft.to/lastmile_qr_scan", "android": "https://dc.lft.to/lastmile_qr_scan"}}, {"name": "cc0190a2d57302212f54c79c4cc8f79d", "type": "electric_scooter", "lat": 38.85527483333333, "is_reserved": 0, "lon": -76.96919066666666, "fusion_lon": 0.0, "is_disabled": 0, "fusion_lat": 0.0, "bike_id": "cc0190a2d57302212f54c79c4cc8f79d", "rental_uris": {"ios": "https://dc.lft.to/lastmile_qr_scan", "android": "https://dc.lft.to/lastmile_qr_scan"}}, {"name": "c92158e7ecf6a80c490e9ba1b672ee95", "type": "electric_scooter", "lat": 38.89402416666667, "is_reserved": 0, "lon": -76.94802766666666, "fusion_lon": 0.0, "is_disabled": 0, "fusion_lat": 0.0, "bike_id": "c92158e7ecf6a80c490e9ba1b672ee95", "rental_uris": {"ios": "https://dc.lft.to/lastmile_qr_scan", "android": "https://dc.lft.to/lastmile_qr_scan"}}, {"name": "744e8b2be75f8619f603bdebee96d514", "type": "electric_scooter", "lat": 38.90981283333333, "is_reserved": 0, "lon": -77.01124016666667, "fusion_lon": 0.0, "is_disabled": 0, "fusion_lat": 0.0, "bike_id": "744e8b2be75f8619f603bdebee96d514", "rental_uris": {"ios": "https://dc.lft.to/lastmile_qr_scan", "android": "https://dc.lft.to/lastmile_qr_scan"}}, {"name": "9b098e41271732bdc31939c246671c90", "type": "electric_scooter", "lat": 38.9058515, "is_reserved": 0, "lon": -77.065195, "fusion_lon": 0.0, "is_disabled": 0, "fusion_lat": 0.0, "bike_id": "9b098e41271732bdc31939c246671c90", "rental_uris": {"ios": "https://dc.lft.to/lastmile_qr_scan", "android": "https://dc.lft.to/lastmile_qr_scan"}}, {"name": "3f4f39d1681b560701abe1a8fb0d75a0", "type": "electric_scooter", "lat": 38.91850216666667, "is_reserved": 0, "lon": -76.965565, "fusion_lon": 0.0, "is_disabled": 0, "fusion_lat": 0.0, "bike_id": "3f4f39d1681b560701abe1a8fb0d75a0", "rental_uris": {"ios": "https://dc.lft.to/lastmile_qr_scan", "android": "https://dc.lft.to/lastmile_qr_scan"}}, {"name": "589428b4941a5e88aa81acd83168d029", "type": "electric_scooter", "lat": 38.92631133333333, "is_reserved": 0, "lon": -77.03512383333333, "fusion_lon": 0.0, "is_disabled": 0, "fusion_lat": 0.0, "bike_id": "589428b4941a5e88aa81acd83168d029", "rental_uris": {"ios": "https://dc.lft.to/lastmile_qr_scan", "android": "https://dc.lft.to/lastmile_qr_scan"}}, {"name": "4756f3d1038cfefe0481cc967c883575", "type": "electric_scooter", "lat": 38.920551, "is_reserved": 0, "lon": -77.02979316666666, "fusion_lon": 0.0, "is_disabled": 0, "fusion_lat": 0.0, "bike_id": "4756f3d1038cfefe0481cc967c883575", "rental_uris": {"ios": "https://dc.lft.to/lastmile_qr_scan", "android": "https://dc.lft.to/lastmile_qr_scan"}}, {"name": "bcbadce64b946a138be2995a25369755", "type": "electric_scooter", "lat": 38.90971833333333, "is_reserved": 0, "lon": -77.017142, "fusion_lon": 0.0, "is_disabled": 0, "fusion_lat": 0.0, "bike_id": "bcbadce64b946a138be2995a25369755", "rental_uris": {"ios": "https://dc.lft.to/lastmile_qr_scan", "android": "https://dc.lft.to/lastmile_qr_scan"}}, {"name": "76f8074996a3d8ce6c02294b8eee3148", "type": "electric_scooter", "lat": 38.91974866666666, "is_reserved": 0, "lon": -77.00106816666667, "fusion_lon": 0.0, "is_disabled": 0, "fusion_lat": 0.0, "bike_id": "76f8074996a3d8ce6c02294b8eee3148", "rental_uris": {"ios": "https://dc.lft.to/lastmile_qr_scan", "android": "https://dc.lft.to/lastmile_qr_scan"}}, {"name": "f872277c09d033e7a0d14cefcaa14014", "type": "electric_scooter", "lat": 38.90589133333334, "is_reserved": 0, "lon": -77.0652915, "fusion_lon": 0.0, "is_disabled": 0, "fusion_lat": 0.0, "bike_id": "f872277c09d033e7a0d14cefcaa14014", "rental_uris": {"ios": "https://dc.lft.to/lastmile_qr_scan", "android": "https://dc.lft.to/lastmile_qr_scan"}}, {"name": "51f3483c70ae5b3b0f0bb9e5f39147d5", "type": "electric_bike", "lat": 38.95533566666667, "is_reserved": 0, "lon": -77.02296316666667, "fusion_lon": 0.0, "is_disabled": 0, "fusion_lat": 0.0, "bike_id": "51f3483c70ae5b3b0f0bb9e5f39147d5", "rental_uris": {"ios": "https://dc.lft.to/lastmile_qr_scan", "android": "https://dc.lft.to/lastmile_qr_scan"}}, {"name": "06f08d7f489c000219fff94482614415", "type": "electric_scooter", "lat": 38.923469, "is_reserved": 0, "lon": -77.01913383333333, "fusion_lon": 0.0, "is_disabled": 0, "fusion_lat": 0.0, "bike_id": "06f08d7f489c000219fff94482614415", "rental_uris": {"ios": "https://dc.lft.to/lastmile_qr_scan", "android": "https://dc.lft.to/lastmile_qr_scan"}}, {"name": "bc55b9eac60d00297333e05dc124e864", "type": "electric_scooter", "lat": 38.905104333333334, "is_reserved": 0, "lon": -77.0638615, "fusion_lon": 0.0, "is_disabled": 0, "fusion_lat": 0.0, "bike_id": "bc55b9eac60d00297333e05dc124e864", "rental_uris": {"ios": "https://dc.lft.to/lastmile_qr_scan", "android": "https://dc.lft.to/lastmile_qr_scan"}}, {"name": "914234470a9e5571e1a1e5794eb8cddf", "type": "electric_scooter", "lat": 38.9027025, "is_reserved": 0, "lon": -77.01770433333333, "fusion_lon": 0.0, "is_disabled": 0, "fusion_lat": 0.0, "bike_id": "914234470a9e5571e1a1e5794eb8cddf", "rental_uris": {"ios": "https://dc.lft.to/lastmile_qr_scan", "android": "https://dc.lft.to/lastmile_qr_scan"}}, {"name": "2b7cf6951af89de7749ec57cc83d264e", "type": "electric_scooter", "lat": 38.90727733333333, "is_reserved": 0, "lon": -77.01132666666666, "fusion_lon": 0.0, "is_disabled": 0, "fusion_lat": 0.0, "bike_id": "2b7cf6951af89de7749ec57cc83d264e", "rental_uris": {"ios": "https://dc.lft.to/lastmile_qr_scan", "android": "https://dc.lft.to/lastmile_qr_scan"}}, {"name": "fb9a45484938e49f945c7f874dd89b77", "type": "electric_scooter", "lat": 38.921601333333335, "is_reserved": 0, "lon": -77.03383716666667, "fusion_lon": 0.0, "is_disabled": 0, "fusion_lat": 0.0, "bike_id": "fb9a45484938e49f945c7f874dd89b77", "rental_uris": {"ios": "https://dc.lft.to/lastmile_qr_scan", "android": "https://dc.lft.to/lastmile_qr_scan"}}, {"name": "28647a7b5dfed9a2c76203576c04e2fb", "type": "electric_scooter", "lat": 38.9083475, "is_reserved": 0, "lon": -77.04341266666667, "fusion_lon": 0.0, "is_disabled": 0, "fusion_lat": 0.0, "bike_id": "28647a7b5dfed9a2c76203576c04e2fb", "rental_uris": {"ios": "https://dc.lft.to/lastmile_qr_scan", "android": "https://dc.lft.to/lastmile_qr_scan"}}, {"name": "47d2d04226b1cdb4670d613cd532f649", "type": "electric_scooter", "lat": 38.882213666666665, "is_reserved": 0, "lon": -76.94177816666667, "fusion_lon": 0.0, "is_disabled": 0, "fusion_lat": 0.0, "bike_id": "47d2d04226b1cdb4670d613cd532f649", "rental_uris": {"ios": "https://dc.lft.to/lastmile_qr_scan", "android": "https://dc.lft.to/lastmile_qr_scan"}}, {"name": "ec110b4561e35081816e78dad4e03b04", "type": "electric_scooter", "lat": 38.886131666666664, "is_reserved": 0, "lon": -76.99513483333334, "fusion_lon": 0.0, "is_disabled": 0, "fusion_lat": 0.0, "bike_id": "ec110b4561e35081816e78dad4e03b04", "rental_uris": {"ios": "https://dc.lft.to/lastmile_qr_scan", "android": "https://dc.lft.to/lastmile_qr_scan"}}, {"name": "cd0851b3de509767311e4b8f332047d6", "type": "electric_scooter", "lat": 38.903316, "is_reserved": 0, "lon": -76.98970933333334, "fusion_lon": 0.0, "is_disabled": 0, "fusion_lat": 0.0, "bike_id": "cd0851b3de509767311e4b8f332047d6", "rental_uris": {"ios": "https://dc.lft.to/lastmile_qr_scan", "android": "https://dc.lft.to/lastmile_qr_scan"}}, {"name": "bf2b63694eb0f2c393b0f099019a8ae8", "type": "electric_scooter", "lat": 38.9221105, "is_reserved": 0, "lon": -77.04237983333333, "fusion_lon": 0.0, "is_disabled": 0, "fusion_lat": 0.0, "bike_id": "bf2b63694eb0f2c393b0f099019a8ae8", "rental_uris": {"ios": "https://dc.lft.to/lastmile_qr_scan", "android": "https://dc.lft.to/lastmile_qr_scan"}}, {"name": "d8cfd88157e112578282addc4296ecb1", "type": "electric_scooter", "lat": 38.90280533333333, "is_reserved": 0, "lon": -77.03172716666667, "fusion_lon": 0.0, "is_disabled": 0, "fusion_lat": 0.0, "bike_id": "d8cfd88157e112578282addc4296ecb1", "rental_uris": {"ios": "https://dc.lft.to/lastmile_qr_scan", "android": "https://dc.lft.to/lastmile_qr_scan"}}, {"name": "331b57b7e1f54383652d282bab055e90", "type": "electric_scooter", "lat": 38.9056725, "is_reserved": 0, "lon": -77.0058695, "fusion_lon": 0.0, "is_disabled": 0, "fusion_lat": 0.0, "bike_id": "331b57b7e1f54383652d282bab055e90", "rental_uris": {"ios": "https://dc.lft.to/lastmile_qr_scan", "android": "https://dc.lft.to/lastmile_qr_scan"}}, {"name": "9481c4471d229ca30f53f67c44b3daf4", "type": "electric_scooter", "lat": 38.93907083333333, "is_reserved": 0, "lon": -77.07725216666667, "fusion_lon": 0.0, "is_disabled": 0, "fusion_lat": 0.0, "bike_id": "9481c4471d229ca30f53f67c44b3daf4", "rental_uris": {"ios": "https://dc.lft.to/lastmile_qr_scan", "android": "https://dc.lft.to/lastmile_qr_scan"}}, {"name": "4ea9e43f4da84221bfd60209f7a8abc2", "type": "electric_scooter", "lat": 38.934864166666664, "is_reserved": 0, "lon": -77.03285066666666, "fusion_lon": 0.0, "is_disabled": 0, "fusion_lat": 0.0, "bike_id": "4ea9e43f4da84221bfd60209f7a8abc2", "rental_uris": {"ios": "https://dc.lft.to/lastmile_qr_scan", "android": "https://dc.lft.to/lastmile_qr_scan"}}, {"name": "9735eb276bdfab901ee0b87e8df26b47", "type": "electric_scooter", "lat": 38.91217183333333, "is_reserved": 0, "lon": -77.07588033333333, "fusion_lon": 0.0, "is_disabled": 0, "fusion_lat": 0.0, "bike_id": "9735eb276bdfab901ee0b87e8df26b47", "rental_uris": {"ios": "https://dc.lft.to/lastmile_qr_scan", "android": "https://dc.lft.to/lastmile_qr_scan"}}, {"name": "d33e8aff586141b4fdf5451e97a6a24c", "type": "electric_scooter", "lat": 38.933764333333336, "is_reserved": 0, "lon": -77.034649, "fusion_lon": 0.0, "is_disabled": 0, "fusion_lat": 0.0, "bike_id": "d33e8aff586141b4fdf5451e97a6a24c", "rental_uris": {"ios": "https://dc.lft.to/lastmile_qr_scan", "android": "https://dc.lft.to/lastmile_qr_scan"}}, {"name": "6715eac43b4bf8af1895e9792ab4ca09", "type": "electric_scooter", "lat": 38.881344, "is_reserved": 0, "lon": -77.0167365, "fusion_lon": 0.0, "is_disabled": 0, "fusion_lat": 0.0, "bike_id": "6715eac43b4bf8af1895e9792ab4ca09", "rental_uris": {"ios": "https://dc.lft.to/lastmile_qr_scan", "android": "https://dc.lft.to/lastmile_qr_scan"}}, {"name": "adc564b809ef146eaefcd3ac3058c0db", "type": "electric_bike", "lat": 38.948329333333334, "is_reserved": 0, "lon": -77.039045, "fusion_lon": 0.0, "is_disabled": 0, "fusion_lat": 0.0, "bike_id": "adc564b809ef146eaefcd3ac3058c0db", "rental_uris": {"ios": "https://dc.lft.to/lastmile_qr_scan", "android": "https://dc.lft.to/lastmile_qr_scan"}}, {"name": "c908e207f4b2a7bc242ca2a40eb697cc", "type": "electric_scooter", "lat": 38.912129166666666, "is_reserved": 0, "lon": -77.04483616666667, "fusion_lon": 0.0, "is_disabled": 0, "fusion_lat": 0.0, "bike_id": "c908e207f4b2a7bc242ca2a40eb697cc", "rental_uris": {"ios": "https://dc.lft.to/lastmile_qr_scan", "android": "https://dc.lft.to/lastmile_qr_scan"}}, {"name": "aca19aff31f759d112b6e053b7cca892", "type": "electric_scooter", "lat": 38.9273425, "is_reserved": 0, "lon": -77.0298, "fusion_lon": 0.0, "is_disabled": 0, "fusion_lat": 0.0, "bike_id": "aca19aff31f759d112b6e053b7cca892", "rental_uris": {"ios": "https://dc.lft.to/lastmile_qr_scan", "android": "https://dc.lft.to/lastmile_qr_scan"}}, {"name": "53b184e86e8334e4377f7c7f6691e4d6", "type": "electric_scooter", "lat": 38.89472383333333, "is_reserved": 0, "lon": -77.03069183333334, "fusion_lon": 0.0, "is_disabled": 0, "fusion_lat": 0.0, "bike_id": "53b184e86e8334e4377f7c7f6691e4d6", "rental_uris": {"ios": "https://dc.lft.to/lastmile_qr_scan", "android": "https://dc.lft.to/lastmile_qr_scan"}}, {"name": "5a7d36df3d406f49eeceeb381a7826b7", "type": "electric_scooter", "lat": 38.9003705, "is_reserved": 0, "lon": -76.98842, "fusion_lon": 0.0, "is_disabled": 0, "fusion_lat": 0.0, "bike_id": "5a7d36df3d406f49eeceeb381a7826b7", "rental_uris": {"ios": "https://dc.lft.to/lastmile_qr_scan", "android": "https://dc.lft.to/lastmile_qr_scan"}}, {"name": "264302f5cc0afbbba8229307aa448ceb", "type": "electric_scooter", "lat": 38.86246383333334, "is_reserved": 0, "lon": -76.99498166666666, "fusion_lon": 0.0, "is_disabled": 0, "fusion_lat": 0.0, "bike_id": "264302f5cc0afbbba8229307aa448ceb", "rental_uris": {"ios": "https://dc.lft.to/lastmile_qr_scan", "android": "https://dc.lft.to/lastmile_qr_scan"}}, {"name": "4d9760fa44dc2c4a0fb1b6f46e6308ad", "type": "electric_scooter", "lat": 38.8442525, "is_reserved": 0, "lon": -76.99778283333333, "fusion_lon": 0.0, "is_disabled": 0, "fusion_lat": 0.0, "bike_id": "4d9760fa44dc2c4a0fb1b6f46e6308ad", "rental_uris": {"ios": "https://dc.lft.to/lastmile_qr_scan", "android": "https://dc.lft.to/lastmile_qr_scan"}}, {"name": "2ffa8be069148d4e676a1bc18bfebce9", "type": "electric_scooter", "lat": 38.914081, "is_reserved": 0, "lon": -77.03909283333333, "fusion_lon": 0.0, "is_disabled": 0, "fusion_lat": 0.0, "bike_id": "2ffa8be069148d4e676a1bc18bfebce9", "rental_uris": {"ios": "https://dc.lft.to/lastmile_qr_scan", "android": "https://dc.lft.to/lastmile_qr_scan"}}, {"name": "ceac455e69ea96907af44629317e4b87", "type": "electric_scooter", "lat": 38.91594883333333, "is_reserved": 0, "lon": -76.983865, "fusion_lon": 0.0, "is_disabled": 0, "fusion_lat": 0.0, "bike_id": "ceac455e69ea96907af44629317e4b87", "rental_uris": {"ios": "https://dc.lft.to/lastmile_qr_scan", "android": "https://dc.lft.to/lastmile_qr_scan"}}, {"name": "76418c1015711ada98684292498fcf0d", "type": "electric_scooter", "lat": 38.93528083333333, "is_reserved": 0, "lon": -77.05816816666666, "fusion_lon": 0.0, "is_disabled": 0, "fusion_lat": 0.0, "bike_id": "76418c1015711ada98684292498fcf0d", "rental_uris": {"ios": "https://dc.lft.to/lastmile_qr_scan", "android": "https://dc.lft.to/lastmile_qr_scan"}}, {"name": "df3fa25b872c83b6f9cc8428bb29b800", "type": "electric_scooter", "lat": 38.895075, "is_reserved": 0, "lon": -77.00336333333334, "fusion_lon": 0.0, "is_disabled": 0, "fusion_lat": 0.0, "bike_id": "df3fa25b872c83b6f9cc8428bb29b800", "rental_uris": {"ios": "https://dc.lft.to/lastmile_qr_scan", "android": "https://dc.lft.to/lastmile_qr_scan"}}, {"name": "58ddb1dfd057b389aa76189cd2b56b13", "type": "electric_scooter", "lat": 38.87197916666667, "is_reserved": 0, "lon": -77.005768, "fusion_lon": 0.0, "is_disabled": 0, "fusion_lat": 0.0, "bike_id": "58ddb1dfd057b389aa76189cd2b56b13", "rental_uris": {"ios": "https://dc.lft.to/lastmile_qr_scan", "android": "https://dc.lft.to/lastmile_qr_scan"}}, {"name": "3d4fd24bb54bcd078737d0eb7a3a1234", "type": "electric_scooter", "lat": 38.923866, "is_reserved": 0, "lon": -77.0319765, "fusion_lon": 0.0, "is_disabled": 0, "fusion_lat": 0.0, "bike_id": "3d4fd24bb54bcd078737d0eb7a3a1234", "rental_uris": {"ios": "https://dc.lft.to/lastmile_qr_scan", "android": "https://dc.lft.to/lastmile_qr_scan"}}, {"name": "39d15aba4af23e117bb0105c09f0f851", "type": "electric_bike", "lat": 38.961806833333334, "is_reserved": 0, "lon": -77.07372283333333, "fusion_lon": 0.0, "is_disabled": 0, "fusion_lat": 0.0, "bike_id": "39d15aba4af23e117bb0105c09f0f851", "rental_uris": {"ios": "https://dc.lft.to/lastmile_qr_scan", "android": "https://dc.lft.to/lastmile_qr_scan"}}, {"name": "fc165c1477107f152909c09b82b9fbf3", "type": "electric_scooter", "lat": 38.898864, "is_reserved": 0, "lon": -76.93177466666667, "fusion_lon": 0.0, "is_disabled": 0, "fusion_lat": 0.0, "bike_id": "fc165c1477107f152909c09b82b9fbf3", "rental_uris": {"ios": "https://dc.lft.to/lastmile_qr_scan", "android": "https://dc.lft.to/lastmile_qr_scan"}}, {"name": "c5b1585e3c55f53155e4075acb3fc7c5", "type": "electric_bike", "lat": 38.855153, "is_reserved": 0, "lon": -77.11161033333333, "fusion_lon": 0.0, "is_disabled": 0, "fusion_lat": 0.0, "bike_id": "c5b1585e3c55f53155e4075acb3fc7c5", "rental_uris": {"ios": "https://dc.lft.to/lastmile_qr_scan", "android": "https://dc.lft.to/lastmile_qr_scan"}}, {"name": "9eef99601d415099942b95985e0ba26d", "type": "electric_scooter", "lat": 38.9156885, "is_reserved": 0, "lon": -77.0218495, "fusion_lon": 0.0, "is_disabled": 0, "fusion_lat": 0.0, "bike_id": "9eef99601d415099942b95985e0ba26d", "rental_uris": {"ios": "https://dc.lft.to/lastmile_qr_scan", "android": "https://dc.lft.to/lastmile_qr_scan"}}, {"name": "077e4c66c13010a593504a81a101b665", "type": "electric_bike", "lat": 38.898192333333334, "is_reserved": 0, "lon": -77.0059775, "fusion_lon": 0.0, "is_disabled": 0, "fusion_lat": 0.0, "bike_id": "077e4c66c13010a593504a81a101b665", "rental_uris": {"ios": "https://dc.lft.to/lastmile_qr_scan", "android": "https://dc.lft.to/lastmile_qr_scan"}}, {"name": "245882a67409d9440e89b591513def00", "type": "electric_scooter", "lat": 38.934809666666666, "is_reserved": 0, "lon": -77.03283266666666, "fusion_lon": 0.0, "is_disabled": 0, "fusion_lat": 0.0, "bike_id": "245882a67409d9440e89b591513def00", "rental_uris": {"ios": "https://dc.lft.to/lastmile_qr_scan", "android": "https://dc.lft.to/lastmile_qr_scan"}}, {"name": "56286e60e6e42ced64259ff83b300c23", "type": "electric_scooter", "lat": 38.91687783333333, "is_reserved": 0, "lon": -77.00927966666667, "fusion_lon": 0.0, "is_disabled": 0, "fusion_lat": 0.0, "bike_id": "56286e60e6e42ced64259ff83b300c23", "rental_uris": {"ios": "https://dc.lft.to/lastmile_qr_scan", "android": "https://dc.lft.to/lastmile_qr_scan"}}, {"name": "48ae6666aaecd0a729533c0d314fbc8b", "type": "electric_scooter", "lat": 38.9171595, "is_reserved": 0, "lon": -77.03856866666666, "fusion_lon": 0.0, "is_disabled": 0, "fusion_lat": 0.0, "bike_id": "48ae6666aaecd0a729533c0d314fbc8b", "rental_uris": {"ios": "https://dc.lft.to/lastmile_qr_scan", "android": "https://dc.lft.to/lastmile_qr_scan"}}, {"name": "42d603bec14c752112e8a3519e517472", "type": "electric_scooter", "lat": 38.896334833333334, "is_reserved": 0, "lon": -77.027367, "fusion_lon": 0.0, "is_disabled": 0, "fusion_lat": 0.0, "bike_id": "42d603bec14c752112e8a3519e517472", "rental_uris": {"ios": "https://dc.lft.to/lastmile_qr_scan", "android": "https://dc.lft.to/lastmile_qr_scan"}}, {"name": "ae3861bf924b6d24542f5ed3a068bc69", "type": "electric_scooter", "lat": 38.9002875, "is_reserved": 0, "lon": -76.99862133333333, "fusion_lon": 0.0, "is_disabled": 0, "fusion_lat": 0.0, "bike_id": "ae3861bf924b6d24542f5ed3a068bc69", "rental_uris": {"ios": "https://dc.lft.to/lastmile_qr_scan", "android": "https://dc.lft.to/lastmile_qr_scan"}}, {"name": "65f4d8faa6965fc34cd607eca5332bb4", "type": "electric_scooter", "lat": 38.906613166666666, "is_reserved": 0, "lon": -77.03862033333333, "fusion_lon": 0.0, "is_disabled": 0, "fusion_lat": 0.0, "bike_id": "65f4d8faa6965fc34cd607eca5332bb4", "rental_uris": {"ios": "https://dc.lft.to/lastmile_qr_scan", "android": "https://dc.lft.to/lastmile_qr_scan"}}, {"name": "9c5926c22e11552964963fffc72a7e7a", "type": "electric_scooter", "lat": 38.914070833333334, "is_reserved": 0, "lon": -77.00805216666667, "fusion_lon": 0.0, "is_disabled": 0, "fusion_lat": 0.0, "bike_id": "9c5926c22e11552964963fffc72a7e7a", "rental_uris": {"ios": "https://dc.lft.to/lastmile_qr_scan", "android": "https://dc.lft.to/lastmile_qr_scan"}}, {"name": "0b023b8084a746f181c471f69221c405", "type": "electric_scooter", "lat": 38.902388, "is_reserved": 0, "lon": -76.97409916666666, "fusion_lon": 0.0, "is_disabled": 0, "fusion_lat": 0.0, "bike_id": "0b023b8084a746f181c471f69221c405", "rental_uris": {"ios": "https://dc.lft.to/lastmile_qr_scan", "android": "https://dc.lft.to/lastmile_qr_scan"}}, {"name": "78853d54074825f6a3369f5036c45dc4", "type": "electric_bike", "lat": 38.8616165, "is_reserved": 0, "lon": -77.1309315, "fusion_lon": 0.0, "is_disabled": 0, "fusion_lat": 0.0, "bike_id": "78853d54074825f6a3369f5036c45dc4", "rental_uris": {"ios": "https://dc.lft.to/lastmile_qr_scan", "android": "https://dc.lft.to/lastmile_qr_scan"}}, {"name": "016727d4421149733a74f5616b9a3861", "type": "electric_scooter", "lat": 38.92950833333333, "is_reserved": 0, "lon": -77.023213, "fusion_lon": 0.0, "is_disabled": 0, "fusion_lat": 0.0, "bike_id": "016727d4421149733a74f5616b9a3861", "rental_uris": {"ios": "https://dc.lft.to/lastmile_qr_scan", "android": "https://dc.lft.to/lastmile_qr_scan"}}, {"name": "0ef5cb6acbad6106c9d91f41dacad531", "type": "electric_scooter", "lat": 38.925825, "is_reserved": 0, "lon": -77.02841533333333, "fusion_lon": 0.0, "is_disabled": 0, "fusion_lat": 0.0, "bike_id": "0ef5cb6acbad6106c9d91f41dacad531", "rental_uris": {"ios": "https://dc.lft.to/lastmile_qr_scan", "android": "https://dc.lft.to/lastmile_qr_scan"}}, {"name": "4829e7a384ed0af0ddd6bb9c2b5fc9b0", "type": "electric_scooter", "lat": 38.917237666666665, "is_reserved": 0, "lon": -77.03664566666667, "fusion_lon": 0.0, "is_disabled": 0, "fusion_lat": 0.0, "bike_id": "4829e7a384ed0af0ddd6bb9c2b5fc9b0", "rental_uris": {"ios": "https://dc.lft.to/lastmile_qr_scan", "android": "https://dc.lft.to/lastmile_qr_scan"}}, {"name": "df6c20d4cfe5c972c1caf147fd1ffe03", "type": "electric_scooter", "lat": 38.89183666666667, "is_reserved": 0, "lon": -77.01535233333334, "fusion_lon": 0.0, "is_disabled": 0, "fusion_lat": 0.0, "bike_id": "df6c20d4cfe5c972c1caf147fd1ffe03", "rental_uris": {"ios": "https://dc.lft.to/lastmile_qr_scan", "android": "https://dc.lft.to/lastmile_qr_scan"}}, {"name": "b7f668521eafc684a256d4b898c6b7a5", "type": "electric_scooter", "lat": 38.90272366666667, "is_reserved": 0, "lon": -77.05312733333334, "fusion_lon": 0.0, "is_disabled": 0, "fusion_lat": 0.0, "bike_id": "b7f668521eafc684a256d4b898c6b7a5", "rental_uris": {"ios": "https://dc.lft.to/lastmile_qr_scan", "android": "https://dc.lft.to/lastmile_qr_scan"}}, {"name": "a04c7690091ff7cde07b9e1743277f66", "type": "electric_scooter", "lat": 38.93487533333333, "is_reserved": 0, "lon": -77.0328735, "fusion_lon": 0.0, "is_disabled": 0, "fusion_lat": 0.0, "bike_id": "a04c7690091ff7cde07b9e1743277f66", "rental_uris": {"ios": "https://dc.lft.to/lastmile_qr_scan", "android": "https://dc.lft.to/lastmile_qr_scan"}}, {"name": "c53bfc24ea2e283a4db10bd831679068", "type": "electric_scooter", "lat": 38.90299516666666, "is_reserved": 0, "lon": -76.99853033333333, "fusion_lon": 0.0, "is_disabled": 0, "fusion_lat": 0.0, "bike_id": "c53bfc24ea2e283a4db10bd831679068", "rental_uris": {"ios": "https://dc.lft.to/lastmile_qr_scan", "android": "https://dc.lft.to/lastmile_qr_scan"}}, {"name": "0760acb62d3f5891423f325da9816f7b", "type": "electric_scooter", "lat": 38.91727766666666, "is_reserved": 0, "lon": -77.06841366666667, "fusion_lon": 0.0, "is_disabled": 0, "fusion_lat": 0.0, "bike_id": "0760acb62d3f5891423f325da9816f7b", "rental_uris": {"ios": "https://dc.lft.to/lastmile_qr_scan", "android": "https://dc.lft.to/lastmile_qr_scan"}}, {"name": "ddea98807db76eafdada1f05e4ee60c5", "type": "electric_scooter", "lat": 38.876298, "is_reserved": 0, "lon": -76.96525416666667, "fusion_lon": 0.0, "is_disabled": 0, "fusion_lat": 0.0, "bike_id": "ddea98807db76eafdada1f05e4ee60c5", "rental_uris": {"ios": "https://dc.lft.to/lastmile_qr_scan", "android": "https://dc.lft.to/lastmile_qr_scan"}}, {"name": "0dc26ce5bbfbbde348f4d30dcfebbd52", "type": "electric_scooter", "lat": 38.90570016666667, "is_reserved": 0, "lon": -77.0060855, "fusion_lon": 0.0, "is_disabled": 0, "fusion_lat": 0.0, "bike_id": "0dc26ce5bbfbbde348f4d30dcfebbd52", "rental_uris": {"ios": "https://dc.lft.to/lastmile_qr_scan", "android": "https://dc.lft.to/lastmile_qr_scan"}}, {"name": "cb63a6da0acc1740cab03b3b56362630", "type": "electric_scooter", "lat": 38.919159666666665, "is_reserved": 0, "lon": -77.01340016666667, "fusion_lon": 0.0, "is_disabled": 0, "fusion_lat": 0.0, "bike_id": "cb63a6da0acc1740cab03b3b56362630", "rental_uris": {"ios": "https://dc.lft.to/lastmile_qr_scan", "android": "https://dc.lft.to/lastmile_qr_scan"}}, {"name": "e5c3460ac4d83c24b74ff3e3efd35868", "type": "electric_scooter", "lat": 38.895852166666664, "is_reserved": 0, "lon": -76.93717483333333, "fusion_lon": 0.0, "is_disabled": 0, "fusion_lat": 0.0, "bike_id": "e5c3460ac4d83c24b74ff3e3efd35868", "rental_uris": {"ios": "https://dc.lft.to/lastmile_qr_scan", "android": "https://dc.lft.to/lastmile_qr_scan"}}, {"name": "079acaefd7c9cc17c25ba921e29e8281", "type": "electric_scooter", "lat": 38.85615266666667, "is_reserved": 0, "lon": -76.9801835, "fusion_lon": 0.0, "is_disabled": 0, "fusion_lat": 0.0, "bike_id": "079acaefd7c9cc17c25ba921e29e8281", "rental_uris": {"ios": "https://dc.lft.to/lastmile_qr_scan", "android": "https://dc.lft.to/lastmile_qr_scan"}}, {"name": "babb5f16e7d11b654ceb54a8bd73b2c1", "type": "electric_scooter", "lat": 38.842947, "is_reserved": 0, "lon": -76.99946783333333, "fusion_lon": 0.0, "is_disabled": 0, "fusion_lat": 0.0, "bike_id": "babb5f16e7d11b654ceb54a8bd73b2c1", "rental_uris": {"ios": "https://dc.lft.to/lastmile_qr_scan", "android": "https://dc.lft.to/lastmile_qr_scan"}}, {"name": "9bf471f4c22093188c50e0d8c7c3d45e", "type": "electric_scooter", "lat": 38.90452233333333, "is_reserved": 0, "lon": -76.9962215, "fusion_lon": 0.0, "is_disabled": 0, "fusion_lat": 0.0, "bike_id": "9bf471f4c22093188c50e0d8c7c3d45e", "rental_uris": {"ios": "https://dc.lft.to/lastmile_qr_scan", "android": "https://dc.lft.to/lastmile_qr_scan"}}, {"name": "7eb462aa025c8527c9ea7c43541bf346", "type": "electric_scooter", "lat": 38.87839316666667, "is_reserved": 0, "lon": -76.990409, "fusion_lon": 0.0, "is_disabled": 0, "fusion_lat": 0.0, "bike_id": "7eb462aa025c8527c9ea7c43541bf346", "rental_uris": {"ios": "https://dc.lft.to/lastmile_qr_scan", "android": "https://dc.lft.to/lastmile_qr_scan"}}, {"name": "fa9dfb1ab958737ba30c2a4daa46a5a8", "type": "electric_scooter", "lat": 38.917159833333336, "is_reserved": 0, "lon": -77.0385865, "fusion_lon": 0.0, "is_disabled": 0, "fusion_lat": 0.0, "bike_id": "fa9dfb1ab958737ba30c2a4daa46a5a8", "rental_uris": {"ios": "https://dc.lft.to/lastmile_qr_scan", "android": "https://dc.lft.to/lastmile_qr_scan"}}, {"name": "1b52781ed7a7f753dcc647be7e7fce54", "type": "electric_scooter", "lat": 38.905365, "is_reserved": 0, "lon": -77.05924233333333, "fusion_lon": 0.0, "is_disabled": 0, "fusion_lat": 0.0, "bike_id": "1b52781ed7a7f753dcc647be7e7fce54", "rental_uris": {"ios": "https://dc.lft.to/lastmile_qr_scan", "android": "https://dc.lft.to/lastmile_qr_scan"}}, {"name": "58856a473dbc8898ff8bff3fb47344d9", "type": "electric_bike", "lat": 38.82877233333333, "is_reserved": 0, "lon": -77.11220666666667, "fusion_lon": 0.0, "is_disabled": 0, "fusion_lat": 0.0, "bike_id": "58856a473dbc8898ff8bff3fb47344d9", "rental_uris": {"ios": "https://dc.lft.to/lastmile_qr_scan", "android": "https://dc.lft.to/lastmile_qr_scan"}}, {"name": "aae2bc505ea2f7b6687e1a3f782304e6", "type": "electric_scooter", "lat": 38.919183333333336, "is_reserved": 0, "lon": -77.0312695, "fusion_lon": 0.0, "is_disabled": 0, "fusion_lat": 0.0, "bike_id": "aae2bc505ea2f7b6687e1a3f782304e6", "rental_uris": {"ios": "https://dc.lft.to/lastmile_qr_scan", "android": "https://dc.lft.to/lastmile_qr_scan"}}, {"name": "84b8acbd55a49ad3ee4e0879953b58b2", "type": "electric_scooter", "lat": 38.87636366666667, "is_reserved": 0, "lon": -77.00919433333334, "fusion_lon": 0.0, "is_disabled": 0, "fusion_lat": 0.0, "bike_id": "84b8acbd55a49ad3ee4e0879953b58b2", "rental_uris": {"ios": "https://dc.lft.to/lastmile_qr_scan", "android": "https://dc.lft.to/lastmile_qr_scan"}}, {"name": "1e7849cd965877e41f376faafffd9af8", "type": "electric_scooter", "lat": 38.92441733333333, "is_reserved": 0, "lon": -77.03354816666666, "fusion_lon": 0.0, "is_disabled": 0, "fusion_lat": 0.0, "bike_id": "1e7849cd965877e41f376faafffd9af8", "rental_uris": {"ios": "https://dc.lft.to/lastmile_qr_scan", "android": "https://dc.lft.to/lastmile_qr_scan"}}, {"name": "c5ed9e147aaee99725c136d914b516f0", "type": "electric_scooter", "lat": 38.884109, "is_reserved": 0, "lon": -77.01536716666666, "fusion_lon": 0.0, "is_disabled": 0, "fusion_lat": 0.0, "bike_id": "c5ed9e147aaee99725c136d914b516f0", "rental_uris": {"ios": "https://dc.lft.to/lastmile_qr_scan", "android": "https://dc.lft.to/lastmile_qr_scan"}}, {"name": "86d67940ba92c4c94de1e6d1c6ed939b", "type": "electric_scooter", "lat": 38.9057515, "is_reserved": 0, "lon": -77.0487455, "fusion_lon": 0.0, "is_disabled": 0, "fusion_lat": 0.0, "bike_id": "86d67940ba92c4c94de1e6d1c6ed939b", "rental_uris": {"ios": "https://dc.lft.to/lastmile_qr_scan", "android": "https://dc.lft.to/lastmile_qr_scan"}}, {"name": "45295f10a50f314c7de7d2fa39c34fee", "type": "electric_bike", "lat": 38.9909025, "is_reserved": 0, "lon": -76.87495716666666, "fusion_lon": 0.0, "is_disabled": 0, "fusion_lat": 0.0, "bike_id": "45295f10a50f314c7de7d2fa39c34fee", "rental_uris": {"ios": "https://dc.lft.to/lastmile_qr_scan", "android": "https://dc.lft.to/lastmile_qr_scan"}}, {"name": "16c2026293ad76007f1b33a8c2a72651", "type": "electric_scooter", "lat": 38.90017266666667, "is_reserved": 0, "lon": -77.011246, "fusion_lon": 0.0, "is_disabled": 0, "fusion_lat": 0.0, "bike_id": "16c2026293ad76007f1b33a8c2a72651", "rental_uris": {"ios": "https://dc.lft.to/lastmile_qr_scan", "android": "https://dc.lft.to/lastmile_qr_scan"}}, {"name": "6dcaf890d4f224e65805bc1f525ad3e2", "type": "electric_scooter", "lat": 38.89231516666667, "is_reserved": 0, "lon": -77.02204616666667, "fusion_lon": 0.0, "is_disabled": 0, "fusion_lat": 0.0, "bike_id": "6dcaf890d4f224e65805bc1f525ad3e2", "rental_uris": {"ios": "https://dc.lft.to/lastmile_qr_scan", "android": "https://dc.lft.to/lastmile_qr_scan"}}, {"name": "14aeac78afd57c760beb8699814ece54", "type": "electric_scooter", "lat": 38.865663166666664, "is_reserved": 0, "lon": -76.9854765, "fusion_lon": 0.0, "is_disabled": 0, "fusion_lat": 0.0, "bike_id": "14aeac78afd57c760beb8699814ece54", "rental_uris": {"ios": "https://dc.lft.to/lastmile_qr_scan", "android": "https://dc.lft.to/lastmile_qr_scan"}}, {"name": "6746ba1b5e2b0928a5a3aa7dd5880411", "type": "electric_scooter", "lat": 38.930715666666664, "is_reserved": 0, "lon": -77.034025, "fusion_lon": 0.0, "is_disabled": 0, "fusion_lat": 0.0, "bike_id": "6746ba1b5e2b0928a5a3aa7dd5880411", "rental_uris": {"ios": "https://dc.lft.to/lastmile_qr_scan", "android": "https://dc.lft.to/lastmile_qr_scan"}}, {"name": "d8a8ed386e56dc57a62290ac2ccbd54d", "type": "electric_scooter", "lat": 38.9443905, "is_reserved": 0, "lon": -77.06349983333334, "fusion_lon": 0.0, "is_disabled": 0, "fusion_lat": 0.0, "bike_id": "d8a8ed386e56dc57a62290ac2ccbd54d", "rental_uris": {"ios": "https://dc.lft.to/lastmile_qr_scan", "android": "https://dc.lft.to/lastmile_qr_scan"}}, {"name": "c7f317b6b1de759b370344ce0242e3b4", "type": "electric_scooter", "lat": 38.90068016666667, "is_reserved": 0, "lon": -76.98711966666667, "fusion_lon": 0.0, "is_disabled": 0, "fusion_lat": 0.0, "bike_id": "c7f317b6b1de759b370344ce0242e3b4", "rental_uris": {"ios": "https://dc.lft.to/lastmile_qr_scan", "android": "https://dc.lft.to/lastmile_qr_scan"}}, {"name": "9609481d8c4a8cba22a3aaac8ec10c11", "type": "electric_bike", "lat": 38.87015816666667, "is_reserved": 0, "lon": -76.959771, "fusion_lon": 0.0, "is_disabled": 0, "fusion_lat": 0.0, "bike_id": "9609481d8c4a8cba22a3aaac8ec10c11", "rental_uris": {"ios": "https://dc.lft.to/lastmile_qr_scan", "android": "https://dc.lft.to/lastmile_qr_scan"}}, {"name": "2b8a814edba27db9585160dba246110d", "type": "electric_scooter", "lat": 38.873416666666664, "is_reserved": 0, "lon": -77.01860616666667, "fusion_lon": 0.0, "is_disabled": 0, "fusion_lat": 0.0, "bike_id": "2b8a814edba27db9585160dba246110d", "rental_uris": {"ios": "https://dc.lft.to/lastmile_qr_scan", "android": "https://dc.lft.to/lastmile_qr_scan"}}, {"name": "31393fc50846608b00f094703df3ea5b", "type": "electric_bike", "lat": 38.985031166666666, "is_reserved": 0, "lon": -76.98204033333333, "fusion_lon": 0.0, "is_disabled": 0, "fusion_lat": 0.0, "bike_id": "31393fc50846608b00f094703df3ea5b", "rental_uris": {"ios": "https://dc.lft.to/lastmile_qr_scan", "android": "https://dc.lft.to/lastmile_qr_scan"}}, {"name": "d8486a1dcc76348bd1ccafdefc31c97b", "type": "electric_scooter", "lat": 38.862416, "is_reserved": 0, "lon": -76.9949405, "fusion_lon": 0.0, "is_disabled": 0, "fusion_lat": 0.0, "bike_id": "d8486a1dcc76348bd1ccafdefc31c97b", "rental_uris": {"ios": "https://dc.lft.to/lastmile_qr_scan", "android": "https://dc.lft.to/lastmile_qr_scan"}}, {"name": "30f7f62836ac990675bf90f9b43c949d", "type": "electric_scooter", "lat": 38.8701205, "is_reserved": 0, "lon": -77.01226483333333, "fusion_lon": 0.0, "is_disabled": 0, "fusion_lat": 0.0, "bike_id": "30f7f62836ac990675bf90f9b43c949d", "rental_uris": {"ios": "https://dc.lft.to/lastmile_qr_scan", "android": "https://dc.lft.to/lastmile_qr_scan"}}, {"name": "a4b07dbe076cbf61f18d273bb792f213", "type": "electric_scooter", "lat": 38.87941216666667, "is_reserved": 0, "lon": -77.00383616666667, "fusion_lon": 0.0, "is_disabled": 0, "fusion_lat": 0.0, "bike_id": "a4b07dbe076cbf61f18d273bb792f213", "rental_uris": {"ios": "https://dc.lft.to/lastmile_qr_scan", "android": "https://dc.lft.to/lastmile_qr_scan"}}, {"name": "88da2908b90f8d3b5976c23c7f868f77", "type": "electric_scooter", "lat": 38.93236183333333, "is_reserved": 0, "lon": -77.0383575, "fusion_lon": 0.0, "is_disabled": 0, "fusion_lat": 0.0, "bike_id": "88da2908b90f8d3b5976c23c7f868f77", "rental_uris": {"ios": "https://dc.lft.to/lastmile_qr_scan", "android": "https://dc.lft.to/lastmile_qr_scan"}}, {"name": "ef23711318cb10aa740f7afd7d06830c", "type": "electric_bike", "lat": 38.82049766666667, "is_reserved": 0, "lon": -77.05318533333333, "fusion_lon": 0.0, "is_disabled": 0, "fusion_lat": 0.0, "bike_id": "ef23711318cb10aa740f7afd7d06830c", "rental_uris": {"ios": "https://dc.lft.to/lastmile_qr_scan", "android": "https://dc.lft.to/lastmile_qr_scan"}}, {"name": "205eb1acf688d645c704cb7e6df1549e", "type": "electric_scooter", "lat": 38.903219666666665, "is_reserved": 0, "lon": -77.03217516666666, "fusion_lon": 0.0, "is_disabled": 0, "fusion_lat": 0.0, "bike_id": "205eb1acf688d645c704cb7e6df1549e", "rental_uris": {"ios": "https://dc.lft.to/lastmile_qr_scan", "android": "https://dc.lft.to/lastmile_qr_scan"}}, {"name": "34db599784f79647307eaf70be61e9dc", "type": "electric_scooter", "lat": 38.93613466666667, "is_reserved": 0, "lon": -77.02248083333333, "fusion_lon": 0.0, "is_disabled": 0, "fusion_lat": 0.0, "bike_id": "34db599784f79647307eaf70be61e9dc", "rental_uris": {"ios": "https://dc.lft.to/lastmile_qr_scan", "android": "https://dc.lft.to/lastmile_qr_scan"}}, {"name": "1236b521661509f645dfeb9bee452086", "type": "electric_scooter", "lat": 38.93277916666667, "is_reserved": 0, "lon": -77.03490716666667, "fusion_lon": 0.0, "is_disabled": 0, "fusion_lat": 0.0, "bike_id": "1236b521661509f645dfeb9bee452086", "rental_uris": {"ios": "https://dc.lft.to/lastmile_qr_scan", "android": "https://dc.lft.to/lastmile_qr_scan"}}, {"name": "cd59820c706ce63b8bc38a6ed7d24d88", "type": "electric_scooter", "lat": 38.94463016666667, "is_reserved": 0, "lon": -77.006575, "fusion_lon": 0.0, "is_disabled": 0, "fusion_lat": 0.0, "bike_id": "cd59820c706ce63b8bc38a6ed7d24d88", "rental_uris": {"ios": "https://dc.lft.to/lastmile_qr_scan", "android": "https://dc.lft.to/lastmile_qr_scan"}}, {"name": "a8616d69c2579c012d53fb36a1aa6a1e", "type": "electric_scooter", "lat": 38.909338, "is_reserved": 0, "lon": -76.99963683333333, "fusion_lon": 0.0, "is_disabled": 0, "fusion_lat": 0.0, "bike_id": "a8616d69c2579c012d53fb36a1aa6a1e", "rental_uris": {"ios": "https://dc.lft.to/lastmile_qr_scan", "android": "https://dc.lft.to/lastmile_qr_scan"}}, {"name": "4c749eb2bee7948244aa4552614efa45", "type": "electric_scooter", "lat": 38.900333833333335, "is_reserved": 0, "lon": -77.0116575, "fusion_lon": 0.0, "is_disabled": 0, "fusion_lat": 0.0, "bike_id": "4c749eb2bee7948244aa4552614efa45", "rental_uris": {"ios": "https://dc.lft.to/lastmile_qr_scan", "android": "https://dc.lft.to/lastmile_qr_scan"}}, {"name": "8f007e7e63ee6bb4ab9bff4ae18af78e", "type": "electric_scooter", "lat": 38.91464066666666, "is_reserved": 0, "lon": -77.03842916666666, "fusion_lon": 0.0, "is_disabled": 0, "fusion_lat": 0.0, "bike_id": "8f007e7e63ee6bb4ab9bff4ae18af78e", "rental_uris": {"ios": "https://dc.lft.to/lastmile_qr_scan", "android": "https://dc.lft.to/lastmile_qr_scan"}}, {"name": "488f77af45989fc582b9fc9d88b11bc5", "type": "electric_scooter", "lat": 38.903167333333336, "is_reserved": 0, "lon": -77.03351366666666, "fusion_lon": 0.0, "is_disabled": 0, "fusion_lat": 0.0, "bike_id": "488f77af45989fc582b9fc9d88b11bc5", "rental_uris": {"ios": "https://dc.lft.to/lastmile_qr_scan", "android": "https://dc.lft.to/lastmile_qr_scan"}}, {"name": "00ad5b170fc037eb6d1bb495a7e4d91a", "type": "electric_scooter", "lat": 38.898205833333336, "is_reserved": 0, "lon": -77.03311033333334, "fusion_lon": 0.0, "is_disabled": 0, "fusion_lat": 0.0, "bike_id": "00ad5b170fc037eb6d1bb495a7e4d91a", "rental_uris": {"ios": "https://dc.lft.to/lastmile_qr_scan", "android": "https://dc.lft.to/lastmile_qr_scan"}}, {"name": "3c1a04b8a5e2e13ff88d5c17684fc622", "type": "electric_scooter", "lat": 38.9398475, "is_reserved": 0, "lon": -77.0259685, "fusion_lon": 0.0, "is_disabled": 0, "fusion_lat": 0.0, "bike_id": "3c1a04b8a5e2e13ff88d5c17684fc622", "rental_uris": {"ios": "https://dc.lft.to/lastmile_qr_scan", "android": "https://dc.lft.to/lastmile_qr_scan"}}, {"name": "44c7934f152946650b3570153d12c5bf", "type": "electric_scooter", "lat": 38.91108033333333, "is_reserved": 0, "lon": -77.03484183333333, "fusion_lon": 0.0, "is_disabled": 0, "fusion_lat": 0.0, "bike_id": "44c7934f152946650b3570153d12c5bf", "rental_uris": {"ios": "https://dc.lft.to/lastmile_qr_scan", "android": "https://dc.lft.to/lastmile_qr_scan"}}, {"name": "b1df3abb2fb079fa69bea9d64e2fb18c", "type": "electric_bike", "lat": 38.83936333333333, "is_reserved": 0, "lon": -77.07911566666667, "fusion_lon": 0.0, "is_disabled": 0, "fusion_lat": 0.0, "bike_id": "b1df3abb2fb079fa69bea9d64e2fb18c", "rental_uris": {"ios": "https://dc.lft.to/lastmile_qr_scan", "android": "https://dc.lft.to/lastmile_qr_scan"}}, {"name": "b06c4667cef54a0be71d891d3608b747", "type": "electric_bike", "lat": 38.88040766666667, "is_reserved": 0, "lon": -77.013271, "fusion_lon": 0.0, "is_disabled": 0, "fusion_lat": 0.0, "bike_id": "b06c4667cef54a0be71d891d3608b747", "rental_uris": {"ios": "https://dc.lft.to/lastmile_qr_scan", "android": "https://dc.lft.to/lastmile_qr_scan"}}, {"name": "7a2c30549b276594efaeca214d5c373f", "type": "electric_scooter", "lat": 38.915777166666665, "is_reserved": 0, "lon": -77.0216975, "fusion_lon": 0.0, "is_disabled": 0, "fusion_lat": 0.0, "bike_id": "7a2c30549b276594efaeca214d5c373f", "rental_uris": {"ios": "https://dc.lft.to/lastmile_qr_scan", "android": "https://dc.lft.to/lastmile_qr_scan"}}, {"name": "f05e859d92f26e0c12ab688ca7162686", "type": "electric_bike", "lat": 38.84278616666667, "is_reserved": 0, "lon": -76.98846866666666, "fusion_lon": 0.0, "is_disabled": 0, "fusion_lat": 0.0, "bike_id": "f05e859d92f26e0c12ab688ca7162686", "rental_uris": {"ios": "https://dc.lft.to/lastmile_qr_scan", "android": "https://dc.lft.to/lastmile_qr_scan"}}, {"name": "bb7458c17b89fccce9801167bcac8f6f", "type": "electric_scooter", "lat": 38.905947, "is_reserved": 0, "lon": -77.01606083333333, "fusion_lon": 0.0, "is_disabled": 0, "fusion_lat": 0.0, "bike_id": "bb7458c17b89fccce9801167bcac8f6f", "rental_uris": {"ios": "https://dc.lft.to/lastmile_qr_scan", "android": "https://dc.lft.to/lastmile_qr_scan"}}, {"name": "9f8099c923438567da6dc421a1b62cbb", "type": "electric_scooter", "lat": 38.91490016666667, "is_reserved": 0, "lon": -77.039234, "fusion_lon": 0.0, "is_disabled": 0, "fusion_lat": 0.0, "bike_id": "9f8099c923438567da6dc421a1b62cbb", "rental_uris": {"ios": "https://dc.lft.to/lastmile_qr_scan", "android": "https://dc.lft.to/lastmile_qr_scan"}}, {"name": "fbc56a1ed76a7dfb702fd461075df03b", "type": "electric_scooter", "lat": 38.91107683333333, "is_reserved": 0, "lon": -77.04226183333333, "fusion_lon": 0.0, "is_disabled": 0, "fusion_lat": 0.0, "bike_id": "fbc56a1ed76a7dfb702fd461075df03b", "rental_uris": {"ios": "https://dc.lft.to/lastmile_qr_scan", "android": "https://dc.lft.to/lastmile_qr_scan"}},