{"data": {"bikes": [{"is_disabled": 0, "is_reserved": 0, "fusion_lat": 0.0, "lat": 38.94822583333333, "fusion_lon": 0.0, "rental_uris": {"ios": "https://dc.lft.to/lastmile_qr_scan", "android": "https://dc.lft.to/lastmile_qr_scan"}, "lon": -77.025447, "bike_id": "8b74e9dc7975c01c5e56af09b4711d23", "type": "electric_scooter", "name": "8b74e9dc7975c01c5e56af09b4711d23"}, {"is_disabled": 0, "is_reserved": 0, "fusion_lat": 0.0, "lat": 38.906838, "fusion_lon": 0.0, "rental_uris": {"ios": "https://dc.lft.to/lastmile_qr_scan", "android": "https://dc.lft.to/lastmile_qr_scan"}, "lon": -77.05321533333333, "bike_id": "fb91c72b9a2f47fa6ffd30c909c5c00e", "type": "electric_scooter", "name": "fb91c72b9a2f47fa6ffd30c909c5c00e"}, {"is_disabled": 0, "is_reserved": 0, "fusion_lat": 0.0, "lat": 38.92241666666666, "fusion_lon": 0.0, "rental_uris": {"ios": "https://dc.lft.to/lastmile_qr_scan", "android": "https://dc.lft.to/lastmile_qr_scan"}, "lon": -77.04484733333334, "bike_id": "614b7ae14e985b7e078af3bd0e90eee8", "type": "electric_scooter", "name": "614b7ae14e985b7e078af3bd0e90eee8"}, {"is_disabled": 0, "is_reserved": 0, "fusion_lat": 0.0, "lat": 38.902689, "fusion_lon": 0.0, "rental_uris": {"ios": "https://dc.lft.to/lastmile_qr_scan", "android": "https://dc.lft.to/lastmile_qr_scan"}, "lon": -77.01764633333333, "bike_id": "bb1dd91af6c6a34d93a001d663478a0b", "type": "electric_scooter", "name": "bb1dd91af6c6a34d93a001d663478a0b"}, {"is_disabled": 0, "is_reserved": 0, "fusion_lat": 0.0, "lat": 38.92469666666667, "fusion_lon": 0.0, "rental_uris": {"ios": "https://dc.lft.to/lastmile_qr_scan", "android": "https://dc.lft.to/lastmile_qr_scan"}, "lon": -77.03532016666666, "bike_id": "3a48fc26fe4d5e08c6af873d8e57faa2", "type": "electric_scooter", "name": "3a48fc26fe4d5e08c6af873d8e57faa2"}, {"is_disabled": 0, "is_reserved": 0, "fusion_lat": 0.0, "lat": 38.908720333333335, "fusion_lon": 0.0, "rental_uris": {"ios": "https://dc.lft.to/lastmile_qr_scan", "android": "https://dc.lft.to/lastmile_qr_scan"}, "lon": -77.0020915, "bike_id": "d36ff85e40835cf5a26314f378acf0ad", "type": "electric_scooter", "name": "d36ff85e40835cf5a26314f378acf0ad"}, {"is_disabled": 0, "is_reserved": 0, "fusion_lat": 0.0, "lat": 38.90282233333333, "fusion_lon": 0.0, "rental_uris": {"ios": "https://dc.lft.to/lastmile_qr_scan", "android": "https://dc.lft.to/lastmile_qr_scan"}, "lon": -77.05913616666666, "bike_id": "e3e849868a890e64b21e8abd6a11507f", "type": "electric_scooter", "name": "e3e849868a890e64b21e8abd6a11507f"}, {"is_disabled": 0, "is_reserved": 0, "fusion_lat": 0.0, "lat": 38.93861716666667, "fusion_lon": 0.0, "rental_uris": {"ios": "https://dc.lft.to/lastmile_qr_scan", "android": "https://dc.lft.to/lastmile_qr_scan"}, "lon": -77.030446, "bike_id": "2caf18cca92ccbd1a61beedaac1ea0e3", "type": "electric_scooter", "name": "2caf18cca92ccbd1a61beedaac1ea0e3"}, {"is_disabled": 0, "is_reserved": 0, "fusion_lat": 0.0, "lat": 38.88274883333333, "fusion_lon": 0.0, "rental_uris": {"ios": "https://dc.lft.to/lastmile_qr_scan", "android": "https://dc.lft.to/lastmile_qr_scan"}, "lon": -76.932351, "bike_id": "da0f5d8aa4f239848bdcfbde5aad33bb", "type": "electric_bike", "name": "da0f5d8aa4f239848bdcfbde5aad33bb"}, {"is_disabled": 0, "is_reserved": 0, "fusion_lat": 0.0, "lat": 38.9098595, "fusion_lon": 0.0, "rental_uris": {"ios": "https://dc.lft.to/lastmile_qr_scan", "android": "https://dc.lft.to/lastmile_qr_scan"}, "lon": -77.033891, "bike_id": "05ca659d8f8856d443c4b4a651120509", "type": "electric_scooter", "name": "05ca659d8f8856d443c4b4a651120509"}, {"is_disabled": 0, "is_reserved": 0, "fusion_lat": 0.0, "lat": 38.8983125, "fusion_lon": 0.0, "rental_uris": {"ios": "https://dc.lft.to/lastmile_qr_scan", "android": "https://dc.lft.to/lastmile_qr_scan"}, "lon": -77.02940466666666, "bike_id": "4a3e09117989930679c1d8747a3a1fb0", "type": "electric_scooter", "name": "4a3e09117989930679c1d8747a3a1fb0"}, {"is_disabled": 0, "is_reserved": 0, "fusion_lat": 0.0, "lat": 38.92792433333334, "fusion_lon": 0.0, "rental_uris": {"ios": "https://dc.lft.to/lastmile_qr_scan", "android": "https://dc.lft.to/lastmile_qr_scan"}, "lon": -77.05585316666667, "bike_id": "d7ec64e5f797e9e2e348ac35b59d4bee", "type": "electric_scooter", "name": "d7ec64e5f797e9e2e348ac35b59d4bee"}, {"is_disabled": 0, "is_reserved": 0, "fusion_lat": 0.0, "lat": 38.8779675, "fusion_lon": 0.0, "rental_uris": {"ios": "https://dc.lft.to/lastmile_qr_scan", "android": "https://dc.lft.to/lastmile_qr_scan"}, "lon": -77.0012355, "bike_id": "f0a571f19dfaa76a5775f883e7d5756e", "type": "electric_scooter", "name": "f0a571f19dfaa76a5775f883e7d5756e"}, {"is_disabled": 0, "is_reserved": 0, "fusion_lat": 0.0, "lat": 38.9206275, "fusion_lon": 0.0, "rental_uris": {"ios": "https://dc.lft.to/lastmile_qr_scan", "android": "https://dc.lft.to/lastmile_qr_scan"}, "lon": -77.04358183333333, "bike_id": "e5c869648a409d58af34bce184a1c506", "type": "electric_scooter", "name": "e5c869648a409d58af34bce184a1c506"}, {"is_disabled": 0, "is_reserved": 0, "fusion_lat": 0.0, "lat": 38.9196, "fusion_lon": 0.0, "rental_uris": {"ios": "https://dc.lft.to/lastmile_qr_scan", "android": "https://dc.lft.to/lastmile_qr_scan"}, "lon": -77.03194383333333, "bike_id": "56ac19c49fb929038ea938a9dea5ca3d", "type": "electric_scooter", "name": "56ac19c49fb929038ea938a9dea5ca3d"}, {"is_disabled": 0, "is_reserved": 0, "fusion_lat": 0.0, "lat": 38.97832, "fusion_lon": 0.0, "rental_uris": {"ios": "https://dc.lft.to/lastmile_qr_scan", "android": "https://dc.lft.to/lastmile_qr_scan"}, "lon": -76.928934, "bike_id": "db242a77efac7ead2f9add7b9092cfac", "type": "electric_bike", "name": "db242a77efac7ead2f9add7b9092cfac"}, {"is_disabled": 0, "is_reserved": 0, "fusion_lat": 0.0, "lat": 38.85526216666667, "fusion_lon": 0.0, "rental_uris": {"ios": "https://dc.lft.to/lastmile_qr_scan", "android": "https://dc.lft.to/lastmile_qr_scan"}, "lon": -77.1207785, "bike_id": "dfe0dcd0a0b1cdd6dcdbe84cef1d0d6b", "type": "electric_bike", "name": "dfe0dcd0a0b1cdd6dcdbe84cef1d0d6b"}, {"is_disabled": 0, "is_reserved": 0, "fusion_lat": 0.0, "lat": 38.90026733333333, "fusion_lon": 0.0, "rental_uris": {"ios": "https://dc.lft.to/lastmile_qr_scan", "android": "https://dc.lft.to/lastmile_qr_scan"}, "lon": -76.99865466666667, "bike_id": "d65af539c541e67389bbf50b5dc023dc", "type": "electric_scooter", "name": "d65af539c541e67389bbf50b5dc023dc"}, {"is_disabled": 0, "is_reserved": 0, "fusion_lat": 0.0, "lat": 38.892473, "fusion_lon": 0.0, "rental_uris": {"ios": "https://dc.lft.to/lastmile_qr_scan", "android": "https://dc.lft.to/lastmile_qr_scan"}, "lon": -77.032168, "bike_id": "1bdf88eefe097b489dce51a56ac6d4cd", "type": "electric_scooter", "name": "1bdf88eefe097b489dce51a56ac6d4cd"}, {"is_disabled": 0, "is_reserved": 0, "fusion_lat": 0.0, "lat": 38.92339316666666, "fusion_lon": 0.0, "rental_uris": {"ios": "https://dc.lft.to/lastmile_qr_scan", "android": "https://dc.lft.to/lastmile_qr_scan"}, "lon": -76.99869616666666, "bike_id": "62145019c04c9ac3d1a24f70df7a6c8f", "type": "electric_scooter", "name": "62145019c04c9ac3d1a24f70df7a6c8f"}, {"is_disabled": 0, "is_reserved": 0, "fusion_lat": 0.0, "lat": 38.898027, "fusion_lon": 0.0, "rental_uris": {"ios": "https://dc.lft.to/lastmile_qr_scan", "android": "https://dc.lft.to/lastmile_qr_scan"}, "lon": -76.9794915, "bike_id": "aeb26548b66081579b6462024755b530", "type": "electric_scooter", "name": "aeb26548b66081579b6462024755b530"}, {"is_disabled": 0, "is_reserved": 0, "fusion_lat": 0.0, "lat": 38.882672, "fusion_lon": 0.0, "rental_uris": {"ios": "https://dc.lft.to/lastmile_qr_scan", "android": "https://dc.lft.to/lastmile_qr_scan"}, "lon": -76.990196, "bike_id": "40b10a3f48f47c532eef0101b2ea65b0", "type": "electric_scooter", "name": "40b10a3f48f47c532eef0101b2ea65b0"}, {"is_disabled": 0, "is_reserved": 0, "fusion_lat": 0.0, "lat": 38.8986725, "fusion_lon": 0.0, "rental_uris": {"ios": "https://dc.lft.to/lastmile_qr_scan", "android": "https://dc.lft.to/lastmile_qr_scan"}, "lon": -77.05018533333333, "bike_id": "de3afe5c3c27283d1d778b683750e8c2", "type": "electric_scooter", "name": "de3afe5c3c27283d1d778b683750e8c2"}, {"is_disabled": 0, "is_reserved": 0, "fusion_lat": 0.0, "lat": 38.953544, "fusion_lon": 0.0, "rental_uris": {"ios": "https://dc.lft.to/lastmile_qr_scan", "android": "https://dc.lft.to/lastmile_qr_scan"}, "lon": -76.98091133333334, "bike_id": "2d10f8b59cccc30bbbaac5cbd988e20f", "type": "electric_bike", "name": "2d10f8b59cccc30bbbaac5cbd988e20f"}, {"is_disabled": 0, "is_reserved": 0, "fusion_lat": 0.0, "lat": 38.91783216666666, "fusion_lon": 0.0, "rental_uris": {"ios": "https://dc.lft.to/lastmile_qr_scan", "android": "https://dc.lft.to/lastmile_qr_scan"}, "lon": -77.024173, "bike_id": "d7409416a3a8098bd630b55769c5412f", "type": "electric_scooter", "name": "d7409416a3a8098bd630b55769c5412f"}, {"is_disabled": 0, "is_reserved": 0, "fusion_lat": 0.0, "lat": 38.91402983333333, "fusion_lon": 0.0, "rental_uris": {"ios": "https://dc.lft.to/lastmile_qr_scan", "android": "https://dc.lft.to/lastmile_qr_scan"}, "lon": -77.01143, "bike_id": "afc34c57abead2aa40e6f66df11e0568", "type": "electric_scooter", "name": "afc34c57abead2aa40e6f66df11e0568"}, {"is_disabled": 0, "is_reserved": 0, "fusion_lat": 0.0, "lat": 38.892195666666666, "fusion_lon": 0.0, "rental_uris": {"ios": "https://dc.lft.to/lastmile_qr_scan", "android": "https://dc.lft.to/lastmile_qr_scan"}, "lon": -77.024226, "bike_id": "5d0723212c27b2b5435831c1bfdec621", "type": "electric_scooter", "name": "5d0723212c27b2b5435831c1bfdec621"}, {"is_disabled": 0, "is_reserved": 0, "fusion_lat": 0.0, "lat": 38.80980116666667, "fusion_lon": 0.0, "rental_uris": {"ios": "https://dc.lft.to/lastmile_qr_scan", "android": "https://dc.lft.to/lastmile_qr_scan"}, "lon": -77.076601, "bike_id": "dec182eadfda43c8d80b6bd8ca770cf1", "type": "electric_bike", "name": "dec182eadfda43c8d80b6bd8ca770cf1"}, {"is_disabled": 0, "is_reserved": 0, "fusion_lat": 0.0, "lat": 38.9409795, "fusion_lon": 0.0, "rental_uris": {"ios": "https://dc.lft.to/lastmile_qr_scan", "android": "https://dc.lft.to/lastmile_qr_scan"}, "lon": -77.0250865, "bike_id": "c7e75bcbb1f5e4787989bd61640bd07b", "type": "electric_scooter", "name": "c7e75bcbb1f5e4787989bd61640bd07b"}, {"is_disabled": 0, "is_reserved": 0, "fusion_lat": 0.0, "lat": 38.922348166666666, "fusion_lon": 0.0, "rental_uris": {"ios": "https://dc.lft.to/lastmile_qr_scan", "android": "https://dc.lft.to/lastmile_qr_scan"}, "lon": -77.01821633333333, "bike_id": "ca0e19379b77065e54f531af2058fbe7", "type": "electric_scooter", "name": "ca0e19379b77065e54f531af2058fbe7"}, {"is_disabled": 0, "is_reserved": 0, "fusion_lat": 0.0, "lat": 38.90135933333333, "fusion_lon": 0.0, "rental_uris": {"ios": "https://dc.lft.to/lastmile_qr_scan", "android": "https://dc.lft.to/lastmile_qr_scan"}, "lon": -77.02694366666667, "bike_id": "c497fe406b017bd5da3d08a473c154ad", "type": "electric_scooter", "name": "c497fe406b017bd5da3d08a473c154ad"}, {"is_disabled": 0, "is_reserved": 0, "fusion_lat": 0.0, "lat": 38.9197375, "fusion_lon": 0.0, "rental_uris": {"ios": "https://dc.lft.to/lastmile_qr_scan", "android": "https://dc.lft.to/lastmile_qr_scan"}, "lon": -77.02500916666666, "bike_id": "fcce22d29259de1391e81c4a69e62bb8", "type": "electric_scooter", "name": "fcce22d29259de1391e81c4a69e62bb8"}, {"is_disabled": 0, "is_reserved": 0, "fusion_lat": 0.0, "lat": 38.90466583333333, "fusion_lon": 0.0, "rental_uris": {"ios": "https://dc.lft.to/lastmile_qr_scan", "android": "https://dc.lft.to/lastmile_qr_scan"}, "lon": -76.9842025, "bike_id": "7609af82d5fe442d723e4c618c0cf6b2", "type": "electric_bike", "name": "7609af82d5fe442d723e4c618c0cf6b2"}, {"is_disabled": 0, "is_reserved": 0, "fusion_lat": 0.0, "lat": 38.922422166666664, "fusion_lon": 0.0, "rental_uris": {"ios": "https://dc.lft.to/lastmile_qr_scan", "android": "https://dc.lft.to/lastmile_qr_scan"}, "lon": -77.0401835, "bike_id": "b10340ec2bbda77fef9b38cacdb3ea83", "type": "electric_scooter", "name": "b10340ec2bbda77fef9b38cacdb3ea83"}, {"is_disabled": 0, "is_reserved": 0, "fusion_lat": 0.0, "lat": 38.85794583333333, "fusion_lon": 0.0, "rental_uris": {"ios": "https://dc.lft.to/lastmile_qr_scan", "android": "https://dc.lft.to/lastmile_qr_scan"}, "lon": -76.9874915, "bike_id": "e62a2a9da1b97bedef4a34b92a40c456", "type": "electric_bike", "name": "e62a2a9da1b97bedef4a34b92a40c456"}, {"is_disabled": 0, "is_reserved": 0, "fusion_lat": 0.0, "lat": 38.9005955, "fusion_lon": 0.0, "rental_uris": {"ios": "https://dc.lft.to/lastmile_qr_scan", "android": "https://dc.lft.to/lastmile_qr_scan"}, "lon": -77.01356383333334, "bike_id": "2e61bac6bbfa07d85f00d0af67774178", "type": "electric_scooter", "name": "2e61bac6bbfa07d85f00d0af67774178"}, {"is_disabled": 0, "is_reserved": 0, "fusion_lat": 0.0, "lat": 38.92686633333334, "fusion_lon": 0.0, "rental_uris": {"ios": "https://dc.lft.to/lastmile_qr_scan", "android": "https://dc.lft.to/lastmile_qr_scan"}, "lon": -77.026955, "bike_id": "d5f1c65b1656e5f6aeba5d9c43c34a97", "type": "electric_scooter", "name": "d5f1c65b1656e5f6aeba5d9c43c34a97"}, {"is_disabled": 0, "is_reserved": 0, "fusion_lat": 0.0, "lat": 39.026218, "fusion_lon": 0.0, "rental_uris": {"ios": "https://dc.lft.to/lastmile_qr_scan", "android": "https://dc.lft.to/lastmile_qr_scan"}, "lon": -77.03882933333334, "bike_id": "ab0203c673eba1221acd0a017e86c8d3", "type": "electric_bike", "name": "ab0203c673eba1221acd0a017e86c8d3"}, {"is_disabled": 0, "is_reserved": 0, "fusion_lat": 0.0, "lat": 38.91097383333334, "fusion_lon": 0.0, "rental_uris": {"ios": "https://dc.lft.to/lastmile_qr_scan", "android": "https://dc.lft.to/lastmile_qr_scan"}, "lon": -77.07353033333334, "bike_id": "2998f754823aa366476253c9d023e1b4", "type": "electric_bike", "name": "2998f754823aa366476253c9d023e1b4"}, {"is_disabled": 0, "is_reserved": 0, "fusion_lat": 0.0, "lat": 38.91105683333333, "fusion_lon": 0.0, "rental_uris": {"ios": "https://dc.lft.to/lastmile_qr_scan", "android": "https://dc.lft.to/lastmile_qr_scan"}, "lon": -77.00219266666667, "bike_id": "c5f609d2aa8288b076405d3fdc81e150", "type": "electric_scooter", "name": "c5f609d2aa8288b076405d3fdc81e150"}, {"is_disabled": 0, "is_reserved": 0, "fusion_lat": 0.0, "lat": 38.91820116666667, "fusion_lon": 0.0, "rental_uris": {"ios": "https://dc.lft.to/lastmile_qr_scan", "android": "https://dc.lft.to/lastmile_qr_scan"}, "lon": -77.03234633333334, "bike_id": "5aa9d7cdf5b64f54a1435b00fdb7787a", "type": "electric_scooter", "name": "5aa9d7cdf5b64f54a1435b00fdb7787a"}, {"is_disabled": 0, "is_reserved": 0, "fusion_lat": 0.0, "lat": 38.917010166666664, "fusion_lon": 0.0, "rental_uris": {"ios": "https://dc.lft.to/lastmile_qr_scan", "android": "https://dc.lft.to/lastmile_qr_scan"}, "lon": -77.01185266666667, "bike_id": "ccf65de8b9e5ff4cb5a4ccfbfb6b52cc", "type": "electric_scooter", "name": "ccf65de8b9e5ff4cb5a4ccfbfb6b52cc"}, {"is_disabled": 0, "is_reserved": 0, "fusion_lat": 0.0, "lat": 38.89221366666666, "fusion_lon": 0.0, "rental_uris": {"ios": "https://dc.lft.to/lastmile_qr_scan", "android": "https://dc.lft.to/lastmile_qr_scan"}, "lon": -77.04366833333333, "bike_id": "6a649ee950ce7356a9af9d2971ca6c79", "type": "electric_scooter", "name": "6a649ee950ce7356a9af9d2971ca6c79"}, {"is_disabled": 0, "is_reserved": 0, "fusion_lat": 0.0, "lat": 38.862626166666665, "fusion_lon": 0.0, "rental_uris": {"ios": "https://dc.lft.to/lastmile_qr_scan", "android": "https://dc.lft.to/lastmile_qr_scan"}, "lon": -76.983561, "bike_id": "40fd263505bdcef808eb6229346377b9", "type": "electric_bike", "name": "40fd263505bdcef808eb6229346377b9"}, {"is_disabled": 0, "is_reserved": 0, "fusion_lat": 0.0, "lat": 38.906477, "fusion_lon": 0.0, "rental_uris": {"ios": "https://dc.lft.to/lastmile_qr_scan", "android": "https://dc.lft.to/lastmile_qr_scan"}, "lon": -77.05316783333333, "bike_id": "b1dd0ce79a9dea41a305dd378f49f15e", "type": "electric_scooter", "name": "b1dd0ce79a9dea41a305dd378f49f15e"}, {"is_disabled": 0, "is_reserved": 0, "fusion_lat": 0.0, "lat": 38.891991166666664, "fusion_lon": 0.0, "rental_uris": {"ios": "https://dc.lft.to/lastmile_qr_scan", "android": "https://dc.lft.to/lastmile_qr_scan"}, "lon": -77.04386716666667, "bike_id": "767df64182caf3bccf8d86699bde5f4a", "type": "electric_scooter", "name": "767df64182caf3bccf8d86699bde5f4a"}, {"is_disabled": 0, "is_reserved": 0, "fusion_lat": 0.0, "lat": 38.931721333333336, "fusion_lon": 0.0, "rental_uris": {"ios": "https://dc.lft.to/lastmile_qr_scan", "android": "https://dc.lft.to/lastmile_qr_scan"}, "lon": -77.028192, "bike_id": "fb3cc4f2b2466e08470ae7f0ffd5ceee", "type": "electric_scooter", "name": "fb3cc4f2b2466e08470ae7f0ffd5ceee"}, {"is_disabled": 0, "is_reserved": 0, "fusion_lat": 0.0, "lat": 38.82759733333333, "fusion_lon": 0.0, "rental_uris": {"ios": "https://dc.lft.to/lastmile_qr_scan", "android": "https://dc.lft.to/lastmile_qr_scan"}, "lon": -77.05033016666667, "bike_id": "6ec65d3e795567a932f349c7d246427a", "type": "electric_bike", "name": "6ec65d3e795567a932f349c7d246427a"}, {"is_disabled": 0, "is_reserved": 0, "fusion_lat": 0.0, "lat": 38.931015, "fusion_lon": 0.0, "rental_uris": {"ios": "https://dc.lft.to/lastmile_qr_scan", "android": "https://dc.lft.to/lastmile_qr_scan"}, "lon": -77.0248085, "bike_id": "1120a9ff873e97e75cc49d5aa855d8a2", "type": "electric_scooter", "name": "1120a9ff873e97e75cc49d5aa855d8a2"}, {"is_disabled": 0, "is_reserved": 0, "fusion_lat": 0.0, "lat": 38.918625666666664, "fusion_lon": 0.0, "rental_uris": {"ios": "https://dc.lft.to/lastmile_qr_scan", "android": "https://dc.lft.to/lastmile_qr_scan"}, "lon": -77.040411, "bike_id": "5f47575b56fabc3a60c2cfa273e33d4f", "type": "electric_scooter", "name": "5f47575b56fabc3a60c2cfa273e33d4f"}, {"is_disabled": 0, "is_reserved": 0, "fusion_lat": 0.0, "lat": 38.91549283333333, "fusion_lon": 0.0, "rental_uris": {"ios": "https://dc.lft.to/lastmile_qr_scan", "android": "https://dc.lft.to/lastmile_qr_scan"}, "lon": -77.046377, "bike_id": "ba28d47e4cea853ec4dcd2dea7997400", "type": "electric_scooter", "name": "ba28d47e4cea853ec4dcd2dea7997400"}, {"is_disabled": 0, "is_reserved": 0, "fusion_lat": 0.0, "lat": 38.92517733333333, "fusion_lon": 0.0, "rental_uris": {"ios": "https://dc.lft.to/lastmile_qr_scan", "android": "https://dc.lft.to/lastmile_qr_scan"}, "lon": -77.02128116666667, "bike_id": "d2788d4b4153b91126945e024902391f", "type": "electric_scooter", "name": "d2788d4b4153b91126945e024902391f"}, {"is_disabled": 0, "is_reserved": 0, "fusion_lat": 0.0, "lat": 38.9676655, "fusion_lon": 0.0, "rental_uris": {"ios": "https://dc.lft.to/lastmile_qr_scan", "android": "https://dc.lft.to/lastmile_qr_scan"}, "lon": -77.033537, "bike_id": "d433627d406de050fae637392fade993", "type": "electric_scooter", "name": "d433627d406de050fae637392fade993"}, {"is_disabled": 0, "is_reserved": 0, "fusion_lat": 0.0, "lat": 38.8919695, "fusion_lon": 0.0, "rental_uris": {"ios": "https://dc.lft.to/lastmile_qr_scan", "android": "https://dc.lft.to/lastmile_qr_scan"}, "lon": -77.04394666666667, "bike_id": "bbfe5c45a63ea56e215c11d7ca38f70b", "type": "electric_scooter", "name": "bbfe5c45a63ea56e215c11d7ca38f70b"}, {"is_disabled": 0, "is_reserved": 0, "fusion_lat": 0.0, "lat": 38.942917333333334, "fusion_lon": 0.0, "rental_uris": {"ios": "https://dc.lft.to/lastmile_qr_scan", "android": "https://dc.lft.to/lastmile_qr_scan"}, "lon": -77.07704633333333, "bike_id": "f9b513580c4229c6a1777b4aaf00d922", "type": "electric_scooter", "name": "f9b513580c4229c6a1777b4aaf00d922"}, {"is_disabled": 0, "is_reserved": 0, "fusion_lat": 0.0, "lat": 38.90656533333333, "fusion_lon": 0.0, "rental_uris": {"ios": "https://dc.lft.to/lastmile_qr_scan", "android": "https://dc.lft.to/lastmile_qr_scan"}, "lon": -77.05305166666666, "bike_id": "d0c4c521b007b7faf4a8601dd45130e3", "type": "electric_scooter", "name": "d0c4c521b007b7faf4a8601dd45130e3"}, {"is_disabled": 0, "is_reserved": 0, "fusion_lat": 0.0, "lat": 38.9324015, "fusion_lon": 0.0, "rental_uris": {"ios": "https://dc.lft.to/lastmile_qr_scan", "android": "https://dc.lft.to/lastmile_qr_scan"}, "lon": -77.0388995, "bike_id": "f865dcaedef1487814fb20c8c72f49da", "type": "electric_scooter", "name": "f865dcaedef1487814fb20c8c72f49da"}, {"is_disabled": 0, "is_reserved": 0, "fusion_lat": 0.0, "lat": 38.9049375, "fusion_lon": 0.0, "rental_uris": {"ios": "https://dc.lft.to/lastmile_qr_scan", "android": "https://dc.lft.to/lastmile_qr_scan"}, "lon": -77.04052983333334, "bike_id": "c4447daeac22657bf5a8447b7eebab75", "type": "electric_bike", "name": "c4447daeac22657bf5a8447b7eebab75"}, {"is_disabled": 0, "is_reserved": 0, "fusion_lat": 0.0, "lat": 38.8866255, "fusion_lon": 0.0, "rental_uris": {"ios": "https://dc.lft.to/lastmile_qr_scan", "android": "https://dc.lft.to/lastmile_qr_scan"}, "lon": -77.16235833333333, "bike_id": "a0445819f1dffdd8a2f4a995b7b16f79", "type": "electric_bike", "name": "a0445819f1dffdd8a2f4a995b7b16f79"}, {"is_disabled": 0, "is_reserved": 0, "fusion_lat": 0.0, "lat": 38.92155433333333, "fusion_lon": 0.0, "rental_uris": {"ios": "https://dc.lft.to/lastmile_qr_scan", "android": "https://dc.lft.to/lastmile_qr_scan"}, "lon": -77.03381483333334, "bike_id": "80bf758dc645ddd6fc85330be487ca2f", "type": "electric_scooter", "name": "80bf758dc645ddd6fc85330be487ca2f"}, {"is_disabled": 0, "is_reserved": 0, "fusion_lat": 0.0, "lat": 38.927845, "fusion_lon": 0.0, "rental_uris": {"ios": "https://dc.lft.to/lastmile_qr_scan", "android": "https://dc.lft.to/lastmile_qr_scan"}, "lon": -77.05270733333333, "bike_id": "d8d9e15b85526ba4bed2249a6d28acc4", "type": "electric_scooter", "name": "d8d9e15b85526ba4bed2249a6d28acc4"}, {"is_disabled": 0, "is_reserved": 0, "fusion_lat": 0.0, "lat": 38.92974516666666, "fusion_lon": 0.0, "rental_uris": {"ios": "https://dc.lft.to/lastmile_qr_scan", "android": "https://dc.lft.to/lastmile_qr_scan"}, "lon": -77.02825216666666, "bike_id": "f012d3fd26d2a69210061e1f8ad18633", "type": "electric_scooter", "name": "f012d3fd26d2a69210061e1f8ad18633"}, {"is_disabled": 0, "is_reserved": 0, "fusion_lat": 0.0, "lat": 38.907199166666665, "fusion_lon": 0.0, "rental_uris": {"ios": "https://dc.lft.to/lastmile_qr_scan", "android": "https://dc.lft.to/lastmile_qr_scan"}, "lon": -77.03514116666666, "bike_id": "1e93df4c6e610431015abad4607c4f5b", "type": "electric_scooter", "name": "1e93df4c6e610431015abad4607c4f5b"}, {"is_disabled": 0, "is_reserved": 0, "fusion_lat": 0.0, "lat": 38.892226, "fusion_lon": 0.0, "rental_uris": {"ios": "https://dc.lft.to/lastmile_qr_scan", "android": "https://dc.lft.to/lastmile_qr_scan"}, "lon": -77.04691066666666, "bike_id": "6b49f9c64c6a18ee69a35ca70cffb3d6", "type": "electric_scooter", "name": "6b49f9c64c6a18ee69a35ca70cffb3d6"}, {"is_disabled": 0, "is_reserved": 0, "fusion_lat": 0.0, "lat": 38.893328333333336, "fusion_lon": 0.0, "rental_uris": {"ios": "https://dc.lft.to/lastmile_qr_scan", "android": "https://dc.lft.to/lastmile_qr_scan"}, "lon": -76.92889833333334, "bike_id": "e50b85da3eb2297e7a333305ddbdabb1", "type": "electric_scooter", "name": "e50b85da3eb2297e7a333305ddbdabb1"}, {"is_disabled": 0, "is_reserved": 0, "fusion_lat": 0.0, "lat": 38.925186, "fusion_lon": 0.0, "rental_uris": {"ios": "https://dc.lft.to/lastmile_qr_scan", "android": "https://dc.lft.to/lastmile_qr_scan"}, "lon": -77.0296705, "bike_id": "c2f43ad873585a729fc463d971b7f7d2", "type": "electric_scooter", "name": "c2f43ad873585a729fc463d971b7f7d2"}, {"is_disabled": 0, "is_reserved": 0, "fusion_lat": 0.0, "lat": 38.9033675, "fusion_lon": 0.0, "rental_uris": {"ios": "https://dc.lft.to/lastmile_qr_scan", "android": "https://dc.lft.to/lastmile_qr_scan"}, "lon": -77.02513633333334, "bike_id": "95e829a9e6d751d49c97f1d793450db8", "type": "electric_scooter", "name": "95e829a9e6d751d49c97f1d793450db8"}, {"is_disabled": 0, "is_reserved": 0, "fusion_lat": 0.0, "lat": 38.916882, "fusion_lon": 0.0, "rental_uris": {"ios": "https://dc.lft.to/lastmile_qr_scan", "android": "https://dc.lft.to/lastmile_qr_scan"}, "lon": -77.0252315, "bike_id": "aa09a1e8d5764300a5c795670ea63b12", "type": "electric_scooter", "name": "aa09a1e8d5764300a5c795670ea63b12"}, {"is_disabled": 0, "is_reserved": 0, "fusion_lat": 0.0, "lat": 38.922434, "fusion_lon": 0.0, "rental_uris": {"ios": "https://dc.lft.to/lastmile_qr_scan", "android": "https://dc.lft.to/lastmile_qr_scan"}, "lon": -77.030681, "bike_id": "66f4937431ba52b5f7a15333f4c329e5", "type": "electric_scooter", "name": "66f4937431ba52b5f7a15333f4c329e5"}, {"is_disabled": 0, "is_reserved": 0, "fusion_lat": 0.0, "lat": 38.92035683333334, "fusion_lon": 0.0, "rental_uris": {"ios": "https://dc.lft.to/lastmile_qr_scan", "android": "https://dc.lft.to/lastmile_qr_scan"}, "lon": -77.02600533333333, "bike_id": "88e48244369b72a47614723f7c46e2b0", "type": "electric_scooter", "name": "88e48244369b72a47614723f7c46e2b0"}, {"is_disabled": 0, "is_reserved": 0, "fusion_lat": 0.0, "lat": 38.93634933333333, "fusion_lon": 0.0, "rental_uris": {"ios": "https://dc.lft.to/lastmile_qr_scan", "android": "https://dc.lft.to/lastmile_qr_scan"}, "lon": -77.032617, "bike_id": "5b40c798595516d5d6db8690a7a22af7", "type": "electric_scooter", "name": "5b40c798595516d5d6db8690a7a22af7"}, {"is_disabled": 0, "is_reserved": 0, "fusion_lat": 0.0, "lat": 38.87841483333333, "fusion_lon": 0.0, "rental_uris": {"ios": "https://dc.lft.to/lastmile_qr_scan", "android": "https://dc.lft.to/lastmile_qr_scan"}, "lon": -76.93135933333333, "bike_id": "58652e7081e4fc305dc911569f8c96e0", "type": "electric_scooter", "name": "58652e7081e4fc305dc911569f8c96e0"}, {"is_disabled": 0, "is_reserved": 0, "fusion_lat": 0.0, "lat": 39.010679, "fusion_lon": 0.0, "rental_uris": {"ios": "https://dc.lft.to/lastmile_qr_scan", "android": "https://dc.lft.to/lastmile_qr_scan"}, "lon": -76.922473, "bike_id": "56b915003f3bcaebdf3c32feea3dd99f", "type": "electric_bike", "name": "56b915003f3bcaebdf3c32feea3dd99f"}, {"is_disabled": 0, "is_reserved": 0, "fusion_lat": 0.0, "lat": 38.899276, "fusion_lon": 0.0, "rental_uris": {"ios": "https://dc.lft.to/lastmile_qr_scan", "android": "https://dc.lft.to/lastmile_qr_scan"}, "lon": -77.001579, "bike_id": "a01384e12be127dc3b3e3df1b15dd035", "type": "electric_bike", "name": "a01384e12be127dc3b3e3df1b15dd035"}, {"is_disabled": 0, "is_reserved": 0, "fusion_lat": 0.0, "lat": 38.88415533333333, "fusion_lon": 0.0, "rental_uris": {"ios": "https://dc.lft.to/lastmile_qr_scan", "android": "https://dc.lft.to/lastmile_qr_scan"}, "lon": -76.98355666666667, "bike_id": "74bbe7a66e24e304e1d0b217ac71b48f", "type": "electric_scooter", "name": "74bbe7a66e24e304e1d0b217ac71b48f"}, {"is_disabled": 0, "is_reserved": 0, "fusion_lat": 0.0, "lat": 38.89232166666667, "fusion_lon": 0.0, "rental_uris": {"ios": "https://dc.lft.to/lastmile_qr_scan", "android": "https://dc.lft.to/lastmile_qr_scan"}, "lon": -77.043627, "bike_id": "5a9d312af85330d1c94ebfff57003641", "type": "electric_scooter", "name": "5a9d312af85330d1c94ebfff57003641"}, {"is_disabled": 0, "is_reserved": 0, "fusion_lat": 0.0, "lat": 38.89031133333334, "fusion_lon": 0.0, "rental_uris": {"ios": "https://dc.lft.to/lastmile_qr_scan", "android": "https://dc.lft.to/lastmile_qr_scan"}, "lon": -76.93757183333334, "bike_id": "8c590094a6795ee122b1e21d10463904", "type": "electric_scooter", "name": "8c590094a6795ee122b1e21d10463904"}, {"is_disabled": 0, "is_reserved": 0, "fusion_lat": 0.0, "lat": 38.924516, "fusion_lon": 0.0, "rental_uris": {"ios": "https://dc.lft.to/lastmile_qr_scan", "android": "https://dc.lft.to/lastmile_qr_scan"}, "lon": -77.0203115, "bike_id": "95d903f720501ceda12585917c87005a", "type": "electric_scooter", "name": "95d903f720501ceda12585917c87005a"}, {"is_disabled": 0, "is_reserved": 0, "fusion_lat": 0.0, "lat": 38.9225365, "fusion_lon": 0.0, "rental_uris": {"ios": "https://dc.lft.to/lastmile_qr_scan", "android": "https://dc.lft.to/lastmile_qr_scan"}, "lon": -77.03655033333334, "bike_id": "3be495e843a046c42d87c7878a116b63", "type": "electric_scooter", "name": "3be495e843a046c42d87c7878a116b63"}, {"is_disabled": 0, "is_reserved": 0, "fusion_lat": 0.0, "lat": 38.896377666666666, "fusion_lon": 0.0, "rental_uris": {"ios": "https://dc.lft.to/lastmile_qr_scan", "android": "https://dc.lft.to/lastmile_qr_scan"}, "lon": -77.00753883333333, "bike_id": "d7a5ad2c6733c1146ccce0a86f5a8438", "type": "electric_scooter", "name": "d7a5ad2c6733c1146ccce0a86f5a8438"}, {"is_disabled": 0, "is_reserved": 0, "fusion_lat": 0.0, "lat": 38.9216805, "fusion_lon": 0.0, "rental_uris": {"ios": "https://dc.lft.to/lastmile_qr_scan", "android": "https://dc.lft.to/lastmile_qr_scan"}, "lon": -77.04226166666666, "bike_id": "d97a41388fb240346dbac70d84726205", "type": "electric_scooter", "name": "d97a41388fb240346dbac70d84726205"}, {"is_disabled": 0, "is_reserved": 0, "fusion_lat": 0.0, "lat": 38.896661, "fusion_lon": 0.0, "rental_uris": {"ios": "https://dc.lft.to/lastmile_qr_scan", "android": "https://dc.lft.to/lastmile_qr_scan"}, "lon": -76.94909733333333, "bike_id": "de57a5c539ead3229b2a6b765757f928", "type": "electric_scooter", "name": "de57a5c539ead3229b2a6b765757f928"}, {"is_disabled": 0, "is_reserved": 0, "fusion_lat": 0.0, "lat": 38.941741, "fusion_lon": 0.0, "rental_uris": {"ios": "https://dc.lft.to/lastmile_qr_scan", "android": "https://dc.lft.to/lastmile_qr_scan"}, "lon": -77.01536816666666, "bike_id": "53152cecd9968fe7b73cbf1c9b3840d4", "type": "electric_scooter", "name": "53152cecd9968fe7b73cbf1c9b3840d4"}, {"is_disabled": 0, "is_reserved": 0, "fusion_lat": 0.0, "lat": 38.9156195, "fusion_lon": 0.0, "rental_uris": {"ios": "https://dc.lft.to/lastmile_qr_scan", "android": "https://dc.lft.to/lastmile_qr_scan"}, "lon": -77.02009633333333, "bike_id": "f5ea3c295563fe20d4d66ef310b19622", "type": "electric_scooter", "name": "f5ea3c295563fe20d4d66ef310b19622"}, {"is_disabled": 0, "is_reserved": 0, "fusion_lat": 0.0, "lat": 38.93457266666667, "fusion_lon": 0.0, "rental_uris": {"ios": "https://dc.lft.to/lastmile_qr_scan", "android": "https://dc.lft.to/lastmile_qr_scan"}, "lon": -77.03498833333333, "bike_id": "96143f83c80c32f788c01bfb6252cbd2", "type": "electric_scooter", "name": "96143f83c80c32f788c01bfb6252cbd2"}, {"is_disabled": 0, "is_reserved": 0, "fusion_lat": 0.0, "lat": 38.942871, "fusion_lon": 0.0, "rental_uris": {"ios": "https://dc.lft.to/lastmile_qr_scan", "android": "https://dc.lft.to/lastmile_qr_scan"}, "lon": -77.0217185, "bike_id": "33b151939c3e2f400e03df525bdb8165", "type": "electric_scooter", "name": "33b151939c3e2f400e03df525bdb8165"}, {"is_disabled": 0, "is_reserved": 0, "fusion_lat": 0.0, "lat": 38.917141666666666, "fusion_lon": 0.0, "rental_uris": {"ios": "https://dc.lft.to/lastmile_qr_scan", "android": "https://dc.lft.to/lastmile_qr_scan"}, "lon": -77.022955, "bike_id": "9851774d2f06251e78f5a7f9e07334c8", "type": "electric_scooter", "name": "9851774d2f06251e78f5a7f9e07334c8"}, {"is_disabled": 0, "is_reserved": 0, "fusion_lat": 0.0, "lat": 38.92067383333333, "fusion_lon": 0.0, "rental_uris": {"ios": "https://dc.lft.to/lastmile_qr_scan", "android": "https://dc.lft.to/lastmile_qr_scan"}, "lon": -77.0437885, "bike_id": "ec6a5d9b35dfc5b4fe0cd7ed609d6225", "type": "electric_scooter", "name": "ec6a5d9b35dfc5b4fe0cd7ed609d6225"}, {"is_disabled": 0, "is_reserved": 0, "fusion_lat": 0.0, "lat": 38.892977333333334, "fusion_lon": 0.0, "rental_uris": {"ios": "https://dc.lft.to/lastmile_qr_scan", "android": "https://dc.lft.to/lastmile_qr_scan"}, "lon": -76.99961366666666, "bike_id": "51eb43ad8795192de6b4553bfbe5fcd3", "type": "electric_scooter", "name": "51eb43ad8795192de6b4553bfbe5fcd3"}, {"is_disabled": 0, "is_reserved": 0, "fusion_lat": 0.0, "lat": 38.888977, "fusion_lon": 0.0, "rental_uris": {"ios": "https://dc.lft.to/lastmile_qr_scan", "android": "https://dc.lft.to/lastmile_qr_scan"}, "lon": -76.98372083333334, "bike_id": "ea0f1a92b8d450a47500de215408540b", "type": "electric_scooter", "name": "ea0f1a92b8d450a47500de215408540b"}, {"is_disabled": 0, "is_reserved": 0, "fusion_lat": 0.0, "lat": 38.932864333333335, "fusion_lon": 0.0, "rental_uris": {"ios": "https://dc.lft.to/lastmile_qr_scan", "android": "https://dc.lft.to/lastmile_qr_scan"}, "lon": -77.03550733333333, "bike_id": "f4a3d15ab1a6d97921d3268e724fd640", "type": "electric_scooter", "name": "f4a3d15ab1a6d97921d3268e724fd640"}, {"is_disabled": 0, "is_reserved": 0, "fusion_lat": 0.0, "lat": 38.921204333333336, "fusion_lon": 0.0, "rental_uris": {"ios": "https://dc.lft.to/lastmile_qr_scan", "android": "https://dc.lft.to/lastmile_qr_scan"}, "lon": -77.0121225, "bike_id": "e8e8a170421088d7c4e73001f375f3da", "type": "electric_scooter", "name": "e8e8a170421088d7c4e73001f375f3da"}, {"is_disabled": 0, "is_reserved": 0, "fusion_lat": 0.0, "lat": 38.8972765, "fusion_lon": 0.0, "rental_uris": {"ios": "https://dc.lft.to/lastmile_qr_scan", "android": "https://dc.lft.to/lastmile_qr_scan"}, "lon": -77.027208, "bike_id": "e0c1633bbf81c261c3c04db14a513748", "type": "electric_scooter", "name": "e0c1633bbf81c261c3c04db14a513748"}, {"is_disabled": 0, "is_reserved": 0, "fusion_lat": 0.0, "lat": 38.898600333333334, "fusion_lon": 0.0, "rental_uris": {"ios": "https://dc.lft.to/lastmile_qr_scan", "android": "https://dc.lft.to/lastmile_qr_scan"}, "lon": -76.94645416666667, "bike_id": "56493456eece22e61aec05ae99631d5a", "type": "electric_scooter", "name": "56493456eece22e61aec05ae99631d5a"}, {"is_disabled": 0, "is_reserved": 0, "fusion_lat": 0.0, "lat": 38.938711833333336, "fusion_lon": 0.0, "rental_uris": {"ios": "https://dc.lft.to/lastmile_qr_scan", "android": "https://dc.lft.to/lastmile_qr_scan"}, "lon": -77.03042883333333, "bike_id": "36935797d25ba7f351da8d77e82bb10d", "type": "electric_scooter", "name": "36935797d25ba7f351da8d77e82bb10d"}, {"is_disabled": 0, "is_reserved": 0, "fusion_lat": 0.0, "lat": 38.870689, "fusion_lon": 0.0, "rental_uris": {"ios": "https://dc.lft.to/lastmile_qr_scan", "android": "https://dc.lft.to/lastmile_qr_scan"}, "lon": -76.979422, "bike_id": "733cb8418726f5506c6145846df8c3fc", "type": "electric_scooter", "name": "733cb8418726f5506c6145846df8c3fc"}, {"is_disabled": 0, "is_reserved": 0, "fusion_lat": 0.0, "lat": 38.8965755, "fusion_lon": 0.0, "rental_uris": {"ios": "https://dc.lft.to/lastmile_qr_scan", "android": "https://dc.lft.to/lastmile_qr_scan"}, "lon": -77.05085, "bike_id": "8e75b7de8a86cd9fd5fa78dc45f5909e", "type": "electric_scooter", "name": "8e75b7de8a86cd9fd5fa78dc45f5909e"}, {"is_disabled": 0, "is_reserved": 0, "fusion_lat": 0.0, "lat": 38.919898, "fusion_lon": 0.0, "rental_uris": {"ios": "https://dc.lft.to/lastmile_qr_scan", "android": "https://dc.lft.to/lastmile_qr_scan"}, "lon": -77.03247916666666, "bike_id": "f959329db93f5a9a2a49967271305166", "type": "electric_scooter", "name": "f959329db93f5a9a2a49967271305166"}, {"is_disabled": 0, "is_reserved": 0, "fusion_lat": 0.0, "lat": 38.90549583333333, "fusion_lon": 0.0, "rental_uris": {"ios": "https://dc.lft.to/lastmile_qr_scan", "android": "https://dc.lft.to/lastmile_qr_scan"}, "lon": -77.0171235, "bike_id": "10369ade71150a51bf9e8aa246269c14", "type": "electric_scooter", "name": "10369ade71150a51bf9e8aa246269c14"}, {"is_disabled": 0, "is_reserved": 0, "fusion_lat": 0.0, "lat": 38.956846, "fusion_lon": 0.0, "rental_uris": {"ios": "https://dc.lft.to/lastmile_qr_scan", "android": "https://dc.lft.to/lastmile_qr_scan"}, "lon": -77.02231316666666, "bike_id": "3c89e7f35f8750657165c06701359c0c", "type": "electric_bike", "name": "3c89e7f35f8750657165c06701359c0c"}, {"is_disabled": 0, "is_reserved": 0, "fusion_lat": 0.0, "lat": 38.89830666666667, "fusion_lon": 0.0, "rental_uris": {"ios": "https://dc.lft.to/lastmile_qr_scan", "android": "https://dc.lft.to/lastmile_qr_scan"}, "lon": -76.946356, "bike_id": "f01344648873eea276556cb2ba480860", "type": "electric_scooter", "name": "f01344648873eea276556cb2ba480860"}, {"is_disabled": 0, "is_reserved": 0, "fusion_lat": 0.0, "lat": 38.909022666666665, "fusion_lon": 0.0, "rental_uris": {"ios": "https://dc.lft.to/lastmile_qr_scan", "android": "https://dc.lft.to/lastmile_qr_scan"}, "lon": -77.004582, "bike_id": "7544aef6185558aae18dbc1df9c80f5b", "type": "electric_scooter", "name": "7544aef6185558aae18dbc1df9c80f5b"}, {"is_disabled": 0, "is_reserved": 0, "fusion_lat": 0.0, "lat": 38.923168833333335, "fusion_lon": 0.0, "rental_uris": {"ios": "https://dc.lft.to/lastmile_qr_scan", "android": "https://dc.lft.to/lastmile_qr_scan"}, "lon": -77.041822, "bike_id": "8be5dc0d2e355c8d7997bd11f1c585a3", "type": "electric_scooter", "name": "8be5dc0d2e355c8d7997bd11f1c585a3"}, {"is_disabled": 0, "is_reserved": 0, "fusion_lat": 0.0, "lat": 38.94977316666667, "fusion_lon": 0.0, "rental_uris": {"ios": "https://dc.lft.to/lastmile_qr_scan", "android": "https://dc.lft.to/lastmile_qr_scan"}, "lon": -77.02447466666666, "bike_id": "ad2c3775ecab1a5597d4ce828aedd6fb", "type": "electric_scooter", "name": "ad2c3775ecab1a5597d4ce828aedd6fb"}, {"is_disabled": 0, "is_reserved": 0, "fusion_lat": 0.0, "lat": 38.8941515, "fusion_lon": 0.0, "rental_uris": {"ios": "https://dc.lft.to/lastmile_qr_scan", "android": "https://dc.lft.to/lastmile_qr_scan"}, "lon": -77.02142216666667, "bike_id": "b1668ef88315ab70cac579800d6c5eb0", "type": "electric_scooter", "name": "b1668ef88315ab70cac579800d6c5eb0"}, {"is_disabled": 0, "is_reserved": 0, "fusion_lat": 0.0, "lat": 38.94186933333334, "fusion_lon": 0.0, "rental_uris": {"ios": "https://dc.lft.to/lastmile_qr_scan", "android": "https://dc.lft.to/lastmile_qr_scan"}, "lon": -77.02318566666666, "bike_id": "159a01b391ce7b15d521e69a1083a1c1", "type": "electric_bike", "name": "159a01b391ce7b15d521e69a1083a1c1"}, {"is_disabled": 0, "is_reserved": 0, "fusion_lat": 0.0, "lat": 38.935266166666665, "fusion_lon": 0.0, "rental_uris": {"ios": "https://dc.lft.to/lastmile_qr_scan", "android": "https://dc.lft.to/lastmile_qr_scan"}, "lon": -77.03819716666666, "bike_id": "1e2e5eade2b065d63e7bfaf0347a8165", "type": "electric_scooter", "name": "1e2e5eade2b065d63e7bfaf0347a8165"}, {"is_disabled": 0, "is_reserved": 0, "fusion_lat": 0.0, "lat": 38.933756, "fusion_lon": 0.0, "rental_uris": {"ios": "https://dc.lft.to/lastmile_qr_scan", "android": "https://dc.lft.to/lastmile_qr_scan"}, "lon": -77.02730883333334, "bike_id": "9e42a6b155a28886cb3558aa38937d33", "type": "electric_scooter", "name": "9e42a6b155a28886cb3558aa38937d33"}, {"is_disabled": 0, "is_reserved": 0, "fusion_lat": 0.0, "lat": 38.9617505, "fusion_lon": 0.0, "rental_uris": {"ios": "https://dc.lft.to/lastmile_qr_scan", "android": "https://dc.lft.to/lastmile_qr_scan"}, "lon": -77.03229583333334, "bike_id": "f7a65ac3c481539bc2f884f1ad8214b9", "type": "electric_scooter", "name": "f7a65ac3c481539bc2f884f1ad8214b9"}, {"is_disabled": 0, "is_reserved": 0, "fusion_lat": 0.0, "lat": 38.886589666666666, "fusion_lon": 0.0, "rental_uris": {"ios": "https://dc.lft.to/lastmile_qr_scan", "android": "https://dc.lft.to/lastmile_qr_scan"}, "lon": -77.0338755, "bike_id": "859ff3db654c39c134604c412e091aba", "type": "electric_scooter", "name": "859ff3db654c39c134604c412e091aba"}, {"is_disabled": 0, "is_reserved": 0, "fusion_lat": 0.0, "lat": 38.943683, "fusion_lon": 0.0, "rental_uris": {"ios": "https://dc.lft.to/lastmile_qr_scan", "android": "https://dc.lft.to/lastmile_qr_scan"}, "lon": -77.06108016666667, "bike_id": "8eb1958d7ff1e687cd611c8d7253a3b9", "type": "electric_scooter", "name": "8eb1958d7ff1e687cd611c8d7253a3b9"}, {"is_disabled": 0, "is_reserved": 0, "fusion_lat": 0.0, "lat": 38.93736233333333, "fusion_lon": 0.0, "rental_uris": {"ios": "https://dc.lft.to/lastmile_qr_scan", "android": "https://dc.lft.to/lastmile_qr_scan"}, "lon": -77.0358675, "bike_id": "85f3a52df07a913fc8cc0e6a52af52f2", "type": "electric_scooter", "name": "85f3a52df07a913fc8cc0e6a52af52f2"}, {"is_disabled": 0, "is_reserved": 0, "fusion_lat": 0.0, "lat": 38.919292166666665, "fusion_lon": 0.0, "rental_uris": {"ios": "https://dc.lft.to/lastmile_qr_scan", "android": "https://dc.lft.to/lastmile_qr_scan"}, "lon": -77.02476083333333, "bike_id": "16d146a66d156262a9e9424980fce8f4", "type": "electric_scooter", "name": "16d146a66d156262a9e9424980fce8f4"}, {"is_disabled": 0, "is_reserved": 0, "fusion_lat": 0.0, "lat": 38.93698416666667, "fusion_lon": 0.0, "rental_uris": {"ios": "https://dc.lft.to/lastmile_qr_scan", "android": "https://dc.lft.to/lastmile_qr_scan"}, "lon": -77.05684583333333, "bike_id": "b43701a33fdbb3b45dae0975cb9bb3f4", "type": "electric_scooter", "name": "b43701a33fdbb3b45dae0975cb9bb3f4"}, {"is_disabled": 0, "is_reserved": 0, "fusion_lat": 0.0, "lat": 38.91521566666667, "fusion_lon": 0.0, "rental_uris": {"ios": "https://dc.lft.to/lastmile_qr_scan", "android": "https://dc.lft.to/lastmile_qr_scan"}, "lon": -77.04160933333333, "bike_id": "1816f950c876825ebd5c0824d23f0f11", "type": "electric_scooter", "name": "1816f950c876825ebd5c0824d23f0f11"}, {"is_disabled": 0, "is_reserved": 0, "fusion_lat": 0.0, "lat": 38.8950915, "fusion_lon": 0.0, "rental_uris": {"ios": "https://dc.lft.to/lastmile_qr_scan", "android": "https://dc.lft.to/lastmile_qr_scan"}, "lon": -77.04162666666667, "bike_id": "c2618d0e1c1cf297144733fab43519a8", "type": "electric_scooter", "name": "c2618d0e1c1cf297144733fab43519a8"}, {"is_disabled": 0, "is_reserved": 0, "fusion_lat": 0.0, "lat": 38.8871505, "fusion_lon": 0.0, "rental_uris": {"ios": "https://dc.lft.to/lastmile_qr_scan", "android": "https://dc.lft.to/lastmile_qr_scan"}, "lon": -76.99612683333334, "bike_id": "ae7c8158459ed3e09f334e375e8f6f5f", "type": "electric_scooter", "name": "ae7c8158459ed3e09f334e375e8f6f5f"}, {"is_disabled": 0, "is_reserved": 0, "fusion_lat": 0.0, "lat": 38.902533, "fusion_lon": 0.0, "rental_uris": {"ios": "https://dc.lft.to/lastmile_qr_scan", "android": "https://dc.lft.to/lastmile_qr_scan"}, "lon": -77.02651566666667, "bike_id": "0889a7b3ef57c4e571a3bb89341af58d", "type": "electric_scooter", "name": "0889a7b3ef57c4e571a3bb89341af58d"}, {"is_disabled": 0, "is_reserved": 0, "fusion_lat": 0.0, "lat": 38.917743, "fusion_lon": 0.0, "rental_uris": {"ios": "https://dc.lft.to/lastmile_qr_scan", "android": "https://dc.lft.to/lastmile_qr_scan"}, "lon": -77.04252066666666, "bike_id": "fd9000e1086658260b9bfa7eb0f603a8", "type": "electric_scooter", "name": "fd9000e1086658260b9bfa7eb0f603a8"}, {"is_disabled": 0, "is_reserved": 0, "fusion_lat": 0.0, "lat": 38.97476866666667, "fusion_lon": 0.0, "rental_uris": {"ios": "https://dc.lft.to/lastmile_qr_scan", "android": "https://dc.lft.to/lastmile_qr_scan"}, "lon": -76.98667166666667, "bike_id": "5dddd3d3d72891d218f2bc3989b1b700", "type": "electric_bike", "name": "5dddd3d3d72891d218f2bc3989b1b700"}, {"is_disabled": 0, "is_reserved": 0, "fusion_lat": 0.0, "lat": 38.846274666666666, "fusion_lon": 0.0, "rental_uris": {"ios": "https://dc.lft.to/lastmile_qr_scan", "android": "https://dc.lft.to/lastmile_qr_scan"}, "lon": -76.96904983333333, "bike_id": "cbd490a1615bc1bff498a767e840d635", "type": "electric_bike", "name": "cbd490a1615bc1bff498a767e840d635"}, {"is_disabled": 0, "is_reserved": 0, "fusion_lat": 0.0, "lat": 39.02933216666667, "fusion_lon": 0.0, "rental_uris": {"ios": "https://dc.lft.to/lastmile_qr_scan", "android": "https://dc.lft.to/lastmile_qr_scan"}, "lon": -77.0136275, "bike_id": "a7a640d0f077175c90d69ee5a757f04d", "type": "electric_bike", "name": "a7a640d0f077175c90d69ee5a757f04d"}, {"is_disabled": 0, "is_reserved": 0, "fusion_lat": 0.0, "lat": 38.834881833333334, "fusion_lon": 0.0, "rental_uris": {"ios": "https://dc.lft.to/lastmile_qr_scan", "android": "https://dc.lft.to/lastmile_qr_scan"}, "lon": -77.00436933333333, "bike_id": "53cdb5462b331a15f1a360b9bbd8ee44", "type": "electric_bike", "name": "53cdb5462b331a15f1a360b9bbd8ee44"}, {"is_disabled": 0, "is_reserved": 0, "fusion_lat": 0.0, "lat": 38.898323500000004, "fusion_lon": 0.0, "rental_uris": {"ios": "https://dc.lft.to/lastmile_qr_scan", "android": "https://dc.lft.to/lastmile_qr_scan"}, "lon": -77.0293285, "bike_id": "97c079d1ff6cedaa3c0e87babc4940f7", "type": "electric_scooter", "name": "97c079d1ff6cedaa3c0e87babc4940f7"}, {"is_disabled": 0, "is_reserved": 0, "fusion_lat": 0.0, "lat": 38.908948333333335, "fusion_lon": 0.0, "rental_uris": {"ios": "https://dc.lft.to/lastmile_qr_scan", "android": "https://dc.lft.to/lastmile_qr_scan"}, "lon": -77.04386016666666, "bike_id": "5c4e6805732496883dc575d74f952225", "type": "electric_scooter", "name": "5c4e6805732496883dc575d74f952225"}, {"is_disabled": 0, "is_reserved": 0, "fusion_lat": 0.0, "lat": 38.931316333333335, "fusion_lon": 0.0, "rental_uris": {"ios": "https://dc.lft.to/lastmile_qr_scan", "android": "https://dc.lft.to/lastmile_qr_scan"}, "lon": -77.02808333333333, "bike_id": "b0565716f75771d62751234f6b5cad09", "type": "electric_scooter", "name": "b0565716f75771d62751234f6b5cad09"}, {"is_disabled": 0, "is_reserved": 0, "fusion_lat": 0.0, "lat": 38.897523, "fusion_lon": 0.0, "rental_uris": {"ios": "https://dc.lft.to/lastmile_qr_scan", "android": "https://dc.lft.to/lastmile_qr_scan"}, "lon": -77.02124366666666, "bike_id": "7d7310cd9dfe849b27c8d5717c3ddf87", "type": "electric_scooter", "name": "7d7310cd9dfe849b27c8d5717c3ddf87"}, {"is_disabled": 0, "is_reserved": 0, "fusion_lat": 0.0, "lat": 38.916922166666666, "fusion_lon": 0.0, "rental_uris": {"ios": "https://dc.lft.to/lastmile_qr_scan", "android": "https://dc.lft.to/lastmile_qr_scan"}, "lon": -77.02517066666667, "bike_id": "34a39b47a6fe9b8f135cca98e9669297", "type": "electric_scooter", "name": "34a39b47a6fe9b8f135cca98e9669297"}, {"is_disabled": 0, "is_reserved": 0, "fusion_lat": 0.0, "lat": 38.93311933333333, "fusion_lon": 0.0, "rental_uris": {"ios": "https://dc.lft.to/lastmile_qr_scan", "android": "https://dc.lft.to/lastmile_qr_scan"}, "lon": -77.03186783333334, "bike_id": "ac922c685ef89624aca559d38bcb7915", "type": "electric_scooter", "name": "ac922c685ef89624aca559d38bcb7915"}, {"is_disabled": 0, "is_reserved": 0, "fusion_lat": 0.0, "lat": 38.9352105, "fusion_lon": 0.0, "rental_uris": {"ios": "https://dc.lft.to/lastmile_qr_scan", "android": "https://dc.lft.to/lastmile_qr_scan"}, "lon": -77.0816445, "bike_id": "4226e56460d94c1a57053321a8d3ae80", "type": "electric_scooter", "name": "4226e56460d94c1a57053321a8d3ae80"}, {"is_disabled": 0, "is_reserved": 0, "fusion_lat": 0.0, "lat": 38.93066683333333, "fusion_lon": 0.0, "rental_uris": {"ios": "https://dc.lft.to/lastmile_qr_scan", "android": "https://dc.lft.to/lastmile_qr_scan"}, "lon": -77.03216116666667, "bike_id": "92a4ae17d28cbfd82a268fb8e9eac5e1", "type": "electric_scooter", "name": "92a4ae17d28cbfd82a268fb8e9eac5e1"}, {"is_disabled": 0, "is_reserved": 0, "fusion_lat": 0.0, "lat": 38.89349983333334, "fusion_lon": 0.0, "rental_uris": {"ios": "https://dc.lft.to/lastmile_qr_scan", "android": "https://dc.lft.to/lastmile_qr_scan"}, "lon": -76.99215483333333, "bike_id": "063c3e87e4c43229ad57654c7668b643", "type": "electric_scooter", "name": "063c3e87e4c43229ad57654c7668b643"}, {"is_disabled": 0, "is_reserved": 0, "fusion_lat": 0.0, "lat": 38.912025166666666, "fusion_lon": 0.0, "rental_uris": {"ios": "https://dc.lft.to/lastmile_qr_scan", "android": "https://dc.lft.to/lastmile_qr_scan"}, "lon": -77.020993, "bike_id": "e57808772402ba828087d10c55c7b6aa", "type": "electric_scooter", "name": "e57808772402ba828087d10c55c7b6aa"}, {"is_disabled": 0, "is_reserved": 0, "fusion_lat": 0.0, "lat": 38.917634166666666, "fusion_lon": 0.0, "rental_uris": {"ios": "https://dc.lft.to/lastmile_qr_scan", "android": "https://dc.lft.to/lastmile_qr_scan"}, "lon": -77.00453933333333, "bike_id": "c8767507b611c90e455e3aafc74a8df0", "type": "electric_scooter", "name": "c8767507b611c90e455e3aafc74a8df0"}, {"is_disabled": 0, "is_reserved": 0, "fusion_lat": 0.0, "lat": 38.907068333333335, "fusion_lon": 0.0, "rental_uris": {"ios": "https://dc.lft.to/lastmile_qr_scan", "android": "https://dc.lft.to/lastmile_qr_scan"}, "lon": -77.03194133333334, "bike_id": "f010381123f99bd50a9628210c30f743", "type": "electric_scooter", "name": "f010381123f99bd50a9628210c30f743"}, {"is_disabled": 0, "is_reserved": 0, "fusion_lat": 0.0, "lat": 38.911016833333335, "fusion_lon": 0.0, "rental_uris": {"ios": "https://dc.lft.to/lastmile_qr_scan", "android": "https://dc.lft.to/lastmile_qr_scan"}, "lon": -77.01876266666666, "bike_id": "4971498ef47da1708386848141b2ab7f", "type": "electric_scooter", "name": "4971498ef47da1708386848141b2ab7f"}, {"is_disabled": 0, "is_reserved": 0, "fusion_lat": 0.0, "lat": 38.891949333333336, "fusion_lon": 0.0, "rental_uris": {"ios": "https://dc.lft.to/lastmile_qr_scan", "android": "https://dc.lft.to/lastmile_qr_scan"}, "lon": -77.02474233333334, "bike_id": "a9810fc7edaa67212853913d25f41d5e", "type": "electric_scooter", "name": "a9810fc7edaa67212853913d25f41d5e"}, {"is_disabled": 0, "is_reserved": 0, "fusion_lat": 0.0, "lat": 38.92161016666667, "fusion_lon": 0.0, "rental_uris": {"ios": "https://dc.lft.to/lastmile_qr_scan", "android": "https://dc.lft.to/lastmile_qr_scan"}, "lon": -77.036506, "bike_id": "e6b72da632edfdc3c2bd000bfffb8083", "type": "electric_scooter", "name": "e6b72da632edfdc3c2bd000bfffb8083"}, {"is_disabled": 0, "is_reserved": 0, "fusion_lat": 0.0, "lat": 38.89255583333333, "fusion_lon": 0.0, "rental_uris": {"ios": "https://dc.lft.to/lastmile_qr_scan", "android": "https://dc.lft.to/lastmile_qr_scan"}, "lon": -77.05025016666667, "bike_id": "0dd432f02810610971edbe9e4abbc901", "type": "electric_scooter", "name": "0dd432f02810610971edbe9e4abbc901"}, {"is_disabled": 0, "is_reserved": 0, "fusion_lat": 0.0, "lat": 38.884798833333335, "fusion_lon": 0.0, "rental_uris": {"ios": "https://dc.lft.to/lastmile_qr_scan", "android": "https://dc.lft.to/lastmile_qr_scan"}, "lon": -77.03358166666666, "bike_id": "0abb32d5a5e8cdb90bd8ccef672accfc", "type": "electric_scooter", "name": "0abb32d5a5e8cdb90bd8ccef672accfc"}, {"is_disabled": 0, "is_reserved": 0, "fusion_lat": 0.0, "lat": 38.907198, "fusion_lon": 0.0, "rental_uris": {"ios": "https://dc.lft.to/lastmile_qr_scan", "android": "https://dc.lft.to/lastmile_qr_scan"}, "lon": -77.05310716666666, "bike_id": "0e244767eed25fb9f0e8f25ac9d4eb6b", "type": "electric_scooter", "name": "0e244767eed25fb9f0e8f25ac9d4eb6b"}, {"is_disabled": 0, "is_reserved": 0, "fusion_lat": 0.0, "lat": 38.939151, "fusion_lon": 0.0, "rental_uris": {"ios": "https://dc.lft.to/lastmile_qr_scan", "android": "https://dc.lft.to/lastmile_qr_scan"}, "lon": -77.03264666666666, "bike_id": "3f52a950e7726ae87dce8de06339139a", "type": "electric_scooter", "name": "3f52a950e7726ae87dce8de06339139a"}, {"is_disabled": 0, "is_reserved": 0, "fusion_lat": 0.0, "lat": 38.887130666666664, "fusion_lon": 0.0, "rental_uris": {"ios": "https://dc.lft.to/lastmile_qr_scan", "android": "https://dc.lft.to/lastmile_qr_scan"}, "lon": -76.99631366666667, "bike_id": "4b9e57f4a1ea738904f830111e31d4ba", "type": "electric_scooter", "name": "4b9e57f4a1ea738904f830111e31d4ba"}, {"is_disabled": 0, "is_reserved": 0, "fusion_lat": 0.0, "lat": 38.89048666666667, "fusion_lon": 0.0, "rental_uris": {"ios": "https://dc.lft.to/lastmile_qr_scan", "android": "https://dc.lft.to/lastmile_qr_scan"}, "lon": -77.019718, "bike_id": "2ac1e321f546bfc52e404de3e017965a", "type": "electric_scooter", "name": "2ac1e321f546bfc52e404de3e017965a"}, {"is_disabled": 0, "is_reserved": 0, "fusion_lat": 0.0, "lat": 38.89290916666667, "fusion_lon": 0.0, "rental_uris": {"ios": "https://dc.lft.to/lastmile_qr_scan", "android": "https://dc.lft.to/lastmile_qr_scan"}, "lon": -77.05003866666667, "bike_id": "a32ef4a368b2c077a11eebcb114c4ca8", "type": "electric_scooter", "name": "a32ef4a368b2c077a11eebcb114c4ca8"}, {"is_disabled": 0, "is_reserved": 0, "fusion_lat": 0.0, "lat": 38.92385933333333, "fusion_lon": 0.0, "rental_uris": {"ios": "https://dc.lft.to/lastmile_qr_scan", "android": "https://dc.lft.to/lastmile_qr_scan"}, "lon": -77.04314733333334, "bike_id": "81bfd91fc2adf375715c7bbacb09385e", "type": "electric_scooter", "name": "81bfd91fc2adf375715c7bbacb09385e"}, {"is_disabled": 0, "is_reserved": 0, "fusion_lat": 0.0, "lat": 38.92346166666667, "fusion_lon": 0.0, "rental_uris": {"ios": "https://dc.lft.to/lastmile_qr_scan", "android": "https://dc.lft.to/lastmile_qr_scan"}, "lon": -77.0561885, "bike_id": "085f54547346944c9eea93ba55163b97", "type": "electric_scooter", "name": "085f54547346944c9eea93ba55163b97"}, {"is_disabled": 0, "is_reserved": 0, "fusion_lat": 0.0, "lat": 38.86828783333333, "fusion_lon": 0.0, "rental_uris": {"ios": "https://dc.lft.to/lastmile_qr_scan", "android": "https://dc.lft.to/lastmile_qr_scan"}, "lon": -76.9801235, "bike_id": "9bc73bd814f3d9a0a03b851ca4ba479d", "type": "electric_bike", "name": "9bc73bd814f3d9a0a03b851ca4ba479d"}, {"is_disabled": 0, "is_reserved": 0, "fusion_lat": 0.0, "lat": 38.87912166666667, "fusion_lon": 0.0, "rental_uris": {"ios": "https://dc.lft.to/lastmile_qr_scan", "android": "https://dc.lft.to/lastmile_qr_scan"}, "lon": -77.008669, "bike_id": "33fe4fa185c50be8e2aa54dd97e8e8e1", "type": "electric_scooter", "name": "33fe4fa185c50be8e2aa54dd97e8e8e1"}, {"is_disabled": 0, "is_reserved": 0, "fusion_lat": 0.0, "lat": 38.870663666666665, "fusion_lon": 0.0, "rental_uris": {"ios": "https://dc.lft.to/lastmile_qr_scan", "android": "https://dc.lft.to/lastmile_qr_scan"}, "lon": -77.11040916666667, "bike_id": "a44336080c3402032a6fa8b23444a40c", "type": "electric_bike", "name": "a44336080c3402032a6fa8b23444a40c"}, {"is_disabled": 0, "is_reserved": 0, "fusion_lat": 0.0, "lat": 38.91710633333334, "fusion_lon": 0.0, "rental_uris": {"ios": "https://dc.lft.to/lastmile_qr_scan", "android": "https://dc.lft.to/lastmile_qr_scan"}, "lon": -77.02505666666667, "bike_id": "04bf009e1279798b0dde9750d94696ad", "type": "electric_scooter", "name": "04bf009e1279798b0dde9750d94696ad"}, {"is_disabled": 0, "is_reserved": 0, "fusion_lat": 0.0, "lat": 38.97441233333333, "fusion_lon": 0.0, "rental_uris": {"ios": "https://dc.lft.to/lastmile_qr_scan", "android": "https://dc.lft.to/lastmile_qr_scan"}, "lon": -77.09588966666666, "bike_id": "4d7f56cf6feaac25713ed4bdda4ab861", "type": "electric_bike", "name": "4d7f56cf6feaac25713ed4bdda4ab861"}, {"is_disabled": 0, "is_reserved": 0, "fusion_lat": 0.0, "lat": 38.876585166666665, "fusion_lon": 0.0, "rental_uris": {"ios": "https://dc.lft.to/lastmile_qr_scan", "android": "https://dc.lft.to/lastmile_qr_scan"}, "lon": -77.00887583333333, "bike_id": "a0dea6abe4c7df2f1a1d5a7395653d7d", "type": "electric_scooter", "name": "a0dea6abe4c7df2f1a1d5a7395653d7d"}, {"is_disabled": 0, "is_reserved": 0, "fusion_lat": 0.0, "lat": 38.9222505, "fusion_lon": 0.0, "rental_uris": {"ios": "https://dc.lft.to/lastmile_qr_scan", "android": "https://dc.lft.to/lastmile_qr_scan"}, "lon": -77.04246283333333, "bike_id": "3773a03a53e7dac3f4fe2a05ab4638a9", "type": "electric_scooter", "name": "3773a03a53e7dac3f4fe2a05ab4638a9"}, {"is_disabled": 0, "is_reserved": 0, "fusion_lat": 0.0, "lat": 38.934155, "fusion_lon": 0.0, "rental_uris": {"ios": "https://dc.lft.to/lastmile_qr_scan", "android": "https://dc.lft.to/lastmile_qr_scan"}, "lon": -77.072269, "bike_id": "adbd91058f18e924e06c126934a2313f", "type": "electric_scooter", "name": "adbd91058f18e924e06c126934a2313f"}, {"is_disabled": 0, "is_reserved": 0, "fusion_lat": 0.0, "lat": 38.909548, "fusion_lon": 0.0, "rental_uris": {"ios": "https://dc.lft.to/lastmile_qr_scan", "android": "https://dc.lft.to/lastmile_qr_scan"}, "lon": -77.0334575, "bike_id": "024c1a13b58fbc8e773c2f6a10cc4c1e", "type": "electric_scooter", "name": "024c1a13b58fbc8e773c2f6a10cc4c1e"}, {"is_disabled": 0, "is_reserved": 0, "fusion_lat": 0.0, "lat": 38.920209166666666, "fusion_lon": 0.0, "rental_uris": {"ios": "https://dc.lft.to/lastmile_qr_scan", "android": "https://dc.lft.to/lastmile_qr_scan"}, "lon": -77.03118366666666, "bike_id": "66676d1d47b9d7c6aeb8ac623986bd97", "type": "electric_scooter", "name": "66676d1d47b9d7c6aeb8ac623986bd97"}, {"is_disabled": 0, "is_reserved": 0, "fusion_lat": 0.0, "lat": 38.911254166666666, "fusion_lon": 0.0, "rental_uris": {"ios": "https://dc.lft.to/lastmile_qr_scan", "android": "https://dc.lft.to/lastmile_qr_scan"}, "lon": -77.02821733333333, "bike_id": "ebe95dc67b7093e90af4c41b2b33079d", "type": "electric_scooter", "name": "ebe95dc67b7093e90af4c41b2b33079d"}, {"is_disabled": 0, "is_reserved": 0, "fusion_lat": 0.0, "lat": 38.896683, "fusion_lon": 0.0, "rental_uris": {"ios": "https://dc.lft.to/lastmile_qr_scan", "android": "https://dc.lft.to/lastmile_qr_scan"}, "lon": -76.93208533333333, "bike_id": "ec42b5971804273f8c86de586da07df2", "type": "electric_bike", "name": "ec42b5971804273f8c86de586da07df2"}, {"is_disabled": 0, "is_reserved": 0, "fusion_lat": 0.0, "lat": 38.92305116666667, "fusion_lon": 0.0, "rental_uris": {"ios": "https://dc.lft.to/lastmile_qr_scan", "android": "https://dc.lft.to/lastmile_qr_scan"}, "lon": -77.0340045, "bike_id": "95806bb8b661246ef83a5d6743a4d8bc", "type": "electric_scooter", "name": "95806bb8b661246ef83a5d6743a4d8bc"}, {"is_disabled": 0, "is_reserved": 0, "fusion_lat": 0.0, "lat": 38.900338166666664, "fusion_lon": 0.0, "rental_uris": {"ios": "https://dc.lft.to/lastmile_qr_scan", "android": "https://dc.lft.to/lastmile_qr_scan"}, "lon": -76.99152033333333, "bike_id": "cc24e8883016e531c43cf58a2c0d2f07", "type": "electric_scooter", "name": "cc24e8883016e531c43cf58a2c0d2f07"}, {"is_disabled": 0, "is_reserved": 0, "fusion_lat": 0.0, "lat": 38.9563305, "fusion_lon": 0.0, "rental_uris": {"ios": "https://dc.lft.to/lastmile_qr_scan", "android": "https://dc.lft.to/lastmile_qr_scan"}, "lon": -77.02444166666666, "bike_id": "493f12ff689730d630fb3ebd162c0ff2", "type": "electric_scooter", "name": "493f12ff689730d630fb3ebd162c0ff2"}, {"is_disabled": 0, "is_reserved": 0, "fusion_lat": 0.0, "lat": 38.912165333333334, "fusion_lon": 0.0, "rental_uris": {"ios": "https://dc.lft.to/lastmile_qr_scan", "android": "https://dc.lft.to/lastmile_qr_scan"}, "lon": -77.027141, "bike_id": "fabf5ae614c495f48781089e472ecb1c", "type": "electric_scooter", "name": "fabf5ae614c495f48781089e472ecb1c"}, {"is_disabled": 0, "is_reserved": 0, "fusion_lat": 0.0, "lat": 38.93762866666667, "fusion_lon": 0.0, "rental_uris": {"ios": "https://dc.lft.to/lastmile_qr_scan", "android": "https://dc.lft.to/lastmile_qr_scan"}, "lon": -77.02481066666667, "bike_id": "d72fcc20a8f606b62e65930f606e1f55", "type": "electric_scooter", "name": "d72fcc20a8f606b62e65930f606e1f55"}, {"is_disabled": 0, "is_reserved": 0, "fusion_lat": 0.0, "lat": 38.93792, "fusion_lon": 0.0, "rental_uris": {"ios": "https://dc.lft.to/lastmile_qr_scan", "android": "https://dc.lft.to/lastmile_qr_scan"}, "lon": -77.029806, "bike_id": "7322c9c7150eac35fbdb74e9e59bafdf", "type": "electric_scooter", "name": "7322c9c7150eac35fbdb74e9e59bafdf"}, {"is_disabled": 0, "is_reserved": 0, "fusion_lat": 0.0, "lat": 38.9038355, "fusion_lon": 0.0, "rental_uris": {"ios": "https://dc.lft.to/lastmile_qr_scan", "android": "https://dc.lft.to/lastmile_qr_scan"}, "lon": -77.0176, "bike_id": "e70a8dd57603f08fa6b09a180c499de3", "type": "electric_scooter", "name": "e70a8dd57603f08fa6b09a180c499de3"}, {"is_disabled": 0, "is_reserved": 0, "fusion_lat": 0.0, "lat": 38.89953466666667, "fusion_lon": 0.0, "rental_uris": {"ios": "https://dc.lft.to/lastmile_qr_scan", "android": "https://dc.lft.to/lastmile_qr_scan"}, "lon": -77.05101583333334, "bike_id": "a4a6567e9db90029b0fa7aa3ac0ef61b", "type": "electric_scooter", "name": "a4a6567e9db90029b0fa7aa3ac0ef61b"}, {"is_disabled": 0, "is_reserved": 0, "fusion_lat": 0.0, "lat": 38.922897666666664, "fusion_lon": 0.0, "rental_uris": {"ios": "https://dc.lft.to/lastmile_qr_scan", "android": "https://dc.lft.to/lastmile_qr_scan"}, "lon": -77.02965516666667, "bike_id": "5f4c438e8dff285b43ce1fe48f503366", "type": "electric_scooter", "name": "5f4c438e8dff285b43ce1fe48f503366"}, {"is_disabled": 0, "is_reserved": 0, "fusion_lat": 0.0, "lat": 38.8836165, "fusion_lon": 0.0, "rental_uris": {"ios": "https://dc.lft.to/lastmile_qr_scan", "android": "https://dc.lft.to/lastmile_qr_scan"}, "lon": -76.95765916666667, "bike_id": "10a925180342a33dab6f6e00272f711a", "type": "electric_scooter", "name": "10a925180342a33dab6f6e00272f711a"}, {"is_disabled": 0, "is_reserved": 0, "fusion_lat": 0.0, "lat": 38.91996133333333, "fusion_lon": 0.0, "rental_uris": {"ios": "https://dc.lft.to/lastmile_qr_scan", "android": "https://dc.lft.to/lastmile_qr_scan"}, "lon": -77.04745183333333, "bike_id": "55933c6597a2926a19b3c4cc70644c43", "type": "electric_scooter", "name": "55933c6597a2926a19b3c4cc70644c43"}, {"is_disabled": 0, "is_reserved": 0, "fusion_lat": 0.0, "lat": 38.892284333333336, "fusion_lon": 0.0, "rental_uris": {"ios": "https://dc.lft.to/lastmile_qr_scan", "android": "https://dc.lft.to/lastmile_qr_scan"}, "lon": -77.0500715, "bike_id": "79dbd84fb28e1d174aba4905b08ea88a", "type": "electric_scooter", "name": "79dbd84fb28e1d174aba4905b08ea88a"}, {"is_disabled": 0, "is_reserved": 0, "fusion_lat": 0.0, "lat": 38.917545833333335, "fusion_lon": 0.0, "rental_uris": {"ios": "https://dc.lft.to/lastmile_qr_scan", "android": "https://dc.lft.to/lastmile_qr_scan"}, "lon": -77.03907033333333, "bike_id": "a6dde5df44551957831c883a6627b6f0", "type": "electric_scooter", "name": "a6dde5df44551957831c883a6627b6f0"}, {"is_disabled": 0, "is_reserved": 0, "fusion_lat": 0.0, "lat": 38.948386, "fusion_lon": 0.0, "rental_uris": {"ios": "https://dc.lft.to/lastmile_qr_scan", "android": "https://dc.lft.to/lastmile_qr_scan"}, "lon": -77.07982333333334, "bike_id": "0d17938d679111762ff134c8cb4c8ebd", "type": "electric_scooter", "name": "0d17938d679111762ff134c8cb4c8ebd"}, {"is_disabled": 0, "is_reserved": 0, "fusion_lat": 0.0, "lat": 38.94260216666667, "fusion_lon": 0.0, "rental_uris": {"ios": "https://dc.lft.to/lastmile_qr_scan", "android": "https://dc.lft.to/lastmile_qr_scan"}, "lon": -76.98460733333333, "bike_id": "18b7336e6d8ebb32b12a0cefef2301f3", "type": "electric_scooter", "name": "18b7336e6d8ebb32b12a0cefef2301f3"}, {"is_disabled": 0, "is_reserved": 0, "fusion_lat": 0.0, "lat": 38.8999095, "fusion_lon": 0.0, "rental_uris": {"ios": "https://dc.lft.to/lastmile_qr_scan", "android": "https://dc.lft.to/lastmile_qr_scan"}, "lon": -77.006639, "bike_id": "0a99af2fd23c6e454d7722537dd4e47a", "type": "electric_scooter", "name": "0a99af2fd23c6e454d7722537dd4e47a"}, {"is_disabled": 0, "is_reserved": 0, "fusion_lat": 0.0, "lat": 38.91559866666667, "fusion_lon": 0.0, "rental_uris": {"ios": "https://dc.lft.to/lastmile_qr_scan", "android": "https://dc.lft.to/lastmile_qr_scan"}, "lon": -77.02173416666666, "bike_id": "d65a41a75adfba61e308ad34bbef2912", "type": "electric_scooter", "name": "d65a41a75adfba61e308ad34bbef2912"}, {"is_disabled": 0, "is_reserved": 0, "fusion_lat": 0.0, "lat": 38.922970166666666, "fusion_lon": 0.0, "rental_uris": {"ios": "https://dc.lft.to/lastmile_qr_scan", "android": "https://dc.lft.to/lastmile_qr_scan"}, "lon": -77.041434, "bike_id": "9f7d36ac245c9f8e8e78338bc3bd20c8", "type": "electric_scooter", "name": "9f7d36ac245c9f8e8e78338bc3bd20c8"}, {"is_disabled": 0, "is_reserved": 0, "fusion_lat": 0.0, "lat": 38.929022833333335, "fusion_lon": 0.0, "rental_uris": {"ios": "https://dc.lft.to/lastmile_qr_scan", "android": "https://dc.lft.to/lastmile_qr_scan"}, "lon": -77.05987666666667, "bike_id": "e47202d01e03ac4da2b2fdb74ee35cac", "type": "electric_scooter", "name": "e47202d01e03ac4da2b2fdb74ee35cac"}, {"is_disabled": 0, "is_reserved": 0, "fusion_lat": 0.0, "lat": 38.90912483333334, "fusion_lon": 0.0, "rental_uris": {"ios": "https://dc.lft.to/lastmile_qr_scan", "android": "https://dc.lft.to/lastmile_qr_scan"}, "lon": -77.02321266666667, "bike_id": "c4d144a8f53df368e71ccca793ed9b8f", "type": "electric_scooter", "name": "c4d144a8f53df368e71ccca793ed9b8f"}, {"is_disabled": 0, "is_reserved": 0, "fusion_lat": 0.0, "lat": 38.917594666666666, "fusion_lon": 0.0, "rental_uris": {"ios": "https://dc.lft.to/lastmile_qr_scan", "android": "https://dc.lft.to/lastmile_qr_scan"}, "lon": -77.02407566666666, "bike_id": "e7f941d47e3ea23c5671706898d7d897", "type": "electric_scooter", "name": "e7f941d47e3ea23c5671706898d7d897"}, {"is_disabled": 0, "is_reserved": 0, "fusion_lat": 0.0, "lat": 38.91821566666667, "fusion_lon": 0.0, "rental_uris": {"ios": "https://dc.lft.to/lastmile_qr_scan", "android": "https://dc.lft.to/lastmile_qr_scan"}, "lon": -77.03216333333333, "bike_id": "a19d573e7033d333f8cc86fa28d401fd", "type": "electric_scooter", "name": "a19d573e7033d333f8cc86fa28d401fd"}, {"is_disabled": 0, "is_reserved": 0, "fusion_lat": 0.0, "lat": 38.9267315, "fusion_lon": 0.0, "rental_uris": {"ios": "https://dc.lft.to/lastmile_qr_scan", "android": "https://dc.lft.to/lastmile_qr_scan"}, "lon": -77.02279266666666, "bike_id": "06e8de36fd8dcc02fb14d8d046f89267", "type": "electric_scooter", "name": "06e8de36fd8dcc02fb14d8d046f89267"}, {"is_disabled": 0, "is_reserved": 0, "fusion_lat": 0.0, "lat": 38.91948516666667, "fusion_lon": 0.0, "rental_uris": {"ios": "https://dc.lft.to/lastmile_qr_scan", "android": "https://dc.lft.to/lastmile_qr_scan"}, "lon": -77.0139085, "bike_id": "1cdc1f64d839f8e497b2fe67a66b8be8", "type": "electric_scooter", "name": "1cdc1f64d839f8e497b2fe67a66b8be8"}, {"is_disabled": 0, "is_reserved": 0, "fusion_lat": 0.0, "lat": 38.891917166666666, "fusion_lon": 0.0, "rental_uris": {"ios": "https://dc.lft.to/lastmile_qr_scan", "android": "https://dc.lft.to/lastmile_qr_scan"}, "lon": -77.02231133333333, "bike_id": "a18305f461b199f7f7114712e48e6786", "type": "electric_scooter", "name": "a18305f461b199f7f7114712e48e6786"}, {"is_disabled": 0, "is_reserved": 0, "fusion_lat": 0.0, "lat": 38.8842785, "fusion_lon": 0.0, "rental_uris": {"ios": "https://dc.lft.to/lastmile_qr_scan", "android": "https://dc.lft.to/lastmile_qr_scan"}, "lon": -77.02992683333333, "bike_id": "0d40a12506806ba9843997174476c8e4", "type": "electric_scooter", "name": "0d40a12506806ba9843997174476c8e4"}, {"is_disabled": 0, "is_reserved": 0, "fusion_lat": 0.0, "lat": 38.919096, "fusion_lon": 0.0, "rental_uris": {"ios": "https://dc.lft.to/lastmile_qr_scan", "android": "https://dc.lft.to/lastmile_qr_scan"}, "lon": -77.025366, "bike_id": "2f834cd9df5e3ead0550ab472b684736", "type": "electric_scooter", "name": "2f834cd9df5e3ead0550ab472b684736"}, {"is_disabled": 0, "is_reserved": 0, "fusion_lat": 0.0, "lat": 38.88877683333333, "fusion_lon": 0.0, "rental_uris": {"ios": "https://dc.lft.to/lastmile_qr_scan", "android": "https://dc.lft.to/lastmile_qr_scan"}, "lon": -76.95702716666666, "bike_id": "dc6a6574ae95b2fe3fcdfd42995795c6", "type": "electric_bike", "name": "dc6a6574ae95b2fe3fcdfd42995795c6"}, {"is_disabled": 0, "is_reserved": 0, "fusion_lat": 0.0, "lat": 38.930534, "fusion_lon": 0.0, "rental_uris": {"ios": "https://dc.lft.to/lastmile_qr_scan", "android": "https://dc.lft.to/lastmile_qr_scan"}, "lon": -77.03370333333334, "bike_id": "20828388ae359f3d11290651d592bf11", "type": "electric_scooter", "name": "20828388ae359f3d11290651d592bf11"}, {"is_disabled": 0, "is_reserved": 0, "fusion_lat": 0.0, "lat": 38.881851, "fusion_lon": 0.0, "rental_uris": {"ios": "https://dc.lft.to/lastmile_qr_scan", "android": "https://dc.lft.to/lastmile_qr_scan"}, "lon": -77.00598466666666, "bike_id": "f38b8adc1a9f6ec4998db33ec0860291", "type": "electric_scooter", "name": "f38b8adc1a9f6ec4998db33ec0860291"}, {"is_disabled": 0, "is_reserved": 0, "fusion_lat": 0.0, "lat": 38.88992983333333, "fusion_lon": 0.0, "rental_uris": {"ios": "https://dc.lft.to/lastmile_qr_scan", "android": "https://dc.lft.to/lastmile_qr_scan"}, "lon": -77.0003895, "bike_id": "1e07d91e32ccc140bd36f5917c774d79", "type": "electric_bike", "name": "1e07d91e32ccc140bd36f5917c774d79"}, {"is_disabled": 0, "is_reserved": 0, "fusion_lat": 0.0, "lat": 38.9375225, "fusion_lon": 0.0, "rental_uris": {"ios": "https://dc.lft.to/lastmile_qr_scan", "android": "https://dc.lft.to/lastmile_qr_scan"}, "lon": -77.03263183333334, "bike_id": "c1296bb60390e8ede68af163d65b37f5", "type": "electric_scooter", "name": "c1296bb60390e8ede68af163d65b37f5"}, {"is_disabled": 0, "is_reserved": 0, "fusion_lat": 0.0, "lat": 38.90900933333333, "fusion_lon": 0.0, "rental_uris": {"ios": "https://dc.lft.to/lastmile_qr_scan", "android": "https://dc.lft.to/lastmile_qr_scan"}, "lon": -77.0339775, "bike_id": "c6ec458e65393bcf042b9950f7d22ce5", "type": "electric_scooter", "name": "c6ec458e65393bcf042b9950f7d22ce5"}, {"is_disabled": 0, "is_reserved": 0, "fusion_lat": 0.0, "lat": 38.883710666666666, "fusion_lon": 0.0, "rental_uris": {"ios": "https://dc.lft.to/lastmile_qr_scan", "android": "https://dc.lft.to/lastmile_qr_scan"}, "lon": -76.99522266666666, "bike_id": "94f7c40c6329e2636e1024ae9abd18c1", "type": "electric_scooter", "name": "94f7c40c6329e2636e1024ae9abd18c1"}, {"is_disabled": 0, "is_reserved": 0, "fusion_lat": 0.0, "lat": 38.889875333333336, "fusion_lon": 0.0, "rental_uris": {"ios": "https://dc.lft.to/lastmile_qr_scan", "android": "https://dc.lft.to/lastmile_qr_scan"}, "lon": -77.00341583333334, "bike_id": "25e404d6ab9b002fb43d3e6d359573e5", "type": "electric_scooter", "name": "25e404d6ab9b002fb43d3e6d359573e5"}, {"is_disabled": 0, "is_reserved": 0, "fusion_lat": 0.0, "lat": 38.892195, "fusion_lon": 0.0, "rental_uris": {"ios": "https://dc.lft.to/lastmile_qr_scan", "android": "https://dc.lft.to/lastmile_qr_scan"}, "lon": -77.023522, "bike_id": "2a18ef86f536c682d584eb6d0c573f1f", "type": "electric_scooter", "name": "2a18ef86f536c682d584eb6d0c573f1f"}, {"is_disabled": 0, "is_reserved": 0, "fusion_lat": 0.0, "lat": 38.92746966666667, "fusion_lon": 0.0, "rental_uris": {"ios": "https://dc.lft.to/lastmile_qr_scan", "android": "https://dc.lft.to/lastmile_qr_scan"}, "lon": -77.06467383333333, "bike_id": "a00ba59026b25d35db46b3fb0d86bff3", "type": "electric_scooter", "name": "a00ba59026b25d35db46b3fb0d86bff3"}, {"is_disabled": 0, "is_reserved": 0, "fusion_lat": 0.0, "lat": 38.9178975, "fusion_lon": 0.0, "rental_uris": {"ios": "https://dc.lft.to/lastmile_qr_scan", "android": "https://dc.lft.to/lastmile_qr_scan"}, "lon": -77.04668916666667, "bike_id": "c42575cc0f8015320b86473c3a0953c8", "type": "electric_scooter", "name": "c42575cc0f8015320b86473c3a0953c8"}, {"is_disabled": 0, "is_reserved": 0, "fusion_lat": 0.0, "lat": 38.892790833333336, "fusion_lon": 0.0, "rental_uris": {"ios": "https://dc.lft.to/lastmile_qr_scan", "android": "https://dc.lft.to/lastmile_qr_scan"}, "lon": -77.05035583333333, "bike_id": "44cbe86e9d4dfc0096974421fd80ad01", "type": "electric_scooter", "name": "44cbe86e9d4dfc0096974421fd80ad01"}, {"is_disabled": 0, "is_reserved": 0, "fusion_lat": 0.0, "lat": 38.89246883333333, "fusion_lon": 0.0, "rental_uris": {"ios": "https://dc.lft.to/lastmile_qr_scan", "android": "https://dc.lft.to/lastmile_qr_scan"}, "lon": -77.03209833333334, "bike_id": "2aa3e9289e7a83ddd9c8d6d9666c772d", "type": "electric_scooter", "name": "2aa3e9289e7a83ddd9c8d6d9666c772d"}, {"is_disabled": 0, "is_reserved": 0, "fusion_lat": 0.0, "lat": 38.83041716666666, "fusion_lon": 0.0, "rental_uris": {"ios": "https://dc.lft.to/lastmile_qr_scan", "android": "https://dc.lft.to/lastmile_qr_scan"}, "lon": -77.0082335, "bike_id": "59e2f8519f9b44b17a6f7ac096ba82e6", "type": "electric_bike", "name": "59e2f8519f9b44b17a6f7ac096ba82e6"}, {"is_disabled": 0, "is_reserved": 0, "fusion_lat": 0.0, "lat": 38.923676, "fusion_lon": 0.0, "rental_uris": {"ios": "https://dc.lft.to/lastmile_qr_scan", "android": "https://dc.lft.to/lastmile_qr_scan"}, "lon": -77.01915316666667, "bike_id": "1f38b68c30bd2c24a12f2af76bae9328", "type": "electric_scooter", "name": "1f38b68c30bd2c24a12f2af76bae9328"}, {"is_disabled": 0, "is_reserved": 0, "fusion_lat": 0.0, "lat": 38.904877166666665, "fusion_lon": 0.0, "rental_uris": {"ios": "https://dc.lft.to/lastmile_qr_scan", "android": "https://dc.lft.to/lastmile_qr_scan"}, "lon": -77.00872883333334, "bike_id": "90b7fce6d22444087add3823507b9481", "type": "electric_scooter", "name": "90b7fce6d22444087add3823507b9481"}, {"is_disabled": 0, "is_reserved": 0, "fusion_lat": 0.0, "lat": 38.9302, "fusion_lon": 0.0, "rental_uris": {"ios": "https://dc.lft.to/lastmile_qr_scan", "android": "https://dc.lft.to/lastmile_qr_scan"}, "lon": -77.02335283333333, "bike_id": "3e4d48ca05544888a10b11754788b742", "type": "electric_scooter", "name": "3e4d48ca05544888a10b11754788b742"}, {"is_disabled": 0, "is_reserved": 0, "fusion_lat": 0.0, "lat": 38.90994083333333, "fusion_lon": 0.0, "rental_uris": {"ios": "https://dc.lft.to/lastmile_qr_scan", "android": "https://dc.lft.to/lastmile_qr_scan"}, "lon": -77.04012466666667, "bike_id": "0c63f762d39da92c741cd8117b64ea0a", "type": "electric_scooter", "name": "0c63f762d39da92c741cd8117b64ea0a"}, {"is_disabled": 0, "is_reserved": 0, "fusion_lat": 0.0, "lat": 38.915627, "fusion_lon": 0.0, "rental_uris": {"ios": "https://dc.lft.to/lastmile_qr_scan", "android": "https://dc.lft.to/lastmile_qr_scan"}, "lon": -77.02177133333333, "bike_id": "249e4d3f96e37743d327654b339b7497", "type": "electric_scooter", "name": "249e4d3f96e37743d327654b339b7497"}, {"is_disabled": 0, "is_reserved": 0, "fusion_lat": 0.0, "lat": 38.913331666666664, "fusion_lon": 0.0, "rental_uris": {"ios": "https://dc.lft.to/lastmile_qr_scan", "android": "https://dc.lft.to/lastmile_qr_scan"}, "lon": -77.04579966666667, "bike_id": "e1a42c2fa8d6085985eabc17fb82c68b", "type": "electric_scooter", "name": "e1a42c2fa8d6085985eabc17fb82c68b"}, {"is_disabled": 0, "is_reserved": 0, "fusion_lat": 0.0, "lat": 38.930444, "fusion_lon": 0.0, "rental_uris": {"ios": "https://dc.lft.to/lastmile_qr_scan", "android": "https://dc.lft.to/lastmile_qr_scan"}, "lon": -77.03606166666667, "bike_id": "7de3cb4d9d5579708db18fe0e791f418", "type": "electric_scooter", "name": "7de3cb4d9d5579708db18fe0e791f418"}, {"is_disabled": 0, "is_reserved": 0, "fusion_lat": 0.0, "lat": 38.910815666666664, "fusion_lon": 0.0, "rental_uris": {"ios": "https://dc.lft.to/lastmile_qr_scan", "android": "https://dc.lft.to/lastmile_qr_scan"}, "lon": -77.06547266666666, "bike_id": "57ccb013f717031fe30c4793fdfb5a84", "type": "electric_scooter", "name": "57ccb013f717031fe30c4793fdfb5a84"}, {"is_disabled": 0, "is_reserved": 0, "fusion_lat": 0.0, "lat": 38.9180975, "fusion_lon": 0.0, "rental_uris": {"ios": "https://dc.lft.to/lastmile_qr_scan", "android": "https://dc.lft.to/lastmile_qr_scan"}, "lon": -77.03439116666667, "bike_id": "ae39e61ffc297ae301d9e3daf131a731", "type": "electric_scooter", "name": "ae39e61ffc297ae301d9e3daf131a731"}, {"is_disabled": 0, "is_reserved": 0, "fusion_lat": 0.0, "lat": 38.918054833333336, "fusion_lon": 0.0, "rental_uris": {"ios": "https://dc.lft.to/lastmile_qr_scan", "android": "https://dc.lft.to/lastmile_qr_scan"}, "lon": -77.03719316666667, "bike_id": "34a0fd88b06f3189402743e07fa10b54", "type": "electric_scooter", "name": "34a0fd88b06f3189402743e07fa10b54"}, {"is_disabled": 0, "is_reserved": 0, "fusion_lat": 0.0, "lat": 38.953291666666665, "fusion_lon": 0.0, "rental_uris": {"ios": "https://dc.lft.to/lastmile_qr_scan", "android": "https://dc.lft.to/lastmile_qr_scan"}, "lon": -76.98251316666666, "bike_id": "655a14df74876e9809bf799307f1c5db", "type": "electric_bike", "name": "655a14df74876e9809bf799307f1c5db"}, {"is_disabled": 0, "is_reserved": 0, "fusion_lat": 0.0, "lat": 38.9361235, "fusion_lon": 0.0, "rental_uris": {"ios": "https://dc.lft.to/lastmile_qr_scan", "android": "https://dc.lft.to/lastmile_qr_scan"}, "lon": -76.9499675, "bike_id": "f992073f515194e9d79ac4670169b9a9", "type": "electric_bike", "name": "f992073f515194e9d79ac4670169b9a9"}, {"is_disabled": 0, "is_reserved": 0, "fusion_lat": 0.0, "lat": 38.90525616666667, "fusion_lon": 0.0, "rental_uris": {"ios": "https://dc.lft.to/lastmile_qr_scan", "android": "https://dc.lft.to/lastmile_qr_scan"}, "lon": -77.0620375, "bike_id": "efc0e0484aa97d02ef398322d2f5a7da", "type": "electric_scooter", "name": "efc0e0484aa97d02ef398322d2f5a7da"}, {"is_disabled": 0, "is_reserved": 0, "fusion_lat": 0.0, "lat": 38.91680216666666, "fusion_lon": 0.0, "rental_uris": {"ios": "https://dc.lft.to/lastmile_qr_scan", "android": "https://dc.lft.to/lastmile_qr_scan"}, "lon": -77.03642266666667, "bike_id": "0c093fef0a08af852c4d5e8590bef20d", "type": "electric_scooter", "name": "0c093fef0a08af852c4d5e8590bef20d"}, {"is_disabled": 0, "is_reserved": 0, "fusion_lat": 0.0, "lat": 38.89747716666667, "fusion_lon": 0.0, "rental_uris": {"ios": "https://dc.lft.to/lastmile_qr_scan", "android": "https://dc.lft.to/lastmile_qr_scan"}, "lon": -77.05490783333333, "bike_id": "3c9c1170a1165667e26a41f5dc5a6d52", "type": "electric_scooter", "name": "3c9c1170a1165667e26a41f5dc5a6d52"}, {"is_disabled": 0, "is_reserved": 0, "fusion_lat": 0.0, "lat": 38.85937366666667, "fusion_lon": 0.0, "rental_uris": {"ios": "https://dc.lft.to/lastmile_qr_scan", "android": "https://dc.lft.to/lastmile_qr_scan"}, "lon": -76.9868275, "bike_id": "456816f9b5f36fec12773d8a49e8d145", "type": "electric_scooter", "name": "456816f9b5f36fec12773d8a49e8d145"}, {"is_disabled": 0, "is_reserved": 0, "fusion_lat": 0.0, "lat": 38.89687716666667, "fusion_lon": 0.0, "rental_uris": {"ios": "https://dc.lft.to/lastmile_qr_scan", "android": "https://dc.lft.to/lastmile_qr_scan"}, "lon": -76.9390995, "bike_id": "02b9573c98ed1625263e93e762421c91", "type": "electric_scooter", "name": "02b9573c98ed1625263e93e762421c91"}, {"is_disabled": 0, "is_reserved": 0, "fusion_lat": 0.0, "lat": 38.932594, "fusion_lon": 0.0, "rental_uris": {"ios": "https://dc.lft.to/lastmile_qr_scan", "android": "https://dc.lft.to/lastmile_qr_scan"}, "lon": -77.02098316666667, "bike_id": "a7e737adacfa44e77f199213affa9f28", "type": "electric_scooter", "name": "a7e737adacfa44e77f199213affa9f28"}, {"is_disabled": 0, "is_reserved": 0, "fusion_lat": 0.0, "lat": 38.899663, "fusion_lon": 0.0, "rental_uris": {"ios": "https://dc.lft.to/lastmile_qr_scan", "android": "https://dc.lft.to/lastmile_qr_scan"}, "lon": -77.02342466666667, "bike_id": "1370e880d86816c7ce9dcb01d87b4d6f", "type": "electric_scooter", "name": "1370e880d86816c7ce9dcb01d87b4d6f"}, {"is_disabled": 0, "is_reserved": 0, "fusion_lat": 0.0, "lat": 38.884877833333334, "fusion_lon": 0.0, "rental_uris": {"ios": "https://dc.lft.to/lastmile_qr_scan", "android": "https://dc.lft.to/lastmile_qr_scan"}, "lon": -77.03479266666666, "bike_id": "517ee41c43fff963ebdd026a2151c1df", "type": "electric_scooter", "name": "517ee41c43fff963ebdd026a2151c1df"}, {"is_disabled": 0, "is_reserved": 0, "fusion_lat": 0.0, "lat": 38.8467485, "fusion_lon": 0.0, "rental_uris": {"ios": "https://dc.lft.to/lastmile_qr_scan", "android": "https://dc.lft.to/lastmile_qr_scan"}, "lon": -77.1393515, "bike_id": "e2e28bef4a998ef1688b51331a79f59a", "type": "electric_bike", "name": "e2e28bef4a998ef1688b51331a79f59a"}, {"is_disabled": 0, "is_reserved": 0, "fusion_lat": 0.0, "lat": 38.911280833333336, "fusion_lon": 0.0, "rental_uris": {"ios": "https://dc.lft.to/lastmile_qr_scan", "android": "https://dc.lft.to/lastmile_qr_scan"}, "lon": -77.02199383333334, "bike_id": "3a58e74c9412cfbeb2f88aeeeb11d6f6", "type": "electric_scooter", "name": "3a58e74c9412cfbeb2f88aeeeb11d6f6"}, {"is_disabled": 0, "is_reserved": 0, "fusion_lat": 0.0, "lat": 38.91552033333333, "fusion_lon": 0.0, "rental_uris": {"ios": "https://dc.lft.to/lastmile_qr_scan", "android": "https://dc.lft.to/lastmile_qr_scan"}, "lon": -77.05104383333334, "bike_id": "228764d8e9ea5e6f4668cfef6ec996e5", "type": "electric_scooter", "name": "228764d8e9ea5e6f4668cfef6ec996e5"}, {"is_disabled": 0, "is_reserved": 0, "fusion_lat": 0.0, "lat": 38.915118666666665, "fusion_lon": 0.0, "rental_uris": {"ios": "https://dc.lft.to/lastmile_qr_scan", "android": "https://dc.lft.to/lastmile_qr_scan"}, "lon": -77.019053, "bike_id": "d6ba80cc05db7477c26d9e2025eaee5d", "type": "electric_scooter", "name": "d6ba80cc05db7477c26d9e2025eaee5d"}, {"is_disabled": 0, "is_reserved": 0, "fusion_lat": 0.0, "lat": 38.8896545, "fusion_lon": 0.0, "rental_uris": {"ios": "https://dc.lft.to/lastmile_qr_scan", "android": "https://dc.lft.to/lastmile_qr_scan"}, "lon": -76.98034333333334, "bike_id": "d62a36ba4cc62b8ef4b42d68ef6700d9", "type": "electric_scooter", "name": "d62a36ba4cc62b8ef4b42d68ef6700d9"}, {"is_disabled": 0, "is_reserved": 0, "fusion_lat": 0.0, "lat": 38.91916066666667, "fusion_lon": 0.0, "rental_uris": {"ios": "https://dc.lft.to/lastmile_qr_scan", "android": "https://dc.lft.to/lastmile_qr_scan"}, "lon": -77.0309345, "bike_id": "6f49bebe526d15d479020913f6e8ab0b", "type": "electric_scooter", "name": "6f49bebe526d15d479020913f6e8ab0b"}, {"is_disabled": 0, "is_reserved": 0, "fusion_lat": 0.0, "lat": 38.89198583333334, "fusion_lon": 0.0, "rental_uris": {"ios": "https://dc.lft.to/lastmile_qr_scan", "android": "https://dc.lft.to/lastmile_qr_scan"}, "lon": -77.04388633333333, "bike_id": "c361f86b7470493a0f11c0dd2117efcf", "type": "electric_scooter", "name": "c361f86b7470493a0f11c0dd2117efcf"}, {"is_disabled": 0, "is_reserved": 0, "fusion_lat": 0.0, "lat": 38.822049166666666, "fusion_lon": 0.0, "rental_uris": {"ios": "https://dc.lft.to/lastmile_qr_scan", "android": "https://dc.lft.to/lastmile_qr_scan"}, "lon": -76.97704333333333, "bike_id": "fd017c746d6072673a6291f744d8a73f", "type": "electric_bike", "name": "fd017c746d6072673a6291f744d8a73f"}, {"is_disabled": 0, "is_reserved": 0, "fusion_lat": 0.0, "lat": 38.90694383333334, "fusion_lon": 0.0, "rental_uris": {"ios": "https://dc.lft.to/lastmile_qr_scan", "android": "https://dc.lft.to/lastmile_qr_scan"}, "lon": -76.95256433333333, "bike_id": "f6ade03535db85c5979fb95718e9c0ef", "type": "electric_bike", "name": "f6ade03535db85c5979fb95718e9c0ef"}, {"is_disabled": 0, "is_reserved": 0, "fusion_lat": 0.0, "lat": 38.915609, "fusion_lon": 0.0, "rental_uris": {"ios": "https://dc.lft.to/lastmile_qr_scan", "android": "https://dc.lft.to/lastmile_qr_scan"}, "lon": -77.00085516666667, "bike_id": "27882a037aaf9bb99941e347abbc1e4d", "type": "electric_scooter", "name": "27882a037aaf9bb99941e347abbc1e4d"}, {"is_disabled": 0, "is_reserved": 0, "fusion_lat": 0.0, "lat": 38.884415833333335, "fusion_lon": 0.0, "rental_uris": {"ios": "https://dc.lft.to/lastmile_qr_scan", "android": "https://dc.lft.to/lastmile_qr_scan"}, "lon": -77.02496016666667, "bike_id": "bd6e97b2824a7a9bdbcf136c459326e4", "type": "electric_scooter", "name": "bd6e97b2824a7a9bdbcf136c459326e4"}, {"is_disabled": 0, "is_reserved": 0, "fusion_lat": 0.0, "lat": 38.90078366666667, "fusion_lon": 0.0, "rental_uris": {"ios": "https://dc.lft.to/lastmile_qr_scan", "android": "https://dc.lft.to/lastmile_qr_scan"}, "lon": -77.05080083333333, "bike_id": "1aef876fb1b2578e47ccc216ec4567e9", "type": "electric_scooter", "name": "1aef876fb1b2578e47ccc216ec4567e9"}, {"is_disabled": 0, "is_reserved": 0, "fusion_lat": 0.0, "lat": 38.926096333333334, "fusion_lon": 0.0, "rental_uris": {"ios": "https://dc.lft.to/lastmile_qr_scan", "android": "https://dc.lft.to/lastmile_qr_scan"}, "lon": -77.079701, "bike_id": "9f2c566ee9787621cd59ed5522c14a4e", "type": "electric_scooter", "name": "9f2c566ee9787621cd59ed5522c14a4e"}, {"is_disabled": 0, "is_reserved": 0, "fusion_lat": 0.0, "lat": 38.921376333333335, "fusion_lon": 0.0, "rental_uris": {"ios": "https://dc.lft.to/lastmile_qr_scan", "android": "https://dc.lft.to/lastmile_qr_scan"}, "lon": -77.045611, "bike_id": "e80359d63d4a041a6c0ad615c2da4d87", "type": "electric_scooter", "name": "e80359d63d4a041a6c0ad615c2da4d87"}, {"is_disabled": 0, "is_reserved": 0, "fusion_lat": 0.0, "lat": 38.904497, "fusion_lon": 0.0, "rental_uris": {"ios": "https://dc.lft.to/lastmile_qr_scan", "android": "https://dc.lft.to/lastmile_qr_scan"}, "lon": -77.03168016666666, "bike_id": "5746051a146fcccea563e452056a5328", "type": "electric_scooter", "name": "5746051a146fcccea563e452056a5328"}, {"is_disabled": 0, "is_reserved": 0, "fusion_lat": 0.0, "lat": 38.89514333333333, "fusion_lon": 0.0, "rental_uris": {"ios": "https://dc.lft.to/lastmile_qr_scan", "android": "https://dc.lft.to/lastmile_qr_scan"}, "lon": -77.0221895, "bike_id": "dbcb889ff72b6290a97f3d6738840caf", "type": "electric_scooter", "name": "dbcb889ff72b6290a97f3d6738840caf"}, {"is_disabled": 0, "is_reserved": 0, "fusion_lat": 0.0, "lat": 38.924230333333334, "fusion_lon": 0.0, "rental_uris": {"ios": "https://dc.lft.to/lastmile_qr_scan", "android": "https://dc.lft.to/lastmile_qr_scan"}, "lon": -77.044814, "bike_id": "a4b0328a4b79ff174b6970e2e2144f77", "type": "electric_bike", "name": "a4b0328a4b79ff174b6970e2e2144f77"}, {"is_disabled": 0, "is_reserved": 0, "fusion_lat": 0.0, "lat": 38.928749833333335, "fusion_lon": 0.0, "rental_uris": {"ios": "https://dc.lft.to/lastmile_qr_scan", "android": "https://dc.lft.to/lastmile_qr_scan"}, "lon": -77.03998533333333, "bike_id": "2d74edabb3e9e860db9fc25518385d90", "type": "electric_scooter", "name": "2d74edabb3e9e860db9fc25518385d90"}, {"is_disabled": 0, "is_reserved": 0, "fusion_lat": 0.0, "lat": 38.89171566666667, "fusion_lon": 0.0, "rental_uris": {"ios": "https://dc.lft.to/lastmile_qr_scan", "android": "https://dc.lft.to/lastmile_qr_scan"}, "lon": -77.01552583333333, "bike_id": "31a3f9b21fb7522cccf0b3556a7d869d", "type": "electric_scooter", "name": "31a3f9b21fb7522cccf0b3556a7d869d"}, {"is_disabled": 0, "is_reserved": 0, "fusion_lat": 0.0, "lat": 38.90678783333333, "fusion_lon": 0.0, "rental_uris": {"ios": "https://dc.lft.to/lastmile_qr_scan", "android": "https://dc.lft.to/lastmile_qr_scan"}, "lon": -76.9793135, "bike_id": "168c6d9d74f8913bf56da300f2beac90", "type": "electric_scooter", "name": "168c6d9d74f8913bf56da300f2beac90"}, {"is_disabled": 0, "is_reserved": 0, "fusion_lat": 0.0, "lat": 38.892488, "fusion_lon": 0.0, "rental_uris": {"ios": "https://dc.lft.to/lastmile_qr_scan", "android": "https://dc.lft.to/lastmile_qr_scan"}, "lon": -77.03217, "bike_id": "91a59bcf14a67e5ab6f1e4eb844dc709", "type": "electric_scooter", "name": "91a59bcf14a67e5ab6f1e4eb844dc709"}, {"is_disabled": 0, "is_reserved": 0, "fusion_lat": 0.0, "lat": 38.8919405, "fusion_lon": 0.0, "rental_uris": {"ios": "https://dc.lft.to/lastmile_qr_scan", "android": "https://dc.lft.to/lastmile_qr_scan"}, "lon": -77.02233916666667, "bike_id": "a51b31b4eb9a717cfcfb50caac10e6b8", "type": "electric_scooter", "name": "a51b31b4eb9a717cfcfb50caac10e6b8"}, {"is_disabled": 0, "is_reserved": 0, "fusion_lat": 0.0, "lat": 38.900811, "fusion_lon": 0.0, "rental_uris": {"ios": "https://dc.lft.to/lastmile_qr_scan", "android": "https://dc.lft.to/lastmile_qr_scan"}, "lon": -77.059073, "bike_id": "4b8ea440bf2046cf6df5df1b8deb9b4f", "type": "electric_scooter", "name": "4b8ea440bf2046cf6df5df1b8deb9b4f"}, {"is_disabled": 0, "is_reserved": 0, "fusion_lat": 0.0, "lat": 38.956118333333336, "fusion_lon": 0.0, "rental_uris": {"ios": "https://dc.lft.to/lastmile_qr_scan", "android": "https://dc.lft.to/lastmile_qr_scan"}, "lon": -77.0329895, "bike_id": "c821265b39d8e28272f1dd7af30d4ac3", "type": "electric_scooter", "name": "c821265b39d8e28272f1dd7af30d4ac3"}, {"is_disabled": 0, "is_reserved": 0, "fusion_lat": 0.0, "lat": 38.919557833333336, "fusion_lon": 0.0, "rental_uris": {"ios": "https://dc.lft.to/lastmile_qr_scan", "android": "https://dc.lft.to/lastmile_qr_scan"}, "lon": -77.023094, "bike_id": "b21aecd9a4d8360814fe4b29909a31e5", "type": "electric_scooter", "name": "b21aecd9a4d8360814fe4b29909a31e5"}, {"is_disabled": 0, "is_reserved": 0, "fusion_lat": 0.0, "lat": 38.91977166666667, "fusion_lon": 0.0, "rental_uris": {"ios": "https://dc.lft.to/lastmile_qr_scan", "android": "https://dc.lft.to/lastmile_qr_scan"}, "lon": -77.04170616666667, "bike_id": "dafab99df3670d21cfdbc0196b1af325", "type": "electric_scooter", "name": "dafab99df3670d21cfdbc0196b1af325"}, {"is_disabled": 0, "is_reserved": 0, "fusion_lat": 0.0, "lat": 38.9002045, "fusion_lon": 0.0, "rental_uris": {"ios": "https://dc.lft.to/lastmile_qr_scan", "android": "https://dc.lft.to/lastmile_qr_scan"}, "lon": -77.00922666666666, "bike_id": "59049bd6775a5ac19c865201238dbe29", "type": "electric_scooter", "name": "59049bd6775a5ac19c865201238dbe29"}, {"is_disabled": 0, "is_reserved": 0, "fusion_lat": 0.0, "lat": 38.93522266666667, "fusion_lon": 0.0, "rental_uris": {"ios": "https://dc.lft.to/lastmile_qr_scan", "android": "https://dc.lft.to/lastmile_qr_scan"}, "lon": -77.0326185, "bike_id": "d1a4a48b8e9e6bfd68420023d9d2972b", "type": "electric_scooter", "name": "d1a4a48b8e9e6bfd68420023d9d2972b"}, {"is_disabled": 0, "is_reserved": 0, "fusion_lat": 0.0, "lat": 38.90395016666667, "fusion_lon": 0.0, "rental_uris": {"ios": "https://dc.lft.to/lastmile_qr_scan", "android": "https://dc.lft.to/lastmile_qr_scan"}, "lon": -76.99005333333334, "bike_id": "28bb70ee988e28d058bed03a2d04be25", "type": "electric_scooter", "name": "28bb70ee988e28d058bed03a2d04be25"}, {"is_disabled": 0, "is_reserved": 0, "fusion_lat": 0.0, "lat": 38.914990333333336, "fusion_lon": 0.0, "rental_uris": {"ios": "https://dc.lft.to/lastmile_qr_scan", "android": "https://dc.lft.to/lastmile_qr_scan"}, "lon": -76.98366166666666, "bike_id": "1f0c2d1cad575ce901e12667f0399b36", "type": "electric_scooter", "name": "1f0c2d1cad575ce901e12667f0399b36"}, {"is_disabled": 0, "is_reserved": 0, "fusion_lat": 0.0, "lat": 38.904235, "fusion_lon": 0.0, "rental_uris": {"ios": "https://dc.lft.to/lastmile_qr_scan", "android": "https://dc.lft.to/lastmile_qr_scan"}, "lon": -77.0531285, "bike_id": "001a3eb7583fc7d66988ba9eb7d235cd", "type": "electric_scooter", "name": "001a3eb7583fc7d66988ba9eb7d235cd"}, {"is_disabled": 0, "is_reserved": 0, "fusion_lat": 0.0, "lat": 38.89478533333333, "fusion_lon": 0.0, "rental_uris": {"ios": "https://dc.lft.to/lastmile_qr_scan", "android": "https://dc.lft.to/lastmile_qr_scan"}, "lon": -77.04155783333333, "bike_id": "4aa4fb2c358a89f3eb87162d6984353e", "type": "electric_scooter", "name": "4aa4fb2c358a89f3eb87162d6984353e"}, {"is_disabled": 0, "is_reserved": 0, "fusion_lat": 0.0, "lat": 38.9197625, "fusion_lon": 0.0, "rental_uris": {"ios": "https://dc.lft.to/lastmile_qr_scan", "android": "https://dc.lft.to/lastmile_qr_scan"}, "lon": -77.02184066666666, "bike_id": "7171d36bff2f0cae532ba7e10e610c46", "type": "electric_scooter", "name": "7171d36bff2f0cae532ba7e10e610c46"}, {"is_disabled": 0, "is_reserved": 0, "fusion_lat": 0.0, "lat": 38.9225345, "fusion_lon": 0.0, "rental_uris": {"ios": "https://dc.lft.to/lastmile_qr_scan", "android": "https://dc.lft.to/lastmile_qr_scan"}, "lon": -77.03657683333333, "bike_id": "649fb1f1191b2e88d4a87e1f7f005d7f", "type": "electric_scooter", "name": "649fb1f1191b2e88d4a87e1f7f005d7f"}, {"is_disabled": 0, "is_reserved": 0, "fusion_lat": 0.0, "lat": 38.8555625, "fusion_lon": 0.0, "rental_uris": {"ios": "https://dc.lft.to/lastmile_qr_scan", "android": "https://dc.lft.to/lastmile_qr_scan"}, "lon": -77.06403383333334, "bike_id": "c4d389066214c5282c9580320a2834f8", "type": "electric_bike", "name": "c4d389066214c5282c9580320a2834f8"}, {"is_disabled": 0, "is_reserved": 0, "fusion_lat": 0.0, "lat": 38.98365316666667, "fusion_lon": 0.0, "rental_uris": {"ios": "https://dc.lft.to/lastmile_qr_scan", "android": "https://dc.lft.to/lastmile_qr_scan"}, "lon": -76.98850233333333, "bike_id": "7618df48387c7e9807c2b005f4f41118", "type": "electric_bike", "name": "7618df48387c7e9807c2b005f4f41118"}, {"is_disabled": 0, "is_reserved": 0, "fusion_lat": 0.0, "lat": 38.8422625, "fusion_lon": 0.0, "rental_uris": {"ios": "https://dc.lft.to/lastmile_qr_scan", "android": "https://dc.lft.to/lastmile_qr_scan"}, "lon": -77.00170883333334, "bike_id": "d6be8c41ed0eec996e876627e5d1a425", "type": "electric_scooter", "name": "d6be8c41ed0eec996e876627e5d1a425"}, {"is_disabled": 0, "is_reserved": 0, "fusion_lat": 0.0, "lat": 38.842244, "fusion_lon": 0.0, "rental_uris": {"ios": "https://dc.lft.to/lastmile_qr_scan", "android": "https://dc.lft.to/lastmile_qr_scan"}, "lon": -76.9489505, "bike_id": "844ecd76fe863d81be9aa71e4ea4ddc9", "type": "electric_bike", "name": "844ecd76fe863d81be9aa71e4ea4ddc9"}, {"is_disabled": 0, "is_reserved": 0, "fusion_lat": 0.0, "lat": 38.927051, "fusion_lon": 0.0, "rental_uris": {"ios": "https://dc.lft.to/lastmile_qr_scan", "android": "https://dc.lft.to/lastmile_qr_scan"}, "lon": -77.03823116666666, "bike_id": "778b6b188b80ee161ca7055402f9ccfe", "type": "electric_scooter", "name": "778b6b188b80ee161ca7055402f9ccfe"}, {"is_disabled": 0, "is_reserved": 0, "fusion_lat": 0.0, "lat": 38.92324383333333, "fusion_lon": 0.0, "rental_uris": {"ios": "https://dc.lft.to/lastmile_qr_scan", "android": "https://dc.lft.to/lastmile_qr_scan"}, "lon": -77.0568575, "bike_id": "bf28e3a3b640f082b6daa8d1ebf0d30a", "type": "electric_scooter", "name": "bf28e3a3b640f082b6daa8d1ebf0d30a"}, {"is_disabled": 0, "is_reserved": 0, "fusion_lat": 0.0, "lat": 38.899861, "fusion_lon": 0.0, "rental_uris": {"ios": "https://dc.lft.to/lastmile_qr_scan", "android": "https://dc.lft.to/lastmile_qr_scan"}, "lon": -77.0226195, "bike_id": "e1d73caac8ea9e2cef7f3442105b4433", "type": "electric_scooter", "name": "e1d73caac8ea9e2cef7f3442105b4433"}, {"is_disabled": 0, "is_reserved": 0, "fusion_lat": 0.0, "lat": 38.95743916666667, "fusion_lon": 0.0, "rental_uris": {"ios": "https://dc.lft.to/lastmile_qr_scan", "android": "https://dc.lft.to/lastmile_qr_scan"}, "lon": -77.020673, "bike_id": "63723c7737b157711557c32f339e80f8", "type": "electric_scooter", "name": "63723c7737b157711557c32f339e80f8"}, {"is_disabled": 0, "is_reserved": 0, "fusion_lat": 0.0, "lat": 38.930914, "fusion_lon": 0.0, "rental_uris": {"ios": "https://dc.lft.to/lastmile_qr_scan", "android": "https://dc.lft.to/lastmile_qr_scan"}, "lon": -77.02470633333333, "bike_id": "f9f88d4ae0a1a924fc659f4caad320d1", "type": "electric_scooter", "name": "f9f88d4ae0a1a924fc659f4caad320d1"}, {"is_disabled": 0, "is_reserved": 0, "fusion_lat": 0.0, "lat": 38.9214715, "fusion_lon": 0.0, "rental_uris": {"ios": "https://dc.lft.to/lastmile_qr_scan", "android": "https://dc.lft.to/lastmile_qr_scan"}, "lon": -77.03667383333334, "bike_id": "45d92a1257e8d8022b90905c341485e8", "type": "electric_scooter", "name": "45d92a1257e8d8022b90905c341485e8"}, {"is_disabled": 0, "is_reserved": 0, "fusion_lat": 0.0, "lat": 38.892010666666664, "fusion_lon": 0.0, "rental_uris": {"ios": "https://dc.lft.to/lastmile_qr_scan", "android": "https://dc.lft.to/lastmile_qr_scan"}, "lon": -77.04392166666666, "bike_id": "542b41c4d889b6d672b5c9f9933806e0", "type": "electric_scooter", "name": "542b41c4d889b6d672b5c9f9933806e0"}, {"is_disabled": 0, "is_reserved": 0, "fusion_lat": 0.0, "lat": 38.90645716666667, "fusion_lon": 0.0, "rental_uris": {"ios": "https://dc.lft.to/lastmile_qr_scan", "android": "https://dc.lft.to/lastmile_qr_scan"}, "lon": -77.01008933333334, "bike_id": "2cbde384ee688e4137a8dbe3f0caa4b7", "type": "electric_scooter", "name": "2cbde384ee688e4137a8dbe3f0caa4b7"}, {"is_disabled": 0, "is_reserved": 0, "fusion_lat": 0.0, "lat": 38.9043135, "fusion_lon": 0.0, "rental_uris": {"ios": "https://dc.lft.to/lastmile_qr_scan", "android": "https://dc.lft.to/lastmile_qr_scan"}, "lon": -77.05477933333333, "bike_id": "46721d7a192637199a76d271f519c6f0", "type": "electric_scooter", "name": "46721d7a192637199a76d271f519c6f0"}, {"is_disabled": 0, "is_reserved": 0, "fusion_lat": 0.0, "lat": 38.973661666666665, "fusion_lon": 0.0, "rental_uris": {"ios": "https://dc.lft.to/lastmile_qr_scan", "android": "https://dc.lft.to/lastmile_qr_scan"}, "lon": -77.01868783333333, "bike_id": "f97f71c1e1374e72e90d049c083d17e4", "type": "electric_scooter", "name": "f97f71c1e1374e72e90d049c083d17e4"}, {"is_disabled": 0, "is_reserved": 0, "fusion_lat": 0.0, "lat": 38.88524983333333, "fusion_lon": 0.0, "rental_uris": {"ios": "https://dc.lft.to/lastmile_qr_scan", "android": "https://dc.lft.to/lastmile_qr_scan"}, "lon": -76.99603966666666, "bike_id": "964f981de208d875d8870a5777e00973", "type": "electric_scooter", "name": "964f981de208d875d8870a5777e00973"}, {"is_disabled": 0, "is_reserved": 0, "fusion_lat": 0.0, "lat": 38.87736666666667, "fusion_lon": 0.0, "rental_uris": {"ios": "https://dc.lft.to/lastmile_qr_scan", "android": "https://dc.lft.to/lastmile_qr_scan"}, "lon": -77.14875083333334, "bike_id": "00b451461d931824995379abad276d21", "type": "electric_bike", "name": "00b451461d931824995379abad276d21"}, {"is_disabled": 0, "is_reserved": 0, "fusion_lat": 0.0, "lat": 38.88101116666667, "fusion_lon": 0.0, "rental_uris": {"ios": "https://dc.lft.to/lastmile_qr_scan", "android": "https://dc.lft.to/lastmile_qr_scan"}, "lon": -77.012352, "bike_id": "418f505ad4ce6b71141d27948cd675aa", "type": "electric_scooter", "name": "418f505ad4ce6b71141d27948cd675aa"}, {"is_disabled": 0, "is_reserved": 0, "fusion_lat": 0.0, "lat": 38.898601666666664, "fusion_lon": 0.0, "rental_uris": {"ios": "https://dc.lft.to/lastmile_qr_scan", "android": "https://dc.lft.to/lastmile_qr_scan"}, "lon": -77.04880816666666, "bike_id": "282bd466fb9de518cd8189a41f510ed2", "type": "electric_scooter", "name": "282bd466fb9de518cd8189a41f510ed2"}, {"is_disabled": 0, "is_reserved": 0, "fusion_lat": 0.0, "lat": 39.00533733333334, "fusion_lon": 0.0, "rental_uris": {"ios": "https://dc.lft.to/lastmile_qr_scan", "android": "https://dc.lft.to/lastmile_qr_scan"}, "lon": -77.10402383333333, "bike_id": "05f6c1933101f469e14feaf212efa0b5", "type": "electric_bike", "name": "05f6c1933101f469e14feaf212efa0b5"}, {"is_disabled": 0, "is_reserved": 0, "fusion_lat": 0.0, "lat": 38.902484333333334, "fusion_lon": 0.0, "rental_uris": {"ios": "https://dc.lft.to/lastmile_qr_scan", "android": "https://dc.lft.to/lastmile_qr_scan"}, "lon": -77.02654966666667, "bike_id": "8f92b7cca9962cf3aab55de3610671b0", "type": "electric_scooter", "name": "8f92b7cca9962cf3aab55de3610671b0"}, {"is_disabled": 0, "is_reserved": 0, "fusion_lat": 0.0, "lat": 38.92500366666667, "fusion_lon": 0.0, "rental_uris": {"ios": "https://dc.lft.to/lastmile_qr_scan", "android": "https://dc.lft.to/lastmile_qr_scan"}, "lon": -77.02356566666667, "bike_id": "cb6b4e7d4d3042dc8dd9aa617ef1e928", "type": "electric_scooter", "name": "cb6b4e7d4d3042dc8dd9aa617ef1e928"}, {"is_disabled": 0, "is_reserved": 0, "fusion_lat": 0.0, "lat": 38.930007833333335, "fusion_lon": 0.0, "rental_uris": {"ios": "https://dc.lft.to/lastmile_qr_scan", "android": "https://dc.lft.to/lastmile_qr_scan"}, "lon": -77.037977, "bike_id": "be3a4f31426c7e71e46e4fa86e97bfda", "type": "electric_scooter", "name": "be3a4f31426c7e71e46e4fa86e97bfda"}, {"is_disabled": 0, "is_reserved": 0, "fusion_lat": 0.0, "lat": 38.906447166666666, "fusion_lon": 0.0, "rental_uris": {"ios": "https://dc.lft.to/lastmile_qr_scan", "android": "https://dc.lft.to/lastmile_qr_scan"}, "lon": -77.05330983333333, "bike_id": "ccb0d547508dddd7beb2827760d0d26a", "type": "electric_scooter", "name": "ccb0d547508dddd7beb2827760d0d26a"}, {"is_disabled": 0, "is_reserved": 0, "fusion_lat": 0.0, "lat": 38.933437833333336, "fusion_lon": 0.0, "rental_uris": {"ios": "https://dc.lft.to/lastmile_qr_scan", "android": "https://dc.lft.to/lastmile_qr_scan"}, "lon": -77.05938483333334, "bike_id": "0efd924a96d626821f7d8c150036ac7c", "type": "electric_scooter", "name": "0efd924a96d626821f7d8c150036ac7c"}, {"is_disabled": 0, "is_reserved": 0, "fusion_lat": 0.0, "lat": 38.91611, "fusion_lon": 0.0, "rental_uris": {"ios": "https://dc.lft.to/lastmile_qr_scan", "android": "https://dc.lft.to/lastmile_qr_scan"}, "lon": -77.02161716666667, "bike_id": "b509187c34569cb952b2914aeef2424e", "type": "electric_scooter", "name": "b509187c34569cb952b2914aeef2424e"}, {"is_disabled": 0, "is_reserved": 0, "fusion_lat": 0.0, "lat": 38.90480066666667, "fusion_lon": 0.0, "rental_uris": {"ios": "https://dc.lft.to/lastmile_qr_scan", "android": "https://dc.lft.to/lastmile_qr_scan"}, "lon": -77.0406145, "bike_id": "b905d87741f3d58ea7f948bda883c5b9", "type": "electric_scooter", "name": "b905d87741f3d58ea7f948bda883c5b9"}, {"is_disabled": 0, "is_reserved": 0, "fusion_lat": 0.0, "lat": 38.9102875, "fusion_lon": 0.0, "rental_uris": {"ios": "https://dc.lft.to/lastmile_qr_scan", "android": "https://dc.lft.to/lastmile_qr_scan"}, "lon": -76.92335733333333, "bike_id": "e1d5b8d9831a7511ae0ff6f1bd3fba57", "type": "electric_bike", "name": "e1d5b8d9831a7511ae0ff6f1bd3fba57"}, {"is_disabled": 0, "is_reserved": 0, "fusion_lat": 0.0, "lat": 38.917572666666665, "fusion_lon": 0.0, "rental_uris": {"ios": "https://dc.lft.to/lastmile_qr_scan", "android": "https://dc.lft.to/lastmile_qr_scan"}, "lon": -77.03883366666666, "bike_id": "6f2707434ec282ec56075f4e82f1e992", "type": "electric_scooter", "name": "6f2707434ec282ec56075f4e82f1e992"}, {"is_disabled": 0, "is_reserved": 0, "fusion_lat": 0.0, "lat": 38.890766166666666, "fusion_lon": 0.0, "rental_uris": {"ios": "https://dc.lft.to/lastmile_qr_scan", "android": "https://dc.lft.to/lastmile_qr_scan"},