{"data": {"bikes": [{"bike_id": "5976ddcbe3ea4c25b73e64ab6ec0ffe5", "type": "electric_scooter", "is_disabled": 0, "lat": 38.92324466666667, "rental_uris": {"ios": "https://dc.lft.to/lastmile_qr_scan", "android": "https://dc.lft.to/lastmile_qr_scan"}, "is_reserved": 0, "fusion_lon": 0.0, "fusion_lat": 0.0, "lon": -77.02327066666666, "name": "5976ddcbe3ea4c25b73e64ab6ec0ffe5"}, {"bike_id": "4d23e850766ecac5a4786414583f5f7e", "type": "electric_scooter", "is_disabled": 0, "lat": 38.876214, "rental_uris": {"ios": "https://dc.lft.to/lastmile_qr_scan", "android": "https://dc.lft.to/lastmile_qr_scan"}, "is_reserved": 0, "fusion_lon": 0.0, "fusion_lat": 0.0, "lon": -77.0081745, "name": "4d23e850766ecac5a4786414583f5f7e"}, {"bike_id": "cbbe0c4930e65ad99214dabb38db3389", "type": "electric_scooter", "is_disabled": 0, "lat": 38.94832816666667, "rental_uris": {"ios": "https://dc.lft.to/lastmile_qr_scan", "android": "https://dc.lft.to/lastmile_qr_scan"}, "is_reserved": 0, "fusion_lon": 0.0, "fusion_lat": 0.0, "lon": -77.02542616666666, "name": "cbbe0c4930e65ad99214dabb38db3389"}, {"bike_id": "e169f56c4a8f86897213ee13f32ad516", "type": "electric_scooter", "is_disabled": 0, "lat": 38.9429085, "rental_uris": {"ios": "https://dc.lft.to/lastmile_qr_scan", "android": "https://dc.lft.to/lastmile_qr_scan"}, "is_reserved": 0, "fusion_lon": 0.0, "fusion_lat": 0.0, "lon": -77.02171216666666, "name": "e169f56c4a8f86897213ee13f32ad516"}, {"bike_id": "d307d70f8c25dded35a266bbfb2ac4d5", "type": "electric_scooter", "is_disabled": 0, "lat": 38.86240516666667, "rental_uris": {"ios": "https://dc.lft.to/lastmile_qr_scan", "android": "https://dc.lft.to/lastmile_qr_scan"}, "is_reserved": 0, "fusion_lon": 0.0, "fusion_lat": 0.0, "lon": -76.994913, "name": "d307d70f8c25dded35a266bbfb2ac4d5"}, {"bike_id": "b15e2eec4c955fe2e3048dbe534fa959", "type": "electric_scooter", "is_disabled": 0, "lat": 38.89822766666666, "rental_uris": {"ios": "https://dc.lft.to/lastmile_qr_scan", "android": "https://dc.lft.to/lastmile_qr_scan"}, "is_reserved": 0, "fusion_lon": 0.0, "fusion_lat": 0.0, "lon": -77.02377466666667, "name": "b15e2eec4c955fe2e3048dbe534fa959"}, {"bike_id": "1e36857740a701d8822410526c984541", "type": "electric_scooter", "is_disabled": 0, "lat": 38.91807883333333, "rental_uris": {"ios": "https://dc.lft.to/lastmile_qr_scan", "android": "https://dc.lft.to/lastmile_qr_scan"}, "is_reserved": 0, "fusion_lon": 0.0, "fusion_lat": 0.0, "lon": -77.02528766666667, "name": "1e36857740a701d8822410526c984541"}, {"bike_id": "d7d18d9325f14bc697534ae775657c3c", "type": "electric_scooter", "is_disabled": 0, "lat": 38.8972315, "rental_uris": {"ios": "https://dc.lft.to/lastmile_qr_scan", "android": "https://dc.lft.to/lastmile_qr_scan"}, "is_reserved": 0, "fusion_lon": 0.0, "fusion_lat": 0.0, "lon": -77.048237, "name": "d7d18d9325f14bc697534ae775657c3c"}, {"bike_id": "044174181f767a9dec818f69f46068fc", "type": "electric_bike", "is_disabled": 0, "lat": 38.85415866666666, "rental_uris": {"ios": "https://dc.lft.to/lastmile_qr_scan", "android": "https://dc.lft.to/lastmile_qr_scan"}, "is_reserved": 0, "fusion_lon": 0.0, "fusion_lat": 0.0, "lon": -77.120769, "name": "044174181f767a9dec818f69f46068fc"}, {"bike_id": "d32c91b2e664412e4bc1a3a888c68187", "type": "electric_scooter", "is_disabled": 0, "lat": 38.93415233333333, "rental_uris": {"ios": "https://dc.lft.to/lastmile_qr_scan", "android": "https://dc.lft.to/lastmile_qr_scan"}, "is_reserved": 0, "fusion_lon": 0.0, "fusion_lat": 0.0, "lon": -77.039128, "name": "d32c91b2e664412e4bc1a3a888c68187"}, {"bike_id": "82154e90376b46ca9cab0c41da9f30f8", "type": "electric_scooter", "is_disabled": 0, "lat": 38.9156705, "rental_uris": {"ios": "https://dc.lft.to/lastmile_qr_scan", "android": "https://dc.lft.to/lastmile_qr_scan"}, "is_reserved": 0, "fusion_lon": 0.0, "fusion_lat": 0.0, "lon": -77.0228715, "name": "82154e90376b46ca9cab0c41da9f30f8"}, {"bike_id": "23433448004dd5d37d0cf9b259097bdb", "type": "electric_scooter", "is_disabled": 0, "lat": 38.93210333333333, "rental_uris": {"ios": "https://dc.lft.to/lastmile_qr_scan", "android": "https://dc.lft.to/lastmile_qr_scan"}, "is_reserved": 0, "fusion_lon": 0.0, "fusion_lat": 0.0, "lon": -77.02964333333334, "name": "23433448004dd5d37d0cf9b259097bdb"}, {"bike_id": "b8fbeeb45feb3222e7825f4d72dfcfe8", "type": "electric_scooter", "is_disabled": 0, "lat": 38.9033415, "rental_uris": {"ios": "https://dc.lft.to/lastmile_qr_scan", "android": "https://dc.lft.to/lastmile_qr_scan"}, "is_reserved": 0, "fusion_lon": 0.0, "fusion_lat": 0.0, "lon": -76.975832, "name": "b8fbeeb45feb3222e7825f4d72dfcfe8"}, {"bike_id": "39d642f3f1a1c04cd7ea8a4b0edf4f19", "type": "electric_scooter", "is_disabled": 0, "lat": 38.90783733333333, "rental_uris": {"ios": "https://dc.lft.to/lastmile_qr_scan", "android": "https://dc.lft.to/lastmile_qr_scan"}, "is_reserved": 0, "fusion_lon": 0.0, "fusion_lat": 0.0, "lon": -77.02041766666666, "name": "39d642f3f1a1c04cd7ea8a4b0edf4f19"}, {"bike_id": "6bd499efdcfecebc921c3dfcda777c35", "type": "electric_scooter", "is_disabled": 0, "lat": 38.871356, "rental_uris": {"ios": "https://dc.lft.to/lastmile_qr_scan", "android": "https://dc.lft.to/lastmile_qr_scan"}, "is_reserved": 0, "fusion_lon": 0.0, "fusion_lat": 0.0, "lon": -77.00750883333333, "name": "6bd499efdcfecebc921c3dfcda777c35"}, {"bike_id": "5cd9d5bda3aba93e9c4995cac4226a5e", "type": "electric_bike", "is_disabled": 0, "lat": 38.9082555, "rental_uris": {"ios": "https://dc.lft.to/lastmile_qr_scan", "android": "https://dc.lft.to/lastmile_qr_scan"}, "is_reserved": 0, "fusion_lon": 0.0, "fusion_lat": 0.0, "lon": -76.94159716666667, "name": "5cd9d5bda3aba93e9c4995cac4226a5e"}, {"bike_id": "989aea4cde584ac2b394a2ee93a3088a", "type": "electric_scooter", "is_disabled": 0, "lat": 38.88527366666667, "rental_uris": {"ios": "https://dc.lft.to/lastmile_qr_scan", "android": "https://dc.lft.to/lastmile_qr_scan"}, "is_reserved": 0, "fusion_lon": 0.0, "fusion_lat": 0.0, "lon": -76.9911195, "name": "989aea4cde584ac2b394a2ee93a3088a"}, {"bike_id": "1eec187f2eb560bbbf9ef6d3ec7137b7", "type": "electric_scooter", "is_disabled": 0, "lat": 38.90520933333333, "rental_uris": {"ios": "https://dc.lft.to/lastmile_qr_scan", "android": "https://dc.lft.to/lastmile_qr_scan"}, "is_reserved": 0, "fusion_lon": 0.0, "fusion_lat": 0.0, "lon": -77.06088266666667, "name": "1eec187f2eb560bbbf9ef6d3ec7137b7"}, {"bike_id": "7acb83615cdf3e51395dff4606c21498", "type": "electric_bike", "is_disabled": 0, "lat": 38.94889416666667, "rental_uris": {"ios": "https://dc.lft.to/lastmile_qr_scan", "android": "https://dc.lft.to/lastmile_qr_scan"}, "is_reserved": 0, "fusion_lon": 0.0, "fusion_lat": 0.0, "lon": -76.9637245, "name": "7acb83615cdf3e51395dff4606c21498"}, {"bike_id": "1d220ca9076006d6888bf5e7ecf99fed", "type": "electric_scooter", "is_disabled": 0, "lat": 38.9134345, "rental_uris": {"ios": "https://dc.lft.to/lastmile_qr_scan", "android": "https://dc.lft.to/lastmile_qr_scan"}, "is_reserved": 0, "fusion_lon": 0.0, "fusion_lat": 0.0, "lon": -77.0400095, "name": "1d220ca9076006d6888bf5e7ecf99fed"}, {"bike_id": "1502ac07f1b7fefabd97b74e5cb90079", "type": "electric_scooter", "is_disabled": 0, "lat": 38.91106416666667, "rental_uris": {"ios": "https://dc.lft.to/lastmile_qr_scan", "android": "https://dc.lft.to/lastmile_qr_scan"}, "is_reserved": 0, "fusion_lon": 0.0, "fusion_lat": 0.0, "lon": -77.03210883333334, "name": "1502ac07f1b7fefabd97b74e5cb90079"}, {"bike_id": "a62e1020a68392c6ae05be9f77f6ef86", "type": "electric_scooter", "is_disabled": 0, "lat": 38.9041775, "rental_uris": {"ios": "https://dc.lft.to/lastmile_qr_scan", "android": "https://dc.lft.to/lastmile_qr_scan"}, "is_reserved": 0, "fusion_lon": 0.0, "fusion_lat": 0.0, "lon": -77.03291783333333, "name": "a62e1020a68392c6ae05be9f77f6ef86"}, {"bike_id": "fc9d96d1aa30df197bbb1b4741547a35", "type": "electric_scooter", "is_disabled": 0, "lat": 38.91255183333333, "rental_uris": {"ios": "https://dc.lft.to/lastmile_qr_scan", "android": "https://dc.lft.to/lastmile_qr_scan"}, "is_reserved": 0, "fusion_lon": 0.0, "fusion_lat": 0.0, "lon": -77.03829783333333, "name": "fc9d96d1aa30df197bbb1b4741547a35"}, {"bike_id": "8839c4a804c92341211552b6e5fc30b1", "type": "electric_scooter", "is_disabled": 0, "lat": 38.901625, "rental_uris": {"ios": "https://dc.lft.to/lastmile_qr_scan", "android": "https://dc.lft.to/lastmile_qr_scan"}, "is_reserved": 0, "fusion_lon": 0.0, "fusion_lat": 0.0, "lon": -77.016016, "name": "8839c4a804c92341211552b6e5fc30b1"}, {"bike_id": "cd68d5ac3bff117af73bc5e9d813ee0d", "type": "electric_scooter", "is_disabled": 0, "lat": 38.887414, "rental_uris": {"ios": "https://dc.lft.to/lastmile_qr_scan", "android": "https://dc.lft.to/lastmile_qr_scan"}, "is_reserved": 0, "fusion_lon": 0.0, "fusion_lat": 0.0, "lon": -76.98357916666667, "name": "cd68d5ac3bff117af73bc5e9d813ee0d"}, {"bike_id": "05ab80e4a9670e541c3c3e55532531f3", "type": "electric_scooter", "is_disabled": 0, "lat": 38.8625145, "rental_uris": {"ios": "https://dc.lft.to/lastmile_qr_scan", "android": "https://dc.lft.to/lastmile_qr_scan"}, "is_reserved": 0, "fusion_lon": 0.0, "fusion_lat": 0.0, "lon": -76.9926275, "name": "05ab80e4a9670e541c3c3e55532531f3"}, {"bike_id": "244b1e58183c0109cae9f34d196c6f7d", "type": "electric_bike", "is_disabled": 0, "lat": 38.886565, "rental_uris": {"ios": "https://dc.lft.to/lastmile_qr_scan", "android": "https://dc.lft.to/lastmile_qr_scan"}, "is_reserved": 0, "fusion_lon": 0.0, "fusion_lat": 0.0, "lon": -77.16235766666667, "name": "244b1e58183c0109cae9f34d196c6f7d"}, {"bike_id": "4ba604221feb65ef05ae24683a4bc51c", "type": "electric_scooter", "is_disabled": 0, "lat": 38.91138266666667, "rental_uris": {"ios": "https://dc.lft.to/lastmile_qr_scan", "android": "https://dc.lft.to/lastmile_qr_scan"}, "is_reserved": 0, "fusion_lon": 0.0, "fusion_lat": 0.0, "lon": -77.026931, "name": "4ba604221feb65ef05ae24683a4bc51c"}, {"bike_id": "d0d006dcb9a707cab3b6fca9c0eeac27", "type": "electric_scooter", "is_disabled": 0, "lat": 38.9077115, "rental_uris": {"ios": "https://dc.lft.to/lastmile_qr_scan", "android": "https://dc.lft.to/lastmile_qr_scan"}, "is_reserved": 0, "fusion_lon": 0.0, "fusion_lat": 0.0, "lon": -77.018491, "name": "d0d006dcb9a707cab3b6fca9c0eeac27"}, {"bike_id": "ec168ccaf315152f2b3dd8c5db4ee3d1", "type": "electric_scooter", "is_disabled": 0, "lat": 38.90687633333334, "rental_uris": {"ios": "https://dc.lft.to/lastmile_qr_scan", "android": "https://dc.lft.to/lastmile_qr_scan"}, "is_reserved": 0, "fusion_lon": 0.0, "fusion_lat": 0.0, "lon": -77.05330733333334, "name": "ec168ccaf315152f2b3dd8c5db4ee3d1"}, {"bike_id": "fa740c772f7f8318b8052bd548f6fa9d", "type": "electric_scooter", "is_disabled": 0, "lat": 38.913044166666666, "rental_uris": {"ios": "https://dc.lft.to/lastmile_qr_scan", "android": "https://dc.lft.to/lastmile_qr_scan"}, "is_reserved": 0, "fusion_lon": 0.0, "fusion_lat": 0.0, "lon": -77.04175633333334, "name": "fa740c772f7f8318b8052bd548f6fa9d"}, {"bike_id": "318f43e5881aa0351feded02415690f7", "type": "electric_scooter", "is_disabled": 0, "lat": 38.93113866666667, "rental_uris": {"ios": "https://dc.lft.to/lastmile_qr_scan", "android": "https://dc.lft.to/lastmile_qr_scan"}, "is_reserved": 0, "fusion_lon": 0.0, "fusion_lat": 0.0, "lon": -77.02098566666666, "name": "318f43e5881aa0351feded02415690f7"}, {"bike_id": "898b8f091f1391c802587891717fc5a2", "type": "electric_bike", "is_disabled": 0, "lat": 38.8765045, "rental_uris": {"ios": "https://dc.lft.to/lastmile_qr_scan", "android": "https://dc.lft.to/lastmile_qr_scan"}, "is_reserved": 0, "fusion_lon": 0.0, "fusion_lat": 0.0, "lon": -77.00653233333334, "name": "898b8f091f1391c802587891717fc5a2"}, {"bike_id": "48fa3b6bbfc85deeaa1ff8bba6a6e3dc", "type": "electric_scooter", "is_disabled": 0, "lat": 38.912901, "rental_uris": {"ios": "https://dc.lft.to/lastmile_qr_scan", "android": "https://dc.lft.to/lastmile_qr_scan"}, "is_reserved": 0, "fusion_lon": 0.0, "fusion_lat": 0.0, "lon": -77.01977083333334, "name": "48fa3b6bbfc85deeaa1ff8bba6a6e3dc"}, {"bike_id": "502f907259228c5c20b9b24aed984987", "type": "electric_scooter", "is_disabled": 0, "lat": 38.91725866666667, "rental_uris": {"ios": "https://dc.lft.to/lastmile_qr_scan", "android": "https://dc.lft.to/lastmile_qr_scan"}, "is_reserved": 0, "fusion_lon": 0.0, "fusion_lat": 0.0, "lon": -77.02503583333333, "name": "502f907259228c5c20b9b24aed984987"}, {"bike_id": "d2de0c09509865c38e492d47f041a4db", "type": "electric_scooter", "is_disabled": 0, "lat": 38.9006265, "rental_uris": {"ios": "https://dc.lft.to/lastmile_qr_scan", "android": "https://dc.lft.to/lastmile_qr_scan"}, "is_reserved": 0, "fusion_lon": 0.0, "fusion_lat": 0.0, "lon": -77.04836916666666, "name": "d2de0c09509865c38e492d47f041a4db"}, {"bike_id": "d512a788b753dea04acbad324606746f", "type": "electric_scooter", "is_disabled": 0, "lat": 38.907295500000004, "rental_uris": {"ios": "https://dc.lft.to/lastmile_qr_scan", "android": "https://dc.lft.to/lastmile_qr_scan"}, "is_reserved": 0, "fusion_lon": 0.0, "fusion_lat": 0.0, "lon": -76.9796745, "name": "d512a788b753dea04acbad324606746f"}, {"bike_id": "31c56f71c0d635e31ecab58ec1b7d2df", "type": "electric_scooter", "is_disabled": 0, "lat": 38.911276, "rental_uris": {"ios": "https://dc.lft.to/lastmile_qr_scan", "android": "https://dc.lft.to/lastmile_qr_scan"}, "is_reserved": 0, "fusion_lon": 0.0, "fusion_lat": 0.0, "lon": -77.01620733333333, "name": "31c56f71c0d635e31ecab58ec1b7d2df"}, {"bike_id": "9e1f6a84a5aafd15276dfbaf8308a317", "type": "electric_scooter", "is_disabled": 0, "lat": 38.873661, "rental_uris": {"ios": "https://dc.lft.to/lastmile_qr_scan", "android": "https://dc.lft.to/lastmile_qr_scan"}, "is_reserved": 0, "fusion_lon": 0.0, "fusion_lat": 0.0, "lon": -77.00143133333333, "name": "9e1f6a84a5aafd15276dfbaf8308a317"}, {"bike_id": "04a00bba30d675b0d27a41f3ee62884a", "type": "electric_scooter", "is_disabled": 0, "lat": 38.90562283333333, "rental_uris": {"ios": "https://dc.lft.to/lastmile_qr_scan", "android": "https://dc.lft.to/lastmile_qr_scan"}, "is_reserved": 0, "fusion_lon": 0.0, "fusion_lat": 0.0, "lon": -77.04186983333334, "name": "04a00bba30d675b0d27a41f3ee62884a"}, {"bike_id": "e30dcaa89d5e39f4ddeb825c7c7ced39", "type": "electric_bike", "is_disabled": 0, "lat": 38.89969116666666, "rental_uris": {"ios": "https://dc.lft.to/lastmile_qr_scan", "android": "https://dc.lft.to/lastmile_qr_scan"}, "is_reserved": 0, "fusion_lon": 0.0, "fusion_lat": 0.0, "lon": -76.98673616666666, "name": "e30dcaa89d5e39f4ddeb825c7c7ced39"}, {"bike_id": "790d0031a9b252bb31bacb06a2781c61", "type": "electric_scooter", "is_disabled": 0, "lat": 38.863856, "rental_uris": {"ios": "https://dc.lft.to/lastmile_qr_scan", "android": "https://dc.lft.to/lastmile_qr_scan"}, "is_reserved": 0, "fusion_lon": 0.0, "fusion_lat": 0.0, "lon": -76.99043333333333, "name": "790d0031a9b252bb31bacb06a2781c61"}, {"bike_id": "ee2665fe44c825f77e3a1e88a94edd52", "type": "electric_scooter", "is_disabled": 0, "lat": 38.900426833333334, "rental_uris": {"ios": "https://dc.lft.to/lastmile_qr_scan", "android": "https://dc.lft.to/lastmile_qr_scan"}, "is_reserved": 0, "fusion_lon": 0.0, "fusion_lat": 0.0, "lon": -76.919324, "name": "ee2665fe44c825f77e3a1e88a94edd52"}, {"bike_id": "fdc6f8d573d9a8b32f0132a2cfdbb081", "type": "electric_scooter", "is_disabled": 0, "lat": 38.8314795, "rental_uris": {"ios": "https://dc.lft.to/lastmile_qr_scan", "android": "https://dc.lft.to/lastmile_qr_scan"}, "is_reserved": 0, "fusion_lon": 0.0, "fusion_lat": 0.0, "lon": -77.051283, "name": "fdc6f8d573d9a8b32f0132a2cfdbb081"}, {"bike_id": "35e940d24be772886e6a1ce80c8094c3", "type": "electric_bike", "is_disabled": 0, "lat": 38.80122983333333, "rental_uris": {"ios": "https://dc.lft.to/lastmile_qr_scan", "android": "https://dc.lft.to/lastmile_qr_scan"}, "is_reserved": 0, "fusion_lon": 0.0, "fusion_lat": 0.0, "lon": -77.0704085, "name": "35e940d24be772886e6a1ce80c8094c3"}, {"bike_id": "5a5c0ba57eec94b51aab40256381ec45", "type": "electric_scooter", "is_disabled": 0, "lat": 38.87933666666667, "rental_uris": {"ios": "https://dc.lft.to/lastmile_qr_scan", "android": "https://dc.lft.to/lastmile_qr_scan"}, "is_reserved": 0, "fusion_lon": 0.0, "fusion_lat": 0.0, "lon": -77.00063633333333, "name": "5a5c0ba57eec94b51aab40256381ec45"}, {"bike_id": "e37ef08ae8c49f7c7263d7892ba179c1", "type": "electric_scooter", "is_disabled": 0, "lat": 38.9037415, "rental_uris": {"ios": "https://dc.lft.to/lastmile_qr_scan", "android": "https://dc.lft.to/lastmile_qr_scan"}, "is_reserved": 0, "fusion_lon": 0.0, "fusion_lat": 0.0, "lon": -76.937524, "name": "e37ef08ae8c49f7c7263d7892ba179c1"}, {"bike_id": "f7706662adec9abd7c7cd9586beef3e2", "type": "electric_scooter", "is_disabled": 0, "lat": 38.902837166666664, "rental_uris": {"ios": "https://dc.lft.to/lastmile_qr_scan", "android": "https://dc.lft.to/lastmile_qr_scan"}, "is_reserved": 0, "fusion_lon": 0.0, "fusion_lat": 0.0, "lon": -77.03846666666666, "name": "f7706662adec9abd7c7cd9586beef3e2"}, {"bike_id": "0e810a74f7521eb23b97a1bdc574b89d", "type": "electric_scooter", "is_disabled": 0, "lat": 38.901501, "rental_uris": {"ios": "https://dc.lft.to/lastmile_qr_scan", "android": "https://dc.lft.to/lastmile_qr_scan"}, "is_reserved": 0, "fusion_lon": 0.0, "fusion_lat": 0.0, "lon": -76.93060266666667, "name": "0e810a74f7521eb23b97a1bdc574b89d"}, {"bike_id": "e66f9a703aa97be8613469ebe2e9d933", "type": "electric_bike", "is_disabled": 0, "lat": 39.062917666666664, "rental_uris": {"ios": "https://dc.lft.to/lastmile_qr_scan", "android": "https://dc.lft.to/lastmile_qr_scan"}, "is_reserved": 0, "fusion_lon": 0.0, "fusion_lat": 0.0, "lon": -77.04982583333333, "name": "e66f9a703aa97be8613469ebe2e9d933"}, {"bike_id": "95b464d1f14de892d217c4bc36e5741b", "type": "electric_scooter", "is_disabled": 0, "lat": 38.91348433333334, "rental_uris": {"ios": "https://dc.lft.to/lastmile_qr_scan", "android": "https://dc.lft.to/lastmile_qr_scan"}, "is_reserved": 0, "fusion_lon": 0.0, "fusion_lat": 0.0, "lon": -77.04485333333334, "name": "95b464d1f14de892d217c4bc36e5741b"}, {"bike_id": "90d5f295527210289ce00f66dbc4bed4", "type": "electric_scooter", "is_disabled": 0, "lat": 38.938766333333334, "rental_uris": {"ios": "https://dc.lft.to/lastmile_qr_scan", "android": "https://dc.lft.to/lastmile_qr_scan"}, "is_reserved": 0, "fusion_lon": 0.0, "fusion_lat": 0.0, "lon": -77.024801, "name": "90d5f295527210289ce00f66dbc4bed4"}, {"bike_id": "eee053c4efad19ee732f78415268173f", "type": "electric_scooter", "is_disabled": 0, "lat": 38.89217283333333, "rental_uris": {"ios": "https://dc.lft.to/lastmile_qr_scan", "android": "https://dc.lft.to/lastmile_qr_scan"}, "is_reserved": 0, "fusion_lon": 0.0, "fusion_lat": 0.0, "lon": -77.025825, "name": "eee053c4efad19ee732f78415268173f"}, {"bike_id": "4e5ff799343171542a1e929fbcf22c0e", "type": "electric_scooter", "is_disabled": 0, "lat": 38.876825833333335, "rental_uris": {"ios": "https://dc.lft.to/lastmile_qr_scan", "android": "https://dc.lft.to/lastmile_qr_scan"}, "is_reserved": 0, "fusion_lon": 0.0, "fusion_lat": 0.0, "lon": -77.00580316666667, "name": "4e5ff799343171542a1e929fbcf22c0e"}, {"bike_id": "6a279d10511f4530507f43b8ea7e870e", "type": "electric_scooter", "is_disabled": 0, "lat": 38.9198005, "rental_uris": {"ios": "https://dc.lft.to/lastmile_qr_scan", "android": "https://dc.lft.to/lastmile_qr_scan"}, "is_reserved": 0, "fusion_lon": 0.0, "fusion_lat": 0.0, "lon": -77.02178516666666, "name": "6a279d10511f4530507f43b8ea7e870e"}, {"bike_id": "70f82fd3eb28b1d3438f01d8a97cd096", "type": "electric_scooter", "is_disabled": 0, "lat": 38.932290333333334, "rental_uris": {"ios": "https://dc.lft.to/lastmile_qr_scan", "android": "https://dc.lft.to/lastmile_qr_scan"}, "is_reserved": 0, "fusion_lon": 0.0, "fusion_lat": 0.0, "lon": -77.04638433333334, "name": "70f82fd3eb28b1d3438f01d8a97cd096"}, {"bike_id": "3fa69b6fe76c26f28426f7fc2fd20a07", "type": "electric_scooter", "is_disabled": 0, "lat": 38.92479766666666, "rental_uris": {"ios": "https://dc.lft.to/lastmile_qr_scan", "android": "https://dc.lft.to/lastmile_qr_scan"}, "is_reserved": 0, "fusion_lon": 0.0, "fusion_lat": 0.0, "lon": -77.02243033333333, "name": "3fa69b6fe76c26f28426f7fc2fd20a07"}, {"bike_id": "3ca2f9b002f917f435e50b11d0f69669", "type": "electric_scooter", "is_disabled": 0, "lat": 38.915553833333334, "rental_uris": {"ios": "https://dc.lft.to/lastmile_qr_scan", "android": "https://dc.lft.to/lastmile_qr_scan"}, "is_reserved": 0, "fusion_lon": 0.0, "fusion_lat": 0.0, "lon": -77.03867966666667, "name": "3ca2f9b002f917f435e50b11d0f69669"}, {"bike_id": "7537bb0f765794b7bad4ea649257ca44", "type": "electric_scooter", "is_disabled": 0, "lat": 38.87378016666667, "rental_uris": {"ios": "https://dc.lft.to/lastmile_qr_scan", "android": "https://dc.lft.to/lastmile_qr_scan"}, "is_reserved": 0, "fusion_lon": 0.0, "fusion_lat": 0.0, "lon": -77.00140516666667, "name": "7537bb0f765794b7bad4ea649257ca44"}, {"bike_id": "c459c44fe5ba15f11b9c03122f2994d5", "type": "electric_scooter", "is_disabled": 0, "lat": 38.86096083333333, "rental_uris": {"ios": "https://dc.lft.to/lastmile_qr_scan", "android": "https://dc.lft.to/lastmile_qr_scan"}, "is_reserved": 0, "fusion_lon": 0.0, "fusion_lat": 0.0, "lon": -76.96881216666667, "name": "c459c44fe5ba15f11b9c03122f2994d5"}, {"bike_id": "a5762f92a04f8f7a05b42d8803a1f448", "type": "electric_scooter", "is_disabled": 0, "lat": 38.9590225, "rental_uris": {"ios": "https://dc.lft.to/lastmile_qr_scan", "android": "https://dc.lft.to/lastmile_qr_scan"}, "is_reserved": 0, "fusion_lon": 0.0, "fusion_lat": 0.0, "lon": -77.08605233333333, "name": "a5762f92a04f8f7a05b42d8803a1f448"}, {"bike_id": "3ef67e5a44642fe4e70931233313c0aa", "type": "electric_scooter", "is_disabled": 0, "lat": 38.873371166666665, "rental_uris": {"ios": "https://dc.lft.to/lastmile_qr_scan", "android": "https://dc.lft.to/lastmile_qr_scan"}, "is_reserved": 0, "fusion_lon": 0.0, "fusion_lat": 0.0, "lon": -77.0025465, "name": "3ef67e5a44642fe4e70931233313c0aa"}, {"bike_id": "83a2201711d01fa47dc5ade1a47af117", "type": "electric_scooter", "is_disabled": 0, "lat": 38.9450955, "rental_uris": {"ios": "https://dc.lft.to/lastmile_qr_scan", "android": "https://dc.lft.to/lastmile_qr_scan"}, "is_reserved": 0, "fusion_lon": 0.0, "fusion_lat": 0.0, "lon": -77.03375383333334, "name": "83a2201711d01fa47dc5ade1a47af117"}, {"bike_id": "c273d9c175fa274c99121300cdf3f901", "type": "electric_scooter", "is_disabled": 0, "lat": 38.914825666666665, "rental_uris": {"ios": "https://dc.lft.to/lastmile_qr_scan", "android": "https://dc.lft.to/lastmile_qr_scan"}, "is_reserved": 0, "fusion_lon": 0.0, "fusion_lat": 0.0, "lon": -77.02181533333334, "name": "c273d9c175fa274c99121300cdf3f901"}, {"bike_id": "df03eabbaef61ffb0731af1bf1c6e7cf", "type": "electric_scooter", "is_disabled": 0, "lat": 38.904762833333336, "rental_uris": {"ios": "https://dc.lft.to/lastmile_qr_scan", "android": "https://dc.lft.to/lastmile_qr_scan"}, "is_reserved": 0, "fusion_lon": 0.0, "fusion_lat": 0.0, "lon": -77.05328666666666, "name": "df03eabbaef61ffb0731af1bf1c6e7cf"}, {"bike_id": "37cb3ed4fdf91e998a2cc2ca76eb5970", "type": "electric_scooter", "is_disabled": 0, "lat": 38.899050833333334, "rental_uris": {"ios": "https://dc.lft.to/lastmile_qr_scan", "android": "https://dc.lft.to/lastmile_qr_scan"}, "is_reserved": 0, "fusion_lon": 0.0, "fusion_lat": 0.0, "lon": -77.01513066666666, "name": "37cb3ed4fdf91e998a2cc2ca76eb5970"}, {"bike_id": "85dea6b866fbed8e0c8f0f1c9303de0d", "type": "electric_scooter", "is_disabled": 0, "lat": 38.895555333333334, "rental_uris": {"ios": "https://dc.lft.to/lastmile_qr_scan", "android": "https://dc.lft.to/lastmile_qr_scan"}, "is_reserved": 0, "fusion_lon": 0.0, "fusion_lat": 0.0, "lon": -77.01124433333334, "name": "85dea6b866fbed8e0c8f0f1c9303de0d"}, {"bike_id": "a93d74264872d5ff50aac807293d2d1a", "type": "electric_scooter", "is_disabled": 0, "lat": 38.86243616666667, "rental_uris": {"ios": "https://dc.lft.to/lastmile_qr_scan", "android": "https://dc.lft.to/lastmile_qr_scan"}, "is_reserved": 0, "fusion_lon": 0.0, "fusion_lat": 0.0, "lon": -76.99496816666667, "name": "a93d74264872d5ff50aac807293d2d1a"}, {"bike_id": "51f570882b14987f9c91955cc7d745e8", "type": "electric_scooter", "is_disabled": 0, "lat": 38.898194833333335, "rental_uris": {"ios": "https://dc.lft.to/lastmile_qr_scan", "android": "https://dc.lft.to/lastmile_qr_scan"}, "is_reserved": 0, "fusion_lon": 0.0, "fusion_lat": 0.0, "lon": -77.0249705, "name": "51f570882b14987f9c91955cc7d745e8"}, {"bike_id": "f9550998d8a94d9a986d6a6d1af35300", "type": "electric_bike", "is_disabled": 0, "lat": 38.804195, "rental_uris": {"ios": "https://dc.lft.to/lastmile_qr_scan", "android": "https://dc.lft.to/lastmile_qr_scan"}, "is_reserved": 0, "fusion_lon": 0.0, "fusion_lat": 0.0, "lon": -77.05571566666667, "name": "f9550998d8a94d9a986d6a6d1af35300"}, {"bike_id": "3b88d435c434bebb6b4499ac1b8eae18", "type": "electric_scooter", "is_disabled": 0, "lat": 38.91452816666666, "rental_uris": {"ios": "https://dc.lft.to/lastmile_qr_scan", "android": "https://dc.lft.to/lastmile_qr_scan"}, "is_reserved": 0, "fusion_lon": 0.0, "fusion_lat": 0.0, "lon": -77.02203033333333, "name": "3b88d435c434bebb6b4499ac1b8eae18"}, {"bike_id": "5027b232c230f903c7cadbb0a8720872", "type": "electric_scooter", "is_disabled": 0, "lat": 38.9363375, "rental_uris": {"ios": "https://dc.lft.to/lastmile_qr_scan", "android": "https://dc.lft.to/lastmile_qr_scan"}, "is_reserved": 0, "fusion_lon": 0.0, "fusion_lat": 0.0, "lon": -77.05885866666667, "name": "5027b232c230f903c7cadbb0a8720872"}, {"bike_id": "e5b84f36fd848c25c6015d93b041a80d", "type": "electric_bike", "is_disabled": 0, "lat": 38.80749, "rental_uris": {"ios": "https://dc.lft.to/lastmile_qr_scan", "android": "https://dc.lft.to/lastmile_qr_scan"}, "is_reserved": 0, "fusion_lon": 0.0, "fusion_lat": 0.0, "lon": -77.09453733333334, "name": "e5b84f36fd848c25c6015d93b041a80d"}, {"bike_id": "b2bbd50d5194b25cc354a1fb396fecaa", "type": "electric_scooter", "is_disabled": 0, "lat": 38.909591666666664, "rental_uris": {"ios": "https://dc.lft.to/lastmile_qr_scan", "android": "https://dc.lft.to/lastmile_qr_scan"}, "is_reserved": 0, "fusion_lon": 0.0, "fusion_lat": 0.0, "lon": -77.04865, "name": "b2bbd50d5194b25cc354a1fb396fecaa"}, {"bike_id": "061615955420dcebbc83ef7f73cc6bff", "type": "electric_scooter", "is_disabled": 0, "lat": 38.9095205, "rental_uris": {"ios": "https://dc.lft.to/lastmile_qr_scan", "android": "https://dc.lft.to/lastmile_qr_scan"}, "is_reserved": 0, "fusion_lon": 0.0, "fusion_lat": 0.0, "lon": -77.0237845, "name": "061615955420dcebbc83ef7f73cc6bff"}, {"bike_id": "9d5ded7d6c167c157d134489e5e7ec2e", "type": "electric_scooter", "is_disabled": 0, "lat": 38.90831983333333, "rental_uris": {"ios": "https://dc.lft.to/lastmile_qr_scan", "android": "https://dc.lft.to/lastmile_qr_scan"}, "is_reserved": 0, "fusion_lon": 0.0, "fusion_lat": 0.0, "lon": -77.03857566666667, "name": "9d5ded7d6c167c157d134489e5e7ec2e"}, {"bike_id": "a23b2c9a6b29d89d9139d37113c9b706", "type": "electric_scooter", "is_disabled": 0, "lat": 38.915452333333334, "rental_uris": {"ios": "https://dc.lft.to/lastmile_qr_scan", "android": "https://dc.lft.to/lastmile_qr_scan"}, "is_reserved": 0, "fusion_lon": 0.0, "fusion_lat": 0.0, "lon": -77.0417205, "name": "a23b2c9a6b29d89d9139d37113c9b706"}, {"bike_id": "f64ada23b8473a5c1f921616de4d08a2", "type": "electric_scooter", "is_disabled": 0, "lat": 38.91692833333333, "rental_uris": {"ios": "https://dc.lft.to/lastmile_qr_scan", "android": "https://dc.lft.to/lastmile_qr_scan"}, "is_reserved": 0, "fusion_lon": 0.0, "fusion_lat": 0.0, "lon": -77.02302683333333, "name": "f64ada23b8473a5c1f921616de4d08a2"}, {"bike_id": "f51e54189955f3867c15916864a7862d", "type": "electric_scooter", "is_disabled": 0, "lat": 38.904325, "rental_uris": {"ios": "https://dc.lft.to/lastmile_qr_scan", "android": "https://dc.lft.to/lastmile_qr_scan"}, "is_reserved": 0, "fusion_lon": 0.0, "fusion_lat": 0.0, "lon": -77.0438085, "name": "f51e54189955f3867c15916864a7862d"}, {"bike_id": "2844fdecf1bd21aaa46831b582a1da1e", "type": "electric_scooter", "is_disabled": 0, "lat": 38.91824716666667, "rental_uris": {"ios": "https://dc.lft.to/lastmile_qr_scan", "android": "https://dc.lft.to/lastmile_qr_scan"}, "is_reserved": 0, "fusion_lon": 0.0, "fusion_lat": 0.0, "lon": -77.02420633333334, "name": "2844fdecf1bd21aaa46831b582a1da1e"}, {"bike_id": "e2a3ffacafabf6514d34bafa658d634f", "type": "electric_scooter", "is_disabled": 0, "lat": 38.905501, "rental_uris": {"ios": "https://dc.lft.to/lastmile_qr_scan", "android": "https://dc.lft.to/lastmile_qr_scan"}, "is_reserved": 0, "fusion_lon": 0.0, "fusion_lat": 0.0, "lon": -76.996201, "name": "e2a3ffacafabf6514d34bafa658d634f"}, {"bike_id": "261078e0370d6963ce67bb58348234fa", "type": "electric_bike", "is_disabled": 0, "lat": 38.952319333333335, "rental_uris": {"ios": "https://dc.lft.to/lastmile_qr_scan", "android": "https://dc.lft.to/lastmile_qr_scan"}, "is_reserved": 0, "fusion_lon": 0.0, "fusion_lat": 0.0, "lon": -77.00761, "name": "261078e0370d6963ce67bb58348234fa"}, {"bike_id": "5ba8ac52e92507a8112c269d007f81e3", "type": "electric_bike", "is_disabled": 0, "lat": 38.951752166666665, "rental_uris": {"ios": "https://dc.lft.to/lastmile_qr_scan", "android": "https://dc.lft.to/lastmile_qr_scan"}, "is_reserved": 0, "fusion_lon": 0.0, "fusion_lat": 0.0, "lon": -76.96390833333334, "name": "5ba8ac52e92507a8112c269d007f81e3"}, {"bike_id": "71ba57a551269e3eae9d1bdc9d1188a3", "type": "electric_scooter", "is_disabled": 0, "lat": 38.887462, "rental_uris": {"ios": "https://dc.lft.to/lastmile_qr_scan", "android": "https://dc.lft.to/lastmile_qr_scan"}, "is_reserved": 0, "fusion_lon": 0.0, "fusion_lat": 0.0, "lon": -77.027301, "name": "71ba57a551269e3eae9d1bdc9d1188a3"}, {"bike_id": "5ba46d4b9f22ec8df1a4b0818b2a1853", "type": "electric_scooter", "is_disabled": 0, "lat": 38.908642666666665, "rental_uris": {"ios": "https://dc.lft.to/lastmile_qr_scan", "android": "https://dc.lft.to/lastmile_qr_scan"}, "is_reserved": 0, "fusion_lon": 0.0, "fusion_lat": 0.0, "lon": -77.01840783333333, "name": "5ba46d4b9f22ec8df1a4b0818b2a1853"}, {"bike_id": "2e6d0c451759bad4f0ec18d8fcadaf29", "type": "electric_scooter", "is_disabled": 0, "lat": 38.94181233333333, "rental_uris": {"ios": "https://dc.lft.to/lastmile_qr_scan", "android": "https://dc.lft.to/lastmile_qr_scan"}, "is_reserved": 0, "fusion_lon": 0.0, "fusion_lat": 0.0, "lon": -77.02486916666666, "name": "2e6d0c451759bad4f0ec18d8fcadaf29"}, {"bike_id": "3fc07b7390683f03ab0535c8abbeecfe", "type": "electric_scooter", "is_disabled": 0, "lat": 38.90321766666667, "rental_uris": {"ios": "https://dc.lft.to/lastmile_qr_scan", "android": "https://dc.lft.to/lastmile_qr_scan"}, "is_reserved": 0, "fusion_lon": 0.0, "fusion_lat": 0.0, "lon": -76.97553483333333, "name": "3fc07b7390683f03ab0535c8abbeecfe"}, {"bike_id": "5d2195a23802e20ac4e1389215431c5f", "type": "electric_scooter", "is_disabled": 0, "lat": 38.927992833333334, "rental_uris": {"ios": "https://dc.lft.to/lastmile_qr_scan", "android": "https://dc.lft.to/lastmile_qr_scan"}, "is_reserved": 0, "fusion_lon": 0.0, "fusion_lat": 0.0, "lon": -77.01417383333333, "name": "5d2195a23802e20ac4e1389215431c5f"}, {"bike_id": "4d7bf313d9b5dfd2e9aff6de293a7ef5", "type": "electric_scooter", "is_disabled": 0, "lat": 38.922106666666664, "rental_uris": {"ios": "https://dc.lft.to/lastmile_qr_scan", "android": "https://dc.lft.to/lastmile_qr_scan"}, "is_reserved": 0, "fusion_lon": 0.0, "fusion_lat": 0.0, "lon": -77.034611, "name": "4d7bf313d9b5dfd2e9aff6de293a7ef5"}, {"bike_id": "2a0a6b89aae7803d99dd99be418bafd0", "type": "electric_bike", "is_disabled": 0, "lat": 38.809209833333334, "rental_uris": {"ios": "https://dc.lft.to/lastmile_qr_scan", "android": "https://dc.lft.to/lastmile_qr_scan"}, "is_reserved": 0, "fusion_lon": 0.0, "fusion_lat": 0.0, "lon": -77.08665683333334, "name": "2a0a6b89aae7803d99dd99be418bafd0"}, {"bike_id": "4ea138e547a13b2268ba25a6486dd85b", "type": "electric_scooter", "is_disabled": 0, "lat": 38.89856233333333, "rental_uris": {"ios": "https://dc.lft.to/lastmile_qr_scan", "android": "https://dc.lft.to/lastmile_qr_scan"}, "is_reserved": 0, "fusion_lon": 0.0, "fusion_lat": 0.0, "lon": -76.9817275, "name": "4ea138e547a13b2268ba25a6486dd85b"}, {"bike_id": "08432f90470d60d08ed6d6a64a54e8a0", "type": "electric_scooter", "is_disabled": 0, "lat": 38.8921735, "rental_uris": {"ios": "https://dc.lft.to/lastmile_qr_scan", "android": "https://dc.lft.to/lastmile_qr_scan"}, "is_reserved": 0, "fusion_lon": 0.0, "fusion_lat": 0.0, "lon": -77.0419545, "name": "08432f90470d60d08ed6d6a64a54e8a0"}, {"bike_id": "673f7b2c25c67ce618676c901d246c1f", "type": "electric_bike", "is_disabled": 0, "lat": 38.8042485, "rental_uris": {"ios": "https://dc.lft.to/lastmile_qr_scan", "android": "https://dc.lft.to/lastmile_qr_scan"}, "is_reserved": 0, "fusion_lon": 0.0, "fusion_lat": 0.0, "lon": -77.05570416666667, "name": "673f7b2c25c67ce618676c901d246c1f"}, {"bike_id": "bddaaede95ccfbd111eed0916de0ec5c", "type": "electric_bike", "is_disabled": 0, "lat": 38.8636555, "rental_uris": {"ios": "https://dc.lft.to/lastmile_qr_scan", "android": "https://dc.lft.to/lastmile_qr_scan"}, "is_reserved": 0, "fusion_lon": 0.0, "fusion_lat": 0.0, "lon": -76.97009316666667, "name": "bddaaede95ccfbd111eed0916de0ec5c"}, {"bike_id": "a98ede5b09639695d0722f7728cd5152", "type": "electric_scooter", "is_disabled": 0, "lat": 38.86384566666667, "rental_uris": {"ios": "https://dc.lft.to/lastmile_qr_scan", "android": "https://dc.lft.to/lastmile_qr_scan"}, "is_reserved": 0, "fusion_lon": 0.0, "fusion_lat": 0.0, "lon": -76.99039966666666, "name": "a98ede5b09639695d0722f7728cd5152"}, {"bike_id": "241dd4dec38ebebe464008cb80c0f3d0", "type": "electric_scooter", "is_disabled": 0, "lat": 38.8760205, "rental_uris": {"ios": "https://dc.lft.to/lastmile_qr_scan", "android": "https://dc.lft.to/lastmile_qr_scan"}, "is_reserved": 0, "fusion_lon": 0.0, "fusion_lat": 0.0, "lon": -77.00609333333334, "name": "241dd4dec38ebebe464008cb80c0f3d0"}, {"bike_id": "f0d917e7f918336d9875a68dba2490e3", "type": "electric_scooter", "is_disabled": 0, "lat": 38.91114816666666, "rental_uris": {"ios": "https://dc.lft.to/lastmile_qr_scan", "android": "https://dc.lft.to/lastmile_qr_scan"}, "is_reserved": 0, "fusion_lon": 0.0, "fusion_lat": 0.0, "lon": -77.04179816666667, "name": "f0d917e7f918336d9875a68dba2490e3"}, {"bike_id": "a2ade8b686100dff8dbe3aa0eac106f5", "type": "electric_scooter", "is_disabled": 0, "lat": 38.929671, "rental_uris": {"ios": "https://dc.lft.to/lastmile_qr_scan", "android": "https://dc.lft.to/lastmile_qr_scan"}, "is_reserved": 0, "fusion_lon": 0.0, "fusion_lat": 0.0, "lon": -77.02831516666667, "name": "a2ade8b686100dff8dbe3aa0eac106f5"}, {"bike_id": "c1c6b240ec424740d3f894151394b805", "type": "electric_scooter", "is_disabled": 0, "lat": 38.9119745, "rental_uris": {"ios": "https://dc.lft.to/lastmile_qr_scan", "android": "https://dc.lft.to/lastmile_qr_scan"}, "is_reserved": 0, "fusion_lon": 0.0, "fusion_lat": 0.0, "lon": -77.03853016666666, "name": "c1c6b240ec424740d3f894151394b805"}, {"bike_id": "52baeac95fc1b4711d9c9cd854c1fb7f", "type": "electric_scooter", "is_disabled": 0, "lat": 38.93414883333333, "rental_uris": {"ios": "https://dc.lft.to/lastmile_qr_scan", "android": "https://dc.lft.to/lastmile_qr_scan"}, "is_reserved": 0, "fusion_lon": 0.0, "fusion_lat": 0.0, "lon": -77.039987, "name": "52baeac95fc1b4711d9c9cd854c1fb7f"}, {"bike_id": "2b96c3a4fd55b48a8b095b265a0d826d", "type": "electric_scooter", "is_disabled": 0, "lat": 38.9046485, "rental_uris": {"ios": "https://dc.lft.to/lastmile_qr_scan", "android": "https://dc.lft.to/lastmile_qr_scan"}, "is_reserved": 0, "fusion_lon": 0.0, "fusion_lat": 0.0, "lon": -77.039692, "name": "2b96c3a4fd55b48a8b095b265a0d826d"}, {"bike_id": "a3ab49c07c6362df6be8d5190c38f8fd", "type": "electric_scooter", "is_disabled": 0, "lat": 38.90766983333333, "rental_uris": {"ios": "https://dc.lft.to/lastmile_qr_scan", "android": "https://dc.lft.to/lastmile_qr_scan"}, "is_reserved": 0, "fusion_lon": 0.0, "fusion_lat": 0.0, "lon": -77.032224, "name": "a3ab49c07c6362df6be8d5190c38f8fd"}, {"bike_id": "99a3c72d181643d87b3fa8900a4f35ff", "type": "electric_scooter", "is_disabled": 0, "lat": 38.909699333333336, "rental_uris": {"ios": "https://dc.lft.to/lastmile_qr_scan", "android": "https://dc.lft.to/lastmile_qr_scan"}, "is_reserved": 0, "fusion_lon": 0.0, "fusion_lat": 0.0, "lon": -77.02174533333333, "name": "99a3c72d181643d87b3fa8900a4f35ff"}, {"bike_id": "72091e5b469069ba4f94c9be15973d1a", "type": "electric_scooter", "is_disabled": 0, "lat": 38.9147405, "rental_uris": {"ios": "https://dc.lft.to/lastmile_qr_scan", "android": "https://dc.lft.to/lastmile_qr_scan"}, "is_reserved": 0, "fusion_lon": 0.0, "fusion_lat": 0.0, "lon": -76.98567216666666, "name": "72091e5b469069ba4f94c9be15973d1a"}, {"bike_id": "a86a32dc3e4d87f0389475e1b6f15d8e", "type": "electric_scooter", "is_disabled": 0, "lat": 38.919852, "rental_uris": {"ios": "https://dc.lft.to/lastmile_qr_scan", "android": "https://dc.lft.to/lastmile_qr_scan"}, "is_reserved": 0, "fusion_lon": 0.0, "fusion_lat": 0.0, "lon": -76.97305116666666, "name": "a86a32dc3e4d87f0389475e1b6f15d8e"}, {"bike_id": "feb4fe028a628e8a0908e659c9e41e38", "type": "electric_scooter", "is_disabled": 0, "lat": 38.92588883333333, "rental_uris": {"ios": "https://dc.lft.to/lastmile_qr_scan", "android": "https://dc.lft.to/lastmile_qr_scan"}, "is_reserved": 0, "fusion_lon": 0.0, "fusion_lat": 0.0, "lon": -77.00832866666667, "name": "feb4fe028a628e8a0908e659c9e41e38"}, {"bike_id": "e2ecb671dbb0c83b8a01eabbecc09a34", "type": "electric_scooter", "is_disabled": 0, "lat": 38.862111, "rental_uris": {"ios": "https://dc.lft.to/lastmile_qr_scan", "android": "https://dc.lft.to/lastmile_qr_scan"}, "is_reserved": 0, "fusion_lon": 0.0, "fusion_lat": 0.0, "lon": -76.994779, "name": "e2ecb671dbb0c83b8a01eabbecc09a34"}, {"bike_id": "be050af9e4c4255cd49c8071ed8fd4ab", "type": "electric_scooter", "is_disabled": 0, "lat": 38.8745335, "rental_uris": {"ios": "https://dc.lft.to/lastmile_qr_scan", "android": "https://dc.lft.to/lastmile_qr_scan"}, "is_reserved": 0, "fusion_lon": 0.0, "fusion_lat": 0.0, "lon": -77.0054165, "name": "be050af9e4c4255cd49c8071ed8fd4ab"}, {"bike_id": "0edf47bf41c4db855921777159111e94", "type": "electric_scooter", "is_disabled": 0, "lat": 38.900182666666666, "rental_uris": {"ios": "https://dc.lft.to/lastmile_qr_scan", "android": "https://dc.lft.to/lastmile_qr_scan"}, "is_reserved": 0, "fusion_lon": 0.0, "fusion_lat": 0.0, "lon": -76.98057366666667, "name": "0edf47bf41c4db855921777159111e94"}, {"bike_id": "a9278f3ddbf68c595954f018566ec598", "type": "electric_scooter", "is_disabled": 0, "lat": 38.9023345, "rental_uris": {"ios": "https://dc.lft.to/lastmile_qr_scan", "android": "https://dc.lft.to/lastmile_qr_scan"}, "is_reserved": 0, "fusion_lon": 0.0, "fusion_lat": 0.0, "lon": -77.03827466666667, "name": "a9278f3ddbf68c595954f018566ec598"}, {"bike_id": "e75f67697fd96b214906fd260bccd0c8", "type": "electric_scooter", "is_disabled": 0, "lat": 38.902387, "rental_uris": {"ios": "https://dc.lft.to/lastmile_qr_scan", "android": "https://dc.lft.to/lastmile_qr_scan"}, "is_reserved": 0, "fusion_lon": 0.0, "fusion_lat": 0.0, "lon": -77.03262666666667, "name": "e75f67697fd96b214906fd260bccd0c8"}, {"bike_id": "4cb5c8ea64e064b66349942fef0f352d", "type": "electric_scooter", "is_disabled": 0, "lat": 38.91146583333333, "rental_uris": {"ios": "https://dc.lft.to/lastmile_qr_scan", "android": "https://dc.lft.to/lastmile_qr_scan"}, "is_reserved": 0, "fusion_lon": 0.0, "fusion_lat": 0.0, "lon": -77.03845783333334, "name": "4cb5c8ea64e064b66349942fef0f352d"}, {"bike_id": "e391a882fbc80f4806452e73fb924e7d", "type": "electric_scooter", "is_disabled": 0, "lat": 38.921150833333336, "rental_uris": {"ios": "https://dc.lft.to/lastmile_qr_scan", "android": "https://dc.lft.to/lastmile_qr_scan"}, "is_reserved": 0, "fusion_lon": 0.0, "fusion_lat": 0.0, "lon": -77.0334115, "name": "e391a882fbc80f4806452e73fb924e7d"}, {"bike_id": "848401a17a02e7023dcc45a19412386e", "type": "electric_scooter", "is_disabled": 0, "lat": 38.902398833333336, "rental_uris": {"ios": "https://dc.lft.to/lastmile_qr_scan", "android": "https://dc.lft.to/lastmile_qr_scan"}, "is_reserved": 0, "fusion_lon": 0.0, "fusion_lat": 0.0, "lon": -76.974169, "name": "848401a17a02e7023dcc45a19412386e"}, {"bike_id": "d379111bd2c46221a781adda5b2cd35b", "type": "electric_scooter", "is_disabled": 0, "lat": 38.933745333333334, "rental_uris": {"ios": "https://dc.lft.to/lastmile_qr_scan", "android": "https://dc.lft.to/lastmile_qr_scan"}, "is_reserved": 0, "fusion_lon": 0.0, "fusion_lat": 0.0, "lon": -77.05755166666667, "name": "d379111bd2c46221a781adda5b2cd35b"}, {"bike_id": "88d133f95007dda3ce2d7381cb92f9b5", "type": "electric_scooter", "is_disabled": 0, "lat": 38.87465433333333, "rental_uris": {"ios": "https://dc.lft.to/lastmile_qr_scan", "android": "https://dc.lft.to/lastmile_qr_scan"}, "is_reserved": 0, "fusion_lon": 0.0, "fusion_lat": 0.0, "lon": -77.005175, "name": "88d133f95007dda3ce2d7381cb92f9b5"}, {"bike_id": "ac482ed9c6a8b5cff4d87bd978abf3f2", "type": "electric_scooter", "is_disabled": 0, "lat": 38.892090833333334, "rental_uris": {"ios": "https://dc.lft.to/lastmile_qr_scan", "android": "https://dc.lft.to/lastmile_qr_scan"}, "is_reserved": 0, "fusion_lon": 0.0, "fusion_lat": 0.0, "lon": -77.03182583333333, "name": "ac482ed9c6a8b5cff4d87bd978abf3f2"}, {"bike_id": "4b9b55cba66efc8da810fcc0f5b2749f", "type": "electric_scooter", "is_disabled": 0, "lat": 38.904159, "rental_uris": {"ios": "https://dc.lft.to/lastmile_qr_scan", "android": "https://dc.lft.to/lastmile_qr_scan"}, "is_reserved": 0, "fusion_lon": 0.0, "fusion_lat": 0.0, "lon": -77.04356283333334, "name": "4b9b55cba66efc8da810fcc0f5b2749f"}, {"bike_id": "87ebd7f3097fab0938880a5c47c588a5", "type": "electric_scooter", "is_disabled": 0, "lat": 38.928686166666665, "rental_uris": {"ios": "https://dc.lft.to/lastmile_qr_scan", "android": "https://dc.lft.to/lastmile_qr_scan"}, "is_reserved": 0, "fusion_lon": 0.0, "fusion_lat": 0.0, "lon": -77.021771, "name": "87ebd7f3097fab0938880a5c47c588a5"}, {"bike_id": "904b0e129f07cf70bb94ad3f9b236cd4", "type": "electric_scooter", "is_disabled": 0, "lat": 38.922020333333336, "rental_uris": {"ios": "https://dc.lft.to/lastmile_qr_scan", "android": "https://dc.lft.to/lastmile_qr_scan"}, "is_reserved": 0, "fusion_lon": 0.0, "fusion_lat": 0.0, "lon": -77.03898966666667, "name": "904b0e129f07cf70bb94ad3f9b236cd4"}, {"bike_id": "63662adf9733faeeb57ccca239a3bce2", "type": "electric_scooter", "is_disabled": 0, "lat": 38.9185555, "rental_uris": {"ios": "https://dc.lft.to/lastmile_qr_scan", "android": "https://dc.lft.to/lastmile_qr_scan"}, "is_reserved": 0, "fusion_lon": 0.0, "fusion_lat": 0.0, "lon": -77.04034733333333, "name": "63662adf9733faeeb57ccca239a3bce2"}, {"bike_id": "7cf9a8ba77a785e6ac9d0ff56c60c317", "type": "electric_scooter", "is_disabled": 0, "lat": 38.91325483333333, "rental_uris": {"ios": "https://dc.lft.to/lastmile_qr_scan", "android": "https://dc.lft.to/lastmile_qr_scan"}, "is_reserved": 0, "fusion_lon": 0.0, "fusion_lat": 0.0, "lon": -77.04547716666667, "name": "7cf9a8ba77a785e6ac9d0ff56c60c317"}, {"bike_id": "464e8fb228e881f26e2d566e3db4051a", "type": "electric_bike", "is_disabled": 0, "lat": 38.85431883333333, "rental_uris": {"ios": "https://dc.lft.to/lastmile_qr_scan", "android": "https://dc.lft.to/lastmile_qr_scan"}, "is_reserved": 0, "fusion_lon": 0.0, "fusion_lat": 0.0, "lon": -77.08304833333334, "name": "464e8fb228e881f26e2d566e3db4051a"}, {"bike_id": "12bda56dd5663482eb494c96fa220cdb", "type": "electric_scooter", "is_disabled": 0, "lat": 38.904999833333335, "rental_uris": {"ios": "https://dc.lft.to/lastmile_qr_scan", "android": "https://dc.lft.to/lastmile_qr_scan"}, "is_reserved": 0, "fusion_lon": 0.0, "fusion_lat": 0.0, "lon": -77.06017233333333, "name": "12bda56dd5663482eb494c96fa220cdb"}, {"bike_id": "ba5319a0dafe88b6ab424a7b3033abfd", "type": "electric_scooter", "is_disabled": 0, "lat": 38.91967183333333, "rental_uris": {"ios": "https://dc.lft.to/lastmile_qr_scan", "android": "https://dc.lft.to/lastmile_qr_scan"}, "is_reserved": 0, "fusion_lon": 0.0, "fusion_lat": 0.0, "lon": -77.03291216666666, "name": "ba5319a0dafe88b6ab424a7b3033abfd"}, {"bike_id": "7b5d23319ec8471a1b99ef228f05b2d6", "type": "electric_scooter", "is_disabled": 0, "lat": 38.963852, "rental_uris": {"ios": "https://dc.lft.to/lastmile_qr_scan", "android": "https://dc.lft.to/lastmile_qr_scan"}, "is_reserved": 0, "fusion_lon": 0.0, "fusion_lat": 0.0, "lon": -77.025874, "name": "7b5d23319ec8471a1b99ef228f05b2d6"}, {"bike_id": "3fba7d212f7a6fdd38627c146cb5f76e", "type": "electric_scooter", "is_disabled": 0, "lat": 38.912499333333336, "rental_uris": {"ios": "https://dc.lft.to/lastmile_qr_scan", "android": "https://dc.lft.to/lastmile_qr_scan"}, "is_reserved": 0, "fusion_lon": 0.0, "fusion_lat": 0.0, "lon": -77.04463116666666, "name": "3fba7d212f7a6fdd38627c146cb5f76e"}, {"bike_id": "aa9e8ebbf636eb095da7a58cac9a7977", "type": "electric_scooter", "is_disabled": 0, "lat": 38.921729, "rental_uris": {"ios": "https://dc.lft.to/lastmile_qr_scan", "android": "https://dc.lft.to/lastmile_qr_scan"}, "is_reserved": 0, "fusion_lon": 0.0, "fusion_lat": 0.0, "lon": -77.01920833333334, "name": "aa9e8ebbf636eb095da7a58cac9a7977"}, {"bike_id": "8759f556b9ec37d4754493313c36bb3e", "type": "electric_scooter", "is_disabled": 0, "lat": 38.898931, "rental_uris": {"ios": "https://dc.lft.to/lastmile_qr_scan", "android": "https://dc.lft.to/lastmile_qr_scan"}, "is_reserved": 0, "fusion_lon": 0.0, "fusion_lat": 0.0, "lon": -76.9761475, "name": "8759f556b9ec37d4754493313c36bb3e"}, {"bike_id": "f73fe36f0521d1ccd834762d42ae0e72", "type": "electric_scooter", "is_disabled": 0, "lat": 38.921024, "rental_uris": {"ios": "https://dc.lft.to/lastmile_qr_scan", "android": "https://dc.lft.to/lastmile_qr_scan"}, "is_reserved": 0, "fusion_lon": 0.0, "fusion_lat": 0.0, "lon": -77.025305, "name": "f73fe36f0521d1ccd834762d42ae0e72"}, {"bike_id": "a66a12970a9f2dad4043f97ba139c7bc", "type": "electric_scooter", "is_disabled": 0, "lat": 38.92348166666667, "rental_uris": {"ios": "https://dc.lft.to/lastmile_qr_scan", "android": "https://dc.lft.to/lastmile_qr_scan"}, "is_reserved": 0, "fusion_lon": 0.0, "fusion_lat": 0.0, "lon": -77.04338333333334, "name": "a66a12970a9f2dad4043f97ba139c7bc"}, {"bike_id": "18812b22130f8b5229a54e136106812a", "type": "electric_scooter", "is_disabled": 0, "lat": 38.901936, "rental_uris": {"ios": "https://dc.lft.to/lastmile_qr_scan", "android": "https://dc.lft.to/lastmile_qr_scan"}, "is_reserved": 0, "fusion_lon": 0.0, "fusion_lat": 0.0, "lon": -76.98843866666667, "name": "18812b22130f8b5229a54e136106812a"}, {"bike_id": "1c6ae226b2cfaa0d759ffab432304897", "type": "electric_scooter", "is_disabled": 0, "lat": 38.90025216666667, "rental_uris": {"ios": "https://dc.lft.to/lastmile_qr_scan", "android": "https://dc.lft.to/lastmile_qr_scan"}, "is_reserved": 0, "fusion_lon": 0.0, "fusion_lat": 0.0, "lon": -76.9980675, "name": "1c6ae226b2cfaa0d759ffab432304897"}, {"bike_id": "8cc38b38b548b93c8030ac369cf284c6", "type": "electric_scooter", "is_disabled": 0, "lat": 38.94068133333333, "rental_uris": {"ios": "https://dc.lft.to/lastmile_qr_scan", "android": "https://dc.lft.to/lastmile_qr_scan"}, "is_reserved": 0, "fusion_lon": 0.0, "fusion_lat": 0.0, "lon": -77.05254366666666, "name": "8cc38b38b548b93c8030ac369cf284c6"}, {"bike_id": "f556f76a9ac21051096c47f52aaa14c8", "type": "electric_scooter", "is_disabled": 0, "lat": 38.87674766666667, "rental_uris": {"ios": "https://dc.lft.to/lastmile_qr_scan", "android": "https://dc.lft.to/lastmile_qr_scan"}, "is_reserved": 0, "fusion_lon": 0.0, "fusion_lat": 0.0, "lon": -77.00767066666667, "name": "f556f76a9ac21051096c47f52aaa14c8"}, {"bike_id": "ea3671b369fdb7a1ba6b8794bec11d65", "type": "electric_scooter", "is_disabled": 0, "lat": 38.89231866666667, "rental_uris": {"ios": "https://dc.lft.to/lastmile_qr_scan", "android": "https://dc.lft.to/lastmile_qr_scan"}, "is_reserved": 0, "fusion_lon": 0.0, "fusion_lat": 0.0, "lon": -77.02378116666667, "name": "ea3671b369fdb7a1ba6b8794bec11d65"}, {"bike_id": "4da06b84926a677d53bfc64c38898843", "type": "electric_scooter", "is_disabled": 0, "lat": 38.921112, "rental_uris": {"ios": "https://dc.lft.to/lastmile_qr_scan", "android": "https://dc.lft.to/lastmile_qr_scan"}, "is_reserved": 0, "fusion_lon": 0.0, "fusion_lat": 0.0, "lon": -77.0320395, "name": "4da06b84926a677d53bfc64c38898843"}, {"bike_id": "bf93b07b5ebebb72795832c7d380816a", "type": "electric_scooter", "is_disabled": 0, "lat": 38.892154833333336, "rental_uris": {"ios": "https://dc.lft.to/lastmile_qr_scan", "android": "https://dc.lft.to/lastmile_qr_scan"}, "is_reserved": 0, "fusion_lon": 0.0, "fusion_lat": 0.0, "lon": -77.02579466666667, "name": "bf93b07b5ebebb72795832c7d380816a"}, {"bike_id": "8492b58d22444753a56704e0c859bc4c", "type": "electric_scooter", "is_disabled": 0, "lat": 38.92218116666667, "rental_uris": {"ios": "https://dc.lft.to/lastmile_qr_scan", "android": "https://dc.lft.to/lastmile_qr_scan"}, "is_reserved": 0, "fusion_lon": 0.0, "fusion_lat": 0.0, "lon": -77.03293516666666, "name": "8492b58d22444753a56704e0c859bc4c"}, {"bike_id": "462cf110ba0b419d851b9e58961c654a", "type": "electric_scooter", "is_disabled": 0, "lat": 38.91703566666666, "rental_uris": {"ios": "https://dc.lft.to/lastmile_qr_scan", "android": "https://dc.lft.to/lastmile_qr_scan"}, "is_reserved": 0, "fusion_lon": 0.0, "fusion_lat": 0.0, "lon": -77.02379016666667, "name": "462cf110ba0b419d851b9e58961c654a"}, {"bike_id": "fb9baf5d95719d6aae520d635ebb639a", "type": "electric_scooter", "is_disabled": 0, "lat": 38.90849166666667, "rental_uris": {"ios": "https://dc.lft.to/lastmile_qr_scan", "android": "https://dc.lft.to/lastmile_qr_scan"}, "is_reserved": 0, "fusion_lon": 0.0, "fusion_lat": 0.0, "lon": -76.99970916666666, "name": "fb9baf5d95719d6aae520d635ebb639a"}, {"bike_id": "cba34d48ddc356286028ec5480a224cc", "type": "electric_scooter", "is_disabled": 0, "lat": 38.91695516666667, "rental_uris": {"ios": "https://dc.lft.to/lastmile_qr_scan", "android": "https://dc.lft.to/lastmile_qr_scan"}, "is_reserved": 0, "fusion_lon": 0.0, "fusion_lat": 0.0, "lon": -77.02460266666667, "name": "cba34d48ddc356286028ec5480a224cc"}, {"bike_id": "d755086182a6bc98bf596a1b295986d5", "type": "electric_scooter", "is_disabled": 0, "lat": 38.945243833333336, "rental_uris": {"ios": "https://dc.lft.to/lastmile_qr_scan", "android": "https://dc.lft.to/lastmile_qr_scan"}, "is_reserved": 0, "fusion_lon": 0.0, "fusion_lat": 0.0, "lon": -77.02086833333334, "name": "d755086182a6bc98bf596a1b295986d5"}, {"bike_id": "3466e2b790611cbc24fa2a4a2cd03c17", "type": "electric_scooter", "is_disabled": 0, "lat": 38.905492333333335, "rental_uris": {"ios": "https://dc.lft.to/lastmile_qr_scan", "android": "https://dc.lft.to/lastmile_qr_scan"}, "is_reserved": 0, "fusion_lon": 0.0, "fusion_lat": 0.0, "lon": -77.06292283333333, "name": "3466e2b790611cbc24fa2a4a2cd03c17"}, {"bike_id": "6d4b6cd31904707e3780e5e7b1f98d3b", "type": "electric_scooter", "is_disabled": 0, "lat": 38.91253666666667, "rental_uris": {"ios": "https://dc.lft.to/lastmile_qr_scan", "android": "https://dc.lft.to/lastmile_qr_scan"}, "is_reserved": 0, "fusion_lon": 0.0, "fusion_lat": 0.0, "lon": -77.03137516666666, "name": "6d4b6cd31904707e3780e5e7b1f98d3b"}, {"bike_id": "97ede9f87bfa40bbc2d9f633abeb95dd", "type": "electric_scooter", "is_disabled": 0, "lat": 38.91823683333333, "rental_uris": {"ios": "https://dc.lft.to/lastmile_qr_scan", "android": "https://dc.lft.to/lastmile_qr_scan"}, "is_reserved": 0, "fusion_lon": 0.0, "fusion_lat": 0.0, "lon": -77.0494515, "name": "97ede9f87bfa40bbc2d9f633abeb95dd"}, {"bike_id": "7b7437e80519c30b48b4adf6b4469e73", "type": "electric_scooter", "is_disabled": 0, "lat": 38.91689566666667, "rental_uris": {"ios": "https://dc.lft.to/lastmile_qr_scan", "android": "https://dc.lft.to/lastmile_qr_scan"}, "is_reserved": 0, "fusion_lon": 0.0, "fusion_lat": 0.0, "lon": -77.00494, "name": "7b7437e80519c30b48b4adf6b4469e73"}, {"bike_id": "f9a8708907385a909f7368fbe633f25d", "type": "electric_scooter", "is_disabled": 0, "lat": 38.916746333333336, "rental_uris": {"ios": "https://dc.lft.to/lastmile_qr_scan", "android": "https://dc.lft.to/lastmile_qr_scan"}, "is_reserved": 0, "fusion_lon": 0.0, "fusion_lat": 0.0, "lon": -77.02714683333333, "name": "f9a8708907385a909f7368fbe633f25d"}, {"bike_id": "5b185077b0962fb406b9ef0a3a178742", "type": "electric_scooter", "is_disabled": 0, "lat": 38.87605116666667, "rental_uris": {"ios": "https://dc.lft.to/lastmile_qr_scan", "android": "https://dc.lft.to/lastmile_qr_scan"}, "is_reserved": 0, "fusion_lon": 0.0, "fusion_lat": 0.0, "lon": -77.016036, "name": "5b185077b0962fb406b9ef0a3a178742"}, {"bike_id": "2449c8f06820198296c7b2afff31129b", "type": "electric_scooter", "is_disabled": 0, "lat": 38.862385333333336, "rental_uris": {"ios": "https://dc.lft.to/lastmile_qr_scan", "android": "https://dc.lft.to/lastmile_qr_scan"}, "is_reserved": 0, "fusion_lon": 0.0, "fusion_lat": 0.0, "lon": -76.99491166666667, "name": "2449c8f06820198296c7b2afff31129b"}, {"bike_id": "7f8922d830b2ed3a17022c73d5b69185", "type": "electric_bike", "is_disabled": 0, "lat": 38.8974155, "rental_uris": {"ios": "https://dc.lft.to/lastmile_qr_scan", "android": "https://dc.lft.to/lastmile_qr_scan"}, "is_reserved": 0, "fusion_lon": 0.0, "fusion_lat": 0.0, "lon": -76.920459, "name": "7f8922d830b2ed3a17022c73d5b69185"}, {"bike_id": "a5ec0f9c81e5b49b1cc93a8a42dadd70", "type": "electric_scooter", "is_disabled": 0, "lat": 38.91750716666667, "rental_uris": {"ios": "https://dc.lft.to/lastmile_qr_scan", "android": "https://dc.lft.to/lastmile_qr_scan"}, "is_reserved": 0, "fusion_lon": 0.0, "fusion_lat": 0.0, "lon": -77.0415655, "name": "a5ec0f9c81e5b49b1cc93a8a42dadd70"}, {"bike_id": "2d162f4cd64745b4ab526ee0bc89a174", "type": "electric_scooter", "is_disabled": 0, "lat": 38.88304433333333, "rental_uris": {"ios": "https://dc.lft.to/lastmile_qr_scan", "android": "https://dc.lft.to/lastmile_qr_scan"}, "is_reserved": 0, "fusion_lon": 0.0, "fusion_lat": 0.0, "lon": -76.948553, "name": "2d162f4cd64745b4ab526ee0bc89a174"}, {"bike_id": "ae4f7a36c01c7db3f0d495c0509de697", "type": "electric_scooter", "is_disabled": 0, "lat": 38.93539916666667, "rental_uris": {"ios": "https://dc.lft.to/lastmile_qr_scan", "android": "https://dc.lft.to/lastmile_qr_scan"}, "is_reserved": 0, "fusion_lon": 0.0, "fusion_lat": 0.0, "lon": -77.05860483333333, "name": "ae4f7a36c01c7db3f0d495c0509de697"}, {"bike_id": "38a33fd285ed7a65472092d563e71e3e", "type": "electric_scooter", "is_disabled": 0, "lat": 38.915758, "rental_uris": {"ios": "https://dc.lft.to/lastmile_qr_scan", "android": "https://dc.lft.to/lastmile_qr_scan"}, "is_reserved": 0, "fusion_lon": 0.0, "fusion_lat": 0.0, "lon": -77.0448925, "name": "38a33fd285ed7a65472092d563e71e3e"}, {"bike_id": "f6cdd35ecbca379be015edd43a74172d", "type": "electric_scooter", "is_disabled": 0, "lat": 38.92157516666666, "rental_uris": {"ios": "https://dc.lft.to/lastmile_qr_scan", "android": "https://dc.lft.to/lastmile_qr_scan"}, "is_reserved": 0, "fusion_lon": 0.0, "fusion_lat": 0.0, "lon": -77.04226316666667, "name": "f6cdd35ecbca379be015edd43a74172d"}, {"bike_id": "388356152d81505363a59af43dcf437c", "type": "electric_scooter", "is_disabled": 0, "lat": 38.91681333333333, "rental_uris": {"ios": "https://dc.lft.to/lastmile_qr_scan", "android": "https://dc.lft.to/lastmile_qr_scan"}, "is_reserved": 0, "fusion_lon": 0.0, "fusion_lat": 0.0, "lon": -77.02691883333334, "name": "388356152d81505363a59af43dcf437c"}, {"bike_id": "4a29e1e788f43d00181e9db925a06b4f", "type": "electric_scooter", "is_disabled": 0, "lat": 38.91479733333333, "rental_uris": {"ios": "https://dc.lft.to/lastmile_qr_scan", "android": "https://dc.lft.to/lastmile_qr_scan"}, "is_reserved": 0, "fusion_lon": 0.0, "fusion_lat": 0.0, "lon": -77.032719, "name": "4a29e1e788f43d00181e9db925a06b4f"}, {"bike_id": "ccdb34de6033b63a1ecab792ae3f634c", "type": "electric_bike", "is_disabled": 0, "lat": 38.969571, "rental_uris": {"ios": "https://dc.lft.to/lastmile_qr_scan", "android": "https://dc.lft.to/lastmile_qr_scan"}, "is_reserved": 0, "fusion_lon": 0.0, "fusion_lat": 0.0, "lon": -76.9574925, "name": "ccdb34de6033b63a1ecab792ae3f634c"}, {"bike_id": "35ee9340c28b19559d5e4975d15b161a", "type": "electric_bike", "is_disabled": 0, "lat": 38.91057716666667, "rental_uris": {"ios": "https://dc.lft.to/lastmile_qr_scan", "android": "https://dc.lft.to/lastmile_qr_scan"}, "is_reserved": 0, "fusion_lon": 0.0, "fusion_lat": 0.0, "lon": -77.02915133333333, "name": "35ee9340c28b19559d5e4975d15b161a"}, {"bike_id": "c731437089092ae056c4ea687d97fa73", "type": "electric_scooter", "is_disabled": 0, "lat": 38.913078666666664, "rental_uris": {"ios": "https://dc.lft.to/lastmile_qr_scan", "android": "https://dc.lft.to/lastmile_qr_scan"}, "is_reserved": 0, "fusion_lon": 0.0, "fusion_lat": 0.0, "lon": -77.04535633333333, "name": "c731437089092ae056c4ea687d97fa73"}, {"bike_id": "f2ec1a47c749a05e6cbb9bce5ebe82a9", "type": "electric_scooter", "is_disabled": 0, "lat": 38.926081833333335, "rental_uris": {"ios": "https://dc.lft.to/lastmile_qr_scan", "android": "https://dc.lft.to/lastmile_qr_scan"}, "is_reserved": 0, "fusion_lon": 0.0, "fusion_lat": 0.0, "lon": -77.021603, "name": "f2ec1a47c749a05e6cbb9bce5ebe82a9"}, {"bike_id": "4604fea081b72b367021c7d40dcc1528", "type": "electric_scooter", "is_disabled": 0, "lat": 38.902734, "rental_uris": {"ios": "https://dc.lft.to/lastmile_qr_scan", "android": "https://dc.lft.to/lastmile_qr_scan"}, "is_reserved": 0, "fusion_lon": 0.0, "fusion_lat": 0.0, "lon": -77.03923383333333, "name": "4604fea081b72b367021c7d40dcc1528"}, {"bike_id": "f158588dd7d5d72be2190e501e916043", "type": "electric_scooter", "is_disabled": 0, "lat": 38.89218566666667, "rental_uris": {"ios": "https://dc.lft.to/lastmile_qr_scan", "android": "https://dc.lft.to/lastmile_qr_scan"}, "is_reserved": 0, "fusion_lon": 0.0, "fusion_lat": 0.0, "lon": -77.04197416666666, "name": "f158588dd7d5d72be2190e501e916043"}, {"bike_id": "68026a6397d1bbda6714b2c02dc28b9f", "type": "electric_scooter", "is_disabled": 0, "lat": 38.8647655, "rental_uris": {"ios": "https://dc.lft.to/lastmile_qr_scan", "android": "https://dc.lft.to/lastmile_qr_scan"}, "is_reserved": 0, "fusion_lon": 0.0, "fusion_lat": 0.0, "lon": -76.97742816666667, "name": "68026a6397d1bbda6714b2c02dc28b9f"}, {"bike_id": "e3d1a09290d2b7cd96557e93df2f715e", "type": "electric_scooter", "is_disabled": 0, "lat": 38.902523333333335, "rental_uris": {"ios": "https://dc.lft.to/lastmile_qr_scan", "android": "https://dc.lft.to/lastmile_qr_scan"}, "is_reserved": 0, "fusion_lon": 0.0, "fusion_lat": 0.0, "lon": -77.00604966666667, "name": "e3d1a09290d2b7cd96557e93df2f715e"}, {"bike_id": "ba4082f0789b0488c8c6cc12e19cbfaa", "type": "electric_scooter", "is_disabled": 0, "lat": 38.9201095, "rental_uris": {"ios": "https://dc.lft.to/lastmile_qr_scan", "android": "https://dc.lft.to/lastmile_qr_scan"}, "is_reserved": 0, "fusion_lon": 0.0, "fusion_lat": 0.0, "lon": -77.0311925, "name": "ba4082f0789b0488c8c6cc12e19cbfaa"}, {"bike_id": "4dc71c09ab2acdc5cb887e8c85d8533e", "type": "electric_scooter", "is_disabled": 0, "lat": 38.8836425, "rental_uris": {"ios": "https://dc.lft.to/lastmile_qr_scan", "android": "https://dc.lft.to/lastmile_qr_scan"}, "is_reserved": 0, "fusion_lon": 0.0, "fusion_lat": 0.0, "lon": -76.99520066666666, "name": "4dc71c09ab2acdc5cb887e8c85d8533e"}, {"bike_id": "2fe1a440079d70b146f28f75e7f0869a", "type": "electric_scooter", "is_disabled": 0, "lat": 38.866775, "rental_uris": {"ios": "https://dc.lft.to/lastmile_qr_scan", "android": "https://dc.lft.to/lastmile_qr_scan"}, "is_reserved": 0, "fusion_lon": 0.0, "fusion_lat": 0.0, "lon": -76.98557683333334, "name": "2fe1a440079d70b146f28f75e7f0869a"}, {"bike_id": "af48fbc19821cc1229f3f63333081ee7", "type": "electric_scooter", "is_disabled": 0, "lat": 38.915244666666666, "rental_uris": {"ios": "https://dc.lft.to/lastmile_qr_scan", "android": "https://dc.lft.to/lastmile_qr_scan"}, "is_reserved": 0, "fusion_lon": 0.0, "fusion_lat": 0.0, "lon": -77.0320145, "name": "af48fbc19821cc1229f3f63333081ee7"}, {"bike_id": "6b2f135211e48cf570066d69d76c31e1", "type": "electric_scooter", "is_disabled": 0, "lat": 38.9027305, "rental_uris": {"ios": "https://dc.lft.to/lastmile_qr_scan", "android": "https://dc.lft.to/lastmile_qr_scan"}, "is_reserved": 0, "fusion_lon": 0.0, "fusion_lat": 0.0, "lon": -77.03988183333334, "name": "6b2f135211e48cf570066d69d76c31e1"}, {"bike_id": "3512eeb8680367be8a74224358a960af", "type": "electric_scooter", "is_disabled": 0, "lat": 38.9047455, "rental_uris": {"ios": "https://dc.lft.to/lastmile_qr_scan", "android": "https://dc.lft.to/lastmile_qr_scan"}, "is_reserved": 0, "fusion_lon": 0.0, "fusion_lat": 0.0, "lon": -77.053237, "name": "3512eeb8680367be8a74224358a960af"}, {"bike_id": "d0035c7d851a28b8e1fbf9cb90a841e0", "type": "electric_scooter", "is_disabled": 0, "lat": 38.88715933333334, "rental_uris": {"ios": "https://dc.lft.to/lastmile_qr_scan", "android": "https://dc.lft.to/lastmile_qr_scan"}, "is_reserved": 0, "fusion_lon": 0.0, "fusion_lat": 0.0, "lon": -77.02203816666666, "name": "d0035c7d851a28b8e1fbf9cb90a841e0"}, {"bike_id": "4f882e25aaeeacf20d8283da91d3904f", "type": "electric_scooter", "is_disabled": 0, "lat": 38.863688333333336, "rental_uris": {"ios": "https://dc.lft.to/lastmile_qr_scan", "android": "https://dc.lft.to/lastmile_qr_scan"}, "is_reserved": 0, "fusion_lon": 0.0, "fusion_lat": 0.0, "lon": -76.990557, "name": "4f882e25aaeeacf20d8283da91d3904f"}, {"bike_id": "9eb2acb2b9b2fb5a447624a39b0b5f72", "type": "electric_scooter", "is_disabled": 0, "lat": 38.90874866666667, "rental_uris": {"ios": "https://dc.lft.to/lastmile_qr_scan", "android": "https://dc.lft.to/lastmile_qr_scan"}, "is_reserved": 0, "fusion_lon": 0.0, "fusion_lat": 0.0, "lon": -77.0197975, "name": "9eb2acb2b9b2fb5a447624a39b0b5f72"}, {"bike_id": "94d086278cf16e96c394e844d2f9a792", "type": "electric_scooter", "is_disabled": 0, "lat": 38.90667716666667, "rental_uris": {"ios": "https://dc.lft.to/lastmile_qr_scan", "android": "https://dc.lft.to/lastmile_qr_scan"}, "is_reserved": 0, "fusion_lon": 0.0, "fusion_lat": 0.0, "lon": -77.00046016666667, "name": "94d086278cf16e96c394e844d2f9a792"}, {"bike_id": "f41921d039d39d3efba370ec2a4f6185", "type": "electric_bike", "is_disabled": 0, "lat": 38.91314283333333, "rental_uris": {"ios": "https://dc.lft.to/lastmile_qr_scan", "android": "https://dc.lft.to/lastmile_qr_scan"}, "is_reserved": 0, "fusion_lon": 0.0, "fusion_lat": 0.0, "lon": -77.2231695, "name": "f41921d039d39d3efba370ec2a4f6185"}, {"bike_id": "49dc0be9dc95164c6b30216dde90e111", "type": "electric_scooter", "is_disabled": 0, "lat": 38.92444283333333, "rental_uris": {"ios": "https://dc.lft.to/lastmile_qr_scan", "android": "https://dc.lft.to/lastmile_qr_scan"}, "is_reserved": 0, "fusion_lon": 0.0, "fusion_lat": 0.0, "lon": -77.04108966666666, "name": "49dc0be9dc95164c6b30216dde90e111"}, {"bike_id": "13c39a468490c3e7686ee4281a3bf588", "type": "electric_scooter", "is_disabled": 0, "lat": 38.897255, "rental_uris": {"ios": "https://dc.lft.to/lastmile_qr_scan", "android": "https://dc.lft.to/lastmile_qr_scan"}, "is_reserved": 0, "fusion_lon": 0.0, "fusion_lat": 0.0, "lon": -77.02723483333334, "name": "13c39a468490c3e7686ee4281a3bf588"}, {"bike_id": "2d8478e38da0d20eabd506550ebb3100", "type": "electric_scooter", "is_disabled": 0, "lat": 38.91931683333333, "rental_uris": {"ios": "https://dc.lft.to/lastmile_qr_scan", "android": "https://dc.lft.to/lastmile_qr_scan"}, "is_reserved": 0, "fusion_lon": 0.0, "fusion_lat": 0.0, "lon": -77.0449265, "name": "2d8478e38da0d20eabd506550ebb3100"}, {"bike_id": "74c5cf83c7d8637dfafba67fcc759ccf", "type": "electric_scooter", "is_disabled": 0, "lat": 38.89544716666666, "rental_uris": {"ios": "https://dc.lft.to/lastmile_qr_scan", "android": "https://dc.lft.to/lastmile_qr_scan"}, "is_reserved": 0, "fusion_lon": 0.0, "fusion_lat": 0.0, "lon": -76.94935816666667, "name": "74c5cf83c7d8637dfafba67fcc759ccf"}, {"bike_id": "705b2d9b9f3b9dd96fc2f7fe7a3e71bc", "type": "electric_scooter", "is_disabled": 0, "lat": 38.910358, "rental_uris": {"ios": "https://dc.lft.to/lastmile_qr_scan", "android": "https://dc.lft.to/lastmile_qr_scan"}, "is_reserved": 0, "fusion_lon": 0.0, "fusion_lat": 0.0, "lon": -77.03440583333334, "name": "705b2d9b9f3b9dd96fc2f7fe7a3e71bc"}, {"bike_id": "76c1864da733dce788bedc9030a97ee7", "type": "electric_scooter", "is_disabled": 0, "lat": 38.9001645, "rental_uris": {"ios": "https://dc.lft.to/lastmile_qr_scan", "android": "https://dc.lft.to/lastmile_qr_scan"}, "is_reserved": 0, "fusion_lon": 0.0, "fusion_lat": 0.0, "lon": -77.00692083333334, "name": "76c1864da733dce788bedc9030a97ee7"}, {"bike_id": "028558211340e8d4b6cebc6cdc8dfb2e", "type": "electric_scooter", "is_disabled": 0, "lat": 38.897978333333334, "rental_uris": {"ios": "https://dc.lft.to/lastmile_qr_scan", "android": "https://dc.lft.to/lastmile_qr_scan"}, "is_reserved": 0, "fusion_lon": 0.0, "fusion_lat": 0.0, "lon": -77.0119305, "name": "028558211340e8d4b6cebc6cdc8dfb2e"}, {"bike_id": "b5bd1489170d9af4beaada37058d5940", "type": "electric_bike", "is_disabled": 0, "lat": 38.914690666666665, "rental_uris": {"ios": "https://dc.lft.to/lastmile_qr_scan", "android": "https://dc.lft.to/lastmile_qr_scan"}, "is_reserved": 0, "fusion_lon": 0.0, "fusion_lat": 0.0, "lon": -77.03210116666666, "name": "b5bd1489170d9af4beaada37058d5940"}, {"bike_id": "72706823acbd1400f8d9e22f6a18d2a6", "type": "electric_scooter", "is_disabled": 0, "lat": 38.90824333333333, "rental_uris": {"ios": "https://dc.lft.to/lastmile_qr_scan", "android": "https://dc.lft.to/lastmile_qr_scan"}, "is_reserved": 0, "fusion_lon": 0.0, "fusion_lat": 0.0, "lon": -76.93449566666666, "name": "72706823acbd1400f8d9e22f6a18d2a6"}, {"bike_id": "224bd04fa42a202bfc89febde2e82ab9", "type": "electric_scooter", "is_disabled": 0, "lat": 38.92063516666666, "rental_uris": {"ios": "https://dc.lft.to/lastmile_qr_scan", "android": "https://dc.lft.to/lastmile_qr_scan"}, "is_reserved": 0, "fusion_lon": 0.0, "fusion_lat": 0.0, "lon": -77.04209966666667, "name": "224bd04fa42a202bfc89febde2e82ab9"}, {"bike_id": "7ed5ba33988b21e5a9fceed39d02bb92", "type": "electric_scooter", "is_disabled": 0, "lat": 38.900885833333334, "rental_uris": {"ios": "https://dc.lft.to/lastmile_qr_scan", "android": "https://dc.lft.to/lastmile_qr_scan"}, "is_reserved": 0, "fusion_lon": 0.0, "fusion_lat": 0.0, "lon": -76.97643, "name": "7ed5ba33988b21e5a9fceed39d02bb92"}, {"bike_id": "441920f1a751e83c00a801df47303bf7", "type": "electric_bike", "is_disabled": 0, "lat": 38.88006, "rental_uris": {"ios": "https://dc.lft.to/lastmile_qr_scan", "android": "https://dc.lft.to/lastmile_qr_scan"}, "is_reserved": 0, "fusion_lon": 0.0, "fusion_lat": 0.0, "lon": -77.10739783333334, "name": "441920f1a751e83c00a801df47303bf7"}, {"bike_id": "c35755f2ce61881ac6dc79c39b49b4aa", "type": "electric_scooter", "is_disabled": 0, "lat": 38.8650195, "rental_uris": {"ios": "https://dc.lft.to/lastmile_qr_scan", "android": "https://dc.lft.to/lastmile_qr_scan"}, "is_reserved": 0, "fusion_lon": 0.0, "fusion_lat": 0.0, "lon": -76.99002266666666, "name": "c35755f2ce61881ac6dc79c39b49b4aa"}, {"bike_id": "5d5ef71457fd523764e17576be7fb4ed", "type": "electric_scooter", "is_disabled": 0, "lat": 38.889883833333336, "rental_uris": {"ios": "https://dc.lft.to/lastmile_qr_scan", "android": "https://dc.lft.to/lastmile_qr_scan"}, "is_reserved": 0, "fusion_lon": 0.0, "fusion_lat": 0.0, "lon": -77.000424, "name": "5d5ef71457fd523764e17576be7fb4ed"}, {"bike_id": "97e19c2bc218c296a704c1ad7a81c39a", "type": "electric_scooter", "is_disabled": 0, "lat": 38.89917483333333, "rental_uris": {"ios": "https://dc.lft.to/lastmile_qr_scan", "android": "https://dc.lft.to/lastmile_qr_scan"}, "is_reserved": 0, "fusion_lon": 0.0, "fusion_lat": 0.0, "lon": -77.02193816666667, "name": "97e19c2bc218c296a704c1ad7a81c39a"}, {"bike_id": "b2f4e6afc7656bc6ee23402e3ee6b597", "type": "electric_scooter", "is_disabled": 0, "lat": 38.87413033333333, "rental_uris": {"ios": "https://dc.lft.to/lastmile_qr_scan", "android": "https://dc.lft.to/lastmile_qr_scan"}, "is_reserved": 0, "fusion_lon": 0.0, "fusion_lat": 0.0, "lon": -76.97115933333333, "name": "b2f4e6afc7656bc6ee23402e3ee6b597"}, {"bike_id": "2327ab6f3f52e6079773de44f2f03d60", "type": "electric_scooter", "is_disabled": 0, "lat": 38.93639483333333, "rental_uris": {"ios": "https://dc.lft.to/lastmile_qr_scan", "android": "https://dc.lft.to/lastmile_qr_scan"}, "is_reserved": 0, "fusion_lon": 0.0, "fusion_lat": 0.0, "lon": -77.03264683333333, "name": "2327ab6f3f52e6079773de44f2f03d60"}, {"bike_id": "2e7a7e19733d70e62f25b124236ba5db", "type": "electric_scooter", "is_disabled": 0, "lat": 38.897297, "rental_uris": {"ios": "https://dc.lft.to/lastmile_qr_scan", "android": "https://dc.lft.to/lastmile_qr_scan"}, "is_reserved": 0, "fusion_lon": 0.0, "fusion_lat": 0.0, "lon": -77.02978216666666, "name": "2e7a7e19733d70e62f25b124236ba5db"}, {"bike_id": "e80947c24c0b48d4ca6b8ee5871955f3", "type": "electric_scooter", "is_disabled": 0, "lat": 38.907204166666666, "rental_uris": {"ios": "https://dc.lft.to/lastmile_qr_scan", "android": "https://dc.lft.to/lastmile_qr_scan"}, "is_reserved": 0, "fusion_lon": 0.0, "fusion_lat": 0.0, "lon": -77.00971116666666, "name": "e80947c24c0b48d4ca6b8ee5871955f3"}, {"bike_id": "f9782b98911d0a6d84bf717e1b449acd", "type": "electric_scooter", "is_disabled": 0, "lat": 38.921048666666664, "rental_uris": {"ios": "https://dc.lft.to/lastmile_qr_scan", "android": "https://dc.lft.to/lastmile_qr_scan"}, "is_reserved": 0, "fusion_lon": 0.0, "fusion_lat": 0.0, "lon": -77.03175033333333, "name": "f9782b98911d0a6d84bf717e1b449acd"}, {"bike_id": "fcde1d356b7a368db9f4ee3520693103", "type": "electric_bike", "is_disabled": 0, "lat": 38.8928545, "rental_uris": {"ios": "https://dc.lft.to/lastmile_qr_scan", "android": "https://dc.lft.to/lastmile_qr_scan"}, "is_reserved": 0, "fusion_lon": 0.0, "fusion_lat": 0.0, "lon": -76.97615766666667, "name": "fcde1d356b7a368db9f4ee3520693103"}, {"bike_id": "e30fe9ca2d31180f62bd615fa5a211df", "type": "electric_scooter", "is_disabled": 0, "lat": 38.93262633333333, "rental_uris": {"ios": "https://dc.lft.to/lastmile_qr_scan", "android": "https://dc.lft.to/lastmile_qr_scan"}, "is_reserved": 0, "fusion_lon": 0.0, "fusion_lat": 0.0, "lon": -77.03263516666667, "name": "e30fe9ca2d31180f62bd615fa5a211df"}, {"bike_id": "1911cc51bca660936aa0ec742a1efe3b", "type": "electric_bike", "is_disabled": 0, "lat": 38.89981616666667, "rental_uris": {"ios": "https://dc.lft.to/lastmile_qr_scan", "android": "https://dc.lft.to/lastmile_qr_scan"}, "is_reserved": 0, "fusion_lon": 0.0, "fusion_lat": 0.0, "lon": -77.0219645, "name": "1911cc51bca660936aa0ec742a1efe3b"}, {"bike_id": "8700c22cd335b9b607195cffc11c52a9", "type": "electric_scooter", "is_disabled": 0, "lat": 38.928316333333335, "rental_uris": {"ios": "https://dc.lft.to/lastmile_qr_scan", "android": "https://dc.lft.to/lastmile_qr_scan"}, "is_reserved": 0, "fusion_lon": 0.0, "fusion_lat": 0.0, "lon": -77.03271183333334, "name": "8700c22cd335b9b607195cffc11c52a9"}, {"bike_id": "a185eea6fed7617a8eda89bb00c78da3", "type": "electric_bike", "is_disabled": 0, "lat": 38.8294005, "rental_uris": {"ios": "https://dc.lft.to/lastmile_qr_scan", "android": "https://dc.lft.to/lastmile_qr_scan"}, "is_reserved": 0, "fusion_lon": 0.0, "fusion_lat": 0.0, "lon": -77.12356183333333, "name": "a185eea6fed7617a8eda89bb00c78da3"}, {"bike_id": "71ce61f4288b7a7d0b53ff7875a170bb", "type": "electric_scooter", "is_disabled": 0, "lat": 38.8591635, "rental_uris": {"ios": "https://dc.lft.to/lastmile_qr_scan", "android": "https://dc.lft.to/lastmile_qr_scan"}, "is_reserved": 0, "fusion_lon": 0.0, "fusion_lat": 0.0, "lon": -76.98982933333333, "name": "71ce61f4288b7a7d0b53ff7875a170bb"}, {"bike_id": "5e390d04c86e4b1592dc6164ec91d9b9", "type": "electric_scooter", "is_disabled": 0, "lat": 38.91688083333333, "rental_uris": {"ios": "https://dc.lft.to/lastmile_qr_scan", "android": "https://dc.lft.to/lastmile_qr_scan"}, "is_reserved": 0, "fusion_lon": 0.0, "fusion_lat": 0.0, "lon": -77.03147283333334, "name": "5e390d04c86e4b1592dc6164ec91d9b9"}, {"bike_id": "fe9f217ed32c22bc5223c9d0831333c8", "type": "electric_scooter", "is_disabled": 0, "lat": 38.9109685, "rental_uris": {"ios": "https://dc.lft.to/lastmile_qr_scan", "android": "https://dc.lft.to/lastmile_qr_scan"}, "is_reserved": 0, "fusion_lon": 0.0, "fusion_lat": 0.0, "lon": -77.03182766666667, "name": "fe9f217ed32c22bc5223c9d0831333c8"}, {"bike_id": "81ff9501be873a9d6874c3c7368a4ba7", "type": "electric_scooter", "is_disabled": 0, "lat": 38.926350666666664, "rental_uris": {"ios": "https://dc.lft.to/lastmile_qr_scan", "android": "https://dc.lft.to/lastmile_qr_scan"}, "is_reserved": 0, "fusion_lon": 0.0, "fusion_lat": 0.0, "lon": -77.02128883333333, "name": "81ff9501be873a9d6874c3c7368a4ba7"}, {"bike_id": "80be60a2d826e75dfec8147595a06e72", "type": "electric_scooter", "is_disabled": 0, "lat": 38.92190683333333, "rental_uris": {"ios": "https://dc.lft.to/lastmile_qr_scan", "android": "https://dc.lft.to/lastmile_qr_scan"}, "is_reserved": 0, "fusion_lon": 0.0, "fusion_lat": 0.0, "lon": -77.04239366666667, "name": "80be60a2d826e75dfec8147595a06e72"}, {"bike_id": "0319845a2e5a69121d4fc41d8ce9a4f4", "type": "electric_scooter", "is_disabled": 0, "lat": 38.865113666666666, "rental_uris": {"ios": "https://dc.lft.to/lastmile_qr_scan", "android": "https://dc.lft.to/lastmile_qr_scan"}, "is_reserved": 0, "fusion_lon": 0.0, "fusion_lat": 0.0, "lon": -76.99017783333333, "name": "0319845a2e5a69121d4fc41d8ce9a4f4"}, {"bike_id": "88e73fcfde6d05c171327531eaa88817", "type": "electric_scooter", "is_disabled": 0, "lat": 38.92977966666667, "rental_uris": {"ios": "https://dc.lft.to/lastmile_qr_scan", "android": "https://dc.lft.to/lastmile_qr_scan"}, "is_reserved": 0, "fusion_lon": 0.0, "fusion_lat": 0.0, "lon": -77.03187516666667, "name": "88e73fcfde6d05c171327531eaa88817"}, {"bike_id": "8973b89d48019482dae6ee7f03122dc2", "type": "electric_scooter", "is_disabled": 0, "lat": 38.9225095, "rental_uris": {"ios": "https://dc.lft.to/lastmile_qr_scan", "android": "https://dc.lft.to/lastmile_qr_scan"}, "is_reserved": 0, "fusion_lon": 0.0, "fusion_lat": 0.0, "lon": -77.027614, "name": "8973b89d48019482dae6ee7f03122dc2"}, {"bike_id": "ee09299fa87dcb40f56914b33d68bfe0", "type": "electric_scooter", "is_disabled": 0, "lat": 38.916252166666666, "rental_uris": {"ios": "https://dc.lft.to/lastmile_qr_scan", "android": "https://dc.lft.to/lastmile_qr_scan"}, "is_reserved": 0, "fusion_lon": 0.0, "fusion_lat": 0.0, "lon": -77.03191033333333, "name": "ee09299fa87dcb40f56914b33d68bfe0"}, {"bike_id": "30d679c88a5ce95e5e26f4994d893b0b", "type": "electric_scooter", "is_disabled": 0, "lat": 38.94051833333333, "rental_uris": {"ios": "https://dc.lft.to/lastmile_qr_scan", "android": "https://dc.lft.to/lastmile_qr_scan"}, "is_reserved": 0, "fusion_lon": 0.0, "fusion_lat": 0.0, "lon": -77.02982766666666, "name": "30d679c88a5ce95e5e26f4994d893b0b"}, {"bike_id": "fc8b95f096044bb18b00b4a7aeb0c4d7", "type": "electric_scooter", "is_disabled": 0, "lat": 38.93097916666667, "rental_uris": {"ios": "https://dc.lft.to/lastmile_qr_scan", "android": "https://dc.lft.to/lastmile_qr_scan"}, "is_reserved": 0, "fusion_lon": 0.0, "fusion_lat": 0.0, "lon": -77.02478066666667, "name": "fc8b95f096044bb18b00b4a7aeb0c4d7"}, {"bike_id": "badfe41afbfed0b95c6c5996a87c6a50", "type": "electric_scooter", "is_disabled": 0, "lat": 38.90364366666667, "rental_uris": {"ios": "https://dc.lft.to/lastmile_qr_scan", "android": "https://dc.lft.to/lastmile_qr_scan"}, "is_reserved": 0, "fusion_lon": 0.0, "fusion_lat": 0.0, "lon": -77.053014, "name": "badfe41afbfed0b95c6c5996a87c6a50"}, {"bike_id": "380b11e4271c24af457396f289c914fb", "type": "electric_scooter", "is_disabled": 0, "lat": 38.9170065, "rental_uris": {"ios": "https://dc.lft.to/lastmile_qr_scan", "android": "https://dc.lft.to/lastmile_qr_scan"}, "is_reserved": 0, "fusion_lon": 0.0, "fusion_lat": 0.0, "lon": -77.01049983333333, "name": "380b11e4271c24af457396f289c914fb"}, {"bike_id": "f1a296fb9e2c58e258007102e2c07ccf", "type": "electric_scooter", "is_disabled": 0, "lat": 38.90240266666667, "rental_uris": {"ios": "https://dc.lft.to/lastmile_qr_scan", "android": "https://dc.lft.to/lastmile_qr_scan"}, "is_reserved": 0, "fusion_lon": 0.0, "fusion_lat": 0.0, "lon": -77.02638833333333, "name": "f1a296fb9e2c58e258007102e2c07ccf"}, {"bike_id": "6b5a343427fa28dfeeb3fdb474e5c30b", "type": "electric_scooter", "is_disabled": 0, "lat": 38.9034175, "rental_uris": {"ios": "https://dc.lft.to/lastmile_qr_scan", "android": "https://dc.lft.to/lastmile_qr_scan"}, "is_reserved": 0, "fusion_lon": 0.0, "fusion_lat": 0.0, "lon": -76.99385166666667, "name": "6b5a343427fa28dfeeb3fdb474e5c30b"}, {"bike_id": "22db14ee54aabc466a9f2a96008741bc", "type": "electric_scooter", "is_disabled": 0, "lat": 38.904988, "rental_uris": {"ios": "https://dc.lft.to/lastmile_qr_scan", "android": "https://dc.lft.to/lastmile_qr_scan"}, "is_reserved": 0, "fusion_lon": 0.0, "fusion_lat": 0.0, "lon": -77.0575445, "name": "22db14ee54aabc466a9f2a96008741bc"}, {"bike_id": "792eae343130d20ae0264ccac629f3ef", "type": "electric_scooter", "is_disabled": 0, "lat": 38.90605333333333, "rental_uris": {"ios": "https://dc.lft.to/lastmile_qr_scan", "android": "https://dc.lft.to/lastmile_qr_scan"}, "is_reserved": 0, "fusion_lon": 0.0, "fusion_lat": 0.0, "lon": -77.01205483333334, "name": "792eae343130d20ae0264ccac629f3ef"}, {"bike_id": "67d30f86c73c7ce25694e8e96655060c", "type": "electric_scooter", "is_disabled": 0, "lat": 38.94085, "rental_uris": {"ios": "https://dc.lft.to/lastmile_qr_scan", "android": "https://dc.lft.to/lastmile_qr_scan"}, "is_reserved": 0, "fusion_lon": 0.0, "fusion_lat": 0.0, "lon": -77.07722683333333, "name": "67d30f86c73c7ce25694e8e96655060c"}, {"bike_id": "77ea5349f64fe0701d59fa638fd8ab4e", "type": "electric_scooter", "is_disabled": 0, "lat": 38.930791666666664, "rental_uris": {"ios": "https://dc.lft.to/lastmile_qr_scan", "android": "https://dc.lft.to/lastmile_qr_scan"}, "is_reserved": 0, "fusion_lon": 0.0, "fusion_lat": 0.0, "lon": -77.02809416666666, "name": "77ea5349f64fe0701d59fa638fd8ab4e"}, {"bike_id": "0224fff653e26f1a71fbc6e26fafdf47", "type": "electric_scooter", "is_disabled": 0, "lat": 38.920576, "rental_uris": {"ios": "https://dc.lft.to/lastmile_qr_scan", "android": "https://dc.lft.to/lastmile_qr_scan"}, "is_reserved": 0, "fusion_lon": 0.0, "fusion_lat": 0.0, "lon": -77.03340366666667, "name": "0224fff653e26f1a71fbc6e26fafdf47"}, {"bike_id": "651312e0a7d3d3fadcd2ab290d0b1766", "type": "electric_scooter", "is_disabled": 0, "lat": 38.898432, "rental_uris": {"ios": "https://dc.lft.to/lastmile_qr_scan", "android": "https://dc.lft.to/lastmile_qr_scan"}, "is_reserved": 0, "fusion_lon": 0.0, "fusion_lat": 0.0, "lon": -77.04351266666667, "name": "651312e0a7d3d3fadcd2ab290d0b1766"}, {"bike_id": "b767731ea359f475b73dc969822b1e16", "type": "electric_scooter", "is_disabled": 0, "lat": 38.923364, "rental_uris": {"ios": "https://dc.lft.to/lastmile_qr_scan", "android": "https://dc.lft.to/lastmile_qr_scan"}, "is_reserved": 0, "fusion_lon": 0.0, "fusion_lat": 0.0, "lon": -77.0524965, "name": "b767731ea359f475b73dc969822b1e16"}, {"bike_id": "1f168250f4964c02a34c7b59f489ee88", "type": "electric_scooter", "is_disabled": 0, "lat": 38.8918015, "rental_uris": {"ios": "https://dc.lft.to/lastmile_qr_scan", "android": "https://dc.lft.to/lastmile_qr_scan"}, "is_reserved": 0, "fusion_lon": 0.0, "fusion_lat": 0.0, "lon": -76.91189083333333, "name": "1f168250f4964c02a34c7b59f489ee88"}, {"bike_id": "f11ada276a9bd1040ea02a6dcbc7a8c8", "type": "electric_scooter", "is_disabled": 0, "lat": 38.922693833333334, "rental_uris": {"ios": "https://dc.lft.to/lastmile_qr_scan", "android": "https://dc.lft.to/lastmile_qr_scan"}, "is_reserved": 0, "fusion_lon": 0.0, "fusion_lat": 0.0, "lon": -77.02188333333334, "name": "f11ada276a9bd1040ea02a6dcbc7a8c8"}, {"bike_id": "80fd7ae5a26fc33b660edbb325e8f52f", "type": "electric_bike", "is_disabled": 0, "lat": 38.900449, "rental_uris": {"ios": "https://dc.lft.to/lastmile_qr_scan", "android": "https://dc.lft.to/lastmile_qr_scan"}, "is_reserved": 0, "fusion_lon": 0.0, "fusion_lat": 0.0, "lon": -76.990099, "name": "80fd7ae5a26fc33b660edbb325e8f52f"}, {"bike_id": "b097f4189f5669f74bfb8bdb45e3847e", "type": "electric_scooter", "is_disabled": 0, "lat": 38.906796666666665, "rental_uris": {"ios": "https://dc.lft.to/lastmile_qr_scan", "android": "https://dc.lft.to/lastmile_qr_scan"}, "is_reserved": 0, "fusion_lon": 0.0, "fusion_lat": 0.0, "lon": -77.0533255, "name": "b097f4189f5669f74bfb8bdb45e3847e"}, {"bike_id": "eca5ec722993236c872049209f7fbd0d", "type": "electric_bike", "is_disabled": 0, "lat": 38.834253333333336, "rental_uris": {"ios": "https://dc.lft.to/lastmile_qr_scan", "android": "https://dc.lft.to/lastmile_qr_scan"}, "is_reserved": 0, "fusion_lon": 0.0, "fusion_lat": 0.0, "lon": -77.103569, "name": "eca5ec722993236c872049209f7fbd0d"}, {"bike_id": "a22635b9c6f854e714d29733c2c0be56", "type": "electric_scooter", "is_disabled": 0, "lat": 38.956542666666664, "rental_uris": {"ios": "https://dc.lft.to/lastmile_qr_scan", "android": "https://dc.lft.to/lastmile_qr_scan"}, "is_reserved": 0, "fusion_lon": 0.0, "fusion_lat": 0.0, "lon": -77.01034233333333, "name": "a22635b9c6f854e714d29733c2c0be56"}, {"bike_id": "9c1c33f7981fe613a382eb2e81d5071a", "type": "electric_scooter", "is_disabled": 0, "lat": 38.90551883333333, "rental_uris": {"ios": "https://dc.lft.to/lastmile_qr_scan", "android": "https://dc.lft.to/lastmile_qr_scan"}, "is_reserved": 0, "fusion_lon": 0.0, "fusion_lat": 0.0, "lon": -76.98854633333333, "name": "9c1c33f7981fe613a382eb2e81d5071a"}, {"bike_id": "8217c0641b8b045ffaea176b83d9adcf", "type": "electric_scooter", "is_disabled": 0, "lat": 38.911153666666664, "rental_uris": {"ios": "https://dc.lft.to/lastmile_qr_scan", "android": "https://dc.lft.to/lastmile_qr_scan"}, "is_reserved": 0, "fusion_lon": 0.0, "fusion_lat": 0.0, "lon": -77.02237783333334, "name": "8217c0641b8b045ffaea176b83d9adcf"}, {"bike_id": "8a6ab7ff1ecd9ae2f387c9641be4d93b", "type": "electric_scooter", "is_disabled": 0, "lat": 38.901355833333334, "rental_uris": {"ios": "https://dc.lft.to/lastmile_qr_scan", "android": "https://dc.lft.to/lastmile_qr_scan"}, "is_reserved": 0, "fusion_lon": 0.0, "fusion_lat": 0.0, "lon": -77.01498, "name": "8a6ab7ff1ecd9ae2f387c9641be4d93b"}, {"bike_id": "4e0fd5ff865fd174a41c1ff745b87912", "type": "electric_scooter", "is_disabled": 0, "lat": 38.91356233333333, "rental_uris": {"ios": "https://dc.lft.to/lastmile_qr_scan", "android": "https://dc.lft.to/lastmile_qr_scan"}, "is_reserved": 0, "fusion_lon": 0.0, "fusion_lat": 0.0, "lon": -77.06932516666667, "name": "4e0fd5ff865fd174a41c1ff745b87912"}, {"bike_id": "4cf415ad1cb8e9bcb213c31c03ed1313", "type": "electric_scooter", "is_disabled": 0, "lat": 38.900965166666666, "rental_uris": {"ios": "https://dc.lft.to/lastmile_qr_scan", "android": "https://dc.lft.to/lastmile_qr_scan"}, "is_reserved": 0, "fusion_lon": 0.0, "fusion_lat": 0.0, "lon": -77.05780966666667, "name": "4cf415ad1cb8e9bcb213c31c03ed1313"}, {"bike_id": "b0768cdbe6105a2c7b2c6a56defc9e1a", "type": "electric_scooter", "is_disabled": 0, "lat": 38.916127833333334, "rental_uris": {"ios": "https://dc.lft.to/lastmile_qr_scan", "android": "https://dc.lft.to/lastmile_qr_scan"}, "is_reserved": 0, "fusion_lon": 0.0, "fusion_lat": 0.0, "lon": -77.03199166666667, "name": "b0768cdbe6105a2c7b2c6a56defc9e1a"}, {"bike_id": "f2ca00f52a5ae00df6785d38209d62d4", "type": "electric_scooter", "is_disabled": 0, "lat": 38.922111, "rental_uris": {"ios": "https://dc.lft.to/lastmile_qr_scan", "android": "https://dc.lft.to/lastmile_qr_scan"}, "is_reserved": 0, "fusion_lon": 0.0, "fusion_lat": 0.0, "lon": -77.0221215, "name": "f2ca00f52a5ae00df6785d38209d62d4"}, {"bike_id": "0430dfd78ef80495347e563f2392d314", "type": "electric_scooter", "is_disabled": 0, "lat": 38.898163833333335, "rental_uris": {"ios": "https://dc.lft.to/lastmile_qr_scan", "android": "https://dc.lft.to/lastmile_qr_scan"}, "is_reserved": 0, "fusion_lon": 0.0, "fusion_lat": 0.0, "lon": -77.03330166666667, "name": "0430dfd78ef80495347e563f2392d314"}, {"bike_id": "47950a54f28fb1259dca923229b732df", "type": "electric_bike", "is_disabled": 0, "lat": 38.87277, "rental_uris": {"ios": "https://dc.lft.to/lastmile_qr_scan", "android": "https://dc.lft.to/lastmile_qr_scan"}, "is_reserved": 0, "fusion_lon": 0.0, "fusion_lat": 0.0, "lon": -77.23318416666666, "name": "47950a54f28fb1259dca923229b732df"}, {"bike_id": "0e70f65c99f50e4cbcf15c00a4dd36be", "type": "electric_scooter", "is_disabled": 0, "lat": 38.90605166666667, "rental_uris": {"ios": "https://dc.lft.to/lastmile_qr_scan", "android": "https://dc.lft.to/lastmile_qr_scan"}, "is_reserved": 0, "fusion_lon": 0.0, "fusion_lat": 0.0, "lon": -77.05688233333333, "name": "0e70f65c99f50e4cbcf15c00a4dd36be"}, {"bike_id": "ad3437e6c3f07c13c4762278988bd71b", "type": "electric_scooter", "is_disabled": 0, "lat": 38.90477283333333, "rental_uris": {"ios": "https://dc.lft.to/lastmile_qr_scan", "android": "https://dc.lft.to/lastmile_qr_scan"}, "is_reserved": 0, "fusion_lon": 0.0, "fusion_lat": 0.0, "lon": -77.03841266666667, "name": "ad3437e6c3f07c13c4762278988bd71b"}, {"bike_id": "0b51c288ea0f404821e81013e5938a78", "type": "electric_scooter", "is_disabled": 0, "lat": 38.869708, "rental_uris": {"ios": "https://dc.lft.to/lastmile_qr_scan", "android": "https://dc.lft.to/lastmile_qr_scan"}, "is_reserved": 0, "fusion_lon": 0.0, "fusion_lat": 0.0, "lon": -76.9817265, "name": "0b51c288ea0f404821e81013e5938a78"}, {"bike_id": "923c7e260b9b6037df2fc741ec200d90", "type": "electric_scooter", "is_disabled": 0, "lat": 38.9478595, "rental_uris": {"ios": "https://dc.lft.to/lastmile_qr_scan", "android": "https://dc.lft.to/lastmile_qr_scan"}, "is_reserved": 0, "fusion_lon": 0.0, "fusion_lat": 0.0, "lon": -77.02139416666667, "name": "923c7e260b9b6037df2fc741ec200d90"}, {"bike_id": "a60bc5d157f4e2f6799aa480cf3e62c7", "type": "electric_scooter", "is_disabled": 0, "lat": 38.91614833333333, "rental_uris": {"ios": "https://dc.lft.to/lastmile_qr_scan", "android": "https://dc.lft.to/lastmile_qr_scan"}, "is_reserved": 0, "fusion_lon": 0.0, "fusion_lat": 0.0, "lon": -77.04859633333334, "name": "a60bc5d157f4e2f6799aa480cf3e62c7"}, {"bike_id": "e65a4474f3496cdcb2a72390c3e6f58c", "type": "electric_scooter", "is_disabled": 0, "lat": 38.911199, "rental_uris": {"ios": "https://dc.lft.to/lastmile_qr_scan", "android": "https://dc.lft.to/lastmile_qr_scan"}, "is_reserved": 0, "fusion_lon": 0.0, "fusion_lat": 0.0, "lon": -77.02403866666667, "name": "e65a4474f3496cdcb2a72390c3e6f58c"}, {"bike_id": "a434ab86dea2c2700247d289a0238dcb", "type": "electric_scooter", "is_disabled": 0, "lat": 38.93105, "rental_uris": {"ios": "https://dc.lft.to/lastmile_qr_scan", "android": "https://dc.lft.to/lastmile_qr_scan"}, "is_reserved": 0, "fusion_lon": 0.0, "fusion_lat": 0.0, "lon": -77.038398, "name": "a434ab86dea2c2700247d289a0238dcb"}, {"bike_id": "35ea413df0acec41f49171cc348eafd2", "type": "electric_scooter", "is_disabled": 0, "lat": 38.915674, "rental_uris": {"ios": "https://dc.lft.to/lastmile_qr_scan", "android": "https://dc.lft.to/lastmile_qr_scan"}, "is_reserved": 0, "fusion_lon": 0.0, "fusion_lat": 0.0, "lon": -77.01988083333333, "name": "35ea413df0acec41f49171cc348eafd2"}, {"bike_id": "69e17bb902904ac4fac75ebdc219b63d", "type": "electric_scooter", "is_disabled": 0, "lat": 38.8644145, "rental_uris": {"ios": "https://dc.lft.to/lastmile_qr_scan", "android": "https://dc.lft.to/lastmile_qr_scan"}, "is_reserved": 0, "fusion_lon": 0.0, "fusion_lat": 0.0, "lon": -76.989884, "name": "69e17bb902904ac4fac75ebdc219b63d"}, {"bike_id": "a99a27b8e13829ea61b44964bf13aa23", "type": "electric_scooter", "is_disabled": 0, "lat": 38.872826, "rental_uris": {"ios": "https://dc.lft.to/lastmile_qr_scan", "android": "https://dc.lft.to/lastmile_qr_scan"}, "is_reserved": 0, "fusion_lon": 0.0, "fusion_lat": 0.0, "lon": -77.00985166666666, "name": "a99a27b8e13829ea61b44964bf13aa23"}, {"bike_id": "0aab4a18a4b80f6c7e72d05c3d06cb3a", "type": "electric_bike", "is_disabled": 0, "lat": 38.9100895, "rental_uris": {"ios": "https://dc.lft.to/lastmile_qr_scan", "android": "https://dc.lft.to/lastmile_qr_scan"}, "is_reserved": 0, "fusion_lon": 0.0, "fusion_lat": 0.0, "lon": -77.22793666666666, "name": "0aab4a18a4b80f6c7e72d05c3d06cb3a"}, {"bike_id": "ab2d3bc99932361826d544140b717c88", "type": "electric_bike", "is_disabled": 0, "lat": 38.88058683333333, "rental_uris": {"ios": "https://dc.lft.to/lastmile_qr_scan", "android": "https://dc.lft.to/lastmile_qr_scan"}, "is_reserved": 0, "fusion_lon": 0.0, "fusion_lat": 0.0, "lon": -76.96239383333334, "name": "ab2d3bc99932361826d544140b717c88"}, {"bike_id": "de09d3de4b679c5d28facb1ceb786986", "type": "electric_scooter", "is_disabled": 0, "lat": 38.9469595, "rental_uris": {"ios": "https://dc.lft.to/lastmile_qr_scan", "android": "https://dc.lft.to/lastmile_qr_scan"}, "is_reserved": 0, "fusion_lon": 0.0, "fusion_lat": 0.0, "lon": -77.01939333333333, "name": "de09d3de4b679c5d28facb1ceb786986"}, {"bike_id": "cb66e081e863a4e951c62518be3fa3b6", "type": "electric_scooter", "is_disabled": 0, "lat": 38.91016533333333, "rental_uris": {"ios": "https://dc.lft.to/lastmile_qr_scan", "android": "https://dc.lft.to/lastmile_qr_scan"}, "is_reserved": 0, "fusion_lon": 0.0, "fusion_lat": 0.0, "lon": -76.98612666666666, "name": "cb66e081e863a4e951c62518be3fa3b6"}, {"bike_id": "235514415dd06fe74b54981621193b1c", "type": "electric_scooter", "is_disabled": 0, "lat": 38.959370166666666, "rental_uris": {"ios": "https://dc.lft.to/lastmile_qr_scan", "android": "https://dc.lft.to/lastmile_qr_scan"}, "is_reserved": 0, "fusion_lon": 0.0, "fusion_lat": 0.0, "lon": -77.03043916666667, "name": "235514415dd06fe74b54981621193b1c"}, {"bike_id": "7a4bd104a7572d1b400e68c186b74016", "type": "electric_scooter", "is_disabled": 0, "lat": 38.900166666666664, "rental_uris": {"ios": "https://dc.lft.to/lastmile_qr_scan", "android": "https://dc.lft.to/lastmile_qr_scan"}, "is_reserved": 0, "fusion_lon": 0.0, "fusion_lat": 0.0, "lon": -76.99919533333333, "name": "7a4bd104a7572d1b400e68c186b74016"}, {"bike_id": "b2d9a3fe05677e90151c192cc34c20b6", "type": "electric_scooter", "is_disabled": 0, "lat": 38.90286733333333, "rental_uris": {"ios": "https://dc.lft.to/lastmile_qr_scan", "android": "https://dc.lft.to/lastmile_qr_scan"}, "is_reserved": 0, "fusion_lon": 0.0, "fusion_lat": 0.0, "lon": -77.03856266666666, "name": "b2d9a3fe05677e90151c192cc34c20b6"}, {"bike_id": "a980d853aabcebaac8f1fafee481fa59", "type": "electric_scooter", "is_disabled": 0, "lat": 38.90560966666666, "rental_uris": {"ios": "https://dc.lft.to/lastmile_qr_scan", "android": "https://dc.lft.to/lastmile_qr_scan"}, "is_reserved": 0, "fusion_lon": 0.0, "fusion_lat": 0.0, "lon": -77.03029566666666, "name": "a980d853aabcebaac8f1fafee481fa59"}, {"bike_id": "d85ddad05f06522aff965f8b22710b7d", "type": "electric_scooter", "is_disabled": 0, "lat": 38.92970116666667, "rental_uris": {"ios": "https://dc.lft.to/lastmile_qr_scan", "android": "https://dc.lft.to/lastmile_qr_scan"}, "is_reserved": 0, "fusion_lon": 0.0, "fusion_lat": 0.0, "lon": -77.01687383333334, "name": "d85ddad05f06522aff965f8b22710b7d"}, {"bike_id": "ae0aef00be3f3de2eb8639af4283d791", "type": "electric_scooter", "is_disabled": 0, "lat": 38.92959183333333, "rental_uris": {"ios": "https://dc.lft.to/lastmile_qr_scan", "android": "https://dc.lft.to/lastmile_qr_scan"}, "is_reserved": 0, "fusion_lon": 0.0, "fusion_lat": 0.0, "lon": -77.029349, "name": "ae0aef00be3f3de2eb8639af4283d791"}, {"bike_id": "4f7fc6bbaeec4fa906d41b2d0e5f271f", "type": "electric_scooter", "is_disabled": 0, "lat": 38.934977, "rental_uris": {"ios": "https://dc.lft.to/lastmile_qr_scan", "android": "https://dc.lft.to/lastmile_qr_scan"}, "is_reserved": 0, "fusion_lon": 0.0, "fusion_lat": 0.0, "lon": -77.07397533333334, "name": "4f7fc6bbaeec4fa906d41b2d0e5f271f"}, {"bike_id": "613fa34d7314822c3ae10c140f00ce02", "type": "electric_scooter", "is_disabled": 0, "lat": 38.93080416666667, "rental_uris": {"ios": "https://dc.lft.to/lastmile_qr_scan", "android": "https://dc.lft.to/lastmile_qr_scan"}, "is_reserved": 0, "fusion_lon": 0.0, "fusion_lat": 0.0, "lon": -77.02563, "name": "613fa34d7314822c3ae10c140f00ce02"}, {"bike_id": "b0e4a804c2bcb02b4574423ebe7adbcb", "type": "electric_scooter", "is_disabled": 0, "lat": 38.89720833333333, "rental_uris": {"ios": "https://dc.lft.to/lastmile_qr_scan", "android": "https://dc.lft.to/lastmile_qr_scan"}, "is_reserved": 0, "fusion_lon": 0.0, "fusion_lat": 0.0, "lon": -77.033342, "name": "b0e4a804c2bcb02b4574423ebe7adbcb"}, {"bike_id": "4271f06a1018d5fd81e5c3d5b1dac883", "type": "electric_scooter", "is_disabled": 0, "lat": 38.94198333333333, "rental_uris": {"ios": "https://dc.lft.to/lastmile_qr_scan", "android": "https://dc.lft.to/lastmile_qr_scan"}, "is_reserved": 0, "fusion_lon": 0.0, "fusion_lat": 0.0, "lon": -77.02514766666667, "name": "4271f06a1018d5fd81e5c3d5b1dac883"}, {"bike_id": "9a0802807d852e08422e4ebf31e3e02b", "type": "electric_scooter", "is_disabled": 0, "lat": 38.906661, "rental_uris": {"ios": "https://dc.lft.to/lastmile_qr_scan", "android": "https://dc.lft.to/lastmile_qr_scan"}, "is_reserved": 0, "fusion_lon": 0.0, "fusion_lat": 0.0, "lon": -77.02714116666667, "name": "9a0802807d852e08422e4ebf31e3e02b"}, {"bike_id": "070f262e364a4ce72c5b76fbe93b030a", "type": "electric_scooter", "is_disabled": 0, "lat": 38.91841, "rental_uris": {"ios": "https://dc.lft.to/lastmile_qr_scan", "android": "https://dc.lft.to/lastmile_qr_scan"}, "is_reserved": 0, "fusion_lon": 0.0, "fusion_lat": 0.0, "lon": -77.04828033333334, "name": "070f262e364a4ce72c5b76fbe93b030a"}, {"bike_id": "50caf3c8fb162bbba4be3f06ab7df4a0", "type": "electric_scooter", "is_disabled": 0, "lat": 38.87448666666667, "rental_uris": {"ios": "https://dc.lft.to/lastmile_qr_scan", "android": "https://dc.lft.to/lastmile_qr_scan"}, "is_reserved": 0, "fusion_lon": 0.0, "fusion_lat": 0.0, "lon": -77.00940566666667, "name": "50caf3c8fb162bbba4be3f06ab7df4a0"}, {"bike_id": "5e1e739273c3b259f3277f2dd04959b5", "type": "electric_scooter", "is_disabled": 0, "lat": 38.903671, "rental_uris": {"ios": "https://dc.lft.to/lastmile_qr_scan", "android": "https://dc.lft.to/lastmile_qr_scan"}, "is_reserved": 0, "fusion_lon": 0.0, "fusion_lat": 0.0, "lon": -77.04467216666667, "name": "5e1e739273c3b259f3277f2dd04959b5"}, {"bike_id": "345f0a4fd8c044de213d42be94bbdf48", "type": "electric_scooter", "is_disabled": 0, "lat": 38.900417166666664, "rental_uris": {"ios": "https://dc.lft.to/lastmile_qr_scan", "android": "https://dc.lft.to/lastmile_qr_scan"}, "is_reserved": 0, "fusion_lon": 0.0, "fusion_lat": 0.0, "lon": -76.91916166666667, "name": "345f0a4fd8c044de213d42be94bbdf48"}, {"bike_id": "69b856a383a318a44d36d8384955f8ef", "type": "electric_scooter", "is_disabled": 0, "lat": 38.90502016666667, "rental_uris": {"ios": "https://dc.lft.to/lastmile_qr_scan", "android": "https://dc.lft.to/lastmile_qr_scan"}, "is_reserved": 0, "fusion_lon": 0.0, "fusion_lat": 0.0, "lon": -77.06017583333333, "name": "69b856a383a318a44d36d8384955f8ef"}, {"bike_id": "5985a229581b5f53c3fe573af6648dc9", "type": "electric_scooter", "is_disabled": 0, "lat": 38.90081816666667, "rental_uris": {"ios": "https://dc.lft.to/lastmile_qr_scan", "android": "https://dc.lft.to/lastmile_qr_scan"}, "is_reserved": 0, "fusion_lon": 0.0, "fusion_lat": 0.0, "lon": -77.01765483333334, "name": "5985a229581b5f53c3fe573af6648dc9"}, {"bike_id": "61a1d866bbe64e3829b8f7091181ef8b", "type": "electric_scooter", "is_disabled": 0, "lat": 38.920272, "rental_uris": {"ios": "https://dc.lft.to/lastmile_qr_scan", "android": "https://dc.lft.to/lastmile_qr_scan"}, "is_reserved": 0, "fusion_lon": 0.0, "fusion_lat": 0.0, "lon": -77.02615, "name": "61a1d866bbe64e3829b8f7091181ef8b"}, {"bike_id": "900dc654900c2d937cf78e750cfae0c3", "type": "electric_scooter", "is_disabled": 0, "lat": 38.909755, "rental_uris": {"ios": "https://dc.lft.to/lastmile_qr_scan", "android": "https://dc.lft.to/lastmile_qr_scan"}, "is_reserved": 0, "fusion_lon": 0.0, "fusion_lat": 0.0, "lon": -77.033803, "name": "900dc654900c2d937cf78e750cfae0c3"}, {"bike_id": "bdc07b96d6ac4b44baae5cfc49810df2", "type": "electric_scooter", "is_disabled": 0, "lat": 38.893123833333334, "rental_uris": {"ios": "https://dc.lft.to/lastmile_qr_scan", "android": "https://dc.lft.to/lastmile_qr_scan"}, "is_reserved": 0, "fusion_lon": 0.0, "fusion_lat": 0.0, "lon": -77.01220016666667, "name": "bdc07b96d6ac4b44baae5cfc49810df2"}, {"bike_id": "3c4615f8deb5b3abe68e193b9f8b3707", "type": "electric_scooter", "is_disabled": 0, "lat": 38.925253833333336, "rental_uris": {"ios": "https://dc.lft.to/lastmile_qr_scan", "android": "https://dc.lft.to/lastmile_qr_scan"}, "is_reserved": 0, "fusion_lon": 0.0, "fusion_lat": 0.0, "lon": -77.07713316666667, "name": "3c4615f8deb5b3abe68e193b9f8b3707"}, {"bike_id": "c81587974c5b69427d5b097ce8edc185", "type": "electric_scooter", "is_disabled": 0, "lat": 38.9149445, "rental_uris": {"ios": "https://dc.lft.to/lastmile_qr_scan", "android": "https://dc.lft.to/lastmile_qr_scan"}, "is_reserved": 0, "fusion_lon": 0.0, "fusion_lat": 0.0, "lon": -77.019923, "name": "c81587974c5b69427d5b097ce8edc185"}, {"bike_id": "8737ef3942cdfaf1dc469a6d6c8f69fd", "type": "electric_bike", "is_disabled": 0, "lat": 38.86371666666667, "rental_uris": {"ios": "https://dc.lft.to/lastmile_qr_scan", "android": "https://dc.lft.to/lastmile_qr_scan"}, "is_reserved": 0, "fusion_lon": 0.0, "fusion_lat": 0.0, "lon": -76.99040516666666, "name": "8737ef3942cdfaf1dc469a6d6c8f69fd"}, {"bike_id": "fd202ce109913535b913a90d49b9cf93", "type": "electric_scooter", "is_disabled": 0, "lat": 38.9073065, "rental_uris": {"ios": "https://dc.lft.to/lastmile_qr_scan", "android": "https://dc.lft.to/lastmile_qr_scan"}, "is_reserved": 0, "fusion_lon": 0.0, "fusion_lat": 0.0, "lon": -77.02804366666666, "name": "fd202ce109913535b913a90d49b9cf93"}, {"bike_id": "4fcfbcac9c48ffdb4dd5cf4f751e076e", "type": "electric_scooter", "is_disabled": 0, "lat": 38.912541166666664, "rental_uris": {"ios": "https://dc.lft.to/lastmile_qr_scan", "android": "https://dc.lft.to/lastmile_qr_scan"}, "is_reserved": 0, "fusion_lon": 0.0, "fusion_lat": 0.0, "lon": -77.0386155, "name": "4fcfbcac9c48ffdb4dd5cf4f751e076e"}, {"bike_id": "0ec9e2babfc927d066910e4951a7187e", "type": "electric_scooter", "is_disabled": 0, "lat": 38.92831666666667, "rental_uris": {"ios": "https://dc.lft.to/lastmile_qr_scan", "android": "https://dc.lft.to/lastmile_qr_scan"}, "is_reserved": 0, "fusion_lon": 0.0, "fusion_lat": 0.0, "lon": -77.0372875, "name": "0ec9e2babfc927d066910e4951a7187e"}, {"bike_id": "fada570cadf067f825818b2aecbff951", "type": "electric_bike", "is_disabled": 0, "lat": 38.865108166666666, "rental_uris": {"ios": "https://dc.lft.to/lastmile_qr_scan", "android": "https://dc.lft.to/lastmile_qr_scan"}, "is_reserved": 0, "fusion_lon": 0.0, "fusion_lat": 0.0, "lon": -76.97332833333333, "name": "fada570cadf067f825818b2aecbff951"}, {"bike_id": "5e5eba5eb0ab03f9525dd9d69e3ae4c1", "type": "electric_scooter", "is_disabled": 0, "lat": 38.91114366666667, "rental_uris": {"ios": "https://dc.lft.to/lastmile_qr_scan", "android": "https://dc.lft.to/lastmile_qr_scan"}, "is_reserved": 0, "fusion_lon": 0.0, "fusion_lat": 0.0, "lon": -77.02713816666666, "name": "5e5eba5eb0ab03f9525dd9d69e3ae4c1"}, {"bike_id": "faed76d63931ef9c674d0291d04c1c58", "type": "electric_scooter", "is_disabled": 0, "lat": 38.91106216666667, "rental_uris": {"ios": "https://dc.lft.to/lastmile_qr_scan", "android": "https://dc.lft.to/lastmile_qr_scan"}, "is_reserved": 0, "fusion_lon": 0.0, "fusion_lat": 0.0, "lon": -77.03319666666667, "name": "faed76d63931ef9c674d0291d04c1c58"},