{"data": {"bikes": [{"is_reserved": 0, "type": "electric_bike", "bike_id": "2b07fd8aeda183e4618b0fb124da1f85", "lat": 38.97338283333333, "lon": -76.99579883333334, "rental_uris": {"android": "https://dc.lft.to/lastmile_qr_scan", "ios": "https://dc.lft.to/lastmile_qr_scan"}, "is_disabled": 0, "fusion_lat": 0.0, "name": "2b07fd8aeda183e4618b0fb124da1f85", "fusion_lon": 0.0}, {"is_reserved": 0, "type": "electric_scooter", "bike_id": "a359d6e344f06807597daf1b3958e932", "lat": 38.923735, "lon": -77.0289525, "rental_uris": {"android": "https://dc.lft.to/lastmile_qr_scan", "ios": "https://dc.lft.to/lastmile_qr_scan"}, "is_disabled": 0, "fusion_lat": 0.0, "name": "a359d6e344f06807597daf1b3958e932", "fusion_lon": 0.0}, {"is_reserved": 0, "type": "electric_bike", "bike_id": "570cb8f2623b9c177ef7ef0023498490", "lat": 39.04232533333333, "lon": -76.997376, "rental_uris": {"android": "https://dc.lft.to/lastmile_qr_scan", "ios": "https://dc.lft.to/lastmile_qr_scan"}, "is_disabled": 0, "fusion_lat": 0.0, "name": "570cb8f2623b9c177ef7ef0023498490", "fusion_lon": 0.0}, {"is_reserved": 0, "type": "electric_scooter", "bike_id": "c413adce9ea31f037a44915810fca784", "lat": 38.911254166666666, "lon": -76.9846725, "rental_uris": {"android": "https://dc.lft.to/lastmile_qr_scan", "ios": "https://dc.lft.to/lastmile_qr_scan"}, "is_disabled": 0, "fusion_lat": 0.0, "name": "c413adce9ea31f037a44915810fca784", "fusion_lon": 0.0}, {"is_reserved": 0, "type": "electric_scooter", "bike_id": "fde724feda626d0c808c8cb9d4956356", "lat": 38.920358666666665, "lon": -77.04181216666667, "rental_uris": {"android": "https://dc.lft.to/lastmile_qr_scan", "ios": "https://dc.lft.to/lastmile_qr_scan"}, "is_disabled": 0, "fusion_lat": 0.0, "name": "fde724feda626d0c808c8cb9d4956356", "fusion_lon": 0.0}, {"is_reserved": 0, "type": "electric_scooter", "bike_id": "f559b79546af769afdcb1681413026ab", "lat": 38.896566, "lon": -77.026073, "rental_uris": {"android": "https://dc.lft.to/lastmile_qr_scan", "ios": "https://dc.lft.to/lastmile_qr_scan"}, "is_disabled": 0, "fusion_lat": 0.0, "name": "f559b79546af769afdcb1681413026ab", "fusion_lon": 0.0}, {"is_reserved": 0, "type": "electric_scooter", "bike_id": "f206436250f26bf6c60214ff38cf5611", "lat": 38.90853, "lon": -77.020577, "rental_uris": {"android": "https://dc.lft.to/lastmile_qr_scan", "ios": "https://dc.lft.to/lastmile_qr_scan"}, "is_disabled": 0, "fusion_lat": 0.0, "name": "f206436250f26bf6c60214ff38cf5611", "fusion_lon": 0.0}, {"is_reserved": 0, "type": "electric_bike", "bike_id": "34cb436d532e0776dd4bb572b673c713", "lat": 38.936589166666664, "lon": -77.0342875, "rental_uris": {"android": "https://dc.lft.to/lastmile_qr_scan", "ios": "https://dc.lft.to/lastmile_qr_scan"}, "is_disabled": 0, "fusion_lat": 0.0, "name": "34cb436d532e0776dd4bb572b673c713", "fusion_lon": 0.0}, {"is_reserved": 0, "type": "electric_scooter", "bike_id": "c3484b296fe39b5b4f5c20b0d317b9a8", "lat": 38.912642, "lon": -77.01769816666666, "rental_uris": {"android": "https://dc.lft.to/lastmile_qr_scan", "ios": "https://dc.lft.to/lastmile_qr_scan"}, "is_disabled": 0, "fusion_lat": 0.0, "name": "c3484b296fe39b5b4f5c20b0d317b9a8", "fusion_lon": 0.0}, {"is_reserved": 0, "type": "electric_scooter", "bike_id": "a7dcb93ebded770e390bd2c9d5e7beb9", "lat": 38.895027166666665, "lon": -76.934797, "rental_uris": {"android": "https://dc.lft.to/lastmile_qr_scan", "ios": "https://dc.lft.to/lastmile_qr_scan"}, "is_disabled": 0, "fusion_lat": 0.0, "name": "a7dcb93ebded770e390bd2c9d5e7beb9", "fusion_lon": 0.0}, {"is_reserved": 0, "type": "electric_scooter", "bike_id": "6516dc3ccd4bbc7b916c243a11bf0ecf", "lat": 38.93099316666667, "lon": -77.0239875, "rental_uris": {"android": "https://dc.lft.to/lastmile_qr_scan", "ios": "https://dc.lft.to/lastmile_qr_scan"}, "is_disabled": 0, "fusion_lat": 0.0, "name": "6516dc3ccd4bbc7b916c243a11bf0ecf", "fusion_lon": 0.0}, {"is_reserved": 0, "type": "electric_scooter", "bike_id": "58a39161d8a031b7d0d6c178d147e371", "lat": 38.9007995, "lon": -76.98004883333333, "rental_uris": {"android": "https://dc.lft.to/lastmile_qr_scan", "ios": "https://dc.lft.to/lastmile_qr_scan"}, "is_disabled": 0, "fusion_lat": 0.0, "name": "58a39161d8a031b7d0d6c178d147e371", "fusion_lon": 0.0}, {"is_reserved": 0, "type": "electric_scooter", "bike_id": "ea8e7c5c167a4ecc8482334e47031f77", "lat": 38.9210685, "lon": -77.04691933333334, "rental_uris": {"android": "https://dc.lft.to/lastmile_qr_scan", "ios": "https://dc.lft.to/lastmile_qr_scan"}, "is_disabled": 0, "fusion_lat": 0.0, "name": "ea8e7c5c167a4ecc8482334e47031f77", "fusion_lon": 0.0}, {"is_reserved": 0, "type": "electric_scooter", "bike_id": "a5e959c796efd75246f6853f64707dc4", "lat": 38.87681083333333, "lon": -76.99629433333334, "rental_uris": {"android": "https://dc.lft.to/lastmile_qr_scan", "ios": "https://dc.lft.to/lastmile_qr_scan"}, "is_disabled": 0, "fusion_lat": 0.0, "name": "a5e959c796efd75246f6853f64707dc4", "fusion_lon": 0.0}, {"is_reserved": 0, "type": "electric_scooter", "bike_id": "09192d104e88a9d1da3e19abaf21e16e", "lat": 38.90141766666667, "lon": -77.03144316666666, "rental_uris": {"android": "https://dc.lft.to/lastmile_qr_scan", "ios": "https://dc.lft.to/lastmile_qr_scan"}, "is_disabled": 0, "fusion_lat": 0.0, "name": "09192d104e88a9d1da3e19abaf21e16e", "fusion_lon": 0.0}, {"is_reserved": 0, "type": "electric_scooter", "bike_id": "4a16b15a202ff9b8e03db92775fe6826", "lat": 38.933843333333336, "lon": -77.0238905, "rental_uris": {"android": "https://dc.lft.to/lastmile_qr_scan", "ios": "https://dc.lft.to/lastmile_qr_scan"}, "is_disabled": 0, "fusion_lat": 0.0, "name": "4a16b15a202ff9b8e03db92775fe6826", "fusion_lon": 0.0}, {"is_reserved": 0, "type": "electric_scooter", "bike_id": "36101817a1dc45b565a39f7b44b5c33c", "lat": 38.9070675, "lon": -77.03464866666667, "rental_uris": {"android": "https://dc.lft.to/lastmile_qr_scan", "ios": "https://dc.lft.to/lastmile_qr_scan"}, "is_disabled": 0, "fusion_lat": 0.0, "name": "36101817a1dc45b565a39f7b44b5c33c", "fusion_lon": 0.0}, {"is_reserved": 0, "type": "electric_scooter", "bike_id": "404fb7c5e4c9644ef40b7d81e7fadfb1", "lat": 38.90539283333333, "lon": -77.05700833333333, "rental_uris": {"android": "https://dc.lft.to/lastmile_qr_scan", "ios": "https://dc.lft.to/lastmile_qr_scan"}, "is_disabled": 0, "fusion_lat": 0.0, "name": "404fb7c5e4c9644ef40b7d81e7fadfb1", "fusion_lon": 0.0}, {"is_reserved": 0, "type": "electric_scooter", "bike_id": "192e4ab2baacacb451637309b1d3ef44", "lat": 38.8989435, "lon": -77.0397025, "rental_uris": {"android": "https://dc.lft.to/lastmile_qr_scan", "ios": "https://dc.lft.to/lastmile_qr_scan"}, "is_disabled": 0, "fusion_lat": 0.0, "name": "192e4ab2baacacb451637309b1d3ef44", "fusion_lon": 0.0}, {"is_reserved": 0, "type": "electric_bike", "bike_id": "c9719dce54a78020a775cde70df664c3", "lat": 38.83938083333334, "lon": -77.079016, "rental_uris": {"android": "https://dc.lft.to/lastmile_qr_scan", "ios": "https://dc.lft.to/lastmile_qr_scan"}, "is_disabled": 0, "fusion_lat": 0.0, "name": "c9719dce54a78020a775cde70df664c3", "fusion_lon": 0.0}, {"is_reserved": 0, "type": "electric_scooter", "bike_id": "da2b5fb383ff19bfb19606ab37501756", "lat": 38.919358, "lon": -77.036421, "rental_uris": {"android": "https://dc.lft.to/lastmile_qr_scan", "ios": "https://dc.lft.to/lastmile_qr_scan"}, "is_disabled": 0, "fusion_lat": 0.0, "name": "da2b5fb383ff19bfb19606ab37501756", "fusion_lon": 0.0}, {"is_reserved": 0, "type": "electric_scooter", "bike_id": "199657f4092e0581ec6df06c3dcbd8d4", "lat": 38.92484816666666, "lon": -77.03185333333333, "rental_uris": {"android": "https://dc.lft.to/lastmile_qr_scan", "ios": "https://dc.lft.to/lastmile_qr_scan"}, "is_disabled": 0, "fusion_lat": 0.0, "name": "199657f4092e0581ec6df06c3dcbd8d4", "fusion_lon": 0.0}, {"is_reserved": 0, "type": "electric_scooter", "bike_id": "42c2e13578f3936eb82d7a53a7e9a2d8", "lat": 38.928341833333334, "lon": -77.0060425, "rental_uris": {"android": "https://dc.lft.to/lastmile_qr_scan", "ios": "https://dc.lft.to/lastmile_qr_scan"}, "is_disabled": 0, "fusion_lat": 0.0, "name": "42c2e13578f3936eb82d7a53a7e9a2d8", "fusion_lon": 0.0}, {"is_reserved": 0, "type": "electric_scooter", "bike_id": "2eac18d8136820503a53bcd7e89edfe3", "lat": 38.973706166666666, "lon": -77.018176, "rental_uris": {"android": "https://dc.lft.to/lastmile_qr_scan", "ios": "https://dc.lft.to/lastmile_qr_scan"}, "is_disabled": 0, "fusion_lat": 0.0, "name": "2eac18d8136820503a53bcd7e89edfe3", "fusion_lon": 0.0}, {"is_reserved": 0, "type": "electric_scooter", "bike_id": "23b5e0587added3cf65c58c60c8337c1", "lat": 38.905009666666665, "lon": -77.048219, "rental_uris": {"android": "https://dc.lft.to/lastmile_qr_scan", "ios": "https://dc.lft.to/lastmile_qr_scan"}, "is_disabled": 0, "fusion_lat": 0.0, "name": "23b5e0587added3cf65c58c60c8337c1", "fusion_lon": 0.0}, {"is_reserved": 0, "type": "electric_scooter", "bike_id": "5f42090e8861e3f67cdfc36d3c5b7d49", "lat": 38.89957866666666, "lon": -77.026413, "rental_uris": {"android": "https://dc.lft.to/lastmile_qr_scan", "ios": "https://dc.lft.to/lastmile_qr_scan"}, "is_disabled": 0, "fusion_lat": 0.0, "name": "5f42090e8861e3f67cdfc36d3c5b7d49", "fusion_lon": 0.0}, {"is_reserved": 0, "type": "electric_scooter", "bike_id": "f2e45f085498c5db0edf7dda04fd8a6f", "lat": 38.91103733333333, "lon": -77.0484755, "rental_uris": {"android": "https://dc.lft.to/lastmile_qr_scan", "ios": "https://dc.lft.to/lastmile_qr_scan"}, "is_disabled": 0, "fusion_lat": 0.0, "name": "f2e45f085498c5db0edf7dda04fd8a6f", "fusion_lon": 0.0}, {"is_reserved": 0, "type": "electric_scooter", "bike_id": "9617a5142965c7695b881cc2bc440f6a", "lat": 38.9012535, "lon": -77.01623333333333, "rental_uris": {"android": "https://dc.lft.to/lastmile_qr_scan", "ios": "https://dc.lft.to/lastmile_qr_scan"}, "is_disabled": 0, "fusion_lat": 0.0, "name": "9617a5142965c7695b881cc2bc440f6a", "fusion_lon": 0.0}, {"is_reserved": 0, "type": "electric_scooter", "bike_id": "c2ce72898c9199fac77497711d0d5c64", "lat": 38.931414, "lon": -77.07845733333333, "rental_uris": {"android": "https://dc.lft.to/lastmile_qr_scan", "ios": "https://dc.lft.to/lastmile_qr_scan"}, "is_disabled": 0, "fusion_lat": 0.0, "name": "c2ce72898c9199fac77497711d0d5c64", "fusion_lon": 0.0}, {"is_reserved": 0, "type": "electric_scooter", "bike_id": "6ac033c5fc080c2d83bdf576f9e8a068", "lat": 38.898249166666666, "lon": -77.0481555, "rental_uris": {"android": "https://dc.lft.to/lastmile_qr_scan", "ios": "https://dc.lft.to/lastmile_qr_scan"}, "is_disabled": 0, "fusion_lat": 0.0, "name": "6ac033c5fc080c2d83bdf576f9e8a068", "fusion_lon": 0.0}, {"is_reserved": 0, "type": "electric_scooter", "bike_id": "a293b7db1a128ccce8a580f0f205b846", "lat": 38.91456, "lon": -77.00219966666667, "rental_uris": {"android": "https://dc.lft.to/lastmile_qr_scan", "ios": "https://dc.lft.to/lastmile_qr_scan"}, "is_disabled": 0, "fusion_lat": 0.0, "name": "a293b7db1a128ccce8a580f0f205b846", "fusion_lon": 0.0}, {"is_reserved": 0, "type": "electric_scooter", "bike_id": "1a5174cd3cb13aa620b8d0e170d37d62", "lat": 38.919226333333334, "lon": -77.03584616666667, "rental_uris": {"android": "https://dc.lft.to/lastmile_qr_scan", "ios": "https://dc.lft.to/lastmile_qr_scan"}, "is_disabled": 0, "fusion_lat": 0.0, "name": "1a5174cd3cb13aa620b8d0e170d37d62", "fusion_lon": 0.0}, {"is_reserved": 0, "type": "electric_scooter", "bike_id": "6d0f55999e2336d7a4a4f2370713812f", "lat": 38.89904166666667, "lon": -77.0334005, "rental_uris": {"android": "https://dc.lft.to/lastmile_qr_scan", "ios": "https://dc.lft.to/lastmile_qr_scan"}, "is_disabled": 0, "fusion_lat": 0.0, "name": "6d0f55999e2336d7a4a4f2370713812f", "fusion_lon": 0.0}, {"is_reserved": 0, "type": "electric_scooter", "bike_id": "62cb911c2040a0424609afdfe2ec44e3", "lat": 38.907269166666666, "lon": -77.04510266666666, "rental_uris": {"android": "https://dc.lft.to/lastmile_qr_scan", "ios": "https://dc.lft.to/lastmile_qr_scan"}, "is_disabled": 0, "fusion_lat": 0.0, "name": "62cb911c2040a0424609afdfe2ec44e3", "fusion_lon": 0.0}, {"is_reserved": 0, "type": "electric_scooter", "bike_id": "77365b406653defab36cd08e41c02c3b", "lat": 38.898523833333336, "lon": -77.01977216666667, "rental_uris": {"android": "https://dc.lft.to/lastmile_qr_scan", "ios": "https://dc.lft.to/lastmile_qr_scan"}, "is_disabled": 0, "fusion_lat": 0.0, "name": "77365b406653defab36cd08e41c02c3b", "fusion_lon": 0.0}, {"is_reserved": 0, "type": "electric_scooter", "bike_id": "6d56f40d02ebedf7e5eb278be39aeedb", "lat": 38.90717016666667, "lon": -77.04753766666667, "rental_uris": {"android": "https://dc.lft.to/lastmile_qr_scan", "ios": "https://dc.lft.to/lastmile_qr_scan"}, "is_disabled": 0, "fusion_lat": 0.0, "name": "6d56f40d02ebedf7e5eb278be39aeedb", "fusion_lon": 0.0}, {"is_reserved": 0, "type": "electric_scooter", "bike_id": "98009b94fd70a9bedba9460b10da546e", "lat": 38.889866833333336, "lon": -77.00153483333334, "rental_uris": {"android": "https://dc.lft.to/lastmile_qr_scan", "ios": "https://dc.lft.to/lastmile_qr_scan"}, "is_disabled": 0, "fusion_lat": 0.0, "name": "98009b94fd70a9bedba9460b10da546e", "fusion_lon": 0.0}, {"is_reserved": 0, "type": "electric_scooter", "bike_id": "1df58e4ab342d6897ac33ebf13b6c966", "lat": 38.929118833333334, "lon": -77.0218855, "rental_uris": {"android": "https://dc.lft.to/lastmile_qr_scan", "ios": "https://dc.lft.to/lastmile_qr_scan"}, "is_disabled": 0, "fusion_lat": 0.0, "name": "1df58e4ab342d6897ac33ebf13b6c966", "fusion_lon": 0.0}, {"is_reserved": 0, "type": "electric_scooter", "bike_id": "9ac05e494abfa41bedbacbdf8a18f64d", "lat": 38.924428166666665, "lon": -77.04031583333334, "rental_uris": {"android": "https://dc.lft.to/lastmile_qr_scan", "ios": "https://dc.lft.to/lastmile_qr_scan"}, "is_disabled": 0, "fusion_lat": 0.0, "name": "9ac05e494abfa41bedbacbdf8a18f64d", "fusion_lon": 0.0}, {"is_reserved": 0, "type": "electric_bike", "bike_id": "fe92477596208cec61fddb821b01ffc5", "lat": 38.912207333333335, "lon": -77.06599333333334, "rental_uris": {"android": "https://dc.lft.to/lastmile_qr_scan", "ios": "https://dc.lft.to/lastmile_qr_scan"}, "is_disabled": 0, "fusion_lat": 0.0, "name": "fe92477596208cec61fddb821b01ffc5", "fusion_lon": 0.0}, {"is_reserved": 0, "type": "electric_scooter", "bike_id": "4d592d27d8d078311e47a285372935f9", "lat": 38.874726, "lon": -77.00340216666666, "rental_uris": {"android": "https://dc.lft.to/lastmile_qr_scan", "ios": "https://dc.lft.to/lastmile_qr_scan"}, "is_disabled": 0, "fusion_lat": 0.0, "name": "4d592d27d8d078311e47a285372935f9", "fusion_lon": 0.0}, {"is_reserved": 0, "type": "electric_scooter", "bike_id": "295c901da0ed777cf39c34db4f6a7983", "lat": 38.891949333333336, "lon": -77.02231366666666, "rental_uris": {"android": "https://dc.lft.to/lastmile_qr_scan", "ios": "https://dc.lft.to/lastmile_qr_scan"}, "is_disabled": 0, "fusion_lat": 0.0, "name": "295c901da0ed777cf39c34db4f6a7983", "fusion_lon": 0.0}, {"is_reserved": 0, "type": "electric_scooter", "bike_id": "37994e6058cf6d4cd0fe029b557db344", "lat": 38.892205833333335, "lon": -77.04364316666667, "rental_uris": {"android": "https://dc.lft.to/lastmile_qr_scan", "ios": "https://dc.lft.to/lastmile_qr_scan"}, "is_disabled": 0, "fusion_lat": 0.0, "name": "37994e6058cf6d4cd0fe029b557db344", "fusion_lon": 0.0}, {"is_reserved": 0, "type": "electric_scooter", "bike_id": "2b2bd597a94843c2409f2c86519fca36", "lat": 38.922003833333335, "lon": -77.02030266666667, "rental_uris": {"android": "https://dc.lft.to/lastmile_qr_scan", "ios": "https://dc.lft.to/lastmile_qr_scan"}, "is_disabled": 0, "fusion_lat": 0.0, "name": "2b2bd597a94843c2409f2c86519fca36", "fusion_lon": 0.0}, {"is_reserved": 0, "type": "electric_scooter", "bike_id": "7151809c7299f91772674f12865b41a1", "lat": 38.897736333333334, "lon": -77.04780516666666, "rental_uris": {"android": "https://dc.lft.to/lastmile_qr_scan", "ios": "https://dc.lft.to/lastmile_qr_scan"}, "is_disabled": 0, "fusion_lat": 0.0, "name": "7151809c7299f91772674f12865b41a1", "fusion_lon": 0.0}, {"is_reserved": 0, "type": "electric_scooter", "bike_id": "ecb25fa71610ca5ecfd22786fba9ce3a", "lat": 38.91186483333333, "lon": -77.0026555, "rental_uris": {"android": "https://dc.lft.to/lastmile_qr_scan", "ios": "https://dc.lft.to/lastmile_qr_scan"}, "is_disabled": 0, "fusion_lat": 0.0, "name": "ecb25fa71610ca5ecfd22786fba9ce3a", "fusion_lon": 0.0}, {"is_reserved": 0, "type": "electric_scooter", "bike_id": "f5e1f64fc67ebd03c873dcdc29cb02a3", "lat": 38.918767833333334, "lon": -77.04317216666666, "rental_uris": {"android": "https://dc.lft.to/lastmile_qr_scan", "ios": "https://dc.lft.to/lastmile_qr_scan"}, "is_disabled": 0, "fusion_lat": 0.0, "name": "f5e1f64fc67ebd03c873dcdc29cb02a3", "fusion_lon": 0.0}, {"is_reserved": 0, "type": "electric_scooter", "bike_id": "975965ea53abd71d91f54b262cde9fc9", "lat": 38.910157833333336, "lon": -76.99379466666667, "rental_uris": {"android": "https://dc.lft.to/lastmile_qr_scan", "ios": "https://dc.lft.to/lastmile_qr_scan"}, "is_disabled": 0, "fusion_lat": 0.0, "name": "975965ea53abd71d91f54b262cde9fc9", "fusion_lon": 0.0}, {"is_reserved": 0, "type": "electric_scooter", "bike_id": "340ea40ec8eb5f3725d68858e200d70d", "lat": 38.918821, "lon": -77.04315933333334, "rental_uris": {"android": "https://dc.lft.to/lastmile_qr_scan", "ios": "https://dc.lft.to/lastmile_qr_scan"}, "is_disabled": 0, "fusion_lat": 0.0, "name": "340ea40ec8eb5f3725d68858e200d70d", "fusion_lon": 0.0}, {"is_reserved": 0, "type": "electric_scooter", "bike_id": "20150910fb0fe23468903ab9e48a0234", "lat": 38.90430116666667, "lon": -77.04848133333333, "rental_uris": {"android": "https://dc.lft.to/lastmile_qr_scan", "ios": "https://dc.lft.to/lastmile_qr_scan"}, "is_disabled": 0, "fusion_lat": 0.0, "name": "20150910fb0fe23468903ab9e48a0234", "fusion_lon": 0.0}, {"is_reserved": 0, "type": "electric_scooter", "bike_id": "e26af97de16a17ae6b06ff64958dba44", "lat": 38.907458166666665, "lon": -77.03467016666667, "rental_uris": {"android": "https://dc.lft.to/lastmile_qr_scan", "ios": "https://dc.lft.to/lastmile_qr_scan"}, "is_disabled": 0, "fusion_lat": 0.0, "name": "e26af97de16a17ae6b06ff64958dba44", "fusion_lon": 0.0}, {"is_reserved": 0, "type": "electric_scooter", "bike_id": "8f0a0d21525bfbe521d4dc03fcc41a90", "lat": 38.90038283333333, "lon": -76.99158033333333, "rental_uris": {"android": "https://dc.lft.to/lastmile_qr_scan", "ios": "https://dc.lft.to/lastmile_qr_scan"}, "is_disabled": 0, "fusion_lat": 0.0, "name": "8f0a0d21525bfbe521d4dc03fcc41a90", "fusion_lon": 0.0}, {"is_reserved": 0, "type": "electric_bike", "bike_id": "92e1085f0257e3bd17d59276e7bbce94", "lat": 38.999362166666664, "lon": -77.0513405, "rental_uris": {"android": "https://dc.lft.to/lastmile_qr_scan", "ios": "https://dc.lft.to/lastmile_qr_scan"}, "is_disabled": 0, "fusion_lat": 0.0, "name": "92e1085f0257e3bd17d59276e7bbce94", "fusion_lon": 0.0}, {"is_reserved": 0, "type": "electric_scooter", "bike_id": "fb07889b94ffb348fe60eedb6efaad68", "lat": 38.92343116666667, "lon": -77.01896816666667, "rental_uris": {"android": "https://dc.lft.to/lastmile_qr_scan", "ios": "https://dc.lft.to/lastmile_qr_scan"}, "is_disabled": 0, "fusion_lat": 0.0, "name": "fb07889b94ffb348fe60eedb6efaad68", "fusion_lon": 0.0}, {"is_reserved": 0, "type": "electric_scooter", "bike_id": "af669dab2c2e75f6a9736c17ff68f09c", "lat": 38.8983425, "lon": -77.012986, "rental_uris": {"android": "https://dc.lft.to/lastmile_qr_scan", "ios": "https://dc.lft.to/lastmile_qr_scan"}, "is_disabled": 0, "fusion_lat": 0.0, "name": "af669dab2c2e75f6a9736c17ff68f09c", "fusion_lon": 0.0}, {"is_reserved": 0, "type": "electric_scooter", "bike_id": "32d3a22572cfa999e6d2d4f2103a1024", "lat": 38.9062925, "lon": -77.0314475, "rental_uris": {"android": "https://dc.lft.to/lastmile_qr_scan", "ios": "https://dc.lft.to/lastmile_qr_scan"}, "is_disabled": 0, "fusion_lat": 0.0, "name": "32d3a22572cfa999e6d2d4f2103a1024", "fusion_lon": 0.0}, {"is_reserved": 0, "type": "electric_scooter", "bike_id": "45ea000a9d67a0b4cd4652e3d1c752b2", "lat": 38.91892466666667, "lon": -77.034542, "rental_uris": {"android": "https://dc.lft.to/lastmile_qr_scan", "ios": "https://dc.lft.to/lastmile_qr_scan"}, "is_disabled": 0, "fusion_lat": 0.0, "name": "45ea000a9d67a0b4cd4652e3d1c752b2", "fusion_lon": 0.0}, {"is_reserved": 0, "type": "electric_scooter", "bike_id": "d66602ce0e50acf4583ed065cf21c5c5", "lat": 38.8747315, "lon": -77.00339433333333, "rental_uris": {"android": "https://dc.lft.to/lastmile_qr_scan", "ios": "https://dc.lft.to/lastmile_qr_scan"}, "is_disabled": 0, "fusion_lat": 0.0, "name": "d66602ce0e50acf4583ed065cf21c5c5", "fusion_lon": 0.0}, {"is_reserved": 0, "type": "electric_scooter", "bike_id": "3af839f04bef1a151da1b94bffe676da", "lat": 38.911074166666666, "lon": -77.04975616666667, "rental_uris": {"android": "https://dc.lft.to/lastmile_qr_scan", "ios": "https://dc.lft.to/lastmile_qr_scan"}, "is_disabled": 0, "fusion_lat": 0.0, "name": "3af839f04bef1a151da1b94bffe676da", "fusion_lon": 0.0}, {"is_reserved": 0, "type": "electric_scooter", "bike_id": "84750175163c68a40f0107f164d71ee4", "lat": 38.892221166666666, "lon": -77.04366466666667, "rental_uris": {"android": "https://dc.lft.to/lastmile_qr_scan", "ios": "https://dc.lft.to/lastmile_qr_scan"}, "is_disabled": 0, "fusion_lat": 0.0, "name": "84750175163c68a40f0107f164d71ee4", "fusion_lon": 0.0}, {"is_reserved": 0, "type": "electric_bike", "bike_id": "1b1c966ea964599f7d26e7cee2789846", "lat": 38.97262966666667, "lon": -77.14974266666667, "rental_uris": {"android": "https://dc.lft.to/lastmile_qr_scan", "ios": "https://dc.lft.to/lastmile_qr_scan"}, "is_disabled": 0, "fusion_lat": 0.0, "name": "1b1c966ea964599f7d26e7cee2789846", "fusion_lon": 0.0}, {"is_reserved": 0, "type": "electric_scooter", "bike_id": "42c67a1ceabc9762016ec41ae1e26c52", "lat": 38.897308833333334, "lon": -77.04417566666666, "rental_uris": {"android": "https://dc.lft.to/lastmile_qr_scan", "ios": "https://dc.lft.to/lastmile_qr_scan"}, "is_disabled": 0, "fusion_lat": 0.0, "name": "42c67a1ceabc9762016ec41ae1e26c52", "fusion_lon": 0.0}, {"is_reserved": 0, "type": "electric_scooter", "bike_id": "9e86f54a6378bc01286ea2ab5a55dbe3", "lat": 38.915772, "lon": -77.01231983333334, "rental_uris": {"android": "https://dc.lft.to/lastmile_qr_scan", "ios": "https://dc.lft.to/lastmile_qr_scan"}, "is_disabled": 0, "fusion_lat": 0.0, "name": "9e86f54a6378bc01286ea2ab5a55dbe3", "fusion_lon": 0.0}, {"is_reserved": 0, "type": "electric_scooter", "bike_id": "db447bac5856211bd12203e24f7a0fec", "lat": 38.905417666666665, "lon": -77.05696983333333, "rental_uris": {"android": "https://dc.lft.to/lastmile_qr_scan", "ios": "https://dc.lft.to/lastmile_qr_scan"}, "is_disabled": 0, "fusion_lat": 0.0, "name": "db447bac5856211bd12203e24f7a0fec", "fusion_lon": 0.0}, {"is_reserved": 0, "type": "electric_scooter", "bike_id": "e83e90a28991d0045cdc6a3cdc866bd3", "lat": 38.9248405, "lon": -77.0319675, "rental_uris": {"android": "https://dc.lft.to/lastmile_qr_scan", "ios": "https://dc.lft.to/lastmile_qr_scan"}, "is_disabled": 0, "fusion_lat": 0.0, "name": "e83e90a28991d0045cdc6a3cdc866bd3", "fusion_lon": 0.0}, {"is_reserved": 0, "type": "electric_scooter", "bike_id": "064fbd48e4b25e3d16eb058d7e9a33e1", "lat": 38.88010533333333, "lon": -77.005661, "rental_uris": {"android": "https://dc.lft.to/lastmile_qr_scan", "ios": "https://dc.lft.to/lastmile_qr_scan"}, "is_disabled": 0, "fusion_lat": 0.0, "name": "064fbd48e4b25e3d16eb058d7e9a33e1", "fusion_lon": 0.0}, {"is_reserved": 0, "type": "electric_scooter", "bike_id": "9da6d4fae5750341b8439f61ed600ae7", "lat": 38.8996755, "lon": -76.99035583333334, "rental_uris": {"android": "https://dc.lft.to/lastmile_qr_scan", "ios": "https://dc.lft.to/lastmile_qr_scan"}, "is_disabled": 0, "fusion_lat": 0.0, "name": "9da6d4fae5750341b8439f61ed600ae7", "fusion_lon": 0.0}, {"is_reserved": 0, "type": "electric_scooter", "bike_id": "57ef4c44ab38d3cea6ffcd955a03acc7", "lat": 38.917139666666664, "lon": -77.038613, "rental_uris": {"android": "https://dc.lft.to/lastmile_qr_scan", "ios": "https://dc.lft.to/lastmile_qr_scan"}, "is_disabled": 0, "fusion_lat": 0.0, "name": "57ef4c44ab38d3cea6ffcd955a03acc7", "fusion_lon": 0.0}, {"is_reserved": 0, "type": "electric_bike", "bike_id": "937c0d05e213f57a93aa996029eaefea", "lat": 38.94947966666667, "lon": -77.01617216666666, "rental_uris": {"android": "https://dc.lft.to/lastmile_qr_scan", "ios": "https://dc.lft.to/lastmile_qr_scan"}, "is_disabled": 0, "fusion_lat": 0.0, "name": "937c0d05e213f57a93aa996029eaefea", "fusion_lon": 0.0}, {"is_reserved": 0, "type": "electric_scooter", "bike_id": "2e2e455930a424989e5dd53a876a70d7", "lat": 38.901168, "lon": -77.0317235, "rental_uris": {"android": "https://dc.lft.to/lastmile_qr_scan", "ios": "https://dc.lft.to/lastmile_qr_scan"}, "is_disabled": 0, "fusion_lat": 0.0, "name": "2e2e455930a424989e5dd53a876a70d7", "fusion_lon": 0.0}, {"is_reserved": 0, "type": "electric_scooter", "bike_id": "2409f1868e1a60d7ffe076d6a5c4aadf", "lat": 38.92484916666667, "lon": -77.02273383333333, "rental_uris": {"android": "https://dc.lft.to/lastmile_qr_scan", "ios": "https://dc.lft.to/lastmile_qr_scan"}, "is_disabled": 0, "fusion_lat": 0.0, "name": "2409f1868e1a60d7ffe076d6a5c4aadf", "fusion_lon": 0.0}, {"is_reserved": 0, "type": "electric_bike", "bike_id": "a8df7ea8a71a552e2713e02c8843b1cb", "lat": 38.845341833333336, "lon": -77.07640933333333, "rental_uris": {"android": "https://dc.lft.to/lastmile_qr_scan", "ios": "https://dc.lft.to/lastmile_qr_scan"}, "is_disabled": 0, "fusion_lat": 0.0, "name": "a8df7ea8a71a552e2713e02c8843b1cb", "fusion_lon": 0.0}, {"is_reserved": 0, "type": "electric_scooter", "bike_id": "60b08008ba4c0197ba876551183505a3", "lat": 38.92411383333334, "lon": -77.03547866666666, "rental_uris": {"android": "https://dc.lft.to/lastmile_qr_scan", "ios": "https://dc.lft.to/lastmile_qr_scan"}, "is_disabled": 0, "fusion_lat": 0.0, "name": "60b08008ba4c0197ba876551183505a3", "fusion_lon": 0.0}, {"is_reserved": 0, "type": "electric_scooter", "bike_id": "ccb07c10a7fe7118485f1e85522bc12b", "lat": 38.92691333333333, "lon": -77.025829, "rental_uris": {"android": "https://dc.lft.to/lastmile_qr_scan", "ios": "https://dc.lft.to/lastmile_qr_scan"}, "is_disabled": 0, "fusion_lat": 0.0, "name": "ccb07c10a7fe7118485f1e85522bc12b", "fusion_lon": 0.0}, {"is_reserved": 0, "type": "electric_scooter", "bike_id": "a22f88cd90a62fff9352f5da21f84a68", "lat": 38.92179516666667, "lon": -77.01038583333333, "rental_uris": {"android": "https://dc.lft.to/lastmile_qr_scan", "ios": "https://dc.lft.to/lastmile_qr_scan"}, "is_disabled": 0, "fusion_lat": 0.0, "name": "a22f88cd90a62fff9352f5da21f84a68", "fusion_lon": 0.0}, {"is_reserved": 0, "type": "electric_scooter", "bike_id": "948415f51ed724ff27b666b4a3985ab3", "lat": 38.917818833333335, "lon": -77.02976466666667, "rental_uris": {"android": "https://dc.lft.to/lastmile_qr_scan", "ios": "https://dc.lft.to/lastmile_qr_scan"}, "is_disabled": 0, "fusion_lat": 0.0, "name": "948415f51ed724ff27b666b4a3985ab3", "fusion_lon": 0.0}, {"is_reserved": 0, "type": "electric_scooter", "bike_id": "23862e468748164ed49c92fb9b157ffe", "lat": 38.901479333333334, "lon": -77.051077, "rental_uris": {"android": "https://dc.lft.to/lastmile_qr_scan", "ios": "https://dc.lft.to/lastmile_qr_scan"}, "is_disabled": 0, "fusion_lat": 0.0, "name": "23862e468748164ed49c92fb9b157ffe", "fusion_lon": 0.0}, {"is_reserved": 0, "type": "electric_scooter", "bike_id": "73af07351655c9408161af7a4c75462f", "lat": 38.8839315, "lon": -77.03027333333333, "rental_uris": {"android": "https://dc.lft.to/lastmile_qr_scan", "ios": "https://dc.lft.to/lastmile_qr_scan"}, "is_disabled": 0, "fusion_lat": 0.0, "name": "73af07351655c9408161af7a4c75462f", "fusion_lon": 0.0}, {"is_reserved": 0, "type": "electric_scooter", "bike_id": "6c5645eea86e63a69b0a38cd7f340618", "lat": 38.918232333333336, "lon": -77.02592683333333, "rental_uris": {"android": "https://dc.lft.to/lastmile_qr_scan", "ios": "https://dc.lft.to/lastmile_qr_scan"}, "is_disabled": 0, "fusion_lat": 0.0, "name": "6c5645eea86e63a69b0a38cd7f340618", "fusion_lon": 0.0}, {"is_reserved": 0, "type": "electric_scooter", "bike_id": "38e5c64b3d7bba0e4c39f00333002c12", "lat": 38.903767, "lon": -77.03143083333333, "rental_uris": {"android": "https://dc.lft.to/lastmile_qr_scan", "ios": "https://dc.lft.to/lastmile_qr_scan"}, "is_disabled": 0, "fusion_lat": 0.0, "name": "38e5c64b3d7bba0e4c39f00333002c12", "fusion_lon": 0.0}, {"is_reserved": 0, "type": "electric_scooter", "bike_id": "2698eac5d85de7b5d51f12af428b356b", "lat": 38.88040383333333, "lon": -77.0198335, "rental_uris": {"android": "https://dc.lft.to/lastmile_qr_scan", "ios": "https://dc.lft.to/lastmile_qr_scan"}, "is_disabled": 0, "fusion_lat": 0.0, "name": "2698eac5d85de7b5d51f12af428b356b", "fusion_lon": 0.0}, {"is_reserved": 0, "type": "electric_scooter", "bike_id": "e2f038ee0ff66d790ad5c3a118be4840", "lat": 38.91693716666666, "lon": -77.03146616666666, "rental_uris": {"android": "https://dc.lft.to/lastmile_qr_scan", "ios": "https://dc.lft.to/lastmile_qr_scan"}, "is_disabled": 0, "fusion_lat": 0.0, "name": "e2f038ee0ff66d790ad5c3a118be4840", "fusion_lon": 0.0}, {"is_reserved": 0, "type": "electric_bike", "bike_id": "4966a7cf53ea226f06583947dad5beb2", "lat": 38.879361833333334, "lon": -76.98084983333334, "rental_uris": {"android": "https://dc.lft.to/lastmile_qr_scan", "ios": "https://dc.lft.to/lastmile_qr_scan"}, "is_disabled": 0, "fusion_lat": 0.0, "name": "4966a7cf53ea226f06583947dad5beb2", "fusion_lon": 0.0}, {"is_reserved": 0, "type": "electric_scooter", "bike_id": "976d424a98d016a7b46831839c9f704d", "lat": 38.91576033333333, "lon": -77.0199675, "rental_uris": {"android": "https://dc.lft.to/lastmile_qr_scan", "ios": "https://dc.lft.to/lastmile_qr_scan"}, "is_disabled": 0, "fusion_lat": 0.0, "name": "976d424a98d016a7b46831839c9f704d", "fusion_lon": 0.0}, {"is_reserved": 0, "type": "electric_scooter", "bike_id": "8e18dda3b38e6ce0be81f87dae4a50fc", "lat": 38.920179833333336, "lon": -77.03126516666667, "rental_uris": {"android": "https://dc.lft.to/lastmile_qr_scan", "ios": "https://dc.lft.to/lastmile_qr_scan"}, "is_disabled": 0, "fusion_lat": 0.0, "name": "8e18dda3b38e6ce0be81f87dae4a50fc", "fusion_lon": 0.0}, {"is_reserved": 0, "type": "electric_scooter", "bike_id": "db4f4c4a21ba7cd9868b1a3c367a2d1b", "lat": 38.913959, "lon": -77.02000733333334, "rental_uris": {"android": "https://dc.lft.to/lastmile_qr_scan", "ios": "https://dc.lft.to/lastmile_qr_scan"}, "is_disabled": 0, "fusion_lat": 0.0, "name": "db4f4c4a21ba7cd9868b1a3c367a2d1b", "fusion_lon": 0.0}, {"is_reserved": 0, "type": "electric_scooter", "bike_id": "d47c0acb3740290e43e555791232f6b3", "lat": 38.90125833333333, "lon": -77.0499175, "rental_uris": {"android": "https://dc.lft.to/lastmile_qr_scan", "ios": "https://dc.lft.to/lastmile_qr_scan"}, "is_disabled": 0, "fusion_lat": 0.0, "name": "d47c0acb3740290e43e555791232f6b3", "fusion_lon": 0.0}, {"is_reserved": 0, "type": "electric_scooter", "bike_id": "a5215b42de12d1a0391d6bf43aea3c9a", "lat": 38.9164095, "lon": -77.047783, "rental_uris": {"android": "https://dc.lft.to/lastmile_qr_scan", "ios": "https://dc.lft.to/lastmile_qr_scan"}, "is_disabled": 0, "fusion_lat": 0.0, "name": "a5215b42de12d1a0391d6bf43aea3c9a", "fusion_lon": 0.0}, {"is_reserved": 0, "type": "electric_scooter", "bike_id": "4ba1ec7387f9bcba465a24ea6e0b529e", "lat": 38.91632366666666, "lon": -77.01578583333334, "rental_uris": {"android": "https://dc.lft.to/lastmile_qr_scan", "ios": "https://dc.lft.to/lastmile_qr_scan"}, "is_disabled": 0, "fusion_lat": 0.0, "name": "4ba1ec7387f9bcba465a24ea6e0b529e", "fusion_lon": 0.0}, {"is_reserved": 0, "type": "electric_scooter", "bike_id": "17929e1bc2eee44c3222b5090237d217", "lat": 38.89999866666667, "lon": -77.02717633333333, "rental_uris": {"android": "https://dc.lft.to/lastmile_qr_scan", "ios": "https://dc.lft.to/lastmile_qr_scan"}, "is_disabled": 0, "fusion_lat": 0.0, "name": "17929e1bc2eee44c3222b5090237d217", "fusion_lon": 0.0}, {"is_reserved": 0, "type": "electric_scooter", "bike_id": "560f0a272e6fcf5a8cdad3aa13a57da1", "lat": 38.911854, "lon": -77.0046415, "rental_uris": {"android": "https://dc.lft.to/lastmile_qr_scan", "ios": "https://dc.lft.to/lastmile_qr_scan"}, "is_disabled": 0, "fusion_lat": 0.0, "name": "560f0a272e6fcf5a8cdad3aa13a57da1", "fusion_lon": 0.0}, {"is_reserved": 0, "type": "electric_scooter", "bike_id": "e27e6e7c4ab8ebd541a99b4446ca3e7c", "lat": 38.95181616666667, "lon": -77.026134, "rental_uris": {"android": "https://dc.lft.to/lastmile_qr_scan", "ios": "https://dc.lft.to/lastmile_qr_scan"}, "is_disabled": 0, "fusion_lat": 0.0, "name": "e27e6e7c4ab8ebd541a99b4446ca3e7c", "fusion_lon": 0.0}, {"is_reserved": 0, "type": "electric_bike", "bike_id": "8fa4da275cf7c81c053db8572f1e8608", "lat": 38.949230166666666, "lon": -77.00791633333333, "rental_uris": {"android": "https://dc.lft.to/lastmile_qr_scan", "ios": "https://dc.lft.to/lastmile_qr_scan"}, "is_disabled": 0, "fusion_lat": 0.0, "name": "8fa4da275cf7c81c053db8572f1e8608", "fusion_lon": 0.0}, {"is_reserved": 0, "type": "electric_bike", "bike_id": "4e38edd250b5310d2d4dcdb0b2a6a879", "lat": 38.99535383333333, "lon": -77.074974, "rental_uris": {"android": "https://dc.lft.to/lastmile_qr_scan", "ios": "https://dc.lft.to/lastmile_qr_scan"}, "is_disabled": 0, "fusion_lat": 0.0, "name": "4e38edd250b5310d2d4dcdb0b2a6a879", "fusion_lon": 0.0}, {"is_reserved": 0, "type": "electric_scooter", "bike_id": "7183a52afc3491eaff2ab9fee65f43cd", "lat": 38.905537, "lon": -77.00597866666666, "rental_uris": {"android": "https://dc.lft.to/lastmile_qr_scan", "ios": "https://dc.lft.to/lastmile_qr_scan"}, "is_disabled": 0, "fusion_lat": 0.0, "name": "7183a52afc3491eaff2ab9fee65f43cd", "fusion_lon": 0.0}, {"is_reserved": 0, "type": "electric_scooter", "bike_id": "967fa916f6b0e360092be807792d3052", "lat": 38.9140275, "lon": -77.04363866666667, "rental_uris": {"android": "https://dc.lft.to/lastmile_qr_scan", "ios": "https://dc.lft.to/lastmile_qr_scan"}, "is_disabled": 0, "fusion_lat": 0.0, "name": "967fa916f6b0e360092be807792d3052", "fusion_lon": 0.0}, {"is_reserved": 0, "type": "electric_bike", "bike_id": "e0622eabdd7c3c0996b9e8483c23af28", "lat": 38.8944335, "lon": -77.01980016666667, "rental_uris": {"android": "https://dc.lft.to/lastmile_qr_scan", "ios": "https://dc.lft.to/lastmile_qr_scan"}, "is_disabled": 0, "fusion_lat": 0.0, "name": "e0622eabdd7c3c0996b9e8483c23af28", "fusion_lon": 0.0}, {"is_reserved": 0, "type": "electric_scooter", "bike_id": "2733db919cdc8c2d9da05fa65be3abbd", "lat": 38.952676833333335, "lon": -77.02396583333334, "rental_uris": {"android": "https://dc.lft.to/lastmile_qr_scan", "ios": "https://dc.lft.to/lastmile_qr_scan"}, "is_disabled": 0, "fusion_lat": 0.0, "name": "2733db919cdc8c2d9da05fa65be3abbd", "fusion_lon": 0.0}, {"is_reserved": 0, "type": "electric_scooter", "bike_id": "193cbe40f0f8bfb7f367d692976a8910", "lat": 38.903555833333336, "lon": -77.017842, "rental_uris": {"android": "https://dc.lft.to/lastmile_qr_scan", "ios": "https://dc.lft.to/lastmile_qr_scan"}, "is_disabled": 0, "fusion_lat": 0.0, "name": "193cbe40f0f8bfb7f367d692976a8910", "fusion_lon": 0.0}, {"is_reserved": 0, "type": "electric_scooter", "bike_id": "34881bf8e86fe4b41bd7a4cf5f0b9020", "lat": 38.92598366666667, "lon": -77.03951166666667, "rental_uris": {"android": "https://dc.lft.to/lastmile_qr_scan", "ios": "https://dc.lft.to/lastmile_qr_scan"}, "is_disabled": 0, "fusion_lat": 0.0, "name": "34881bf8e86fe4b41bd7a4cf5f0b9020", "fusion_lon": 0.0}, {"is_reserved": 0, "type": "electric_scooter", "bike_id": "650b67e31d0e19a9fb433acf6d8d1263", "lat": 38.8825005, "lon": -77.00632033333333, "rental_uris": {"android": "https://dc.lft.to/lastmile_qr_scan", "ios": "https://dc.lft.to/lastmile_qr_scan"}, "is_disabled": 0, "fusion_lat": 0.0, "name": "650b67e31d0e19a9fb433acf6d8d1263", "fusion_lon": 0.0}, {"is_reserved": 0, "type": "electric_scooter", "bike_id": "197b90aa9349ff519a4af709f8c71285", "lat": 38.923970833333335, "lon": -77.05048033333334, "rental_uris": {"android": "https://dc.lft.to/lastmile_qr_scan", "ios": "https://dc.lft.to/lastmile_qr_scan"}, "is_disabled": 0, "fusion_lat": 0.0, "name": "197b90aa9349ff519a4af709f8c71285", "fusion_lon": 0.0}, {"is_reserved": 0, "type": "electric_scooter", "bike_id": "aeab0cde7933597e9af772b9f2c43446", "lat": 38.892263666666665, "lon": -77.0318495, "rental_uris": {"android": "https://dc.lft.to/lastmile_qr_scan", "ios": "https://dc.lft.to/lastmile_qr_scan"}, "is_disabled": 0, "fusion_lat": 0.0, "name": "aeab0cde7933597e9af772b9f2c43446", "fusion_lon": 0.0}, {"is_reserved": 0, "type": "electric_scooter", "bike_id": "2fe7e6dcb9e59bcbcf48396d26fbe443", "lat": 38.91938616666667, "lon": -77.01880533333333, "rental_uris": {"android": "https://dc.lft.to/lastmile_qr_scan", "ios": "https://dc.lft.to/lastmile_qr_scan"}, "is_disabled": 0, "fusion_lat": 0.0, "name": "2fe7e6dcb9e59bcbcf48396d26fbe443", "fusion_lon": 0.0}, {"is_reserved": 0, "type": "electric_scooter", "bike_id": "b515d03d2065830289842344cd8f4e4f", "lat": 38.9085665, "lon": -77.0036885, "rental_uris": {"android": "https://dc.lft.to/lastmile_qr_scan", "ios": "https://dc.lft.to/lastmile_qr_scan"}, "is_disabled": 0, "fusion_lat": 0.0, "name": "b515d03d2065830289842344cd8f4e4f", "fusion_lon": 0.0}, {"is_reserved": 0, "type": "electric_scooter", "bike_id": "595bc9a2c1e066c9932824881d35a814", "lat": 38.9097295, "lon": -77.0240765, "rental_uris": {"android": "https://dc.lft.to/lastmile_qr_scan", "ios": "https://dc.lft.to/lastmile_qr_scan"}, "is_disabled": 0, "fusion_lat": 0.0, "name": "595bc9a2c1e066c9932824881d35a814", "fusion_lon": 0.0}, {"is_reserved": 0, "type": "electric_scooter", "bike_id": "214c9fe33d626867b8a87f24df127b6b", "lat": 38.86588116666667, "lon": -76.97456016666666, "rental_uris": {"android": "https://dc.lft.to/lastmile_qr_scan", "ios": "https://dc.lft.to/lastmile_qr_scan"}, "is_disabled": 0, "fusion_lat": 0.0, "name": "214c9fe33d626867b8a87f24df127b6b", "fusion_lon": 0.0}, {"is_reserved": 0, "type": "electric_scooter", "bike_id": "f5199d88cf639fbed27dde976e6e5207", "lat": 38.88769533333333, "lon": -76.98321566666667, "rental_uris": {"android": "https://dc.lft.to/lastmile_qr_scan", "ios": "https://dc.lft.to/lastmile_qr_scan"}, "is_disabled": 0, "fusion_lat": 0.0, "name": "f5199d88cf639fbed27dde976e6e5207", "fusion_lon": 0.0}, {"is_reserved": 0, "type": "electric_scooter", "bike_id": "5af1ba2ce2f9e28ec151a89dc0d4ec32", "lat": 38.90572566666667, "lon": -77.03069233333333, "rental_uris": {"android": "https://dc.lft.to/lastmile_qr_scan", "ios": "https://dc.lft.to/lastmile_qr_scan"}, "is_disabled": 0, "fusion_lat": 0.0, "name": "5af1ba2ce2f9e28ec151a89dc0d4ec32", "fusion_lon": 0.0}, {"is_reserved": 0, "type": "electric_scooter", "bike_id": "f8f58bc7974fab29cc3647f4814989a1", "lat": 38.9157125, "lon": -77.02292316666667, "rental_uris": {"android": "https://dc.lft.to/lastmile_qr_scan", "ios": "https://dc.lft.to/lastmile_qr_scan"}, "is_disabled": 0, "fusion_lat": 0.0, "name": "f8f58bc7974fab29cc3647f4814989a1", "fusion_lon": 0.0}, {"is_reserved": 0, "type": "electric_bike", "bike_id": "f2d6960bd7ac38a9bef609afb43f0d77", "lat": 38.8958835, "lon": -76.90692083333333, "rental_uris": {"android": "https://dc.lft.to/lastmile_qr_scan", "ios": "https://dc.lft.to/lastmile_qr_scan"}, "is_disabled": 0, "fusion_lat": 0.0, "name": "f2d6960bd7ac38a9bef609afb43f0d77", "fusion_lon": 0.0}, {"is_reserved": 0, "type": "electric_scooter", "bike_id": "acd3e2d7db6c507891ea9d4feb34df28", "lat": 38.897696, "lon": -77.02696333333333, "rental_uris": {"android": "https://dc.lft.to/lastmile_qr_scan", "ios": "https://dc.lft.to/lastmile_qr_scan"}, "is_disabled": 0, "fusion_lat": 0.0, "name": "acd3e2d7db6c507891ea9d4feb34df28", "fusion_lon": 0.0}, {"is_reserved": 0, "type": "electric_scooter", "bike_id": "c3f3d4394e6bf4ee03cf7c5f8fad840c", "lat": 38.89811, "lon": -76.99691483333334, "rental_uris": {"android": "https://dc.lft.to/lastmile_qr_scan", "ios": "https://dc.lft.to/lastmile_qr_scan"}, "is_disabled": 0, "fusion_lat": 0.0, "name": "c3f3d4394e6bf4ee03cf7c5f8fad840c", "fusion_lon": 0.0}, {"is_reserved": 0, "type": "electric_bike", "bike_id": "2180104ec6539a84e4f5a425056bc0da", "lat": 38.956384, "lon": -77.03289883333333, "rental_uris": {"android": "https://dc.lft.to/lastmile_qr_scan", "ios": "https://dc.lft.to/lastmile_qr_scan"}, "is_disabled": 0, "fusion_lat": 0.0, "name": "2180104ec6539a84e4f5a425056bc0da", "fusion_lon": 0.0}, {"is_reserved": 0, "type": "electric_scooter", "bike_id": "71b5b3e03f19366122a8b363c44e564c", "lat": 38.9177775, "lon": -77.02313266666667, "rental_uris": {"android": "https://dc.lft.to/lastmile_qr_scan", "ios": "https://dc.lft.to/lastmile_qr_scan"}, "is_disabled": 0, "fusion_lat": 0.0, "name": "71b5b3e03f19366122a8b363c44e564c", "fusion_lon": 0.0}, {"is_reserved": 0, "type": "electric_scooter", "bike_id": "e2358d93235b9f609249639942a7f4e2", "lat": 38.91959716666667, "lon": -77.04364333333334, "rental_uris": {"android": "https://dc.lft.to/lastmile_qr_scan", "ios": "https://dc.lft.to/lastmile_qr_scan"}, "is_disabled": 0, "fusion_lat": 0.0, "name": "e2358d93235b9f609249639942a7f4e2", "fusion_lon": 0.0}, {"is_reserved": 0, "type": "electric_scooter", "bike_id": "25451c05723cde9399e90cfb8b3a0a29", "lat": 38.867169833333335, "lon": -76.98075383333334, "rental_uris": {"android": "https://dc.lft.to/lastmile_qr_scan", "ios": "https://dc.lft.to/lastmile_qr_scan"}, "is_disabled": 0, "fusion_lat": 0.0, "name": "25451c05723cde9399e90cfb8b3a0a29", "fusion_lon": 0.0}, {"is_reserved": 0, "type": "electric_scooter", "bike_id": "4010b3e29fbb1b61c58968f9d1ad13c8", "lat": 38.9111145, "lon": -77.02080266666667, "rental_uris": {"android": "https://dc.lft.to/lastmile_qr_scan", "ios": "https://dc.lft.to/lastmile_qr_scan"}, "is_disabled": 0, "fusion_lat": 0.0, "name": "4010b3e29fbb1b61c58968f9d1ad13c8", "fusion_lon": 0.0}, {"is_reserved": 0, "type": "electric_scooter", "bike_id": "7cf6f7f7e9a3278fd9edb3844e962cee", "lat": 38.89193, "lon": -77.022317, "rental_uris": {"android": "https://dc.lft.to/lastmile_qr_scan", "ios": "https://dc.lft.to/lastmile_qr_scan"}, "is_disabled": 0, "fusion_lat": 0.0, "name": "7cf6f7f7e9a3278fd9edb3844e962cee", "fusion_lon": 0.0}, {"is_reserved": 0, "type": "electric_scooter", "bike_id": "1d89d25cded62ec7e47b082ca692a784", "lat": 38.917609166666665, "lon": -77.00455033333333, "rental_uris": {"android": "https://dc.lft.to/lastmile_qr_scan", "ios": "https://dc.lft.to/lastmile_qr_scan"}, "is_disabled": 0, "fusion_lat": 0.0, "name": "1d89d25cded62ec7e47b082ca692a784", "fusion_lon": 0.0}, {"is_reserved": 0, "type": "electric_scooter", "bike_id": "d7513105c34581f3544c7040af88c4c7", "lat": 38.882961333333334, "lon": -77.0238435, "rental_uris": {"android": "https://dc.lft.to/lastmile_qr_scan", "ios": "https://dc.lft.to/lastmile_qr_scan"}, "is_disabled": 0, "fusion_lat": 0.0, "name": "d7513105c34581f3544c7040af88c4c7", "fusion_lon": 0.0}, {"is_reserved": 0, "type": "electric_bike", "bike_id": "0114dbcab48578fd2d373086ccd8e325", "lat": 38.917050833333334, "lon": -77.0571955, "rental_uris": {"android": "https://dc.lft.to/lastmile_qr_scan", "ios": "https://dc.lft.to/lastmile_qr_scan"}, "is_disabled": 0, "fusion_lat": 0.0, "name": "0114dbcab48578fd2d373086ccd8e325", "fusion_lon": 0.0}, {"is_reserved": 0, "type": "electric_bike", "bike_id": "6f932f23eaa5b0a61e5166d0e718592f", "lat": 38.92034566666667, "lon": -76.97959933333334, "rental_uris": {"android": "https://dc.lft.to/lastmile_qr_scan", "ios": "https://dc.lft.to/lastmile_qr_scan"}, "is_disabled": 0, "fusion_lat": 0.0, "name": "6f932f23eaa5b0a61e5166d0e718592f", "fusion_lon": 0.0}, {"is_reserved": 0, "type": "electric_scooter", "bike_id": "3824d2ef4606fd7277485a42f117db27", "lat": 38.926806666666664, "lon": -77.03242466666667, "rental_uris": {"android": "https://dc.lft.to/lastmile_qr_scan", "ios": "https://dc.lft.to/lastmile_qr_scan"}, "is_disabled": 0, "fusion_lat": 0.0, "name": "3824d2ef4606fd7277485a42f117db27", "fusion_lon": 0.0}, {"is_reserved": 0, "type": "electric_scooter", "bike_id": "78352798c76130b917c2010f7fa1f276", "lat": 38.89692316666667, "lon": -77.0435115, "rental_uris": {"android": "https://dc.lft.to/lastmile_qr_scan", "ios": "https://dc.lft.to/lastmile_qr_scan"}, "is_disabled": 0, "fusion_lat": 0.0, "name": "78352798c76130b917c2010f7fa1f276", "fusion_lon": 0.0}, {"is_reserved": 0, "type": "electric_scooter", "bike_id": "cff4d8cbaccf3befec881b7bab42c898", "lat": 38.919206833333334, "lon": -77.009816, "rental_uris": {"android": "https://dc.lft.to/lastmile_qr_scan", "ios": "https://dc.lft.to/lastmile_qr_scan"}, "is_disabled": 0, "fusion_lat": 0.0, "name": "cff4d8cbaccf3befec881b7bab42c898", "fusion_lon": 0.0}, {"is_reserved": 0, "type": "electric_scooter", "bike_id": "8b314d429ed4f312281ee00687613900", "lat": 38.903217833333336, "lon": -77.01084183333333, "rental_uris": {"android": "https://dc.lft.to/lastmile_qr_scan", "ios": "https://dc.lft.to/lastmile_qr_scan"}, "is_disabled": 0, "fusion_lat": 0.0, "name": "8b314d429ed4f312281ee00687613900", "fusion_lon": 0.0}, {"is_reserved": 0, "type": "electric_scooter", "bike_id": "5fc87036ed4833ee5aa19c0422fb7410", "lat": 38.8922335, "lon": -77.04367133333334, "rental_uris": {"android": "https://dc.lft.to/lastmile_qr_scan", "ios": "https://dc.lft.to/lastmile_qr_scan"}, "is_disabled": 0, "fusion_lat": 0.0, "name": "5fc87036ed4833ee5aa19c0422fb7410", "fusion_lon": 0.0}, {"is_reserved": 0, "type": "electric_scooter", "bike_id": "40e285729d98db4a9b83f6e9ec22d7ad", "lat": 38.9161995, "lon": -77.04570916666667, "rental_uris": {"android": "https://dc.lft.to/lastmile_qr_scan", "ios": "https://dc.lft.to/lastmile_qr_scan"}, "is_disabled": 0, "fusion_lat": 0.0, "name": "40e285729d98db4a9b83f6e9ec22d7ad", "fusion_lon": 0.0}, {"is_reserved": 0, "type": "electric_scooter", "bike_id": "619c1ea01436b664e7aa07e04e4010ec", "lat": 38.89224683333333, "lon": -77.03188883333333, "rental_uris": {"android": "https://dc.lft.to/lastmile_qr_scan", "ios": "https://dc.lft.to/lastmile_qr_scan"}, "is_disabled": 0, "fusion_lat": 0.0, "name": "619c1ea01436b664e7aa07e04e4010ec", "fusion_lon": 0.0}, {"is_reserved": 0, "type": "electric_scooter", "bike_id": "b23f0cc6391b475b1c866cf101c3669c", "lat": 38.885197, "lon": -76.99623033333333, "rental_uris": {"android": "https://dc.lft.to/lastmile_qr_scan", "ios": "https://dc.lft.to/lastmile_qr_scan"}, "is_disabled": 0, "fusion_lat": 0.0, "name": "b23f0cc6391b475b1c866cf101c3669c", "fusion_lon": 0.0}, {"is_reserved": 0, "type": "electric_scooter", "bike_id": "29ce64f945f60982dd5024a9c1162ef0", "lat": 38.92193983333333, "lon": -77.0470305, "rental_uris": {"android": "https://dc.lft.to/lastmile_qr_scan", "ios": "https://dc.lft.to/lastmile_qr_scan"}, "is_disabled": 0, "fusion_lat": 0.0, "name": "29ce64f945f60982dd5024a9c1162ef0", "fusion_lon": 0.0}, {"is_reserved": 0, "type": "electric_scooter", "bike_id": "606923c80e8206454b03f56f5ad99e8a", "lat": 38.92754133333333, "lon": -77.02789583333333, "rental_uris": {"android": "https://dc.lft.to/lastmile_qr_scan", "ios": "https://dc.lft.to/lastmile_qr_scan"}, "is_disabled": 0, "fusion_lat": 0.0, "name": "606923c80e8206454b03f56f5ad99e8a", "fusion_lon": 0.0}, {"is_reserved": 0, "type": "electric_scooter", "bike_id": "5744ee80a7e09df8c979dedceab2350c", "lat": 38.94223016666667, "lon": -77.07155466666667, "rental_uris": {"android": "https://dc.lft.to/lastmile_qr_scan", "ios": "https://dc.lft.to/lastmile_qr_scan"}, "is_disabled": 0, "fusion_lat": 0.0, "name": "5744ee80a7e09df8c979dedceab2350c", "fusion_lon": 0.0}, {"is_reserved": 0, "type": "electric_scooter", "bike_id": "c14ee05308c82ddd18df4103eb189a42", "lat": 38.91943966666667, "lon": -77.01359816666667, "rental_uris": {"android": "https://dc.lft.to/lastmile_qr_scan", "ios": "https://dc.lft.to/lastmile_qr_scan"}, "is_disabled": 0, "fusion_lat": 0.0, "name": "c14ee05308c82ddd18df4103eb189a42", "fusion_lon": 0.0}, {"is_reserved": 0, "type": "electric_scooter", "bike_id": "97ac97422cceba8a881b80a6f9cfc736", "lat": 38.900839833333336, "lon": -77.04871516666667, "rental_uris": {"android": "https://dc.lft.to/lastmile_qr_scan", "ios": "https://dc.lft.to/lastmile_qr_scan"}, "is_disabled": 0, "fusion_lat": 0.0, "name": "97ac97422cceba8a881b80a6f9cfc736", "fusion_lon": 0.0}, {"is_reserved": 0, "type": "electric_scooter", "bike_id": "680415a9294f0569b36fa30a808db5fa", "lat": 38.917445666666666, "lon": -77.028055, "rental_uris": {"android": "https://dc.lft.to/lastmile_qr_scan", "ios": "https://dc.lft.to/lastmile_qr_scan"}, "is_disabled": 0, "fusion_lat": 0.0, "name": "680415a9294f0569b36fa30a808db5fa", "fusion_lon": 0.0}, {"is_reserved": 0, "type": "electric_scooter", "bike_id": "90d0adba80cce1de5efd6c0b118d226a", "lat": 38.898778666666665, "lon": -76.93183933333333, "rental_uris": {"android": "https://dc.lft.to/lastmile_qr_scan", "ios": "https://dc.lft.to/lastmile_qr_scan"}, "is_disabled": 0, "fusion_lat": 0.0, "name": "90d0adba80cce1de5efd6c0b118d226a", "fusion_lon": 0.0}, {"is_reserved": 0, "type": "electric_scooter", "bike_id": "23e7a806d04b74f51cf0ff95f962a924", "lat": 38.906893, "lon": -77.0625555, "rental_uris": {"android": "https://dc.lft.to/lastmile_qr_scan", "ios": "https://dc.lft.to/lastmile_qr_scan"}, "is_disabled": 0, "fusion_lat": 0.0, "name": "23e7a806d04b74f51cf0ff95f962a924", "fusion_lon": 0.0}, {"is_reserved": 0, "type": "electric_scooter", "bike_id": "238769e3c113a44346ef684ec36cc8ee", "lat": 38.90347933333334, "lon": -77.03196316666667, "rental_uris": {"android": "https://dc.lft.to/lastmile_qr_scan", "ios": "https://dc.lft.to/lastmile_qr_scan"}, "is_disabled": 0, "fusion_lat": 0.0, "name": "238769e3c113a44346ef684ec36cc8ee", "fusion_lon": 0.0}, {"is_reserved": 0, "type": "electric_scooter", "bike_id": "ca642568703b826c6e75286387a77ef0", "lat": 38.906589833333335, "lon": -77.009239, "rental_uris": {"android": "https://dc.lft.to/lastmile_qr_scan", "ios": "https://dc.lft.to/lastmile_qr_scan"}, "is_disabled": 0, "fusion_lat": 0.0, "name": "ca642568703b826c6e75286387a77ef0", "fusion_lon": 0.0}, {"is_reserved": 0, "type": "electric_scooter", "bike_id": "5e1430100aa4dbdc594258ae7f2bdff4", "lat": 38.92034133333333, "lon": -77.04185616666666, "rental_uris": {"android": "https://dc.lft.to/lastmile_qr_scan", "ios": "https://dc.lft.to/lastmile_qr_scan"}, "is_disabled": 0, "fusion_lat": 0.0, "name": "5e1430100aa4dbdc594258ae7f2bdff4", "fusion_lon": 0.0}, {"is_reserved": 0, "type": "electric_scooter", "bike_id": "dd3ef69d41ca981e8bd49b680224ab82", "lat": 38.9283625, "lon": -77.05511483333333, "rental_uris": {"android": "https://dc.lft.to/lastmile_qr_scan", "ios": "https://dc.lft.to/lastmile_qr_scan"}, "is_disabled": 0, "fusion_lat": 0.0, "name": "dd3ef69d41ca981e8bd49b680224ab82", "fusion_lon": 0.0}, {"is_reserved": 0, "type": "electric_scooter", "bike_id": "9f37a6f5aba2e8766424f3ba2965a3c2", "lat": 38.90030733333333, "lon": -77.011807, "rental_uris": {"android": "https://dc.lft.to/lastmile_qr_scan", "ios": "https://dc.lft.to/lastmile_qr_scan"}, "is_disabled": 0, "fusion_lat": 0.0, "name": "9f37a6f5aba2e8766424f3ba2965a3c2", "fusion_lon": 0.0}, {"is_reserved": 0, "type": "electric_scooter", "bike_id": "ffb34e5d83d4f20e0dd11c3910321450", "lat": 38.92750216666666, "lon": -77.02453333333334, "rental_uris": {"android": "https://dc.lft.to/lastmile_qr_scan", "ios": "https://dc.lft.to/lastmile_qr_scan"}, "is_disabled": 0, "fusion_lat": 0.0, "name": "ffb34e5d83d4f20e0dd11c3910321450", "fusion_lon": 0.0}, {"is_reserved": 0, "type": "electric_scooter", "bike_id": "ff887441dd59f07604e67527315e9574", "lat": 38.9177555, "lon": -77.0231655, "rental_uris": {"android": "https://dc.lft.to/lastmile_qr_scan", "ios": "https://dc.lft.to/lastmile_qr_scan"}, "is_disabled": 0, "fusion_lat": 0.0, "name": "ff887441dd59f07604e67527315e9574", "fusion_lon": 0.0}, {"is_reserved": 0, "type": "electric_scooter", "bike_id": "db604a937303da04e42183f67063e220", "lat": 38.926245, "lon": -77.03629983333333, "rental_uris": {"android": "https://dc.lft.to/lastmile_qr_scan", "ios": "https://dc.lft.to/lastmile_qr_scan"}, "is_disabled": 0, "fusion_lat": 0.0, "name": "db604a937303da04e42183f67063e220", "fusion_lon": 0.0}, {"is_reserved": 0, "type": "electric_scooter", "bike_id": "3d6b9346fe49ad039b0e1ebcbff9524a", "lat": 38.940832, "lon": -77.05492816666667, "rental_uris": {"android": "https://dc.lft.to/lastmile_qr_scan", "ios": "https://dc.lft.to/lastmile_qr_scan"}, "is_disabled": 0, "fusion_lat": 0.0, "name": "3d6b9346fe49ad039b0e1ebcbff9524a", "fusion_lon": 0.0}, {"is_reserved": 0, "type": "electric_scooter", "bike_id": "bed5e46f9b14877898d87e1cf68cd07e", "lat": 38.879367, "lon": -77.0166375, "rental_uris": {"android": "https://dc.lft.to/lastmile_qr_scan", "ios": "https://dc.lft.to/lastmile_qr_scan"}, "is_disabled": 0, "fusion_lat": 0.0, "name": "bed5e46f9b14877898d87e1cf68cd07e", "fusion_lon": 0.0}, {"is_reserved": 0, "type": "electric_scooter", "bike_id": "c591f0393f0412abb4d1009e696ea1de", "lat": 38.9250345, "lon": -77.0216635, "rental_uris": {"android": "https://dc.lft.to/lastmile_qr_scan", "ios": "https://dc.lft.to/lastmile_qr_scan"}, "is_disabled": 0, "fusion_lat": 0.0, "name": "c591f0393f0412abb4d1009e696ea1de", "fusion_lon": 0.0}, {"is_reserved": 0, "type": "electric_bike", "bike_id": "d94b0d1397bb7dc97c5fa3bcb64cf39b", "lat": 38.990327666666666, "lon": -77.02550066666667, "rental_uris": {"android": "https://dc.lft.to/lastmile_qr_scan", "ios": "https://dc.lft.to/lastmile_qr_scan"}, "is_disabled": 0, "fusion_lat": 0.0, "name": "d94b0d1397bb7dc97c5fa3bcb64cf39b", "fusion_lon": 0.0}, {"is_reserved": 0, "type": "electric_scooter", "bike_id": "6d4cfd1214846b2f30de62b1bf644286", "lat": 38.90748683333333, "lon": -76.99873683333334, "rental_uris": {"android": "https://dc.lft.to/lastmile_qr_scan", "ios": "https://dc.lft.to/lastmile_qr_scan"}, "is_disabled": 0, "fusion_lat": 0.0, "name": "6d4cfd1214846b2f30de62b1bf644286", "fusion_lon": 0.0}, {"is_reserved": 0, "type": "electric_scooter", "bike_id": "c49c940211404675e14469c318fbf286", "lat": 38.9387515, "lon": -77.02934883333333, "rental_uris": {"android": "https://dc.lft.to/lastmile_qr_scan", "ios": "https://dc.lft.to/lastmile_qr_scan"}, "is_disabled": 0, "fusion_lat": 0.0, "name": "c49c940211404675e14469c318fbf286", "fusion_lon": 0.0}, {"is_reserved": 0, "type": "electric_scooter", "bike_id": "489c75b9b1d464ce9515b78f70d9cdc4", "lat": 38.92793966666667, "lon": -77.04066183333333, "rental_uris": {"android": "https://dc.lft.to/lastmile_qr_scan", "ios": "https://dc.lft.to/lastmile_qr_scan"}, "is_disabled": 0, "fusion_lat": 0.0, "name": "489c75b9b1d464ce9515b78f70d9cdc4", "fusion_lon": 0.0}, {"is_reserved": 0, "type": "electric_scooter", "bike_id": "7bd0452cc72fa4934ea1bb38f4b3a80d", "lat": 38.95630233333333, "lon": -77.03564316666667, "rental_uris": {"android": "https://dc.lft.to/lastmile_qr_scan", "ios": "https://dc.lft.to/lastmile_qr_scan"}, "is_disabled": 0, "fusion_lat": 0.0, "name": "7bd0452cc72fa4934ea1bb38f4b3a80d", "fusion_lon": 0.0}, {"is_reserved": 0, "type": "electric_scooter", "bike_id": "7e65230fc6bc097f2e130a92dddc1fc5", "lat": 38.91109066666667, "lon": -77.03831433333333, "rental_uris": {"android": "https://dc.lft.to/lastmile_qr_scan", "ios": "https://dc.lft.to/lastmile_qr_scan"}, "is_disabled": 0, "fusion_lat": 0.0, "name": "7e65230fc6bc097f2e130a92dddc1fc5", "fusion_lon": 0.0}, {"is_reserved": 0, "type": "electric_scooter", "bike_id": "7457569c59deed830435dafbef43ea0c", "lat": 38.91522716666667, "lon": -77.003451, "rental_uris": {"android": "https://dc.lft.to/lastmile_qr_scan", "ios": "https://dc.lft.to/lastmile_qr_scan"}, "is_disabled": 0, "fusion_lat": 0.0, "name": "7457569c59deed830435dafbef43ea0c", "fusion_lon": 0.0}, {"is_reserved": 0, "type": "electric_scooter", "bike_id": "4f25f4ba63f834233c37aee15bdbbb47", "lat": 38.897224, "lon": -77.021688, "rental_uris": {"android": "https://dc.lft.to/lastmile_qr_scan", "ios": "https://dc.lft.to/lastmile_qr_scan"}, "is_disabled": 0, "fusion_lat": 0.0, "name": "4f25f4ba63f834233c37aee15bdbbb47", "fusion_lon": 0.0}, {"is_reserved": 0, "type": "electric_scooter", "bike_id": "b604d66194706c6d663b1e3e5588cee5", "lat": 38.9257975, "lon": -77.029379, "rental_uris": {"android": "https://dc.lft.to/lastmile_qr_scan", "ios": "https://dc.lft.to/lastmile_qr_scan"}, "is_disabled": 0, "fusion_lat": 0.0, "name": "b604d66194706c6d663b1e3e5588cee5", "fusion_lon": 0.0}, {"is_reserved": 0, "type": "electric_scooter", "bike_id": "5dc9bd01089cfaa013ef2c5e0cb7debc", "lat": 38.9140295, "lon": -77.02730416666667, "rental_uris": {"android": "https://dc.lft.to/lastmile_qr_scan", "ios": "https://dc.lft.to/lastmile_qr_scan"}, "is_disabled": 0, "fusion_lat": 0.0, "name": "5dc9bd01089cfaa013ef2c5e0cb7debc", "fusion_lon": 0.0}, {"is_reserved": 0, "type": "electric_scooter", "bike_id": "d86a949a7a7ffdd6c8f3428fb8ccfffc", "lat": 38.9302325, "lon": -77.03788833333333, "rental_uris": {"android": "https://dc.lft.to/lastmile_qr_scan", "ios": "https://dc.lft.to/lastmile_qr_scan"}, "is_disabled": 0, "fusion_lat": 0.0, "name": "d86a949a7a7ffdd6c8f3428fb8ccfffc", "fusion_lon": 0.0}, {"is_reserved": 0, "type": "electric_scooter", "bike_id": "68b327a3993c22086f56c806a2c2dc58", "lat": 38.950901333333334, "lon": -77.02537566666666, "rental_uris": {"android": "https://dc.lft.to/lastmile_qr_scan", "ios": "https://dc.lft.to/lastmile_qr_scan"}, "is_disabled": 0, "fusion_lat": 0.0, "name": "68b327a3993c22086f56c806a2c2dc58", "fusion_lon": 0.0}, {"is_reserved": 0, "type": "electric_scooter", "bike_id": "fc6b571593d371f63e4674de936207e9", "lat": 38.93452, "lon": -77.027769, "rental_uris": {"android": "https://dc.lft.to/lastmile_qr_scan", "ios": "https://dc.lft.to/lastmile_qr_scan"}, "is_disabled": 0, "fusion_lat": 0.0, "name": "fc6b571593d371f63e4674de936207e9", "fusion_lon": 0.0}, {"is_reserved": 0, "type": "electric_scooter", "bike_id": "0c6244f7b26cd17ba6db1f8e14f60478", "lat": 38.91567116666667, "lon": -77.02970516666667, "rental_uris": {"android": "https://dc.lft.to/lastmile_qr_scan", "ios": "https://dc.lft.to/lastmile_qr_scan"}, "is_disabled": 0, "fusion_lat": 0.0, "name": "0c6244f7b26cd17ba6db1f8e14f60478", "fusion_lon": 0.0}, {"is_reserved": 0, "type": "electric_scooter", "bike_id": "819654f83fcdba419bbe05b9b6426b6e", "lat": 38.89969716666667, "lon": -77.02219516666666, "rental_uris": {"android": "https://dc.lft.to/lastmile_qr_scan", "ios": "https://dc.lft.to/lastmile_qr_scan"}, "is_disabled": 0, "fusion_lat": 0.0, "name": "819654f83fcdba419bbe05b9b6426b6e", "fusion_lon": 0.0}, {"is_reserved": 0, "type": "electric_scooter", "bike_id": "ef74d88fdd7ef72eec27345d00912074", "lat": 38.89773433333333, "lon": -77.02670516666667, "rental_uris": {"android": "https://dc.lft.to/lastmile_qr_scan", "ios": "https://dc.lft.to/lastmile_qr_scan"}, "is_disabled": 0, "fusion_lat": 0.0, "name": "ef74d88fdd7ef72eec27345d00912074", "fusion_lon": 0.0}, {"is_reserved": 0, "type": "electric_scooter", "bike_id": "47970e96841b8d7419026735d90cbf45", "lat": 38.91071, "lon": -77.01618683333334, "rental_uris": {"android": "https://dc.lft.to/lastmile_qr_scan", "ios": "https://dc.lft.to/lastmile_qr_scan"}, "is_disabled": 0, "fusion_lat": 0.0, "name": "47970e96841b8d7419026735d90cbf45", "fusion_lon": 0.0}, {"is_reserved": 0, "type": "electric_scooter", "bike_id": "1fa5f27e7e8c251f732c66f5d2fef929", "lat": 38.918179333333335, "lon": -77.0316615, "rental_uris": {"android": "https://dc.lft.to/lastmile_qr_scan", "ios": "https://dc.lft.to/lastmile_qr_scan"}, "is_disabled": 0, "fusion_lat": 0.0, "name": "1fa5f27e7e8c251f732c66f5d2fef929", "fusion_lon": 0.0}, {"is_reserved": 0, "type": "electric_scooter", "bike_id": "c8868754e80dc501d84249befe236c44", "lat": 38.904466166666666, "lon": -76.9962255, "rental_uris": {"android": "https://dc.lft.to/lastmile_qr_scan", "ios": "https://dc.lft.to/lastmile_qr_scan"}, "is_disabled": 0, "fusion_lat": 0.0, "name": "c8868754e80dc501d84249befe236c44", "fusion_lon": 0.0}, {"is_reserved": 0, "type": "electric_scooter", "bike_id": "fa7a061057b8073a4ed8facd42968752", "lat": 38.87485616666667, "lon": -77.00034066666667, "rental_uris": {"android": "https://dc.lft.to/lastmile_qr_scan", "ios": "https://dc.lft.to/lastmile_qr_scan"}, "is_disabled": 0, "fusion_lat": 0.0, "name": "fa7a061057b8073a4ed8facd42968752", "fusion_lon": 0.0}, {"is_reserved": 0, "type": "electric_scooter", "bike_id": "2f899bf67793d98d94fbe8acc7d0db0f", "lat": 38.856530666666664, "lon": -76.99676466666666, "rental_uris": {"android": "https://dc.lft.to/lastmile_qr_scan", "ios": "https://dc.lft.to/lastmile_qr_scan"}, "is_disabled": 0, "fusion_lat": 0.0, "name": "2f899bf67793d98d94fbe8acc7d0db0f", "fusion_lon": 0.0}, {"is_reserved": 0, "type": "electric_scooter", "bike_id": "690f80e09a0b3832daba4a0f57a1e04d", "lat": 38.8770525, "lon": -77.01848366666667, "rental_uris": {"android": "https://dc.lft.to/lastmile_qr_scan", "ios": "https://dc.lft.to/lastmile_qr_scan"}, "is_disabled": 0, "fusion_lat": 0.0, "name": "690f80e09a0b3832daba4a0f57a1e04d", "fusion_lon": 0.0}, {"is_reserved": 0, "type": "electric_scooter", "bike_id": "6b2bf2fbfc790aba3d80601f0e467226", "lat": 38.93503233333333, "lon": -77.04285866666666, "rental_uris": {"android": "https://dc.lft.to/lastmile_qr_scan", "ios": "https://dc.lft.to/lastmile_qr_scan"}, "is_disabled": 0, "fusion_lat": 0.0, "name": "6b2bf2fbfc790aba3d80601f0e467226", "fusion_lon": 0.0}, {"is_reserved": 0, "type": "electric_bike", "bike_id": "71505b54a2d3c5cc3b9fd41aa9622b9b", "lat": 38.89458183333333, "lon": -77.1036485, "rental_uris": {"android": "https://dc.lft.to/lastmile_qr_scan", "ios": "https://dc.lft.to/lastmile_qr_scan"}, "is_disabled": 0, "fusion_lat": 0.0, "name": "71505b54a2d3c5cc3b9fd41aa9622b9b", "fusion_lon": 0.0}, {"is_reserved": 0, "type": "electric_scooter", "bike_id": "0fb1d214d10bd913a18e646432ee1aac", "lat": 38.90036283333333, "lon": -76.98832466666667, "rental_uris": {"android": "https://dc.lft.to/lastmile_qr_scan", "ios": "https://dc.lft.to/lastmile_qr_scan"}, "is_disabled": 0, "fusion_lat": 0.0, "name": "0fb1d214d10bd913a18e646432ee1aac", "fusion_lon": 0.0}, {"is_reserved": 0, "type": "electric_scooter", "bike_id": "7391ab673430a12fc74999e54782d2f5", "lat": 38.923928833333335, "lon": -77.0504475, "rental_uris": {"android": "https://dc.lft.to/lastmile_qr_scan", "ios": "https://dc.lft.to/lastmile_qr_scan"}, "is_disabled": 0, "fusion_lat": 0.0, "name": "7391ab673430a12fc74999e54782d2f5", "fusion_lon": 0.0}, {"is_reserved": 0, "type": "electric_scooter", "bike_id": "1f69927cbdc0e0c6412d4a295a0e4c13", "lat": 38.907931166666664, "lon": -77.00199033333334, "rental_uris": {"android": "https://dc.lft.to/lastmile_qr_scan", "ios": "https://dc.lft.to/lastmile_qr_scan"}, "is_disabled": 0, "fusion_lat": 0.0, "name": "1f69927cbdc0e0c6412d4a295a0e4c13", "fusion_lon": 0.0}, {"is_reserved": 0, "type": "electric_scooter", "bike_id": "491e1e62dcf937890a813a0538154301", "lat": 38.9026545, "lon": -77.0184225, "rental_uris": {"android": "https://dc.lft.to/lastmile_qr_scan", "ios": "https://dc.lft.to/lastmile_qr_scan"}, "is_disabled": 0, "fusion_lat": 0.0, "name": "491e1e62dcf937890a813a0538154301", "fusion_lon": 0.0}, {"is_reserved": 0, "type": "electric_scooter", "bike_id": "ce80ba7a3ecdfa4ea52cec2ef4b029e7", "lat": 38.912811166666664, "lon": -77.07279483333333, "rental_uris": {"android": "https://dc.lft.to/lastmile_qr_scan", "ios": "https://dc.lft.to/lastmile_qr_scan"}, "is_disabled": 0, "fusion_lat": 0.0, "name": "ce80ba7a3ecdfa4ea52cec2ef4b029e7", "fusion_lon": 0.0}, {"is_reserved": 0, "type": "electric_scooter", "bike_id": "30ef0105591a527b8b3f57c10c719630", "lat": 38.90039483333334, "lon": -77.00197866666667, "rental_uris": {"android": "https://dc.lft.to/lastmile_qr_scan", "ios": "https://dc.lft.to/lastmile_qr_scan"}, "is_disabled": 0, "fusion_lat": 0.0, "name": "30ef0105591a527b8b3f57c10c719630", "fusion_lon": 0.0}, {"is_reserved": 0, "type": "electric_scooter", "bike_id": "6a981bdb934a625a6e0a610246d14081", "lat": 38.899335666666666, "lon": -77.027003, "rental_uris": {"android": "https://dc.lft.to/lastmile_qr_scan", "ios": "https://dc.lft.to/lastmile_qr_scan"}, "is_disabled": 0, "fusion_lat": 0.0, "name": "6a981bdb934a625a6e0a610246d14081", "fusion_lon": 0.0}, {"is_reserved": 0, "type": "electric_scooter", "bike_id": "d28f46e325070cbea2db55309237012e", "lat": 38.924064333333334, "lon": -77.02982883333334, "rental_uris": {"android": "https://dc.lft.to/lastmile_qr_scan", "ios": "https://dc.lft.to/lastmile_qr_scan"}, "is_disabled": 0, "fusion_lat": 0.0, "name": "d28f46e325070cbea2db55309237012e", "fusion_lon": 0.0}, {"is_reserved": 0, "type": "electric_scooter", "bike_id": "383cec417ca3603ab9fb6f441a8778eb", "lat": 38.949754666666664, "lon": -77.02440683333333, "rental_uris": {"android": "https://dc.lft.to/lastmile_qr_scan", "ios": "https://dc.lft.to/lastmile_qr_scan"}, "is_disabled": 0, "fusion_lat": 0.0, "name": "383cec417ca3603ab9fb6f441a8778eb", "fusion_lon": 0.0}, {"is_reserved": 0, "type": "electric_scooter", "bike_id": "edc59b293d9c18d3a13bc93362ad1f88", "lat": 38.8952805, "lon": -77.01116966666666, "rental_uris": {"android": "https://dc.lft.to/lastmile_qr_scan", "ios": "https://dc.lft.to/lastmile_qr_scan"}, "is_disabled": 0, "fusion_lat": 0.0, "name": "edc59b293d9c18d3a13bc93362ad1f88", "fusion_lon": 0.0}, {"is_reserved": 0, "type": "electric_scooter", "bike_id": "d8934e14334a89995aa7dc04ffccb6f8", "lat": 38.889069, "lon": -76.97735433333334, "rental_uris": {"android": "https://dc.lft.to/lastmile_qr_scan", "ios": "https://dc.lft.to/lastmile_qr_scan"}, "is_disabled": 0, "fusion_lat": 0.0, "name": "d8934e14334a89995aa7dc04ffccb6f8", "fusion_lon": 0.0}, {"is_reserved": 0, "type": "electric_scooter", "bike_id": "eaf763df2afd8b782edd7e6702027a64", "lat": 38.906861, "lon": -77.0101545, "rental_uris": {"android": "https://dc.lft.to/lastmile_qr_scan", "ios": "https://dc.lft.to/lastmile_qr_scan"}, "is_disabled": 0, "fusion_lat": 0.0, "name": "eaf763df2afd8b782edd7e6702027a64", "fusion_lon": 0.0}, {"is_reserved": 0, "type": "electric_scooter", "bike_id": "ec0e0051ff82e3955b009ae37424bca5", "lat": 38.9005495, "lon": -77.04851233333333, "rental_uris": {"android": "https://dc.lft.to/lastmile_qr_scan", "ios": "https://dc.lft.to/lastmile_qr_scan"}, "is_disabled": 0, "fusion_lat": 0.0, "name": "ec0e0051ff82e3955b009ae37424bca5", "fusion_lon": 0.0}, {"is_reserved": 0, "type": "electric_scooter", "bike_id": "e45dbca7c52c6b4aae8bf9121aa657d0", "lat": 38.881784333333336, "lon": -77.01768283333334, "rental_uris": {"android": "https://dc.lft.to/lastmile_qr_scan", "ios": "https://dc.lft.to/lastmile_qr_scan"}, "is_disabled": 0, "fusion_lat": 0.0, "name": "e45dbca7c52c6b4aae8bf9121aa657d0", "fusion_lon": 0.0}, {"is_reserved": 0, "type": "electric_scooter", "bike_id": "66aa24d5047e930e97b5b15acee38c7b", "lat": 38.920285166666666, "lon": -77.01032516666666, "rental_uris": {"android": "https://dc.lft.to/lastmile_qr_scan", "ios": "https://dc.lft.to/lastmile_qr_scan"}, "is_disabled": 0, "fusion_lat": 0.0, "name": "66aa24d5047e930e97b5b15acee38c7b", "fusion_lon": 0.0}, {"is_reserved": 0, "type": "electric_scooter", "bike_id": "ddecde003c717f470bc4aac35a43088f", "lat": 38.91331783333333, "lon": -77.05003366666666, "rental_uris": {"android": "https://dc.lft.to/lastmile_qr_scan", "ios": "https://dc.lft.to/lastmile_qr_scan"}, "is_disabled": 0, "fusion_lat": 0.0, "name": "ddecde003c717f470bc4aac35a43088f", "fusion_lon": 0.0}, {"is_reserved": 0, "type": "electric_scooter", "bike_id": "f6946a96b29c65884059de63f3df26d9", "lat": 38.92073966666667, "lon": -77.07460266666666, "rental_uris": {"android": "https://dc.lft.to/lastmile_qr_scan", "ios": "https://dc.lft.to/lastmile_qr_scan"}, "is_disabled": 0, "fusion_lat": 0.0, "name": "f6946a96b29c65884059de63f3df26d9", "fusion_lon": 0.0}, {"is_reserved": 0, "type": "electric_scooter", "bike_id": "2517bb18db6640a8e28389a965aa5815", "lat": 38.92086833333333, "lon": -77.03725716666666, "rental_uris": {"android": "https://dc.lft.to/lastmile_qr_scan", "ios": "https://dc.lft.to/lastmile_qr_scan"}, "is_disabled": 0, "fusion_lat": 0.0, "name": "2517bb18db6640a8e28389a965aa5815", "fusion_lon": 0.0}, {"is_reserved": 0, "type": "electric_scooter", "bike_id": "cbfe0c276c1444dd6c3b622a1ad34cf2", "lat": 38.904036, "lon": -77.025209, "rental_uris": {"android": "https://dc.lft.to/lastmile_qr_scan", "ios": "https://dc.lft.to/lastmile_qr_scan"}, "is_disabled": 0, "fusion_lat": 0.0, "name": "cbfe0c276c1444dd6c3b622a1ad34cf2", "fusion_lon": 0.0}, {"is_reserved": 0, "type": "electric_scooter", "bike_id": "e6a13d4e17222441d6bfc1a820496412", "lat": 38.9125855, "lon": -77.0302845, "rental_uris": {"android": "https://dc.lft.to/lastmile_qr_scan", "ios": "https://dc.lft.to/lastmile_qr_scan"}, "is_disabled": 0, "fusion_lat": 0.0, "name": "e6a13d4e17222441d6bfc1a820496412", "fusion_lon": 0.0}, {"is_reserved": 0, "type": "electric_scooter", "bike_id": "339fb100c51c89963d96eb2f9e3fc88c", "lat": 38.886101333333336, "lon": -76.99655616666666, "rental_uris": {"android": "https://dc.lft.to/lastmile_qr_scan", "ios": "https://dc.lft.to/lastmile_qr_scan"}, "is_disabled": 0, "fusion_lat": 0.0, "name": "339fb100c51c89963d96eb2f9e3fc88c", "fusion_lon": 0.0}, {"is_reserved": 0, "type": "electric_scooter", "bike_id": "3b584326f670cf10576ef7bc8418fd08", "lat": 38.92855266666667, "lon": -77.02993883333333, "rental_uris": {"android": "https://dc.lft.to/lastmile_qr_scan", "ios": "https://dc.lft.to/lastmile_qr_scan"}, "is_disabled": 0, "fusion_lat": 0.0, "name": "3b584326f670cf10576ef7bc8418fd08", "fusion_lon": 0.0}, {"is_reserved": 0, "type": "electric_scooter", "bike_id": "e395649179701c696bbba522e55317e3", "lat": 38.892777333333335, "lon": -76.92921116666666, "rental_uris": {"android": "https://dc.lft.to/lastmile_qr_scan", "ios": "https://dc.lft.to/lastmile_qr_scan"}, "is_disabled": 0, "fusion_lat": 0.0, "name": "e395649179701c696bbba522e55317e3", "fusion_lon": 0.0}, {"is_reserved": 0, "type": "electric_scooter", "bike_id": "bb42393019294c1fbb6f62cd5b2ce2d2", "lat": 38.92367616666667, "lon": -77.02803183333333, "rental_uris": {"android": "https://dc.lft.to/lastmile_qr_scan", "ios": "https://dc.lft.to/lastmile_qr_scan"}, "is_disabled": 0, "fusion_lat": 0.0, "name": "bb42393019294c1fbb6f62cd5b2ce2d2", "fusion_lon": 0.0}, {"is_reserved": 0, "type": "electric_scooter", "bike_id": "9c0299787dcf0c40c57c01d7ab35e442", "lat": 38.9214945, "lon": -77.0351035, "rental_uris": {"android": "https://dc.lft.to/lastmile_qr_scan", "ios": "https://dc.lft.to/lastmile_qr_scan"}, "is_disabled": 0, "fusion_lat": 0.0, "name": "9c0299787dcf0c40c57c01d7ab35e442", "fusion_lon": 0.0}, {"is_reserved": 0, "type": "electric_scooter", "bike_id": "cb7042db0f91b7742c396db43aa0111e", "lat": 38.91089016666667, "lon": -77.042426, "rental_uris": {"android": "https://dc.lft.to/lastmile_qr_scan", "ios": "https://dc.lft.to/lastmile_qr_scan"}, "is_disabled": 0, "fusion_lat": 0.0, "name": "cb7042db0f91b7742c396db43aa0111e", "fusion_lon": 0.0}, {"is_reserved": 0, "type": "electric_scooter", "bike_id": "abd0165aea19d59183c8a9c51f59d3dd", "lat": 38.920938666666665, "lon": -77.0325225, "rental_uris": {"android": "https://dc.lft.to/lastmile_qr_scan", "ios": "https://dc.lft.to/lastmile_qr_scan"}, "is_disabled": 0, "fusion_lat": 0.0, "name": "abd0165aea19d59183c8a9c51f59d3dd", "fusion_lon": 0.0}, {"is_reserved": 0, "type": "electric_scooter", "bike_id": "d0b05c992c82320338de35d2c569c778", "lat": 38.8729745, "lon": -77.01558183333333, "rental_uris": {"android": "https://dc.lft.to/lastmile_qr_scan", "ios": "https://dc.lft.to/lastmile_qr_scan"}, "is_disabled": 0, "fusion_lat": 0.0, "name": "d0b05c992c82320338de35d2c569c778", "fusion_lon": 0.0}, {"is_reserved": 0, "type": "electric_scooter", "bike_id": "7bdc4bf927e1a804fbaf633249197e3a", "lat": 38.930214666666664, "lon": -77.03796033333333, "rental_uris": {"android": "https://dc.lft.to/lastmile_qr_scan", "ios": "https://dc.lft.to/lastmile_qr_scan"}, "is_disabled": 0, "fusion_lat": 0.0, "name": "7bdc4bf927e1a804fbaf633249197e3a", "fusion_lon": 0.0}, {"is_reserved": 0, "type": "electric_scooter", "bike_id": "99be01c1843bc5600e961e0bf7e37d59", "lat": 38.8845805, "lon": -76.9262165, "rental_uris": {"android": "https://dc.lft.to/lastmile_qr_scan", "ios": "https://dc.lft.to/lastmile_qr_scan"}, "is_disabled": 0, "fusion_lat": 0.0, "name": "99be01c1843bc5600e961e0bf7e37d59", "fusion_lon": 0.0}, {"is_reserved": 0, "type": "electric_scooter", "bike_id": "2b361a18a151ed8907b3ee399da79fe9", "lat": 38.921057166666664, "lon": -77.0178015, "rental_uris": {"android": "https://dc.lft.to/lastmile_qr_scan", "ios": "https://dc.lft.to/lastmile_qr_scan"}, "is_disabled": 0, "fusion_lat": 0.0, "name": "2b361a18a151ed8907b3ee399da79fe9", "fusion_lon": 0.0}, {"is_reserved": 0, "type": "electric_scooter", "bike_id": "772f4dc655711a6a21c3940db1cbbdc6", "lat": 38.919269666666665, "lon": -77.01975383333334, "rental_uris": {"android": "https://dc.lft.to/lastmile_qr_scan", "ios": "https://dc.lft.to/lastmile_qr_scan"}, "is_disabled": 0, "fusion_lat": 0.0, "name": "772f4dc655711a6a21c3940db1cbbdc6", "fusion_lon": 0.0}, {"is_reserved": 0, "type": "electric_scooter", "bike_id": "daa597374850a416ac51a3c587e956c0", "lat": 38.9052175, "lon": -77.0502825, "rental_uris": {"android": "https://dc.lft.to/lastmile_qr_scan", "ios": "https://dc.lft.to/lastmile_qr_scan"}, "is_disabled": 0, "fusion_lat": 0.0, "name": "daa597374850a416ac51a3c587e956c0", "fusion_lon": 0.0}, {"is_reserved": 0, "type": "electric_scooter", "bike_id": "99efc84f5f9e0f867be7925214379356", "lat": 38.930595, "lon": -77.04223383333333, "rental_uris": {"android": "https://dc.lft.to/lastmile_qr_scan", "ios": "https://dc.lft.to/lastmile_qr_scan"}, "is_disabled": 0, "fusion_lat": 0.0, "name": "99efc84f5f9e0f867be7925214379356", "fusion_lon": 0.0}, {"is_reserved": 0, "type": "electric_bike", "bike_id": "15e5971aa73d0fc73dae197d8d323dfa", "lat": 39.0944335, "lon": -77.13467383333334, "rental_uris": {"android": "https://dc.lft.to/lastmile_qr_scan", "ios": "https://dc.lft.to/lastmile_qr_scan"}, "is_disabled": 0, "fusion_lat": 0.0, "name": "15e5971aa73d0fc73dae197d8d323dfa", "fusion_lon": 0.0}, {"is_reserved": 0, "type": "electric_bike", "bike_id": "16f03dc870d2c4fea13bb013fc0fa202", "lat": 38.898534, "lon": -76.931895, "rental_uris": {"android": "https://dc.lft.to/lastmile_qr_scan", "ios": "https://dc.lft.to/lastmile_qr_scan"}, "is_disabled": 0, "fusion_lat": 0.0, "name": "16f03dc870d2c4fea13bb013fc0fa202", "fusion_lon": 0.0}, {"is_reserved": 0, "type": "electric_scooter", "bike_id": "2a1caa5e0d1c549f9f244e25a6b3f5b5", "lat": 38.9219525, "lon": -77.0183025, "rental_uris": {"android": "https://dc.lft.to/lastmile_qr_scan", "ios": "https://dc.lft.to/lastmile_qr_scan"}, "is_disabled": 0, "fusion_lat": 0.0, "name": "2a1caa5e0d1c549f9f244e25a6b3f5b5", "fusion_lon": 0.0}, {"is_reserved": 0, "type": "electric_scooter", "bike_id": "72314fc69ec820ce1cd94b680ae129f3", "lat": 38.87607366666667, "lon": -77.00260433333334, "rental_uris": {"android": "https://dc.lft.to/lastmile_qr_scan", "ios": "https://dc.lft.to/lastmile_qr_scan"}, "is_disabled": 0, "fusion_lat": 0.0, "name": "72314fc69ec820ce1cd94b680ae129f3", "fusion_lon": 0.0}, {"is_reserved": 0, "type": "electric_scooter", "bike_id": "39e2d73aa47d1f98e308773630a7176d", "lat": 38.927978333333336, "lon": -77.035997, "rental_uris": {"android": "https://dc.lft.to/lastmile_qr_scan", "ios": "https://dc.lft.to/lastmile_qr_scan"}, "is_disabled": 0, "fusion_lat": 0.0, "name": "39e2d73aa47d1f98e308773630a7176d", "fusion_lon": 0.0}, {"is_reserved": 0, "type": "electric_scooter", "bike_id": "a6df6e599b329daa3d2aa0e2cd9088d1", "lat": 38.927428, "lon": -77.069591, "rental_uris": {"android": "https://dc.lft.to/lastmile_qr_scan", "ios": "https://dc.lft.to/lastmile_qr_scan"}, "is_disabled": 0, "fusion_lat": 0.0, "name": "a6df6e599b329daa3d2aa0e2cd9088d1", "fusion_lon": 0.0}, {"is_reserved": 0, "type": "electric_scooter", "bike_id": "852806100c966ced7d935f8190f7454c", "lat": 38.8645015, "lon": -76.99124, "rental_uris": {"android": "https://dc.lft.to/lastmile_qr_scan", "ios": "https://dc.lft.to/lastmile_qr_scan"}, "is_disabled": 0, "fusion_lat": 0.0, "name": "852806100c966ced7d935f8190f7454c", "fusion_lon": 0.0}, {"is_reserved": 0, "type": "electric_scooter", "bike_id": "f0a4cd3c6d6b432f02b5ca9546dc8ef7", "lat": 38.905665166666665, "lon": -77.05129166666667, "rental_uris": {"android": "https://dc.lft.to/lastmile_qr_scan", "ios": "https://dc.lft.to/lastmile_qr_scan"}, "is_disabled": 0, "fusion_lat": 0.0, "name": "f0a4cd3c6d6b432f02b5ca9546dc8ef7", "fusion_lon": 0.0}, {"is_reserved": 0, "type": "electric_scooter", "bike_id": "17529b49bd158c33a13b5da59b966e13", "lat": 38.91114816666666, "lon": -77.03303533333333, "rental_uris": {"android": "https://dc.lft.to/lastmile_qr_scan", "ios": "https://dc.lft.to/lastmile_qr_scan"}, "is_disabled": 0, "fusion_lat": 0.0, "name": "17529b49bd158c33a13b5da59b966e13", "fusion_lon": 0.0}, {"is_reserved": 0, "type": "electric_scooter", "bike_id": "93b9040559f26a86ca29ec0d477c3c0b", "lat": 38.9729595, "lon": -77.03628116666667, "rental_uris": {"android": "https://dc.lft.to/lastmile_qr_scan", "ios": "https://dc.lft.to/lastmile_qr_scan"}, "is_disabled": 0, "fusion_lat": 0.0, "name": "93b9040559f26a86ca29ec0d477c3c0b", "fusion_lon": 0.0}, {"is_reserved": 0, "type": "electric_scooter", "bike_id": "1241022561327c77749441efead71063", "lat": 38.918204333333335, "lon": -77.032135, "rental_uris": {"android": "https://dc.lft.to/lastmile_qr_scan", "ios": "https://dc.lft.to/lastmile_qr_scan"}, "is_disabled": 0, "fusion_lat": 0.0, "name": "1241022561327c77749441efead71063", "fusion_lon": 0.0}, {"is_reserved": 0, "type": "electric_scooter", "bike_id": "017f84f888b29699f4b3a2bd2172ab9a", "lat": 38.9098155, "lon": -77.034691, "rental_uris": {"android": "https://dc.lft.to/lastmile_qr_scan", "ios": "https://dc.lft.to/lastmile_qr_scan"}, "is_disabled": 0, "fusion_lat": 0.0, "name": "017f84f888b29699f4b3a2bd2172ab9a", "fusion_lon": 0.0}, {"is_reserved": 0, "type": "electric_bike", "bike_id": "9aaef847db9bc98b671c1e2d0195dd59", "lat": 39.010941833333334, "lon": -77.04956583333333, "rental_uris": {"android": "https://dc.lft.to/lastmile_qr_scan", "ios": "https://dc.lft.to/lastmile_qr_scan"}, "is_disabled": 0, "fusion_lat": 0.0, "name": "9aaef847db9bc98b671c1e2d0195dd59", "fusion_lon": 0.0}, {"is_reserved": 0, "type": "electric_scooter", "bike_id": "8013253d396ce69f9e0fdc7c7ffea8e8", "lat": 38.92983516666666, "lon": -77.037964, "rental_uris": {"android": "https://dc.lft.to/lastmile_qr_scan", "ios": "https://dc.lft.to/lastmile_qr_scan"}, "is_disabled": 0, "fusion_lat": 0.0, "name": "8013253d396ce69f9e0fdc7c7ffea8e8", "fusion_lon": 0.0}, {"is_reserved": 0, "type": "electric_scooter", "bike_id": "967a9139665f91820ac0878f092004a5", "lat": 38.9049955, "lon": -77.0294835, "rental_uris": {"android": "https://dc.lft.to/lastmile_qr_scan", "ios": "https://dc.lft.to/lastmile_qr_scan"}, "is_disabled": 0, "fusion_lat": 0.0, "name": "967a9139665f91820ac0878f092004a5", "fusion_lon": 0.0}, {"is_reserved": 0, "type": "electric_bike", "bike_id": "86053a77dd6cee727c7ce966f99162b8", "lat": 38.9999925, "lon": -76.9180525, "rental_uris": {"android": "https://dc.lft.to/lastmile_qr_scan", "ios": "https://dc.lft.to/lastmile_qr_scan"}, "is_disabled": 0, "fusion_lat": 0.0, "name": "86053a77dd6cee727c7ce966f99162b8", "fusion_lon": 0.0}, {"is_reserved": 0, "type": "electric_scooter", "bike_id": "7a4bf4544c8855b2ea1d8100cbedd601", "lat": 38.90965466666667, "lon": -77.03250516666667, "rental_uris": {"android": "https://dc.lft.to/lastmile_qr_scan", "ios": "https://dc.lft.to/lastmile_qr_scan"}, "is_disabled": 0, "fusion_lat": 0.0, "name": "7a4bf4544c8855b2ea1d8100cbedd601", "fusion_lon": 0.0}, {"is_reserved": 0, "type": "electric_bike", "bike_id": "261d1a62fa86a384d74faf360eddb818", "lat": 38.8742215, "lon": -77.085694, "rental_uris": {"android": "https://dc.lft.to/lastmile_qr_scan", "ios": "https://dc.lft.to/lastmile_qr_scan"}, "is_disabled": 0, "fusion_lat": 0.0, "name": "261d1a62fa86a384d74faf360eddb818", "fusion_lon": 0.0}, {"is_reserved": 0, "type": "electric_bike", "bike_id": "43176aa25d07d292e71cadacd8b1d3cd", "lat": 38.927394166666666, "lon": -76.99364133333333, "rental_uris": {"android": "https://dc.lft.to/lastmile_qr_scan", "ios": "https://dc.lft.to/lastmile_qr_scan"}, "is_disabled": 0, "fusion_lat": 0.0, "name": "43176aa25d07d292e71cadacd8b1d3cd", "fusion_lon": 0.0}, {"is_reserved": 0, "type": "electric_scooter", "bike_id": "fae598a2e0f97565c99759084939f1ff", "lat": 38.90386933333333, "lon": -77.03035933333334, "rental_uris": {"android": "https://dc.lft.to/lastmile_qr_scan", "ios": "https://dc.lft.to/lastmile_qr_scan"}, "is_disabled": 0, "fusion_lat": 0.0, "name": "fae598a2e0f97565c99759084939f1ff", "fusion_lon": 0.0}, {"is_reserved": 0, "type": "electric_scooter", "bike_id": "ab7e7675c8187a9c0958409c8579bee4", "lat": 38.9181665, "lon": -77.03203366666666, "rental_uris": {"android": "https://dc.lft.to/lastmile_qr_scan", "ios": "https://dc.lft.to/lastmile_qr_scan"}, "is_disabled": 0, "fusion_lat": 0.0, "name": "ab7e7675c8187a9c0958409c8579bee4", "fusion_lon": 0.0}, {"is_reserved": 0, "type": "electric_bike", "bike_id": "e4560df5c3955a753752238609ed7945", "lat": 38.86329833333333, "lon": -76.987222, "rental_uris": {"android": "https://dc.lft.to/lastmile_qr_scan", "ios": "https://dc.lft.to/lastmile_qr_scan"}, "is_disabled": 0, "fusion_lat": 0.0, "name": "e4560df5c3955a753752238609ed7945", "fusion_lon": 0.0}, {"is_reserved": 0, "type": "electric_scooter", "bike_id": "31c97b7f1dcf4a4a17697e7270000976", "lat": 38.90729183333333, "lon": -77.0489075, "rental_uris": {"android": "https://dc.lft.to/lastmile_qr_scan", "ios": "https://dc.lft.to/lastmile_qr_scan"}, "is_disabled": 0, "fusion_lat": 0.0, "name": "31c97b7f1dcf4a4a17697e7270000976", "fusion_lon": 0.0}, {"is_reserved": 0, "type": "electric_scooter", "bike_id": "8afda9b958262943fe20700d5b658527", "lat": 38.892175, "lon": -77.03151483333333, "rental_uris": {"android": "https://dc.lft.to/lastmile_qr_scan", "ios": "https://dc.lft.to/lastmile_qr_scan"}, "is_disabled": 0, "fusion_lat": 0.0, "name": "8afda9b958262943fe20700d5b658527", "fusion_lon": 0.0}, {"is_reserved": 0, "type": "electric_scooter", "bike_id": "c650918eb8b4507c7d2a1140464751fc", "lat": 38.84812316666667, "lon": -76.97815883333334, "rental_uris": {"android": "https://dc.lft.to/lastmile_qr_scan", "ios": "https://dc.lft.to/lastmile_qr_scan"}, "is_disabled": 0, "fusion_lat": 0.0, "name": "c650918eb8b4507c7d2a1140464751fc", "fusion_lon": 0.0}, {"is_reserved": 0, "type": "electric_scooter", "bike_id": "f725513407384973912ce319c3455a1a", "lat": 38.92763766666667, "lon": -77.02883283333334, "rental_uris": {"android": "https://dc.lft.to/lastmile_qr_scan", "ios": "https://dc.lft.to/lastmile_qr_scan"}, "is_disabled": 0, "fusion_lat": 0.0, "name": "f725513407384973912ce319c3455a1a", "fusion_lon": 0.0}, {"is_reserved": 0, "type": "electric_scooter", "bike_id": "bf4cb8e90195cf292d6ddb67e0754946", "lat": 38.92616783333333, "lon": -77.0379075, "rental_uris": {"android": "https://dc.lft.to/lastmile_qr_scan", "ios": "https://dc.lft.to/lastmile_qr_scan"}, "is_disabled": 0, "fusion_lat": 0.0, "name": "bf4cb8e90195cf292d6ddb67e0754946", "fusion_lon": 0.0}, {"is_reserved": 0, "type": "electric_scooter", "bike_id": "bd9ce0d1b8ea1381ee51135166ebc477", "lat": 38.92548216666667, "lon": -77.03264116666666, "rental_uris": {"android": "https://dc.lft.to/lastmile_qr_scan", "ios": "https://dc.lft.to/lastmile_qr_scan"}, "is_disabled": 0, "fusion_lat": 0.0, "name": "bd9ce0d1b8ea1381ee51135166ebc477", "fusion_lon": 0.0}, {"is_reserved": 0, "type": "electric_bike", "bike_id": "fecfa2b24565fdcc1064d42c69535c2d", "lat": 38.803831333333335, "lon": -76.9881365, "rental_uris": {"android": "https://dc.lft.to/lastmile_qr_scan", "ios": "https://dc.lft.to/lastmile_qr_scan"}, "is_disabled": 0, "fusion_lat": 0.0, "name": "fecfa2b24565fdcc1064d42c69535c2d", "fusion_lon": 0.0}, {"is_reserved": 0, "type": "electric_scooter", "bike_id": "84caecf06c65edece25d969b7d3d50f2", "lat": 38.903745666666666, "lon": -77.04182316666666, "rental_uris": {"android": "https://dc.lft.to/lastmile_qr_scan", "ios": "https://dc.lft.to/lastmile_qr_scan"}, "is_disabled": 0, "fusion_lat": 0.0, "name": "84caecf06c65edece25d969b7d3d50f2", "fusion_lon": 0.0}, {"is_reserved": 0, "type": "electric_scooter", "bike_id": "3dd4b5b1776cdbb7609cb8c5b8b8045d", "lat": 38.923176, "lon": -77.04511116666667, "rental_uris": {"android": "https://dc.lft.to/lastmile_qr_scan", "ios": "https://dc.lft.to/lastmile_qr_scan"}, "is_disabled": 0, "fusion_lat": 0.0, "name": "3dd4b5b1776cdbb7609cb8c5b8b8045d", "fusion_lon": 0.0}, {"is_reserved": 0, "type": "electric_scooter", "bike_id": "6565e738df7aa76b73fbf2c13be253ef", "lat": 38.921518166666665, "lon": -77.03871333333333, "rental_uris": {"android": "https://dc.lft.to/lastmile_qr_scan", "ios": "https://dc.lft.to/lastmile_qr_scan"}, "is_disabled": 0, "fusion_lat": 0.0, "name": "6565e738df7aa76b73fbf2c13be253ef", "fusion_lon": 0.0}, {"is_reserved": 0, "type": "electric_scooter", "bike_id": "94ff1f93f81ce38e3022a70c6162a8ce", "lat": 38.90554683333333, "lon": -77.005883, "rental_uris": {"android": "https://dc.lft.to/lastmile_qr_scan", "ios": "https://dc.lft.to/lastmile_qr_scan"}, "is_disabled": 0, "fusion_lat": 0.0, "name": "94ff1f93f81ce38e3022a70c6162a8ce", "fusion_lon": 0.0}, {"is_reserved": 0, "type": "electric_scooter", "bike_id": "1758267d174eb78bed7a93c5882ed459", "lat": 38.9074865, "lon": -77.007632, "rental_uris": {"android": "https://dc.lft.to/lastmile_qr_scan", "ios": "https://dc.lft.to/lastmile_qr_scan"}, "is_disabled": 0, "fusion_lat": 0.0, "name": "1758267d174eb78bed7a93c5882ed459", "fusion_lon": 0.0}, {"is_reserved": 0, "type": "electric_scooter", "bike_id": "03caed28bad156d23491672733fdafcc", "lat": 38.93529783333334, "lon": -77.02843516666667, "rental_uris": {"android": "https://dc.lft.to/lastmile_qr_scan", "ios": "https://dc.lft.to/lastmile_qr_scan"}, "is_disabled": 0, "fusion_lat": 0.0, "name": "03caed28bad156d23491672733fdafcc", "fusion_lon": 0.0}, {"is_reserved": 0, "type": "electric_scooter", "bike_id": "0fa3d8cbc9ffa6553e5bc7ad8578ed2f", "lat": 38.8991975, "lon": -77.03385133333333, "rental_uris": {"android": "https://dc.lft.to/lastmile_qr_scan", "ios": "https://dc.lft.to/lastmile_qr_scan"}, "is_disabled": 0, "fusion_lat": 0.0, "name": "0fa3d8cbc9ffa6553e5bc7ad8578ed2f", "fusion_lon": 0.0}, {"is_reserved": 0, "type": "electric_scooter", "bike_id": "88876a348f1929f91b2bbf26398103cb", "lat": 38.90284233333333, "lon": -77.0365405, "rental_uris": {"android": "https://dc.lft.to/lastmile_qr_scan", "ios": "https://dc.lft.to/lastmile_qr_scan"}, "is_disabled": 0, "fusion_lat": 0.0, "name": "88876a348f1929f91b2bbf26398103cb", "fusion_lon": 0.0}, {"is_reserved": 0, "type": "electric_scooter", "bike_id": "af0a145e1f3154eb78858b2f1f731a0e", "lat": 38.92752516666667, "lon": -77.0536995, "rental_uris": {"android": "https://dc.lft.to/lastmile_qr_scan", "ios": "https://dc.lft.to/lastmile_qr_scan"}, "is_disabled": 0, "fusion_lat": 0.0, "name": "af0a145e1f3154eb78858b2f1f731a0e", "fusion_lon": 0.0}, {"is_reserved": 0, "type": "electric_scooter", "bike_id": "22dabe8613b68d6adfa7e0e8070f9ec1", "lat": 38.9181365, "lon": -77.03132133333334, "rental_uris": {"android": "https://dc.lft.to/lastmile_qr_scan", "ios": "https://dc.lft.to/lastmile_qr_scan"}, "is_disabled": 0, "fusion_lat": 0.0, "name": "22dabe8613b68d6adfa7e0e8070f9ec1", "fusion_lon": 0.0}, {"is_reserved": 0, "type": "electric_scooter", "bike_id": "558c8d698c7ebc1d1dd023cfb0900d86", "lat": 38.8844785, "lon": -77.02507916666667, "rental_uris": {"android": "https://dc.lft.to/lastmile_qr_scan", "ios": "https://dc.lft.to/lastmile_qr_scan"}, "is_disabled": 0, "fusion_lat": 0.0, "name": "558c8d698c7ebc1d1dd023cfb0900d86", "fusion_lon": 0.0}, {"is_reserved": 0, "type": "electric_scooter", "bike_id": "9269704a6740616af2b8be5c2b54c092", "lat": 38.8749735, "lon": -77.00328483333334, "rental_uris": {"android": "https://dc.lft.to/lastmile_qr_scan", "ios": "https://dc.lft.to/lastmile_qr_scan"}, "is_disabled": 0, "fusion_lat": 0.0, "name": "9269704a6740616af2b8be5c2b54c092", "fusion_lon": 0.0}, {"is_reserved": 0, "type": "electric_scooter", "bike_id": "a04bea1ce02d5297a9ed8d68a849d8bd", "lat": 38.91737633333334, "lon": -77.01717516666666, "rental_uris": {"android": "https://dc.lft.to/lastmile_qr_scan", "ios": "https://dc.lft.to/lastmile_qr_scan"}, "is_disabled": 0, "fusion_lat": 0.0, "name": "a04bea1ce02d5297a9ed8d68a849d8bd", "fusion_lon": 0.0}, {"is_reserved": 0, "type": "electric_scooter", "bike_id": "cf3f31e0600b0fa355e70aae290a9bbf", "lat": 38.9179695, "lon": -77.02712183333334, "rental_uris": {"android": "https://dc.lft.to/lastmile_qr_scan", "ios": "https://dc.lft.to/lastmile_qr_scan"}, "is_disabled": 0, "fusion_lat": 0.0, "name": "cf3f31e0600b0fa355e70aae290a9bbf", "fusion_lon": 0.0}, {"is_reserved": 0, "type": "electric_scooter", "bike_id": "5cd3f1e804337bc5206912720612a9dc", "lat": 38.92863883333333, "lon": -77.05666583333333, "rental_uris": {"android": "https://dc.lft.to/lastmile_qr_scan", "ios": "https://dc.lft.to/lastmile_qr_scan"}, "is_disabled": 0, "fusion_lat": 0.0, "name": "5cd3f1e804337bc5206912720612a9dc", "fusion_lon": 0.0}, {"is_reserved": 0, "type": "electric_scooter", "bike_id": "b43d5d5e3f8c150f6a9709aec45cf737", "lat": 38.92646966666667, "lon": -77.02729716666667, "rental_uris": {"android": "https://dc.lft.to/lastmile_qr_scan", "ios": "https://dc.lft.to/lastmile_qr_scan"}, "is_disabled": 0, "fusion_lat": 0.0, "name": "b43d5d5e3f8c150f6a9709aec45cf737", "fusion_lon": 0.0}, {"is_reserved": 0, "type": "electric_scooter", "bike_id": "90432ede4c93ca57354b4f78455f3f8e", "lat": 38.91996666666667, "lon": -77.01803583333333, "rental_uris": {"android": "https://dc.lft.to/lastmile_qr_scan", "ios": "https://dc.lft.to/lastmile_qr_scan"}, "is_disabled": 0, "fusion_lat": 0.0, "name": "90432ede4c93ca57354b4f78455f3f8e", "fusion_lon": 0.0}, {"is_reserved": 0, "type": "electric_scooter", "bike_id": "3d3706ff705be106004760abaa9b529e", "lat": 38.895432166666666, "lon": -76.983359, "rental_uris": {"android": "https://dc.lft.to/lastmile_qr_scan", "ios": "https://dc.lft.to/lastmile_qr_scan"}, "is_disabled": 0, "fusion_lat": 0.0, "name": "3d3706ff705be106004760abaa9b529e", "fusion_lon": 0.0}, {"is_reserved": 0, "type": "electric_scooter", "bike_id": "806802b43ecac5d42a7ebd13d9adf82d", "lat": 38.875028666666665, "lon": -77.00048716666667, "rental_uris": {"android": "https://dc.lft.to/lastmile_qr_scan", "ios": "https://dc.lft.to/lastmile_qr_scan"}, "is_disabled": 0, "fusion_lat": 0.0, "name": "806802b43ecac5d42a7ebd13d9adf82d", "fusion_lon": 0.0}, {"is_reserved": 0, "type": "electric_scooter", "bike_id": "66383a19a80f0ce69318457418d03615", "lat": 38.91948716666667, "lon": -77.0288695, "rental_uris": {"android": "https://dc.lft.to/lastmile_qr_scan", "ios": "https://dc.lft.to/lastmile_qr_scan"}, "is_disabled": 0, "fusion_lat": 0.0, "name": "66383a19a80f0ce69318457418d03615", "fusion_lon": 0.0}, {"is_reserved": 0, "type": "electric_scooter", "bike_id": "5af47579eebecd6b8c0217b7a628660f", "lat": 38.92118716666667, "lon": -77.03170533333333, "rental_uris": {"android": "https://dc.lft.to/lastmile_qr_scan", "ios": "https://dc.lft.to/lastmile_qr_scan"}, "is_disabled": 0, "fusion_lat": 0.0, "name": "5af47579eebecd6b8c0217b7a628660f", "fusion_lon": 0.0}, {"is_reserved": 0, "type": "electric_bike", "bike_id": "ec9c81a1b4bd23bd05945bdaa941a5c9", "lat": 38.906928666666666, "lon": -76.95253016666666, "rental_uris": {"android": "https://dc.lft.to/lastmile_qr_scan", "ios": "https://dc.lft.to/lastmile_qr_scan"}, "is_disabled": 0, "fusion_lat": 0.0, "name": "ec9c81a1b4bd23bd05945bdaa941a5c9", "fusion_lon": 0.0}, {"is_reserved": 0, "type": "electric_scooter", "bike_id": "6f3ef14e7654f21bd8f4faab95cfda27", "lat": 38.9168245, "lon": -77.03190783333334, "rental_uris": {"android": "https://dc.lft.to/lastmile_qr_scan", "ios": "https://dc.lft.to/lastmile_qr_scan"}, "is_disabled": 0, "fusion_lat": 0.0, "name": "6f3ef14e7654f21bd8f4faab95cfda27", "fusion_lon": 0.0}, {"is_reserved": 0, "type": "electric_scooter", "bike_id": "8fdb91ce55027986a113d4dac05d90dc", "lat": 38.940441666666665, "lon": -77.0250765, "rental_uris": {"android": "https://dc.lft.to/lastmile_qr_scan", "ios": "https://dc.lft.to/lastmile_qr_scan"}, "is_disabled": 0, "fusion_lat": 0.0, "name": "8fdb91ce55027986a113d4dac05d90dc", "fusion_lon": 0.0}, {"is_reserved": 0, "type": "electric_scooter", "bike_id": "937045f04745c7d1f10275ca60323ff2", "lat": 38.939767333333336, "lon": -77.05473366666666, "rental_uris": {"android": "https://dc.lft.to/lastmile_qr_scan", "ios": "https://dc.lft.to/lastmile_qr_scan"}, "is_disabled": 0, "fusion_lat": 0.0, "name": "937045f04745c7d1f10275ca60323ff2", "fusion_lon": 0.0}, {"is_reserved": 0, "type": "electric_scooter", "bike_id": "27c2eee04bf7494bd571a253214d5ab2", "lat": 38.91713466666667, "lon": -77.03862083333334, "rental_uris": {"android": "https://dc.lft.to/lastmile_qr_scan", "ios": "https://dc.lft.to/lastmile_qr_scan"}, "is_disabled": 0, "fusion_lat": 0.0, "name": "27c2eee04bf7494bd571a253214d5ab2", "fusion_lon": 0.0}, {"is_reserved": 0, "type": "electric_scooter", "bike_id": "de39705b2fc731108a7b28a9444b42af", "lat": 38.889714, "lon": -76.99942133333333, "rental_uris": {"android": "https://dc.lft.to/lastmile_qr_scan", "ios": "https://dc.lft.to/lastmile_qr_scan"}, "is_disabled": 0, "fusion_lat": 0.0, "name": "de39705b2fc731108a7b28a9444b42af", "fusion_lon": 0.0}, {"is_reserved": 0, "type": "electric_scooter", "bike_id": "5bad1d3a6cdadce600aced23c28e84df", "lat": 38.8923755, "lon": -77.04486416666667, "rental_uris": {"android": "https://dc.lft.to/lastmile_qr_scan", "ios": "https://dc.lft.to/lastmile_qr_scan"}, "is_disabled": 0, "fusion_lat": 0.0, "name": "5bad1d3a6cdadce600aced23c28e84df", "fusion_lon": 0.0}, {"is_reserved": 0, "type": "electric_scooter", "bike_id": "092c1c3ffe8342e83de4d52d5dadba45", "lat": 38.8923135, "lon": -77.03184583333334, "rental_uris": {"android": "https://dc.lft.to/lastmile_qr_scan", "ios": "https://dc.lft.to/lastmile_qr_scan"}, "is_disabled": 0, "fusion_lat": 0.0, "name": "092c1c3ffe8342e83de4d52d5dadba45", "fusion_lon": 0.0}, {"is_reserved": 0, "type": "electric_scooter", "bike_id": "9879e77771082866de3daa2596fdb5d4", "lat": 38.90000233333333, "lon": -76.9983625, "rental_uris": {"android": "https://dc.lft.to/lastmile_qr_scan", "ios": "https://dc.lft.to/lastmile_qr_scan"}, "is_disabled": 0, "fusion_lat": 0.0, "name": "9879e77771082866de3daa2596fdb5d4", "fusion_lon": 0.0}, {"is_reserved": 0, "type": "electric_scooter", "bike_id": "1814d8ab9e6191c3fe467cc1b9fca5c7", "lat": 38.9155125, "lon": -77.03311016666666, "rental_uris": {"android": "https://dc.lft.to/lastmile_qr_scan", "ios": "https://dc.lft.to/lastmile_qr_scan"}, "is_disabled": 0, "fusion_lat": 0.0, "name": "1814d8ab9e6191c3fe467cc1b9fca5c7", "fusion_lon": 0.0}, {"is_reserved": 0, "type": "electric_scooter", "bike_id": "00b867f454581f8aff52690f51a5a55a", "lat": 38.9237505, "lon": -77.03059333333333, "rental_uris": {"android": "https://dc.lft.to/lastmile_qr_scan", "ios": "https://dc.lft.to/lastmile_qr_scan"}, "is_disabled": 0, "fusion_lat": 0.0, "name": "00b867f454581f8aff52690f51a5a55a", "fusion_lon": 0.0}, {"is_reserved": 0, "type": "electric_scooter", "bike_id": "e56ff605e4b0848e157d7e4acafc0b43", "lat": 38.8992825, "lon": -77.03200466666667, "rental_uris": {"android": "https://dc.lft.to/lastmile_qr_scan", "ios": "https://dc.lft.to/lastmile_qr_scan"}, "is_disabled": 0, "fusion_lat": 0.0, "name": "e56ff605e4b0848e157d7e4acafc0b43", "fusion_lon": 0.0}, {"is_reserved": 0, "type": "electric_scooter", "bike_id": "d26ed6075f3b5c667d7d831e649106a3", "lat": 38.88152866666667, "lon": -76.99494516666667, "rental_uris": {"android": "https://dc.lft.to/lastmile_qr_scan", "ios": "https://dc.lft.to/lastmile_qr_scan"}, "is_disabled": 0, "fusion_lat": 0.0, "name": "d26ed6075f3b5c667d7d831e649106a3", "fusion_lon": 0.0}, {"is_reserved": 0, "type": "electric_scooter", "bike_id": "c8e4dddc3d3e23441d1ac81a111144ea", "lat": 38.87522966666667, "lon": -77.003451, "rental_uris": {"android": "https://dc.lft.to/lastmile_qr_scan", "ios": "https://dc.lft.to/lastmile_qr_scan"}, "is_disabled": 0, "fusion_lat": 0.0, "name": "c8e4dddc3d3e23441d1ac81a111144ea", "fusion_lon": 0.0}, {"is_reserved": 0, "type": "electric_scooter", "bike_id": "3c8291781920e739e2d27d8cb4911085", "lat": 38.92457916666667, "lon": -77.03289116666667, "rental_uris": {"android": "https://dc.lft.to/lastmile_qr_scan", "ios": "https://dc.lft.to/lastmile_qr_scan"}, "is_disabled": 0, "fusion_lat": 0.0, "name": "3c8291781920e739e2d27d8cb4911085", "fusion_lon": 0.0}, {"is_reserved": 0, "type": "electric_scooter", "bike_id": "6a2c87867a36b2099a0b2a9ae4cf5df6", "lat": 38.87738, "lon": -77.01895566666667, "rental_uris": {"android": "https://dc.lft.to/lastmile_qr_scan", "ios": "https://dc.lft.to/lastmile_qr_scan"}, "is_disabled": 0, "fusion_lat": 0.0, "name": "6a2c87867a36b2099a0b2a9ae4cf5df6", "fusion_lon": 0.0}, {"is_reserved": 0, "type": "electric_scooter", "bike_id": "f893f09012358c4d8c1f31c7ab4a57f7", "lat": 38.8960105, "lon": -77.04684133333333, "rental_uris": {"android": "https://dc.lft.to/lastmile_qr_scan", "ios": "https://dc.lft.to/lastmile_qr_scan"}, "is_disabled": 0, "fusion_lat": 0.0, "name": "f893f09012358c4d8c1f31c7ab4a57f7", "fusion_lon": 0.0}, {"is_reserved": 0, "type": "electric_scooter", "bike_id": "b03d8f91fdcd932dd2d527b48645e7c6", "lat": 38.92577216666667, "lon": -76.99492316666667, "rental_uris": {"android": "https://dc.lft.to/lastmile_qr_scan", "ios": "https://dc.lft.to/lastmile_qr_scan"}, "is_disabled": 0, "fusion_lat": 0.0, "name": "b03d8f91fdcd932dd2d527b48645e7c6", "fusion_lon": 0.0}, {"is_reserved": 0, "type": "electric_scooter", "bike_id": "9fc25be46bb4ecd51ca903fe3eaffba2", "lat": 38.92443466666667, "lon": -77.04031633333334, "rental_uris": {"android": "https://dc.lft.to/lastmile_qr_scan", "ios": "https://dc.lft.to/lastmile_qr_scan"}, "is_disabled": 0, "fusion_lat": 0.0, "name": "9fc25be46bb4ecd51ca903fe3eaffba2", "fusion_lon": 0.0}, {"is_reserved": 0, "type": "electric_scooter", "bike_id": "3478fc095b95bc848ff286158ac41e85", "lat": 38.897535, "lon": -77.00202583333333, "rental_uris": {"android": "https://dc.lft.to/lastmile_qr_scan", "ios": "https://dc.lft.to/lastmile_qr_scan"}, "is_disabled": 0, "fusion_lat": 0.0, "name": "3478fc095b95bc848ff286158ac41e85", "fusion_lon": 0.0}, {"is_reserved": 0, "type": "electric_scooter", "bike_id": "557fe60704a96a6cdebd903ed033c3da", "lat": 38.89918333333333, "lon": -76.97835866666667, "rental_uris": {"android": "https://dc.lft.to/lastmile_qr_scan", "ios": "https://dc.lft.to/lastmile_qr_scan"}, "is_disabled": 0, "fusion_lat": 0.0, "name": "557fe60704a96a6cdebd903ed033c3da", "fusion_lon": 0.0}, {"is_reserved": 0, "type": "electric_scooter", "bike_id": "3da0df1fbd8082bac712a3a485268129", "lat": 38.892188, "lon": -77.0222145, "rental_uris": {"android": "https://dc.lft.to/lastmile_qr_scan", "ios": "https://dc.lft.to/lastmile_qr_scan"}, "is_disabled": 0, "fusion_lat": 0.0, "name": "3da0df1fbd8082bac712a3a485268129", "fusion_lon": 0.0}, {"is_reserved": 0, "type": "electric_scooter", "bike_id": "52c8333f61832917819fb13e1efa265a", "lat": 38.91119616666667, "lon": -77.0450155, "rental_uris": {"android": "https://dc.lft.to/lastmile_qr_scan", "ios": "https://dc.lft.to/lastmile_qr_scan"}, "is_disabled": 0, "fusion_lat": 0.0, "name": "52c8333f61832917819fb13e1efa265a", "fusion_lon": 0.0}, {"is_reserved": 0, "type": "electric_scooter", "bike_id": "0121e1dc6c77f9d613b124c3ad816853", "lat": 38.91889533333333, "lon": -77.0348845, "rental_uris": {"android": "https://dc.lft.to/lastmile_qr_scan", "ios": "https://dc.lft.to/lastmile_qr_scan"}, "is_disabled": 0, "fusion_lat": 0.0, "name": "0121e1dc6c77f9d613b124c3ad816853", "fusion_lon": 0.0},