{"data": {"bikes": [{"is_reserved": 0, "fusion_lon": 0.0, "fusion_lat": 0.0, "name": "d3a47a64752b64815ba963fa951b4c4b", "type": "electric_scooter", "is_disabled": 0, "lat": 38.90088733333333, "rental_uris": {"android": "https://dc.lft.to/lastmile_qr_scan", "ios": "https://dc.lft.to/lastmile_qr_scan"}, "bike_id": "d3a47a64752b64815ba963fa951b4c4b", "lon": -76.9302785}, {"is_reserved": 0, "fusion_lon": 0.0, "fusion_lat": 0.0, "name": "7567b4ab326cf6cd3f6f21f9925ffa0b", "type": "electric_scooter", "is_disabled": 0, "lat": 38.88610516666667, "rental_uris": {"android": "https://dc.lft.to/lastmile_qr_scan", "ios": "https://dc.lft.to/lastmile_qr_scan"}, "bike_id": "7567b4ab326cf6cd3f6f21f9925ffa0b", "lon": -77.0197475}, {"is_reserved": 0, "fusion_lon": 0.0, "fusion_lat": 0.0, "name": "b03304aeed6a1833256e1c4db263a2e3", "type": "electric_scooter", "is_disabled": 0, "lat": 38.905229, "rental_uris": {"android": "https://dc.lft.to/lastmile_qr_scan", "ios": "https://dc.lft.to/lastmile_qr_scan"}, "bike_id": "b03304aeed6a1833256e1c4db263a2e3", "lon": -77.0499735}, {"is_reserved": 0, "fusion_lon": 0.0, "fusion_lat": 0.0, "name": "2b86d9e6c6a3f51ee578c51465b853a5", "type": "electric_scooter", "is_disabled": 0, "lat": 38.95620866666667, "rental_uris": {"android": "https://dc.lft.to/lastmile_qr_scan", "ios": "https://dc.lft.to/lastmile_qr_scan"}, "bike_id": "2b86d9e6c6a3f51ee578c51465b853a5", "lon": -77.02779916666667}, {"is_reserved": 0, "fusion_lon": 0.0, "fusion_lat": 0.0, "name": "b47d28f8c3ced657f94b9a2d4adb024a", "type": "electric_scooter", "is_disabled": 0, "lat": 38.9425465, "rental_uris": {"android": "https://dc.lft.to/lastmile_qr_scan", "ios": "https://dc.lft.to/lastmile_qr_scan"}, "bike_id": "b47d28f8c3ced657f94b9a2d4adb024a", "lon": -77.041351}, {"is_reserved": 0, "fusion_lon": 0.0, "fusion_lat": 0.0, "name": "e40c6608ad939b9ac881cca89c883cc4", "type": "electric_scooter", "is_disabled": 0, "lat": 38.8988155, "rental_uris": {"android": "https://dc.lft.to/lastmile_qr_scan", "ios": "https://dc.lft.to/lastmile_qr_scan"}, "bike_id": "e40c6608ad939b9ac881cca89c883cc4", "lon": -77.03283966666666}, {"is_reserved": 0, "fusion_lon": 0.0, "fusion_lat": 0.0, "name": "bcff05bb11b1b9739cf26ee4402e2441", "type": "electric_scooter", "is_disabled": 0, "lat": 38.92508983333333, "rental_uris": {"android": "https://dc.lft.to/lastmile_qr_scan", "ios": "https://dc.lft.to/lastmile_qr_scan"}, "bike_id": "bcff05bb11b1b9739cf26ee4402e2441", "lon": -77.002267}, {"is_reserved": 0, "fusion_lon": 0.0, "fusion_lat": 0.0, "name": "ac34719f1b9595b7bc9a20a36870c5f7", "type": "electric_bike", "is_disabled": 0, "lat": 38.957602, "rental_uris": {"android": "https://dc.lft.to/lastmile_qr_scan", "ios": "https://dc.lft.to/lastmile_qr_scan"}, "bike_id": "ac34719f1b9595b7bc9a20a36870c5f7", "lon": -77.0071135}, {"is_reserved": 0, "fusion_lon": 0.0, "fusion_lat": 0.0, "name": "ca1ef0ff91bf8f96f55057fc5a6337ac", "type": "electric_scooter", "is_disabled": 0, "lat": 38.87192966666667, "rental_uris": {"android": "https://dc.lft.to/lastmile_qr_scan", "ios": "https://dc.lft.to/lastmile_qr_scan"}, "bike_id": "ca1ef0ff91bf8f96f55057fc5a6337ac", "lon": -77.00585183333334}, {"is_reserved": 0, "fusion_lon": 0.0, "fusion_lat": 0.0, "name": "43e7530a2ead07b64e44efa39bf9b86e", "type": "electric_scooter", "is_disabled": 0, "lat": 38.8920295, "rental_uris": {"android": "https://dc.lft.to/lastmile_qr_scan", "ios": "https://dc.lft.to/lastmile_qr_scan"}, "bike_id": "43e7530a2ead07b64e44efa39bf9b86e", "lon": -76.95697066666666}, {"is_reserved": 0, "fusion_lon": 0.0, "fusion_lat": 0.0, "name": "2bffe6caaf156d5c418772a5643d9e62", "type": "electric_scooter", "is_disabled": 0, "lat": 38.94199783333333, "rental_uris": {"android": "https://dc.lft.to/lastmile_qr_scan", "ios": "https://dc.lft.to/lastmile_qr_scan"}, "bike_id": "2bffe6caaf156d5c418772a5643d9e62", "lon": -77.02500866666666}, {"is_reserved": 0, "fusion_lon": 0.0, "fusion_lat": 0.0, "name": "adc8c6318e242c38c38886aa2d2e5b4f", "type": "electric_scooter", "is_disabled": 0, "lat": 38.865006666666666, "rental_uris": {"android": "https://dc.lft.to/lastmile_qr_scan", "ios": "https://dc.lft.to/lastmile_qr_scan"}, "bike_id": "adc8c6318e242c38c38886aa2d2e5b4f", "lon": -76.99001183333333}, {"is_reserved": 0, "fusion_lon": 0.0, "fusion_lat": 0.0, "name": "a48f433ca683ccf447b78732ec075dd8", "type": "electric_scooter", "is_disabled": 0, "lat": 38.911308, "rental_uris": {"android": "https://dc.lft.to/lastmile_qr_scan", "ios": "https://dc.lft.to/lastmile_qr_scan"}, "bike_id": "a48f433ca683ccf447b78732ec075dd8", "lon": -77.04415633333333}, {"is_reserved": 0, "fusion_lon": 0.0, "fusion_lat": 0.0, "name": "3a55edb7c1ad2631313a3470f69dadd9", "type": "electric_scooter", "is_disabled": 0, "lat": 38.886053, "rental_uris": {"android": "https://dc.lft.to/lastmile_qr_scan", "ios": "https://dc.lft.to/lastmile_qr_scan"}, "bike_id": "3a55edb7c1ad2631313a3470f69dadd9", "lon": -77.01242016666667}, {"is_reserved": 0, "fusion_lon": 0.0, "fusion_lat": 0.0, "name": "7befd6a0e7990efa525f5d38beb5cfca", "type": "electric_scooter", "is_disabled": 0, "lat": 38.93338216666667, "rental_uris": {"android": "https://dc.lft.to/lastmile_qr_scan", "ios": "https://dc.lft.to/lastmile_qr_scan"}, "bike_id": "7befd6a0e7990efa525f5d38beb5cfca", "lon": -77.0262515}, {"is_reserved": 0, "fusion_lon": 0.0, "fusion_lat": 0.0, "name": "a92a51c6d51421a4157134280d754885", "type": "electric_bike", "is_disabled": 0, "lat": 38.8814735, "rental_uris": {"android": "https://dc.lft.to/lastmile_qr_scan", "ios": "https://dc.lft.to/lastmile_qr_scan"}, "bike_id": "a92a51c6d51421a4157134280d754885", "lon": -77.11469166666667}, {"is_reserved": 0, "fusion_lon": 0.0, "fusion_lat": 0.0, "name": "6d4b75b13b523e3574c0460d561c7443", "type": "electric_scooter", "is_disabled": 0, "lat": 38.892224, "rental_uris": {"android": "https://dc.lft.to/lastmile_qr_scan", "ios": "https://dc.lft.to/lastmile_qr_scan"}, "bike_id": "6d4b75b13b523e3574c0460d561c7443", "lon": -77.04868116666667}, {"is_reserved": 0, "fusion_lon": 0.0, "fusion_lat": 0.0, "name": "ece3a1e26c5c83a66156a82873158f32", "type": "electric_scooter", "is_disabled": 0, "lat": 38.887829333333336, "rental_uris": {"android": "https://dc.lft.to/lastmile_qr_scan", "ios": "https://dc.lft.to/lastmile_qr_scan"}, "bike_id": "ece3a1e26c5c83a66156a82873158f32", "lon": -76.95528683333333}, {"is_reserved": 0, "fusion_lon": 0.0, "fusion_lat": 0.0, "name": "f5b8bc32b371721d72577a5410492236", "type": "electric_scooter", "is_disabled": 0, "lat": 38.93577466666667, "rental_uris": {"android": "https://dc.lft.to/lastmile_qr_scan", "ios": "https://dc.lft.to/lastmile_qr_scan"}, "bike_id": "f5b8bc32b371721d72577a5410492236", "lon": -77.0212595}, {"is_reserved": 0, "fusion_lon": 0.0, "fusion_lat": 0.0, "name": "77b14ff8d6b41273f14516d87282fa96", "type": "electric_scooter", "is_disabled": 0, "lat": 38.916031333333336, "rental_uris": {"android": "https://dc.lft.to/lastmile_qr_scan", "ios": "https://dc.lft.to/lastmile_qr_scan"}, "bike_id": "77b14ff8d6b41273f14516d87282fa96", "lon": -77.02399533333333}, {"is_reserved": 0, "fusion_lon": 0.0, "fusion_lat": 0.0, "name": "831ce641a9a2baf54caccedb071240be", "type": "electric_scooter", "is_disabled": 0, "lat": 38.89225616666667, "rental_uris": {"android": "https://dc.lft.to/lastmile_qr_scan", "ios": "https://dc.lft.to/lastmile_qr_scan"}, "bike_id": "831ce641a9a2baf54caccedb071240be", "lon": -77.04335166666667}, {"is_reserved": 0, "fusion_lon": 0.0, "fusion_lat": 0.0, "name": "abcc48f5a1db2408c8eb0497207353ea", "type": "electric_scooter", "is_disabled": 0, "lat": 38.843105333333334, "rental_uris": {"android": "https://dc.lft.to/lastmile_qr_scan", "ios": "https://dc.lft.to/lastmile_qr_scan"}, "bike_id": "abcc48f5a1db2408c8eb0497207353ea", "lon": -76.9993455}, {"is_reserved": 0, "fusion_lon": 0.0, "fusion_lat": 0.0, "name": "5bb194a1fb1c4f71942d4ca33f62961a", "type": "electric_scooter", "is_disabled": 0, "lat": 38.86340533333333, "rental_uris": {"android": "https://dc.lft.to/lastmile_qr_scan", "ios": "https://dc.lft.to/lastmile_qr_scan"}, "bike_id": "5bb194a1fb1c4f71942d4ca33f62961a", "lon": -76.982746}, {"is_reserved": 0, "fusion_lon": 0.0, "fusion_lat": 0.0, "name": "d0d0b596d0cd41451a81e274e4833221", "type": "electric_scooter", "is_disabled": 0, "lat": 38.915031, "rental_uris": {"android": "https://dc.lft.to/lastmile_qr_scan", "ios": "https://dc.lft.to/lastmile_qr_scan"}, "bike_id": "d0d0b596d0cd41451a81e274e4833221", "lon": -77.02176533333333}, {"is_reserved": 0, "fusion_lon": 0.0, "fusion_lat": 0.0, "name": "dd75c8690be26156cac67e3dc12f2860", "type": "electric_scooter", "is_disabled": 0, "lat": 38.870404666666666, "rental_uris": {"android": "https://dc.lft.to/lastmile_qr_scan", "ios": "https://dc.lft.to/lastmile_qr_scan"}, "bike_id": "dd75c8690be26156cac67e3dc12f2860", "lon": -77.00968}, {"is_reserved": 0, "fusion_lon": 0.0, "fusion_lat": 0.0, "name": "42eb8ecf405f226a8311cc9784ff8eeb", "type": "electric_scooter", "is_disabled": 0, "lat": 38.86701333333333, "rental_uris": {"android": "https://dc.lft.to/lastmile_qr_scan", "ios": "https://dc.lft.to/lastmile_qr_scan"}, "bike_id": "42eb8ecf405f226a8311cc9784ff8eeb", "lon": -76.98715966666667}, {"is_reserved": 0, "fusion_lon": 0.0, "fusion_lat": 0.0, "name": "7b3eb6623bb7d600c37ccfe633ee7c58", "type": "electric_scooter", "is_disabled": 0, "lat": 38.91033816666667, "rental_uris": {"android": "https://dc.lft.to/lastmile_qr_scan", "ios": "https://dc.lft.to/lastmile_qr_scan"}, "bike_id": "7b3eb6623bb7d600c37ccfe633ee7c58", "lon": -77.04351683333333}, {"is_reserved": 0, "fusion_lon": 0.0, "fusion_lat": 0.0, "name": "a7b3a832fda88925416414cb5e21d257", "type": "electric_scooter", "is_disabled": 0, "lat": 38.908703833333334, "rental_uris": {"android": "https://dc.lft.to/lastmile_qr_scan", "ios": "https://dc.lft.to/lastmile_qr_scan"}, "bike_id": "a7b3a832fda88925416414cb5e21d257", "lon": -77.085909}, {"is_reserved": 0, "fusion_lon": 0.0, "fusion_lat": 0.0, "name": "4a5163859d87996256340f233016ce58", "type": "electric_scooter", "is_disabled": 0, "lat": 38.918151, "rental_uris": {"android": "https://dc.lft.to/lastmile_qr_scan", "ios": "https://dc.lft.to/lastmile_qr_scan"}, "bike_id": "4a5163859d87996256340f233016ce58", "lon": -77.08950083333333}, {"is_reserved": 0, "fusion_lon": 0.0, "fusion_lat": 0.0, "name": "7939002725ab255c8ed40013c42d09fd", "type": "electric_bike", "is_disabled": 0, "lat": 38.96322683333333, "rental_uris": {"android": "https://dc.lft.to/lastmile_qr_scan", "ios": "https://dc.lft.to/lastmile_qr_scan"}, "bike_id": "7939002725ab255c8ed40013c42d09fd", "lon": -76.97352933333333}, {"is_reserved": 0, "fusion_lon": 0.0, "fusion_lat": 0.0, "name": "05859863aec50b64aa99112aa170d36f", "type": "electric_scooter", "is_disabled": 0, "lat": 38.88746116666667, "rental_uris": {"android": "https://dc.lft.to/lastmile_qr_scan", "ios": "https://dc.lft.to/lastmile_qr_scan"}, "bike_id": "05859863aec50b64aa99112aa170d36f", "lon": -77.0220825}, {"is_reserved": 0, "fusion_lon": 0.0, "fusion_lat": 0.0, "name": "4ddb4ebd39a014c29ec0271384c57bc8", "type": "electric_scooter", "is_disabled": 0, "lat": 38.91290466666667, "rental_uris": {"android": "https://dc.lft.to/lastmile_qr_scan", "ios": "https://dc.lft.to/lastmile_qr_scan"}, "bike_id": "4ddb4ebd39a014c29ec0271384c57bc8", "lon": -77.0238795}, {"is_reserved": 0, "fusion_lon": 0.0, "fusion_lat": 0.0, "name": "90decf308eff796bf48f351f75882a76", "type": "electric_bike", "is_disabled": 0, "lat": 38.862597666666666, "rental_uris": {"android": "https://dc.lft.to/lastmile_qr_scan", "ios": "https://dc.lft.to/lastmile_qr_scan"}, "bike_id": "90decf308eff796bf48f351f75882a76", "lon": -76.98352533333333}, {"is_reserved": 0, "fusion_lon": 0.0, "fusion_lat": 0.0, "name": "2442798d1a427972074f3286958d2691", "type": "electric_scooter", "is_disabled": 0, "lat": 38.916225833333336, "rental_uris": {"android": "https://dc.lft.to/lastmile_qr_scan", "ios": "https://dc.lft.to/lastmile_qr_scan"}, "bike_id": "2442798d1a427972074f3286958d2691", "lon": -77.0315955}, {"is_reserved": 0, "fusion_lon": 0.0, "fusion_lat": 0.0, "name": "12b9396901816b6e03661aa00c998ddb", "type": "electric_scooter", "is_disabled": 0, "lat": 38.92433483333333, "rental_uris": {"android": "https://dc.lft.to/lastmile_qr_scan", "ios": "https://dc.lft.to/lastmile_qr_scan"}, "bike_id": "12b9396901816b6e03661aa00c998ddb", "lon": -77.05173316666666}, {"is_reserved": 0, "fusion_lon": 0.0, "fusion_lat": 0.0, "name": "c1d8fe48361318e2578d1d0ad8be01ae", "type": "electric_bike", "is_disabled": 0, "lat": 38.96905616666667, "rental_uris": {"android": "https://dc.lft.to/lastmile_qr_scan", "ios": "https://dc.lft.to/lastmile_qr_scan"}, "bike_id": "c1d8fe48361318e2578d1d0ad8be01ae", "lon": -76.99496883333333}, {"is_reserved": 0, "fusion_lon": 0.0, "fusion_lat": 0.0, "name": "1acce0dd1cb139fbdc33a25eb78fbe7b", "type": "electric_scooter", "is_disabled": 0, "lat": 38.9306435, "rental_uris": {"android": "https://dc.lft.to/lastmile_qr_scan", "ios": "https://dc.lft.to/lastmile_qr_scan"}, "bike_id": "1acce0dd1cb139fbdc33a25eb78fbe7b", "lon": -77.03192966666667}, {"is_reserved": 0, "fusion_lon": 0.0, "fusion_lat": 0.0, "name": "65394d8e75950bfb28c455061db054d8", "type": "electric_scooter", "is_disabled": 0, "lat": 38.93044033333334, "rental_uris": {"android": "https://dc.lft.to/lastmile_qr_scan", "ios": "https://dc.lft.to/lastmile_qr_scan"}, "bike_id": "65394d8e75950bfb28c455061db054d8", "lon": -77.01222283333334}, {"is_reserved": 0, "fusion_lon": 0.0, "fusion_lat": 0.0, "name": "7218b000862768291576ac34a4877986", "type": "electric_scooter", "is_disabled": 0, "lat": 38.91821216666666, "rental_uris": {"android": "https://dc.lft.to/lastmile_qr_scan", "ios": "https://dc.lft.to/lastmile_qr_scan"}, "bike_id": "7218b000862768291576ac34a4877986", "lon": -77.024208}, {"is_reserved": 0, "fusion_lon": 0.0, "fusion_lat": 0.0, "name": "fed5b652d69036f31ee2a1ee155b0f04", "type": "electric_scooter", "is_disabled": 0, "lat": 38.887342333333336, "rental_uris": {"android": "https://dc.lft.to/lastmile_qr_scan", "ios": "https://dc.lft.to/lastmile_qr_scan"}, "bike_id": "fed5b652d69036f31ee2a1ee155b0f04", "lon": -77.0218675}, {"is_reserved": 0, "fusion_lon": 0.0, "fusion_lat": 0.0, "name": "54d6ee1d61c00c9d76871b3f2ddf1db3", "type": "electric_scooter", "is_disabled": 0, "lat": 38.920359833333336, "rental_uris": {"android": "https://dc.lft.to/lastmile_qr_scan", "ios": "https://dc.lft.to/lastmile_qr_scan"}, "bike_id": "54d6ee1d61c00c9d76871b3f2ddf1db3", "lon": -77.01801516666667}, {"is_reserved": 0, "fusion_lon": 0.0, "fusion_lat": 0.0, "name": "b842eb03e2ee064792da5fc5ea8dca3b", "type": "electric_scooter", "is_disabled": 0, "lat": 38.91823016666667, "rental_uris": {"android": "https://dc.lft.to/lastmile_qr_scan", "ios": "https://dc.lft.to/lastmile_qr_scan"}, "bike_id": "b842eb03e2ee064792da5fc5ea8dca3b", "lon": -77.03562933333333}, {"is_reserved": 0, "fusion_lon": 0.0, "fusion_lat": 0.0, "name": "3e07076c8182fb88d7e2eb0c78a988ab", "type": "electric_scooter", "is_disabled": 0, "lat": 38.9227885, "rental_uris": {"android": "https://dc.lft.to/lastmile_qr_scan", "ios": "https://dc.lft.to/lastmile_qr_scan"}, "bike_id": "3e07076c8182fb88d7e2eb0c78a988ab", "lon": -77.04231216666666}, {"is_reserved": 0, "fusion_lon": 0.0, "fusion_lat": 0.0, "name": "dbf309acc76e06bdc842a8daa2734ef0", "type": "electric_scooter", "is_disabled": 0, "lat": 38.917103166666664, "rental_uris": {"android": "https://dc.lft.to/lastmile_qr_scan", "ios": "https://dc.lft.to/lastmile_qr_scan"}, "bike_id": "dbf309acc76e06bdc842a8daa2734ef0", "lon": -77.0260705}, {"is_reserved": 0, "fusion_lon": 0.0, "fusion_lat": 0.0, "name": "8aa12323caab16ae0be3dd43c02c408b", "type": "electric_scooter", "is_disabled": 0, "lat": 38.9095895, "rental_uris": {"android": "https://dc.lft.to/lastmile_qr_scan", "ios": "https://dc.lft.to/lastmile_qr_scan"}, "bike_id": "8aa12323caab16ae0be3dd43c02c408b", "lon": -77.031995}, {"is_reserved": 0, "fusion_lon": 0.0, "fusion_lat": 0.0, "name": "21019da1a67361de994bbcb9b81e5a49", "type": "electric_scooter", "is_disabled": 0, "lat": 38.915922333333334, "rental_uris": {"android": "https://dc.lft.to/lastmile_qr_scan", "ios": "https://dc.lft.to/lastmile_qr_scan"}, "bike_id": "21019da1a67361de994bbcb9b81e5a49", "lon": -77.03212883333333}, {"is_reserved": 0, "fusion_lon": 0.0, "fusion_lat": 0.0, "name": "ff7350c548f4474df71bf8a1a1fe9184", "type": "electric_scooter", "is_disabled": 0, "lat": 38.89223366666667, "rental_uris": {"android": "https://dc.lft.to/lastmile_qr_scan", "ios": "https://dc.lft.to/lastmile_qr_scan"}, "bike_id": "ff7350c548f4474df71bf8a1a1fe9184", "lon": -77.04507983333333}, {"is_reserved": 0, "fusion_lon": 0.0, "fusion_lat": 0.0, "name": "f9b5b18b5507988442ee8ee59935de1d", "type": "electric_scooter", "is_disabled": 0, "lat": 38.918083333333335, "rental_uris": {"android": "https://dc.lft.to/lastmile_qr_scan", "ios": "https://dc.lft.to/lastmile_qr_scan"}, "bike_id": "f9b5b18b5507988442ee8ee59935de1d", "lon": -77.0249395}, {"is_reserved": 0, "fusion_lon": 0.0, "fusion_lat": 0.0, "name": "4c2c3f21eff73caa8b1e9bd2f7785327", "type": "electric_scooter", "is_disabled": 0, "lat": 38.952316, "rental_uris": {"android": "https://dc.lft.to/lastmile_qr_scan", "ios": "https://dc.lft.to/lastmile_qr_scan"}, "bike_id": "4c2c3f21eff73caa8b1e9bd2f7785327", "lon": -77.0142675}, {"is_reserved": 0, "fusion_lon": 0.0, "fusion_lat": 0.0, "name": "8e5d982ec2ae73adaf05e285e2cc17a8", "type": "electric_scooter", "is_disabled": 0, "lat": 38.8872965, "rental_uris": {"android": "https://dc.lft.to/lastmile_qr_scan", "ios": "https://dc.lft.to/lastmile_qr_scan"}, "bike_id": "8e5d982ec2ae73adaf05e285e2cc17a8", "lon": -77.02182333333333}, {"is_reserved": 0, "fusion_lon": 0.0, "fusion_lat": 0.0, "name": "a6ed454c7de7238b44bcbdbc8f064072", "type": "electric_scooter", "is_disabled": 0, "lat": 38.930299, "rental_uris": {"android": "https://dc.lft.to/lastmile_qr_scan", "ios": "https://dc.lft.to/lastmile_qr_scan"}, "bike_id": "a6ed454c7de7238b44bcbdbc8f064072", "lon": -77.0129895}, {"is_reserved": 0, "fusion_lon": 0.0, "fusion_lat": 0.0, "name": "6aea38557cef19ca788dfc37e416ef09", "type": "electric_scooter", "is_disabled": 0, "lat": 38.905571, "rental_uris": {"android": "https://dc.lft.to/lastmile_qr_scan", "ios": "https://dc.lft.to/lastmile_qr_scan"}, "bike_id": "6aea38557cef19ca788dfc37e416ef09", "lon": -77.06283116666667}, {"is_reserved": 0, "fusion_lon": 0.0, "fusion_lat": 0.0, "name": "fc96769ef04c1aed8646e94fc727dcc1", "type": "electric_scooter", "is_disabled": 0, "lat": 38.916782833333336, "rental_uris": {"android": "https://dc.lft.to/lastmile_qr_scan", "ios": "https://dc.lft.to/lastmile_qr_scan"}, "bike_id": "fc96769ef04c1aed8646e94fc727dcc1", "lon": -77.02955383333334}, {"is_reserved": 0, "fusion_lon": 0.0, "fusion_lat": 0.0, "name": "555bc425a3d4769dd6b7b5e3be2c8746", "type": "electric_scooter", "is_disabled": 0, "lat": 38.92757966666667, "rental_uris": {"android": "https://dc.lft.to/lastmile_qr_scan", "ios": "https://dc.lft.to/lastmile_qr_scan"}, "bike_id": "555bc425a3d4769dd6b7b5e3be2c8746", "lon": -77.02421783333334}, {"is_reserved": 0, "fusion_lon": 0.0, "fusion_lat": 0.0, "name": "bfb6e8fe70be0a11be0b89d1547d79e3", "type": "electric_scooter", "is_disabled": 0, "lat": 38.86214066666667, "rental_uris": {"android": "https://dc.lft.to/lastmile_qr_scan", "ios": "https://dc.lft.to/lastmile_qr_scan"}, "bike_id": "bfb6e8fe70be0a11be0b89d1547d79e3", "lon": -76.99475516666666}, {"is_reserved": 0, "fusion_lon": 0.0, "fusion_lat": 0.0, "name": "eb2c20289ad87856693add4a83ba4a0d", "type": "electric_scooter", "is_disabled": 0, "lat": 38.925247666666664, "rental_uris": {"android": "https://dc.lft.to/lastmile_qr_scan", "ios": "https://dc.lft.to/lastmile_qr_scan"}, "bike_id": "eb2c20289ad87856693add4a83ba4a0d", "lon": -77.05041466666667}, {"is_reserved": 0, "fusion_lon": 0.0, "fusion_lat": 0.0, "name": "aa0f603826521f1b76432e5880afe389", "type": "electric_scooter", "is_disabled": 0, "lat": 38.924850166666666, "rental_uris": {"android": "https://dc.lft.to/lastmile_qr_scan", "ios": "https://dc.lft.to/lastmile_qr_scan"}, "bike_id": "aa0f603826521f1b76432e5880afe389", "lon": -77.021942}, {"is_reserved": 0, "fusion_lon": 0.0, "fusion_lat": 0.0, "name": "3f96395c5a8ae4889e04817ec93e7480", "type": "electric_scooter", "is_disabled": 0, "lat": 38.885054, "rental_uris": {"android": "https://dc.lft.to/lastmile_qr_scan", "ios": "https://dc.lft.to/lastmile_qr_scan"}, "bike_id": "3f96395c5a8ae4889e04817ec93e7480", "lon": -76.99847633333333}, {"is_reserved": 0, "fusion_lon": 0.0, "fusion_lat": 0.0, "name": "ff476caba9565af0ab986c6fe87fe045", "type": "electric_scooter", "is_disabled": 0, "lat": 38.888849, "rental_uris": {"android": "https://dc.lft.to/lastmile_qr_scan", "ios": "https://dc.lft.to/lastmile_qr_scan"}, "bike_id": "ff476caba9565af0ab986c6fe87fe045", "lon": -77.01969483333333}, {"is_reserved": 0, "fusion_lon": 0.0, "fusion_lat": 0.0, "name": "b92c65b77f6cecc7af8c8ce3ba34a5d1", "type": "electric_scooter", "is_disabled": 0, "lat": 38.8923735, "rental_uris": {"android": "https://dc.lft.to/lastmile_qr_scan", "ios": "https://dc.lft.to/lastmile_qr_scan"}, "bike_id": "b92c65b77f6cecc7af8c8ce3ba34a5d1", "lon": -77.04161933333333}, {"is_reserved": 0, "fusion_lon": 0.0, "fusion_lat": 0.0, "name": "4dd265610020f343d9a914787cd0f886", "type": "electric_scooter", "is_disabled": 0, "lat": 38.9065855, "rental_uris": {"android": "https://dc.lft.to/lastmile_qr_scan", "ios": "https://dc.lft.to/lastmile_qr_scan"}, "bike_id": "4dd265610020f343d9a914787cd0f886", "lon": -77.048611}, {"is_reserved": 0, "fusion_lon": 0.0, "fusion_lat": 0.0, "name": "3529faa8d85dbc80ea25d672f584a7c1", "type": "electric_bike", "is_disabled": 0, "lat": 38.9385905, "rental_uris": {"android": "https://dc.lft.to/lastmile_qr_scan", "ios": "https://dc.lft.to/lastmile_qr_scan"}, "bike_id": "3529faa8d85dbc80ea25d672f584a7c1", "lon": -76.993128}, {"is_reserved": 0, "fusion_lon": 0.0, "fusion_lat": 0.0, "name": "05d461e0448a9f4a3866e13b589cea22", "type": "electric_scooter", "is_disabled": 0, "lat": 38.892237, "rental_uris": {"android": "https://dc.lft.to/lastmile_qr_scan", "ios": "https://dc.lft.to/lastmile_qr_scan"}, "bike_id": "05d461e0448a9f4a3866e13b589cea22", "lon": -77.04373633333333}, {"is_reserved": 0, "fusion_lon": 0.0, "fusion_lat": 0.0, "name": "7df849aaddc86403a3380b006724cabe", "type": "electric_scooter", "is_disabled": 0, "lat": 38.876802, "rental_uris": {"android": "https://dc.lft.to/lastmile_qr_scan", "ios": "https://dc.lft.to/lastmile_qr_scan"}, "bike_id": "7df849aaddc86403a3380b006724cabe", "lon": -76.99826266666666}, {"is_reserved": 0, "fusion_lon": 0.0, "fusion_lat": 0.0, "name": "36393948a11fec360048b57cb381071b", "type": "electric_scooter", "is_disabled": 0, "lat": 38.909508, "rental_uris": {"android": "https://dc.lft.to/lastmile_qr_scan", "ios": "https://dc.lft.to/lastmile_qr_scan"}, "bike_id": "36393948a11fec360048b57cb381071b", "lon": -77.008111}, {"is_reserved": 0, "fusion_lon": 0.0, "fusion_lat": 0.0, "name": "e2c5be10df2e38d83b75434cee803a74", "type": "electric_scooter", "is_disabled": 0, "lat": 38.905647, "rental_uris": {"android": "https://dc.lft.to/lastmile_qr_scan", "ios": "https://dc.lft.to/lastmile_qr_scan"}, "bike_id": "e2c5be10df2e38d83b75434cee803a74", "lon": -77.039844}, {"is_reserved": 0, "fusion_lon": 0.0, "fusion_lat": 0.0, "name": "a06d7df27d9f763fd7007a36be850795", "type": "electric_scooter", "is_disabled": 0, "lat": 38.91048716666667, "rental_uris": {"android": "https://dc.lft.to/lastmile_qr_scan", "ios": "https://dc.lft.to/lastmile_qr_scan"}, "bike_id": "a06d7df27d9f763fd7007a36be850795", "lon": -77.03196416666667}, {"is_reserved": 0, "fusion_lon": 0.0, "fusion_lat": 0.0, "name": "87e6cbbde0b3af74a7d769a21d35d376", "type": "electric_bike", "is_disabled": 0, "lat": 39.04234983333333, "rental_uris": {"android": "https://dc.lft.to/lastmile_qr_scan", "ios": "https://dc.lft.to/lastmile_qr_scan"}, "bike_id": "87e6cbbde0b3af74a7d769a21d35d376", "lon": -76.99735833333334}, {"is_reserved": 0, "fusion_lon": 0.0, "fusion_lat": 0.0, "name": "43705355e6fcc3a78a65a37ec7efcda7", "type": "electric_scooter", "is_disabled": 0, "lat": 38.89600383333333, "rental_uris": {"android": "https://dc.lft.to/lastmile_qr_scan", "ios": "https://dc.lft.to/lastmile_qr_scan"}, "bike_id": "43705355e6fcc3a78a65a37ec7efcda7", "lon": -77.0076355}, {"is_reserved": 0, "fusion_lon": 0.0, "fusion_lat": 0.0, "name": "2a0c2c988e16f22c72b25e152ac2bd7b", "type": "electric_bike", "is_disabled": 0, "lat": 38.90272383333333, "rental_uris": {"android": "https://dc.lft.to/lastmile_qr_scan", "ios": "https://dc.lft.to/lastmile_qr_scan"}, "bike_id": "2a0c2c988e16f22c72b25e152ac2bd7b", "lon": -76.92926066666666}, {"is_reserved": 0, "fusion_lon": 0.0, "fusion_lat": 0.0, "name": "df1800b3b636e43ce988d4863cd4a42b", "type": "electric_scooter", "is_disabled": 0, "lat": 38.90252866666667, "rental_uris": {"android": "https://dc.lft.to/lastmile_qr_scan", "ios": "https://dc.lft.to/lastmile_qr_scan"}, "bike_id": "df1800b3b636e43ce988d4863cd4a42b", "lon": -77.00191}, {"is_reserved": 0, "fusion_lon": 0.0, "fusion_lat": 0.0, "name": "20f14e350849e8316903583715e2a844", "type": "electric_scooter", "is_disabled": 0, "lat": 38.9418585, "rental_uris": {"android": "https://dc.lft.to/lastmile_qr_scan", "ios": "https://dc.lft.to/lastmile_qr_scan"}, "bike_id": "20f14e350849e8316903583715e2a844", "lon": -77.025303}, {"is_reserved": 0, "fusion_lon": 0.0, "fusion_lat": 0.0, "name": "934eb573a76ec1900d8d7b6b368d0c16", "type": "electric_scooter", "is_disabled": 0, "lat": 38.901170666666665, "rental_uris": {"android": "https://dc.lft.to/lastmile_qr_scan", "ios": "https://dc.lft.to/lastmile_qr_scan"}, "bike_id": "934eb573a76ec1900d8d7b6b368d0c16", "lon": -77.031752}, {"is_reserved": 0, "fusion_lon": 0.0, "fusion_lat": 0.0, "name": "d944c29adb16987a6796534af1c08da1", "type": "electric_scooter", "is_disabled": 0, "lat": 38.8655545, "rental_uris": {"android": "https://dc.lft.to/lastmile_qr_scan", "ios": "https://dc.lft.to/lastmile_qr_scan"}, "bike_id": "d944c29adb16987a6796534af1c08da1", "lon": -76.98875466666667}, {"is_reserved": 0, "fusion_lon": 0.0, "fusion_lat": 0.0, "name": "20ee4948a9bb292c93e53c0d11ecc4e4", "type": "electric_scooter", "is_disabled": 0, "lat": 38.922698833333335, "rental_uris": {"android": "https://dc.lft.to/lastmile_qr_scan", "ios": "https://dc.lft.to/lastmile_qr_scan"}, "bike_id": "20ee4948a9bb292c93e53c0d11ecc4e4", "lon": -77.02246016666666}, {"is_reserved": 0, "fusion_lon": 0.0, "fusion_lat": 0.0, "name": "e825c34471c07f34246874e2426a7005", "type": "electric_scooter", "is_disabled": 0, "lat": 38.892297, "rental_uris": {"android": "https://dc.lft.to/lastmile_qr_scan", "ios": "https://dc.lft.to/lastmile_qr_scan"}, "bike_id": "e825c34471c07f34246874e2426a7005", "lon": -77.02176366666667}, {"is_reserved": 0, "fusion_lon": 0.0, "fusion_lat": 0.0, "name": "23dbe0b4af8ee75dfb3b31639bcc3add", "type": "electric_scooter", "is_disabled": 0, "lat": 38.92329016666667, "rental_uris": {"android": "https://dc.lft.to/lastmile_qr_scan", "ios": "https://dc.lft.to/lastmile_qr_scan"}, "bike_id": "23dbe0b4af8ee75dfb3b31639bcc3add", "lon": -77.0195685}, {"is_reserved": 0, "fusion_lon": 0.0, "fusion_lat": 0.0, "name": "49c8cf1a00f26ccf8c03b97db1dfac2d", "type": "electric_scooter", "is_disabled": 0, "lat": 38.911863833333335, "rental_uris": {"android": "https://dc.lft.to/lastmile_qr_scan", "ios": "https://dc.lft.to/lastmile_qr_scan"}, "bike_id": "49c8cf1a00f26ccf8c03b97db1dfac2d", "lon": -77.043404}, {"is_reserved": 0, "fusion_lon": 0.0, "fusion_lat": 0.0, "name": "b5f720ce95fcfbbdb5579d4d03a6a30c", "type": "electric_scooter", "is_disabled": 0, "lat": 38.90721966666667, "rental_uris": {"android": "https://dc.lft.to/lastmile_qr_scan", "ios": "https://dc.lft.to/lastmile_qr_scan"}, "bike_id": "b5f720ce95fcfbbdb5579d4d03a6a30c", "lon": -77.04081233333334}, {"is_reserved": 0, "fusion_lon": 0.0, "fusion_lat": 0.0, "name": "71b8b29f305bd762ab20ea5a8e9668c1", "type": "electric_scooter", "is_disabled": 0, "lat": 38.919813833333336, "rental_uris": {"android": "https://dc.lft.to/lastmile_qr_scan", "ios": "https://dc.lft.to/lastmile_qr_scan"}, "bike_id": "71b8b29f305bd762ab20ea5a8e9668c1", "lon": -77.03330933333334}, {"is_reserved": 0, "fusion_lon": 0.0, "fusion_lat": 0.0, "name": "87aec5d93bf694799ed950c4b52ea785", "type": "electric_scooter", "is_disabled": 0, "lat": 38.89239666666667, "rental_uris": {"android": "https://dc.lft.to/lastmile_qr_scan", "ios": "https://dc.lft.to/lastmile_qr_scan"}, "bike_id": "87aec5d93bf694799ed950c4b52ea785", "lon": -77.0318545}, {"is_reserved": 0, "fusion_lon": 0.0, "fusion_lat": 0.0, "name": "c4b4da1499c246da6be27bbb9c28e4aa", "type": "electric_scooter", "is_disabled": 0, "lat": 38.9293345, "rental_uris": {"android": "https://dc.lft.to/lastmile_qr_scan", "ios": "https://dc.lft.to/lastmile_qr_scan"}, "bike_id": "c4b4da1499c246da6be27bbb9c28e4aa", "lon": -77.02332516666667}, {"is_reserved": 0, "fusion_lon": 0.0, "fusion_lat": 0.0, "name": "42f10dd21db988805cfddebd359408be", "type": "electric_scooter", "is_disabled": 0, "lat": 38.88507233333333, "rental_uris": {"android": "https://dc.lft.to/lastmile_qr_scan", "ios": "https://dc.lft.to/lastmile_qr_scan"}, "bike_id": "42f10dd21db988805cfddebd359408be", "lon": -77.020247}, {"is_reserved": 0, "fusion_lon": 0.0, "fusion_lat": 0.0, "name": "5d32d353c8aaaeb1210a7a250bae2b14", "type": "electric_scooter", "is_disabled": 0, "lat": 38.9420435, "rental_uris": {"android": "https://dc.lft.to/lastmile_qr_scan", "ios": "https://dc.lft.to/lastmile_qr_scan"}, "bike_id": "5d32d353c8aaaeb1210a7a250bae2b14", "lon": -77.0251505}, {"is_reserved": 0, "fusion_lon": 0.0, "fusion_lat": 0.0, "name": "3d41a9683c06222bc78ffffad8a632df", "type": "electric_bike", "is_disabled": 0, "lat": 38.8378545, "rental_uris": {"android": "https://dc.lft.to/lastmile_qr_scan", "ios": "https://dc.lft.to/lastmile_qr_scan"}, "bike_id": "3d41a9683c06222bc78ffffad8a632df", "lon": -76.99759433333334}, {"is_reserved": 0, "fusion_lon": 0.0, "fusion_lat": 0.0, "name": "cad5c2f3f0f718fb187f4caec33b4ad8", "type": "electric_scooter", "is_disabled": 0, "lat": 38.895029666666666, "rental_uris": {"android": "https://dc.lft.to/lastmile_qr_scan", "ios": "https://dc.lft.to/lastmile_qr_scan"}, "bike_id": "cad5c2f3f0f718fb187f4caec33b4ad8", "lon": -76.93476583333333}, {"is_reserved": 0, "fusion_lon": 0.0, "fusion_lat": 0.0, "name": "4410767764fc59f85ef187abeebfe942", "type": "electric_scooter", "is_disabled": 0, "lat": 38.89225066666667, "rental_uris": {"android": "https://dc.lft.to/lastmile_qr_scan", "ios": "https://dc.lft.to/lastmile_qr_scan"}, "bike_id": "4410767764fc59f85ef187abeebfe942", "lon": -77.02780266666667}, {"is_reserved": 0, "fusion_lon": 0.0, "fusion_lat": 0.0, "name": "f10d6128f5f5ca098dd9ec7b8f9e5803", "type": "electric_scooter", "is_disabled": 0, "lat": 38.928308333333334, "rental_uris": {"android": "https://dc.lft.to/lastmile_qr_scan", "ios": "https://dc.lft.to/lastmile_qr_scan"}, "bike_id": "f10d6128f5f5ca098dd9ec7b8f9e5803", "lon": -77.01377583333333}, {"is_reserved": 0, "fusion_lon": 0.0, "fusion_lat": 0.0, "name": "3193ad7fe86f004e7d8696b49e1408c6", "type": "electric_scooter", "is_disabled": 0, "lat": 38.9225895, "rental_uris": {"android": "https://dc.lft.to/lastmile_qr_scan", "ios": "https://dc.lft.to/lastmile_qr_scan"}, "bike_id": "3193ad7fe86f004e7d8696b49e1408c6", "lon": -77.0210665}, {"is_reserved": 0, "fusion_lon": 0.0, "fusion_lat": 0.0, "name": "58edd50f54a5f2acfe567e90277c920a", "type": "electric_scooter", "is_disabled": 0, "lat": 38.90092516666667, "rental_uris": {"android": "https://dc.lft.to/lastmile_qr_scan", "ios": "https://dc.lft.to/lastmile_qr_scan"}, "bike_id": "58edd50f54a5f2acfe567e90277c920a", "lon": -77.057364}, {"is_reserved": 0, "fusion_lon": 0.0, "fusion_lat": 0.0, "name": "07b7666f32fa1528db8d33772e5a306a", "type": "electric_scooter", "is_disabled": 0, "lat": 38.92882216666667, "rental_uris": {"android": "https://dc.lft.to/lastmile_qr_scan", "ios": "https://dc.lft.to/lastmile_qr_scan"}, "bike_id": "07b7666f32fa1528db8d33772e5a306a", "lon": -77.0324055}, {"is_reserved": 0, "fusion_lon": 0.0, "fusion_lat": 0.0, "name": "bdb42fccb48cc05e571221ece8b7e96c", "type": "electric_scooter", "is_disabled": 0, "lat": 38.926198666666664, "rental_uris": {"android": "https://dc.lft.to/lastmile_qr_scan", "ios": "https://dc.lft.to/lastmile_qr_scan"}, "bike_id": "bdb42fccb48cc05e571221ece8b7e96c", "lon": -77.0433135}, {"is_reserved": 0, "fusion_lon": 0.0, "fusion_lat": 0.0, "name": "bf01e78629ea5b3049c3799c0e20c2e4", "type": "electric_scooter", "is_disabled": 0, "lat": 38.899130666666665, "rental_uris": {"android": "https://dc.lft.to/lastmile_qr_scan", "ios": "https://dc.lft.to/lastmile_qr_scan"}, "bike_id": "bf01e78629ea5b3049c3799c0e20c2e4", "lon": -77.03948066666666}, {"is_reserved": 0, "fusion_lon": 0.0, "fusion_lat": 0.0, "name": "1ce83486c13185313066285d8f0644d4", "type": "electric_scooter", "is_disabled": 0, "lat": 38.894924333333336, "rental_uris": {"android": "https://dc.lft.to/lastmile_qr_scan", "ios": "https://dc.lft.to/lastmile_qr_scan"}, "bike_id": "1ce83486c13185313066285d8f0644d4", "lon": -77.01093216666666}, {"is_reserved": 0, "fusion_lon": 0.0, "fusion_lat": 0.0, "name": "f75087b328ce5bb1ae3b458f80967764", "type": "electric_scooter", "is_disabled": 0, "lat": 38.8349535, "rental_uris": {"android": "https://dc.lft.to/lastmile_qr_scan", "ios": "https://dc.lft.to/lastmile_qr_scan"}, "bike_id": "f75087b328ce5bb1ae3b458f80967764", "lon": -77.0067995}, {"is_reserved": 0, "fusion_lon": 0.0, "fusion_lat": 0.0, "name": "3b04b213fcd7236a6c446d72449d4ebb", "type": "electric_scooter", "is_disabled": 0, "lat": 38.904363000000004, "rental_uris": {"android": "https://dc.lft.to/lastmile_qr_scan", "ios": "https://dc.lft.to/lastmile_qr_scan"}, "bike_id": "3b04b213fcd7236a6c446d72449d4ebb", "lon": -77.043501}, {"is_reserved": 0, "fusion_lon": 0.0, "fusion_lat": 0.0, "name": "e7bd294adc5454de300df158006d342f", "type": "electric_scooter", "is_disabled": 0, "lat": 38.91683466666667, "rental_uris": {"android": "https://dc.lft.to/lastmile_qr_scan", "ios": "https://dc.lft.to/lastmile_qr_scan"}, "bike_id": "e7bd294adc5454de300df158006d342f", "lon": -77.03690116666667}, {"is_reserved": 0, "fusion_lon": 0.0, "fusion_lat": 0.0, "name": "dd00a2e718a2c20b65fda481f89b03ad", "type": "electric_bike", "is_disabled": 0, "lat": 38.93169983333333, "rental_uris": {"android": "https://dc.lft.to/lastmile_qr_scan", "ios": "https://dc.lft.to/lastmile_qr_scan"}, "bike_id": "dd00a2e718a2c20b65fda481f89b03ad", "lon": -76.88406083333334}, {"is_reserved": 0, "fusion_lon": 0.0, "fusion_lat": 0.0, "name": "78f0f2ca01d782234b3ca22a0874f307", "type": "electric_scooter", "is_disabled": 0, "lat": 38.91718, "rental_uris": {"android": "https://dc.lft.to/lastmile_qr_scan", "ios": "https://dc.lft.to/lastmile_qr_scan"}, "bike_id": "78f0f2ca01d782234b3ca22a0874f307", "lon": -77.03240783333334}, {"is_reserved": 0, "fusion_lon": 0.0, "fusion_lat": 0.0, "name": "d1ddeb0b96fd3056d418bb594d8214d5", "type": "electric_scooter", "is_disabled": 0, "lat": 38.89422316666667, "rental_uris": {"android": "https://dc.lft.to/lastmile_qr_scan", "ios": "https://dc.lft.to/lastmile_qr_scan"}, "bike_id": "d1ddeb0b96fd3056d418bb594d8214d5", "lon": -77.02411533333333}, {"is_reserved": 0, "fusion_lon": 0.0, "fusion_lat": 0.0, "name": "a4ba130f694df5acd210c550c6f30d93", "type": "electric_bike", "is_disabled": 0, "lat": 38.929695833333334, "rental_uris": {"android": "https://dc.lft.to/lastmile_qr_scan", "ios": "https://dc.lft.to/lastmile_qr_scan"}, "bike_id": "a4ba130f694df5acd210c550c6f30d93", "lon": -77.1856905}, {"is_reserved": 0, "fusion_lon": 0.0, "fusion_lat": 0.0, "name": "0496d5f8a77d53b704e7bff92d93e915", "type": "electric_bike", "is_disabled": 0, "lat": 38.86491483333333, "rental_uris": {"android": "https://dc.lft.to/lastmile_qr_scan", "ios": "https://dc.lft.to/lastmile_qr_scan"}, "bike_id": "0496d5f8a77d53b704e7bff92d93e915", "lon": -76.97749}, {"is_reserved": 0, "fusion_lon": 0.0, "fusion_lat": 0.0, "name": "db8349c3041b0d1b57ccd06f2367265e", "type": "electric_scooter", "is_disabled": 0, "lat": 38.918019666666666, "rental_uris": {"android": "https://dc.lft.to/lastmile_qr_scan", "ios": "https://dc.lft.to/lastmile_qr_scan"}, "bike_id": "db8349c3041b0d1b57ccd06f2367265e", "lon": -77.03439783333333}, {"is_reserved": 0, "fusion_lon": 0.0, "fusion_lat": 0.0, "name": "5ab9f99201776d32f930c726c146ef05", "type": "electric_scooter", "is_disabled": 0, "lat": 38.886099333333334, "rental_uris": {"android": "https://dc.lft.to/lastmile_qr_scan", "ios": "https://dc.lft.to/lastmile_qr_scan"}, "bike_id": "5ab9f99201776d32f930c726c146ef05", "lon": -76.99509783333333}, {"is_reserved": 0, "fusion_lon": 0.0, "fusion_lat": 0.0, "name": "d7e32245de93c1cd637b299b63788dd5", "type": "electric_bike", "is_disabled": 0, "lat": 39.055051, "rental_uris": {"android": "https://dc.lft.to/lastmile_qr_scan", "ios": "https://dc.lft.to/lastmile_qr_scan"}, "bike_id": "d7e32245de93c1cd637b299b63788dd5", "lon": -77.04653216666667}, {"is_reserved": 0, "fusion_lon": 0.0, "fusion_lat": 0.0, "name": "21f8e2bfd00e98448fb4a3853a36f007", "type": "electric_bike", "is_disabled": 0, "lat": 38.95437583333333, "rental_uris": {"android": "https://dc.lft.to/lastmile_qr_scan", "ios": "https://dc.lft.to/lastmile_qr_scan"}, "bike_id": "21f8e2bfd00e98448fb4a3853a36f007", "lon": -76.9891455}, {"is_reserved": 0, "fusion_lon": 0.0, "fusion_lat": 0.0, "name": "7be2ef747a6b71b1d390c116117a3110", "type": "electric_scooter", "is_disabled": 0, "lat": 38.90136, "rental_uris": {"android": "https://dc.lft.to/lastmile_qr_scan", "ios": "https://dc.lft.to/lastmile_qr_scan"}, "bike_id": "7be2ef747a6b71b1d390c116117a3110", "lon": -77.0435745}, {"is_reserved": 0, "fusion_lon": 0.0, "fusion_lat": 0.0, "name": "b97ee7f2bcc6d9b0a194b6a2969cdf34", "type": "electric_scooter", "is_disabled": 0, "lat": 38.923253833333334, "rental_uris": {"android": "https://dc.lft.to/lastmile_qr_scan", "ios": "https://dc.lft.to/lastmile_qr_scan"}, "bike_id": "b97ee7f2bcc6d9b0a194b6a2969cdf34", "lon": -76.99910633333333}, {"is_reserved": 0, "fusion_lon": 0.0, "fusion_lat": 0.0, "name": "aa0624b80784b763a98d9cde7fb93cd3", "type": "electric_scooter", "is_disabled": 0, "lat": 38.877712833333334, "rental_uris": {"android": "https://dc.lft.to/lastmile_qr_scan", "ios": "https://dc.lft.to/lastmile_qr_scan"}, "bike_id": "aa0624b80784b763a98d9cde7fb93cd3", "lon": -77.01762083333334}, {"is_reserved": 0, "fusion_lon": 0.0, "fusion_lat": 0.0, "name": "8d9630e6a4768558a0a2c4f4959de9b6", "type": "electric_scooter", "is_disabled": 0, "lat": 38.90381133333333, "rental_uris": {"android": "https://dc.lft.to/lastmile_qr_scan", "ios": "https://dc.lft.to/lastmile_qr_scan"}, "bike_id": "8d9630e6a4768558a0a2c4f4959de9b6", "lon": -77.04182}, {"is_reserved": 0, "fusion_lon": 0.0, "fusion_lat": 0.0, "name": "9d79cfed7bd557db3a894304fff66cff", "type": "electric_scooter", "is_disabled": 0, "lat": 38.9611225, "rental_uris": {"android": "https://dc.lft.to/lastmile_qr_scan", "ios": "https://dc.lft.to/lastmile_qr_scan"}, "bike_id": "9d79cfed7bd557db3a894304fff66cff", "lon": -77.009507}, {"is_reserved": 0, "fusion_lon": 0.0, "fusion_lat": 0.0, "name": "626cf9730ce725131cda311f6c7da803", "type": "electric_scooter", "is_disabled": 0, "lat": 38.91891316666667, "rental_uris": {"android": "https://dc.lft.to/lastmile_qr_scan", "ios": "https://dc.lft.to/lastmile_qr_scan"}, "bike_id": "626cf9730ce725131cda311f6c7da803", "lon": -77.04823383333333}, {"is_reserved": 0, "fusion_lon": 0.0, "fusion_lat": 0.0, "name": "d945269bfaf75edff3e5d5c40718adee", "type": "electric_scooter", "is_disabled": 0, "lat": 38.900539333333334, "rental_uris": {"android": "https://dc.lft.to/lastmile_qr_scan", "ios": "https://dc.lft.to/lastmile_qr_scan"}, "bike_id": "d945269bfaf75edff3e5d5c40718adee", "lon": -77.0483775}, {"is_reserved": 0, "fusion_lon": 0.0, "fusion_lat": 0.0, "name": "ed42880c8d52fa372ade70e5b920a3ea", "type": "electric_scooter", "is_disabled": 0, "lat": 38.89227833333333, "rental_uris": {"android": "https://dc.lft.to/lastmile_qr_scan", "ios": "https://dc.lft.to/lastmile_qr_scan"}, "bike_id": "ed42880c8d52fa372ade70e5b920a3ea", "lon": -77.03338283333333}, {"is_reserved": 0, "fusion_lon": 0.0, "fusion_lat": 0.0, "name": "f5307e3adb3e506a8a7c84c9aadd2d1d", "type": "electric_scooter", "is_disabled": 0, "lat": 38.924749, "rental_uris": {"android": "https://dc.lft.to/lastmile_qr_scan", "ios": "https://dc.lft.to/lastmile_qr_scan"}, "bike_id": "f5307e3adb3e506a8a7c84c9aadd2d1d", "lon": -77.0282865}, {"is_reserved": 0, "fusion_lon": 0.0, "fusion_lat": 0.0, "name": "0823796222d0fb4f08368ee7fb5c01ec", "type": "electric_bike", "is_disabled": 0, "lat": 38.879403, "rental_uris": {"android": "https://dc.lft.to/lastmile_qr_scan", "ios": "https://dc.lft.to/lastmile_qr_scan"}, "bike_id": "0823796222d0fb4f08368ee7fb5c01ec", "lon": -76.9161495}, {"is_reserved": 0, "fusion_lon": 0.0, "fusion_lat": 0.0, "name": "11735a067ad11eb457a3340f6ad9956a", "type": "electric_scooter", "is_disabled": 0, "lat": 38.904221166666666, "rental_uris": {"android": "https://dc.lft.to/lastmile_qr_scan", "ios": "https://dc.lft.to/lastmile_qr_scan"}, "bike_id": "11735a067ad11eb457a3340f6ad9956a", "lon": -77.029464}, {"is_reserved": 0, "fusion_lon": 0.0, "fusion_lat": 0.0, "name": "15731bc3745c8a375e228c8340af1df9", "type": "electric_bike", "is_disabled": 0, "lat": 38.901148, "rental_uris": {"android": "https://dc.lft.to/lastmile_qr_scan", "ios": "https://dc.lft.to/lastmile_qr_scan"}, "bike_id": "15731bc3745c8a375e228c8340af1df9", "lon": -77.04888933333334}, {"is_reserved": 0, "fusion_lon": 0.0, "fusion_lat": 0.0, "name": "91eea49e428732b069e1222577aa3ac2", "type": "electric_scooter", "is_disabled": 0, "lat": 38.869985666666665, "rental_uris": {"android": "https://dc.lft.to/lastmile_qr_scan", "ios": "https://dc.lft.to/lastmile_qr_scan"}, "bike_id": "91eea49e428732b069e1222577aa3ac2", "lon": -76.959763}, {"is_reserved": 0, "fusion_lon": 0.0, "fusion_lat": 0.0, "name": "84176e6b2eeb627a05061fa72029a4b7", "type": "electric_scooter", "is_disabled": 0, "lat": 38.914232, "rental_uris": {"android": "https://dc.lft.to/lastmile_qr_scan", "ios": "https://dc.lft.to/lastmile_qr_scan"}, "bike_id": "84176e6b2eeb627a05061fa72029a4b7", "lon": -77.0259475}, {"is_reserved": 0, "fusion_lon": 0.0, "fusion_lat": 0.0, "name": "41f319ad2983ef1b2cdc6f9f18a8d341", "type": "electric_scooter", "is_disabled": 0, "lat": 38.902703, "rental_uris": {"android": "https://dc.lft.to/lastmile_qr_scan", "ios": "https://dc.lft.to/lastmile_qr_scan"}, "bike_id": "41f319ad2983ef1b2cdc6f9f18a8d341", "lon": -77.03851766666666}, {"is_reserved": 0, "fusion_lon": 0.0, "fusion_lat": 0.0, "name": "2e657d1c0089948a843af2bfb84735ec", "type": "electric_scooter", "is_disabled": 0, "lat": 38.90541733333333, "rental_uris": {"android": "https://dc.lft.to/lastmile_qr_scan", "ios": "https://dc.lft.to/lastmile_qr_scan"}, "bike_id": "2e657d1c0089948a843af2bfb84735ec", "lon": -77.02620083333333}, {"is_reserved": 0, "fusion_lon": 0.0, "fusion_lat": 0.0, "name": "db54a1978bdb31854fd95fdf0b9d3004", "type": "electric_scooter", "is_disabled": 0, "lat": 38.888702333333335, "rental_uris": {"android": "https://dc.lft.to/lastmile_qr_scan", "ios": "https://dc.lft.to/lastmile_qr_scan"}, "bike_id": "db54a1978bdb31854fd95fdf0b9d3004", "lon": -76.99034916666666}, {"is_reserved": 0, "fusion_lon": 0.0, "fusion_lat": 0.0, "name": "e1f4bbd5b7f1e6e9352ab9f15f80c124", "type": "electric_scooter", "is_disabled": 0, "lat": 38.90561816666667, "rental_uris": {"android": "https://dc.lft.to/lastmile_qr_scan", "ios": "https://dc.lft.to/lastmile_qr_scan"}, "bike_id": "e1f4bbd5b7f1e6e9352ab9f15f80c124", "lon": -77.04695716666667}, {"is_reserved": 0, "fusion_lon": 0.0, "fusion_lat": 0.0, "name": "afb9aa300c076a351b51f3a2020b67f3", "type": "electric_scooter", "is_disabled": 0, "lat": 38.901475166666664, "rental_uris": {"android": "https://dc.lft.to/lastmile_qr_scan", "ios": "https://dc.lft.to/lastmile_qr_scan"}, "bike_id": "afb9aa300c076a351b51f3a2020b67f3", "lon": -77.0444095}, {"is_reserved": 0, "fusion_lon": 0.0, "fusion_lat": 0.0, "name": "c2ad19d1e449cfb0672e0282c99fd22b", "type": "electric_scooter", "is_disabled": 0, "lat": 38.8755155, "rental_uris": {"android": "https://dc.lft.to/lastmile_qr_scan", "ios": "https://dc.lft.to/lastmile_qr_scan"}, "bike_id": "c2ad19d1e449cfb0672e0282c99fd22b", "lon": -77.005948}, {"is_reserved": 0, "fusion_lon": 0.0, "fusion_lat": 0.0, "name": "1993d8b4d763a2498f98af8522921089", "type": "electric_scooter", "is_disabled": 0, "lat": 38.9348415, "rental_uris": {"android": "https://dc.lft.to/lastmile_qr_scan", "ios": "https://dc.lft.to/lastmile_qr_scan"}, "bike_id": "1993d8b4d763a2498f98af8522921089", "lon": -77.0647965}, {"is_reserved": 0, "fusion_lon": 0.0, "fusion_lat": 0.0, "name": "8ed627ff3051d5271564d37d4d026dec", "type": "electric_scooter", "is_disabled": 0, "lat": 38.95194733333334, "rental_uris": {"android": "https://dc.lft.to/lastmile_qr_scan", "ios": "https://dc.lft.to/lastmile_qr_scan"}, "bike_id": "8ed627ff3051d5271564d37d4d026dec", "lon": -77.02739116666666}, {"is_reserved": 0, "fusion_lon": 0.0, "fusion_lat": 0.0, "name": "0251a21921665d997e1ec1b09f8cd7e4", "type": "electric_scooter", "is_disabled": 0, "lat": 38.901264166666664, "rental_uris": {"android": "https://dc.lft.to/lastmile_qr_scan", "ios": "https://dc.lft.to/lastmile_qr_scan"}, "bike_id": "0251a21921665d997e1ec1b09f8cd7e4", "lon": -77.03998233333333}, {"is_reserved": 0, "fusion_lon": 0.0, "fusion_lat": 0.0, "name": "18dfd2bce6ea88b2e193708d37b4b3a8", "type": "electric_scooter", "is_disabled": 0, "lat": 38.91955133333333, "rental_uris": {"android": "https://dc.lft.to/lastmile_qr_scan", "ios": "https://dc.lft.to/lastmile_qr_scan"}, "bike_id": "18dfd2bce6ea88b2e193708d37b4b3a8", "lon": -77.04150316666667}, {"is_reserved": 0, "fusion_lon": 0.0, "fusion_lat": 0.0, "name": "1100028b5a8e0bc89ada85e7c4971d84", "type": "electric_scooter", "is_disabled": 0, "lat": 38.91151266666667, "rental_uris": {"android": "https://dc.lft.to/lastmile_qr_scan", "ios": "https://dc.lft.to/lastmile_qr_scan"}, "bike_id": "1100028b5a8e0bc89ada85e7c4971d84", "lon": -77.04433316666666}, {"is_reserved": 0, "fusion_lon": 0.0, "fusion_lat": 0.0, "name": "691e2a09a22aaa34642cfdd594931cec", "type": "electric_scooter", "is_disabled": 0, "lat": 38.88674983333333, "rental_uris": {"android": "https://dc.lft.to/lastmile_qr_scan", "ios": "https://dc.lft.to/lastmile_qr_scan"}, "bike_id": "691e2a09a22aaa34642cfdd594931cec", "lon": -76.93611383333334}, {"is_reserved": 0, "fusion_lon": 0.0, "fusion_lat": 0.0, "name": "88796cb045979d41ca3cab448a1dc6e2", "type": "electric_scooter", "is_disabled": 0, "lat": 38.87702266666667, "rental_uris": {"android": "https://dc.lft.to/lastmile_qr_scan", "ios": "https://dc.lft.to/lastmile_qr_scan"}, "bike_id": "88796cb045979d41ca3cab448a1dc6e2", "lon": -77.01644033333334}, {"is_reserved": 0, "fusion_lon": 0.0, "fusion_lat": 0.0, "name": "40a6a6cbf9f4f2da22d3e03f563dc309", "type": "electric_scooter", "is_disabled": 0, "lat": 38.920489, "rental_uris": {"android": "https://dc.lft.to/lastmile_qr_scan", "ios": "https://dc.lft.to/lastmile_qr_scan"}, "bike_id": "40a6a6cbf9f4f2da22d3e03f563dc309", "lon": -77.034668}, {"is_reserved": 0, "fusion_lon": 0.0, "fusion_lat": 0.0, "name": "b18767867a72697a3285f9e7f4cd3b42", "type": "electric_scooter", "is_disabled": 0, "lat": 38.906053, "rental_uris": {"android": "https://dc.lft.to/lastmile_qr_scan", "ios": "https://dc.lft.to/lastmile_qr_scan"}, "bike_id": "b18767867a72697a3285f9e7f4cd3b42", "lon": -77.02185066666667}, {"is_reserved": 0, "fusion_lon": 0.0, "fusion_lat": 0.0, "name": "cd79647bf97fd59cdd92ee3b257e8142", "type": "electric_scooter", "is_disabled": 0, "lat": 38.933981833333334, "rental_uris": {"android": "https://dc.lft.to/lastmile_qr_scan", "ios": "https://dc.lft.to/lastmile_qr_scan"}, "bike_id": "cd79647bf97fd59cdd92ee3b257e8142", "lon": -77.0221475}, {"is_reserved": 0, "fusion_lon": 0.0, "fusion_lat": 0.0, "name": "19d51219ef31aee7cd403f22e4fbb08e", "type": "electric_scooter", "is_disabled": 0, "lat": 38.913034333333336, "rental_uris": {"android": "https://dc.lft.to/lastmile_qr_scan", "ios": "https://dc.lft.to/lastmile_qr_scan"}, "bike_id": "19d51219ef31aee7cd403f22e4fbb08e", "lon": -77.01616166666666}, {"is_reserved": 0, "fusion_lon": 0.0, "fusion_lat": 0.0, "name": "2b355382696789def563262db8a5295b", "type": "electric_scooter", "is_disabled": 0, "lat": 38.9300215, "rental_uris": {"android": "https://dc.lft.to/lastmile_qr_scan", "ios": "https://dc.lft.to/lastmile_qr_scan"}, "bike_id": "2b355382696789def563262db8a5295b", "lon": -77.012996}, {"is_reserved": 0, "fusion_lon": 0.0, "fusion_lat": 0.0, "name": "b0c24a01670b7c0ed4c8eb6905ac53b9", "type": "electric_scooter", "is_disabled": 0, "lat": 38.87458433333333, "rental_uris": {"android": "https://dc.lft.to/lastmile_qr_scan", "ios": "https://dc.lft.to/lastmile_qr_scan"}, "bike_id": "b0c24a01670b7c0ed4c8eb6905ac53b9", "lon": -77.00544516666666}, {"is_reserved": 0, "fusion_lon": 0.0, "fusion_lat": 0.0, "name": "7b52b6699687d5063c6f50324aabfe9b", "type": "electric_scooter", "is_disabled": 0, "lat": 38.89218, "rental_uris": {"android": "https://dc.lft.to/lastmile_qr_scan", "ios": "https://dc.lft.to/lastmile_qr_scan"}, "bike_id": "7b52b6699687d5063c6f50324aabfe9b", "lon": -77.04378}, {"is_reserved": 0, "fusion_lon": 0.0, "fusion_lat": 0.0, "name": "d9fd2c69978d403b15af8ce8e6d356ba", "type": "electric_scooter", "is_disabled": 0, "lat": 38.92750816666667, "rental_uris": {"android": "https://dc.lft.to/lastmile_qr_scan", "ios": "https://dc.lft.to/lastmile_qr_scan"}, "bike_id": "d9fd2c69978d403b15af8ce8e6d356ba", "lon": -77.03280116666667}, {"is_reserved": 0, "fusion_lon": 0.0, "fusion_lat": 0.0, "name": "744bc157f5fe58e8732bdd84b66c681b", "type": "electric_scooter", "is_disabled": 0, "lat": 38.8637375, "rental_uris": {"android": "https://dc.lft.to/lastmile_qr_scan", "ios": "https://dc.lft.to/lastmile_qr_scan"}, "bike_id": "744bc157f5fe58e8732bdd84b66c681b", "lon": -76.99058216666667}, {"is_reserved": 0, "fusion_lon": 0.0, "fusion_lat": 0.0, "name": "c38521c734c07fda4c5bf229618476c8", "type": "electric_scooter", "is_disabled": 0, "lat": 38.919118833333336, "rental_uris": {"android": "https://dc.lft.to/lastmile_qr_scan", "ios": "https://dc.lft.to/lastmile_qr_scan"}, "bike_id": "c38521c734c07fda4c5bf229618476c8", "lon": -77.0446565}, {"is_reserved": 0, "fusion_lon": 0.0, "fusion_lat": 0.0, "name": "822e126434a879bba9dfe0aceb34ec26", "type": "electric_scooter", "is_disabled": 0, "lat": 38.866672333333334, "rental_uris": {"android": "https://dc.lft.to/lastmile_qr_scan", "ios": "https://dc.lft.to/lastmile_qr_scan"}, "bike_id": "822e126434a879bba9dfe0aceb34ec26", "lon": -76.98505966666667}, {"is_reserved": 0, "fusion_lon": 0.0, "fusion_lat": 0.0, "name": "993c60c3669acaf7ab74e3e728d990f6", "type": "electric_scooter", "is_disabled": 0, "lat": 38.8963455, "rental_uris": {"android": "https://dc.lft.to/lastmile_qr_scan", "ios": "https://dc.lft.to/lastmile_qr_scan"}, "bike_id": "993c60c3669acaf7ab74e3e728d990f6", "lon": -77.03339383333334}, {"is_reserved": 0, "fusion_lon": 0.0, "fusion_lat": 0.0, "name": "7748fcbd109dfd12bf61ccebfa12f0e1", "type": "electric_scooter", "is_disabled": 0, "lat": 38.92110483333333, "rental_uris": {"android": "https://dc.lft.to/lastmile_qr_scan", "ios": "https://dc.lft.to/lastmile_qr_scan"}, "bike_id": "7748fcbd109dfd12bf61ccebfa12f0e1", "lon": -77.03320433333333}, {"is_reserved": 0, "fusion_lon": 0.0, "fusion_lat": 0.0, "name": "cff27adb4895c0a4b6e2d10c176effb4", "type": "electric_scooter", "is_disabled": 0, "lat": 38.918256666666665, "rental_uris": {"android": "https://dc.lft.to/lastmile_qr_scan", "ios": "https://dc.lft.to/lastmile_qr_scan"}, "bike_id": "cff27adb4895c0a4b6e2d10c176effb4", "lon": -77.03555016666667}, {"is_reserved": 0, "fusion_lon": 0.0, "fusion_lat": 0.0, "name": "858876794f923a4890f4e4cfef23aecc", "type": "electric_bike", "is_disabled": 0, "lat": 38.83935433333333, "rental_uris": {"android": "https://dc.lft.to/lastmile_qr_scan", "ios": "https://dc.lft.to/lastmile_qr_scan"}, "bike_id": "858876794f923a4890f4e4cfef23aecc", "lon": -77.07898433333334}, {"is_reserved": 0, "fusion_lon": 0.0, "fusion_lat": 0.0, "name": "c9613158438b2c502044e34a67bc2849", "type": "electric_scooter", "is_disabled": 0, "lat": 38.91188266666666, "rental_uris": {"android": "https://dc.lft.to/lastmile_qr_scan", "ios": "https://dc.lft.to/lastmile_qr_scan"}, "bike_id": "c9613158438b2c502044e34a67bc2849", "lon": -77.06085783333333}, {"is_reserved": 0, "fusion_lon": 0.0, "fusion_lat": 0.0, "name": "1a0e6474bd3df13515f27d0adfd8bc4e", "type": "electric_scooter", "is_disabled": 0, "lat": 38.885098666666664, "rental_uris": {"android": "https://dc.lft.to/lastmile_qr_scan", "ios": "https://dc.lft.to/lastmile_qr_scan"}, "bike_id": "1a0e6474bd3df13515f27d0adfd8bc4e", "lon": -76.997548}, {"is_reserved": 0, "fusion_lon": 0.0, "fusion_lat": 0.0, "name": "d93d23f85944dcdbc7ee5cebb9f07ae6", "type": "electric_scooter", "is_disabled": 0, "lat": 38.8670215, "rental_uris": {"android": "https://dc.lft.to/lastmile_qr_scan", "ios": "https://dc.lft.to/lastmile_qr_scan"}, "bike_id": "d93d23f85944dcdbc7ee5cebb9f07ae6", "lon": -76.9871045}, {"is_reserved": 0, "fusion_lon": 0.0, "fusion_lat": 0.0, "name": "304f177e3d4443aa44527275f05daae6", "type": "electric_scooter", "is_disabled": 0, "lat": 38.94074466666667, "rental_uris": {"android": "https://dc.lft.to/lastmile_qr_scan", "ios": "https://dc.lft.to/lastmile_qr_scan"}, "bike_id": "304f177e3d4443aa44527275f05daae6", "lon": -77.03147766666666}, {"is_reserved": 0, "fusion_lon": 0.0, "fusion_lat": 0.0, "name": "29498da1a22fd6db7bbc9f6aeba5bd41", "type": "electric_scooter", "is_disabled": 0, "lat": 38.8841145, "rental_uris": {"android": "https://dc.lft.to/lastmile_qr_scan", "ios": "https://dc.lft.to/lastmile_qr_scan"}, "bike_id": "29498da1a22fd6db7bbc9f6aeba5bd41", "lon": -76.9538275}, {"is_reserved": 0, "fusion_lon": 0.0, "fusion_lat": 0.0, "name": "6c77377c28464d21a9cbe6c17e2bc71f", "type": "electric_scooter", "is_disabled": 0, "lat": 38.916976166666664, "rental_uris": {"android": "https://dc.lft.to/lastmile_qr_scan", "ios": "https://dc.lft.to/lastmile_qr_scan"}, "bike_id": "6c77377c28464d21a9cbe6c17e2bc71f", "lon": -77.03766583333334}, {"is_reserved": 0, "fusion_lon": 0.0, "fusion_lat": 0.0, "name": "bb7b2b18205157869064a00d15fa4a85", "type": "electric_scooter", "is_disabled": 0, "lat": 38.957322833333336, "rental_uris": {"android": "https://dc.lft.to/lastmile_qr_scan", "ios": "https://dc.lft.to/lastmile_qr_scan"}, "bike_id": "bb7b2b18205157869064a00d15fa4a85", "lon": -77.024035}, {"is_reserved": 0, "fusion_lon": 0.0, "fusion_lat": 0.0, "name": "256b65874d4a79b7af4d250f91c3eed3", "type": "electric_scooter", "is_disabled": 0, "lat": 38.92436716666667, "rental_uris": {"android": "https://dc.lft.to/lastmile_qr_scan", "ios": "https://dc.lft.to/lastmile_qr_scan"}, "bike_id": "256b65874d4a79b7af4d250f91c3eed3", "lon": -77.00067283333334}, {"is_reserved": 0, "fusion_lon": 0.0, "fusion_lat": 0.0, "name": "8a99bd638dc930066d073b7c164fc06c", "type": "electric_bike", "is_disabled": 0, "lat": 38.903153833333334, "rental_uris": {"android": "https://dc.lft.to/lastmile_qr_scan", "ios": "https://dc.lft.to/lastmile_qr_scan"}, "bike_id": "8a99bd638dc930066d073b7c164fc06c", "lon": -76.91212983333334}, {"is_reserved": 0, "fusion_lon": 0.0, "fusion_lat": 0.0, "name": "9dc3a7f08855d27795be98291107226f", "type": "electric_scooter", "is_disabled": 0, "lat": 38.93137133333333, "rental_uris": {"android": "https://dc.lft.to/lastmile_qr_scan", "ios": "https://dc.lft.to/lastmile_qr_scan"}, "bike_id": "9dc3a7f08855d27795be98291107226f", "lon": -77.0439765}, {"is_reserved": 0, "fusion_lon": 0.0, "fusion_lat": 0.0, "name": "7049ef419cf4032936620e6b5c09c458", "type": "electric_scooter", "is_disabled": 0, "lat": 38.8646845, "rental_uris": {"android": "https://dc.lft.to/lastmile_qr_scan", "ios": "https://dc.lft.to/lastmile_qr_scan"}, "bike_id": "7049ef419cf4032936620e6b5c09c458", "lon": -76.97735933333334}, {"is_reserved": 0, "fusion_lon": 0.0, "fusion_lat": 0.0, "name": "81810e80288594f0b485f483f8866259", "type": "electric_bike", "is_disabled": 0, "lat": 38.85773616666667, "rental_uris": {"android": "https://dc.lft.to/lastmile_qr_scan", "ios": "https://dc.lft.to/lastmile_qr_scan"}, "bike_id": "81810e80288594f0b485f483f8866259", "lon": -76.9876855}, {"is_reserved": 0, "fusion_lon": 0.0, "fusion_lat": 0.0, "name": "c18b5361a65585678d761b6ac2271f7c", "type": "electric_scooter", "is_disabled": 0, "lat": 38.908586, "rental_uris": {"android": "https://dc.lft.to/lastmile_qr_scan", "ios": "https://dc.lft.to/lastmile_qr_scan"}, "bike_id": "c18b5361a65585678d761b6ac2271f7c", "lon": -77.0715165}, {"is_reserved": 0, "fusion_lon": 0.0, "fusion_lat": 0.0, "name": "3c4b64dfcd59ac59df76221adf3a6ad1", "type": "electric_scooter", "is_disabled": 0, "lat": 38.875388666666666, "rental_uris": {"android": "https://dc.lft.to/lastmile_qr_scan", "ios": "https://dc.lft.to/lastmile_qr_scan"}, "bike_id": "3c4b64dfcd59ac59df76221adf3a6ad1", "lon": -77.00636383333334}, {"is_reserved": 0, "fusion_lon": 0.0, "fusion_lat": 0.0, "name": "1361459ca1b4f08c57a9a272fe30bc60", "type": "electric_bike", "is_disabled": 0, "lat": 38.85440883333333, "rental_uris": {"android": "https://dc.lft.to/lastmile_qr_scan", "ios": "https://dc.lft.to/lastmile_qr_scan"}, "bike_id": "1361459ca1b4f08c57a9a272fe30bc60", "lon": -77.08331616666666}, {"is_reserved": 0, "fusion_lon": 0.0, "fusion_lat": 0.0, "name": "6e2f65597416fe7a0b06a6e223d5f444", "type": "electric_scooter", "is_disabled": 0, "lat": 38.887438833333334, "rental_uris": {"android": "https://dc.lft.to/lastmile_qr_scan", "ios": "https://dc.lft.to/lastmile_qr_scan"}, "bike_id": "6e2f65597416fe7a0b06a6e223d5f444", "lon": -77.023832}, {"is_reserved": 0, "fusion_lon": 0.0, "fusion_lat": 0.0, "name": "7ebcd6a68d9d955bbf26c9ddf6ff0212", "type": "electric_scooter", "is_disabled": 0, "lat": 38.89735433333333, "rental_uris": {"android": "https://dc.lft.to/lastmile_qr_scan", "ios": "https://dc.lft.to/lastmile_qr_scan"}, "bike_id": "7ebcd6a68d9d955bbf26c9ddf6ff0212", "lon": -76.98507933333333}, {"is_reserved": 0, "fusion_lon": 0.0, "fusion_lat": 0.0, "name": "fec0247ae7c50625a93fb952c5d90563", "type": "electric_scooter", "is_disabled": 0, "lat": 38.926985, "rental_uris": {"android": "https://dc.lft.to/lastmile_qr_scan", "ios": "https://dc.lft.to/lastmile_qr_scan"}, "bike_id": "fec0247ae7c50625a93fb952c5d90563", "lon": -77.02080633333334}, {"is_reserved": 0, "fusion_lon": 0.0, "fusion_lat": 0.0, "name": "719d06e41cd151468159f8a27b4ef090", "type": "electric_scooter", "is_disabled": 0, "lat": 38.921458333333334, "rental_uris": {"android": "https://dc.lft.to/lastmile_qr_scan", "ios": "https://dc.lft.to/lastmile_qr_scan"}, "bike_id": "719d06e41cd151468159f8a27b4ef090", "lon": -77.033862}, {"is_reserved": 0, "fusion_lon": 0.0, "fusion_lat": 0.0, "name": "2290326759c65cdf47da3112373c6a57", "type": "electric_scooter", "is_disabled": 0, "lat": 38.9388235, "rental_uris": {"android": "https://dc.lft.to/lastmile_qr_scan", "ios": "https://dc.lft.to/lastmile_qr_scan"}, "bike_id": "2290326759c65cdf47da3112373c6a57", "lon": -77.02371716666667}, {"is_reserved": 0, "fusion_lon": 0.0, "fusion_lat": 0.0, "name": "baf56d263290979cebe084691adcfabf", "type": "electric_scooter", "is_disabled": 0, "lat": 38.899748, "rental_uris": {"android": "https://dc.lft.to/lastmile_qr_scan", "ios": "https://dc.lft.to/lastmile_qr_scan"}, "bike_id": "baf56d263290979cebe084691adcfabf", "lon": -77.03347583333333}, {"is_reserved": 0, "fusion_lon": 0.0, "fusion_lat": 0.0, "name": "486a17292802dd6bd1ad7e6328303a16", "type": "electric_scooter", "is_disabled": 0, "lat": 38.926491666666664, "rental_uris": {"android": "https://dc.lft.to/lastmile_qr_scan", "ios": "https://dc.lft.to/lastmile_qr_scan"}, "bike_id": "486a17292802dd6bd1ad7e6328303a16", "lon": -77.0346865}, {"is_reserved": 0, "fusion_lon": 0.0, "fusion_lat": 0.0, "name": "4d7783c79cdfcbae27d0017f986a5d88", "type": "electric_bike", "is_disabled": 0, "lat": 38.89612366666667, "rental_uris": {"android": "https://dc.lft.to/lastmile_qr_scan", "ios": "https://dc.lft.to/lastmile_qr_scan"}, "bike_id": "4d7783c79cdfcbae27d0017f986a5d88", "lon": -76.907435}, {"is_reserved": 0, "fusion_lon": 0.0, "fusion_lat": 0.0, "name": "eb9476d011df2376665d1947f34697d3", "type": "electric_scooter", "is_disabled": 0, "lat": 38.8973835, "rental_uris": {"android": "https://dc.lft.to/lastmile_qr_scan", "ios": "https://dc.lft.to/lastmile_qr_scan"}, "bike_id": "eb9476d011df2376665d1947f34697d3", "lon": -77.03342916666666}, {"is_reserved": 0, "fusion_lon": 0.0, "fusion_lat": 0.0, "name": "246f6f909b7ba8f2209d28564124a723", "type": "electric_scooter", "is_disabled": 0, "lat": 38.91242883333334, "rental_uris": {"android": "https://dc.lft.to/lastmile_qr_scan", "ios": "https://dc.lft.to/lastmile_qr_scan"}, "bike_id": "246f6f909b7ba8f2209d28564124a723", "lon": -77.009162}, {"is_reserved": 0, "fusion_lon": 0.0, "fusion_lat": 0.0, "name": "822483c83ec34ec782901f747095f161", "type": "electric_scooter", "is_disabled": 0, "lat": 38.918471833333335, "rental_uris": {"android": "https://dc.lft.to/lastmile_qr_scan", "ios": "https://dc.lft.to/lastmile_qr_scan"}, "bike_id": "822483c83ec34ec782901f747095f161", "lon": -76.96554583333334}, {"is_reserved": 0, "fusion_lon": 0.0, "fusion_lat": 0.0, "name": "4621241efaff829c964776a0571e7b08", "type": "electric_scooter", "is_disabled": 0, "lat": 38.92171, "rental_uris": {"android": "https://dc.lft.to/lastmile_qr_scan", "ios": "https://dc.lft.to/lastmile_qr_scan"}, "bike_id": "4621241efaff829c964776a0571e7b08", "lon": -77.02678866666666}, {"is_reserved": 0, "fusion_lon": 0.0, "fusion_lat": 0.0, "name": "89ae74be81824240b100ac02e54edc8b", "type": "electric_scooter", "is_disabled": 0, "lat": 38.924865, "rental_uris": {"android": "https://dc.lft.to/lastmile_qr_scan", "ios": "https://dc.lft.to/lastmile_qr_scan"}, "bike_id": "89ae74be81824240b100ac02e54edc8b", "lon": -77.02232216666667}, {"is_reserved": 0, "fusion_lon": 0.0, "fusion_lat": 0.0, "name": "891c996b379f870afc176be61fe87e64", "type": "electric_scooter", "is_disabled": 0, "lat": 38.9182425, "rental_uris": {"android": "https://dc.lft.to/lastmile_qr_scan", "ios": "https://dc.lft.to/lastmile_qr_scan"}, "bike_id": "891c996b379f870afc176be61fe87e64", "lon": -77.03457133333333}, {"is_reserved": 0, "fusion_lon": 0.0, "fusion_lat": 0.0, "name": "11cfb6a5c2b9a95654ebd4633ccc6208", "type": "electric_scooter", "is_disabled": 0, "lat": 38.905055, "rental_uris": {"android": "https://dc.lft.to/lastmile_qr_scan", "ios": "https://dc.lft.to/lastmile_qr_scan"}, "bike_id": "11cfb6a5c2b9a95654ebd4633ccc6208", "lon": -76.974446}, {"is_reserved": 0, "fusion_lon": 0.0, "fusion_lat": 0.0, "name": "a63559a604ba0a46610b454e1a8e4c53", "type": "electric_scooter", "is_disabled": 0, "lat": 38.866775, "rental_uris": {"android": "https://dc.lft.to/lastmile_qr_scan", "ios": "https://dc.lft.to/lastmile_qr_scan"}, "bike_id": "a63559a604ba0a46610b454e1a8e4c53", "lon": -76.98508383333333}, {"is_reserved": 0, "fusion_lon": 0.0, "fusion_lat": 0.0, "name": "3ebe666a78a0c0a242c82248fedd3e4e", "type": "electric_scooter", "is_disabled": 0, "lat": 38.919143, "rental_uris": {"android": "https://dc.lft.to/lastmile_qr_scan", "ios": "https://dc.lft.to/lastmile_qr_scan"}, "bike_id": "3ebe666a78a0c0a242c82248fedd3e4e", "lon": -77.031145}, {"is_reserved": 0, "fusion_lon": 0.0, "fusion_lat": 0.0, "name": "daffd1a8878b30b4bbe5242494562940", "type": "electric_scooter", "is_disabled": 0, "lat": 38.902381166666665, "rental_uris": {"android": "https://dc.lft.to/lastmile_qr_scan", "ios": "https://dc.lft.to/lastmile_qr_scan"}, "bike_id": "daffd1a8878b30b4bbe5242494562940", "lon": -77.04263}, {"is_reserved": 0, "fusion_lon": 0.0, "fusion_lat": 0.0, "name": "ede7b4553bccdb9d5a16c6271cb55abf", "type": "electric_scooter", "is_disabled": 0, "lat": 38.89734333333333, "rental_uris": {"android": "https://dc.lft.to/lastmile_qr_scan", "ios": "https://dc.lft.to/lastmile_qr_scan"}, "bike_id": "ede7b4553bccdb9d5a16c6271cb55abf", "lon": -77.05568533333333}, {"is_reserved": 0, "fusion_lon": 0.0, "fusion_lat": 0.0, "name": "a69b6ef955a580093c422169eda2bad4", "type": "electric_scooter", "is_disabled": 0, "lat": 38.903911, "rental_uris": {"android": "https://dc.lft.to/lastmile_qr_scan", "ios": "https://dc.lft.to/lastmile_qr_scan"}, "bike_id": "a69b6ef955a580093c422169eda2bad4", "lon": -77.0300465}, {"is_reserved": 0, "fusion_lon": 0.0, "fusion_lat": 0.0, "name": "6b666e644da0eb49f8b9d8dcea185317", "type": "electric_bike", "is_disabled": 0, "lat": 38.87411316666667, "rental_uris": {"android": "https://dc.lft.to/lastmile_qr_scan", "ios": "https://dc.lft.to/lastmile_qr_scan"}, "bike_id": "6b666e644da0eb49f8b9d8dcea185317", "lon": -76.97169366666667}, {"is_reserved": 0, "fusion_lon": 0.0, "fusion_lat": 0.0, "name": "6ed79d5b67c0e9b54fab8e7ecdb6985e", "type": "electric_scooter", "is_disabled": 0, "lat": 38.91929833333333, "rental_uris": {"android": "https://dc.lft.to/lastmile_qr_scan", "ios": "https://dc.lft.to/lastmile_qr_scan"}, "bike_id": "6ed79d5b67c0e9b54fab8e7ecdb6985e", "lon": -77.0342845}, {"is_reserved": 0, "fusion_lon": 0.0, "fusion_lat": 0.0, "name": "8bd62eb3c6f6c9b37e0ed1d8643f3a03", "type": "electric_bike", "is_disabled": 0, "lat": 38.8593955, "rental_uris": {"android": "https://dc.lft.to/lastmile_qr_scan", "ios": "https://dc.lft.to/lastmile_qr_scan"}, "bike_id": "8bd62eb3c6f6c9b37e0ed1d8643f3a03", "lon": -77.11831733333334}, {"is_reserved": 0, "fusion_lon": 0.0, "fusion_lat": 0.0, "name": "6f8cdf8c8e8ce26c0316359b1067da14", "type": "electric_scooter", "is_disabled": 0, "lat": 38.88716683333333, "rental_uris": {"android": "https://dc.lft.to/lastmile_qr_scan", "ios": "https://dc.lft.to/lastmile_qr_scan"}, "bike_id": "6f8cdf8c8e8ce26c0316359b1067da14", "lon": -77.02206733333334}, {"is_reserved": 0, "fusion_lon": 0.0, "fusion_lat": 0.0, "name": "b3a465cadfee2a453ef76a5acd15e893", "type": "electric_scooter", "is_disabled": 0, "lat": 38.886132333333336, "rental_uris": {"android": "https://dc.lft.to/lastmile_qr_scan", "ios": "https://dc.lft.to/lastmile_qr_scan"}, "bike_id": "b3a465cadfee2a453ef76a5acd15e893", "lon": -77.00133366666667}, {"is_reserved": 0, "fusion_lon": 0.0, "fusion_lat": 0.0, "name": "acd615b3265546039159ec6621aad61d", "type": "electric_scooter", "is_disabled": 0, "lat": 38.956177833333335, "rental_uris": {"android": "https://dc.lft.to/lastmile_qr_scan", "ios": "https://dc.lft.to/lastmile_qr_scan"}, "bike_id": "acd615b3265546039159ec6621aad61d", "lon": -77.02780166666666}, {"is_reserved": 0, "fusion_lon": 0.0, "fusion_lat": 0.0, "name": "c96feb2c9000a72ae5bdeee1e165284f", "type": "electric_scooter", "is_disabled": 0, "lat": 38.91360916666667, "rental_uris": {"android": "https://dc.lft.to/lastmile_qr_scan", "ios": "https://dc.lft.to/lastmile_qr_scan"}, "bike_id": "c96feb2c9000a72ae5bdeee1e165284f", "lon": -77.04574766666667}, {"is_reserved": 0, "fusion_lon": 0.0, "fusion_lat": 0.0, "name": "7e6bca0e26d154ee7b9afd4c78b91d1f", "type": "electric_scooter", "is_disabled": 0, "lat": 38.86466083333333, "rental_uris": {"android": "https://dc.lft.to/lastmile_qr_scan", "ios": "https://dc.lft.to/lastmile_qr_scan"}, "bike_id": "7e6bca0e26d154ee7b9afd4c78b91d1f", "lon": -76.982352}, {"is_reserved": 0, "fusion_lon": 0.0, "fusion_lat": 0.0, "name": "ce662a21dba5c738a0d748f58fdbc076", "type": "electric_scooter", "is_disabled": 0, "lat": 38.906466, "rental_uris": {"android": "https://dc.lft.to/lastmile_qr_scan", "ios": "https://dc.lft.to/lastmile_qr_scan"}, "bike_id": "ce662a21dba5c738a0d748f58fdbc076", "lon": -77.010225}, {"is_reserved": 0, "fusion_lon": 0.0, "fusion_lat": 0.0, "name": "a996151657e2c5046fb8f1e88b6bdc54", "type": "electric_scooter", "is_disabled": 0, "lat": 38.8813035, "rental_uris": {"android": "https://dc.lft.to/lastmile_qr_scan", "ios": "https://dc.lft.to/lastmile_qr_scan"}, "bike_id": "a996151657e2c5046fb8f1e88b6bdc54", "lon": -77.00077716666667}, {"is_reserved": 0, "fusion_lon": 0.0, "fusion_lat": 0.0, "name": "62a57e1bfdc6589dfb49e250cdb0f8c7", "type": "electric_scooter", "is_disabled": 0, "lat": 38.91423966666667, "rental_uris": {"android": "https://dc.lft.to/lastmile_qr_scan", "ios": "https://dc.lft.to/lastmile_qr_scan"}, "bike_id": "62a57e1bfdc6589dfb49e250cdb0f8c7", "lon": -77.031854}, {"is_reserved": 0, "fusion_lon": 0.0, "fusion_lat": 0.0, "name": "68ae9cb69507b9ba4d372ae3a532955e", "type": "electric_bike", "is_disabled": 0, "lat": 39.03431766666667, "rental_uris": {"android": "https://dc.lft.to/lastmile_qr_scan", "ios": "https://dc.lft.to/lastmile_qr_scan"}, "bike_id": "68ae9cb69507b9ba4d372ae3a532955e", "lon": -77.04092783333333}, {"is_reserved": 0, "fusion_lon": 0.0, "fusion_lat": 0.0, "name": "9c0dbb04718a22f22de231986134cb3d", "type": "electric_scooter", "is_disabled": 0, "lat": 38.9266675, "rental_uris": {"android": "https://dc.lft.to/lastmile_qr_scan", "ios": "https://dc.lft.to/lastmile_qr_scan"}, "bike_id": "9c0dbb04718a22f22de231986134cb3d", "lon": -77.00873183333333}, {"is_reserved": 0, "fusion_lon": 0.0, "fusion_lat": 0.0, "name": "cb012cb9777acb2336ded1db30874a3e", "type": "electric_bike", "is_disabled": 0, "lat": 39.05494866666667, "rental_uris": {"android": "https://dc.lft.to/lastmile_qr_scan", "ios": "https://dc.lft.to/lastmile_qr_scan"}, "bike_id": "cb012cb9777acb2336ded1db30874a3e", "lon": -77.11790883333333}, {"is_reserved": 0, "fusion_lon": 0.0, "fusion_lat": 0.0, "name": "b5b929f74da5a6138360eee731f7e461", "type": "electric_scooter", "is_disabled": 0, "lat": 38.9225205, "rental_uris": {"android": "https://dc.lft.to/lastmile_qr_scan", "ios": "https://dc.lft.to/lastmile_qr_scan"}, "bike_id": "b5b929f74da5a6138360eee731f7e461", "lon": -77.03660016666667}, {"is_reserved": 0, "fusion_lon": 0.0, "fusion_lat": 0.0, "name": "a965151f3e498ababf4c7d76acb26d7d", "type": "electric_scooter", "is_disabled": 0, "lat": 38.92615516666667, "rental_uris": {"android": "https://dc.lft.to/lastmile_qr_scan", "ios": "https://dc.lft.to/lastmile_qr_scan"}, "bike_id": "a965151f3e498ababf4c7d76acb26d7d", "lon": -77.02159883333333}, {"is_reserved": 0, "fusion_lon": 0.0, "fusion_lat": 0.0, "name": "42adb6ecb921a3e524696a6c1f098d59", "type": "electric_scooter", "is_disabled": 0, "lat": 38.900735166666664, "rental_uris": {"android": "https://dc.lft.to/lastmile_qr_scan", "ios": "https://dc.lft.to/lastmile_qr_scan"}, "bike_id": "42adb6ecb921a3e524696a6c1f098d59", "lon": -77.04532683333333}, {"is_reserved": 0, "fusion_lon": 0.0, "fusion_lat": 0.0, "name": "3a442da35a3e3980d82ddd2feec9f622", "type": "electric_scooter", "is_disabled": 0, "lat": 38.90217716666667, "rental_uris": {"android": "https://dc.lft.to/lastmile_qr_scan", "ios": "https://dc.lft.to/lastmile_qr_scan"}, "bike_id": "3a442da35a3e3980d82ddd2feec9f622", "lon": -77.02969266666666}, {"is_reserved": 0, "fusion_lon": 0.0, "fusion_lat": 0.0, "name": "1180b84e5c002a30bf0ed9f42fd7e7d8", "type": "electric_scooter", "is_disabled": 0, "lat": 38.90439533333333, "rental_uris": {"android": "https://dc.lft.to/lastmile_qr_scan", "ios": "https://dc.lft.to/lastmile_qr_scan"}, "bike_id": "1180b84e5c002a30bf0ed9f42fd7e7d8", "lon": -77.043485}, {"is_reserved": 0, "fusion_lon": 0.0, "fusion_lat": 0.0, "name": "48a8e687ddd7a81d5fb87c60640ac16a", "type": "electric_scooter", "is_disabled": 0, "lat": 38.917003, "rental_uris": {"android": "https://dc.lft.to/lastmile_qr_scan", "ios": "https://dc.lft.to/lastmile_qr_scan"}, "bike_id": "48a8e687ddd7a81d5fb87c60640ac16a", "lon": -77.0331235}, {"is_reserved": 0, "fusion_lon": 0.0, "fusion_lat": 0.0, "name": "9f34629215c9691410c0e4040c125fc7", "type": "electric_scooter", "is_disabled": 0, "lat": 38.8850865, "rental_uris": {"android": "https://dc.lft.to/lastmile_qr_scan", "ios": "https://dc.lft.to/lastmile_qr_scan"}, "bike_id": "9f34629215c9691410c0e4040c125fc7", "lon": -76.99754866666666}, {"is_reserved": 0, "fusion_lon": 0.0, "fusion_lat": 0.0, "name": "4ef32ab39b6dd91f58c38ab95b49ccbe", "type": "electric_scooter", "is_disabled": 0, "lat": 38.906387333333335, "rental_uris": {"android": "https://dc.lft.to/lastmile_qr_scan", "ios": "https://dc.lft.to/lastmile_qr_scan"}, "bike_id": "4ef32ab39b6dd91f58c38ab95b49ccbe", "lon": -77.069141}, {"is_reserved": 0, "fusion_lon": 0.0, "fusion_lat": 0.0, "name": "53c456660df807b72dab3167ac603c0b", "type": "electric_scooter", "is_disabled": 0, "lat": 38.93079816666667, "rental_uris": {"android": "https://dc.lft.to/lastmile_qr_scan", "ios": "https://dc.lft.to/lastmile_qr_scan"}, "bike_id": "53c456660df807b72dab3167ac603c0b", "lon": -77.01987533333333}, {"is_reserved": 0, "fusion_lon": 0.0, "fusion_lat": 0.0, "name": "bd24525f933fc9483b8f59e13b529b69", "type": "electric_scooter", "is_disabled": 0, "lat": 38.934184, "rental_uris": {"android": "https://dc.lft.to/lastmile_qr_scan", "ios": "https://dc.lft.to/lastmile_qr_scan"}, "bike_id": "bd24525f933fc9483b8f59e13b529b69", "lon": -77.04407616666667}, {"is_reserved": 0, "fusion_lon": 0.0, "fusion_lat": 0.0, "name": "a2e6fe8334069732f164e7d2dcbd29cf", "type": "electric_scooter", "is_disabled": 0, "lat": 38.92647483333333, "rental_uris": {"android": "https://dc.lft.to/lastmile_qr_scan", "ios": "https://dc.lft.to/lastmile_qr_scan"}, "bike_id": "a2e6fe8334069732f164e7d2dcbd29cf", "lon": -77.026964}, {"is_reserved": 0, "fusion_lon": 0.0, "fusion_lat": 0.0, "name": "13c6faf59fbeb68590279ebb0bf29f54", "type": "electric_scooter", "is_disabled": 0, "lat": 38.95071316666667, "rental_uris": {"android": "https://dc.lft.to/lastmile_qr_scan", "ios": "https://dc.lft.to/lastmile_qr_scan"}, "bike_id": "13c6faf59fbeb68590279ebb0bf29f54", "lon": -76.99566766666666}, {"is_reserved": 0, "fusion_lon": 0.0, "fusion_lat": 0.0, "name": "649053f70f2d199fa0e1491397f4c432", "type": "electric_scooter", "is_disabled": 0, "lat": 38.91568016666667, "rental_uris": {"android": "https://dc.lft.to/lastmile_qr_scan", "ios": "https://dc.lft.to/lastmile_qr_scan"}, "bike_id": "649053f70f2d199fa0e1491397f4c432", "lon": -77.0318295}, {"is_reserved": 0, "fusion_lon": 0.0, "fusion_lat": 0.0, "name": "e4680c5b4e78b868ae030da5605855d3", "type": "electric_bike", "is_disabled": 0, "lat": 38.953081, "rental_uris": {"android": "https://dc.lft.to/lastmile_qr_scan", "ios": "https://dc.lft.to/lastmile_qr_scan"}, "bike_id": "e4680c5b4e78b868ae030da5605855d3", "lon": -77.02375666666667}, {"is_reserved": 0, "fusion_lon": 0.0, "fusion_lat": 0.0, "name": "cd95a94b4485e36f5b376554f93a12d7", "type": "electric_scooter", "is_disabled": 0, "lat": 38.881065666666665, "rental_uris": {"android": "https://dc.lft.to/lastmile_qr_scan", "ios": "https://dc.lft.to/lastmile_qr_scan"}, "bike_id": "cd95a94b4485e36f5b376554f93a12d7", "lon": -77.01651683333333}, {"is_reserved": 0, "fusion_lon": 0.0, "fusion_lat": 0.0, "name": "5fd923a1f29a434e801202aadb73b3a1", "type": "electric_scooter", "is_disabled": 0, "lat": 38.896163, "rental_uris": {"android": "https://dc.lft.to/lastmile_qr_scan", "ios": "https://dc.lft.to/lastmile_qr_scan"}, "bike_id": "5fd923a1f29a434e801202aadb73b3a1", "lon": -77.045961}, {"is_reserved": 0, "fusion_lon": 0.0, "fusion_lat": 0.0, "name": "b00a1f86dd46418d2d2d130ded3a2c03", "type": "electric_scooter", "is_disabled": 0, "lat": 38.89611633333333, "rental_uris": {"android": "https://dc.lft.to/lastmile_qr_scan", "ios": "https://dc.lft.to/lastmile_qr_scan"}, "bike_id": "b00a1f86dd46418d2d2d130ded3a2c03", "lon": -77.0497845}, {"is_reserved": 0, "fusion_lon": 0.0, "fusion_lat": 0.0, "name": "ba81ad6fdc53d735b2e869a4f61b2ba1", "type": "electric_scooter", "is_disabled": 0, "lat": 38.88533183333333, "rental_uris": {"android": "https://dc.lft.to/lastmile_qr_scan", "ios": "https://dc.lft.to/lastmile_qr_scan"}, "bike_id": "ba81ad6fdc53d735b2e869a4f61b2ba1", "lon": -76.9805745}, {"is_reserved": 0, "fusion_lon": 0.0, "fusion_lat": 0.0, "name": "25444e29d5703413689b6137aef184d5", "type": "electric_scooter", "is_disabled": 0, "lat": 38.9430275, "rental_uris": {"android": "https://dc.lft.to/lastmile_qr_scan", "ios": "https://dc.lft.to/lastmile_qr_scan"}, "bike_id": "25444e29d5703413689b6137aef184d5", "lon": -77.06299416666667}, {"is_reserved": 0, "fusion_lon": 0.0, "fusion_lat": 0.0, "name": "7b2d92ff6b9e1ee3bbfb5b171b4c0d17", "type": "electric_scooter", "is_disabled": 0, "lat": 38.9156995, "rental_uris": {"android": "https://dc.lft.to/lastmile_qr_scan", "ios": "https://dc.lft.to/lastmile_qr_scan"}, "bike_id": "7b2d92ff6b9e1ee3bbfb5b171b4c0d17", "lon": -77.03349416666667}, {"is_reserved": 0, "fusion_lon": 0.0, "fusion_lat": 0.0, "name": "aafbf97a5a1738e7a0924f520e450f05", "type": "electric_scooter", "is_disabled": 0, "lat": 38.91053633333333, "rental_uris": {"android": "https://dc.lft.to/lastmile_qr_scan", "ios": "https://dc.lft.to/lastmile_qr_scan"}, "bike_id": "aafbf97a5a1738e7a0924f520e450f05", "lon": -77.0648655}, {"is_reserved": 0, "fusion_lon": 0.0, "fusion_lat": 0.0, "name": "979db72d5532bd095f753b51c09ad7f8", "type": "electric_scooter", "is_disabled": 0, "lat": 38.90838166666666, "rental_uris": {"android": "https://dc.lft.to/lastmile_qr_scan", "ios": "https://dc.lft.to/lastmile_qr_scan"}, "bike_id": "979db72d5532bd095f753b51c09ad7f8", "lon": -77.07430233333334}, {"is_reserved": 0, "fusion_lon": 0.0, "fusion_lat": 0.0, "name": "dd36dd4b4d098f0d4e6d9694bc5dc63f", "type": "electric_scooter", "is_disabled": 0, "lat": 38.91105733333333, "rental_uris": {"android": "https://dc.lft.to/lastmile_qr_scan", "ios": "https://dc.lft.to/lastmile_qr_scan"}, "bike_id": "dd36dd4b4d098f0d4e6d9694bc5dc63f", "lon": -77.02082283333333}, {"is_reserved": 0, "fusion_lon": 0.0, "fusion_lat": 0.0, "name": "ccbb10ae4eb92b0db338d73fbebefc99", "type": "electric_scooter", "is_disabled": 0, "lat": 38.91510666666667, "rental_uris": {"android": "https://dc.lft.to/lastmile_qr_scan", "ios": "https://dc.lft.to/lastmile_qr_scan"}, "bike_id": "ccbb10ae4eb92b0db338d73fbebefc99", "lon": -77.02190283333333}, {"is_reserved": 0, "fusion_lon": 0.0, "fusion_lat": 0.0, "name": "e4020e8455bcc253ddb10f689e02e40a", "type": "electric_scooter", "is_disabled": 0, "lat": 38.92574916666667, "rental_uris": {"android": "https://dc.lft.to/lastmile_qr_scan", "ios": "https://dc.lft.to/lastmile_qr_scan"}, "bike_id": "e4020e8455bcc253ddb10f689e02e40a", "lon": -77.052902}, {"is_reserved": 0, "fusion_lon": 0.0, "fusion_lat": 0.0, "name": "9bc6d8324c8b3f4d4b70c38e339b418d", "type": "electric_scooter", "is_disabled": 0, "lat": 38.92339966666667, "rental_uris": {"android": "https://dc.lft.to/lastmile_qr_scan", "ios": "https://dc.lft.to/lastmile_qr_scan"}, "bike_id": "9bc6d8324c8b3f4d4b70c38e339b418d", "lon": -77.0214825}, {"is_reserved": 0, "fusion_lon": 0.0, "fusion_lat": 0.0, "name": "062da5b986e10035cee32c1725f63ef3", "type": "electric_scooter", "is_disabled": 0, "lat": 38.9242795, "rental_uris": {"android": "https://dc.lft.to/lastmile_qr_scan", "ios": "https://dc.lft.to/lastmile_qr_scan"}, "bike_id": "062da5b986e10035cee32c1725f63ef3", "lon": -77.0355185}, {"is_reserved": 0, "fusion_lon": 0.0, "fusion_lat": 0.0, "name": "34754235f2cbedb01786fddc234f88e6", "type": "electric_scooter", "is_disabled": 0, "lat": 38.89230633333333, "rental_uris": {"android": "https://dc.lft.to/lastmile_qr_scan", "ios": "https://dc.lft.to/lastmile_qr_scan"}, "bike_id": "34754235f2cbedb01786fddc234f88e6", "lon": -77.02622533333333}, {"is_reserved": 0, "fusion_lon": 0.0, "fusion_lat": 0.0, "name": "9c9b0a963ab5b8da97521d18081f9205", "type": "electric_scooter", "is_disabled": 0, "lat": 38.88739533333333, "rental_uris": {"android": "https://dc.lft.to/lastmile_qr_scan", "ios": "https://dc.lft.to/lastmile_qr_scan"}, "bike_id": "9c9b0a963ab5b8da97521d18081f9205", "lon": -77.0317685}, {"is_reserved": 0, "fusion_lon": 0.0, "fusion_lat": 0.0, "name": "cc5803f4c3232826a04bdafeabc69c4b", "type": "electric_scooter", "is_disabled": 0, "lat": 38.93176283333333, "rental_uris": {"android": "https://dc.lft.to/lastmile_qr_scan", "ios": "https://dc.lft.to/lastmile_qr_scan"}, "bike_id": "cc5803f4c3232826a04bdafeabc69c4b", "lon": -76.9962175}, {"is_reserved": 0, "fusion_lon": 0.0, "fusion_lat": 0.0, "name": "27f6d312b15e973221b2d8175479b7f7", "type": "electric_scooter", "is_disabled": 0, "lat": 38.9107495, "rental_uris": {"android": "https://dc.lft.to/lastmile_qr_scan", "ios": "https://dc.lft.to/lastmile_qr_scan"}, "bike_id": "27f6d312b15e973221b2d8175479b7f7", "lon": -77.03652616666666}, {"is_reserved": 0, "fusion_lon": 0.0, "fusion_lat": 0.0, "name": "76f036b2b12d286bda0f1ca07dd4c7a8", "type": "electric_scooter", "is_disabled": 0, "lat": 38.90094366666667, "rental_uris": {"android": "https://dc.lft.to/lastmile_qr_scan", "ios": "https://dc.lft.to/lastmile_qr_scan"}, "bike_id": "76f036b2b12d286bda0f1ca07dd4c7a8", "lon": -77.024634}, {"is_reserved": 0, "fusion_lon": 0.0, "fusion_lat": 0.0, "name": "6d7c085bfc36b343cd8606cf20720ba6", "type": "electric_scooter", "is_disabled": 0, "lat": 38.9102145, "rental_uris": {"android": "https://dc.lft.to/lastmile_qr_scan", "ios": "https://dc.lft.to/lastmile_qr_scan"}, "bike_id": "6d7c085bfc36b343cd8606cf20720ba6", "lon": -77.06493}, {"is_reserved": 0, "fusion_lon": 0.0, "fusion_lat": 0.0, "name": "9c134a5373ffe9a435f59bc053bbbf80", "type": "electric_scooter", "is_disabled": 0, "lat": 38.89968616666667, "rental_uris": {"android": "https://dc.lft.to/lastmile_qr_scan", "ios": "https://dc.lft.to/lastmile_qr_scan"}, "bike_id": "9c134a5373ffe9a435f59bc053bbbf80", "lon": -77.055703}, {"is_reserved": 0, "fusion_lon": 0.0, "fusion_lat": 0.0, "name": "a30cbb9b12b09dad5fbf9835dd84dd73", "type": "electric_scooter", "is_disabled": 0, "lat": 38.92087433333333, "rental_uris": {"android": "https://dc.lft.to/lastmile_qr_scan", "ios": "https://dc.lft.to/lastmile_qr_scan"}, "bike_id": "a30cbb9b12b09dad5fbf9835dd84dd73", "lon": -77.04676333333333}, {"is_reserved": 0, "fusion_lon": 0.0, "fusion_lat": 0.0, "name": "af065a4337887dcc073ab62a2c6dc2f7", "type": "electric_scooter", "is_disabled": 0, "lat": 38.8718475, "rental_uris": {"android": "https://dc.lft.to/lastmile_qr_scan", "ios": "https://dc.lft.to/lastmile_qr_scan"}, "bike_id": "af065a4337887dcc073ab62a2c6dc2f7", "lon": -77.00593883333333}, {"is_reserved": 0, "fusion_lon": 0.0, "fusion_lat": 0.0, "name": "1ee3f9f022eb41b31bcbc4ff60feacf2", "type": "electric_scooter", "is_disabled": 0, "lat": 38.893975, "rental_uris": {"android": "https://dc.lft.to/lastmile_qr_scan", "ios": "https://dc.lft.to/lastmile_qr_scan"}, "bike_id": "1ee3f9f022eb41b31bcbc4ff60feacf2", "lon": -77.04424016666667}, {"is_reserved": 0, "fusion_lon": 0.0, "fusion_lat": 0.0, "name": "f4dd1df771ac280c62c354e280da868b", "type": "electric_scooter", "is_disabled": 0, "lat": 38.91689433333333, "rental_uris": {"android": "https://dc.lft.to/lastmile_qr_scan", "ios": "https://dc.lft.to/lastmile_qr_scan"}, "bike_id": "f4dd1df771ac280c62c354e280da868b", "lon": -77.0271395}, {"is_reserved": 0, "fusion_lon": 0.0, "fusion_lat": 0.0, "name": "1c746ae753f27db0e9fa1bccda57414c", "type": "electric_scooter", "is_disabled": 0, "lat": 38.89954733333333, "rental_uris": {"android": "https://dc.lft.to/lastmile_qr_scan", "ios": "https://dc.lft.to/lastmile_qr_scan"}, "bike_id": "1c746ae753f27db0e9fa1bccda57414c", "lon": -77.01451516666667}, {"is_reserved": 0, "fusion_lon": 0.0, "fusion_lat": 0.0, "name": "0b14b5be4c9a3a93929b9d21c1f3ac67", "type": "electric_scooter", "is_disabled": 0, "lat": 38.900340166666666, "rental_uris": {"android": "https://dc.lft.to/lastmile_qr_scan", "ios": "https://dc.lft.to/lastmile_qr_scan"}, "bike_id": "0b14b5be4c9a3a93929b9d21c1f3ac67", "lon": -77.00700433333333}, {"is_reserved": 0, "fusion_lon": 0.0, "fusion_lat": 0.0, "name": "870641e52859cbeda6aec41b32294699", "type": "electric_scooter", "is_disabled": 0, "lat": 38.9010745, "rental_uris": {"android": "https://dc.lft.to/lastmile_qr_scan", "ios": "https://dc.lft.to/lastmile_qr_scan"}, "bike_id": "870641e52859cbeda6aec41b32294699", "lon": -77.050067}, {"is_reserved": 0, "fusion_lon": 0.0, "fusion_lat": 0.0, "name": "e5a85997c8348ee47d339518ffb1653d", "type": "electric_scooter", "is_disabled": 0, "lat": 38.90135816666667, "rental_uris": {"android": "https://dc.lft.to/lastmile_qr_scan", "ios": "https://dc.lft.to/lastmile_qr_scan"}, "bike_id": "e5a85997c8348ee47d339518ffb1653d", "lon": -77.0601255}, {"is_reserved": 0, "fusion_lon": 0.0, "fusion_lat": 0.0, "name": "d5635d556e888f14be674b336ecf0cc3", "type": "electric_scooter", "is_disabled": 0, "lat": 38.90827433333333, "rental_uris": {"android": "https://dc.lft.to/lastmile_qr_scan", "ios": "https://dc.lft.to/lastmile_qr_scan"}, "bike_id": "d5635d556e888f14be674b336ecf0cc3", "lon": -76.94157883333334}, {"is_reserved": 0, "fusion_lon": 0.0, "fusion_lat": 0.0, "name": "19cbe920aa4077cb69715cfcb5a1b060", "type": "electric_scooter", "is_disabled": 0, "lat": 38.90409533333333, "rental_uris": {"android": "https://dc.lft.to/lastmile_qr_scan", "ios": "https://dc.lft.to/lastmile_qr_scan"}, "bike_id": "19cbe920aa4077cb69715cfcb5a1b060", "lon": -77.046691}, {"is_reserved": 0, "fusion_lon": 0.0, "fusion_lat": 0.0, "name": "663f335c30fe8f521c931e36e9b28011", "type": "electric_bike", "is_disabled": 0, "lat": 38.94907883333333, "rental_uris": {"android": "https://dc.lft.to/lastmile_qr_scan", "ios": "https://dc.lft.to/lastmile_qr_scan"}, "bike_id": "663f335c30fe8f521c931e36e9b28011", "lon": -77.0301225}, {"is_reserved": 0, "fusion_lon": 0.0, "fusion_lat": 0.0, "name": "ab0d19da9978dfb8239a266d7b464b29", "type": "electric_scooter", "is_disabled": 0, "lat": 38.94358616666667, "rental_uris": {"android": "https://dc.lft.to/lastmile_qr_scan", "ios": "https://dc.lft.to/lastmile_qr_scan"}, "bike_id": "ab0d19da9978dfb8239a266d7b464b29", "lon": -77.066428}, {"is_reserved": 0, "fusion_lon": 0.0, "fusion_lat": 0.0, "name": "2839a2c6768e11b94c68ebb65f947a85", "type": "electric_scooter", "is_disabled": 0, "lat": 38.9054715, "rental_uris": {"android": "https://dc.lft.to/lastmile_qr_scan", "ios": "https://dc.lft.to/lastmile_qr_scan"}, "bike_id": "2839a2c6768e11b94c68ebb65f947a85", "lon": -77.00415333333333}, {"is_reserved": 0, "fusion_lon": 0.0, "fusion_lat": 0.0, "name": "675631f250c0f4ea9812335d73eb2459", "type": "electric_scooter", "is_disabled": 0, "lat": 38.9066035, "rental_uris": {"android": "https://dc.lft.to/lastmile_qr_scan", "ios": "https://dc.lft.to/lastmile_qr_scan"}, "bike_id": "675631f250c0f4ea9812335d73eb2459", "lon": -77.0346615}, {"is_reserved": 0, "fusion_lon": 0.0, "fusion_lat": 0.0, "name": "59c5c78ed4231cbc001d229f77b6b1bd", "type": "electric_scooter", "is_disabled": 0, "lat": 38.91052766666667, "rental_uris": {"android": "https://dc.lft.to/lastmile_qr_scan", "ios": "https://dc.lft.to/lastmile_qr_scan"}, "bike_id": "59c5c78ed4231cbc001d229f77b6b1bd", "lon": -77.02204766666667}, {"is_reserved": 0, "fusion_lon": 0.0, "fusion_lat": 0.0, "name": "9f81ef4640233cc335ad29b3028358c9", "type": "electric_scooter", "is_disabled": 0, "lat": 38.90705366666667, "rental_uris": {"android": "https://dc.lft.to/lastmile_qr_scan", "ios": "https://dc.lft.to/lastmile_qr_scan"}, "bike_id": "9f81ef4640233cc335ad29b3028358c9", "lon": -77.08217}, {"is_reserved": 0, "fusion_lon": 0.0, "fusion_lat": 0.0, "name": "1edcb8d3c20c80cff8c3d3105e6b8c4f", "type": "electric_bike", "is_disabled": 0, "lat": 38.872727833333336, "rental_uris": {"android": "https://dc.lft.to/lastmile_qr_scan", "ios": "https://dc.lft.to/lastmile_qr_scan"}, "bike_id": "1edcb8d3c20c80cff8c3d3105e6b8c4f", "lon": -77.2332475}, {"is_reserved": 0, "fusion_lon": 0.0, "fusion_lat": 0.0, "name": "857a1476b2591ef30e63d46585c2ae9a", "type": "electric_scooter", "is_disabled": 0, "lat": 38.908456, "rental_uris": {"android": "https://dc.lft.to/lastmile_qr_scan", "ios": "https://dc.lft.to/lastmile_qr_scan"}, "bike_id": "857a1476b2591ef30e63d46585c2ae9a", "lon": -77.04339833333333}, {"is_reserved": 0, "fusion_lon": 0.0, "fusion_lat": 0.0, "name": "880be0f6ed05169708d3a57a68fc7292", "type": "electric_scooter", "is_disabled": 0, "lat": 38.907463166666666, "rental_uris": {"android": "https://dc.lft.to/lastmile_qr_scan", "ios": "https://dc.lft.to/lastmile_qr_scan"}, "bike_id": "880be0f6ed05169708d3a57a68fc7292", "lon": -76.98513516666667}, {"is_reserved": 0, "fusion_lon": 0.0, "fusion_lat": 0.0, "name": "02a9bc5492bc41e3865927e0dc1a692d", "type": "electric_scooter", "is_disabled": 0, "lat": 38.911193, "rental_uris": {"android": "https://dc.lft.to/lastmile_qr_scan", "ios": "https://dc.lft.to/lastmile_qr_scan"}, "bike_id": "02a9bc5492bc41e3865927e0dc1a692d", "lon": -77.031529}, {"is_reserved": 0, "fusion_lon": 0.0, "fusion_lat": 0.0, "name": "a911d3094cbcb03cfb991aa7fd7d9e96", "type": "electric_scooter", "is_disabled": 0, "lat": 38.9451555, "rental_uris": {"android": "https://dc.lft.to/lastmile_qr_scan", "ios": "https://dc.lft.to/lastmile_qr_scan"}, "bike_id": "a911d3094cbcb03cfb991aa7fd7d9e96", "lon": -77.03316183333334}, {"is_reserved": 0, "fusion_lon": 0.0, "fusion_lat": 0.0, "name": "9948f7b7cde39e1ee42c2e0de6f2b3c6", "type": "electric_scooter", "is_disabled": 0, "lat": 38.908246, "rental_uris": {"android": "https://dc.lft.to/lastmile_qr_scan", "ios": "https://dc.lft.to/lastmile_qr_scan"}, "bike_id": "9948f7b7cde39e1ee42c2e0de6f2b3c6", "lon": -76.9921575}, {"is_reserved": 0, "fusion_lon": 0.0, "fusion_lat": 0.0, "name": "c532c2eabb73138fc300d70c8ab38526", "type": "electric_bike", "is_disabled": 0, "lat": 38.858944, "rental_uris": {"android": "https://dc.lft.to/lastmile_qr_scan", "ios": "https://dc.lft.to/lastmile_qr_scan"}, "bike_id": "c532c2eabb73138fc300d70c8ab38526", "lon": -77.11862866666667}, {"is_reserved": 0, "fusion_lon": 0.0, "fusion_lat": 0.0, "name": "2481648275975a2821b7f7e228156f22", "type": "electric_scooter", "is_disabled": 0, "lat": 38.892191, "rental_uris": {"android": "https://dc.lft.to/lastmile_qr_scan", "ios": "https://dc.lft.to/lastmile_qr_scan"}, "bike_id": "2481648275975a2821b7f7e228156f22", "lon": -77.03192216666666}, {"is_reserved": 0, "fusion_lon": 0.0, "fusion_lat": 0.0, "name": "d79790f83702d4d7077cdf4fb8a555b5", "type": "electric_scooter", "is_disabled": 0, "lat": 38.902109, "rental_uris": {"android": "https://dc.lft.to/lastmile_qr_scan", "ios": "https://dc.lft.to/lastmile_qr_scan"}, "bike_id": "d79790f83702d4d7077cdf4fb8a555b5", "lon": -77.04665216666666}, {"is_reserved": 0, "fusion_lon": 0.0, "fusion_lat": 0.0, "name": "c0ebc307fc46981cdbd074e40f0a9a63", "type": "electric_scooter", "is_disabled": 0, "lat": 38.92156383333333, "rental_uris": {"android": "https://dc.lft.to/lastmile_qr_scan", "ios": "https://dc.lft.to/lastmile_qr_scan"}, "bike_id": "c0ebc307fc46981cdbd074e40f0a9a63", "lon": -77.03507283333333}, {"is_reserved": 0, "fusion_lon": 0.0, "fusion_lat": 0.0, "name": "e9f200ca9540d7947878ef7c893ae6e3", "type": "electric_scooter", "is_disabled": 0, "lat": 38.921649, "rental_uris": {"android": "https://dc.lft.to/lastmile_qr_scan", "ios": "https://dc.lft.to/lastmile_qr_scan"}, "bike_id": "e9f200ca9540d7947878ef7c893ae6e3", "lon": -77.03330383333333}, {"is_reserved": 0, "fusion_lon": 0.0, "fusion_lat": 0.0, "name": "1b7b8f5bbc86edc5fe88f33c75c24c01", "type": "electric_scooter", "is_disabled": 0, "lat": 38.916996166666664, "rental_uris": {"android": "https://dc.lft.to/lastmile_qr_scan", "ios": "https://dc.lft.to/lastmile_qr_scan"}, "bike_id": "1b7b8f5bbc86edc5fe88f33c75c24c01", "lon": -77.03116283333334}, {"is_reserved": 0, "fusion_lon": 0.0, "fusion_lat": 0.0, "name": "92b8e11173f34c63cafc9507923ce545", "type": "electric_scooter", "is_disabled": 0, "lat": 38.916137666666664, "rental_uris": {"android": "https://dc.lft.to/lastmile_qr_scan", "ios": "https://dc.lft.to/lastmile_qr_scan"}, "bike_id": "92b8e11173f34c63cafc9507923ce545", "lon": -77.03165516666667}, {"is_reserved": 0, "fusion_lon": 0.0, "fusion_lat": 0.0, "name": "98da4a2309764465b767bf7b72db83df", "type": "electric_bike", "is_disabled": 0, "lat": 38.87987583333334, "rental_uris": {"android": "https://dc.lft.to/lastmile_qr_scan", "ios": "https://dc.lft.to/lastmile_qr_scan"}, "bike_id": "98da4a2309764465b767bf7b72db83df", "lon": -76.91597933333334}, {"is_reserved": 0, "fusion_lon": 0.0, "fusion_lat": 0.0, "name": "a543afd7183be25ebc80980c8c9bd2cf", "type": "electric_scooter", "is_disabled": 0, "lat": 38.907379, "rental_uris": {"android": "https://dc.lft.to/lastmile_qr_scan", "ios": "https://dc.lft.to/lastmile_qr_scan"}, "bike_id": "a543afd7183be25ebc80980c8c9bd2cf", "lon": -77.04498466666666}, {"is_reserved": 0, "fusion_lon": 0.0, "fusion_lat": 0.0, "name": "93368b5ab9d6debdb3e5d872a2d1bde0", "type": "electric_bike", "is_disabled": 0, "lat": 38.80013783333333, "rental_uris": {"android": "https://dc.lft.to/lastmile_qr_scan", "ios": "https://dc.lft.to/lastmile_qr_scan"}, "bike_id": "93368b5ab9d6debdb3e5d872a2d1bde0", "lon": -77.054794}, {"is_reserved": 0, "fusion_lon": 0.0, "fusion_lat": 0.0, "name": "ebc06bbab4855771761e062f0f2b6b17", "type": "electric_scooter", "is_disabled": 0, "lat": 38.929445333333334, "rental_uris": {"android": "https://dc.lft.to/lastmile_qr_scan", "ios": "https://dc.lft.to/lastmile_qr_scan"}, "bike_id": "ebc06bbab4855771761e062f0f2b6b17", "lon": -77.0164235}, {"is_reserved": 0, "fusion_lon": 0.0, "fusion_lat": 0.0, "name": "ed1e43f78cba463140ea17080c168d29", "type": "electric_scooter", "is_disabled": 0, "lat": 38.887304, "rental_uris": {"android": "https://dc.lft.to/lastmile_qr_scan", "ios": "https://dc.lft.to/lastmile_qr_scan"}, "bike_id": "ed1e43f78cba463140ea17080c168d29", "lon": -77.02177516666667}, {"is_reserved": 0, "fusion_lon": 0.0, "fusion_lat": 0.0, "name": "143ced54299d3207cfaf7eb3bd04545c", "type": "electric_scooter", "is_disabled": 0, "lat": 38.89258316666667, "rental_uris": {"android": "https://dc.lft.to/lastmile_qr_scan", "ios": "https://dc.lft.to/lastmile_qr_scan"}, "bike_id": "143ced54299d3207cfaf7eb3bd04545c", "lon": -76.98832333333333}, {"is_reserved": 0, "fusion_lon": 0.0, "fusion_lat": 0.0, "name": "bedb48f8266aa0145654f8b89e6d43aa", "type": "electric_scooter", "is_disabled": 0, "lat": 38.957317833333335, "rental_uris": {"android": "https://dc.lft.to/lastmile_qr_scan", "ios": "https://dc.lft.to/lastmile_qr_scan"}, "bike_id": "bedb48f8266aa0145654f8b89e6d43aa", "lon": -77.02402133333334}, {"is_reserved": 0, "fusion_lon": 0.0, "fusion_lat": 0.0, "name": "53829e7e7b326e511df4b11d0e693db8", "type": "electric_scooter", "is_disabled": 0, "lat": 38.919265833333334, "rental_uris": {"android": "https://dc.lft.to/lastmile_qr_scan", "ios": "https://dc.lft.to/lastmile_qr_scan"}, "bike_id": "53829e7e7b326e511df4b11d0e693db8", "lon": -77.03170616666667}, {"is_reserved": 0, "fusion_lon": 0.0, "fusion_lat": 0.0, "name": "20f5869323c91ab255ba103062459c78", "type": "electric_scooter", "is_disabled": 0, "lat": 38.9014055, "rental_uris": {"android": "https://dc.lft.to/lastmile_qr_scan", "ios": "https://dc.lft.to/lastmile_qr_scan"}, "bike_id": "20f5869323c91ab255ba103062459c78", "lon": -77.0001}, {"is_reserved": 0, "fusion_lon": 0.0, "fusion_lat": 0.0, "name": "92e8544188530121b8464db5bfb1c6e9", "type": "electric_scooter", "is_disabled": 0, "lat": 38.90502516666667, "rental_uris": {"android": "https://dc.lft.to/lastmile_qr_scan", "ios": "https://dc.lft.to/lastmile_qr_scan"}, "bike_id": "92e8544188530121b8464db5bfb1c6e9", "lon": -76.98072266666667}, {"is_reserved": 0, "fusion_lon": 0.0, "fusion_lat": 0.0, "name": "888e08e65275518834672da7ede7859a", "type": "electric_scooter", "is_disabled": 0, "lat": 38.89917533333333, "rental_uris": {"android": "https://dc.lft.to/lastmile_qr_scan", "ios": "https://dc.lft.to/lastmile_qr_scan"}, "bike_id": "888e08e65275518834672da7ede7859a", "lon": -76.93366083333333}, {"is_reserved": 0, "fusion_lon": 0.0, "fusion_lat": 0.0, "name": "b93e3c250dcab8790e871e8dc2149b62", "type": "electric_scooter", "is_disabled": 0, "lat": 38.917140333333336, "rental_uris": {"android": "https://dc.lft.to/lastmile_qr_scan", "ios": "https://dc.lft.to/lastmile_qr_scan"}, "bike_id": "b93e3c250dcab8790e871e8dc2149b62", "lon": -77.0089}, {"is_reserved": 0, "fusion_lon": 0.0, "fusion_lat": 0.0, "name": "d1d9e0e475c7cf402ed3d668ce6d8150", "type": "electric_scooter", "is_disabled": 0, "lat": 38.915252333333335, "rental_uris": {"android": "https://dc.lft.to/lastmile_qr_scan", "ios": "https://dc.lft.to/lastmile_qr_scan"}, "bike_id": "d1d9e0e475c7cf402ed3d668ce6d8150", "lon": -77.032043}, {"is_reserved": 0, "fusion_lon": 0.0, "fusion_lat": 0.0, "name": "90aa3d1e0b672d18608b7b11e1aa5d4c", "type": "electric_scooter", "is_disabled": 0, "lat": 38.905094166666665, "rental_uris": {"android": "https://dc.lft.to/lastmile_qr_scan", "ios": "https://dc.lft.to/lastmile_qr_scan"}, "bike_id": "90aa3d1e0b672d18608b7b11e1aa5d4c", "lon": -77.0384225}, {"is_reserved": 0, "fusion_lon": 0.0, "fusion_lat": 0.0, "name": "a3c3996bcca2163786adc3fd30c6a18e", "type": "electric_scooter", "is_disabled": 0, "lat": 38.86657733333333, "rental_uris": {"android": "https://dc.lft.to/lastmile_qr_scan", "ios": "https://dc.lft.to/lastmile_qr_scan"}, "bike_id": "a3c3996bcca2163786adc3fd30c6a18e", "lon": -76.98885033333333}, {"is_reserved": 0, "fusion_lon": 0.0, "fusion_lat": 0.0, "name": "b9b80e6bcf9cd5fb482283196eb55e8f", "type": "electric_bike", "is_disabled": 0, "lat": 38.92215516666667, "rental_uris": {"android": "https://dc.lft.to/lastmile_qr_scan", "ios": "https://dc.lft.to/lastmile_qr_scan"}, "bike_id": "b9b80e6bcf9cd5fb482283196eb55e8f", "lon": -76.987978}, {"is_reserved": 0, "fusion_lon": 0.0, "fusion_lat": 0.0, "name": "5cc69666a49f6d5e2d01c4c82a26b68c", "type": "electric_scooter", "is_disabled": 0, "lat": 38.920268, "rental_uris": {"android": "https://dc.lft.to/lastmile_qr_scan", "ios": "https://dc.lft.to/lastmile_qr_scan"}, "bike_id": "5cc69666a49f6d5e2d01c4c82a26b68c", "lon": -77.0112145}, {"is_reserved": 0, "fusion_lon": 0.0, "fusion_lat": 0.0, "name": "e5054c2064fafb77f4ac23435ac394ce", "type": "electric_scooter", "is_disabled": 0, "lat": 38.957514, "rental_uris": {"android": "https://dc.lft.to/lastmile_qr_scan", "ios": "https://dc.lft.to/lastmile_qr_scan"}, "bike_id": "e5054c2064fafb77f4ac23435ac394ce", "lon": -77.0206535}, {"is_reserved": 0, "fusion_lon": 0.0, "fusion_lat": 0.0, "name": "ce53e253d41444aab268ff000a0c630f", "type": "electric_scooter", "is_disabled": 0, "lat": 38.897267, "rental_uris": {"android": "https://dc.lft.to/lastmile_qr_scan", "ios": "https://dc.lft.to/lastmile_qr_scan"}, "bike_id": "ce53e253d41444aab268ff000a0c630f", "lon": -77.01371566666667}, {"is_reserved": 0, "fusion_lon": 0.0, "fusion_lat": 0.0, "name": "d426ad04b2b626b6b29d30ab5691dd7e", "type": "electric_scooter", "is_disabled": 0, "lat": 38.89194166666667, "rental_uris": {"android": "https://dc.lft.to/lastmile_qr_scan", "ios": "https://dc.lft.to/lastmile_qr_scan"}, "bike_id": "d426ad04b2b626b6b29d30ab5691dd7e", "lon": -76.988554}, {"is_reserved": 0, "fusion_lon": 0.0, "fusion_lat": 0.0, "name": "0648ac9998df6b1c17367c4f039d537c", "type": "electric_scooter", "is_disabled": 0, "lat": 38.87551583333333, "rental_uris": {"android": "https://dc.lft.to/lastmile_qr_scan", "ios": "https://dc.lft.to/lastmile_qr_scan"}, "bike_id": "0648ac9998df6b1c17367c4f039d537c", "lon": -77.00607483333333}, {"is_reserved": 0, "fusion_lon": 0.0, "fusion_lat": 0.0, "name": "424edca161271648c27fb337cedb4f3e", "type": "electric_scooter", "is_disabled": 0, "lat": 38.9220745, "rental_uris": {"android": "https://dc.lft.to/lastmile_qr_scan", "ios": "https://dc.lft.to/lastmile_qr_scan"}, "bike_id": "424edca161271648c27fb337cedb4f3e", "lon": -77.02025866666666}, {"is_reserved": 0, "fusion_lon": 0.0, "fusion_lat": 0.0, "name": "a85ac4f8758113d6d900e47b333c8f7f", "type": "electric_scooter", "is_disabled": 0, "lat": 38.89717366666667, "rental_uris": {"android": "https://dc.lft.to/lastmile_qr_scan", "ios": "https://dc.lft.to/lastmile_qr_scan"}, "bike_id": "a85ac4f8758113d6d900e47b333c8f7f", "lon": -76.97346083333333},