{"data": {"bikes": [{"bike_id": "f4d74a4dc32f6281ad19ff25fab0f6c8", "type": "electric_scooter", "is_disabled": 0, "lat": 38.92241116666667, "rental_uris": {"ios": "https://dc.lft.to/lastmile_qr_scan", "android": "https://dc.lft.to/lastmile_qr_scan"}, "is_reserved": 0, "fusion_lon": 0.0, "fusion_lat": 0.0, "lon": -77.03911416666666, "name": "f4d74a4dc32f6281ad19ff25fab0f6c8"}, {"bike_id": "946bb21158d760aa97afc64d83a088b3", "type": "electric_bike", "is_disabled": 0, "lat": 38.857711, "rental_uris": {"ios": "https://dc.lft.to/lastmile_qr_scan", "android": "https://dc.lft.to/lastmile_qr_scan"}, "is_reserved": 0, "fusion_lon": 0.0, "fusion_lat": 0.0, "lon": -76.987571, "name": "946bb21158d760aa97afc64d83a088b3"}, {"bike_id": "2814d9ed45351e7bbb127f5ee01ac879", "type": "electric_scooter", "is_disabled": 0, "lat": 38.915537, "rental_uris": {"ios": "https://dc.lft.to/lastmile_qr_scan", "android": "https://dc.lft.to/lastmile_qr_scan"}, "is_reserved": 0, "fusion_lon": 0.0, "fusion_lat": 0.0, "lon": -77.0351335, "name": "2814d9ed45351e7bbb127f5ee01ac879"}, {"bike_id": "3ea2dafea781ea6bc318eba214c7f8a9", "type": "electric_scooter", "is_disabled": 0, "lat": 38.9287935, "rental_uris": {"ios": "https://dc.lft.to/lastmile_qr_scan", "android": "https://dc.lft.to/lastmile_qr_scan"}, "is_reserved": 0, "fusion_lon": 0.0, "fusion_lat": 0.0, "lon": -77.02712816666667, "name": "3ea2dafea781ea6bc318eba214c7f8a9"}, {"bike_id": "603c45446cf94b603c291b753d908fe2", "type": "electric_bike", "is_disabled": 0, "lat": 38.93864666666666, "rental_uris": {"ios": "https://dc.lft.to/lastmile_qr_scan", "android": "https://dc.lft.to/lastmile_qr_scan"}, "is_reserved": 0, "fusion_lon": 0.0, "fusion_lat": 0.0, "lon": -77.02690416666667, "name": "603c45446cf94b603c291b753d908fe2"}, {"bike_id": "45cb724f7f521a7b179b92c1290f98c6", "type": "electric_scooter", "is_disabled": 0, "lat": 38.91917933333333, "rental_uris": {"ios": "https://dc.lft.to/lastmile_qr_scan", "android": "https://dc.lft.to/lastmile_qr_scan"}, "is_reserved": 0, "fusion_lon": 0.0, "fusion_lat": 0.0, "lon": -77.03417933333333, "name": "45cb724f7f521a7b179b92c1290f98c6"}, {"bike_id": "a5b6afe2cc46503cd285869626281eb0", "type": "electric_scooter", "is_disabled": 0, "lat": 38.93661316666667, "rental_uris": {"ios": "https://dc.lft.to/lastmile_qr_scan", "android": "https://dc.lft.to/lastmile_qr_scan"}, "is_reserved": 0, "fusion_lon": 0.0, "fusion_lat": 0.0, "lon": -77.05500283333333, "name": "a5b6afe2cc46503cd285869626281eb0"}, {"bike_id": "95f1787baf465dc92a7424b3a1543d4c", "type": "electric_scooter", "is_disabled": 0, "lat": 38.9265575, "rental_uris": {"ios": "https://dc.lft.to/lastmile_qr_scan", "android": "https://dc.lft.to/lastmile_qr_scan"}, "is_reserved": 0, "fusion_lon": 0.0, "fusion_lat": 0.0, "lon": -77.0372655, "name": "95f1787baf465dc92a7424b3a1543d4c"}, {"bike_id": "9d4843cf27077590958254845b971c21", "type": "electric_scooter", "is_disabled": 0, "lat": 38.911121666666666, "rental_uris": {"ios": "https://dc.lft.to/lastmile_qr_scan", "android": "https://dc.lft.to/lastmile_qr_scan"}, "is_reserved": 0, "fusion_lon": 0.0, "fusion_lat": 0.0, "lon": -77.03361416666667, "name": "9d4843cf27077590958254845b971c21"}, {"bike_id": "a31831a187783bdd5a23545c1140f733", "type": "electric_scooter", "is_disabled": 0, "lat": 38.92822666666667, "rental_uris": {"ios": "https://dc.lft.to/lastmile_qr_scan", "android": "https://dc.lft.to/lastmile_qr_scan"}, "is_reserved": 0, "fusion_lon": 0.0, "fusion_lat": 0.0, "lon": -77.022581, "name": "a31831a187783bdd5a23545c1140f733"}, {"bike_id": "471199708c0f524ecc1db405240ddc68", "type": "electric_scooter", "is_disabled": 0, "lat": 38.923549, "rental_uris": {"ios": "https://dc.lft.to/lastmile_qr_scan", "android": "https://dc.lft.to/lastmile_qr_scan"}, "is_reserved": 0, "fusion_lon": 0.0, "fusion_lat": 0.0, "lon": -77.04150633333333, "name": "471199708c0f524ecc1db405240ddc68"}, {"bike_id": "a531e463b34ed05680f981d8a21872b6", "type": "electric_scooter", "is_disabled": 0, "lat": 38.90681766666667, "rental_uris": {"ios": "https://dc.lft.to/lastmile_qr_scan", "android": "https://dc.lft.to/lastmile_qr_scan"}, "is_reserved": 0, "fusion_lon": 0.0, "fusion_lat": 0.0, "lon": -77.02696733333333, "name": "a531e463b34ed05680f981d8a21872b6"}, {"bike_id": "f6f1d2f61804b113382c13241d8e0526", "type": "electric_bike", "is_disabled": 0, "lat": 38.947844333333336, "rental_uris": {"ios": "https://dc.lft.to/lastmile_qr_scan", "android": "https://dc.lft.to/lastmile_qr_scan"}, "is_reserved": 0, "fusion_lon": 0.0, "fusion_lat": 0.0, "lon": -76.9721055, "name": "f6f1d2f61804b113382c13241d8e0526"}, {"bike_id": "662c7833627dc93d3f67d21ebecb5188", "type": "electric_bike", "is_disabled": 0, "lat": 38.957086333333336, "rental_uris": {"ios": "https://dc.lft.to/lastmile_qr_scan", "android": "https://dc.lft.to/lastmile_qr_scan"}, "is_reserved": 0, "fusion_lon": 0.0, "fusion_lat": 0.0, "lon": -77.024013, "name": "662c7833627dc93d3f67d21ebecb5188"}, {"bike_id": "571443b573fd9f46d4d8f689685ff3ae", "type": "electric_scooter", "is_disabled": 0, "lat": 38.907887, "rental_uris": {"ios": "https://dc.lft.to/lastmile_qr_scan", "android": "https://dc.lft.to/lastmile_qr_scan"}, "is_reserved": 0, "fusion_lon": 0.0, "fusion_lat": 0.0, "lon": -77.00962233333334, "name": "571443b573fd9f46d4d8f689685ff3ae"}, {"bike_id": "d0c108ecdd00e15bf51bd2477f84e925", "type": "electric_scooter", "is_disabled": 0, "lat": 38.939792, "rental_uris": {"ios": "https://dc.lft.to/lastmile_qr_scan", "android": "https://dc.lft.to/lastmile_qr_scan"}, "is_reserved": 0, "fusion_lon": 0.0, "fusion_lat": 0.0, "lon": -77.0314285, "name": "d0c108ecdd00e15bf51bd2477f84e925"}, {"bike_id": "5b0a2dfd1d5985d8365710c91ff103e7", "type": "electric_scooter", "is_disabled": 0, "lat": 38.93463066666666, "rental_uris": {"ios": "https://dc.lft.to/lastmile_qr_scan", "android": "https://dc.lft.to/lastmile_qr_scan"}, "is_reserved": 0, "fusion_lon": 0.0, "fusion_lat": 0.0, "lon": -76.9643725, "name": "5b0a2dfd1d5985d8365710c91ff103e7"}, {"bike_id": "1be9bcfed3ec1911650a75dd0553db9c", "type": "electric_bike", "is_disabled": 0, "lat": 39.02434383333333, "rental_uris": {"ios": "https://dc.lft.to/lastmile_qr_scan", "android": "https://dc.lft.to/lastmile_qr_scan"}, "is_reserved": 0, "fusion_lon": 0.0, "fusion_lat": 0.0, "lon": -77.13102233333333, "name": "1be9bcfed3ec1911650a75dd0553db9c"}, {"bike_id": "22432d8c1c3716c3c813a1446c1c90d8", "type": "electric_scooter", "is_disabled": 0, "lat": 38.94183983333333, "rental_uris": {"ios": "https://dc.lft.to/lastmile_qr_scan", "android": "https://dc.lft.to/lastmile_qr_scan"}, "is_reserved": 0, "fusion_lon": 0.0, "fusion_lat": 0.0, "lon": -77.02491533333334, "name": "22432d8c1c3716c3c813a1446c1c90d8"}, {"bike_id": "4fae94e997826aaff727d99e410174d2", "type": "electric_scooter", "is_disabled": 0, "lat": 38.917775, "rental_uris": {"ios": "https://dc.lft.to/lastmile_qr_scan", "android": "https://dc.lft.to/lastmile_qr_scan"}, "is_reserved": 0, "fusion_lon": 0.0, "fusion_lat": 0.0, "lon": -77.03463616666667, "name": "4fae94e997826aaff727d99e410174d2"}, {"bike_id": "be259af7311a2e167beced170cbe3d1c", "type": "electric_scooter", "is_disabled": 0, "lat": 38.904794333333335, "rental_uris": {"ios": "https://dc.lft.to/lastmile_qr_scan", "android": "https://dc.lft.to/lastmile_qr_scan"}, "is_reserved": 0, "fusion_lon": 0.0, "fusion_lat": 0.0, "lon": -77.05329533333334, "name": "be259af7311a2e167beced170cbe3d1c"}, {"bike_id": "a1f89d6715a502bc6f66f234d76b84bd", "type": "electric_scooter", "is_disabled": 0, "lat": 38.92905366666667, "rental_uris": {"ios": "https://dc.lft.to/lastmile_qr_scan", "android": "https://dc.lft.to/lastmile_qr_scan"}, "is_reserved": 0, "fusion_lon": 0.0, "fusion_lat": 0.0, "lon": -77.03635083333333, "name": "a1f89d6715a502bc6f66f234d76b84bd"}, {"bike_id": "b2cca96fba27e6ba8cca1795e9f5f6c9", "type": "electric_scooter", "is_disabled": 0, "lat": 38.90402133333333, "rental_uris": {"ios": "https://dc.lft.to/lastmile_qr_scan", "android": "https://dc.lft.to/lastmile_qr_scan"}, "is_reserved": 0, "fusion_lon": 0.0, "fusion_lat": 0.0, "lon": -77.01791716666666, "name": "b2cca96fba27e6ba8cca1795e9f5f6c9"}, {"bike_id": "c0c1473f9f0337b0ec64ed9b44e7b431", "type": "electric_scooter", "is_disabled": 0, "lat": 38.905271166666665, "rental_uris": {"ios": "https://dc.lft.to/lastmile_qr_scan", "android": "https://dc.lft.to/lastmile_qr_scan"}, "is_reserved": 0, "fusion_lon": 0.0, "fusion_lat": 0.0, "lon": -77.02629366666666, "name": "c0c1473f9f0337b0ec64ed9b44e7b431"}, {"bike_id": "9b55f0e3f3ac2651c94481088d7a2b22", "type": "electric_scooter", "is_disabled": 0, "lat": 38.90830033333334, "rental_uris": {"ios": "https://dc.lft.to/lastmile_qr_scan", "android": "https://dc.lft.to/lastmile_qr_scan"}, "is_reserved": 0, "fusion_lon": 0.0, "fusion_lat": 0.0, "lon": -77.00116633333333, "name": "9b55f0e3f3ac2651c94481088d7a2b22"}, {"bike_id": "091f15eb0737de5ed2a0de964538c2bb", "type": "electric_scooter", "is_disabled": 0, "lat": 38.89324383333334, "rental_uris": {"ios": "https://dc.lft.to/lastmile_qr_scan", "android": "https://dc.lft.to/lastmile_qr_scan"}, "is_reserved": 0, "fusion_lon": 0.0, "fusion_lat": 0.0, "lon": -77.04876083333333, "name": "091f15eb0737de5ed2a0de964538c2bb"}, {"bike_id": "2916d9b621bbd65c185ba862b80eb139", "type": "electric_scooter", "is_disabled": 0, "lat": 38.916036, "rental_uris": {"ios": "https://dc.lft.to/lastmile_qr_scan", "android": "https://dc.lft.to/lastmile_qr_scan"}, "is_reserved": 0, "fusion_lon": 0.0, "fusion_lat": 0.0, "lon": -77.01544066666666, "name": "2916d9b621bbd65c185ba862b80eb139"}, {"bike_id": "0605c5f4f099042028758dc1178c4e48", "type": "electric_scooter", "is_disabled": 0, "lat": 38.903966833333335, "rental_uris": {"ios": "https://dc.lft.to/lastmile_qr_scan", "android": "https://dc.lft.to/lastmile_qr_scan"}, "is_reserved": 0, "fusion_lon": 0.0, "fusion_lat": 0.0, "lon": -77.0651085, "name": "0605c5f4f099042028758dc1178c4e48"}, {"bike_id": "037216971714205168f2f5af45058d26", "type": "electric_bike", "is_disabled": 0, "lat": 38.8748095, "rental_uris": {"ios": "https://dc.lft.to/lastmile_qr_scan", "android": "https://dc.lft.to/lastmile_qr_scan"}, "is_reserved": 0, "fusion_lon": 0.0, "fusion_lat": 0.0, "lon": -76.96530283333334, "name": "037216971714205168f2f5af45058d26"}, {"bike_id": "a52df17ed0347a8a9536b2ccfddeaf34", "type": "electric_scooter", "is_disabled": 0, "lat": 38.893482666666664, "rental_uris": {"ios": "https://dc.lft.to/lastmile_qr_scan", "android": "https://dc.lft.to/lastmile_qr_scan"}, "is_reserved": 0, "fusion_lon": 0.0, "fusion_lat": 0.0, "lon": -76.980879, "name": "a52df17ed0347a8a9536b2ccfddeaf34"}, {"bike_id": "c98fad33b217b4cb7a30775c4860f629", "type": "electric_bike", "is_disabled": 0, "lat": 38.813345, "rental_uris": {"ios": "https://dc.lft.to/lastmile_qr_scan", "android": "https://dc.lft.to/lastmile_qr_scan"}, "is_reserved": 0, "fusion_lon": 0.0, "fusion_lat": 0.0, "lon": -77.05092916666666, "name": "c98fad33b217b4cb7a30775c4860f629"}, {"bike_id": "1b51ae651838971b0fe2657e02d0a804", "type": "electric_scooter", "is_disabled": 0, "lat": 38.9209195, "rental_uris": {"ios": "https://dc.lft.to/lastmile_qr_scan", "android": "https://dc.lft.to/lastmile_qr_scan"}, "is_reserved": 0, "fusion_lon": 0.0, "fusion_lat": 0.0, "lon": -77.023184, "name": "1b51ae651838971b0fe2657e02d0a804"}, {"bike_id": "e6ec61ba2d240d78a1d83de12bc9b46d", "type": "electric_scooter", "is_disabled": 0, "lat": 38.942914, "rental_uris": {"ios": "https://dc.lft.to/lastmile_qr_scan", "android": "https://dc.lft.to/lastmile_qr_scan"}, "is_reserved": 0, "fusion_lon": 0.0, "fusion_lat": 0.0, "lon": -77.004881, "name": "e6ec61ba2d240d78a1d83de12bc9b46d"}, {"bike_id": "489e15c56f5732895d9131c9e683c6bf", "type": "electric_scooter", "is_disabled": 0, "lat": 38.873417833333335, "rental_uris": {"ios": "https://dc.lft.to/lastmile_qr_scan", "android": "https://dc.lft.to/lastmile_qr_scan"}, "is_reserved": 0, "fusion_lon": 0.0, "fusion_lat": 0.0, "lon": -77.00048733333334, "name": "489e15c56f5732895d9131c9e683c6bf"}, {"bike_id": "154b3b6fcd0d014b12b52516a1688cf4", "type": "electric_scooter", "is_disabled": 0, "lat": 38.910084166666664, "rental_uris": {"ios": "https://dc.lft.to/lastmile_qr_scan", "android": "https://dc.lft.to/lastmile_qr_scan"}, "is_reserved": 0, "fusion_lon": 0.0, "fusion_lat": 0.0, "lon": -77.0527525, "name": "154b3b6fcd0d014b12b52516a1688cf4"}, {"bike_id": "764e61bc4f3f947cb697b595f93b226a", "type": "electric_scooter", "is_disabled": 0, "lat": 38.8852695, "rental_uris": {"ios": "https://dc.lft.to/lastmile_qr_scan", "android": "https://dc.lft.to/lastmile_qr_scan"}, "is_reserved": 0, "fusion_lon": 0.0, "fusion_lat": 0.0, "lon": -77.01136283333334, "name": "764e61bc4f3f947cb697b595f93b226a"}, {"bike_id": "0d743bd5567cf60d2804f4742d1ef137", "type": "electric_scooter", "is_disabled": 0, "lat": 38.961402, "rental_uris": {"ios": "https://dc.lft.to/lastmile_qr_scan", "android": "https://dc.lft.to/lastmile_qr_scan"}, "is_reserved": 0, "fusion_lon": 0.0, "fusion_lat": 0.0, "lon": -77.02991666666667, "name": "0d743bd5567cf60d2804f4742d1ef137"}, {"bike_id": "2aba72090432b618d5a19fc02d1aee6d", "type": "electric_bike", "is_disabled": 0, "lat": 39.039916833333336, "rental_uris": {"ios": "https://dc.lft.to/lastmile_qr_scan", "android": "https://dc.lft.to/lastmile_qr_scan"}, "is_reserved": 0, "fusion_lon": 0.0, "fusion_lat": 0.0, "lon": -76.99922416666666, "name": "2aba72090432b618d5a19fc02d1aee6d"}, {"bike_id": "a9c6e1eb2e74cab349b8e1c560b97e15", "type": "electric_scooter", "is_disabled": 0, "lat": 38.904518833333334, "rental_uris": {"ios": "https://dc.lft.to/lastmile_qr_scan", "android": "https://dc.lft.to/lastmile_qr_scan"}, "is_reserved": 0, "fusion_lon": 0.0, "fusion_lat": 0.0, "lon": -77.02707966666667, "name": "a9c6e1eb2e74cab349b8e1c560b97e15"}, {"bike_id": "9fd224068862f23f10adbe66d4f86ecb", "type": "electric_scooter", "is_disabled": 0, "lat": 38.90389183333333, "rental_uris": {"ios": "https://dc.lft.to/lastmile_qr_scan", "android": "https://dc.lft.to/lastmile_qr_scan"}, "is_reserved": 0, "fusion_lon": 0.0, "fusion_lat": 0.0, "lon": -77.04833316666667, "name": "9fd224068862f23f10adbe66d4f86ecb"}, {"bike_id": "4850e44c269fb27c7b8b68576225206c", "type": "electric_scooter", "is_disabled": 0, "lat": 38.93538683333333, "rental_uris": {"ios": "https://dc.lft.to/lastmile_qr_scan", "android": "https://dc.lft.to/lastmile_qr_scan"}, "is_reserved": 0, "fusion_lon": 0.0, "fusion_lat": 0.0, "lon": -77.02345416666667, "name": "4850e44c269fb27c7b8b68576225206c"}, {"bike_id": "7b5685ea7366ae8200c361cae69f4e86", "type": "electric_bike", "is_disabled": 0, "lat": 38.92433483333333, "rental_uris": {"ios": "https://dc.lft.to/lastmile_qr_scan", "android": "https://dc.lft.to/lastmile_qr_scan"}, "is_reserved": 0, "fusion_lon": 0.0, "fusion_lat": 0.0, "lon": -76.99651783333333, "name": "7b5685ea7366ae8200c361cae69f4e86"}, {"bike_id": "23622e6a104d8143a92444ee3e5253c8", "type": "electric_scooter", "is_disabled": 0, "lat": 38.89731866666666, "rental_uris": {"ios": "https://dc.lft.to/lastmile_qr_scan", "android": "https://dc.lft.to/lastmile_qr_scan"}, "is_reserved": 0, "fusion_lon": 0.0, "fusion_lat": 0.0, "lon": -77.05475833333334, "name": "23622e6a104d8143a92444ee3e5253c8"}, {"bike_id": "a81088b17ad9d59203063322beb2ec1d", "type": "electric_scooter", "is_disabled": 0, "lat": 38.9025765, "rental_uris": {"ios": "https://dc.lft.to/lastmile_qr_scan", "android": "https://dc.lft.to/lastmile_qr_scan"}, "is_reserved": 0, "fusion_lon": 0.0, "fusion_lat": 0.0, "lon": -76.97549433333333, "name": "a81088b17ad9d59203063322beb2ec1d"}, {"bike_id": "8adf61613b47dbb4d1d22667d986a699", "type": "electric_scooter", "is_disabled": 0, "lat": 38.92217183333333, "rental_uris": {"ios": "https://dc.lft.to/lastmile_qr_scan", "android": "https://dc.lft.to/lastmile_qr_scan"}, "is_reserved": 0, "fusion_lon": 0.0, "fusion_lat": 0.0, "lon": -77.03460616666666, "name": "8adf61613b47dbb4d1d22667d986a699"}, {"bike_id": "4d3caed408c0e3627d7603c89c567a4b", "type": "electric_scooter", "is_disabled": 0, "lat": 38.90643266666667, "rental_uris": {"ios": "https://dc.lft.to/lastmile_qr_scan", "android": "https://dc.lft.to/lastmile_qr_scan"}, "is_reserved": 0, "fusion_lon": 0.0, "fusion_lat": 0.0, "lon": -76.98586733333333, "name": "4d3caed408c0e3627d7603c89c567a4b"}, {"bike_id": "79ac6ba42f6e3adcf887b8e7864715bb", "type": "electric_scooter", "is_disabled": 0, "lat": 38.89469, "rental_uris": {"ios": "https://dc.lft.to/lastmile_qr_scan", "android": "https://dc.lft.to/lastmile_qr_scan"}, "is_reserved": 0, "fusion_lon": 0.0, "fusion_lat": 0.0, "lon": -77.028222, "name": "79ac6ba42f6e3adcf887b8e7864715bb"}, {"bike_id": "e7ffad6549febf6f955c7598696b5a85", "type": "electric_scooter", "is_disabled": 0, "lat": 38.89763116666666, "rental_uris": {"ios": "https://dc.lft.to/lastmile_qr_scan", "android": "https://dc.lft.to/lastmile_qr_scan"}, "is_reserved": 0, "fusion_lon": 0.0, "fusion_lat": 0.0, "lon": -76.92576883333334, "name": "e7ffad6549febf6f955c7598696b5a85"}, {"bike_id": "a88d7157054b3bcf5886104f133a9b75", "type": "electric_scooter", "is_disabled": 0, "lat": 38.905385, "rental_uris": {"ios": "https://dc.lft.to/lastmile_qr_scan", "android": "https://dc.lft.to/lastmile_qr_scan"}, "is_reserved": 0, "fusion_lon": 0.0, "fusion_lat": 0.0, "lon": -76.98105616666666, "name": "a88d7157054b3bcf5886104f133a9b75"}, {"bike_id": "fc3a75ca0a1ac28ab2fcf54c33f3bf7f", "type": "electric_scooter", "is_disabled": 0, "lat": 38.91412833333333, "rental_uris": {"ios": "https://dc.lft.to/lastmile_qr_scan", "android": "https://dc.lft.to/lastmile_qr_scan"}, "is_reserved": 0, "fusion_lon": 0.0, "fusion_lat": 0.0, "lon": -77.02423716666667, "name": "fc3a75ca0a1ac28ab2fcf54c33f3bf7f"}, {"bike_id": "e205c34d2257226361f3763febdb4579", "type": "electric_scooter", "is_disabled": 0, "lat": 38.89265483333333, "rental_uris": {"ios": "https://dc.lft.to/lastmile_qr_scan", "android": "https://dc.lft.to/lastmile_qr_scan"}, "is_reserved": 0, "fusion_lon": 0.0, "fusion_lat": 0.0, "lon": -77.00340366666667, "name": "e205c34d2257226361f3763febdb4579"}, {"bike_id": "a23fb59b2da928bc905bdaefd4d1f3ac", "type": "electric_scooter", "is_disabled": 0, "lat": 38.901239333333336, "rental_uris": {"ios": "https://dc.lft.to/lastmile_qr_scan", "android": "https://dc.lft.to/lastmile_qr_scan"}, "is_reserved": 0, "fusion_lon": 0.0, "fusion_lat": 0.0, "lon": -77.01839033333333, "name": "a23fb59b2da928bc905bdaefd4d1f3ac"}, {"bike_id": "4220675fa23b727c1071b616896efb59", "type": "electric_scooter", "is_disabled": 0, "lat": 38.862414666666666, "rental_uris": {"ios": "https://dc.lft.to/lastmile_qr_scan", "android": "https://dc.lft.to/lastmile_qr_scan"}, "is_reserved": 0, "fusion_lon": 0.0, "fusion_lat": 0.0, "lon": -76.99494066666666, "name": "4220675fa23b727c1071b616896efb59"}, {"bike_id": "e20a3bcb38191700518ddffe333a2efe", "type": "electric_scooter", "is_disabled": 0, "lat": 38.91804533333333, "rental_uris": {"ios": "https://dc.lft.to/lastmile_qr_scan", "android": "https://dc.lft.to/lastmile_qr_scan"}, "is_reserved": 0, "fusion_lon": 0.0, "fusion_lat": 0.0, "lon": -77.04557133333333, "name": "e20a3bcb38191700518ddffe333a2efe"}, {"bike_id": "dca5074897f522eb0e6aadfe236872b4", "type": "electric_scooter", "is_disabled": 0, "lat": 38.92732316666667, "rental_uris": {"ios": "https://dc.lft.to/lastmile_qr_scan", "android": "https://dc.lft.to/lastmile_qr_scan"}, "is_reserved": 0, "fusion_lon": 0.0, "fusion_lat": 0.0, "lon": -77.03496, "name": "dca5074897f522eb0e6aadfe236872b4"}, {"bike_id": "80ed7904dd04bf003c74be32db6aa73e", "type": "electric_scooter", "is_disabled": 0, "lat": 38.87636066666666, "rental_uris": {"ios": "https://dc.lft.to/lastmile_qr_scan", "android": "https://dc.lft.to/lastmile_qr_scan"}, "is_reserved": 0, "fusion_lon": 0.0, "fusion_lat": 0.0, "lon": -77.00456916666667, "name": "80ed7904dd04bf003c74be32db6aa73e"}, {"bike_id": "40ee50bdd8ede4fa17838891842f1f43", "type": "electric_scooter", "is_disabled": 0, "lat": 38.89608166666667, "rental_uris": {"ios": "https://dc.lft.to/lastmile_qr_scan", "android": "https://dc.lft.to/lastmile_qr_scan"}, "is_reserved": 0, "fusion_lon": 0.0, "fusion_lat": 0.0, "lon": -77.0312605, "name": "40ee50bdd8ede4fa17838891842f1f43"}, {"bike_id": "3b37642fb51e843d77fe796fa52b365d", "type": "electric_scooter", "is_disabled": 0, "lat": 38.904502666666666, "rental_uris": {"ios": "https://dc.lft.to/lastmile_qr_scan", "android": "https://dc.lft.to/lastmile_qr_scan"}, "is_reserved": 0, "fusion_lon": 0.0, "fusion_lat": 0.0, "lon": -77.0346705, "name": "3b37642fb51e843d77fe796fa52b365d"}, {"bike_id": "9fceb4f63d46857d65a13e2ef7e1f75d", "type": "electric_scooter", "is_disabled": 0, "lat": 38.832056666666666, "rental_uris": {"ios": "https://dc.lft.to/lastmile_qr_scan", "android": "https://dc.lft.to/lastmile_qr_scan"}, "is_reserved": 0, "fusion_lon": 0.0, "fusion_lat": 0.0, "lon": -77.00793683333333, "name": "9fceb4f63d46857d65a13e2ef7e1f75d"}, {"bike_id": "bb775f84d081a342c95aa6d41abef015", "type": "electric_scooter", "is_disabled": 0, "lat": 38.923184166666665, "rental_uris": {"ios": "https://dc.lft.to/lastmile_qr_scan", "android": "https://dc.lft.to/lastmile_qr_scan"}, "is_reserved": 0, "fusion_lon": 0.0, "fusion_lat": 0.0, "lon": -77.039125, "name": "bb775f84d081a342c95aa6d41abef015"}, {"bike_id": "605c96b632a190b341f40b4e40792794", "type": "electric_scooter", "is_disabled": 0, "lat": 38.88624216666667, "rental_uris": {"ios": "https://dc.lft.to/lastmile_qr_scan", "android": "https://dc.lft.to/lastmile_qr_scan"}, "is_reserved": 0, "fusion_lon": 0.0, "fusion_lat": 0.0, "lon": -76.99608033333334, "name": "605c96b632a190b341f40b4e40792794"}, {"bike_id": "60d37db86b78b261bae3db5517de49d9", "type": "electric_scooter", "is_disabled": 0, "lat": 38.91113933333333, "rental_uris": {"ios": "https://dc.lft.to/lastmile_qr_scan", "android": "https://dc.lft.to/lastmile_qr_scan"}, "is_reserved": 0, "fusion_lon": 0.0, "fusion_lat": 0.0, "lon": -77.0213475, "name": "60d37db86b78b261bae3db5517de49d9"}, {"bike_id": "2da0fe2217f26edb52e3650ddbda8e2d", "type": "electric_scooter", "is_disabled": 0, "lat": 38.878869, "rental_uris": {"ios": "https://dc.lft.to/lastmile_qr_scan", "android": "https://dc.lft.to/lastmile_qr_scan"}, "is_reserved": 0, "fusion_lon": 0.0, "fusion_lat": 0.0, "lon": -77.02315783333333, "name": "2da0fe2217f26edb52e3650ddbda8e2d"}, {"bike_id": "27345efd2c6bfbd426512cec33f19cfb", "type": "electric_scooter", "is_disabled": 0, "lat": 38.907881833333334, "rental_uris": {"ios": "https://dc.lft.to/lastmile_qr_scan", "android": "https://dc.lft.to/lastmile_qr_scan"}, "is_reserved": 0, "fusion_lon": 0.0, "fusion_lat": 0.0, "lon": -77.03808716666667, "name": "27345efd2c6bfbd426512cec33f19cfb"}, {"bike_id": "fc3971abce616a9f3c97d96d2071c4fe", "type": "electric_scooter", "is_disabled": 0, "lat": 38.909648833333335, "rental_uris": {"ios": "https://dc.lft.to/lastmile_qr_scan", "android": "https://dc.lft.to/lastmile_qr_scan"}, "is_reserved": 0, "fusion_lon": 0.0, "fusion_lat": 0.0, "lon": -77.04047333333334, "name": "fc3971abce616a9f3c97d96d2071c4fe"}, {"bike_id": "16327f13ba5b58a31fdfcb8da5d2a071", "type": "electric_scooter", "is_disabled": 0, "lat": 38.9204445, "rental_uris": {"ios": "https://dc.lft.to/lastmile_qr_scan", "android": "https://dc.lft.to/lastmile_qr_scan"}, "is_reserved": 0, "fusion_lon": 0.0, "fusion_lat": 0.0, "lon": -77.03449416666666, "name": "16327f13ba5b58a31fdfcb8da5d2a071"}, {"bike_id": "d2fcf3b4518ce64fa5af32549ce92dbb", "type": "electric_scooter", "is_disabled": 0, "lat": 38.931769, "rental_uris": {"ios": "https://dc.lft.to/lastmile_qr_scan", "android": "https://dc.lft.to/lastmile_qr_scan"}, "is_reserved": 0, "fusion_lon": 0.0, "fusion_lat": 0.0, "lon": -77.043084, "name": "d2fcf3b4518ce64fa5af32549ce92dbb"}, {"bike_id": "6f2cd50cd2fc6cef5ea9201ea97ba788", "type": "electric_scooter", "is_disabled": 0, "lat": 38.902718, "rental_uris": {"ios": "https://dc.lft.to/lastmile_qr_scan", "android": "https://dc.lft.to/lastmile_qr_scan"}, "is_reserved": 0, "fusion_lon": 0.0, "fusion_lat": 0.0, "lon": -77.01897033333333, "name": "6f2cd50cd2fc6cef5ea9201ea97ba788"}, {"bike_id": "7948cecbe91f5da25cbbc6b4b259005f", "type": "electric_scooter", "is_disabled": 0, "lat": 38.8443595, "rental_uris": {"ios": "https://dc.lft.to/lastmile_qr_scan", "android": "https://dc.lft.to/lastmile_qr_scan"}, "is_reserved": 0, "fusion_lon": 0.0, "fusion_lat": 0.0, "lon": -76.99780466666667, "name": "7948cecbe91f5da25cbbc6b4b259005f"}, {"bike_id": "2c7c8287191baa1d4b00cd7c272d3f76", "type": "electric_scooter", "is_disabled": 0, "lat": 38.9196415, "rental_uris": {"ios": "https://dc.lft.to/lastmile_qr_scan", "android": "https://dc.lft.to/lastmile_qr_scan"}, "is_reserved": 0, "fusion_lon": 0.0, "fusion_lat": 0.0, "lon": -77.042429, "name": "2c7c8287191baa1d4b00cd7c272d3f76"}, {"bike_id": "b58ad86256574f333a6ba57c6b89023f", "type": "electric_scooter", "is_disabled": 0, "lat": 38.9184675, "rental_uris": {"ios": "https://dc.lft.to/lastmile_qr_scan", "android": "https://dc.lft.to/lastmile_qr_scan"}, "is_reserved": 0, "fusion_lon": 0.0, "fusion_lat": 0.0, "lon": -77.0388515, "name": "b58ad86256574f333a6ba57c6b89023f"}, {"bike_id": "fdc2fdb067682a3460f96cce48beaf71", "type": "electric_scooter", "is_disabled": 0, "lat": 38.887146666666666, "rental_uris": {"ios": "https://dc.lft.to/lastmile_qr_scan", "android": "https://dc.lft.to/lastmile_qr_scan"}, "is_reserved": 0, "fusion_lon": 0.0, "fusion_lat": 0.0, "lon": -77.022001, "name": "fdc2fdb067682a3460f96cce48beaf71"}, {"bike_id": "daa1fe5ca4033c14eb7ccc19e0c0cd87", "type": "electric_scooter", "is_disabled": 0, "lat": 38.91480466666667, "rental_uris": {"ios": "https://dc.lft.to/lastmile_qr_scan", "android": "https://dc.lft.to/lastmile_qr_scan"}, "is_reserved": 0, "fusion_lon": 0.0, "fusion_lat": 0.0, "lon": -76.98575433333333, "name": "daa1fe5ca4033c14eb7ccc19e0c0cd87"}, {"bike_id": "e16130afb679d0974ae129599e85b8f0", "type": "electric_scooter", "is_disabled": 0, "lat": 38.900310833333336, "rental_uris": {"ios": "https://dc.lft.to/lastmile_qr_scan", "android": "https://dc.lft.to/lastmile_qr_scan"}, "is_reserved": 0, "fusion_lon": 0.0, "fusion_lat": 0.0, "lon": -76.98058233333333, "name": "e16130afb679d0974ae129599e85b8f0"}, {"bike_id": "f51a546640065e3b1070e665ebad3339", "type": "electric_scooter", "is_disabled": 0, "lat": 38.902378166666665, "rental_uris": {"ios": "https://dc.lft.to/lastmile_qr_scan", "android": "https://dc.lft.to/lastmile_qr_scan"}, "is_reserved": 0, "fusion_lon": 0.0, "fusion_lat": 0.0, "lon": -76.97411366666667, "name": "f51a546640065e3b1070e665ebad3339"}, {"bike_id": "c80ff3ba7c7577cad0d62cea3ecfbec6", "type": "electric_scooter", "is_disabled": 0, "lat": 38.90732916666666, "rental_uris": {"ios": "https://dc.lft.to/lastmile_qr_scan", "android": "https://dc.lft.to/lastmile_qr_scan"}, "is_reserved": 0, "fusion_lon": 0.0, "fusion_lat": 0.0, "lon": -77.06340333333333, "name": "c80ff3ba7c7577cad0d62cea3ecfbec6"}, {"bike_id": "15baeae38399c198c12d15b1e08ca855", "type": "electric_scooter", "is_disabled": 0, "lat": 38.925955333333334, "rental_uris": {"ios": "https://dc.lft.to/lastmile_qr_scan", "android": "https://dc.lft.to/lastmile_qr_scan"}, "is_reserved": 0, "fusion_lon": 0.0, "fusion_lat": 0.0, "lon": -77.00838116666667, "name": "15baeae38399c198c12d15b1e08ca855"}, {"bike_id": "8b7183a9401c24d36ddb5c3271aa5e16", "type": "electric_scooter", "is_disabled": 0, "lat": 38.90553633333333, "rental_uris": {"ios": "https://dc.lft.to/lastmile_qr_scan", "android": "https://dc.lft.to/lastmile_qr_scan"}, "is_reserved": 0, "fusion_lon": 0.0, "fusion_lat": 0.0, "lon": -76.98858683333333, "name": "8b7183a9401c24d36ddb5c3271aa5e16"}, {"bike_id": "d992748129a273f7c51c60ff2cbabfb6", "type": "electric_bike", "is_disabled": 0, "lat": 38.834291666666665, "rental_uris": {"ios": "https://dc.lft.to/lastmile_qr_scan", "android": "https://dc.lft.to/lastmile_qr_scan"}, "is_reserved": 0, "fusion_lon": 0.0, "fusion_lat": 0.0, "lon": -77.10357033333334, "name": "d992748129a273f7c51c60ff2cbabfb6"}, {"bike_id": "0e094994a9d28ed11db7ffd9e13a5498", "type": "electric_scooter", "is_disabled": 0, "lat": 38.90148683333334, "rental_uris": {"ios": "https://dc.lft.to/lastmile_qr_scan", "android": "https://dc.lft.to/lastmile_qr_scan"}, "is_reserved": 0, "fusion_lon": 0.0, "fusion_lat": 0.0, "lon": -77.01504116666666, "name": "0e094994a9d28ed11db7ffd9e13a5498"}, {"bike_id": "894dde242bd27a86071d357699cdedee", "type": "electric_scooter", "is_disabled": 0, "lat": 38.902849833333335, "rental_uris": {"ios": "https://dc.lft.to/lastmile_qr_scan", "android": "https://dc.lft.to/lastmile_qr_scan"}, "is_reserved": 0, "fusion_lon": 0.0, "fusion_lat": 0.0, "lon": -77.00350733333333, "name": "894dde242bd27a86071d357699cdedee"}, {"bike_id": "1720ecb1644833f3a7466da718b2fd96", "type": "electric_scooter", "is_disabled": 0, "lat": 38.9230895, "rental_uris": {"ios": "https://dc.lft.to/lastmile_qr_scan", "android": "https://dc.lft.to/lastmile_qr_scan"}, "is_reserved": 0, "fusion_lon": 0.0, "fusion_lat": 0.0, "lon": -77.01973866666667, "name": "1720ecb1644833f3a7466da718b2fd96"}, {"bike_id": "290516d7e4058e89d46f75697220cf62", "type": "electric_scooter", "is_disabled": 0, "lat": 38.92151716666667, "rental_uris": {"ios": "https://dc.lft.to/lastmile_qr_scan", "android": "https://dc.lft.to/lastmile_qr_scan"}, "is_reserved": 0, "fusion_lon": 0.0, "fusion_lat": 0.0, "lon": -77.03531, "name": "290516d7e4058e89d46f75697220cf62"}, {"bike_id": "4c38c28fc1f90a35fc5e8ff8141d0372", "type": "electric_scooter", "is_disabled": 0, "lat": 38.90681166666667, "rental_uris": {"ios": "https://dc.lft.to/lastmile_qr_scan", "android": "https://dc.lft.to/lastmile_qr_scan"}, "is_reserved": 0, "fusion_lon": 0.0, "fusion_lat": 0.0, "lon": -77.05325866666666, "name": "4c38c28fc1f90a35fc5e8ff8141d0372"}, {"bike_id": "648b21e8f8949188dd75a8eed62325fb", "type": "electric_scooter", "is_disabled": 0, "lat": 38.92849116666667, "rental_uris": {"ios": "https://dc.lft.to/lastmile_qr_scan", "android": "https://dc.lft.to/lastmile_qr_scan"}, "is_reserved": 0, "fusion_lon": 0.0, "fusion_lat": 0.0, "lon": -77.0195255, "name": "648b21e8f8949188dd75a8eed62325fb"}, {"bike_id": "f7ec237fde493702eccd6df69c6c35a4", "type": "electric_scooter", "is_disabled": 0, "lat": 38.920919166666664, "rental_uris": {"ios": "https://dc.lft.to/lastmile_qr_scan", "android": "https://dc.lft.to/lastmile_qr_scan"}, "is_reserved": 0, "fusion_lon": 0.0, "fusion_lat": 0.0, "lon": -77.02534533333333, "name": "f7ec237fde493702eccd6df69c6c35a4"}, {"bike_id": "157fb144a79294d4228fda9c7bd72d2a", "type": "electric_scooter", "is_disabled": 0, "lat": 38.95660633333333, "rental_uris": {"ios": "https://dc.lft.to/lastmile_qr_scan", "android": "https://dc.lft.to/lastmile_qr_scan"}, "is_reserved": 0, "fusion_lon": 0.0, "fusion_lat": 0.0, "lon": -77.010418, "name": "157fb144a79294d4228fda9c7bd72d2a"}, {"bike_id": "89431fb4d630006275e2f5d83374eb26", "type": "electric_scooter", "is_disabled": 0, "lat": 38.91115683333334, "rental_uris": {"ios": "https://dc.lft.to/lastmile_qr_scan", "android": "https://dc.lft.to/lastmile_qr_scan"}, "is_reserved": 0, "fusion_lon": 0.0, "fusion_lat": 0.0, "lon": -77.022384, "name": "89431fb4d630006275e2f5d83374eb26"}, {"bike_id": "aaeb53f654f12b6acedefba96a453569", "type": "electric_scooter", "is_disabled": 0, "lat": 38.9232125, "rental_uris": {"ios": "https://dc.lft.to/lastmile_qr_scan", "android": "https://dc.lft.to/lastmile_qr_scan"}, "is_reserved": 0, "fusion_lon": 0.0, "fusion_lat": 0.0, "lon": -77.021403, "name": "aaeb53f654f12b6acedefba96a453569"}, {"bike_id": "46b2f53f2811f9ca4f28e04f8080d9ec", "type": "electric_scooter", "is_disabled": 0, "lat": 38.9197625, "rental_uris": {"ios": "https://dc.lft.to/lastmile_qr_scan", "android": "https://dc.lft.to/lastmile_qr_scan"}, "is_reserved": 0, "fusion_lon": 0.0, "fusion_lat": 0.0, "lon": -77.032547, "name": "46b2f53f2811f9ca4f28e04f8080d9ec"}, {"bike_id": "5a4ca25b97ed0290f271984cb8905511", "type": "electric_bike", "is_disabled": 0, "lat": 38.95690333333334, "rental_uris": {"ios": "https://dc.lft.to/lastmile_qr_scan", "android": "https://dc.lft.to/lastmile_qr_scan"}, "is_reserved": 0, "fusion_lon": 0.0, "fusion_lat": 0.0, "lon": -77.02224516666666, "name": "5a4ca25b97ed0290f271984cb8905511"}, {"bike_id": "ca6ee4e5dc63f973519cfd592066141a", "type": "electric_scooter", "is_disabled": 0, "lat": 38.91812983333333, "rental_uris": {"ios": "https://dc.lft.to/lastmile_qr_scan", "android": "https://dc.lft.to/lastmile_qr_scan"}, "is_reserved": 0, "fusion_lon": 0.0, "fusion_lat": 0.0, "lon": -77.03128316666667, "name": "ca6ee4e5dc63f973519cfd592066141a"}, {"bike_id": "5fecf961be575652bc84fce47c64fade", "type": "electric_scooter", "is_disabled": 0, "lat": 38.890441333333335, "rental_uris": {"ios": "https://dc.lft.to/lastmile_qr_scan", "android": "https://dc.lft.to/lastmile_qr_scan"}, "is_reserved": 0, "fusion_lon": 0.0, "fusion_lat": 0.0, "lon": -77.0150345, "name": "5fecf961be575652bc84fce47c64fade"}, {"bike_id": "20cfa2be22e3c4547c6485633ee68035", "type": "electric_scooter", "is_disabled": 0, "lat": 38.921820833333335, "rental_uris": {"ios": "https://dc.lft.to/lastmile_qr_scan", "android": "https://dc.lft.to/lastmile_qr_scan"}, "is_reserved": 0, "fusion_lon": 0.0, "fusion_lat": 0.0, "lon": -77.019152, "name": "20cfa2be22e3c4547c6485633ee68035"}, {"bike_id": "c23861ba115e1510e5444b1ba8ecbcc2", "type": "electric_scooter", "is_disabled": 0, "lat": 38.905021166666664, "rental_uris": {"ios": "https://dc.lft.to/lastmile_qr_scan", "android": "https://dc.lft.to/lastmile_qr_scan"}, "is_reserved": 0, "fusion_lon": 0.0, "fusion_lat": 0.0, "lon": -77.025045, "name": "c23861ba115e1510e5444b1ba8ecbcc2"}, {"bike_id": "d09dc31a3f12cd3c1995168a60999f7a", "type": "electric_scooter", "is_disabled": 0, "lat": 38.951541166666665, "rental_uris": {"ios": "https://dc.lft.to/lastmile_qr_scan", "android": "https://dc.lft.to/lastmile_qr_scan"}, "is_reserved": 0, "fusion_lon": 0.0, "fusion_lat": 0.0, "lon": -77.018662, "name": "d09dc31a3f12cd3c1995168a60999f7a"}, {"bike_id": "8fee84261c60f0f7267ec4e274dfdf46", "type": "electric_scooter", "is_disabled": 0, "lat": 38.95734316666667, "rental_uris": {"ios": "https://dc.lft.to/lastmile_qr_scan", "android": "https://dc.lft.to/lastmile_qr_scan"}, "is_reserved": 0, "fusion_lon": 0.0, "fusion_lat": 0.0, "lon": -77.02402083333334, "name": "8fee84261c60f0f7267ec4e274dfdf46"}, {"bike_id": "98d3f7f3ed3475ed1b71aa2da835bab1", "type": "electric_scooter", "is_disabled": 0, "lat": 38.92370583333334, "rental_uris": {"ios": "https://dc.lft.to/lastmile_qr_scan", "android": "https://dc.lft.to/lastmile_qr_scan"}, "is_reserved": 0, "fusion_lon": 0.0, "fusion_lat": 0.0, "lon": -77.0253275, "name": "98d3f7f3ed3475ed1b71aa2da835bab1"}, {"bike_id": "5232108f2cb4ce5fcbdc1f8a8e80a9d8", "type": "electric_scooter", "is_disabled": 0, "lat": 38.864665, "rental_uris": {"ios": "https://dc.lft.to/lastmile_qr_scan", "android": "https://dc.lft.to/lastmile_qr_scan"}, "is_reserved": 0, "fusion_lon": 0.0, "fusion_lat": 0.0, "lon": -77.0126755, "name": "5232108f2cb4ce5fcbdc1f8a8e80a9d8"}, {"bike_id": "6922ec503e194652b189ed8797a23e0c", "type": "electric_scooter", "is_disabled": 0, "lat": 38.922755, "rental_uris": {"ios": "https://dc.lft.to/lastmile_qr_scan", "android": "https://dc.lft.to/lastmile_qr_scan"}, "is_reserved": 0, "fusion_lon": 0.0, "fusion_lat": 0.0, "lon": -76.9947045, "name": "6922ec503e194652b189ed8797a23e0c"}, {"bike_id": "70ab8c0050b6cfa85172fdff48b8e69c", "type": "electric_scooter", "is_disabled": 0, "lat": 38.90959933333333, "rental_uris": {"ios": "https://dc.lft.to/lastmile_qr_scan", "android": "https://dc.lft.to/lastmile_qr_scan"}, "is_reserved": 0, "fusion_lon": 0.0, "fusion_lat": 0.0, "lon": -77.04864083333334, "name": "70ab8c0050b6cfa85172fdff48b8e69c"}, {"bike_id": "c5b35949153c65ae3b7a562930ac6efd", "type": "electric_scooter", "is_disabled": 0, "lat": 38.9040855, "rental_uris": {"ios": "https://dc.lft.to/lastmile_qr_scan", "android": "https://dc.lft.to/lastmile_qr_scan"}, "is_reserved": 0, "fusion_lon": 0.0, "fusion_lat": 0.0, "lon": -76.973316, "name": "c5b35949153c65ae3b7a562930ac6efd"}, {"bike_id": "50a4fd4d89788def57acea8e76d82db3", "type": "electric_scooter", "is_disabled": 0, "lat": 38.9170735, "rental_uris": {"ios": "https://dc.lft.to/lastmile_qr_scan", "android": "https://dc.lft.to/lastmile_qr_scan"}, "is_reserved": 0, "fusion_lon": 0.0, "fusion_lat": 0.0, "lon": -77.0957785, "name": "50a4fd4d89788def57acea8e76d82db3"}, {"bike_id": "dfa3af210471fc2d091ad8eb0b62c2a6", "type": "electric_scooter", "is_disabled": 0, "lat": 38.93325566666667, "rental_uris": {"ios": "https://dc.lft.to/lastmile_qr_scan", "android": "https://dc.lft.to/lastmile_qr_scan"}, "is_reserved": 0, "fusion_lon": 0.0, "fusion_lat": 0.0, "lon": -77.03257566666667, "name": "dfa3af210471fc2d091ad8eb0b62c2a6"}, {"bike_id": "4829549b20fbabd0c52692740ac07fd2", "type": "electric_scooter", "is_disabled": 0, "lat": 38.905040666666665, "rental_uris": {"ios": "https://dc.lft.to/lastmile_qr_scan", "android": "https://dc.lft.to/lastmile_qr_scan"}, "is_reserved": 0, "fusion_lon": 0.0, "fusion_lat": 0.0, "lon": -77.0259465, "name": "4829549b20fbabd0c52692740ac07fd2"}, {"bike_id": "0d5d0e52cdc43e36c5a37b850fe8f272", "type": "electric_scooter", "is_disabled": 0, "lat": 38.900225666666664, "rental_uris": {"ios": "https://dc.lft.to/lastmile_qr_scan", "android": "https://dc.lft.to/lastmile_qr_scan"}, "is_reserved": 0, "fusion_lon": 0.0, "fusion_lat": 0.0, "lon": -77.01188816666667, "name": "0d5d0e52cdc43e36c5a37b850fe8f272"}, {"bike_id": "f291454e224daf98e973b8fb2c582fc8", "type": "electric_bike", "is_disabled": 0, "lat": 38.911746, "rental_uris": {"ios": "https://dc.lft.to/lastmile_qr_scan", "android": "https://dc.lft.to/lastmile_qr_scan"}, "is_reserved": 0, "fusion_lon": 0.0, "fusion_lat": 0.0, "lon": -77.029433, "name": "f291454e224daf98e973b8fb2c582fc8"}, {"bike_id": "d125b370ee7b55c810172754880cb337", "type": "electric_scooter", "is_disabled": 0, "lat": 38.9057185, "rental_uris": {"ios": "https://dc.lft.to/lastmile_qr_scan", "android": "https://dc.lft.to/lastmile_qr_scan"}, "is_reserved": 0, "fusion_lon": 0.0, "fusion_lat": 0.0, "lon": -77.01639133333333, "name": "d125b370ee7b55c810172754880cb337"}, {"bike_id": "76f6be44fe3d4de7cb320ea6fc77c4ce", "type": "electric_scooter", "is_disabled": 0, "lat": 38.88391333333333, "rental_uris": {"ios": "https://dc.lft.to/lastmile_qr_scan", "android": "https://dc.lft.to/lastmile_qr_scan"}, "is_reserved": 0, "fusion_lon": 0.0, "fusion_lat": 0.0, "lon": -76.954486, "name": "76f6be44fe3d4de7cb320ea6fc77c4ce"}, {"bike_id": "03beb80402347211d36e58029775f6a3", "type": "electric_scooter", "is_disabled": 0, "lat": 38.9035465, "rental_uris": {"ios": "https://dc.lft.to/lastmile_qr_scan", "android": "https://dc.lft.to/lastmile_qr_scan"}, "is_reserved": 0, "fusion_lon": 0.0, "fusion_lat": 0.0, "lon": -77.02716216666667, "name": "03beb80402347211d36e58029775f6a3"}, {"bike_id": "65c88d35f126b8a2b5142a548cd8030f", "type": "electric_bike", "is_disabled": 0, "lat": 38.796077333333336, "rental_uris": {"ios": "https://dc.lft.to/lastmile_qr_scan", "android": "https://dc.lft.to/lastmile_qr_scan"}, "is_reserved": 0, "fusion_lon": 0.0, "fusion_lat": 0.0, "lon": -76.99742633333334, "name": "65c88d35f126b8a2b5142a548cd8030f"}, {"bike_id": "27ca19a95f8fe5b154e576808edc45c2", "type": "electric_scooter", "is_disabled": 0, "lat": 38.9070965, "rental_uris": {"ios": "https://dc.lft.to/lastmile_qr_scan", "android": "https://dc.lft.to/lastmile_qr_scan"}, "is_reserved": 0, "fusion_lon": 0.0, "fusion_lat": 0.0, "lon": -77.04166066666667, "name": "27ca19a95f8fe5b154e576808edc45c2"}, {"bike_id": "de93f65098d8f751db5ff67dad0be14a", "type": "electric_scooter", "is_disabled": 0, "lat": 38.9245135, "rental_uris": {"ios": "https://dc.lft.to/lastmile_qr_scan", "android": "https://dc.lft.to/lastmile_qr_scan"}, "is_reserved": 0, "fusion_lon": 0.0, "fusion_lat": 0.0, "lon": -77.03345116666667, "name": "de93f65098d8f751db5ff67dad0be14a"}, {"bike_id": "1e61a0ce8f01833f7decc59b4c7af931", "type": "electric_scooter", "is_disabled": 0, "lat": 38.888896833333334, "rental_uris": {"ios": "https://dc.lft.to/lastmile_qr_scan", "android": "https://dc.lft.to/lastmile_qr_scan"}, "is_reserved": 0, "fusion_lon": 0.0, "fusion_lat": 0.0, "lon": -76.94779683333333, "name": "1e61a0ce8f01833f7decc59b4c7af931"}, {"bike_id": "9764d5316386b3a7f79b5d22dfbe872b", "type": "electric_scooter", "is_disabled": 0, "lat": 38.886781166666665, "rental_uris": {"ios": "https://dc.lft.to/lastmile_qr_scan", "android": "https://dc.lft.to/lastmile_qr_scan"}, "is_reserved": 0, "fusion_lon": 0.0, "fusion_lat": 0.0, "lon": -76.99141733333333, "name": "9764d5316386b3a7f79b5d22dfbe872b"}, {"bike_id": "3a1eed61f166840470f8b7b74f43411a", "type": "electric_scooter", "is_disabled": 0, "lat": 38.88506983333333, "rental_uris": {"ios": "https://dc.lft.to/lastmile_qr_scan", "android": "https://dc.lft.to/lastmile_qr_scan"}, "is_reserved": 0, "fusion_lon": 0.0, "fusion_lat": 0.0, "lon": -77.0172175, "name": "3a1eed61f166840470f8b7b74f43411a"}, {"bike_id": "6ff79ce5025f350a589bd19d43c46cf1", "type": "electric_bike", "is_disabled": 0, "lat": 38.90864066666666, "rental_uris": {"ios": "https://dc.lft.to/lastmile_qr_scan", "android": "https://dc.lft.to/lastmile_qr_scan"}, "is_reserved": 0, "fusion_lon": 0.0, "fusion_lat": 0.0, "lon": -76.9913665, "name": "6ff79ce5025f350a589bd19d43c46cf1"}, {"bike_id": "cf41185fd5915aaba8a98fd95c35b2a7", "type": "electric_scooter", "is_disabled": 0, "lat": 38.907386333333335, "rental_uris": {"ios": "https://dc.lft.to/lastmile_qr_scan", "android": "https://dc.lft.to/lastmile_qr_scan"}, "is_reserved": 0, "fusion_lon": 0.0, "fusion_lat": 0.0, "lon": -77.0294735, "name": "cf41185fd5915aaba8a98fd95c35b2a7"}, {"bike_id": "7253ee9d69481d842310b2518b2bcfb7", "type": "electric_scooter", "is_disabled": 0, "lat": 38.92314566666667, "rental_uris": {"ios": "https://dc.lft.to/lastmile_qr_scan", "android": "https://dc.lft.to/lastmile_qr_scan"}, "is_reserved": 0, "fusion_lon": 0.0, "fusion_lat": 0.0, "lon": -77.03912066666666, "name": "7253ee9d69481d842310b2518b2bcfb7"}, {"bike_id": "03cb88ad7fa9cdefe76bd011f76f1733", "type": "electric_scooter", "is_disabled": 0, "lat": 38.9196555, "rental_uris": {"ios": "https://dc.lft.to/lastmile_qr_scan", "android": "https://dc.lft.to/lastmile_qr_scan"}, "is_reserved": 0, "fusion_lon": 0.0, "fusion_lat": 0.0, "lon": -77.024146, "name": "03cb88ad7fa9cdefe76bd011f76f1733"}, {"bike_id": "4236d9aba2f549abbde354528fd8c19b", "type": "electric_scooter", "is_disabled": 0, "lat": 38.8925875, "rental_uris": {"ios": "https://dc.lft.to/lastmile_qr_scan", "android": "https://dc.lft.to/lastmile_qr_scan"}, "is_reserved": 0, "fusion_lon": 0.0, "fusion_lat": 0.0, "lon": -77.03339733333334, "name": "4236d9aba2f549abbde354528fd8c19b"}, {"bike_id": "f468da2cfd36b17fbff42c0dd58cb767", "type": "electric_scooter", "is_disabled": 0, "lat": 38.921379333333334, "rental_uris": {"ios": "https://dc.lft.to/lastmile_qr_scan", "android": "https://dc.lft.to/lastmile_qr_scan"}, "is_reserved": 0, "fusion_lon": 0.0, "fusion_lat": 0.0, "lon": -77.04125183333333, "name": "f468da2cfd36b17fbff42c0dd58cb767"}, {"bike_id": "0cfc34848885162b43f1c5635bf1182e", "type": "electric_scooter", "is_disabled": 0, "lat": 38.918125, "rental_uris": {"ios": "https://dc.lft.to/lastmile_qr_scan", "android": "https://dc.lft.to/lastmile_qr_scan"}, "is_reserved": 0, "fusion_lon": 0.0, "fusion_lat": 0.0, "lon": -77.03665066666667, "name": "0cfc34848885162b43f1c5635bf1182e"}, {"bike_id": "e17763e9fe43d2fedd204ed448d375c3", "type": "electric_scooter", "is_disabled": 0, "lat": 38.920087, "rental_uris": {"ios": "https://dc.lft.to/lastmile_qr_scan", "android": "https://dc.lft.to/lastmile_qr_scan"}, "is_reserved": 0, "fusion_lon": 0.0, "fusion_lat": 0.0, "lon": -77.01807933333333, "name": "e17763e9fe43d2fedd204ed448d375c3"}, {"bike_id": "a3dc6fed2a7bf249c8d22b6a568268ec", "type": "electric_scooter", "is_disabled": 0, "lat": 38.900982666666664, "rental_uris": {"ios": "https://dc.lft.to/lastmile_qr_scan", "android": "https://dc.lft.to/lastmile_qr_scan"}, "is_reserved": 0, "fusion_lon": 0.0, "fusion_lat": 0.0, "lon": -77.04760633333333, "name": "a3dc6fed2a7bf249c8d22b6a568268ec"}, {"bike_id": "83e809f0fd13effe605d9207ffea83d6", "type": "electric_scooter", "is_disabled": 0, "lat": 38.9208765, "rental_uris": {"ios": "https://dc.lft.to/lastmile_qr_scan", "android": "https://dc.lft.to/lastmile_qr_scan"}, "is_reserved": 0, "fusion_lon": 0.0, "fusion_lat": 0.0, "lon": -77.00436833333333, "name": "83e809f0fd13effe605d9207ffea83d6"}, {"bike_id": "9d4b03dc134af57bf2bb773156339265", "type": "electric_bike", "is_disabled": 0, "lat": 38.956439333333336, "rental_uris": {"ios": "https://dc.lft.to/lastmile_qr_scan", "android": "https://dc.lft.to/lastmile_qr_scan"}, "is_reserved": 0, "fusion_lon": 0.0, "fusion_lat": 0.0, "lon": -76.99792266666667, "name": "9d4b03dc134af57bf2bb773156339265"}, {"bike_id": "d2deecb5024416f84c7e81184054aaeb", "type": "electric_scooter", "is_disabled": 0, "lat": 38.921231, "rental_uris": {"ios": "https://dc.lft.to/lastmile_qr_scan", "android": "https://dc.lft.to/lastmile_qr_scan"}, "is_reserved": 0, "fusion_lon": 0.0, "fusion_lat": 0.0, "lon": -77.03662383333334, "name": "d2deecb5024416f84c7e81184054aaeb"}, {"bike_id": "6303fabbba62f28ae6728a30d1065c4c", "type": "electric_scooter", "is_disabled": 0, "lat": 38.91911733333333, "rental_uris": {"ios": "https://dc.lft.to/lastmile_qr_scan", "android": "https://dc.lft.to/lastmile_qr_scan"}, "is_reserved": 0, "fusion_lon": 0.0, "fusion_lat": 0.0, "lon": -77.0339195, "name": "6303fabbba62f28ae6728a30d1065c4c"}, {"bike_id": "8768ff10d63fdb6ec46b45d29065433f", "type": "electric_scooter", "is_disabled": 0, "lat": 38.919653833333335, "rental_uris": {"ios": "https://dc.lft.to/lastmile_qr_scan", "android": "https://dc.lft.to/lastmile_qr_scan"}, "is_reserved": 0, "fusion_lon": 0.0, "fusion_lat": 0.0, "lon": -77.03854633333333, "name": "8768ff10d63fdb6ec46b45d29065433f"}, {"bike_id": "a8f9f4303895282fe5e8e2f596a7622d", "type": "electric_scooter", "is_disabled": 0, "lat": 38.92058266666667, "rental_uris": {"ios": "https://dc.lft.to/lastmile_qr_scan", "android": "https://dc.lft.to/lastmile_qr_scan"}, "is_reserved": 0, "fusion_lon": 0.0, "fusion_lat": 0.0, "lon": -77.0236315, "name": "a8f9f4303895282fe5e8e2f596a7622d"}, {"bike_id": "6010c1c8d629ea3bcd9193e1e4547cc6", "type": "electric_scooter", "is_disabled": 0, "lat": 38.908646833333336, "rental_uris": {"ios": "https://dc.lft.to/lastmile_qr_scan", "android": "https://dc.lft.to/lastmile_qr_scan"}, "is_reserved": 0, "fusion_lon": 0.0, "fusion_lat": 0.0, "lon": -77.0224035, "name": "6010c1c8d629ea3bcd9193e1e4547cc6"}, {"bike_id": "d302e4a50496b28a17a8d5dfc621926d", "type": "electric_scooter", "is_disabled": 0, "lat": 38.89625866666667, "rental_uris": {"ios": "https://dc.lft.to/lastmile_qr_scan", "android": "https://dc.lft.to/lastmile_qr_scan"}, "is_reserved": 0, "fusion_lon": 0.0, "fusion_lat": 0.0, "lon": -77.03292466666667, "name": "d302e4a50496b28a17a8d5dfc621926d"}, {"bike_id": "9007fa732596da746f2ef35e96be039e", "type": "electric_bike", "is_disabled": 0, "lat": 39.013706666666664, "rental_uris": {"ios": "https://dc.lft.to/lastmile_qr_scan", "android": "https://dc.lft.to/lastmile_qr_scan"}, "is_reserved": 0, "fusion_lon": 0.0, "fusion_lat": 0.0, "lon": -76.92135183333333, "name": "9007fa732596da746f2ef35e96be039e"}, {"bike_id": "2e68e4e80f0037fbc4a9d8eef627d7cc", "type": "electric_scooter", "is_disabled": 0, "lat": 38.91633266666667, "rental_uris": {"ios": "https://dc.lft.to/lastmile_qr_scan", "android": "https://dc.lft.to/lastmile_qr_scan"}, "is_reserved": 0, "fusion_lon": 0.0, "fusion_lat": 0.0, "lon": -77.01081933333333, "name": "2e68e4e80f0037fbc4a9d8eef627d7cc"}, {"bike_id": "79c0b4718551ae911e66794be04a6b6a", "type": "electric_scooter", "is_disabled": 0, "lat": 38.924510166666664, "rental_uris": {"ios": "https://dc.lft.to/lastmile_qr_scan", "android": "https://dc.lft.to/lastmile_qr_scan"}, "is_reserved": 0, "fusion_lon": 0.0, "fusion_lat": 0.0, "lon": -77.044171, "name": "79c0b4718551ae911e66794be04a6b6a"}, {"bike_id": "e882b6663c97254c1392e57b48f4c6e2", "type": "electric_scooter", "is_disabled": 0, "lat": 38.89853316666667, "rental_uris": {"ios": "https://dc.lft.to/lastmile_qr_scan", "android": "https://dc.lft.to/lastmile_qr_scan"}, "is_reserved": 0, "fusion_lon": 0.0, "fusion_lat": 0.0, "lon": -76.9903245, "name": "e882b6663c97254c1392e57b48f4c6e2"}, {"bike_id": "1574af8c2c794efc6009beb6a327bc62", "type": "electric_scooter", "is_disabled": 0, "lat": 38.907844, "rental_uris": {"ios": "https://dc.lft.to/lastmile_qr_scan", "android": "https://dc.lft.to/lastmile_qr_scan"}, "is_reserved": 0, "fusion_lon": 0.0, "fusion_lat": 0.0, "lon": -77.01107783333333, "name": "1574af8c2c794efc6009beb6a327bc62"}, {"bike_id": "201fa627a232c39b5a761b3bad3d7e71", "type": "electric_scooter", "is_disabled": 0, "lat": 38.92258116666667, "rental_uris": {"ios": "https://dc.lft.to/lastmile_qr_scan", "android": "https://dc.lft.to/lastmile_qr_scan"}, "is_reserved": 0, "fusion_lon": 0.0, "fusion_lat": 0.0, "lon": -77.03521933333333, "name": "201fa627a232c39b5a761b3bad3d7e71"}, {"bike_id": "1f6568440ef4fde14fb4d88007ee77b8", "type": "electric_scooter", "is_disabled": 0, "lat": 38.900649666666666, "rental_uris": {"ios": "https://dc.lft.to/lastmile_qr_scan", "android": "https://dc.lft.to/lastmile_qr_scan"}, "is_reserved": 0, "fusion_lon": 0.0, "fusion_lat": 0.0, "lon": -77.048338, "name": "1f6568440ef4fde14fb4d88007ee77b8"}, {"bike_id": "3d0fe5077ef6abbfff352ca98b16d235", "type": "electric_scooter", "is_disabled": 0, "lat": 38.911227333333336, "rental_uris": {"ios": "https://dc.lft.to/lastmile_qr_scan", "android": "https://dc.lft.to/lastmile_qr_scan"}, "is_reserved": 0, "fusion_lon": 0.0, "fusion_lat": 0.0, "lon": -77.038293, "name": "3d0fe5077ef6abbfff352ca98b16d235"}, {"bike_id": "da6642daa33dcd57da69e9f9d7367412", "type": "electric_scooter", "is_disabled": 0, "lat": 38.91707733333333, "rental_uris": {"ios": "https://dc.lft.to/lastmile_qr_scan", "android": "https://dc.lft.to/lastmile_qr_scan"}, "is_reserved": 0, "fusion_lon": 0.0, "fusion_lat": 0.0, "lon": -77.01073116666667, "name": "da6642daa33dcd57da69e9f9d7367412"}, {"bike_id": "da96f0e38ad1f011c7f1900ab837792d", "type": "electric_bike", "is_disabled": 0, "lat": 38.871954, "rental_uris": {"ios": "https://dc.lft.to/lastmile_qr_scan", "android": "https://dc.lft.to/lastmile_qr_scan"}, "is_reserved": 0, "fusion_lon": 0.0, "fusion_lat": 0.0, "lon": -77.01214633333333, "name": "da96f0e38ad1f011c7f1900ab837792d"}, {"bike_id": "2da031ad90e34b54a25f219dcff4fe23", "type": "electric_scooter", "is_disabled": 0, "lat": 38.90788116666667, "rental_uris": {"ios": "https://dc.lft.to/lastmile_qr_scan", "android": "https://dc.lft.to/lastmile_qr_scan"}, "is_reserved": 0, "fusion_lon": 0.0, "fusion_lat": 0.0, "lon": -77.02037266666666, "name": "2da031ad90e34b54a25f219dcff4fe23"}, {"bike_id": "e64125879332bb54754abe6ed7ebf031", "type": "electric_scooter", "is_disabled": 0, "lat": 38.8638015, "rental_uris": {"ios": "https://dc.lft.to/lastmile_qr_scan", "android": "https://dc.lft.to/lastmile_qr_scan"}, "is_reserved": 0, "fusion_lon": 0.0, "fusion_lat": 0.0, "lon": -76.9905445, "name": "e64125879332bb54754abe6ed7ebf031"}, {"bike_id": "333d9ffd98838670b513a1aa0542ed36", "type": "electric_bike", "is_disabled": 0, "lat": 38.8956805, "rental_uris": {"ios": "https://dc.lft.to/lastmile_qr_scan", "android": "https://dc.lft.to/lastmile_qr_scan"}, "is_reserved": 0, "fusion_lon": 0.0, "fusion_lat": 0.0, "lon": -77.1274045, "name": "333d9ffd98838670b513a1aa0542ed36"}, {"bike_id": "f039073b2d65c934b53d0fb96d4e144c", "type": "electric_scooter", "is_disabled": 0, "lat": 38.862525833333336, "rental_uris": {"ios": "https://dc.lft.to/lastmile_qr_scan", "android": "https://dc.lft.to/lastmile_qr_scan"}, "is_reserved": 0, "fusion_lon": 0.0, "fusion_lat": 0.0, "lon": -76.99261633333333, "name": "f039073b2d65c934b53d0fb96d4e144c"}, {"bike_id": "60de538c78ae28119144ef6eaf04c249", "type": "electric_scooter", "is_disabled": 0, "lat": 38.91730333333334, "rental_uris": {"ios": "https://dc.lft.to/lastmile_qr_scan", "android": "https://dc.lft.to/lastmile_qr_scan"}, "is_reserved": 0, "fusion_lon": 0.0, "fusion_lat": 0.0, "lon": -77.025068, "name": "60de538c78ae28119144ef6eaf04c249"}, {"bike_id": "f5587f31c69859024ef354a24414c578", "type": "electric_scooter", "is_disabled": 0, "lat": 38.91140516666667, "rental_uris": {"ios": "https://dc.lft.to/lastmile_qr_scan", "android": "https://dc.lft.to/lastmile_qr_scan"}, "is_reserved": 0, "fusion_lon": 0.0, "fusion_lat": 0.0, "lon": -77.0269215, "name": "f5587f31c69859024ef354a24414c578"}, {"bike_id": "59093e1eb648c32b11ed1d6fbf87b4f4", "type": "electric_bike", "is_disabled": 0, "lat": 38.86874433333333, "rental_uris": {"ios": "https://dc.lft.to/lastmile_qr_scan", "android": "https://dc.lft.to/lastmile_qr_scan"}, "is_reserved": 0, "fusion_lon": 0.0, "fusion_lat": 0.0, "lon": -76.95787216666666, "name": "59093e1eb648c32b11ed1d6fbf87b4f4"}, {"bike_id": "669cb774a9dd15dfb0f59ffe9e07135b", "type": "electric_bike", "is_disabled": 0, "lat": 38.90832733333333, "rental_uris": {"ios": "https://dc.lft.to/lastmile_qr_scan", "android": "https://dc.lft.to/lastmile_qr_scan"}, "is_reserved": 0, "fusion_lon": 0.0, "fusion_lat": 0.0, "lon": -76.94158533333334, "name": "669cb774a9dd15dfb0f59ffe9e07135b"}, {"bike_id": "c494cb2748d639d50d0f001131277493", "type": "electric_scooter", "is_disabled": 0, "lat": 38.912906166666666, "rental_uris": {"ios": "https://dc.lft.to/lastmile_qr_scan", "android": "https://dc.lft.to/lastmile_qr_scan"}, "is_reserved": 0, "fusion_lon": 0.0, "fusion_lat": 0.0, "lon": -77.01977016666666, "name": "c494cb2748d639d50d0f001131277493"}, {"bike_id": "6e4e3b60b5766de9634e201893ed8db8", "type": "electric_scooter", "is_disabled": 0, "lat": 38.90785616666667, "rental_uris": {"ios": "https://dc.lft.to/lastmile_qr_scan", "android": "https://dc.lft.to/lastmile_qr_scan"}, "is_reserved": 0, "fusion_lon": 0.0, "fusion_lat": 0.0, "lon": -77.01861366666667, "name": "6e4e3b60b5766de9634e201893ed8db8"}, {"bike_id": "3456964456f1b3f267ffb95950a1c3f3", "type": "electric_scooter", "is_disabled": 0, "lat": 38.889354166666664, "rental_uris": {"ios": "https://dc.lft.to/lastmile_qr_scan", "android": "https://dc.lft.to/lastmile_qr_scan"}, "is_reserved": 0, "fusion_lon": 0.0, "fusion_lat": 0.0, "lon": -77.015046, "name": "3456964456f1b3f267ffb95950a1c3f3"}, {"bike_id": "799ad0297843b379595fe92765caecf1", "type": "electric_scooter", "is_disabled": 0, "lat": 38.90683766666667, "rental_uris": {"ios": "https://dc.lft.to/lastmile_qr_scan", "android": "https://dc.lft.to/lastmile_qr_scan"}, "is_reserved": 0, "fusion_lon": 0.0, "fusion_lat": 0.0, "lon": -77.05332116666666, "name": "799ad0297843b379595fe92765caecf1"}, {"bike_id": "69fbdf3250d4e2ff3b35df029a98ed5d", "type": "electric_scooter", "is_disabled": 0, "lat": 38.87660833333333, "rental_uris": {"ios": "https://dc.lft.to/lastmile_qr_scan", "android": "https://dc.lft.to/lastmile_qr_scan"}, "is_reserved": 0, "fusion_lon": 0.0, "fusion_lat": 0.0, "lon": -77.00278466666667, "name": "69fbdf3250d4e2ff3b35df029a98ed5d"}, {"bike_id": "468acd77f1a44f8598b31ff9a2375ee9", "type": "electric_scooter", "is_disabled": 0, "lat": 38.9311565, "rental_uris": {"ios": "https://dc.lft.to/lastmile_qr_scan", "android": "https://dc.lft.to/lastmile_qr_scan"}, "is_reserved": 0, "fusion_lon": 0.0, "fusion_lat": 0.0, "lon": -77.02097783333333, "name": "468acd77f1a44f8598b31ff9a2375ee9"}, {"bike_id": "5587c4bb94fe27e86b388903a1f4c798", "type": "electric_scooter", "is_disabled": 0, "lat": 38.83152583333333, "rental_uris": {"ios": "https://dc.lft.to/lastmile_qr_scan", "android": "https://dc.lft.to/lastmile_qr_scan"}, "is_reserved": 0, "fusion_lon": 0.0, "fusion_lat": 0.0, "lon": -77.05132516666667, "name": "5587c4bb94fe27e86b388903a1f4c798"}, {"bike_id": "1d2d27f2ae2759e3d34b33cb2555d103", "type": "electric_bike", "is_disabled": 0, "lat": 38.8011665, "rental_uris": {"ios": "https://dc.lft.to/lastmile_qr_scan", "android": "https://dc.lft.to/lastmile_qr_scan"}, "is_reserved": 0, "fusion_lon": 0.0, "fusion_lat": 0.0, "lon": -77.07041033333333, "name": "1d2d27f2ae2759e3d34b33cb2555d103"}, {"bike_id": "66a1b65fe03fe7bcd7c6c489dc8e8cfe", "type": "electric_scooter", "is_disabled": 0, "lat": 38.90735083333333, "rental_uris": {"ios": "https://dc.lft.to/lastmile_qr_scan", "android": "https://dc.lft.to/lastmile_qr_scan"}, "is_reserved": 0, "fusion_lon": 0.0, "fusion_lat": 0.0, "lon": -76.9796785, "name": "66a1b65fe03fe7bcd7c6c489dc8e8cfe"}, {"bike_id": "89b14a0494f0836ff260f43ab65cf23e", "type": "electric_scooter", "is_disabled": 0, "lat": 38.86738166666667, "rental_uris": {"ios": "https://dc.lft.to/lastmile_qr_scan", "android": "https://dc.lft.to/lastmile_qr_scan"}, "is_reserved": 0, "fusion_lon": 0.0, "fusion_lat": 0.0, "lon": -76.978612, "name": "89b14a0494f0836ff260f43ab65cf23e"}, {"bike_id": "66cee24becab17ce7d67e429fac369c2", "type": "electric_scooter", "is_disabled": 0, "lat": 38.90698316666667, "rental_uris": {"ios": "https://dc.lft.to/lastmile_qr_scan", "android": "https://dc.lft.to/lastmile_qr_scan"}, "is_reserved": 0, "fusion_lon": 0.0, "fusion_lat": 0.0, "lon": -77.03446166666667, "name": "66cee24becab17ce7d67e429fac369c2"}, {"bike_id": "2478991221072734b1256be098ab3914", "type": "electric_scooter", "is_disabled": 0, "lat": 38.92390016666667, "rental_uris": {"ios": "https://dc.lft.to/lastmile_qr_scan", "android": "https://dc.lft.to/lastmile_qr_scan"}, "is_reserved": 0, "fusion_lon": 0.0, "fusion_lat": 0.0, "lon": -77.024921, "name": "2478991221072734b1256be098ab3914"}, {"bike_id": "01bd668713e9197c51bb6c153ce46300", "type": "electric_scooter", "is_disabled": 0, "lat": 38.9178035, "rental_uris": {"ios": "https://dc.lft.to/lastmile_qr_scan", "android": "https://dc.lft.to/lastmile_qr_scan"}, "is_reserved": 0, "fusion_lon": 0.0, "fusion_lat": 0.0, "lon": -77.03455333333333, "name": "01bd668713e9197c51bb6c153ce46300"}, {"bike_id": "a467969268067b60f0adfb2c17354c44", "type": "electric_scooter", "is_disabled": 0, "lat": 38.882672, "rental_uris": {"ios": "https://dc.lft.to/lastmile_qr_scan", "android": "https://dc.lft.to/lastmile_qr_scan"}, "is_reserved": 0, "fusion_lon": 0.0, "fusion_lat": 0.0, "lon": -76.99252033333333, "name": "a467969268067b60f0adfb2c17354c44"}, {"bike_id": "3b3ab0ebd3e372296b0a24628c76fc8c", "type": "electric_scooter", "is_disabled": 0, "lat": 38.9275615, "rental_uris": {"ios": "https://dc.lft.to/lastmile_qr_scan", "android": "https://dc.lft.to/lastmile_qr_scan"}, "is_reserved": 0, "fusion_lon": 0.0, "fusion_lat": 0.0, "lon": -77.02304933333333, "name": "3b3ab0ebd3e372296b0a24628c76fc8c"}, {"bike_id": "a9689b77817e3b80b63e87debb3afaf8", "type": "electric_scooter", "is_disabled": 0, "lat": 38.91634666666667, "rental_uris": {"ios": "https://dc.lft.to/lastmile_qr_scan", "android": "https://dc.lft.to/lastmile_qr_scan"}, "is_reserved": 0, "fusion_lon": 0.0, "fusion_lat": 0.0, "lon": -77.03996516666666, "name": "a9689b77817e3b80b63e87debb3afaf8"}, {"bike_id": "156512f1a4ec6ed7b189af7600ece284", "type": "electric_scooter", "is_disabled": 0, "lat": 38.906866666666666, "rental_uris": {"ios": "https://dc.lft.to/lastmile_qr_scan", "android": "https://dc.lft.to/lastmile_qr_scan"}, "is_reserved": 0, "fusion_lon": 0.0, "fusion_lat": 0.0, "lon": -77.06341233333333, "name": "156512f1a4ec6ed7b189af7600ece284"}, {"bike_id": "ef3a72194749b7856ec82df38a71f663", "type": "electric_scooter", "is_disabled": 0, "lat": 38.90659683333333, "rental_uris": {"ios": "https://dc.lft.to/lastmile_qr_scan", "android": "https://dc.lft.to/lastmile_qr_scan"}, "is_reserved": 0, "fusion_lon": 0.0, "fusion_lat": 0.0, "lon": -77.04621, "name": "ef3a72194749b7856ec82df38a71f663"}, {"bike_id": "f50edd419b3f91dc2caa0c842e5ae57f", "type": "electric_scooter", "is_disabled": 0, "lat": 38.919191166666664, "rental_uris": {"ios": "https://dc.lft.to/lastmile_qr_scan", "android": "https://dc.lft.to/lastmile_qr_scan"}, "is_reserved": 0, "fusion_lon": 0.0, "fusion_lat": 0.0, "lon": -77.03420666666666, "name": "f50edd419b3f91dc2caa0c842e5ae57f"}, {"bike_id": "be450d113814c219ef0e4460632a8032", "type": "electric_scooter", "is_disabled": 0, "lat": 38.93872833333333, "rental_uris": {"ios": "https://dc.lft.to/lastmile_qr_scan", "android": "https://dc.lft.to/lastmile_qr_scan"}, "is_reserved": 0, "fusion_lon": 0.0, "fusion_lat": 0.0, "lon": -77.02443216666667, "name": "be450d113814c219ef0e4460632a8032"}, {"bike_id": "3d6087a918dedd1bfba366371f85c523", "type": "electric_scooter", "is_disabled": 0, "lat": 38.908236333333335, "rental_uris": {"ios": "https://dc.lft.to/lastmile_qr_scan", "android": "https://dc.lft.to/lastmile_qr_scan"}, "is_reserved": 0, "fusion_lon": 0.0, "fusion_lat": 0.0, "lon": -77.02398016666666, "name": "3d6087a918dedd1bfba366371f85c523"}, {"bike_id": "c6d2e72c52c933a431f24a2b2296a8c7", "type": "electric_scooter", "is_disabled": 0, "lat": 38.92246883333333, "rental_uris": {"ios": "https://dc.lft.to/lastmile_qr_scan", "android": "https://dc.lft.to/lastmile_qr_scan"}, "is_reserved": 0, "fusion_lon": 0.0, "fusion_lat": 0.0, "lon": -77.074745, "name": "c6d2e72c52c933a431f24a2b2296a8c7"}, {"bike_id": "91b86c17cf81c79965e55491a0fb4069", "type": "electric_scooter", "is_disabled": 0, "lat": 38.91415883333333, "rental_uris": {"ios": "https://dc.lft.to/lastmile_qr_scan", "android": "https://dc.lft.to/lastmile_qr_scan"}, "is_reserved": 0, "fusion_lon": 0.0, "fusion_lat": 0.0, "lon": -77.022899, "name": "91b86c17cf81c79965e55491a0fb4069"}, {"bike_id": "000be2075a7540f4ee0bfe8764cefb5b", "type": "electric_scooter", "is_disabled": 0, "lat": 38.90356933333333, "rental_uris": {"ios": "https://dc.lft.to/lastmile_qr_scan", "android": "https://dc.lft.to/lastmile_qr_scan"}, "is_reserved": 0, "fusion_lon": 0.0, "fusion_lat": 0.0, "lon": -77.00735566666667, "name": "000be2075a7540f4ee0bfe8764cefb5b"}, {"bike_id": "05f32a106f0e48f5181c9c762b0094b5", "type": "electric_scooter", "is_disabled": 0, "lat": 38.936844666666666, "rental_uris": {"ios": "https://dc.lft.to/lastmile_qr_scan", "android": "https://dc.lft.to/lastmile_qr_scan"}, "is_reserved": 0, "fusion_lon": 0.0, "fusion_lat": 0.0, "lon": -77.036283, "name": "05f32a106f0e48f5181c9c762b0094b5"}, {"bike_id": "69201e242f725b843642b914e00df97c", "type": "electric_scooter", "is_disabled": 0, "lat": 38.9141525, "rental_uris": {"ios": "https://dc.lft.to/lastmile_qr_scan", "android": "https://dc.lft.to/lastmile_qr_scan"}, "is_reserved": 0, "fusion_lon": 0.0, "fusion_lat": 0.0, "lon": -77.02254083333334, "name": "69201e242f725b843642b914e00df97c"}, {"bike_id": "e19adc16f2c8c26678b8f3dda32efe72", "type": "electric_scooter", "is_disabled": 0, "lat": 38.9097495, "rental_uris": {"ios": "https://dc.lft.to/lastmile_qr_scan", "android": "https://dc.lft.to/lastmile_qr_scan"}, "is_reserved": 0, "fusion_lon": 0.0, "fusion_lat": 0.0, "lon": -77.03756183333333, "name": "e19adc16f2c8c26678b8f3dda32efe72"}, {"bike_id": "167819f88536d5d5040fc6fd4a767349", "type": "electric_scooter", "is_disabled": 0, "lat": 38.903530333333336, "rental_uris": {"ios": "https://dc.lft.to/lastmile_qr_scan", "android": "https://dc.lft.to/lastmile_qr_scan"}, "is_reserved": 0, "fusion_lon": 0.0, "fusion_lat": 0.0, "lon": -77.01620066666666, "name": "167819f88536d5d5040fc6fd4a767349"}, {"bike_id": "c06b12af3e1c07a57409ff3286e80073", "type": "electric_scooter", "is_disabled": 0, "lat": 38.926594, "rental_uris": {"ios": "https://dc.lft.to/lastmile_qr_scan", "android": "https://dc.lft.to/lastmile_qr_scan"}, "is_reserved": 0, "fusion_lon": 0.0, "fusion_lat": 0.0, "lon": -77.03727766666667, "name": "c06b12af3e1c07a57409ff3286e80073"}, {"bike_id": "b37ce4f4939922d8ff1c468f5dd1333b", "type": "electric_scooter", "is_disabled": 0, "lat": 38.91577433333333, "rental_uris": {"ios": "https://dc.lft.to/lastmile_qr_scan", "android": "https://dc.lft.to/lastmile_qr_scan"}, "is_reserved": 0, "fusion_lon": 0.0, "fusion_lat": 0.0, "lon": -77.03205116666666, "name": "b37ce4f4939922d8ff1c468f5dd1333b"}, {"bike_id": "a391e76101bab31f8d1f9ad6c3f594d0", "type": "electric_scooter", "is_disabled": 0, "lat": 38.91700566666667, "rental_uris": {"ios": "https://dc.lft.to/lastmile_qr_scan", "android": "https://dc.lft.to/lastmile_qr_scan"}, "is_reserved": 0, "fusion_lon": 0.0, "fusion_lat": 0.0, "lon": -77.00796283333334, "name": "a391e76101bab31f8d1f9ad6c3f594d0"}, {"bike_id": "11e14215173d4c263496bc1d442675d0", "type": "electric_scooter", "is_disabled": 0, "lat": 38.925789333333334, "rental_uris": {"ios": "https://dc.lft.to/lastmile_qr_scan", "android": "https://dc.lft.to/lastmile_qr_scan"}, "is_reserved": 0, "fusion_lon": 0.0, "fusion_lat": 0.0, "lon": -77.02760666666667, "name": "11e14215173d4c263496bc1d442675d0"}, {"bike_id": "131451e7b3c8ec02048b29d037d3a983", "type": "electric_scooter", "is_disabled": 0, "lat": 38.916200833333335, "rental_uris": {"ios": "https://dc.lft.to/lastmile_qr_scan", "android": "https://dc.lft.to/lastmile_qr_scan"}, "is_reserved": 0, "fusion_lon": 0.0, "fusion_lat": 0.0, "lon": -77.048629, "name": "131451e7b3c8ec02048b29d037d3a983"}, {"bike_id": "100d2bfdde9c03de7adbce2fa7321ab0", "type": "electric_scooter", "is_disabled": 0, "lat": 38.918646833333334, "rental_uris": {"ios": "https://dc.lft.to/lastmile_qr_scan", "android": "https://dc.lft.to/lastmile_qr_scan"}, "is_reserved": 0, "fusion_lon": 0.0, "fusion_lat": 0.0, "lon": -77.0280395, "name": "100d2bfdde9c03de7adbce2fa7321ab0"}, {"bike_id": "ad06f6fd8fac9b7177068ceeeab3942e", "type": "electric_scooter", "is_disabled": 0, "lat": 38.901378, "rental_uris": {"ios": "https://dc.lft.to/lastmile_qr_scan", "android": "https://dc.lft.to/lastmile_qr_scan"}, "is_reserved": 0, "fusion_lon": 0.0, "fusion_lat": 0.0, "lon": -77.024871, "name": "ad06f6fd8fac9b7177068ceeeab3942e"}, {"bike_id": "72461ff9927134e3cb8792fc887de35c", "type": "electric_scooter", "is_disabled": 0, "lat": 38.8961665, "rental_uris": {"ios": "https://dc.lft.to/lastmile_qr_scan", "android": "https://dc.lft.to/lastmile_qr_scan"}, "is_reserved": 0, "fusion_lon": 0.0, "fusion_lat": 0.0, "lon": -77.00024283333333, "name": "72461ff9927134e3cb8792fc887de35c"}, {"bike_id": "11ea9a24a79d1cb7520be832a5337d60", "type": "electric_scooter", "is_disabled": 0, "lat": 38.91565266666667, "rental_uris": {"ios": "https://dc.lft.to/lastmile_qr_scan", "android": "https://dc.lft.to/lastmile_qr_scan"}, "is_reserved": 0, "fusion_lon": 0.0, "fusion_lat": 0.0, "lon": -77.02390883333334, "name": "11ea9a24a79d1cb7520be832a5337d60"}, {"bike_id": "01862f419553dfb65a9691bd338afcd2", "type": "electric_scooter", "is_disabled": 0, "lat": 38.892584166666666, "rental_uris": {"ios": "https://dc.lft.to/lastmile_qr_scan", "android": "https://dc.lft.to/lastmile_qr_scan"}, "is_reserved": 0, "fusion_lon": 0.0, "fusion_lat": 0.0, "lon": -77.03340316666667, "name": "01862f419553dfb65a9691bd338afcd2"}, {"bike_id": "c3cd75df22edc5ad3e83b437f504c1ea", "type": "electric_bike", "is_disabled": 0, "lat": 38.871409, "rental_uris": {"ios": "https://dc.lft.to/lastmile_qr_scan", "android": "https://dc.lft.to/lastmile_qr_scan"}, "is_reserved": 0, "fusion_lon": 0.0, "fusion_lat": 0.0, "lon": -77.10034816666666, "name": "c3cd75df22edc5ad3e83b437f504c1ea"}, {"bike_id": "abb93ebf02441a16796091af968fb185", "type": "electric_bike", "is_disabled": 0, "lat": 38.8360925, "rental_uris": {"ios": "https://dc.lft.to/lastmile_qr_scan", "android": "https://dc.lft.to/lastmile_qr_scan"}, "is_reserved": 0, "fusion_lon": 0.0, "fusion_lat": 0.0, "lon": -77.00383133333334, "name": "abb93ebf02441a16796091af968fb185"}, {"bike_id": "69379fc7d02e41469c686ef2d2f127d2", "type": "electric_bike", "is_disabled": 0, "lat": 38.87080483333333, "rental_uris": {"ios": "https://dc.lft.to/lastmile_qr_scan", "android": "https://dc.lft.to/lastmile_qr_scan"}, "is_reserved": 0, "fusion_lon": 0.0, "fusion_lat": 0.0, "lon": -77.01209883333334, "name": "69379fc7d02e41469c686ef2d2f127d2"}, {"bike_id": "9b4f76f941e93502389f6488f9c0f3e2", "type": "electric_bike", "is_disabled": 0, "lat": 38.8075615, "rental_uris": {"ios": "https://dc.lft.to/lastmile_qr_scan", "android": "https://dc.lft.to/lastmile_qr_scan"}, "is_reserved": 0, "fusion_lon": 0.0, "fusion_lat": 0.0, "lon": -77.09451716666666, "name": "9b4f76f941e93502389f6488f9c0f3e2"}, {"bike_id": "162ede89e91c2f2ce5c6acc3a53e6caa", "type": "electric_bike", "is_disabled": 0, "lat": 38.952402666666664, "rental_uris": {"ios": "https://dc.lft.to/lastmile_qr_scan", "android": "https://dc.lft.to/lastmile_qr_scan"}, "is_reserved": 0, "fusion_lon": 0.0, "fusion_lat": 0.0, "lon": -77.00759833333333, "name": "162ede89e91c2f2ce5c6acc3a53e6caa"}, {"bike_id": "d9bb9ca5f05e6ce9fa6610cdfc58c4d7", "type": "electric_scooter", "is_disabled": 0, "lat": 38.895496333333334, "rental_uris": {"ios": "https://dc.lft.to/lastmile_qr_scan", "android": "https://dc.lft.to/lastmile_qr_scan"}, "is_reserved": 0, "fusion_lon": 0.0, "fusion_lat": 0.0, "lon": -77.01109716666667, "name": "d9bb9ca5f05e6ce9fa6610cdfc58c4d7"}, {"bike_id": "33e19846e6b6304ac2787f4a03d73af5", "type": "electric_scooter", "is_disabled": 0, "lat": 38.9234195, "rental_uris": {"ios": "https://dc.lft.to/lastmile_qr_scan", "android": "https://dc.lft.to/lastmile_qr_scan"}, "is_reserved": 0, "fusion_lon": 0.0, "fusion_lat": 0.0, "lon": -77.00188633333333, "name": "33e19846e6b6304ac2787f4a03d73af5"}, {"bike_id": "ed440e8c6d2690fb63214c53f51b349e", "type": "electric_scooter", "is_disabled": 0, "lat": 38.9049535, "rental_uris": {"ios": "https://dc.lft.to/lastmile_qr_scan", "android": "https://dc.lft.to/lastmile_qr_scan"}, "is_reserved": 0, "fusion_lon": 0.0, "fusion_lat": 0.0, "lon": -77.019979, "name": "ed440e8c6d2690fb63214c53f51b349e"}, {"bike_id": "ba0e965bfb205921a5eaedac06739af0", "type": "electric_scooter", "is_disabled": 0, "lat": 38.889344, "rental_uris": {"ios": "https://dc.lft.to/lastmile_qr_scan", "android": "https://dc.lft.to/lastmile_qr_scan"}, "is_reserved": 0, "fusion_lon": 0.0, "fusion_lat": 0.0, "lon": -77.0150375, "name": "ba0e965bfb205921a5eaedac06739af0"}, {"bike_id": "9a7311783badf7e5db39ad3eeeb4b2ba", "type": "electric_scooter", "is_disabled": 0, "lat": 38.93645466666667, "rental_uris": {"ios": "https://dc.lft.to/lastmile_qr_scan", "android": "https://dc.lft.to/lastmile_qr_scan"}, "is_reserved": 0, "fusion_lon": 0.0, "fusion_lat": 0.0, "lon": -77.0588215, "name": "9a7311783badf7e5db39ad3eeeb4b2ba"}, {"bike_id": "afa1ca6a3266bd3b27b00285ec93ad7d", "type": "electric_scooter", "is_disabled": 0, "lat": 38.87105833333333, "rental_uris": {"ios": "https://dc.lft.to/lastmile_qr_scan", "android": "https://dc.lft.to/lastmile_qr_scan"}, "is_reserved": 0, "fusion_lon": 0.0, "fusion_lat": 0.0, "lon": -76.96575633333333, "name": "afa1ca6a3266bd3b27b00285ec93ad7d"}, {"bike_id": "36f08c9ae0df7642523915b3d57df385", "type": "electric_scooter", "is_disabled": 0, "lat": 38.92286683333333, "rental_uris": {"ios": "https://dc.lft.to/lastmile_qr_scan", "android": "https://dc.lft.to/lastmile_qr_scan"}, "is_reserved": 0, "fusion_lon": 0.0, "fusion_lat": 0.0, "lon": -76.9944735, "name": "36f08c9ae0df7642523915b3d57df385"}, {"bike_id": "ca39d9b1f239a1091984bab54b7f8a4a", "type": "electric_scooter", "is_disabled": 0, "lat": 38.922901833333334, "rental_uris": {"ios": "https://dc.lft.to/lastmile_qr_scan", "android": "https://dc.lft.to/lastmile_qr_scan"}, "is_reserved": 0, "fusion_lon": 0.0, "fusion_lat": 0.0, "lon": -77.02963883333334, "name": "ca39d9b1f239a1091984bab54b7f8a4a"}, {"bike_id": "50cdb3fe4cdf8c6bc82a14d987baffe0", "type": "electric_bike", "is_disabled": 0, "lat": 38.95173316666666, "rental_uris": {"ios": "https://dc.lft.to/lastmile_qr_scan", "android": "https://dc.lft.to/lastmile_qr_scan"}, "is_reserved": 0, "fusion_lon": 0.0, "fusion_lat": 0.0, "lon": -76.963784, "name": "50cdb3fe4cdf8c6bc82a14d987baffe0"}, {"bike_id": "af09df5c781cd395162ab817ce14f538", "type": "electric_scooter", "is_disabled": 0, "lat": 38.90554016666667, "rental_uris": {"ios": "https://dc.lft.to/lastmile_qr_scan", "android": "https://dc.lft.to/lastmile_qr_scan"}, "is_reserved": 0, "fusion_lon": 0.0, "fusion_lat": 0.0, "lon": -76.996193, "name": "af09df5c781cd395162ab817ce14f538"}, {"bike_id": "016793e91bbd48bdef5b6fc0639dc945", "type": "electric_scooter", "is_disabled": 0, "lat": 38.922609333333334, "rental_uris": {"ios": "https://dc.lft.to/lastmile_qr_scan", "android": "https://dc.lft.to/lastmile_qr_scan"}, "is_reserved": 0, "fusion_lon": 0.0, "fusion_lat": 0.0, "lon": -77.03889, "name": "016793e91bbd48bdef5b6fc0639dc945"}, {"bike_id": "9ddf5e38a9b07e0ef18558923c781ccb", "type": "electric_bike", "is_disabled": 0, "lat": 38.804117833333336, "rental_uris": {"ios": "https://dc.lft.to/lastmile_qr_scan", "android": "https://dc.lft.to/lastmile_qr_scan"}, "is_reserved": 0, "fusion_lon": 0.0, "fusion_lat": 0.0, "lon": -77.05553966666666, "name": "9ddf5e38a9b07e0ef18558923c781ccb"}, {"bike_id": "67cd4dabd90d1b322618cad5023673a3", "type": "electric_scooter", "is_disabled": 0, "lat": 38.90957316666667, "rental_uris": {"ios": "https://dc.lft.to/lastmile_qr_scan", "android": "https://dc.lft.to/lastmile_qr_scan"}, "is_reserved": 0, "fusion_lon": 0.0, "fusion_lat": 0.0, "lon": -77.04862416666667, "name": "67cd4dabd90d1b322618cad5023673a3"}, {"bike_id": "8fcaf535dc2bd5ba35ab5e69fa9eba8c", "type": "electric_scooter", "is_disabled": 0, "lat": 38.905767833333336, "rental_uris": {"ios": "https://dc.lft.to/lastmile_qr_scan", "android": "https://dc.lft.to/lastmile_qr_scan"}, "is_reserved": 0, "fusion_lon": 0.0, "fusion_lat": 0.0, "lon": -77.021976, "name": "8fcaf535dc2bd5ba35ab5e69fa9eba8c"}, {"bike_id": "2146468db9eb923abe65d4706ccf0968", "type": "electric_scooter", "is_disabled": 0, "lat": 38.924557666666665, "rental_uris": {"ios": "https://dc.lft.to/lastmile_qr_scan", "android": "https://dc.lft.to/lastmile_qr_scan"}, "is_reserved": 0, "fusion_lon": 0.0, "fusion_lat": 0.0, "lon": -76.999112, "name": "2146468db9eb923abe65d4706ccf0968"}, {"bike_id": "480f29b4a8ad557ee54da0e552bc62d6", "type": "electric_scooter", "is_disabled": 0, "lat": 38.87813583333333, "rental_uris": {"ios": "https://dc.lft.to/lastmile_qr_scan", "android": "https://dc.lft.to/lastmile_qr_scan"}, "is_reserved": 0, "fusion_lon": 0.0, "fusion_lat": 0.0, "lon": -76.9309335, "name": "480f29b4a8ad557ee54da0e552bc62d6"}, {"bike_id": "5bda2f72899c60fd14073a82846d8d6a", "type": "electric_bike", "is_disabled": 0, "lat": 38.9364665, "rental_uris": {"ios": "https://dc.lft.to/lastmile_qr_scan", "android": "https://dc.lft.to/lastmile_qr_scan"}, "is_reserved": 0, "fusion_lon": 0.0, "fusion_lat": 0.0, "lon": -77.02087716666666, "name": "5bda2f72899c60fd14073a82846d8d6a"}, {"bike_id": "74fb93bdc7f16a7f11e284704e1e06f2", "type": "electric_scooter", "is_disabled": 0, "lat": 38.932369666666666, "rental_uris": {"ios": "https://dc.lft.to/lastmile_qr_scan", "android": "https://dc.lft.to/lastmile_qr_scan"}, "is_reserved": 0, "fusion_lon": 0.0, "fusion_lat": 0.0, "lon": -77.03856616666667, "name": "74fb93bdc7f16a7f11e284704e1e06f2"}, {"bike_id": "da075b564a174d85b7537eb91b935cc5", "type": "electric_bike", "is_disabled": 0, "lat": 38.9613395, "rental_uris": {"ios": "https://dc.lft.to/lastmile_qr_scan", "android": "https://dc.lft.to/lastmile_qr_scan"}, "is_reserved": 0, "fusion_lon": 0.0, "fusion_lat": 0.0, "lon": -77.03331333333334, "name": "da075b564a174d85b7537eb91b935cc5"}, {"bike_id": "02438e52d090c5c3f54b8b56b31f7bc4", "type": "electric_scooter", "is_disabled": 0, "lat": 38.94991183333333, "rental_uris": {"ios": "https://dc.lft.to/lastmile_qr_scan", "android": "https://dc.lft.to/lastmile_qr_scan"}, "is_reserved": 0, "fusion_lon": 0.0, "fusion_lat": 0.0, "lon": -77.02706183333333, "name": "02438e52d090c5c3f54b8b56b31f7bc4"}, {"bike_id": "2f19f23286cd83c8f4b6cbf8a14bce53", "type": "electric_scooter", "is_disabled": 0, "lat": 38.900142, "rental_uris": {"ios": "https://dc.lft.to/lastmile_qr_scan", "android": "https://dc.lft.to/lastmile_qr_scan"}, "is_reserved": 0, "fusion_lon": 0.0, "fusion_lat": 0.0, "lon": -77.04481783333334, "name": "2f19f23286cd83c8f4b6cbf8a14bce53"}, {"bike_id": "a316bcc7232fb42ba4ad87c845435d83", "type": "electric_scooter", "is_disabled": 0, "lat": 38.88715033333333, "rental_uris": {"ios": "https://dc.lft.to/lastmile_qr_scan", "android": "https://dc.lft.to/lastmile_qr_scan"}, "is_reserved": 0, "fusion_lon": 0.0, "fusion_lat": 0.0, "lon": -77.0220895, "name": "a316bcc7232fb42ba4ad87c845435d83"}, {"bike_id": "6a1def9f4479dde4303491854f3e9309", "type": "electric_bike", "is_disabled": 0, "lat": 38.8729735, "rental_uris": {"ios": "https://dc.lft.to/lastmile_qr_scan", "android": "https://dc.lft.to/lastmile_qr_scan"}, "is_reserved": 0, "fusion_lon": 0.0, "fusion_lat": 0.0, "lon": -76.969802, "name": "6a1def9f4479dde4303491854f3e9309"}, {"bike_id": "90600482ba41802ba5ef1e5b44166f5b", "type": "electric_scooter", "is_disabled": 0, "lat": 38.9057575, "rental_uris": {"ios": "https://dc.lft.to/lastmile_qr_scan", "android": "https://dc.lft.to/lastmile_qr_scan"}, "is_reserved": 0, "fusion_lon": 0.0, "fusion_lat": 0.0, "lon": -77.04894766666666, "name": "90600482ba41802ba5ef1e5b44166f5b"}, {"bike_id": "e868f7835c1d1fe9300475edfa22612b", "type": "electric_scooter", "is_disabled": 0, "lat": 38.92320083333333, "rental_uris": {"ios": "https://dc.lft.to/lastmile_qr_scan", "android": "https://dc.lft.to/lastmile_qr_scan"}, "is_reserved": 0, "fusion_lon": 0.0, "fusion_lat": 0.0, "lon": -77.03810266666666, "name": "e868f7835c1d1fe9300475edfa22612b"}, {"bike_id": "041d933e910d4004042a698482cce465", "type": "electric_scooter", "is_disabled": 0, "lat": 38.9040945, "rental_uris": {"ios": "https://dc.lft.to/lastmile_qr_scan", "android": "https://dc.lft.to/lastmile_qr_scan"}, "is_reserved": 0, "fusion_lon": 0.0, "fusion_lat": 0.0, "lon": -76.97328233333333, "name": "041d933e910d4004042a698482cce465"}, {"bike_id": "b799e80af30fd7068760dc08137085c0", "type": "electric_scooter", "is_disabled": 0, "lat": 38.91030083333333, "rental_uris": {"ios": "https://dc.lft.to/lastmile_qr_scan", "android": "https://dc.lft.to/lastmile_qr_scan"}, "is_reserved": 0, "fusion_lon": 0.0, "fusion_lat": 0.0, "lon": -76.98665966666667, "name": "b799e80af30fd7068760dc08137085c0"}, {"bike_id": "e015dbfe1940ff65631d8a278f89a232", "type": "electric_scooter", "is_disabled": 0, "lat": 38.908102666666665, "rental_uris": {"ios": "https://dc.lft.to/lastmile_qr_scan", "android": "https://dc.lft.to/lastmile_qr_scan"}, "is_reserved": 0, "fusion_lon": 0.0, "fusion_lat": 0.0, "lon": -77.04971366666666, "name": "e015dbfe1940ff65631d8a278f89a232"}, {"bike_id": "4d2002ebd4137b15c5bb11879915a61b", "type": "electric_scooter", "is_disabled": 0, "lat": 38.95185716666667, "rental_uris": {"ios": "https://dc.lft.to/lastmile_qr_scan", "android": "https://dc.lft.to/lastmile_qr_scan"}, "is_reserved": 0, "fusion_lon": 0.0, "fusion_lat": 0.0, "lon": -77.02614966666667, "name": "4d2002ebd4137b15c5bb11879915a61b"}, {"bike_id": "543535e8e23a00b760fbd5d69d5e2b2c", "type": "electric_scooter", "is_disabled": 0, "lat": 38.93006483333333, "rental_uris": {"ios": "https://dc.lft.to/lastmile_qr_scan", "android": "https://dc.lft.to/lastmile_qr_scan"}, "is_reserved": 0, "fusion_lon": 0.0, "fusion_lat": 0.0, "lon": -77.03775933333333, "name": "543535e8e23a00b760fbd5d69d5e2b2c"}, {"bike_id": "397f8b89809b1deaadf9a78edc4843d2", "type": "electric_bike", "is_disabled": 0, "lat": 38.94475083333333, "rental_uris": {"ios": "https://dc.lft.to/lastmile_qr_scan", "android": "https://dc.lft.to/lastmile_qr_scan"}, "is_reserved": 0, "fusion_lon": 0.0, "fusion_lat": 0.0, "lon": -76.98684833333333, "name": "397f8b89809b1deaadf9a78edc4843d2"}, {"bike_id": "255df905eb6395efcaa667acd42c024e", "type": "electric_bike", "is_disabled": 0, "lat": 38.84922, "rental_uris": {"ios": "https://dc.lft.to/lastmile_qr_scan", "android": "https://dc.lft.to/lastmile_qr_scan"}, "is_reserved": 0, "fusion_lon": 0.0, "fusion_lat": 0.0, "lon": -77.07790733333333, "name": "255df905eb6395efcaa667acd42c024e"}, {"bike_id": "7100a5ea52c84278fd34caa679bee93e", "type": "electric_scooter", "is_disabled": 0, "lat": 38.9026885, "rental_uris": {"ios": "https://dc.lft.to/lastmile_qr_scan", "android": "https://dc.lft.to/lastmile_qr_scan"}, "is_reserved": 0, "fusion_lon": 0.0, "fusion_lat": 0.0, "lon": -77.01967466666666, "name": "7100a5ea52c84278fd34caa679bee93e"}, {"bike_id": "851fdf0ed02db0fa4b4baa8af0574aae", "type": "electric_scooter", "is_disabled": 0, "lat": 38.9238855, "rental_uris": {"ios": "https://dc.lft.to/lastmile_qr_scan", "android": "https://dc.lft.to/lastmile_qr_scan"}, "is_reserved": 0, "fusion_lon": 0.0, "fusion_lat": 0.0, "lon": -77.0365535, "name": "851fdf0ed02db0fa4b4baa8af0574aae"}, {"bike_id": "bab19528cc15b9bd483290d8a071be3e", "type": "electric_scooter", "is_disabled": 0, "lat": 38.929025333333335, "rental_uris": {"ios": "https://dc.lft.to/lastmile_qr_scan", "android": "https://dc.lft.to/lastmile_qr_scan"}, "is_reserved": 0, "fusion_lon": 0.0, "fusion_lat": 0.0, "lon": -77.02268383333333, "name": "bab19528cc15b9bd483290d8a071be3e"}, {"bike_id": "bc375ad1ff0e36992cecd1147ef949d5", "type": "electric_scooter", "is_disabled": 0, "lat": 38.90414416666667, "rental_uris": {"ios": "https://dc.lft.to/lastmile_qr_scan", "android": "https://dc.lft.to/lastmile_qr_scan"}, "is_reserved": 0, "fusion_lon": 0.0, "fusion_lat": 0.0, "lon": -77.0687815, "name": "bc375ad1ff0e36992cecd1147ef949d5"}, {"bike_id": "78dcb3d98b8e6f51594b0ee29dbb32d1", "type": "electric_scooter", "is_disabled": 0, "lat": 38.866567, "rental_uris": {"ios": "https://dc.lft.to/lastmile_qr_scan", "android": "https://dc.lft.to/lastmile_qr_scan"}, "is_reserved": 0, "fusion_lon": 0.0, "fusion_lat": 0.0, "lon": -76.98887033333334, "name": "78dcb3d98b8e6f51594b0ee29dbb32d1"}, {"bike_id": "3790e871d40c55a2762bf27fa6687d45", "type": "electric_scooter", "is_disabled": 0, "lat": 38.90728516666667, "rental_uris": {"ios": "https://dc.lft.to/lastmile_qr_scan", "android": "https://dc.lft.to/lastmile_qr_scan"}, "is_reserved": 0, "fusion_lon": 0.0, "fusion_lat": 0.0, "lon": -76.99816066666666, "name": "3790e871d40c55a2762bf27fa6687d45"}, {"bike_id": "94ddfdb7012a07633c17f0cf4477d83d", "type": "electric_scooter", "is_disabled": 0, "lat": 38.895338, "rental_uris": {"ios": "https://dc.lft.to/lastmile_qr_scan", "android": "https://dc.lft.to/lastmile_qr_scan"}, "is_reserved": 0, "fusion_lon": 0.0, "fusion_lat": 0.0, "lon": -77.01100266666667, "name": "94ddfdb7012a07633c17f0cf4477d83d"}, {"bike_id": "252a47933c13c86d74bc192825a86d8e", "type": "electric_scooter", "is_disabled": 0, "lat": 38.941025, "rental_uris": {"ios": "https://dc.lft.to/lastmile_qr_scan", "android": "https://dc.lft.to/lastmile_qr_scan"}, "is_reserved": 0, "fusion_lon": 0.0, "fusion_lat": 0.0, "lon": -77.07731666666666, "name": "252a47933c13c86d74bc192825a86d8e"}, {"bike_id": "006dcc2eedd1e35f2403ffd86b1a6f7e", "type": "electric_scooter", "is_disabled": 0, "lat": 38.94275416666667, "rental_uris": {"ios": "https://dc.lft.to/lastmile_qr_scan", "android": "https://dc.lft.to/lastmile_qr_scan"}, "is_reserved": 0, "fusion_lon": 0.0, "fusion_lat": 0.0, "lon": -77.03255183333333, "name": "006dcc2eedd1e35f2403ffd86b1a6f7e"}, {"bike_id": "5859071628a1f20bbcaf17aa15dbe958", "type": "electric_scooter", "is_disabled": 0, "lat": 38.863804333333334, "rental_uris": {"ios": "https://dc.lft.to/lastmile_qr_scan", "android": "https://dc.lft.to/lastmile_qr_scan"}, "is_reserved": 0, "fusion_lon": 0.0, "fusion_lat": 0.0, "lon": -76.99055, "name": "5859071628a1f20bbcaf17aa15dbe958"}, {"bike_id": "a962c4743664e52ad150aed001281797", "type": "electric_scooter", "is_disabled": 0, "lat": 38.9370425, "rental_uris": {"ios": "https://dc.lft.to/lastmile_qr_scan", "android": "https://dc.lft.to/lastmile_qr_scan"}, "is_reserved": 0, "fusion_lon": 0.0, "fusion_lat": 0.0, "lon": -77.03278983333334, "name": "a962c4743664e52ad150aed001281797"}, {"bike_id": "34508b0d28d063c8d6a1d61959f4e241", "type": "electric_scooter", "is_disabled": 0, "lat": 38.906124, "rental_uris": {"ios": "https://dc.lft.to/lastmile_qr_scan", "android": "https://dc.lft.to/lastmile_qr_scan"}, "is_reserved": 0, "fusion_lon": 0.0, "fusion_lat": 0.0, "lon": -77.012099, "name": "34508b0d28d063c8d6a1d61959f4e241"}, {"bike_id": "420bbac3ac5ea6f621f290e559112cbd", "type": "electric_scooter", "is_disabled": 0, "lat": 38.91773216666667, "rental_uris": {"ios": "https://dc.lft.to/lastmile_qr_scan", "android": "https://dc.lft.to/lastmile_qr_scan"}, "is_reserved": 0, "fusion_lon": 0.0, "fusion_lat": 0.0, "lon": -77.01499233333334, "name": "420bbac3ac5ea6f621f290e559112cbd"}, {"bike_id": "fe55b48dea5913c22467398637b04694", "type": "electric_scooter", "is_disabled": 0, "lat": 38.92589, "rental_uris": {"ios": "https://dc.lft.to/lastmile_qr_scan", "android": "https://dc.lft.to/lastmile_qr_scan"}, "is_reserved": 0, "fusion_lon": 0.0, "fusion_lat": 0.0, "lon": -77.04401133333333, "name": "fe55b48dea5913c22467398637b04694"}, {"bike_id": "862ae2864a4e3f932d127c2769f6f95c", "type": "electric_scooter", "is_disabled": 0, "lat": 38.88299083333333, "rental_uris": {"ios": "https://dc.lft.to/lastmile_qr_scan", "android": "https://dc.lft.to/lastmile_qr_scan"}, "is_reserved": 0, "fusion_lon": 0.0, "fusion_lat": 0.0, "lon": -76.94856216666666, "name": "862ae2864a4e3f932d127c2769f6f95c"}, {"bike_id": "4a39a4a0db2c4c19639592ed679d85f9", "type": "electric_scooter", "is_disabled": 0, "lat": 38.864789, "rental_uris": {"ios": "https://dc.lft.to/lastmile_qr_scan", "android": "https://dc.lft.to/lastmile_qr_scan"}, "is_reserved": 0, "fusion_lon": 0.0, "fusion_lat": 0.0, "lon": -76.97734366666667, "name": "4a39a4a0db2c4c19639592ed679d85f9"}, {"bike_id": "20f3183829dda95c3a5d330af33b1cf7", "type": "electric_scooter", "is_disabled": 0, "lat": 38.900605, "rental_uris": {"ios": "https://dc.lft.to/lastmile_qr_scan", "android": "https://dc.lft.to/lastmile_qr_scan"}, "is_reserved": 0, "fusion_lon": 0.0, "fusion_lat": 0.0, "lon": -77.04668666666667, "name": "20f3183829dda95c3a5d330af33b1cf7"}, {"bike_id": "518007babac7af3aa49ec5e6e7bab4ad", "type": "electric_bike", "is_disabled": 0, "lat": 38.96961533333333, "rental_uris": {"ios": "https://dc.lft.to/lastmile_qr_scan", "android": "https://dc.lft.to/lastmile_qr_scan"}, "is_reserved": 0, "fusion_lon": 0.0, "fusion_lat": 0.0, "lon": -76.95748683333333, "name": "518007babac7af3aa49ec5e6e7bab4ad"}, {"bike_id": "08b4cd3e30edfdc193102cfacf6a8b32", "type": "electric_scooter", "is_disabled": 0, "lat": 38.915802166666666, "rental_uris": {"ios": "https://dc.lft.to/lastmile_qr_scan", "android": "https://dc.lft.to/lastmile_qr_scan"}, "is_reserved": 0, "fusion_lon": 0.0, "fusion_lat": 0.0, "lon": -77.04491616666667, "name": "08b4cd3e30edfdc193102cfacf6a8b32"}, {"bike_id": "850a9ea8f8559e6ea2aec0bb33da8e01", "type": "electric_scooter", "is_disabled": 0, "lat": 38.902765333333335, "rental_uris": {"ios": "https://dc.lft.to/lastmile_qr_scan", "android": "https://dc.lft.to/lastmile_qr_scan"}, "is_reserved": 0, "fusion_lon": 0.0, "fusion_lat": 0.0, "lon": -77.0189475, "name": "850a9ea8f8559e6ea2aec0bb33da8e01"}, {"bike_id": "e6f5f99e857f44dce16f60c8cd3989cc", "type": "electric_scooter", "is_disabled": 0, "lat": 38.912827, "rental_uris": {"ios": "https://dc.lft.to/lastmile_qr_scan", "android": "https://dc.lft.to/lastmile_qr_scan"}, "is_reserved": 0, "fusion_lon": 0.0, "fusion_lat": 0.0, "lon": -77.02713633333333, "name": "e6f5f99e857f44dce16f60c8cd3989cc"}, {"bike_id": "8bbf210f848b6ed671b13d7f4aa2780f", "type": "electric_scooter", "is_disabled": 0, "lat": 38.92477483333333, "rental_uris": {"ios": "https://dc.lft.to/lastmile_qr_scan", "android": "https://dc.lft.to/lastmile_qr_scan"}, "is_reserved": 0, "fusion_lon": 0.0, "fusion_lat": 0.0, "lon": -77.02838883333334, "name": "8bbf210f848b6ed671b13d7f4aa2780f"}, {"bike_id": "ecc91376b0325c7bc9111ef7df844489", "type": "electric_scooter", "is_disabled": 0, "lat": 38.92320383333333, "rental_uris": {"ios": "https://dc.lft.to/lastmile_qr_scan", "android": "https://dc.lft.to/lastmile_qr_scan"}, "is_reserved": 0, "fusion_lon": 0.0, "fusion_lat": 0.0, "lon": -77.02802983333333, "name": "ecc91376b0325c7bc9111ef7df844489"}, {"bike_id": "5e329861589a3218fafc07167d88f766", "type": "electric_scooter", "is_disabled": 0, "lat": 38.9261335, "rental_uris": {"ios": "https://dc.lft.to/lastmile_qr_scan", "android": "https://dc.lft.to/lastmile_qr_scan"}, "is_reserved": 0, "fusion_lon": 0.0, "fusion_lat": 0.0, "lon": -77.02164366666666, "name": "5e329861589a3218fafc07167d88f766"}, {"bike_id": "09f6b9b42c7b749a7a68ca61daecb24f", "type": "electric_scooter", "is_disabled": 0, "lat": 38.90006066666667, "rental_uris": {"ios": "https://dc.lft.to/lastmile_qr_scan", "android": "https://dc.lft.to/lastmile_qr_scan"}, "is_reserved": 0, "fusion_lon": 0.0, "fusion_lat": 0.0, "lon": -77.04662816666666, "name": "09f6b9b42c7b749a7a68ca61daecb24f"}, {"bike_id": "cff1cf185396e3476617873284185e4a", "type": "electric_scooter", "is_disabled": 0, "lat": 38.93543866666667, "rental_uris": {"ios": "https://dc.lft.to/lastmile_qr_scan", "android": "https://dc.lft.to/lastmile_qr_scan"}, "is_reserved": 0, "fusion_lon": 0.0, "fusion_lat": 0.0, "lon": -77.05859566666666, "name": "cff1cf185396e3476617873284185e4a"}, {"bike_id": "c11e019df8c2bd906e4e545dcb6e8c9f", "type": "electric_scooter", "is_disabled": 0, "lat": 38.892183333333335, "rental_uris": {"ios": "https://dc.lft.to/lastmile_qr_scan", "android": "https://dc.lft.to/lastmile_qr_scan"}, "is_reserved": 0, "fusion_lon": 0.0, "fusion_lat": 0.0, "lon": -77.025828, "name": "c11e019df8c2bd906e4e545dcb6e8c9f"}, {"bike_id": "c65402428e153142ef684db8c7a85aa2", "type": "electric_scooter", "is_disabled": 0, "lat": 38.938808333333334, "rental_uris": {"ios": "https://dc.lft.to/lastmile_qr_scan", "android": "https://dc.lft.to/lastmile_qr_scan"}, "is_reserved": 0, "fusion_lon": 0.0, "fusion_lat": 0.0, "lon": -77.02483766666667, "name": "c65402428e153142ef684db8c7a85aa2"}, {"bike_id": "4f7df394ff6d29217ab3bf5efe7d447d", "type": "electric_scooter", "is_disabled": 0, "lat": 38.91361033333333, "rental_uris": {"ios": "https://dc.lft.to/lastmile_qr_scan", "android": "https://dc.lft.to/lastmile_qr_scan"}, "is_reserved": 0, "fusion_lon": 0.0, "fusion_lat": 0.0, "lon": -77.044861, "name": "4f7df394ff6d29217ab3bf5efe7d447d"}, {"bike_id": "c6df9ee8d456eeeb14f5e77c82377ce0", "type": "electric_bike", "is_disabled": 0, "lat": 39.062983333333335, "rental_uris": {"ios": "https://dc.lft.to/lastmile_qr_scan", "android": "https://dc.lft.to/lastmile_qr_scan"}, "is_reserved": 0, "fusion_lon": 0.0, "fusion_lat": 0.0, "lon": -77.04979483333334, "name": "c6df9ee8d456eeeb14f5e77c82377ce0"}, {"bike_id": "0f8021765393ca7b96891077dc19069a", "type": "electric_scooter", "is_disabled": 0, "lat": 38.90282666666667, "rental_uris": {"ios": "https://dc.lft.to/lastmile_qr_scan", "android": "https://dc.lft.to/lastmile_qr_scan"}, "is_reserved": 0, "fusion_lon": 0.0, "fusion_lat": 0.0, "lon": -77.03863383333334, "name": "0f8021765393ca7b96891077dc19069a"}, {"bike_id": "c7ca95c3705d0b40b9d6106c9a3897d8", "type": "electric_scooter", "is_disabled": 0, "lat": 38.90154783333333, "rental_uris": {"ios": "https://dc.lft.to/lastmile_qr_scan", "android": "https://dc.lft.to/lastmile_qr_scan"}, "is_reserved": 0, "fusion_lon": 0.0, "fusion_lat": 0.0, "lon": -76.93057033333334, "name": "c7ca95c3705d0b40b9d6106c9a3897d8"}, {"bike_id": "8ae79908f3d8d6e3310e89c49abd8a29", "type": "electric_scooter", "is_disabled": 0, "lat": 38.876756, "rental_uris": {"ios": "https://dc.lft.to/lastmile_qr_scan", "android": "https://dc.lft.to/lastmile_qr_scan"}, "is_reserved": 0, "fusion_lon": 0.0, "fusion_lat": 0.0, "lon": -77.00562233333333, "name": "8ae79908f3d8d6e3310e89c49abd8a29"}, {"bike_id": "7a35bbeaa46a3d9f937508b979f1c39c", "type": "electric_scooter", "is_disabled": 0, "lat": 38.91120166666666, "rental_uris": {"ios": "https://dc.lft.to/lastmile_qr_scan", "android": "https://dc.lft.to/lastmile_qr_scan"}, "is_reserved": 0, "fusion_lon": 0.0, "fusion_lat": 0.0, "lon": -77.0423465, "name": "7a35bbeaa46a3d9f937508b979f1c39c"}, {"bike_id": "2a889ab276aef2d6288ce5b20e053087", "type": "electric_scooter", "is_disabled": 0, "lat": 38.86237233333333, "rental_uris": {"ios": "https://dc.lft.to/lastmile_qr_scan", "android": "https://dc.lft.to/lastmile_qr_scan"}, "is_reserved": 0, "fusion_lon": 0.0, "fusion_lat": 0.0, "lon": -76.99518933333333, "name": "2a889ab276aef2d6288ce5b20e053087"}, {"bike_id": "85ea18798bcc6d479b64d2541cca8ff4", "type": "electric_scooter", "is_disabled": 0, "lat": 38.904654, "rental_uris": {"ios": "https://dc.lft.to/lastmile_qr_scan", "android": "https://dc.lft.to/lastmile_qr_scan"}, "is_reserved": 0, "fusion_lon": 0.0, "fusion_lat": 0.0, "lon": -77.03563116666666, "name": "85ea18798bcc6d479b64d2541cca8ff4"}, {"bike_id": "2f57a504d470363c7f47a08805937ede", "type": "electric_scooter", "is_disabled": 0, "lat": 38.89324416666667, "rental_uris": {"ios": "https://dc.lft.to/lastmile_qr_scan", "android": "https://dc.lft.to/lastmile_qr_scan"}, "is_reserved": 0, "fusion_lon": 0.0, "fusion_lat": 0.0, "lon": -77.048777, "name": "2f57a504d470363c7f47a08805937ede"}, {"bike_id": "4c6127598cb9bdb349b56959425ea1ce", "type": "electric_scooter", "is_disabled": 0, "lat": 38.918215833333335, "rental_uris": {"ios": "https://dc.lft.to/lastmile_qr_scan", "android": "https://dc.lft.to/lastmile_qr_scan"}, "is_reserved": 0, "fusion_lon": 0.0, "fusion_lat": 0.0, "lon": -77.01016383333334, "name": "4c6127598cb9bdb349b56959425ea1ce"}, {"bike_id": "4b6f3e719df091e83d731dd72c48cf2f", "type": "electric_scooter", "is_disabled": 0, "lat": 38.915723166666666, "rental_uris": {"ios": "https://dc.lft.to/lastmile_qr_scan", "android": "https://dc.lft.to/lastmile_qr_scan"}, "is_reserved": 0, "fusion_lon": 0.0, "fusion_lat": 0.0, "lon": -77.03464, "name": "4b6f3e719df091e83d731dd72c48cf2f"}, {"bike_id": "c394f68523754da53132ef5d54f454bc", "type": "electric_scooter", "is_disabled": 0, "lat": 38.9011765, "rental_uris": {"ios": "https://dc.lft.to/lastmile_qr_scan", "android": "https://dc.lft.to/lastmile_qr_scan"}, "is_reserved": 0, "fusion_lon": 0.0, "fusion_lat": 0.0, "lon": -77.04985233333333, "name": "c394f68523754da53132ef5d54f454bc"}, {"bike_id": "e0a2318a27c8517453beb72d992b9855", "type": "electric_scooter", "is_disabled": 0, "lat": 38.880317, "rental_uris": {"ios": "https://dc.lft.to/lastmile_qr_scan", "android": "https://dc.lft.to/lastmile_qr_scan"}, "is_reserved": 0, "fusion_lon": 0.0, "fusion_lat": 0.0, "lon": -77.02508166666667, "name": "e0a2318a27c8517453beb72d992b9855"}, {"bike_id": "c3f87cc2bc83340226911ea5475c537b", "type": "electric_bike", "is_disabled": 0, "lat": 38.79985633333333, "rental_uris": {"ios": "https://dc.lft.to/lastmile_qr_scan", "android": "https://dc.lft.to/lastmile_qr_scan"}, "is_reserved": 0, "fusion_lon": 0.0, "fusion_lat": 0.0, "lon": -77.12971616666667, "name": "c3f87cc2bc83340226911ea5475c537b"}, {"bike_id": "7ea6ee9e0aa418ae628f7c355aa416ec", "type": "electric_scooter", "is_disabled": 0, "lat": 38.91778016666667, "rental_uris": {"ios": "https://dc.lft.to/lastmile_qr_scan", "android": "https://dc.lft.to/lastmile_qr_scan"}, "is_reserved": 0, "fusion_lon": 0.0, "fusion_lat": 0.0, "lon": -77.03451333333334, "name": "7ea6ee9e0aa418ae628f7c355aa416ec"}, {"bike_id": "49185432c642f975ea78774a62bb08fa", "type": "electric_scooter", "is_disabled": 0, "lat": 38.92530566666667, "rental_uris": {"ios": "https://dc.lft.to/lastmile_qr_scan", "android": "https://dc.lft.to/lastmile_qr_scan"}, "is_reserved": 0, "fusion_lon": 0.0, "fusion_lat": 0.0, "lon": -77.02254666666667, "name": "49185432c642f975ea78774a62bb08fa"}, {"bike_id": "61c7a3bf4e6b1bfdc9738464c59383a5", "type": "electric_scooter", "is_disabled": 0, "lat": 38.89739983333333, "rental_uris": {"ios": "https://dc.lft.to/lastmile_qr_scan", "android": "https://dc.lft.to/lastmile_qr_scan"}, "is_reserved": 0, "fusion_lon": 0.0, "fusion_lat": 0.0, "lon": -77.0210505, "name": "61c7a3bf4e6b1bfdc9738464c59383a5"}, {"bike_id": "8074e1a5ee2f848e181ce0d0dac1644a", "type": "electric_scooter", "is_disabled": 0, "lat": 38.91943416666667, "rental_uris": {"ios": "https://dc.lft.to/lastmile_qr_scan", "android": "https://dc.lft.to/lastmile_qr_scan"}, "is_reserved": 0, "fusion_lon": 0.0, "fusion_lat": 0.0, "lon": -77.045621, "name": "8074e1a5ee2f848e181ce0d0dac1644a"}, {"bike_id": "a8eb88d6b13d54d093621c69af0aefd1", "type": "electric_scooter", "is_disabled": 0, "lat": 38.944396833333336, "rental_uris": {"ios": "https://dc.lft.to/lastmile_qr_scan", "android": "https://dc.lft.to/lastmile_qr_scan"}, "is_reserved": 0, "fusion_lon": 0.0, "fusion_lat": 0.0, "lon": -77.06349016666667, "name": "a8eb88d6b13d54d093621c69af0aefd1"}, {"bike_id": "b08599c34d41206ccf91d09f0bcb3f2c", "type": "electric_scooter", "is_disabled": 0, "lat": 38.92129283333333, "rental_uris": {"ios": "https://dc.lft.to/lastmile_qr_scan", "android": "https://dc.lft.to/lastmile_qr_scan"}, "is_reserved": 0, "fusion_lon": 0.0, "fusion_lat": 0.0, "lon": -76.99246966666666, "name": "b08599c34d41206ccf91d09f0bcb3f2c"}, {"bike_id": "9d77a9106956ea612f9c32db217ff88c", "type": "electric_scooter", "is_disabled": 0, "lat": 38.90644866666667, "rental_uris": {"ios": "https://dc.lft.to/lastmile_qr_scan", "android": "https://dc.lft.to/lastmile_qr_scan"}, "is_reserved": 0, "fusion_lon": 0.0, "fusion_lat": 0.0, "lon": -77.05327816666667, "name": "9d77a9106956ea612f9c32db217ff88c"}, {"bike_id": "2f442923e29d1c989b07679bb94990f0", "type": "electric_scooter", "is_disabled": 0, "lat": 38.92780366666667, "rental_uris": {"ios": "https://dc.lft.to/lastmile_qr_scan", "android": "https://dc.lft.to/lastmile_qr_scan"}, "is_reserved": 0, "fusion_lon": 0.0, "fusion_lat": 0.0, "lon": -77.02317116666667, "name": "2f442923e29d1c989b07679bb94990f0"}, {"bike_id": "7a10a21ba6bfded3d50850b1e94af13d", "type": "electric_scooter", "is_disabled": 0, "lat": 38.93212066666667, "rental_uris": {"ios": "https://dc.lft.to/lastmile_qr_scan", "android": "https://dc.lft.to/lastmile_qr_scan"}, "is_reserved": 0, "fusion_lon": 0.0, "fusion_lat": 0.0, "lon": -77.03356633333334, "name": "7a10a21ba6bfded3d50850b1e94af13d"}, {"bike_id": "d28266c3ea020934a08d5d593df0bd7a", "type": "electric_scooter", "is_disabled": 0, "lat": 38.925376166666666, "rental_uris": {"ios": "https://dc.lft.to/lastmile_qr_scan", "android": "https://dc.lft.to/lastmile_qr_scan"}, "is_reserved": 0, "fusion_lon": 0.0, "fusion_lat": 0.0, "lon": -77.0427325, "name": "d28266c3ea020934a08d5d593df0bd7a"}, {"bike_id": "412f86e3a568033a86a397559efa69a2", "type": "electric_scooter", "is_disabled": 0, "lat": 38.9073005, "rental_uris": {"ios": "https://dc.lft.to/lastmile_qr_scan", "android": "https://dc.lft.to/lastmile_qr_scan"}, "is_reserved": 0, "fusion_lon": 0.0, "fusion_lat": 0.0, "lon": -77.011339, "name": "412f86e3a568033a86a397559efa69a2"}, {"bike_id": "a6804da067bf2bac825a829381583a64", "type": "electric_bike", "is_disabled": 0, "lat": 38.87554883333333, "rental_uris": {"ios": "https://dc.lft.to/lastmile_qr_scan", "android": "https://dc.lft.to/lastmile_qr_scan"}, "is_reserved": 0, "fusion_lon": 0.0, "fusion_lat": 0.0, "lon": -76.96503316666667, "name": "a6804da067bf2bac825a829381583a64"}, {"bike_id": "7a6a22cc7f2dd5f5b6f5824b3aa8b5e7", "type": "electric_scooter", "is_disabled": 0, "lat": 38.972347166666665, "rental_uris": {"ios": "https://dc.lft.to/lastmile_qr_scan", "android": "https://dc.lft.to/lastmile_qr_scan"}, "is_reserved": 0, "fusion_lon": 0.0, "fusion_lat": 0.0, "lon": -77.02713, "name": "7a6a22cc7f2dd5f5b6f5824b3aa8b5e7"}, {"bike_id": "25f48935c09adcd5524d521d5322211e", "type": "electric_scooter", "is_disabled": 0, "lat": 38.879341, "rental_uris": {"ios": "https://dc.lft.to/lastmile_qr_scan", "android": "https://dc.lft.to/lastmile_qr_scan"}, "is_reserved": 0, "fusion_lon": 0.0, "fusion_lat": 0.0, "lon": -77.00428016666666, "name": "25f48935c09adcd5524d521d5322211e"},