{"data": {"bikes": [{"is_disabled": 0, "is_reserved": 0, "type": "electric_scooter", "lon": -77.07716733333334, "fusion_lon": 0.0, "lat": 38.929013833333336, "rental_uris": {"android": "https://dc.lft.to/lastmile_qr_scan", "ios": "https://dc.lft.to/lastmile_qr_scan"}, "fusion_lat": 0.0, "name": "7212e89ba14243baeb9c04a48e054f2e", "bike_id": "7212e89ba14243baeb9c04a48e054f2e"}, {"is_disabled": 0, "is_reserved": 0, "type": "electric_scooter", "lon": -77.039514, "fusion_lon": 0.0, "lat": 38.901992166666666, "rental_uris": {"android": "https://dc.lft.to/lastmile_qr_scan", "ios": "https://dc.lft.to/lastmile_qr_scan"}, "fusion_lat": 0.0, "name": "1cdc423628a41348c529c4b2637a95df", "bike_id": "1cdc423628a41348c529c4b2637a95df"}, {"is_disabled": 0, "is_reserved": 0, "type": "electric_scooter", "lon": -76.938351, "fusion_lon": 0.0, "lat": 38.89012133333333, "rental_uris": {"android": "https://dc.lft.to/lastmile_qr_scan", "ios": "https://dc.lft.to/lastmile_qr_scan"}, "fusion_lat": 0.0, "name": "271b106c2689e68b4f10178959511d90", "bike_id": "271b106c2689e68b4f10178959511d90"}, {"is_disabled": 0, "is_reserved": 0, "type": "electric_scooter", "lon": -77.05154166666667, "fusion_lon": 0.0, "lat": 38.90635783333333, "rental_uris": {"android": "https://dc.lft.to/lastmile_qr_scan", "ios": "https://dc.lft.to/lastmile_qr_scan"}, "fusion_lat": 0.0, "name": "7ffd26236374182c8895224ad8771264", "bike_id": "7ffd26236374182c8895224ad8771264"}, {"is_disabled": 0, "is_reserved": 0, "type": "electric_scooter", "lon": -77.03639916666667, "fusion_lon": 0.0, "lat": 38.91817233333333, "rental_uris": {"android": "https://dc.lft.to/lastmile_qr_scan", "ios": "https://dc.lft.to/lastmile_qr_scan"}, "fusion_lat": 0.0, "name": "2097e8a1b2b29170da57345b59ab532d", "bike_id": "2097e8a1b2b29170da57345b59ab532d"}, {"is_disabled": 0, "is_reserved": 0, "type": "electric_scooter", "lon": -77.03181433333333, "fusion_lon": 0.0, "lat": 38.8922575, "rental_uris": {"android": "https://dc.lft.to/lastmile_qr_scan", "ios": "https://dc.lft.to/lastmile_qr_scan"}, "fusion_lat": 0.0, "name": "e0c0b97c211100c1e607e38b9faf7a44", "bike_id": "e0c0b97c211100c1e607e38b9faf7a44"}, {"is_disabled": 0, "is_reserved": 0, "type": "electric_scooter", "lon": -77.03661866666667, "fusion_lon": 0.0, "lat": 38.917304, "rental_uris": {"android": "https://dc.lft.to/lastmile_qr_scan", "ios": "https://dc.lft.to/lastmile_qr_scan"}, "fusion_lat": 0.0, "name": "c99ca57584a201be3902d1c4a38f3318", "bike_id": "c99ca57584a201be3902d1c4a38f3318"}, {"is_disabled": 0, "is_reserved": 0, "type": "electric_scooter", "lon": -77.02986016666667, "fusion_lon": 0.0, "lat": 38.907065833333334, "rental_uris": {"android": "https://dc.lft.to/lastmile_qr_scan", "ios": "https://dc.lft.to/lastmile_qr_scan"}, "fusion_lat": 0.0, "name": "24bc0b9b3352c1a76a8783ff0fbde2ca", "bike_id": "24bc0b9b3352c1a76a8783ff0fbde2ca"}, {"is_disabled": 0, "is_reserved": 0, "type": "electric_bike", "lon": -77.12510966666666, "fusion_lon": 0.0, "lat": 39.024254166666665, "rental_uris": {"android": "https://dc.lft.to/lastmile_qr_scan", "ios": "https://dc.lft.to/lastmile_qr_scan"}, "fusion_lat": 0.0, "name": "9df5ed2d3887a90f9c8c6cbab2d66209", "bike_id": "9df5ed2d3887a90f9c8c6cbab2d66209"}, {"is_disabled": 0, "is_reserved": 0, "type": "electric_scooter", "lon": -77.038566, "fusion_lon": 0.0, "lat": 38.9174755, "rental_uris": {"android": "https://dc.lft.to/lastmile_qr_scan", "ios": "https://dc.lft.to/lastmile_qr_scan"}, "fusion_lat": 0.0, "name": "61563f4480f892d79e2285b1985d1a27", "bike_id": "61563f4480f892d79e2285b1985d1a27"}, {"is_disabled": 0, "is_reserved": 0, "type": "electric_scooter", "lon": -77.022256, "fusion_lon": 0.0, "lat": 38.9126785, "rental_uris": {"android": "https://dc.lft.to/lastmile_qr_scan", "ios": "https://dc.lft.to/lastmile_qr_scan"}, "fusion_lat": 0.0, "name": "f4e2a9bde55dd0ffae5ec610a7b3e557", "bike_id": "f4e2a9bde55dd0ffae5ec610a7b3e557"}, {"is_disabled": 0, "is_reserved": 0, "type": "electric_scooter", "lon": -77.03226933333333, "fusion_lon": 0.0, "lat": 38.925509166666664, "rental_uris": {"android": "https://dc.lft.to/lastmile_qr_scan", "ios": "https://dc.lft.to/lastmile_qr_scan"}, "fusion_lat": 0.0, "name": "ed5c29b6439b5a63d780bc05be229caa", "bike_id": "ed5c29b6439b5a63d780bc05be229caa"}, {"is_disabled": 0, "is_reserved": 0, "type": "electric_scooter", "lon": -77.032045, "fusion_lon": 0.0, "lat": 38.916125666666666, "rental_uris": {"android": "https://dc.lft.to/lastmile_qr_scan", "ios": "https://dc.lft.to/lastmile_qr_scan"}, "fusion_lat": 0.0, "name": "4dee775ccb272aaefec3ed038de17149", "bike_id": "4dee775ccb272aaefec3ed038de17149"}, {"is_disabled": 0, "is_reserved": 0, "type": "electric_scooter", "lon": -77.028347, "fusion_lon": 0.0, "lat": 38.948330166666665, "rental_uris": {"android": "https://dc.lft.to/lastmile_qr_scan", "ios": "https://dc.lft.to/lastmile_qr_scan"}, "fusion_lat": 0.0, "name": "4e43b796681eda2ffc24e7375258804a", "bike_id": "4e43b796681eda2ffc24e7375258804a"}, {"is_disabled": 0, "is_reserved": 0, "type": "electric_scooter", "lon": -77.035515, "fusion_lon": 0.0, "lat": 38.90375266666667, "rental_uris": {"android": "https://dc.lft.to/lastmile_qr_scan", "ios": "https://dc.lft.to/lastmile_qr_scan"}, "fusion_lat": 0.0, "name": "12c5f63674d15d82fd7af471041af808", "bike_id": "12c5f63674d15d82fd7af471041af808"}, {"is_disabled": 0, "is_reserved": 0, "type": "electric_scooter", "lon": -77.00340133333333, "fusion_lon": 0.0, "lat": 38.893564166666664, "rental_uris": {"android": "https://dc.lft.to/lastmile_qr_scan", "ios": "https://dc.lft.to/lastmile_qr_scan"}, "fusion_lat": 0.0, "name": "c40fa4dd0057564407adbfbaadfbad0a", "bike_id": "c40fa4dd0057564407adbfbaadfbad0a"}, {"is_disabled": 0, "is_reserved": 0, "type": "electric_scooter", "lon": -77.0235155, "fusion_lon": 0.0, "lat": 38.9226365, "rental_uris": {"android": "https://dc.lft.to/lastmile_qr_scan", "ios": "https://dc.lft.to/lastmile_qr_scan"}, "fusion_lat": 0.0, "name": "382a5f7455e317a30b129304b826c68e", "bike_id": "382a5f7455e317a30b129304b826c68e"}, {"is_disabled": 0, "is_reserved": 0, "type": "electric_scooter", "lon": -77.01169266666666, "fusion_lon": 0.0, "lat": 38.8974215, "rental_uris": {"android": "https://dc.lft.to/lastmile_qr_scan", "ios": "https://dc.lft.to/lastmile_qr_scan"}, "fusion_lat": 0.0, "name": "94f98e4ccf19ad9384953ced41105e47", "bike_id": "94f98e4ccf19ad9384953ced41105e47"}, {"is_disabled": 0, "is_reserved": 0, "type": "electric_bike", "lon": -77.08802983333334, "fusion_lon": 0.0, "lat": 38.83175683333333, "rental_uris": {"android": "https://dc.lft.to/lastmile_qr_scan", "ios": "https://dc.lft.to/lastmile_qr_scan"}, "fusion_lat": 0.0, "name": "1b281d6d60a211d68ddc508903bff1d0", "bike_id": "1b281d6d60a211d68ddc508903bff1d0"}, {"is_disabled": 0, "is_reserved": 0, "type": "electric_bike", "lon": -76.952051, "fusion_lon": 0.0, "lat": 38.93666433333333, "rental_uris": {"android": "https://dc.lft.to/lastmile_qr_scan", "ios": "https://dc.lft.to/lastmile_qr_scan"}, "fusion_lat": 0.0, "name": "ab2d53fe5cfe7a8cac45f8b588c61df7", "bike_id": "ab2d53fe5cfe7a8cac45f8b588c61df7"}, {"is_disabled": 0, "is_reserved": 0, "type": "electric_scooter", "lon": -76.9873065, "fusion_lon": 0.0, "lat": 38.86715433333333, "rental_uris": {"android": "https://dc.lft.to/lastmile_qr_scan", "ios": "https://dc.lft.to/lastmile_qr_scan"}, "fusion_lat": 0.0, "name": "e209ac35d794dab04635cbddebf53bf5", "bike_id": "e209ac35d794dab04635cbddebf53bf5"}, {"is_disabled": 0, "is_reserved": 0, "type": "electric_scooter", "lon": -77.03218383333333, "fusion_lon": 0.0, "lat": 38.90753516666667, "rental_uris": {"android": "https://dc.lft.to/lastmile_qr_scan", "ios": "https://dc.lft.to/lastmile_qr_scan"}, "fusion_lat": 0.0, "name": "284f29a4fd9e87e5443e963bd050f5b6", "bike_id": "284f29a4fd9e87e5443e963bd050f5b6"}, {"is_disabled": 0, "is_reserved": 0, "type": "electric_scooter", "lon": -77.03334866666667, "fusion_lon": 0.0, "lat": 38.917112333333336, "rental_uris": {"android": "https://dc.lft.to/lastmile_qr_scan", "ios": "https://dc.lft.to/lastmile_qr_scan"}, "fusion_lat": 0.0, "name": "3d7a9e40f5099ddbc329e3d9454547b6", "bike_id": "3d7a9e40f5099ddbc329e3d9454547b6"}, {"is_disabled": 0, "is_reserved": 0, "type": "electric_scooter", "lon": -77.0463265, "fusion_lon": 0.0, "lat": 38.91807933333333, "rental_uris": {"android": "https://dc.lft.to/lastmile_qr_scan", "ios": "https://dc.lft.to/lastmile_qr_scan"}, "fusion_lat": 0.0, "name": "1ab1de44c82f4800ebd676e692060bdf", "bike_id": "1ab1de44c82f4800ebd676e692060bdf"}, {"is_disabled": 0, "is_reserved": 0, "type": "electric_scooter", "lon": -77.04328533333333, "fusion_lon": 0.0, "lat": 38.9224205, "rental_uris": {"android": "https://dc.lft.to/lastmile_qr_scan", "ios": "https://dc.lft.to/lastmile_qr_scan"}, "fusion_lat": 0.0, "name": "e74f2e806fd910e9d12ad51ec5b00abf", "bike_id": "e74f2e806fd910e9d12ad51ec5b00abf"}, {"is_disabled": 0, "is_reserved": 0, "type": "electric_scooter", "lon": -77.01979616666667, "fusion_lon": 0.0, "lat": 38.877806666666665, "rental_uris": {"android": "https://dc.lft.to/lastmile_qr_scan", "ios": "https://dc.lft.to/lastmile_qr_scan"}, "fusion_lat": 0.0, "name": "71ed5888cfabcf9737df96e170ac9de0", "bike_id": "71ed5888cfabcf9737df96e170ac9de0"}, {"is_disabled": 0, "is_reserved": 0, "type": "electric_scooter", "lon": -77.03848416666666, "fusion_lon": 0.0, "lat": 38.92659583333333, "rental_uris": {"android": "https://dc.lft.to/lastmile_qr_scan", "ios": "https://dc.lft.to/lastmile_qr_scan"}, "fusion_lat": 0.0, "name": "2551bfcd7e880e27855f6a53e6e256fb", "bike_id": "2551bfcd7e880e27855f6a53e6e256fb"}, {"is_disabled": 0, "is_reserved": 0, "type": "electric_scooter", "lon": -77.01019116666667, "fusion_lon": 0.0, "lat": 38.90623433333333, "rental_uris": {"android": "https://dc.lft.to/lastmile_qr_scan", "ios": "https://dc.lft.to/lastmile_qr_scan"}, "fusion_lat": 0.0, "name": "f7655e306cba1e05c63111083c43f321", "bike_id": "f7655e306cba1e05c63111083c43f321"}, {"is_disabled": 0, "is_reserved": 0, "type": "electric_scooter", "lon": -77.043374, "fusion_lon": 0.0, "lat": 38.898324333333335, "rental_uris": {"android": "https://dc.lft.to/lastmile_qr_scan", "ios": "https://dc.lft.to/lastmile_qr_scan"}, "fusion_lat": 0.0, "name": "f8f588b8d90e4e083d5eaf58b2a38bae", "bike_id": "f8f588b8d90e4e083d5eaf58b2a38bae"}, {"is_disabled": 0, "is_reserved": 0, "type": "electric_scooter", "lon": -77.03791266666667, "fusion_lon": 0.0, "lat": 38.92625783333333, "rental_uris": {"android": "https://dc.lft.to/lastmile_qr_scan", "ios": "https://dc.lft.to/lastmile_qr_scan"}, "fusion_lat": 0.0, "name": "aa7758d56bbf58e74ad107805bdaac9f", "bike_id": "aa7758d56bbf58e74ad107805bdaac9f"}, {"is_disabled": 0, "is_reserved": 0, "type": "electric_scooter", "lon": -77.04337966666667, "fusion_lon": 0.0, "lat": 38.91538233333333, "rental_uris": {"android": "https://dc.lft.to/lastmile_qr_scan", "ios": "https://dc.lft.to/lastmile_qr_scan"}, "fusion_lat": 0.0, "name": "45c311cb9c6ddf67b462d87aebd8b458", "bike_id": "45c311cb9c6ddf67b462d87aebd8b458"}, {"is_disabled": 0, "is_reserved": 0, "type": "electric_scooter", "lon": -77.00207416666667, "fusion_lon": 0.0, "lat": 38.8914425, "rental_uris": {"android": "https://dc.lft.to/lastmile_qr_scan", "ios": "https://dc.lft.to/lastmile_qr_scan"}, "fusion_lat": 0.0, "name": "0c11567e449d99a17a7be2c5655b7b3a", "bike_id": "0c11567e449d99a17a7be2c5655b7b3a"}, {"is_disabled": 0, "is_reserved": 0, "type": "electric_scooter", "lon": -77.03049766666666, "fusion_lon": 0.0, "lat": 38.939791, "rental_uris": {"android": "https://dc.lft.to/lastmile_qr_scan", "ios": "https://dc.lft.to/lastmile_qr_scan"}, "fusion_lat": 0.0, "name": "f2da21b2296eefb8037e1ab3f6c4fbd6", "bike_id": "f2da21b2296eefb8037e1ab3f6c4fbd6"}, {"is_disabled": 0, "is_reserved": 0, "type": "electric_scooter", "lon": -76.99399483333333, "fusion_lon": 0.0, "lat": 38.921628166666665, "rental_uris": {"android": "https://dc.lft.to/lastmile_qr_scan", "ios": "https://dc.lft.to/lastmile_qr_scan"}, "fusion_lat": 0.0, "name": "1345c13bc611f6fd30a7293e83432e13", "bike_id": "1345c13bc611f6fd30a7293e83432e13"}, {"is_disabled": 0, "is_reserved": 0, "type": "electric_scooter", "lon": -76.9860235, "fusion_lon": 0.0, "lat": 38.90655066666667, "rental_uris": {"android": "https://dc.lft.to/lastmile_qr_scan", "ios": "https://dc.lft.to/lastmile_qr_scan"}, "fusion_lat": 0.0, "name": "13c004ac672c7830b2088f436800ec29", "bike_id": "13c004ac672c7830b2088f436800ec29"}, {"is_disabled": 0, "is_reserved": 0, "type": "electric_scooter", "lon": -77.04394566666667, "fusion_lon": 0.0, "lat": 38.90228533333333, "rental_uris": {"android": "https://dc.lft.to/lastmile_qr_scan", "ios": "https://dc.lft.to/lastmile_qr_scan"}, "fusion_lat": 0.0, "name": "114dfa2413bd2f0d4bd48978bb11868e", "bike_id": "114dfa2413bd2f0d4bd48978bb11868e"}, {"is_disabled": 0, "is_reserved": 0, "type": "electric_scooter", "lon": -77.02724683333334, "fusion_lon": 0.0, "lat": 38.90857416666667, "rental_uris": {"android": "https://dc.lft.to/lastmile_qr_scan", "ios": "https://dc.lft.to/lastmile_qr_scan"}, "fusion_lat": 0.0, "name": "17158fc43a45fc33d857331507658a80", "bike_id": "17158fc43a45fc33d857331507658a80"}, {"is_disabled": 0, "is_reserved": 0, "type": "electric_scooter", "lon": -77.03061216666667, "fusion_lon": 0.0, "lat": 38.93979016666667, "rental_uris": {"android": "https://dc.lft.to/lastmile_qr_scan", "ios": "https://dc.lft.to/lastmile_qr_scan"}, "fusion_lat": 0.0, "name": "af26c572f624dc494b0df066d50b8a39", "bike_id": "af26c572f624dc494b0df066d50b8a39"}, {"is_disabled": 0, "is_reserved": 0, "type": "electric_bike", "lon": -76.9804645, "fusion_lon": 0.0, "lat": 38.90089533333333, "rental_uris": {"android": "https://dc.lft.to/lastmile_qr_scan", "ios": "https://dc.lft.to/lastmile_qr_scan"}, "fusion_lat": 0.0, "name": "45232e6ff8bfeead9964f0b4734977a1", "bike_id": "45232e6ff8bfeead9964f0b4734977a1"}, {"is_disabled": 0, "is_reserved": 0, "type": "electric_bike", "lon": -77.36088683333334, "fusion_lon": 0.0, "lat": 38.93966966666667, "rental_uris": {"android": "https://dc.lft.to/lastmile_qr_scan", "ios": "https://dc.lft.to/lastmile_qr_scan"}, "fusion_lat": 0.0, "name": "cab7ce0f0ab8adbbed040427687724dd", "bike_id": "cab7ce0f0ab8adbbed040427687724dd"}, {"is_disabled": 0, "is_reserved": 0, "type": "electric_scooter", "lon": -77.06983466666667, "fusion_lon": 0.0, "lat": 38.94687366666667, "rental_uris": {"android": "https://dc.lft.to/lastmile_qr_scan", "ios": "https://dc.lft.to/lastmile_qr_scan"}, "fusion_lat": 0.0, "name": "b9950a915580d9bdeb8a0dc47da77b2f", "bike_id": "b9950a915580d9bdeb8a0dc47da77b2f"}, {"is_disabled": 0, "is_reserved": 0, "type": "electric_scooter", "lon": -77.01368016666666, "fusion_lon": 0.0, "lat": 38.8789805, "rental_uris": {"android": "https://dc.lft.to/lastmile_qr_scan", "ios": "https://dc.lft.to/lastmile_qr_scan"}, "fusion_lat": 0.0, "name": "7ad8667e0adca301c2c5c5145f01bfac", "bike_id": "7ad8667e0adca301c2c5c5145f01bfac"}, {"is_disabled": 0, "is_reserved": 0, "type": "electric_bike", "lon": -76.97995466666667, "fusion_lon": 0.0, "lat": 38.877501333333335, "rental_uris": {"android": "https://dc.lft.to/lastmile_qr_scan", "ios": "https://dc.lft.to/lastmile_qr_scan"}, "fusion_lat": 0.0, "name": "b5420ff8d52a8e89f2d12663ae3b49b9", "bike_id": "b5420ff8d52a8e89f2d12663ae3b49b9"}, {"is_disabled": 0, "is_reserved": 0, "type": "electric_scooter", "lon": -77.03174866666667, "fusion_lon": 0.0, "lat": 38.916265833333334, "rental_uris": {"android": "https://dc.lft.to/lastmile_qr_scan", "ios": "https://dc.lft.to/lastmile_qr_scan"}, "fusion_lat": 0.0, "name": "cfbc535cfde642f4aa2c5a465d189bf6", "bike_id": "cfbc535cfde642f4aa2c5a465d189bf6"}, {"is_disabled": 0, "is_reserved": 0, "type": "electric_scooter", "lon": -77.021762, "fusion_lon": 0.0, "lat": 38.94294816666667, "rental_uris": {"android": "https://dc.lft.to/lastmile_qr_scan", "ios": "https://dc.lft.to/lastmile_qr_scan"}, "fusion_lat": 0.0, "name": "e14dc5868631ba5939b37737e3d089d4", "bike_id": "e14dc5868631ba5939b37737e3d089d4"}, {"is_disabled": 0, "is_reserved": 0, "type": "electric_scooter", "lon": -77.05043916666666, "fusion_lon": 0.0, "lat": 38.905297833333336, "rental_uris": {"android": "https://dc.lft.to/lastmile_qr_scan", "ios": "https://dc.lft.to/lastmile_qr_scan"}, "fusion_lat": 0.0, "name": "a7c9427639ed93c0763f69d66931f977", "bike_id": "a7c9427639ed93c0763f69d66931f977"}, {"is_disabled": 0, "is_reserved": 0, "type": "electric_scooter", "lon": -76.98696416666667, "fusion_lon": 0.0, "lat": 38.90706566666667, "rental_uris": {"android": "https://dc.lft.to/lastmile_qr_scan", "ios": "https://dc.lft.to/lastmile_qr_scan"}, "fusion_lat": 0.0, "name": "90a1c04022ba81ca6ded06ca1e23aa94", "bike_id": "90a1c04022ba81ca6ded06ca1e23aa94"}, {"is_disabled": 0, "is_reserved": 0, "type": "electric_scooter", "lon": -77.03206183333333, "fusion_lon": 0.0, "lat": 38.908211666666666, "rental_uris": {"android": "https://dc.lft.to/lastmile_qr_scan", "ios": "https://dc.lft.to/lastmile_qr_scan"}, "fusion_lat": 0.0, "name": "21d7d4da99f6545f9f03fc8e641db4c9", "bike_id": "21d7d4da99f6545f9f03fc8e641db4c9"}, {"is_disabled": 0, "is_reserved": 0, "type": "electric_scooter", "lon": -76.98568516666667, "fusion_lon": 0.0, "lat": 38.86060366666667, "rental_uris": {"android": "https://dc.lft.to/lastmile_qr_scan", "ios": "https://dc.lft.to/lastmile_qr_scan"}, "fusion_lat": 0.0, "name": "5c1338cb00c52457001c1e8b582e0a46", "bike_id": "5c1338cb00c52457001c1e8b582e0a46"}, {"is_disabled": 0, "is_reserved": 0, "type": "electric_scooter", "lon": -77.03091933333333, "fusion_lon": 0.0, "lat": 38.946806333333335, "rental_uris": {"android": "https://dc.lft.to/lastmile_qr_scan", "ios": "https://dc.lft.to/lastmile_qr_scan"}, "fusion_lat": 0.0, "name": "561484aee4e2612f60b79f2aa819e008", "bike_id": "561484aee4e2612f60b79f2aa819e008"}, {"is_disabled": 0, "is_reserved": 0, "type": "electric_scooter", "lon": -77.04620483333333, "fusion_lon": 0.0, "lat": 38.9232165, "rental_uris": {"android": "https://dc.lft.to/lastmile_qr_scan", "ios": "https://dc.lft.to/lastmile_qr_scan"}, "fusion_lat": 0.0, "name": "c408a166ced97b2d639ac3a52203b445", "bike_id": "c408a166ced97b2d639ac3a52203b445"}, {"is_disabled": 0, "is_reserved": 0, "type": "electric_scooter", "lon": -77.04753533333333, "fusion_lon": 0.0, "lat": 38.905373833333336, "rental_uris": {"android": "https://dc.lft.to/lastmile_qr_scan", "ios": "https://dc.lft.to/lastmile_qr_scan"}, "fusion_lat": 0.0, "name": "21b6bcd288e3111c367b7dbe0fc47503", "bike_id": "21b6bcd288e3111c367b7dbe0fc47503"}, {"is_disabled": 0, "is_reserved": 0, "type": "electric_scooter", "lon": -77.02959866666667, "fusion_lon": 0.0, "lat": 38.921461, "rental_uris": {"android": "https://dc.lft.to/lastmile_qr_scan", "ios": "https://dc.lft.to/lastmile_qr_scan"}, "fusion_lat": 0.0, "name": "a43c9db710dcb9bdeeb8a43a60e13015", "bike_id": "a43c9db710dcb9bdeeb8a43a60e13015"}, {"is_disabled": 0, "is_reserved": 0, "type": "electric_bike", "lon": -76.96532983333333, "fusion_lon": 0.0, "lat": 38.918801, "rental_uris": {"android": "https://dc.lft.to/lastmile_qr_scan", "ios": "https://dc.lft.to/lastmile_qr_scan"}, "fusion_lat": 0.0, "name": "a766c0da86d434cd0871eb729f75e359", "bike_id": "a766c0da86d434cd0871eb729f75e359"}, {"is_disabled": 0, "is_reserved": 0, "type": "electric_scooter", "lon": -77.0249795, "fusion_lon": 0.0, "lat": 38.918072, "rental_uris": {"android": "https://dc.lft.to/lastmile_qr_scan", "ios": "https://dc.lft.to/lastmile_qr_scan"}, "fusion_lat": 0.0, "name": "12872d93e03a3e790f7c006b8fff38c4", "bike_id": "12872d93e03a3e790f7c006b8fff38c4"}, {"is_disabled": 0, "is_reserved": 0, "type": "electric_scooter", "lon": -77.0440245, "fusion_lon": 0.0, "lat": 38.90104516666667, "rental_uris": {"android": "https://dc.lft.to/lastmile_qr_scan", "ios": "https://dc.lft.to/lastmile_qr_scan"}, "fusion_lat": 0.0, "name": "283f1b2da8647606688c3b6de5ff265f", "bike_id": "283f1b2da8647606688c3b6de5ff265f"}, {"is_disabled": 0, "is_reserved": 0, "type": "electric_scooter", "lon": -77.03802616666667, "fusion_lon": 0.0, "lat": 38.932287, "rental_uris": {"android": "https://dc.lft.to/lastmile_qr_scan", "ios": "https://dc.lft.to/lastmile_qr_scan"}, "fusion_lat": 0.0, "name": "3dcca3111faea7cf783bfc438581733b", "bike_id": "3dcca3111faea7cf783bfc438581733b"}, {"is_disabled": 0, "is_reserved": 0, "type": "electric_scooter", "lon": -77.03859716666666, "fusion_lon": 0.0, "lat": 38.90372816666667, "rental_uris": {"android": "https://dc.lft.to/lastmile_qr_scan", "ios": "https://dc.lft.to/lastmile_qr_scan"}, "fusion_lat": 0.0, "name": "6edd748edc0777c45a0d6e4e3bfaa6b2", "bike_id": "6edd748edc0777c45a0d6e4e3bfaa6b2"}, {"is_disabled": 0, "is_reserved": 0, "type": "electric_scooter", "lon": -76.9428795, "fusion_lon": 0.0, "lat": 38.88297266666667, "rental_uris": {"android": "https://dc.lft.to/lastmile_qr_scan", "ios": "https://dc.lft.to/lastmile_qr_scan"}, "fusion_lat": 0.0, "name": "a665de59fa13da734d4e7c79780ef119", "bike_id": "a665de59fa13da734d4e7c79780ef119"}, {"is_disabled": 0, "is_reserved": 0, "type": "electric_scooter", "lon": -77.01208066666666, "fusion_lon": 0.0, "lat": 38.91823516666667, "rental_uris": {"android": "https://dc.lft.to/lastmile_qr_scan", "ios": "https://dc.lft.to/lastmile_qr_scan"}, "fusion_lat": 0.0, "name": "8e006b4fbd011421f93a131623039741", "bike_id": "8e006b4fbd011421f93a131623039741"}, {"is_disabled": 0, "is_reserved": 0, "type": "electric_scooter", "lon": -77.046528, "fusion_lon": 0.0, "lat": 38.8934795, "rental_uris": {"android": "https://dc.lft.to/lastmile_qr_scan", "ios": "https://dc.lft.to/lastmile_qr_scan"}, "fusion_lat": 0.0, "name": "5207de641dfcfdadec5261f6612a0955", "bike_id": "5207de641dfcfdadec5261f6612a0955"}, {"is_disabled": 0, "is_reserved": 0, "type": "electric_bike", "lon": -77.05138816666667, "fusion_lon": 0.0, "lat": 38.92531683333333, "rental_uris": {"android": "https://dc.lft.to/lastmile_qr_scan", "ios": "https://dc.lft.to/lastmile_qr_scan"}, "fusion_lat": 0.0, "name": "1e862e81eb5d7f65c32b319831d537de", "bike_id": "1e862e81eb5d7f65c32b319831d537de"}, {"is_disabled": 0, "is_reserved": 0, "type": "electric_scooter", "lon": -77.03200866666667, "fusion_lon": 0.0, "lat": 38.919262333333336, "rental_uris": {"android": "https://dc.lft.to/lastmile_qr_scan", "ios": "https://dc.lft.to/lastmile_qr_scan"}, "fusion_lat": 0.0, "name": "e29562d4d30192baf4f4c83090abecac", "bike_id": "e29562d4d30192baf4f4c83090abecac"}, {"is_disabled": 0, "is_reserved": 0, "type": "electric_scooter", "lon": -77.02991716666666, "fusion_lon": 0.0, "lat": 38.932345166666664, "rental_uris": {"android": "https://dc.lft.to/lastmile_qr_scan", "ios": "https://dc.lft.to/lastmile_qr_scan"}, "fusion_lat": 0.0, "name": "496ecec704399b7e714d4b92c30e34af", "bike_id": "496ecec704399b7e714d4b92c30e34af"}, {"is_disabled": 0, "is_reserved": 0, "type": "electric_scooter", "lon": -77.03897283333333, "fusion_lon": 0.0, "lat": 38.92497433333333, "rental_uris": {"android": "https://dc.lft.to/lastmile_qr_scan", "ios": "https://dc.lft.to/lastmile_qr_scan"}, "fusion_lat": 0.0, "name": "f12f8d9f98167fb9f97c17ec484bd72b", "bike_id": "f12f8d9f98167fb9f97c17ec484bd72b"}, {"is_disabled": 0, "is_reserved": 0, "type": "electric_scooter", "lon": -77.02387233333333, "fusion_lon": 0.0, "lat": 38.9573825, "rental_uris": {"android": "https://dc.lft.to/lastmile_qr_scan", "ios": "https://dc.lft.to/lastmile_qr_scan"}, "fusion_lat": 0.0, "name": "d66371d62454a6d1e6cf2fc27360cfda", "bike_id": "d66371d62454a6d1e6cf2fc27360cfda"}, {"is_disabled": 0, "is_reserved": 0, "type": "electric_scooter", "lon": -77.0468865, "fusion_lon": 0.0, "lat": 38.89742, "rental_uris": {"android": "https://dc.lft.to/lastmile_qr_scan", "ios": "https://dc.lft.to/lastmile_qr_scan"}, "fusion_lat": 0.0, "name": "a7602ef6be5faa5471bad9eec6a9987b", "bike_id": "a7602ef6be5faa5471bad9eec6a9987b"}, {"is_disabled": 0, "is_reserved": 0, "type": "electric_scooter", "lon": -77.026539, "fusion_lon": 0.0, "lat": 38.932668666666665, "rental_uris": {"android": "https://dc.lft.to/lastmile_qr_scan", "ios": "https://dc.lft.to/lastmile_qr_scan"}, "fusion_lat": 0.0, "name": "edc68fa09aab782eb53caa6a947ffc45", "bike_id": "edc68fa09aab782eb53caa6a947ffc45"}, {"is_disabled": 0, "is_reserved": 0, "type": "electric_bike", "lon": -76.98831316666667, "fusion_lon": 0.0, "lat": 38.9856045, "rental_uris": {"android": "https://dc.lft.to/lastmile_qr_scan", "ios": "https://dc.lft.to/lastmile_qr_scan"}, "fusion_lat": 0.0, "name": "6d550ecabef8e08dbb33c6f56a42bc8d", "bike_id": "6d550ecabef8e08dbb33c6f56a42bc8d"}, {"is_disabled": 0, "is_reserved": 0, "type": "electric_scooter", "lon": -76.9902965, "fusion_lon": 0.0, "lat": 38.898537, "rental_uris": {"android": "https://dc.lft.to/lastmile_qr_scan", "ios": "https://dc.lft.to/lastmile_qr_scan"}, "fusion_lat": 0.0, "name": "59e899927fc2ae776c13fdfa5ac3ff77", "bike_id": "59e899927fc2ae776c13fdfa5ac3ff77"}, {"is_disabled": 0, "is_reserved": 0, "type": "electric_scooter", "lon": -77.05084333333333, "fusion_lon": 0.0, "lat": 38.9053795, "rental_uris": {"android": "https://dc.lft.to/lastmile_qr_scan", "ios": "https://dc.lft.to/lastmile_qr_scan"}, "fusion_lat": 0.0, "name": "e8301fccb96a4462f9c87ba7a528336c", "bike_id": "e8301fccb96a4462f9c87ba7a528336c"}, {"is_disabled": 0, "is_reserved": 0, "type": "electric_scooter", "lon": -77.02632316666667, "fusion_lon": 0.0, "lat": 38.979437, "rental_uris": {"android": "https://dc.lft.to/lastmile_qr_scan", "ios": "https://dc.lft.to/lastmile_qr_scan"}, "fusion_lat": 0.0, "name": "880b6836626c2f7da8de5cb216e73571", "bike_id": "880b6836626c2f7da8de5cb216e73571"}, {"is_disabled": 0, "is_reserved": 0, "type": "electric_scooter", "lon": -77.027399, "fusion_lon": 0.0, "lat": 38.94306, "rental_uris": {"android": "https://dc.lft.to/lastmile_qr_scan", "ios": "https://dc.lft.to/lastmile_qr_scan"}, "fusion_lat": 0.0, "name": "f1aa78b73e31fec5fa5966d2afa941da", "bike_id": "f1aa78b73e31fec5fa5966d2afa941da"}, {"is_disabled": 0, "is_reserved": 0, "type": "electric_scooter", "lon": -77.04040683333334, "fusion_lon": 0.0, "lat": 38.91791966666667, "rental_uris": {"android": "https://dc.lft.to/lastmile_qr_scan", "ios": "https://dc.lft.to/lastmile_qr_scan"}, "fusion_lat": 0.0, "name": "c3ec4d7785c4e191d1826f983fc317b6", "bike_id": "c3ec4d7785c4e191d1826f983fc317b6"}, {"is_disabled": 0, "is_reserved": 0, "type": "electric_scooter", "lon": -77.04628083333333, "fusion_lon": 0.0, "lat": 38.9232195, "rental_uris": {"android": "https://dc.lft.to/lastmile_qr_scan", "ios": "https://dc.lft.to/lastmile_qr_scan"}, "fusion_lat": 0.0, "name": "d6809520589dc7b24365546b136d485f", "bike_id": "d6809520589dc7b24365546b136d485f"}, {"is_disabled": 0, "is_reserved": 0, "type": "electric_scooter", "lon": -76.99060933333334, "fusion_lon": 0.0, "lat": 38.8440785, "rental_uris": {"android": "https://dc.lft.to/lastmile_qr_scan", "ios": "https://dc.lft.to/lastmile_qr_scan"}, "fusion_lat": 0.0, "name": "801064688983bc768cc841661bd3eb5c", "bike_id": "801064688983bc768cc841661bd3eb5c"}, {"is_disabled": 0, "is_reserved": 0, "type": "electric_scooter", "lon": -77.03468833333334, "fusion_lon": 0.0, "lat": 38.90255416666667, "rental_uris": {"android": "https://dc.lft.to/lastmile_qr_scan", "ios": "https://dc.lft.to/lastmile_qr_scan"}, "fusion_lat": 0.0, "name": "f44af871e60b6a4f3e4d541423e2190b", "bike_id": "f44af871e60b6a4f3e4d541423e2190b"}, {"is_disabled": 0, "is_reserved": 0, "type": "electric_scooter", "lon": -77.04264666666667, "fusion_lon": 0.0, "lat": 38.91041283333333, "rental_uris": {"android": "https://dc.lft.to/lastmile_qr_scan", "ios": "https://dc.lft.to/lastmile_qr_scan"}, "fusion_lat": 0.0, "name": "ebf4d3a56cf07e321dee5945f4bf8525", "bike_id": "ebf4d3a56cf07e321dee5945f4bf8525"}, {"is_disabled": 0, "is_reserved": 0, "type": "electric_scooter", "lon": -76.9412045, "fusion_lon": 0.0, "lat": 38.884495333333334, "rental_uris": {"android": "https://dc.lft.to/lastmile_qr_scan", "ios": "https://dc.lft.to/lastmile_qr_scan"}, "fusion_lat": 0.0, "name": "865342a2e7f8083dac83308d03fd1008", "bike_id": "865342a2e7f8083dac83308d03fd1008"}, {"is_disabled": 0, "is_reserved": 0, "type": "electric_scooter", "lon": -77.03866333333333, "fusion_lon": 0.0, "lat": 38.903869, "rental_uris": {"android": "https://dc.lft.to/lastmile_qr_scan", "ios": "https://dc.lft.to/lastmile_qr_scan"}, "fusion_lat": 0.0, "name": "49dd6c7277f5f154e413a9b6289cc40b", "bike_id": "49dd6c7277f5f154e413a9b6289cc40b"}, {"is_disabled": 0, "is_reserved": 0, "type": "electric_scooter", "lon": -77.003628, "fusion_lon": 0.0, "lat": 38.9169565, "rental_uris": {"android": "https://dc.lft.to/lastmile_qr_scan", "ios": "https://dc.lft.to/lastmile_qr_scan"}, "fusion_lat": 0.0, "name": "c71350da76eaf1a73c974648b21c80f4", "bike_id": "c71350da76eaf1a73c974648b21c80f4"}, {"is_disabled": 0, "is_reserved": 0, "type": "electric_bike", "lon": -76.930209, "fusion_lon": 0.0, "lat": 38.9664835, "rental_uris": {"android": "https://dc.lft.to/lastmile_qr_scan", "ios": "https://dc.lft.to/lastmile_qr_scan"}, "fusion_lat": 0.0, "name": "f9b2f0294e665c1d3d1b9ba0fe94d5c2", "bike_id": "f9b2f0294e665c1d3d1b9ba0fe94d5c2"}, {"is_disabled": 0, "is_reserved": 0, "type": "electric_scooter", "lon": -76.91881716666667, "fusion_lon": 0.0, "lat": 38.8908485, "rental_uris": {"android": "https://dc.lft.to/lastmile_qr_scan", "ios": "https://dc.lft.to/lastmile_qr_scan"}, "fusion_lat": 0.0, "name": "070ac2fc5e8f3b3323c8251b9afb8517", "bike_id": "070ac2fc5e8f3b3323c8251b9afb8517"}, {"is_disabled": 0, "is_reserved": 0, "type": "electric_scooter", "lon": -77.02168066666667, "fusion_lon": 0.0, "lat": 38.886324, "rental_uris": {"android": "https://dc.lft.to/lastmile_qr_scan", "ios": "https://dc.lft.to/lastmile_qr_scan"}, "fusion_lat": 0.0, "name": "992c9a9ab9ddeebc5935d9df6ed3cdfc", "bike_id": "992c9a9ab9ddeebc5935d9df6ed3cdfc"}, {"is_disabled": 0, "is_reserved": 0, "type": "electric_scooter", "lon": -77.0488495, "fusion_lon": 0.0, "lat": 38.9084, "rental_uris": {"android": "https://dc.lft.to/lastmile_qr_scan", "ios": "https://dc.lft.to/lastmile_qr_scan"}, "fusion_lat": 0.0, "name": "95eb9de01816f5d9954be8ae88cfea75", "bike_id": "95eb9de01816f5d9954be8ae88cfea75"}, {"is_disabled": 0, "is_reserved": 0, "type": "electric_scooter", "lon": -77.04890583333334, "fusion_lon": 0.0, "lat": 38.898155, "rental_uris": {"android": "https://dc.lft.to/lastmile_qr_scan", "ios": "https://dc.lft.to/lastmile_qr_scan"}, "fusion_lat": 0.0, "name": "c8d95972c30226af0ba2547ace445be7", "bike_id": "c8d95972c30226af0ba2547ace445be7"}, {"is_disabled": 0, "is_reserved": 0, "type": "electric_scooter", "lon": -76.999646, "fusion_lon": 0.0, "lat": 38.9010875, "rental_uris": {"android": "https://dc.lft.to/lastmile_qr_scan", "ios": "https://dc.lft.to/lastmile_qr_scan"}, "fusion_lat": 0.0, "name": "0cd72543b089407e01d0913009e7d62d", "bike_id": "0cd72543b089407e01d0913009e7d62d"}, {"is_disabled": 0, "is_reserved": 0, "type": "electric_bike", "lon": -76.91325066666667, "fusion_lon": 0.0, "lat": 38.895991, "rental_uris": {"android": "https://dc.lft.to/lastmile_qr_scan", "ios": "https://dc.lft.to/lastmile_qr_scan"}, "fusion_lat": 0.0, "name": "149f350eb8c998247e1503054a3893d2", "bike_id": "149f350eb8c998247e1503054a3893d2"}, {"is_disabled": 0, "is_reserved": 0, "type": "electric_scooter", "lon": -77.00493766666666, "fusion_lon": 0.0, "lat": 38.89685516666667, "rental_uris": {"android": "https://dc.lft.to/lastmile_qr_scan", "ios": "https://dc.lft.to/lastmile_qr_scan"}, "fusion_lat": 0.0, "name": "81615e3ff55c61893fb00c7eadf3c559", "bike_id": "81615e3ff55c61893fb00c7eadf3c559"}, {"is_disabled": 0, "is_reserved": 0, "type": "electric_scooter", "lon": -77.03215333333333, "fusion_lon": 0.0, "lat": 38.918514333333334, "rental_uris": {"android": "https://dc.lft.to/lastmile_qr_scan", "ios": "https://dc.lft.to/lastmile_qr_scan"}, "fusion_lat": 0.0, "name": "193e7132ff4168fe0a2f83521b44e5e8", "bike_id": "193e7132ff4168fe0a2f83521b44e5e8"}, {"is_disabled": 0, "is_reserved": 0, "type": "electric_scooter", "lon": -77.032634, "fusion_lon": 0.0, "lat": 38.90968266666667, "rental_uris": {"android": "https://dc.lft.to/lastmile_qr_scan", "ios": "https://dc.lft.to/lastmile_qr_scan"}, "fusion_lat": 0.0, "name": "f8959bf6907a5828941106506935a999", "bike_id": "f8959bf6907a5828941106506935a999"}, {"is_disabled": 0, "is_reserved": 0, "type": "electric_scooter", "lon": -77.03336666666667, "fusion_lon": 0.0, "lat": 38.89226816666667, "rental_uris": {"android": "https://dc.lft.to/lastmile_qr_scan", "ios": "https://dc.lft.to/lastmile_qr_scan"}, "fusion_lat": 0.0, "name": "833974b1d9fdcff903c0b5da7011068d", "bike_id": "833974b1d9fdcff903c0b5da7011068d"}, {"is_disabled": 0, "is_reserved": 0, "type": "electric_scooter", "lon": -77.0028885, "fusion_lon": 0.0, "lat": 38.89226716666667, "rental_uris": {"android": "https://dc.lft.to/lastmile_qr_scan", "ios": "https://dc.lft.to/lastmile_qr_scan"}, "fusion_lat": 0.0, "name": "9378fea9a1e6af009da5dee14bf4d4e6", "bike_id": "9378fea9a1e6af009da5dee14bf4d4e6"}, {"is_disabled": 0, "is_reserved": 0, "type": "electric_scooter", "lon": -77.02589166666667, "fusion_lon": 0.0, "lat": 38.92037366666667, "rental_uris": {"android": "https://dc.lft.to/lastmile_qr_scan", "ios": "https://dc.lft.to/lastmile_qr_scan"}, "fusion_lat": 0.0, "name": "8d75e58b24e139aa3370e8e8c06b79b5", "bike_id": "8d75e58b24e139aa3370e8e8c06b79b5"}, {"is_disabled": 0, "is_reserved": 0, "type": "electric_scooter", "lon": -76.99872166666667, "fusion_lon": 0.0, "lat": 38.9002885, "rental_uris": {"android": "https://dc.lft.to/lastmile_qr_scan", "ios": "https://dc.lft.to/lastmile_qr_scan"}, "fusion_lat": 0.0, "name": "58d4c1a9af5f9865852ef6e922d78875", "bike_id": "58d4c1a9af5f9865852ef6e922d78875"}, {"is_disabled": 0, "is_reserved": 0, "type": "electric_scooter", "lon": -77.05988183333334, "fusion_lon": 0.0, "lat": 38.9119765, "rental_uris": {"android": "https://dc.lft.to/lastmile_qr_scan", "ios": "https://dc.lft.to/lastmile_qr_scan"}, "fusion_lat": 0.0, "name": "2d6208029197ac3b627f696f512a7bc4", "bike_id": "2d6208029197ac3b627f696f512a7bc4"}, {"is_disabled": 0, "is_reserved": 0, "type": "electric_scooter", "lon": -77.03401866666667, "fusion_lon": 0.0, "lat": 38.92157266666667, "rental_uris": {"android": "https://dc.lft.to/lastmile_qr_scan", "ios": "https://dc.lft.to/lastmile_qr_scan"}, "fusion_lat": 0.0, "name": "4c841b163e09f8d01808613d35b2d94a", "bike_id": "4c841b163e09f8d01808613d35b2d94a"}, {"is_disabled": 0, "is_reserved": 0, "type": "electric_scooter", "lon": -77.02546933333333, "fusion_lon": 0.0, "lat": 38.948348, "rental_uris": {"android": "https://dc.lft.to/lastmile_qr_scan", "ios": "https://dc.lft.to/lastmile_qr_scan"}, "fusion_lat": 0.0, "name": "a3879e5b1e73f42fdd2dca7a588f2741", "bike_id": "a3879e5b1e73f42fdd2dca7a588f2741"}, {"is_disabled": 0, "is_reserved": 0, "type": "electric_scooter", "lon": -77.03940433333334, "fusion_lon": 0.0, "lat": 38.9082155, "rental_uris": {"android": "https://dc.lft.to/lastmile_qr_scan", "ios": "https://dc.lft.to/lastmile_qr_scan"}, "fusion_lat": 0.0, "name": "e1efdb15b622de2ce8ba9136f142a370", "bike_id": "e1efdb15b622de2ce8ba9136f142a370"}, {"is_disabled": 0, "is_reserved": 0, "type": "electric_scooter", "lon": -77.08008916666667, "fusion_lon": 0.0, "lat": 38.94904866666667, "rental_uris": {"android": "https://dc.lft.to/lastmile_qr_scan", "ios": "https://dc.lft.to/lastmile_qr_scan"}, "fusion_lat": 0.0, "name": "76c07a5a6620df95d9ce8e6b79aceb3c", "bike_id": "76c07a5a6620df95d9ce8e6b79aceb3c"}, {"is_disabled": 0, "is_reserved": 0, "type": "electric_scooter", "lon": -77.04057116666667, "fusion_lon": 0.0, "lat": 38.90150583333333, "rental_uris": {"android": "https://dc.lft.to/lastmile_qr_scan", "ios": "https://dc.lft.to/lastmile_qr_scan"}, "fusion_lat": 0.0, "name": "1320f28226ba48b2789683cf4017aa8b", "bike_id": "1320f28226ba48b2789683cf4017aa8b"}, {"is_disabled": 0, "is_reserved": 0, "type": "electric_scooter", "lon": -77.02797, "fusion_lon": 0.0, "lat": 38.929708, "rental_uris": {"android": "https://dc.lft.to/lastmile_qr_scan", "ios": "https://dc.lft.to/lastmile_qr_scan"}, "fusion_lat": 0.0, "name": "02ef121e78094c62d726f3389b59e856", "bike_id": "02ef121e78094c62d726f3389b59e856"}, {"is_disabled": 0, "is_reserved": 0, "type": "electric_scooter", "lon": -77.034427, "fusion_lon": 0.0, "lat": 38.91587483333333, "rental_uris": {"android": "https://dc.lft.to/lastmile_qr_scan", "ios": "https://dc.lft.to/lastmile_qr_scan"}, "fusion_lat": 0.0, "name": "b76c512b2b60c879e7a0f7d00b8125ba", "bike_id": "b76c512b2b60c879e7a0f7d00b8125ba"}, {"is_disabled": 0, "is_reserved": 0, "type": "electric_scooter", "lon": -77.023092, "fusion_lon": 0.0, "lat": 38.917029, "rental_uris": {"android": "https://dc.lft.to/lastmile_qr_scan", "ios": "https://dc.lft.to/lastmile_qr_scan"}, "fusion_lat": 0.0, "name": "b9e2f728e6f5551ff0c0b6532ac7ac27", "bike_id": "b9e2f728e6f5551ff0c0b6532ac7ac27"}, {"is_disabled": 0, "is_reserved": 0, "type": "electric_scooter", "lon": -76.9847055, "fusion_lon": 0.0, "lat": 38.89362066666666, "rental_uris": {"android": "https://dc.lft.to/lastmile_qr_scan", "ios": "https://dc.lft.to/lastmile_qr_scan"}, "fusion_lat": 0.0, "name": "64a97d7158b7002508f5388670981568", "bike_id": "64a97d7158b7002508f5388670981568"}, {"is_disabled": 0, "is_reserved": 0, "type": "electric_scooter", "lon": -77.04416816666667, "fusion_lon": 0.0, "lat": 38.91773466666667, "rental_uris": {"android": "https://dc.lft.to/lastmile_qr_scan", "ios": "https://dc.lft.to/lastmile_qr_scan"}, "fusion_lat": 0.0, "name": "c3d364c83b8b6de6755fd43c809a927b", "bike_id": "c3d364c83b8b6de6755fd43c809a927b"}, {"is_disabled": 0, "is_reserved": 0, "type": "electric_scooter", "lon": -76.97996533333334, "fusion_lon": 0.0, "lat": 38.888692666666664, "rental_uris": {"android": "https://dc.lft.to/lastmile_qr_scan", "ios": "https://dc.lft.to/lastmile_qr_scan"}, "fusion_lat": 0.0, "name": "9a4953bd6f51dc4d0f4f904670fa9497", "bike_id": "9a4953bd6f51dc4d0f4f904670fa9497"}, {"is_disabled": 0, "is_reserved": 0, "type": "electric_scooter", "lon": -77.04420183333333, "fusion_lon": 0.0, "lat": 38.91129083333333, "rental_uris": {"android": "https://dc.lft.to/lastmile_qr_scan", "ios": "https://dc.lft.to/lastmile_qr_scan"}, "fusion_lat": 0.0, "name": "4ea6ea5c2ebc8e6e2025fa34dfc49ba2", "bike_id": "4ea6ea5c2ebc8e6e2025fa34dfc49ba2"}, {"is_disabled": 0, "is_reserved": 0, "type": "electric_scooter", "lon": -77.04156033333334, "fusion_lon": 0.0, "lat": 38.90138833333334, "rental_uris": {"android": "https://dc.lft.to/lastmile_qr_scan", "ios": "https://dc.lft.to/lastmile_qr_scan"}, "fusion_lat": 0.0, "name": "c66bdf6a101ab4b41a2a4b8955d63c93", "bike_id": "c66bdf6a101ab4b41a2a4b8955d63c93"}, {"is_disabled": 0, "is_reserved": 0, "type": "electric_scooter", "lon": -77.03274283333333, "fusion_lon": 0.0, "lat": 38.91608333333333, "rental_uris": {"android": "https://dc.lft.to/lastmile_qr_scan", "ios": "https://dc.lft.to/lastmile_qr_scan"}, "fusion_lat": 0.0, "name": "c69552019a0bc546fb9a33208e9260e6", "bike_id": "c69552019a0bc546fb9a33208e9260e6"}, {"is_disabled": 0, "is_reserved": 0, "type": "electric_scooter", "lon": -77.0449235, "fusion_lon": 0.0, "lat": 38.8961795, "rental_uris": {"android": "https://dc.lft.to/lastmile_qr_scan", "ios": "https://dc.lft.to/lastmile_qr_scan"}, "fusion_lat": 0.0, "name": "db539ee02c7261ca33dfe9266dc3f5cf", "bike_id": "db539ee02c7261ca33dfe9266dc3f5cf"}, {"is_disabled": 0, "is_reserved": 0, "type": "electric_scooter", "lon": -77.03518983333333, "fusion_lon": 0.0, "lat": 38.922433833333336, "rental_uris": {"android": "https://dc.lft.to/lastmile_qr_scan", "ios": "https://dc.lft.to/lastmile_qr_scan"}, "fusion_lat": 0.0, "name": "c456d1102c5ae48cc4633d4339c461f1", "bike_id": "c456d1102c5ae48cc4633d4339c461f1"}, {"is_disabled": 0, "is_reserved": 0, "type": "electric_scooter", "lon": -77.06527066666666, "fusion_lon": 0.0, "lat": 38.90520166666667, "rental_uris": {"android": "https://dc.lft.to/lastmile_qr_scan", "ios": "https://dc.lft.to/lastmile_qr_scan"}, "fusion_lat": 0.0, "name": "b4937987d666b2e160e6c57de024c3b5", "bike_id": "b4937987d666b2e160e6c57de024c3b5"}, {"is_disabled": 0, "is_reserved": 0, "type": "electric_bike", "lon": -77.11479433333334, "fusion_lon": 0.0, "lat": 38.88190633333333, "rental_uris": {"android": "https://dc.lft.to/lastmile_qr_scan", "ios": "https://dc.lft.to/lastmile_qr_scan"}, "fusion_lat": 0.0, "name": "d37a238a774d5e44ee6b37dea6127f4d", "bike_id": "d37a238a774d5e44ee6b37dea6127f4d"}, {"is_disabled": 0, "is_reserved": 0, "type": "electric_scooter", "lon": -77.04349666666667, "fusion_lon": 0.0, "lat": 38.911266166666664, "rental_uris": {"android": "https://dc.lft.to/lastmile_qr_scan", "ios": "https://dc.lft.to/lastmile_qr_scan"}, "fusion_lat": 0.0, "name": "83cf8965878b233b118d0540f52045d5", "bike_id": "83cf8965878b233b118d0540f52045d5"}, {"is_disabled": 0, "is_reserved": 0, "type": "electric_scooter", "lon": -76.97720066666666, "fusion_lon": 0.0, "lat": 38.8883265, "rental_uris": {"android": "https://dc.lft.to/lastmile_qr_scan", "ios": "https://dc.lft.to/lastmile_qr_scan"}, "fusion_lat": 0.0, "name": "02792eeeb95fed08521dc9fea50e03f9", "bike_id": "02792eeeb95fed08521dc9fea50e03f9"}, {"is_disabled": 0, "is_reserved": 0, "type": "electric_scooter", "lon": -77.0450975, "fusion_lon": 0.0, "lat": 38.90370516666667, "rental_uris": {"android": "https://dc.lft.to/lastmile_qr_scan", "ios": "https://dc.lft.to/lastmile_qr_scan"}, "fusion_lat": 0.0, "name": "72f8062590058d6b067c14d4cae9c87e", "bike_id": "72f8062590058d6b067c14d4cae9c87e"}, {"is_disabled": 0, "is_reserved": 0, "type": "electric_scooter", "lon": -77.0033905, "fusion_lon": 0.0, "lat": 38.893563, "rental_uris": {"android": "https://dc.lft.to/lastmile_qr_scan", "ios": "https://dc.lft.to/lastmile_qr_scan"}, "fusion_lat": 0.0, "name": "aaf885f61ad30094ddb4a0997e13b3c2", "bike_id": "aaf885f61ad30094ddb4a0997e13b3c2"}, {"is_disabled": 0, "is_reserved": 0, "type": "electric_scooter", "lon": -77.04170966666666, "fusion_lon": 0.0, "lat": 38.92008416666667, "rental_uris": {"android": "https://dc.lft.to/lastmile_qr_scan", "ios": "https://dc.lft.to/lastmile_qr_scan"}, "fusion_lat": 0.0, "name": "b17d32c9c2a367d9a06d68605fc74fed", "bike_id": "b17d32c9c2a367d9a06d68605fc74fed"}, {"is_disabled": 0, "is_reserved": 0, "type": "electric_scooter", "lon": -77.03113033333334, "fusion_lon": 0.0, "lat": 38.920245666666666, "rental_uris": {"android": "https://dc.lft.to/lastmile_qr_scan", "ios": "https://dc.lft.to/lastmile_qr_scan"}, "fusion_lat": 0.0, "name": "3076fbbdd532736ee7d2b020e040186c", "bike_id": "3076fbbdd532736ee7d2b020e040186c"}, {"is_disabled": 0, "is_reserved": 0, "type": "electric_scooter", "lon": -77.03617033333333, "fusion_lon": 0.0, "lat": 38.92336683333333, "rental_uris": {"android": "https://dc.lft.to/lastmile_qr_scan", "ios": "https://dc.lft.to/lastmile_qr_scan"}, "fusion_lat": 0.0, "name": "bb58bbace0e2dafc9db9c55359574c24", "bike_id": "bb58bbace0e2dafc9db9c55359574c24"}, {"is_disabled": 0, "is_reserved": 0, "type": "electric_scooter", "lon": -77.0238755, "fusion_lon": 0.0, "lat": 38.927972833333335, "rental_uris": {"android": "https://dc.lft.to/lastmile_qr_scan", "ios": "https://dc.lft.to/lastmile_qr_scan"}, "fusion_lat": 0.0, "name": "abe2b7c2abb7528e2b1f7f9c25980bab", "bike_id": "abe2b7c2abb7528e2b1f7f9c25980bab"}, {"is_disabled": 0, "is_reserved": 0, "type": "electric_scooter", "lon": -77.0369445, "fusion_lon": 0.0, "lat": 38.926378166666666, "rental_uris": {"android": "https://dc.lft.to/lastmile_qr_scan", "ios": "https://dc.lft.to/lastmile_qr_scan"}, "fusion_lat": 0.0, "name": "405ccc0508bf36b10cab3e61da35e934", "bike_id": "405ccc0508bf36b10cab3e61da35e934"}, {"is_disabled": 0, "is_reserved": 0, "type": "electric_scooter", "lon": -77.01998883333333, "fusion_lon": 0.0, "lat": 38.96628966666667, "rental_uris": {"android": "https://dc.lft.to/lastmile_qr_scan", "ios": "https://dc.lft.to/lastmile_qr_scan"}, "fusion_lat": 0.0, "name": "dd327dc8ccf42ca8dd201b20c7488b11", "bike_id": "dd327dc8ccf42ca8dd201b20c7488b11"}, {"is_disabled": 0, "is_reserved": 0, "type": "electric_scooter", "lon": -77.0151505, "fusion_lon": 0.0, "lat": 38.9103565, "rental_uris": {"android": "https://dc.lft.to/lastmile_qr_scan", "ios": "https://dc.lft.to/lastmile_qr_scan"}, "fusion_lat": 0.0, "name": "50bd2407c04a59f10a1e21233937ba32", "bike_id": "50bd2407c04a59f10a1e21233937ba32"}, {"is_disabled": 0, "is_reserved": 0, "type": "electric_scooter", "lon": -77.04579166666667, "fusion_lon": 0.0, "lat": 38.92418216666667, "rental_uris": {"android": "https://dc.lft.to/lastmile_qr_scan", "ios": "https://dc.lft.to/lastmile_qr_scan"}, "fusion_lat": 0.0, "name": "ec09cfb4cc66b2c984d8378cb0c87262", "bike_id": "ec09cfb4cc66b2c984d8378cb0c87262"}, {"is_disabled": 0, "is_reserved": 0, "type": "electric_scooter", "lon": -77.03209266666667, "fusion_lon": 0.0, "lat": 38.9153855, "rental_uris": {"android": "https://dc.lft.to/lastmile_qr_scan", "ios": "https://dc.lft.to/lastmile_qr_scan"}, "fusion_lat": 0.0, "name": "af3888249a3dbdf670237513eef1bdf8", "bike_id": "af3888249a3dbdf670237513eef1bdf8"}, {"is_disabled": 0, "is_reserved": 0, "type": "electric_scooter", "lon": -77.02718533333334, "fusion_lon": 0.0, "lat": 38.910999833333335, "rental_uris": {"android": "https://dc.lft.to/lastmile_qr_scan", "ios": "https://dc.lft.to/lastmile_qr_scan"}, "fusion_lat": 0.0, "name": "4a9130a21e5919d7a04f9f7c1f70b858", "bike_id": "4a9130a21e5919d7a04f9f7c1f70b858"}, {"is_disabled": 0, "is_reserved": 0, "type": "electric_bike", "lon": -77.07085016666667, "fusion_lon": 0.0, "lat": 38.906252, "rental_uris": {"android": "https://dc.lft.to/lastmile_qr_scan", "ios": "https://dc.lft.to/lastmile_qr_scan"}, "fusion_lat": 0.0, "name": "416611f3219af0be1c2ce39e7cdbfa3b", "bike_id": "416611f3219af0be1c2ce39e7cdbfa3b"}, {"is_disabled": 0, "is_reserved": 0, "type": "electric_bike", "lon": -77.03896416666667, "fusion_lon": 0.0, "lat": 38.943935833333335, "rental_uris": {"android": "https://dc.lft.to/lastmile_qr_scan", "ios": "https://dc.lft.to/lastmile_qr_scan"}, "fusion_lat": 0.0, "name": "1dd6dd42c0c6efa5abcee8bcfc6044b1", "bike_id": "1dd6dd42c0c6efa5abcee8bcfc6044b1"}, {"is_disabled": 0, "is_reserved": 0, "type": "electric_scooter", "lon": -77.00915433333333, "fusion_lon": 0.0, "lat": 38.89645216666667, "rental_uris": {"android": "https://dc.lft.to/lastmile_qr_scan", "ios": "https://dc.lft.to/lastmile_qr_scan"}, "fusion_lat": 0.0, "name": "dcd4d55a19171e71da89fb0d1c77d36a", "bike_id": "dcd4d55a19171e71da89fb0d1c77d36a"}, {"is_disabled": 0, "is_reserved": 0, "type": "electric_scooter", "lon": -77.02052116666667, "fusion_lon": 0.0, "lat": 38.941252, "rental_uris": {"android": "https://dc.lft.to/lastmile_qr_scan", "ios": "https://dc.lft.to/lastmile_qr_scan"}, "fusion_lat": 0.0, "name": "c4896f2ab9cda91ee4e412295811e68b", "bike_id": "c4896f2ab9cda91ee4e412295811e68b"}, {"is_disabled": 0, "is_reserved": 0, "type": "electric_scooter", "lon": -77.01247033333334, "fusion_lon": 0.0, "lat": 38.931106, "rental_uris": {"android": "https://dc.lft.to/lastmile_qr_scan", "ios": "https://dc.lft.to/lastmile_qr_scan"}, "fusion_lat": 0.0, "name": "d4149d9938424967e938195448477158", "bike_id": "d4149d9938424967e938195448477158"}, {"is_disabled": 0, "is_reserved": 0, "type": "electric_scooter", "lon": -77.04133916666666, "fusion_lon": 0.0, "lat": 38.921426833333335, "rental_uris": {"android": "https://dc.lft.to/lastmile_qr_scan", "ios": "https://dc.lft.to/lastmile_qr_scan"}, "fusion_lat": 0.0, "name": "e475f03af7c8d8139a352fdfca940bc3", "bike_id": "e475f03af7c8d8139a352fdfca940bc3"}, {"is_disabled": 0, "is_reserved": 0, "type": "electric_bike", "lon": -77.00578966666667, "fusion_lon": 0.0, "lat": 38.902838333333335, "rental_uris": {"android": "https://dc.lft.to/lastmile_qr_scan", "ios": "https://dc.lft.to/lastmile_qr_scan"}, "fusion_lat": 0.0, "name": "ea70bcc2fb2f02b89726afcfbd712829", "bike_id": "ea70bcc2fb2f02b89726afcfbd712829"}, {"is_disabled": 0, "is_reserved": 0, "type": "electric_scooter", "lon": -77.0328865, "fusion_lon": 0.0, "lat": 38.92741566666667, "rental_uris": {"android": "https://dc.lft.to/lastmile_qr_scan", "ios": "https://dc.lft.to/lastmile_qr_scan"}, "fusion_lat": 0.0, "name": "1e9b0bd925006a235ae3deafabbf6000", "bike_id": "1e9b0bd925006a235ae3deafabbf6000"}, {"is_disabled": 0, "is_reserved": 0, "type": "electric_scooter", "lon": -77.02477816666666, "fusion_lon": 0.0, "lat": 38.9377245, "rental_uris": {"android": "https://dc.lft.to/lastmile_qr_scan", "ios": "https://dc.lft.to/lastmile_qr_scan"}, "fusion_lat": 0.0, "name": "edb398b6a0be55ec333b32b74ed9d52d", "bike_id": "edb398b6a0be55ec333b32b74ed9d52d"}, {"is_disabled": 0, "is_reserved": 0, "type": "electric_bike", "lon": -77.10650366666667, "fusion_lon": 0.0, "lat": 39.03002433333333, "rental_uris": {"android": "https://dc.lft.to/lastmile_qr_scan", "ios": "https://dc.lft.to/lastmile_qr_scan"}, "fusion_lat": 0.0, "name": "042c0083ffb8d0a6906f4d711b20e87a", "bike_id": "042c0083ffb8d0a6906f4d711b20e87a"}, {"is_disabled": 0, "is_reserved": 0, "type": "electric_scooter", "lon": -77.044078, "fusion_lon": 0.0, "lat": 38.92951583333333, "rental_uris": {"android": "https://dc.lft.to/lastmile_qr_scan", "ios": "https://dc.lft.to/lastmile_qr_scan"}, "fusion_lat": 0.0, "name": "335535fd6332dddc774884bea26aa5ac", "bike_id": "335535fd6332dddc774884bea26aa5ac"}, {"is_disabled": 0, "is_reserved": 0, "type": "electric_scooter", "lon": -77.0205185, "fusion_lon": 0.0, "lat": 38.95871483333333, "rental_uris": {"android": "https://dc.lft.to/lastmile_qr_scan", "ios": "https://dc.lft.to/lastmile_qr_scan"}, "fusion_lat": 0.0, "name": "9845ef80dff61ddb562ef5312c00133e", "bike_id": "9845ef80dff61ddb562ef5312c00133e"}, {"is_disabled": 0, "is_reserved": 0, "type": "electric_scooter", "lon": -76.990563, "fusion_lon": 0.0, "lat": 38.86363433333333, "rental_uris": {"android": "https://dc.lft.to/lastmile_qr_scan", "ios": "https://dc.lft.to/lastmile_qr_scan"}, "fusion_lat": 0.0, "name": "e7705dec6d5951b6cf667d19d8e791ba", "bike_id": "e7705dec6d5951b6cf667d19d8e791ba"}, {"is_disabled": 0, "is_reserved": 0, "type": "electric_scooter", "lon": -77.00763066666667, "fusion_lon": 0.0, "lat": 38.90750633333333, "rental_uris": {"android": "https://dc.lft.to/lastmile_qr_scan", "ios": "https://dc.lft.to/lastmile_qr_scan"}, "fusion_lat": 0.0, "name": "ff7e8613036129737784fcafe4de2d66", "bike_id": "ff7e8613036129737784fcafe4de2d66"}, {"is_disabled": 0, "is_reserved": 0, "type": "electric_scooter", "lon": -77.03984883333334, "fusion_lon": 0.0, "lat": 38.905528, "rental_uris": {"android": "https://dc.lft.to/lastmile_qr_scan", "ios": "https://dc.lft.to/lastmile_qr_scan"}, "fusion_lat": 0.0, "name": "27e5ec09b9d964f5a89a60a92fe03223", "bike_id": "27e5ec09b9d964f5a89a60a92fe03223"}, {"is_disabled": 0, "is_reserved": 0, "type": "electric_scooter", "lon": -77.02334283333333, "fusion_lon": 0.0, "lat": 38.92232533333333, "rental_uris": {"android": "https://dc.lft.to/lastmile_qr_scan", "ios": "https://dc.lft.to/lastmile_qr_scan"}, "fusion_lat": 0.0, "name": "87da433c9423932ae0e8216d4302c90f", "bike_id": "87da433c9423932ae0e8216d4302c90f"}, {"is_disabled": 0, "is_reserved": 0, "type": "electric_bike", "lon": -76.97509233333334, "fusion_lon": 0.0, "lat": 38.919373666666665, "rental_uris": {"android": "https://dc.lft.to/lastmile_qr_scan", "ios": "https://dc.lft.to/lastmile_qr_scan"}, "fusion_lat": 0.0, "name": "190f8081bd9b82fc7c3fdbd97a22e7bd", "bike_id": "190f8081bd9b82fc7c3fdbd97a22e7bd"}, {"is_disabled": 0, "is_reserved": 0, "type": "electric_scooter", "lon": -77.04285716666666, "fusion_lon": 0.0, "lat": 38.917027166666664, "rental_uris": {"android": "https://dc.lft.to/lastmile_qr_scan", "ios": "https://dc.lft.to/lastmile_qr_scan"}, "fusion_lat": 0.0, "name": "fc36a32fca8aac8f89e284549f85a5e3", "bike_id": "fc36a32fca8aac8f89e284549f85a5e3"}, {"is_disabled": 0, "is_reserved": 0, "type": "electric_scooter", "lon": -77.02299216666667, "fusion_lon": 0.0, "lat": 38.917319666666664, "rental_uris": {"android": "https://dc.lft.to/lastmile_qr_scan", "ios": "https://dc.lft.to/lastmile_qr_scan"}, "fusion_lat": 0.0, "name": "1fde3d28cb2135fab645d7aca490cb78", "bike_id": "1fde3d28cb2135fab645d7aca490cb78"}, {"is_disabled": 0, "is_reserved": 0, "type": "electric_scooter", "lon": -76.9790135, "fusion_lon": 0.0, "lat": 38.904033166666665, "rental_uris": {"android": "https://dc.lft.to/lastmile_qr_scan", "ios": "https://dc.lft.to/lastmile_qr_scan"}, "fusion_lat": 0.0, "name": "2cd10ae771ea4a30ccd2caa58f87ff17", "bike_id": "2cd10ae771ea4a30ccd2caa58f87ff17"}, {"is_disabled": 0, "is_reserved": 0, "type": "electric_scooter", "lon": -77.02765316666667, "fusion_lon": 0.0, "lat": 38.943004, "rental_uris": {"android": "https://dc.lft.to/lastmile_qr_scan", "ios": "https://dc.lft.to/lastmile_qr_scan"}, "fusion_lat": 0.0, "name": "3f10b0c120be5d9c67c87e197e1ac3a9", "bike_id": "3f10b0c120be5d9c67c87e197e1ac3a9"}, {"is_disabled": 0, "is_reserved": 0, "type": "electric_scooter", "lon": -77.00565816666666, "fusion_lon": 0.0, "lat": 38.8859915, "rental_uris": {"android": "https://dc.lft.to/lastmile_qr_scan", "ios": "https://dc.lft.to/lastmile_qr_scan"}, "fusion_lat": 0.0, "name": "0837b1f944a281c72be854310dbdace7", "bike_id": "0837b1f944a281c72be854310dbdace7"}, {"is_disabled": 0, "is_reserved": 0, "type": "electric_scooter", "lon": -76.94942216666666, "fusion_lon": 0.0, "lat": 38.893646, "rental_uris": {"android": "https://dc.lft.to/lastmile_qr_scan", "ios": "https://dc.lft.to/lastmile_qr_scan"}, "fusion_lat": 0.0, "name": "2fd26f12e6fe0da166df3a9a1728b524", "bike_id": "2fd26f12e6fe0da166df3a9a1728b524"}, {"is_disabled": 0, "is_reserved": 0, "type": "electric_scooter", "lon": -76.990335, "fusion_lon": 0.0, "lat": 38.89878133333333, "rental_uris": {"android": "https://dc.lft.to/lastmile_qr_scan", "ios": "https://dc.lft.to/lastmile_qr_scan"}, "fusion_lat": 0.0, "name": "18926eecd90dacffb61a493f6af62d5b", "bike_id": "18926eecd90dacffb61a493f6af62d5b"}, {"is_disabled": 0, "is_reserved": 0, "type": "electric_scooter", "lon": -77.04145783333334, "fusion_lon": 0.0, "lat": 38.92300616666667, "rental_uris": {"android": "https://dc.lft.to/lastmile_qr_scan", "ios": "https://dc.lft.to/lastmile_qr_scan"}, "fusion_lat": 0.0, "name": "29af11540b3af4c7ce9ea23634415d17", "bike_id": "29af11540b3af4c7ce9ea23634415d17"}, {"is_disabled": 0, "is_reserved": 0, "type": "electric_scooter", "lon": -77.03206933333334, "fusion_lon": 0.0, "lat": 38.916873, "rental_uris": {"android": "https://dc.lft.to/lastmile_qr_scan", "ios": "https://dc.lft.to/lastmile_qr_scan"}, "fusion_lat": 0.0, "name": "d39e784e0f3476bd45b60b7b7a9ee816", "bike_id": "d39e784e0f3476bd45b60b7b7a9ee816"}, {"is_disabled": 0, "is_reserved": 0, "type": "electric_scooter", "lon": -77.00945916666667, "fusion_lon": 0.0, "lat": 38.89497133333333, "rental_uris": {"android": "https://dc.lft.to/lastmile_qr_scan", "ios": "https://dc.lft.to/lastmile_qr_scan"}, "fusion_lat": 0.0, "name": "832621b1d97a2a54baab92d59d6e01c3", "bike_id": "832621b1d97a2a54baab92d59d6e01c3"}, {"is_disabled": 0, "is_reserved": 0, "type": "electric_bike", "lon": -77.08433383333333, "fusion_lon": 0.0, "lat": 38.810265333333334, "rental_uris": {"android": "https://dc.lft.to/lastmile_qr_scan", "ios": "https://dc.lft.to/lastmile_qr_scan"}, "fusion_lat": 0.0, "name": "4ebde0696978bb226214dd6e9a0b21e7", "bike_id": "4ebde0696978bb226214dd6e9a0b21e7"}, {"is_disabled": 0, "is_reserved": 0, "type": "electric_scooter", "lon": -77.00220483333334, "fusion_lon": 0.0, "lat": 38.91336366666667, "rental_uris": {"android": "https://dc.lft.to/lastmile_qr_scan", "ios": "https://dc.lft.to/lastmile_qr_scan"}, "fusion_lat": 0.0, "name": "ca59433c1cfae15ee1287cf4a30ffcd7", "bike_id": "ca59433c1cfae15ee1287cf4a30ffcd7"}, {"is_disabled": 0, "is_reserved": 0, "type": "electric_scooter", "lon": -77.03874933333333, "fusion_lon": 0.0, "lat": 38.9031005, "rental_uris": {"android": "https://dc.lft.to/lastmile_qr_scan", "ios": "https://dc.lft.to/lastmile_qr_scan"}, "fusion_lat": 0.0, "name": "25d17b301ab44024f8294d46d9f3f55b", "bike_id": "25d17b301ab44024f8294d46d9f3f55b"}, {"is_disabled": 0, "is_reserved": 0, "type": "electric_scooter", "lon": -76.98304133333333, "fusion_lon": 0.0, "lat": 38.868884666666666, "rental_uris": {"android": "https://dc.lft.to/lastmile_qr_scan", "ios": "https://dc.lft.to/lastmile_qr_scan"}, "fusion_lat": 0.0, "name": "27ef3f24e71d214ec9f22b713f7242c9", "bike_id": "27ef3f24e71d214ec9f22b713f7242c9"}, {"is_disabled": 0, "is_reserved": 0, "type": "electric_scooter", "lon": -76.99053866666667, "fusion_lon": 0.0, "lat": 38.858973166666665, "rental_uris": {"android": "https://dc.lft.to/lastmile_qr_scan", "ios": "https://dc.lft.to/lastmile_qr_scan"}, "fusion_lat": 0.0, "name": "9e18ce941c173402f30607f5e372f6af", "bike_id": "9e18ce941c173402f30607f5e372f6af"}, {"is_disabled": 0, "is_reserved": 0, "type": "electric_scooter", "lon": -77.00500066666666, "fusion_lon": 0.0, "lat": 38.896892666666666, "rental_uris": {"android": "https://dc.lft.to/lastmile_qr_scan", "ios": "https://dc.lft.to/lastmile_qr_scan"}, "fusion_lat": 0.0, "name": "969ac02dd3a68bfc179d5acd4ad18670", "bike_id": "969ac02dd3a68bfc179d5acd4ad18670"}, {"is_disabled": 0, "is_reserved": 0, "type": "electric_bike", "lon": -76.95465266666666, "fusion_lon": 0.0, "lat": 38.935679666666665, "rental_uris": {"android": "https://dc.lft.to/lastmile_qr_scan", "ios": "https://dc.lft.to/lastmile_qr_scan"}, "fusion_lat": 0.0, "name": "5a142fdc98147c0aa8acf28277409afe", "bike_id": "5a142fdc98147c0aa8acf28277409afe"}, {"is_disabled": 0, "is_reserved": 0, "type": "electric_scooter", "lon": -77.028019, "fusion_lon": 0.0, "lat": 38.89823483333333, "rental_uris": {"android": "https://dc.lft.to/lastmile_qr_scan", "ios": "https://dc.lft.to/lastmile_qr_scan"}, "fusion_lat": 0.0, "name": "484ac84bc88b43a865613967a06113cf", "bike_id": "484ac84bc88b43a865613967a06113cf"}, {"is_disabled": 0, "is_reserved": 0, "type": "electric_bike", "lon": -77.11220833333333, "fusion_lon": 0.0, "lat": 38.828736, "rental_uris": {"android": "https://dc.lft.to/lastmile_qr_scan", "ios": "https://dc.lft.to/lastmile_qr_scan"}, "fusion_lat": 0.0, "name": "a553ae8b66090bd40c15b1006afa15fa", "bike_id": "a553ae8b66090bd40c15b1006afa15fa"}, {"is_disabled": 0, "is_reserved": 0, "type": "electric_scooter", "lon": -77.0279345, "fusion_lon": 0.0, "lat": 38.897147833333335, "rental_uris": {"android": "https://dc.lft.to/lastmile_qr_scan", "ios": "https://dc.lft.to/lastmile_qr_scan"}, "fusion_lat": 0.0, "name": "69f727e0b689e8345e36ce12f7889ee7", "bike_id": "69f727e0b689e8345e36ce12f7889ee7"}, {"is_disabled": 0, "is_reserved": 0, "type": "electric_scooter", "lon": -77.039717, "fusion_lon": 0.0, "lat": 38.900681666666664, "rental_uris": {"android": "https://dc.lft.to/lastmile_qr_scan", "ios": "https://dc.lft.to/lastmile_qr_scan"}, "fusion_lat": 0.0, "name": "aacc0fb0ead05d69d34b7c025abf10bd", "bike_id": "aacc0fb0ead05d69d34b7c025abf10bd"}, {"is_disabled": 0, "is_reserved": 0, "type": "electric_scooter", "lon": -77.0433655, "fusion_lon": 0.0, "lat": 38.903309166666666, "rental_uris": {"android": "https://dc.lft.to/lastmile_qr_scan", "ios": "https://dc.lft.to/lastmile_qr_scan"}, "fusion_lat": 0.0, "name": "689da4f05404b2ad2dd0164abafde2f3", "bike_id": "689da4f05404b2ad2dd0164abafde2f3"}, {"is_disabled": 0, "is_reserved": 0, "type": "electric_scooter", "lon": -77.03195816666667, "fusion_lon": 0.0, "lat": 38.907627833333336, "rental_uris": {"android": "https://dc.lft.to/lastmile_qr_scan", "ios": "https://dc.lft.to/lastmile_qr_scan"}, "fusion_lat": 0.0, "name": "4de23ce7ffefeaf31022421914d6abb1", "bike_id": "4de23ce7ffefeaf31022421914d6abb1"}, {"is_disabled": 0, "is_reserved": 0, "type": "electric_scooter", "lon": -77.024341, "fusion_lon": 0.0, "lat": 38.920457999999996, "rental_uris": {"android": "https://dc.lft.to/lastmile_qr_scan", "ios": "https://dc.lft.to/lastmile_qr_scan"}, "fusion_lat": 0.0, "name": "f5c2dc2d22b039cb9bd01c93fd8539f6", "bike_id": "f5c2dc2d22b039cb9bd01c93fd8539f6"}, {"is_disabled": 0, "is_reserved": 0, "type": "electric_scooter", "lon": -77.0272255, "fusion_lon": 0.0, "lat": 38.901474666666665, "rental_uris": {"android": "https://dc.lft.to/lastmile_qr_scan", "ios": "https://dc.lft.to/lastmile_qr_scan"}, "fusion_lat": 0.0, "name": "36e88d9cb2b2dc1fa2b9077cfd6f883e", "bike_id": "36e88d9cb2b2dc1fa2b9077cfd6f883e"}, {"is_disabled": 0, "is_reserved": 0, "type": "electric_bike", "lon": -76.87497083333334, "fusion_lon": 0.0, "lat": 38.990888, "rental_uris": {"android": "https://dc.lft.to/lastmile_qr_scan", "ios": "https://dc.lft.to/lastmile_qr_scan"}, "fusion_lat": 0.0, "name": "997c8adc28911f0f006cdc7ed9c8468d", "bike_id": "997c8adc28911f0f006cdc7ed9c8468d"}, {"is_disabled": 0, "is_reserved": 0, "type": "electric_scooter", "lon": -77.02853183333333, "fusion_lon": 0.0, "lat": 38.901512333333336, "rental_uris": {"android": "https://dc.lft.to/lastmile_qr_scan", "ios": "https://dc.lft.to/lastmile_qr_scan"}, "fusion_lat": 0.0, "name": "67a151a6806d296bcf96fcdcb764dc3f", "bike_id": "67a151a6806d296bcf96fcdcb764dc3f"}, {"is_disabled": 0, "is_reserved": 0, "type": "electric_scooter", "lon": -77.02622866666667, "fusion_lon": 0.0, "lat": 38.9191805, "rental_uris": {"android": "https://dc.lft.to/lastmile_qr_scan", "ios": "https://dc.lft.to/lastmile_qr_scan"}, "fusion_lat": 0.0, "name": "092b17bae2906060915c41e92918f746", "bike_id": "092b17bae2906060915c41e92918f746"}, {"is_disabled": 0, "is_reserved": 0, "type": "electric_scooter", "lon": -76.93753016666666, "fusion_lon": 0.0, "lat": 38.890321, "rental_uris": {"android": "https://dc.lft.to/lastmile_qr_scan", "ios": "https://dc.lft.to/lastmile_qr_scan"}, "fusion_lat": 0.0, "name": "f233553890a8ff696b57ed4aa60b49da", "bike_id": "f233553890a8ff696b57ed4aa60b49da"}, {"is_disabled": 0, "is_reserved": 0, "type": "electric_scooter", "lon": -77.045934, "fusion_lon": 0.0, "lat": 38.89612433333333, "rental_uris": {"android": "https://dc.lft.to/lastmile_qr_scan", "ios": "https://dc.lft.to/lastmile_qr_scan"}, "fusion_lat": 0.0, "name": "20a6502060f7f655c2737d4feed9a1a5", "bike_id": "20a6502060f7f655c2737d4feed9a1a5"}, {"is_disabled": 0, "is_reserved": 0, "type": "electric_scooter", "lon": -77.03833366666667, "fusion_lon": 0.0, "lat": 38.90321133333333, "rental_uris": {"android": "https://dc.lft.to/lastmile_qr_scan", "ios": "https://dc.lft.to/lastmile_qr_scan"}, "fusion_lat": 0.0, "name": "8eb6cfdc923b5e10a4a7324587b50d84", "bike_id": "8eb6cfdc923b5e10a4a7324587b50d84"}, {"is_disabled": 0, "is_reserved": 0, "type": "electric_scooter", "lon": -77.00830783333333, "fusion_lon": 0.0, "lat": 38.91259816666667, "rental_uris": {"android": "https://dc.lft.to/lastmile_qr_scan", "ios": "https://dc.lft.to/lastmile_qr_scan"}, "fusion_lat": 0.0, "name": "454eab7b001e265faeda727b8705130e", "bike_id": "454eab7b001e265faeda727b8705130e"}, {"is_disabled": 0, "is_reserved": 0, "type": "electric_bike", "lon": -76.88904833333333, "fusion_lon": 0.0, "lat": 38.9259425, "rental_uris": {"android": "https://dc.lft.to/lastmile_qr_scan", "ios": "https://dc.lft.to/lastmile_qr_scan"}, "fusion_lat": 0.0, "name": "82c61f42a183c666d82fa95730ae1991", "bike_id": "82c61f42a183c666d82fa95730ae1991"}, {"is_disabled": 0, "is_reserved": 0, "type": "electric_scooter", "lon": -77.0208745, "fusion_lon": 0.0, "lat": 38.930185, "rental_uris": {"android": "https://dc.lft.to/lastmile_qr_scan", "ios": "https://dc.lft.to/lastmile_qr_scan"}, "fusion_lat": 0.0, "name": "6398adf9e68b0b25c00cab0651e9af8a", "bike_id": "6398adf9e68b0b25c00cab0651e9af8a"}, {"is_disabled": 0, "is_reserved": 0, "type": "electric_scooter", "lon": -77.051611, "fusion_lon": 0.0, "lat": 38.9058995, "rental_uris": {"android": "https://dc.lft.to/lastmile_qr_scan", "ios": "https://dc.lft.to/lastmile_qr_scan"}, "fusion_lat": 0.0, "name": "e8d4205b9edb1f45ce65d4221e9ea947", "bike_id": "e8d4205b9edb1f45ce65d4221e9ea947"}, {"is_disabled": 0, "is_reserved": 0, "type": "electric_bike", "lon": -76.95221566666666, "fusion_lon": 0.0, "lat": 38.892358333333334, "rental_uris": {"android": "https://dc.lft.to/lastmile_qr_scan", "ios": "https://dc.lft.to/lastmile_qr_scan"}, "fusion_lat": 0.0, "name": "b328d552bf8d9804c6b8798ec6db20c7", "bike_id": "b328d552bf8d9804c6b8798ec6db20c7"}, {"is_disabled": 0, "is_reserved": 0, "type": "electric_scooter", "lon": -77.0140095, "fusion_lon": 0.0, "lat": 38.928384333333334, "rental_uris": {"android": "https://dc.lft.to/lastmile_qr_scan", "ios": "https://dc.lft.to/lastmile_qr_scan"}, "fusion_lat": 0.0, "name": "ce835625a4b35cd7a62570810a95586f", "bike_id": "ce835625a4b35cd7a62570810a95586f"}, {"is_disabled": 0, "is_reserved": 0, "type": "electric_scooter", "lon": -77.00332066666667, "fusion_lon": 0.0, "lat": 38.89361616666667, "rental_uris": {"android": "https://dc.lft.to/lastmile_qr_scan", "ios": "https://dc.lft.to/lastmile_qr_scan"}, "fusion_lat": 0.0, "name": "0007f9b71515b6319ac2c93392342ae5", "bike_id": "0007f9b71515b6319ac2c93392342ae5"}, {"is_disabled": 0, "is_reserved": 0, "type": "electric_scooter", "lon": -77.05420616666666, "fusion_lon": 0.0, "lat": 38.899223666666664, "rental_uris": {"android": "https://dc.lft.to/lastmile_qr_scan", "ios": "https://dc.lft.to/lastmile_qr_scan"}, "fusion_lat": 0.0, "name": "1766f4552df3739672e41b2847d27017", "bike_id": "1766f4552df3739672e41b2847d27017"}, {"is_disabled": 0, "is_reserved": 0, "type": "electric_scooter", "lon": -76.9918365, "fusion_lon": 0.0, "lat": 38.889092833333336, "rental_uris": {"android": "https://dc.lft.to/lastmile_qr_scan", "ios": "https://dc.lft.to/lastmile_qr_scan"}, "fusion_lat": 0.0, "name": "87cbb5bb2915c2550637fe5e28a5c5db", "bike_id": "87cbb5bb2915c2550637fe5e28a5c5db"}, {"is_disabled": 0, "is_reserved": 0, "type": "electric_scooter", "lon": -77.076807, "fusion_lon": 0.0, "lat": 38.9216475, "rental_uris": {"android": "https://dc.lft.to/lastmile_qr_scan", "ios": "https://dc.lft.to/lastmile_qr_scan"}, "fusion_lat": 0.0, "name": "68bfd9ef3ec2956e1cc7d18fd5e98386", "bike_id": "68bfd9ef3ec2956e1cc7d18fd5e98386"}, {"is_disabled": 0, "is_reserved": 0, "type": "electric_scooter", "lon": -77.03933833333333, "fusion_lon": 0.0, "lat": 38.902771333333334, "rental_uris": {"android": "https://dc.lft.to/lastmile_qr_scan", "ios": "https://dc.lft.to/lastmile_qr_scan"}, "fusion_lat": 0.0, "name": "e57bf701f9dceffd2ad5bdea15d2284b", "bike_id": "e57bf701f9dceffd2ad5bdea15d2284b"}, {"is_disabled": 0, "is_reserved": 0, "type": "electric_scooter", "lon": -77.03840683333334, "fusion_lon": 0.0, "lat": 38.93110466666667, "rental_uris": {"android": "https://dc.lft.to/lastmile_qr_scan", "ios": "https://dc.lft.to/lastmile_qr_scan"}, "fusion_lat": 0.0, "name": "58222ec7a66c6b5a163feb6c8ba189a8", "bike_id": "58222ec7a66c6b5a163feb6c8ba189a8"}, {"is_disabled": 0, "is_reserved": 0, "type": "electric_scooter", "lon": -77.01230316666667, "fusion_lon": 0.0, "lat": 38.89617833333333, "rental_uris": {"android": "https://dc.lft.to/lastmile_qr_scan", "ios": "https://dc.lft.to/lastmile_qr_scan"}, "fusion_lat": 0.0, "name": "fd2717ca7346d78125aa5095d234f034", "bike_id": "fd2717ca7346d78125aa5095d234f034"}, {"is_disabled": 0, "is_reserved": 0, "type": "electric_scooter", "lon": -77.0109965, "fusion_lon": 0.0, "lat": 38.90557866666666, "rental_uris": {"android": "https://dc.lft.to/lastmile_qr_scan", "ios": "https://dc.lft.to/lastmile_qr_scan"}, "fusion_lat": 0.0, "name": "06e8e3e8fb880af5290de4935d80701d", "bike_id": "06e8e3e8fb880af5290de4935d80701d"}, {"is_disabled": 0, "is_reserved": 0, "type": "electric_bike", "lon": -76.9353605, "fusion_lon": 0.0, "lat": 38.955499333333336, "rental_uris": {"android": "https://dc.lft.to/lastmile_qr_scan", "ios": "https://dc.lft.to/lastmile_qr_scan"}, "fusion_lat": 0.0, "name": "5b21f7a496eddfea2224f23d0de7c5db", "bike_id": "5b21f7a496eddfea2224f23d0de7c5db"}, {"is_disabled": 0, "is_reserved": 0, "type": "electric_bike", "lon": -77.12257433333333, "fusion_lon": 0.0, "lat": 38.8877255, "rental_uris": {"android": "https://dc.lft.to/lastmile_qr_scan", "ios": "https://dc.lft.to/lastmile_qr_scan"}, "fusion_lat": 0.0, "name": "c077fce33151ee6372566cb1218026ae", "bike_id": "c077fce33151ee6372566cb1218026ae"}, {"is_disabled": 0, "is_reserved": 0, "type": "electric_bike", "lon": -77.07684416666666, "fusion_lon": 0.0, "lat": 38.8319535, "rental_uris": {"android": "https://dc.lft.to/lastmile_qr_scan", "ios": "https://dc.lft.to/lastmile_qr_scan"}, "fusion_lat": 0.0, "name": "02df48b4e3817feed68ce28d5881c226", "bike_id": "02df48b4e3817feed68ce28d5881c226"}, {"is_disabled": 0, "is_reserved": 0, "type": "electric_bike", "lon": -77.11223333333334, "fusion_lon": 0.0, "lat": 38.828723333333336, "rental_uris": {"android": "https://dc.lft.to/lastmile_qr_scan", "ios": "https://dc.lft.to/lastmile_qr_scan"}, "fusion_lat": 0.0, "name": "7640bfcd6e676a2756d1e0f4c1052f93", "bike_id": "7640bfcd6e676a2756d1e0f4c1052f93"}, {"is_disabled": 0, "is_reserved": 0, "type": "electric_scooter", "lon": -77.04732833333334, "fusion_lon": 0.0, "lat": 38.90251466666667, "rental_uris": {"android": "https://dc.lft.to/lastmile_qr_scan", "ios": "https://dc.lft.to/lastmile_qr_scan"}, "fusion_lat": 0.0, "name": "15d09525847d4e3daa33ed05b801e8c1", "bike_id": "15d09525847d4e3daa33ed05b801e8c1"}, {"is_disabled": 0, "is_reserved": 0, "type": "electric_scooter", "lon": -77.03657483333333, "fusion_lon": 0.0, "lat": 38.935619333333335, "rental_uris": {"android": "https://dc.lft.to/lastmile_qr_scan", "ios": "https://dc.lft.to/lastmile_qr_scan"}, "fusion_lat": 0.0, "name": "3184d2c99c7eb19a4342a12a192cdc7d", "bike_id": "3184d2c99c7eb19a4342a12a192cdc7d"}, {"is_disabled": 0, "is_reserved": 0, "type": "electric_scooter", "lon": -77.0318915, "fusion_lon": 0.0, "lat": 38.91629833333333, "rental_uris": {"android": "https://dc.lft.to/lastmile_qr_scan", "ios": "https://dc.lft.to/lastmile_qr_scan"}, "fusion_lat": 0.0, "name": "5931c4ab9c84ba9c22b19de95fdec926", "bike_id": "5931c4ab9c84ba9c22b19de95fdec926"}, {"is_disabled": 0, "is_reserved": 0, "type": "electric_scooter", "lon": -77.04860516666666, "fusion_lon": 0.0, "lat": 38.913355, "rental_uris": {"android": "https://dc.lft.to/lastmile_qr_scan", "ios": "https://dc.lft.to/lastmile_qr_scan"}, "fusion_lat": 0.0, "name": "3367894a360acc7c42dc7ac724c3916b", "bike_id": "3367894a360acc7c42dc7ac724c3916b"}, {"is_disabled": 0, "is_reserved": 0, "type": "electric_scooter", "lon": -77.0062185, "fusion_lon": 0.0, "lat": 38.87196633333333, "rental_uris": {"android": "https://dc.lft.to/lastmile_qr_scan", "ios": "https://dc.lft.to/lastmile_qr_scan"}, "fusion_lat": 0.0, "name": "b7c5eb04a84102c9a3fe7c52975609b2", "bike_id": "b7c5eb04a84102c9a3fe7c52975609b2"}, {"is_disabled": 0, "is_reserved": 0, "type": "electric_scooter", "lon": -77.04259483333334, "fusion_lon": 0.0, "lat": 38.91034166666667, "rental_uris": {"android": "https://dc.lft.to/lastmile_qr_scan", "ios": "https://dc.lft.to/lastmile_qr_scan"}, "fusion_lat": 0.0, "name": "2d2f4cc5d548c3bd106cd354d5a9f90d", "bike_id": "2d2f4cc5d548c3bd106cd354d5a9f90d"}, {"is_disabled": 0, "is_reserved": 0, "type": "electric_scooter", "lon": -77.05144283333334, "fusion_lon": 0.0, "lat": 38.90669, "rental_uris": {"android": "https://dc.lft.to/lastmile_qr_scan", "ios": "https://dc.lft.to/lastmile_qr_scan"}, "fusion_lat": 0.0, "name": "a73b73b4bfbc7aac1eef6fec13191e62", "bike_id": "a73b73b4bfbc7aac1eef6fec13191e62"}, {"is_disabled": 0, "is_reserved": 0, "type": "electric_scooter", "lon": -76.9845875, "fusion_lon": 0.0, "lat": 38.893636, "rental_uris": {"android": "https://dc.lft.to/lastmile_qr_scan", "ios": "https://dc.lft.to/lastmile_qr_scan"}, "fusion_lat": 0.0, "name": "64df1f719bab73d6b5c7426083e86ca0", "bike_id": "64df1f719bab73d6b5c7426083e86ca0"}, {"is_disabled": 0, "is_reserved": 0, "type": "electric_scooter", "lon": -77.03210333333334, "fusion_lon": 0.0, "lat": 38.924923, "rental_uris": {"android": "https://dc.lft.to/lastmile_qr_scan", "ios": "https://dc.lft.to/lastmile_qr_scan"}, "fusion_lat": 0.0, "name": "9b9d840bc2f2534f5ad7973a08ecfc13", "bike_id": "9b9d840bc2f2534f5ad7973a08ecfc13"}, {"is_disabled": 0, "is_reserved": 0, "type": "electric_scooter", "lon": -77.0231325, "fusion_lon": 0.0, "lat": 38.90920966666667, "rental_uris": {"android": "https://dc.lft.to/lastmile_qr_scan", "ios": "https://dc.lft.to/lastmile_qr_scan"}, "fusion_lat": 0.0, "name": "29c7bb2a9801c2333a771ecb724fc22d", "bike_id": "29c7bb2a9801c2333a771ecb724fc22d"}, {"is_disabled": 0, "is_reserved": 0, "type": "electric_scooter", "lon": -77.01202166666667, "fusion_lon": 0.0, "lat": 38.927418, "rental_uris": {"android": "https://dc.lft.to/lastmile_qr_scan", "ios": "https://dc.lft.to/lastmile_qr_scan"}, "fusion_lat": 0.0, "name": "8641d65225855e29ebf83a8d2358b548", "bike_id": "8641d65225855e29ebf83a8d2358b548"}, {"is_disabled": 0, "is_reserved": 0, "type": "electric_scooter", "lon": -77.0314425, "fusion_lon": 0.0, "lat": 38.91694016666667, "rental_uris": {"android": "https://dc.lft.to/lastmile_qr_scan", "ios": "https://dc.lft.to/lastmile_qr_scan"}, "fusion_lat": 0.0, "name": "8f07e9bbb8890b7674ccc1ce278bd502", "bike_id": "8f07e9bbb8890b7674ccc1ce278bd502"}, {"is_disabled": 0, "is_reserved": 0, "type": "electric_scooter", "lon": -77.03369516666666, "fusion_lon": 0.0, "lat": 38.902684666666666, "rental_uris": {"android": "https://dc.lft.to/lastmile_qr_scan", "ios": "https://dc.lft.to/lastmile_qr_scan"}, "fusion_lat": 0.0, "name": "8364458a95f1181d7dbdb3d5644a9ebe", "bike_id": "8364458a95f1181d7dbdb3d5644a9ebe"}, {"is_disabled": 0, "is_reserved": 0, "type": "electric_scooter", "lon": -76.9933635, "fusion_lon": 0.0, "lat": 38.83872683333333, "rental_uris": {"android": "https://dc.lft.to/lastmile_qr_scan", "ios": "https://dc.lft.to/lastmile_qr_scan"}, "fusion_lat": 0.0, "name": "4f9c1b59678ef00f5570eac7f9d10fd0", "bike_id": "4f9c1b59678ef00f5570eac7f9d10fd0"}, {"is_disabled": 0, "is_reserved": 0, "type": "electric_scooter", "lon": -77.03334516666666, "fusion_lon": 0.0, "lat": 38.92877766666667, "rental_uris": {"android": "https://dc.lft.to/lastmile_qr_scan", "ios": "https://dc.lft.to/lastmile_qr_scan"}, "fusion_lat": 0.0, "name": "bb40936c1de610fb3f9abbfd083417e1", "bike_id": "bb40936c1de610fb3f9abbfd083417e1"}, {"is_disabled": 0, "is_reserved": 0, "type": "electric_scooter", "lon": -76.98549133333333, "fusion_lon": 0.0, "lat": 38.90424133333333, "rental_uris": {"android": "https://dc.lft.to/lastmile_qr_scan", "ios": "https://dc.lft.to/lastmile_qr_scan"}, "fusion_lat": 0.0, "name": "0fad3242585f0a371e4be8f93c6a8b30", "bike_id": "0fad3242585f0a371e4be8f93c6a8b30"}, {"is_disabled": 0, "is_reserved": 0, "type": "electric_bike", "lon": -76.95197316666666, "fusion_lon": 0.0, "lat": 38.906869666666665, "rental_uris": {"android": "https://dc.lft.to/lastmile_qr_scan", "ios": "https://dc.lft.to/lastmile_qr_scan"}, "fusion_lat": 0.0, "name": "5f6d48cbedd090747c17f4eec836b6f2", "bike_id": "5f6d48cbedd090747c17f4eec836b6f2"}, {"is_disabled": 0, "is_reserved": 0, "type": "electric_scooter", "lon": -76.935552, "fusion_lon": 0.0, "lat": 38.90158983333333, "rental_uris": {"android": "https://dc.lft.to/lastmile_qr_scan", "ios": "https://dc.lft.to/lastmile_qr_scan"}, "fusion_lat": 0.0, "name": "806d85aff67f7b9149638c2576f682a8", "bike_id": "806d85aff67f7b9149638c2576f682a8"}, {"is_disabled": 0, "is_reserved": 0, "type": "electric_scooter", "lon": -77.025353, "fusion_lon": 0.0, "lat": 38.948428666666665, "rental_uris": {"android": "https://dc.lft.to/lastmile_qr_scan", "ios": "https://dc.lft.to/lastmile_qr_scan"}, "fusion_lat": 0.0, "name": "0e113c567ccd432af67994ab81957c00", "bike_id": "0e113c567ccd432af67994ab81957c00"}, {"is_disabled": 0, "is_reserved": 0, "type": "electric_scooter", "lon": -77.03958433333334, "fusion_lon": 0.0, "lat": 38.919654, "rental_uris": {"android": "https://dc.lft.to/lastmile_qr_scan", "ios": "https://dc.lft.to/lastmile_qr_scan"}, "fusion_lat": 0.0, "name": "862b31fb79885790621f8350e566207a", "bike_id": "862b31fb79885790621f8350e566207a"}, {"is_disabled": 0, "is_reserved": 0, "type": "electric_scooter", "lon": -77.03788233333333, "fusion_lon": 0.0, "lat": 38.9302425, "rental_uris": {"android": "https://dc.lft.to/lastmile_qr_scan", "ios": "https://dc.lft.to/lastmile_qr_scan"}, "fusion_lat": 0.0, "name": "877add19601f02783c7c3f716ccf56d1", "bike_id": "877add19601f02783c7c3f716ccf56d1"}, {"is_disabled": 0, "is_reserved": 0, "type": "electric_scooter", "lon": -77.02590666666667, "fusion_lon": 0.0, "lat": 38.94217733333333, "rental_uris": {"android": "https://dc.lft.to/lastmile_qr_scan", "ios": "https://dc.lft.to/lastmile_qr_scan"}, "fusion_lat": 0.0, "name": "4a8d899a2b43d9145e7195f3cfe62347", "bike_id": "4a8d899a2b43d9145e7195f3cfe62347"}, {"is_disabled": 0, "is_reserved": 0, "type": "electric_scooter", "lon": -77.03258666666666, "fusion_lon": 0.0, "lat": 38.909597, "rental_uris": {"android": "https://dc.lft.to/lastmile_qr_scan", "ios": "https://dc.lft.to/lastmile_qr_scan"}, "fusion_lat": 0.0, "name": "aa8d6fd2ebf55191c65e45f392d6ffec", "bike_id": "aa8d6fd2ebf55191c65e45f392d6ffec"}, {"is_disabled": 0, "is_reserved": 0, "type": "electric_scooter", "lon": -77.04559566666667, "fusion_lon": 0.0, "lat": 38.917765833333334, "rental_uris": {"android": "https://dc.lft.to/lastmile_qr_scan", "ios": "https://dc.lft.to/lastmile_qr_scan"}, "fusion_lat": 0.0, "name": "15f9af8fc1bb86e937640e7da2182da9", "bike_id": "15f9af8fc1bb86e937640e7da2182da9"}, {"is_disabled": 0, "is_reserved": 0, "type": "electric_scooter", "lon": -77.057862, "fusion_lon": 0.0, "lat": 38.9051115, "rental_uris": {"android": "https://dc.lft.to/lastmile_qr_scan", "ios": "https://dc.lft.to/lastmile_qr_scan"}, "fusion_lat": 0.0, "name": "bb7766766017c068a9be8733af31c762", "bike_id": "bb7766766017c068a9be8733af31c762"}, {"is_disabled": 0, "is_reserved": 0, "type": "electric_scooter", "lon": -77.02590366666666, "fusion_lon": 0.0, "lat": 38.92038733333333, "rental_uris": {"android": "https://dc.lft.to/lastmile_qr_scan", "ios": "https://dc.lft.to/lastmile_qr_scan"}, "fusion_lat": 0.0, "name": "28e57ff3aa513f041a0dbd026c5a8cb2", "bike_id": "28e57ff3aa513f041a0dbd026c5a8cb2"}, {"is_disabled": 0, "is_reserved": 0, "type": "electric_scooter", "lon": -77.01760066666667, "fusion_lon": 0.0, "lat": 38.885900166666666, "rental_uris": {"android": "https://dc.lft.to/lastmile_qr_scan", "ios": "https://dc.lft.to/lastmile_qr_scan"}, "fusion_lat": 0.0, "name": "e2cb9b899de5f83aa401bc7c1c70aaeb", "bike_id": "e2cb9b899de5f83aa401bc7c1c70aaeb"}, {"is_disabled": 0, "is_reserved": 0, "type": "electric_bike", "lon": -77.049841, "fusion_lon": 0.0, "lat": 38.9924455, "rental_uris": {"android": "https://dc.lft.to/lastmile_qr_scan", "ios": "https://dc.lft.to/lastmile_qr_scan"}, "fusion_lat": 0.0, "name": "e8cdd86a20828eebe8f6b1f0d3ab92ed", "bike_id": "e8cdd86a20828eebe8f6b1f0d3ab92ed"}, {"is_disabled": 0, "is_reserved": 0, "type": "electric_bike", "lon": -76.98097033333333, "fusion_lon": 0.0, "lat": 38.8571935, "rental_uris": {"android": "https://dc.lft.to/lastmile_qr_scan", "ios": "https://dc.lft.to/lastmile_qr_scan"}, "fusion_lat": 0.0, "name": "1a14f52ff81882d6ef8dce1c490c8c30", "bike_id": "1a14f52ff81882d6ef8dce1c490c8c30"}, {"is_disabled": 0, "is_reserved": 0, "type": "electric_scooter", "lon": -77.04686283333334, "fusion_lon": 0.0, "lat": 38.915859, "rental_uris": {"android": "https://dc.lft.to/lastmile_qr_scan", "ios": "https://dc.lft.to/lastmile_qr_scan"}, "fusion_lat": 0.0, "name": "5a65f3405bd527b02d02056d946713e3", "bike_id": "5a65f3405bd527b02d02056d946713e3"}, {"is_disabled": 0, "is_reserved": 0, "type": "electric_scooter", "lon": -77.0255485, "fusion_lon": 0.0, "lat": 38.91636233333333, "rental_uris": {"android": "https://dc.lft.to/lastmile_qr_scan", "ios": "https://dc.lft.to/lastmile_qr_scan"}, "fusion_lat": 0.0, "name": "642d670688eefd7797631025da80b119", "bike_id": "642d670688eefd7797631025da80b119"}, {"is_disabled": 0, "is_reserved": 0, "type": "electric_bike", "lon": -77.19538116666666, "fusion_lon": 0.0, "lat": 39.1153225, "rental_uris": {"android": "https://dc.lft.to/lastmile_qr_scan", "ios": "https://dc.lft.to/lastmile_qr_scan"}, "fusion_lat": 0.0, "name": "b3dddf50aba385b2ef9646abb7d72638", "bike_id": "b3dddf50aba385b2ef9646abb7d72638"}, {"is_disabled": 0, "is_reserved": 0, "type": "electric_scooter", "lon": -77.02352166666667, "fusion_lon": 0.0, "lat": 38.94290783333334, "rental_uris": {"android": "https://dc.lft.to/lastmile_qr_scan", "ios": "https://dc.lft.to/lastmile_qr_scan"}, "fusion_lat": 0.0, "name": "966d09582f3f94b6ed3b35e2a827d2dc", "bike_id": "966d09582f3f94b6ed3b35e2a827d2dc"}, {"is_disabled": 0, "is_reserved": 0, "type": "electric_scooter", "lon": -77.05910983333334, "fusion_lon": 0.0, "lat": 38.90544116666667, "rental_uris": {"android": "https://dc.lft.to/lastmile_qr_scan", "ios": "https://dc.lft.to/lastmile_qr_scan"}, "fusion_lat": 0.0, "name": "eeb73060772a966cd7bd0422acc278c8", "bike_id": "eeb73060772a966cd7bd0422acc278c8"}, {"is_disabled": 0, "is_reserved": 0, "type": "electric_scooter", "lon": -77.01235516666667, "fusion_lon": 0.0, "lat": 38.8747545, "rental_uris": {"android": "https://dc.lft.to/lastmile_qr_scan", "ios": "https://dc.lft.to/lastmile_qr_scan"}, "fusion_lat": 0.0, "name": "10af97d169feceab5172373f1d15da72", "bike_id": "10af97d169feceab5172373f1d15da72"}, {"is_disabled": 0, "is_reserved": 0, "type": "electric_scooter", "lon": -77.00895516666667, "fusion_lon": 0.0, "lat": 38.91288933333333, "rental_uris": {"android": "https://dc.lft.to/lastmile_qr_scan", "ios": "https://dc.lft.to/lastmile_qr_scan"}, "fusion_lat": 0.0, "name": "f6f51afd8e29f20d6545328fe49c8f46", "bike_id": "f6f51afd8e29f20d6545328fe49c8f46"}, {"is_disabled": 0, "is_reserved": 0, "type": "electric_bike", "lon": -77.16233683333333, "fusion_lon": 0.0, "lat": 38.886571833333335, "rental_uris": {"android": "https://dc.lft.to/lastmile_qr_scan", "ios": "https://dc.lft.to/lastmile_qr_scan"}, "fusion_lat": 0.0, "name": "f51494f796e93a16cdcf1cce6c535eda", "bike_id": "f51494f796e93a16cdcf1cce6c535eda"}, {"is_disabled": 0, "is_reserved": 0, "type": "electric_scooter", "lon": -77.00385233333333, "fusion_lon": 0.0, "lat": 38.8763935, "rental_uris": {"android": "https://dc.lft.to/lastmile_qr_scan", "ios": "https://dc.lft.to/lastmile_qr_scan"}, "fusion_lat": 0.0, "name": "07994411e00ca5cf1390066fc2ebb7c2", "bike_id": "07994411e00ca5cf1390066fc2ebb7c2"}, {"is_disabled": 0, "is_reserved": 0, "type": "electric_scooter", "lon": -76.9862145, "fusion_lon": 0.0, "lat": 38.854595333333336, "rental_uris": {"android": "https://dc.lft.to/lastmile_qr_scan", "ios": "https://dc.lft.to/lastmile_qr_scan"}, "fusion_lat": 0.0, "name": "264268b158fef7b7f231621dbe55d7e8", "bike_id": "264268b158fef7b7f231621dbe55d7e8"}, {"is_disabled": 0, "is_reserved": 0, "type": "electric_scooter", "lon": -77.0074495, "fusion_lon": 0.0, "lat": 38.90054633333333, "rental_uris": {"android": "https://dc.lft.to/lastmile_qr_scan", "ios": "https://dc.lft.to/lastmile_qr_scan"}, "fusion_lat": 0.0, "name": "eeb8ceb8790c4bfa4b7c453ad0206f92", "bike_id": "eeb8ceb8790c4bfa4b7c453ad0206f92"}, {"is_disabled": 0, "is_reserved": 0, "type": "electric_scooter", "lon": -77.06358516666667, "fusion_lon": 0.0, "lat": 38.9445275, "rental_uris": {"android": "https://dc.lft.to/lastmile_qr_scan", "ios": "https://dc.lft.to/lastmile_qr_scan"}, "fusion_lat": 0.0, "name": "848db44cfb7af47bccea4bd59a13476f", "bike_id": "848db44cfb7af47bccea4bd59a13476f"}, {"is_disabled": 0, "is_reserved": 0, "type": "electric_scooter", "lon": -77.0246335, "fusion_lon": 0.0, "lat": 38.93765033333333, "rental_uris": {"android": "https://dc.lft.to/lastmile_qr_scan", "ios": "https://dc.lft.to/lastmile_qr_scan"}, "fusion_lat": 0.0, "name": "379fd07c87d6b147f923e119631d0c32", "bike_id": "379fd07c87d6b147f923e119631d0c32"}, {"is_disabled": 0, "is_reserved": 0, "type": "electric_scooter", "lon": -77.041837, "fusion_lon": 0.0, "lat": 38.90803066666667, "rental_uris": {"android": "https://dc.lft.to/lastmile_qr_scan", "ios": "https://dc.lft.to/lastmile_qr_scan"}, "fusion_lat": 0.0, "name": "969a51c2a6af7849a96ac7cb8512e099", "bike_id": "969a51c2a6af7849a96ac7cb8512e099"}, {"is_disabled": 0, "is_reserved": 0, "type": "electric_scooter", "lon": -77.04614016666666, "fusion_lon": 0.0, "lat": 38.89974633333333, "rental_uris": {"android": "https://dc.lft.to/lastmile_qr_scan", "ios": "https://dc.lft.to/lastmile_qr_scan"}, "fusion_lat": 0.0, "name": "1a6c5a56c3983e4854be5bb7b1d819be", "bike_id": "1a6c5a56c3983e4854be5bb7b1d819be"}, {"is_disabled": 0, "is_reserved": 0, "type": "electric_scooter", "lon": -77.02798016666667, "fusion_lon": 0.0, "lat": 38.90394933333334, "rental_uris": {"android": "https://dc.lft.to/lastmile_qr_scan", "ios": "https://dc.lft.to/lastmile_qr_scan"}, "fusion_lat": 0.0, "name": "f54afd35d1d6e101ef8adfdc637de855", "bike_id": "f54afd35d1d6e101ef8adfdc637de855"}, {"is_disabled": 0, "is_reserved": 0, "type": "electric_scooter", "lon": -77.02702966666666, "fusion_lon": 0.0, "lat": 38.919586, "rental_uris": {"android": "https://dc.lft.to/lastmile_qr_scan", "ios": "https://dc.lft.to/lastmile_qr_scan"}, "fusion_lat": 0.0, "name": "63b39f7966c3f39c8979cbbbf8adb4d4", "bike_id": "63b39f7966c3f39c8979cbbbf8adb4d4"}, {"is_disabled": 0, "is_reserved": 0, "type": "electric_scooter", "lon": -76.94121616666666, "fusion_lon": 0.0, "lat": 38.9079295, "rental_uris": {"android": "https://dc.lft.to/lastmile_qr_scan", "ios": "https://dc.lft.to/lastmile_qr_scan"}, "fusion_lat": 0.0, "name": "a90c5eaee4738983e897ea2da6d7b08b", "bike_id": "a90c5eaee4738983e897ea2da6d7b08b"}, {"is_disabled": 0, "is_reserved": 0, "type": "electric_scooter", "lon": -77.0084535, "fusion_lon": 0.0, "lat": 38.88501316666667, "rental_uris": {"android": "https://dc.lft.to/lastmile_qr_scan", "ios": "https://dc.lft.to/lastmile_qr_scan"}, "fusion_lat": 0.0, "name": "b8698ae5b5615134934d75d82721c6fb", "bike_id": "b8698ae5b5615134934d75d82721c6fb"}, {"is_disabled": 0, "is_reserved": 0, "type": "electric_scooter", "lon": -77.008033, "fusion_lon": 0.0, "lat": 38.87844833333333, "rental_uris": {"android": "https://dc.lft.to/lastmile_qr_scan", "ios": "https://dc.lft.to/lastmile_qr_scan"}, "fusion_lat": 0.0, "name": "08739c29059c728a55a58752b79412fe", "bike_id": "08739c29059c728a55a58752b79412fe"}, {"is_disabled": 0, "is_reserved": 0, "type": "electric_bike", "lon": -76.96092766666666, "fusion_lon": 0.0, "lat": 38.91858516666667, "rental_uris": {"android": "https://dc.lft.to/lastmile_qr_scan", "ios": "https://dc.lft.to/lastmile_qr_scan"}, "fusion_lat": 0.0, "name": "12f87d0718fbed9dda8dd4c39a7563f3", "bike_id": "12f87d0718fbed9dda8dd4c39a7563f3"}, {"is_disabled": 0, "is_reserved": 0, "type": "electric_scooter", "lon": -76.9887975, "fusion_lon": 0.0, "lat": 38.8667335, "rental_uris": {"android": "https://dc.lft.to/lastmile_qr_scan", "ios": "https://dc.lft.to/lastmile_qr_scan"}, "fusion_lat": 0.0, "name": "43f1386d65884c627c3fd53825732143", "bike_id": "43f1386d65884c627c3fd53825732143"}, {"is_disabled": 0, "is_reserved": 0, "type": "electric_bike", "lon": -77.00203766666667, "fusion_lon": 0.0, "lat": 38.819412666666665, "rental_uris": {"android": "https://dc.lft.to/lastmile_qr_scan", "ios": "https://dc.lft.to/lastmile_qr_scan"}, "fusion_lat": 0.0, "name": "04a309e163770484e1bd5beec8f3ac73", "bike_id": "04a309e163770484e1bd5beec8f3ac73"}, {"is_disabled": 0, "is_reserved": 0, "type": "electric_scooter", "lon": -77.02402883333333, "fusion_lon": 0.0, "lat": 38.931037, "rental_uris": {"android": "https://dc.lft.to/lastmile_qr_scan", "ios": "https://dc.lft.to/lastmile_qr_scan"}, "fusion_lat": 0.0, "name": "31df5abd5f40bc4b1143ca58c9059fd3", "bike_id": "31df5abd5f40bc4b1143ca58c9059fd3"}, {"is_disabled": 0, "is_reserved": 0, "type": "electric_scooter", "lon": -77.0105665, "fusion_lon": 0.0, "lat": 38.866646833333334, "rental_uris": {"android": "https://dc.lft.to/lastmile_qr_scan", "ios": "https://dc.lft.to/lastmile_qr_scan"}, "fusion_lat": 0.0, "name": "ff7b3456effa65de910f45888848fe92", "bike_id": "ff7b3456effa65de910f45888848fe92"}, {"is_disabled": 0, "is_reserved": 0, "type": "electric_scooter", "lon": -77.052236, "fusion_lon": 0.0, "lat": 38.89821033333333, "rental_uris": {"android": "https://dc.lft.to/lastmile_qr_scan", "ios": "https://dc.lft.to/lastmile_qr_scan"}, "fusion_lat": 0.0, "name": "c374255e93936f0e1e1b5445754a9a29", "bike_id": "c374255e93936f0e1e1b5445754a9a29"}, {"is_disabled": 0, "is_reserved": 0, "type": "electric_bike", "lon": -77.0637875, "fusion_lon": 0.0, "lat": 39.01732966666667, "rental_uris": {"android": "https://dc.lft.to/lastmile_qr_scan", "ios": "https://dc.lft.to/lastmile_qr_scan"}, "fusion_lat": 0.0, "name": "38f36379a2f28441c0b7d09d74c6f141", "bike_id": "38f36379a2f28441c0b7d09d74c6f141"}, {"is_disabled": 0, "is_reserved": 0, "type": "electric_scooter", "lon": -77.02779466666667, "fusion_lon": 0.0, "lat": 38.892233166666664, "rental_uris": {"android": "https://dc.lft.to/lastmile_qr_scan", "ios": "https://dc.lft.to/lastmile_qr_scan"}, "fusion_lat": 0.0, "name": "aca296b6507356cec536f017f4312ced", "bike_id": "aca296b6507356cec536f017f4312ced"}, {"is_disabled": 0, "is_reserved": 0, "type": "electric_bike", "lon": -76.92765533333333, "fusion_lon": 0.0, "lat": 38.9603385, "rental_uris": {"android": "https://dc.lft.to/lastmile_qr_scan", "ios": "https://dc.lft.to/lastmile_qr_scan"}, "fusion_lat": 0.0, "name": "a82c6791de9044a0eb3787c8db0e95ad", "bike_id": "a82c6791de9044a0eb3787c8db0e95ad"}, {"is_disabled": 0, "is_reserved": 0, "type": "electric_scooter", "lon": -77.0266685, "fusion_lon": 0.0, "lat": 38.912646, "rental_uris": {"android": "https://dc.lft.to/lastmile_qr_scan", "ios": "https://dc.lft.to/lastmile_qr_scan"}, "fusion_lat": 0.0, "name": "51940368c11cfa57cb83c8e41c449d8b", "bike_id": "51940368c11cfa57cb83c8e41c449d8b"}, {"is_disabled": 0, "is_reserved": 0, "type": "electric_scooter", "lon": -77.04072083333334, "fusion_lon": 0.0, "lat": 38.896171833333334, "rental_uris": {"android": "https://dc.lft.to/lastmile_qr_scan", "ios": "https://dc.lft.to/lastmile_qr_scan"}, "fusion_lat": 0.0, "name": "4d298b002a48ca5bc40586c6122e9e37", "bike_id": "4d298b002a48ca5bc40586c6122e9e37"}, {"is_disabled": 0, "is_reserved": 0, "type": "electric_scooter", "lon": -77.02169316666667, "fusion_lon": 0.0, "lat": 38.92615333333333, "rental_uris": {"android": "https://dc.lft.to/lastmile_qr_scan", "ios": "https://dc.lft.to/lastmile_qr_scan"}, "fusion_lat": 0.0, "name": "2d51d2e93909d781c1d0343fa973408f", "bike_id": "2d51d2e93909d781c1d0343fa973408f"}, {"is_disabled": 0, "is_reserved": 0, "type": "electric_scooter", "lon": -77.00318366666667, "fusion_lon": 0.0, "lat": 38.8402775, "rental_uris": {"android": "https://dc.lft.to/lastmile_qr_scan", "ios": "https://dc.lft.to/lastmile_qr_scan"}, "fusion_lat": 0.0, "name": "4f61fbba18bad64840a10ef222af178e", "bike_id": "4f61fbba18bad64840a10ef222af178e"}, {"is_disabled": 0, "is_reserved": 0, "type": "electric_scooter", "lon": -77.05414766666667, "fusion_lon": 0.0, "lat": 38.950454, "rental_uris": {"android": "https://dc.lft.to/lastmile_qr_scan", "ios": "https://dc.lft.to/lastmile_qr_scan"}, "fusion_lat": 0.0, "name": "1afe148ac224d832b884d4000d60c47b", "bike_id": "1afe148ac224d832b884d4000d60c47b"}, {"is_disabled": 0, "is_reserved": 0, "type": "electric_scooter", "lon": -77.04099583333333, "fusion_lon": 0.0, "lat": 38.900222666666664, "rental_uris": {"android": "https://dc.lft.to/lastmile_qr_scan", "ios": "https://dc.lft.to/lastmile_qr_scan"}, "fusion_lat": 0.0, "name": "c09867603f2bb433676fc135ee9a33d8", "bike_id": "c09867603f2bb433676fc135ee9a33d8"}, {"is_disabled": 0, "is_reserved": 0, "type": "electric_scooter", "lon": -76.9489865, "fusion_lon": 0.0, "lat": 38.89523416666667, "rental_uris": {"android": "https://dc.lft.to/lastmile_qr_scan", "ios": "https://dc.lft.to/lastmile_qr_scan"}, "fusion_lat": 0.0, "name": "a6f4922c87663dcecdc80baea4cb1144", "bike_id": "a6f4922c87663dcecdc80baea4cb1144"}, {"is_disabled": 0, "is_reserved": 0, "type": "electric_scooter", "lon": -77.04391983333333, "fusion_lon": 0.0, "lat": 38.90578433333334, "rental_uris": {"android": "https://dc.lft.to/lastmile_qr_scan", "ios": "https://dc.lft.to/lastmile_qr_scan"}, "fusion_lat": 0.0, "name": "b9ed78a82544aa9d158a3529d1de163c", "bike_id": "b9ed78a82544aa9d158a3529d1de163c"}, {"is_disabled": 0, "is_reserved": 0, "type": "electric_scooter", "lon": -76.97384683333334, "fusion_lon": 0.0, "lat": 38.88379783333333, "rental_uris": {"android": "https://dc.lft.to/lastmile_qr_scan", "ios": "https://dc.lft.to/lastmile_qr_scan"}, "fusion_lat": 0.0, "name": "250992da64dd0e01c82666bbc2b60f35", "bike_id": "250992da64dd0e01c82666bbc2b60f35"}, {"is_disabled": 0, "is_reserved": 0, "type": "electric_scooter", "lon": -76.94782366666666, "fusion_lon": 0.0, "lat": 38.884655, "rental_uris": {"android": "https://dc.lft.to/lastmile_qr_scan", "ios": "https://dc.lft.to/lastmile_qr_scan"}, "fusion_lat": 0.0, "name": "1f952a3521aa568e4f5c41449025a16a", "bike_id": "1f952a3521aa568e4f5c41449025a16a"}, {"is_disabled": 0, "is_reserved": 0, "type": "electric_bike", "lon": -77.02869, "fusion_lon": 0.0, "lat": 38.998588833333336, "rental_uris": {"android": "https://dc.lft.to/lastmile_qr_scan", "ios": "https://dc.lft.to/lastmile_qr_scan"}, "fusion_lat": 0.0, "name": "5d2c52f84c6f4c77ff33d31ded8eb951", "bike_id": "5d2c52f84c6f4c77ff33d31ded8eb951"}, {"is_disabled": 0, "is_reserved": 0, "type": "electric_scooter", "lon": -77.0416475, "fusion_lon": 0.0, "lat": 38.91314666666667, "rental_uris": {"android": "https://dc.lft.to/lastmile_qr_scan", "ios": "https://dc.lft.to/lastmile_qr_scan"}, "fusion_lat": 0.0, "name": "431a0eb54926caea80e5d7d974d04171", "bike_id": "431a0eb54926caea80e5d7d974d04171"}, {"is_disabled": 0, "is_reserved": 0, "type": "electric_scooter", "lon": -76.97331983333333, "fusion_lon": 0.0, "lat": 38.86510166666667, "rental_uris": {"android": "https://dc.lft.to/lastmile_qr_scan", "ios": "https://dc.lft.to/lastmile_qr_scan"}, "fusion_lat": 0.0, "name": "241db004b18d4fc86dae09bf434fb1ea", "bike_id": "241db004b18d4fc86dae09bf434fb1ea"}, {"is_disabled": 0, "is_reserved": 0, "type": "electric_scooter", "lon": -77.0677955, "fusion_lon": 0.0, "lat": 38.949778, "rental_uris": {"android": "https://dc.lft.to/lastmile_qr_scan", "ios": "https://dc.lft.to/lastmile_qr_scan"}, "fusion_lat": 0.0, "name": "403a3f82de8fd1d38689dfaab231a035", "bike_id": "403a3f82de8fd1d38689dfaab231a035"}, {"is_disabled": 0, "is_reserved": 0, "type": "electric_scooter", "lon": -77.02693183333334, "fusion_lon": 0.0, "lat": 38.908697, "rental_uris": {"android": "https://dc.lft.to/lastmile_qr_scan", "ios": "https://dc.lft.to/lastmile_qr_scan"}, "fusion_lat": 0.0, "name": "2124653372f4dd152af4e4d8948597de", "bike_id": "2124653372f4dd152af4e4d8948597de"}, {"is_disabled": 0, "is_reserved": 0, "type": "electric_bike", "lon": -76.97220433333334, "fusion_lon": 0.0, "lat": 38.84483316666667, "rental_uris": {"android": "https://dc.lft.to/lastmile_qr_scan", "ios": "https://dc.lft.to/lastmile_qr_scan"}, "fusion_lat": 0.0, "name": "f10f08b48afd03bc9c9d9b3c5f154c56", "bike_id": "f10f08b48afd03bc9c9d9b3c5f154c56"}, {"is_disabled": 0, "is_reserved": 0, "type": "electric_scooter", "lon": -77.05225683333333, "fusion_lon": 0.0, "lat": 38.924574166666666, "rental_uris": {"android": "https://dc.lft.to/lastmile_qr_scan", "ios": "https://dc.lft.to/lastmile_qr_scan"}, "fusion_lat": 0.0, "name": "5c5489c3a927db396b658a1a284f58ab", "bike_id": "5c5489c3a927db396b658a1a284f58ab"}, {"is_disabled": 0, "is_reserved": 0, "type": "electric_scooter", "lon": -77.04731066666666, "fusion_lon": 0.0, "lat": 38.89841416666667, "rental_uris": {"android": "https://dc.lft.to/lastmile_qr_scan", "ios": "https://dc.lft.to/lastmile_qr_scan"}, "fusion_lat": 0.0, "name": "472eb618b077593421247ba1a426c51a", "bike_id": "472eb618b077593421247ba1a426c51a"}, {"is_disabled": 0, "is_reserved": 0, "type": "electric_bike", "lon": -77.04034233333333, "fusion_lon": 0.0, "lat": 38.90129133333333, "rental_uris": {"android": "https://dc.lft.to/lastmile_qr_scan", "ios": "https://dc.lft.to/lastmile_qr_scan"}, "fusion_lat": 0.0, "name": "fb115043cc2972f1d7481fb0b62d359f", "bike_id": "fb115043cc2972f1d7481fb0b62d359f"}, {"is_disabled": 0, "is_reserved": 0, "type": "electric_scooter", "lon": -77.05829616666666, "fusion_lon": 0.0, "lat": 38.9353715, "rental_uris": {"android": "https://dc.lft.to/lastmile_qr_scan", "ios": "https://dc.lft.to/lastmile_qr_scan"}, "fusion_lat": 0.0, "name": "f794ab11b0fa77c560dde6a7093fc72d", "bike_id": "f794ab11b0fa77c560dde6a7093fc72d"}, {"is_disabled": 0, "is_reserved": 0, "type": "electric_scooter", "lon": -77.0215525, "fusion_lon": 0.0, "lat": 38.9260235, "rental_uris": {"android": "https://dc.lft.to/lastmile_qr_scan", "ios": "https://dc.lft.to/lastmile_qr_scan"}, "fusion_lat": 0.0, "name": "5e950a1822bfff181cf7686581358536", "bike_id": "5e950a1822bfff181cf7686581358536"}, {"is_disabled": 0, "is_reserved": 0, "type": "electric_scooter", "lon": -77.05005133333333, "fusion_lon": 0.0, "lat": 38.897778833333334, "rental_uris": {"android": "https://dc.lft.to/lastmile_qr_scan", "ios": "https://dc.lft.to/lastmile_qr_scan"}, "fusion_lat": 0.0, "name": "628ad6c50b51252c2570d596b12e9b0f", "bike_id": "628ad6c50b51252c2570d596b12e9b0f"}, {"is_disabled": 0, "is_reserved": 0, "type": "electric_scooter", "lon": -77.03354666666667, "fusion_lon": 0.0, "lat": 38.90130033333333, "rental_uris": {"android": "https://dc.lft.to/lastmile_qr_scan", "ios": "https://dc.lft.to/lastmile_qr_scan"}, "fusion_lat": 0.0, "name": "ad8e38f4197bf0c63702e81bb858c590", "bike_id": "ad8e38f4197bf0c63702e81bb858c590"}, {"is_disabled": 0, "is_reserved": 0, "type": "electric_scooter", "lon": -76.99616133333333, "fusion_lon": 0.0, "lat": 38.9002775, "rental_uris": {"android": "https://dc.lft.to/lastmile_qr_scan", "ios": "https://dc.lft.to/lastmile_qr_scan"}, "fusion_lat": 0.0, "name": "da6b174c739760f561196dafeb5a0937", "bike_id": "da6b174c739760f561196dafeb5a0937"}, {"is_disabled": 0, "is_reserved": 0, "type": "electric_scooter", "lon": -77.0358785, "fusion_lon": 0.0, "lat": 38.90763033333333, "rental_uris": {"android": "https://dc.lft.to/lastmile_qr_scan", "ios": "https://dc.lft.to/lastmile_qr_scan"}, "fusion_lat": 0.0, "name": "27779fb2f5817aa37bea3ac3476d70fd", "bike_id": "27779fb2f5817aa37bea3ac3476d70fd"}, {"is_disabled": 0, "is_reserved": 0, "type": "electric_scooter", "lon": -76.99002, "fusion_lon": 0.0, "lat": 38.88280566666667, "rental_uris": {"android": "https://dc.lft.to/lastmile_qr_scan", "ios": "https://dc.lft.to/lastmile_qr_scan"}, "fusion_lat": 0.0, "name": "dc28f64fc05eafff008af675e11d2b2f", "bike_id": "dc28f64fc05eafff008af675e11d2b2f"}, {"is_disabled": 0, "is_reserved": 0, "type": "electric_scooter", "lon": -76.988962, "fusion_lon": 0.0, "lat": 38.86675416666667, "rental_uris": {"android": "https://dc.lft.to/lastmile_qr_scan", "ios": "https://dc.lft.to/lastmile_qr_scan"}, "fusion_lat": 0.0, "name": "5518f6dc5d455534888d43e3fc6dd806", "bike_id": "5518f6dc5d455534888d43e3fc6dd806"}, {"is_disabled": 0, "is_reserved": 0, "type": "electric_bike", "lon": -77.027161, "fusion_lon": 0.0, "lat": 38.98190533333333, "rental_uris": {"android": "https://dc.lft.to/lastmile_qr_scan", "ios": "https://dc.lft.to/lastmile_qr_scan"}, "fusion_lat": 0.0, "name": "7527955a72a79d2209c67dd8668aa05a", "bike_id": "7527955a72a79d2209c67dd8668aa05a"}, {"is_disabled": 0, "is_reserved": 0, "type": "electric_scooter", "lon": -76.9951045, "fusion_lon": 0.0, "lat": 38.885819833333336, "rental_uris": {"android": "https://dc.lft.to/lastmile_qr_scan", "ios": "https://dc.lft.to/lastmile_qr_scan"}, "fusion_lat": 0.0, "name": "427a65d50af5b739c2b2507267e22b8d", "bike_id": "427a65d50af5b739c2b2507267e22b8d"}, {"is_disabled": 0, "is_reserved": 0, "type": "electric_scooter", "lon": -77.04593716666666, "fusion_lon": 0.0, "lat": 38.91544566666666, "rental_uris": {"android": "https://dc.lft.to/lastmile_qr_scan", "ios": "https://dc.lft.to/lastmile_qr_scan"}, "fusion_lat": 0.0, "name": "0b52851064489f4350c3bf4cb6c0bb27", "bike_id": "0b52851064489f4350c3bf4cb6c0bb27"},