{"data": {"bikes": [{"is_reserved": 0, "type": "electric_scooter", "fusion_lat": 0.0, "is_disabled": 0, "rental_uris": {"ios": "https://dc.lft.to/lastmile_qr_scan", "android": "https://dc.lft.to/lastmile_qr_scan"}, "bike_id": "11155af59818d4ff5033937721f369c9", "lat": 38.92724316666666, "name": "11155af59818d4ff5033937721f369c9", "lon": -77.0354985, "fusion_lon": 0.0}, {"is_reserved": 0, "type": "electric_scooter", "fusion_lat": 0.0, "is_disabled": 0, "rental_uris": {"ios": "https://dc.lft.to/lastmile_qr_scan", "android": "https://dc.lft.to/lastmile_qr_scan"}, "bike_id": "20127cd3a0e6a0d169ac5f6eb6e694a9", "lat": 38.91819233333333, "name": "20127cd3a0e6a0d169ac5f6eb6e694a9", "lon": -77.03202633333333, "fusion_lon": 0.0}, {"is_reserved": 0, "type": "electric_scooter", "fusion_lat": 0.0, "is_disabled": 0, "rental_uris": {"ios": "https://dc.lft.to/lastmile_qr_scan", "android": "https://dc.lft.to/lastmile_qr_scan"}, "bike_id": "c7c60909614931f0a9e83aa4f9e766aa", "lat": 38.8836395, "name": "c7c60909614931f0a9e83aa4f9e766aa", "lon": -76.9279235, "fusion_lon": 0.0}, {"is_reserved": 0, "type": "electric_scooter", "fusion_lat": 0.0, "is_disabled": 0, "rental_uris": {"ios": "https://dc.lft.to/lastmile_qr_scan", "android": "https://dc.lft.to/lastmile_qr_scan"}, "bike_id": "d5e89aaf430dad92b4a3620c1ccd681b", "lat": 38.898342166666666, "name": "d5e89aaf430dad92b4a3620c1ccd681b", "lon": -77.05008083333334, "fusion_lon": 0.0}, {"is_reserved": 0, "type": "electric_scooter", "fusion_lat": 0.0, "is_disabled": 0, "rental_uris": {"ios": "https://dc.lft.to/lastmile_qr_scan", "android": "https://dc.lft.to/lastmile_qr_scan"}, "bike_id": "537bd70cba9997a44cfffa267c4c2900", "lat": 38.931901, "name": "537bd70cba9997a44cfffa267c4c2900", "lon": -77.01960983333333, "fusion_lon": 0.0}, {"is_reserved": 0, "type": "electric_scooter", "fusion_lat": 0.0, "is_disabled": 0, "rental_uris": {"ios": "https://dc.lft.to/lastmile_qr_scan", "android": "https://dc.lft.to/lastmile_qr_scan"}, "bike_id": "cfccd569b4c915f78e7b3a8e0a8d2909", "lat": 38.92064216666667, "name": "cfccd569b4c915f78e7b3a8e0a8d2909", "lon": -77.04185983333333, "fusion_lon": 0.0}, {"is_reserved": 0, "type": "electric_bike", "fusion_lat": 0.0, "is_disabled": 0, "rental_uris": {"ios": "https://dc.lft.to/lastmile_qr_scan", "android": "https://dc.lft.to/lastmile_qr_scan"}, "bike_id": "e1235b804fe7048188700dcb8e99b70a", "lat": 38.99499483333334, "name": "e1235b804fe7048188700dcb8e99b70a", "lon": -77.00137433333333, "fusion_lon": 0.0}, {"is_reserved": 0, "type": "electric_scooter", "fusion_lat": 0.0, "is_disabled": 0, "rental_uris": {"ios": "https://dc.lft.to/lastmile_qr_scan", "android": "https://dc.lft.to/lastmile_qr_scan"}, "bike_id": "332158d4f6928d3f7218464e3ae265bc", "lat": 38.9178285, "name": "332158d4f6928d3f7218464e3ae265bc", "lon": -77.04332966666666, "fusion_lon": 0.0}, {"is_reserved": 0, "type": "electric_scooter", "fusion_lat": 0.0, "is_disabled": 0, "rental_uris": {"ios": "https://dc.lft.to/lastmile_qr_scan", "android": "https://dc.lft.to/lastmile_qr_scan"}, "bike_id": "e3a35abfb7366b363cd19a300860ae1b", "lat": 38.92973933333333, "name": "e3a35abfb7366b363cd19a300860ae1b", "lon": -77.0233925, "fusion_lon": 0.0}, {"is_reserved": 0, "type": "electric_scooter", "fusion_lat": 0.0, "is_disabled": 0, "rental_uris": {"ios": "https://dc.lft.to/lastmile_qr_scan", "android": "https://dc.lft.to/lastmile_qr_scan"}, "bike_id": "fa6d697d868e4150f1ed769ab618fbe0", "lat": 38.924626, "name": "fa6d697d868e4150f1ed769ab618fbe0", "lon": -77.022619, "fusion_lon": 0.0}, {"is_reserved": 0, "type": "electric_bike", "fusion_lat": 0.0, "is_disabled": 0, "rental_uris": {"ios": "https://dc.lft.to/lastmile_qr_scan", "android": "https://dc.lft.to/lastmile_qr_scan"}, "bike_id": "670d463887c69329ffc83a4e27753b4b", "lat": 38.90434116666667, "name": "670d463887c69329ffc83a4e27753b4b", "lon": -76.97234566666667, "fusion_lon": 0.0}, {"is_reserved": 0, "type": "electric_scooter", "fusion_lat": 0.0, "is_disabled": 0, "rental_uris": {"ios": "https://dc.lft.to/lastmile_qr_scan", "android": "https://dc.lft.to/lastmile_qr_scan"}, "bike_id": "8bd6d377666fe540aaf6113b65d0834f", "lat": 38.921506666666666, "name": "8bd6d377666fe540aaf6113b65d0834f", "lon": -77.042425, "fusion_lon": 0.0}, {"is_reserved": 0, "type": "electric_bike", "fusion_lat": 0.0, "is_disabled": 0, "rental_uris": {"ios": "https://dc.lft.to/lastmile_qr_scan", "android": "https://dc.lft.to/lastmile_qr_scan"}, "bike_id": "118809860e344cd7f56ac6c15d4b50ab", "lat": 38.9028435, "name": "118809860e344cd7f56ac6c15d4b50ab", "lon": -77.01788, "fusion_lon": 0.0}, {"is_reserved": 0, "type": "electric_scooter", "fusion_lat": 0.0, "is_disabled": 0, "rental_uris": {"ios": "https://dc.lft.to/lastmile_qr_scan", "android": "https://dc.lft.to/lastmile_qr_scan"}, "bike_id": "141f14c1896d1b3ebcbbbc496b2a25bb", "lat": 38.891991833333336, "name": "141f14c1896d1b3ebcbbbc496b2a25bb", "lon": -77.01548466666667, "fusion_lon": 0.0}, {"is_reserved": 0, "type": "electric_scooter", "fusion_lat": 0.0, "is_disabled": 0, "rental_uris": {"ios": "https://dc.lft.to/lastmile_qr_scan", "android": "https://dc.lft.to/lastmile_qr_scan"}, "bike_id": "4b8bb0ab2db749da57021cb764a9f075", "lat": 38.91484333333333, "name": "4b8bb0ab2db749da57021cb764a9f075", "lon": -77.03436583333334, "fusion_lon": 0.0}, {"is_reserved": 0, "type": "electric_scooter", "fusion_lat": 0.0, "is_disabled": 0, "rental_uris": {"ios": "https://dc.lft.to/lastmile_qr_scan", "android": "https://dc.lft.to/lastmile_qr_scan"}, "bike_id": "69859f6b7312f8a97508f2d52599d708", "lat": 38.933213, "name": "69859f6b7312f8a97508f2d52599d708", "lon": -77.02373316666667, "fusion_lon": 0.0}, {"is_reserved": 0, "type": "electric_scooter", "fusion_lat": 0.0, "is_disabled": 0, "rental_uris": {"ios": "https://dc.lft.to/lastmile_qr_scan", "android": "https://dc.lft.to/lastmile_qr_scan"}, "bike_id": "547e526f8f2a5df29dbf5a05df8aa076", "lat": 38.9114485, "name": "547e526f8f2a5df29dbf5a05df8aa076", "lon": -77.01524216666667, "fusion_lon": 0.0}, {"is_reserved": 0, "type": "electric_scooter", "fusion_lat": 0.0, "is_disabled": 0, "rental_uris": {"ios": "https://dc.lft.to/lastmile_qr_scan", "android": "https://dc.lft.to/lastmile_qr_scan"}, "bike_id": "d52d8ed315a3853991d342f841c09fc9", "lat": 38.90977616666667, "name": "d52d8ed315a3853991d342f841c09fc9", "lon": -77.06489866666666, "fusion_lon": 0.0}, {"is_reserved": 0, "type": "electric_scooter", "fusion_lat": 0.0, "is_disabled": 0, "rental_uris": {"ios": "https://dc.lft.to/lastmile_qr_scan", "android": "https://dc.lft.to/lastmile_qr_scan"}, "bike_id": "4a4c4985917721f407a67f7a0281e8aa", "lat": 38.900004333333335, "name": "4a4c4985917721f407a67f7a0281e8aa", "lon": -77.0526775, "fusion_lon": 0.0}, {"is_reserved": 0, "type": "electric_bike", "fusion_lat": 0.0, "is_disabled": 0, "rental_uris": {"ios": "https://dc.lft.to/lastmile_qr_scan", "android": "https://dc.lft.to/lastmile_qr_scan"}, "bike_id": "57fd69afbc1bcb8601273b4e4b81f853", "lat": 38.833029833333335, "name": "57fd69afbc1bcb8601273b4e4b81f853", "lon": -77.08412483333333, "fusion_lon": 0.0}, {"is_reserved": 0, "type": "electric_bike", "fusion_lat": 0.0, "is_disabled": 0, "rental_uris": {"ios": "https://dc.lft.to/lastmile_qr_scan", "android": "https://dc.lft.to/lastmile_qr_scan"}, "bike_id": "36b70130c846e0e7015e23ca499699a0", "lat": 38.84111133333333, "name": "36b70130c846e0e7015e23ca499699a0", "lon": -77.0895035, "fusion_lon": 0.0}, {"is_reserved": 0, "type": "electric_scooter", "fusion_lat": 0.0, "is_disabled": 0, "rental_uris": {"ios": "https://dc.lft.to/lastmile_qr_scan", "android": "https://dc.lft.to/lastmile_qr_scan"}, "bike_id": "c287db82d10820af94fd9ec3ea2c73d4", "lat": 38.89731333333334, "name": "c287db82d10820af94fd9ec3ea2c73d4", "lon": -77.04366083333333, "fusion_lon": 0.0}, {"is_reserved": 0, "type": "electric_scooter", "fusion_lat": 0.0, "is_disabled": 0, "rental_uris": {"ios": "https://dc.lft.to/lastmile_qr_scan", "android": "https://dc.lft.to/lastmile_qr_scan"}, "bike_id": "5d2177de5a6864df5345f2c853a83373", "lat": 38.89846, "name": "5d2177de5a6864df5345f2c853a83373", "lon": -76.92748983333334, "fusion_lon": 0.0}, {"is_reserved": 0, "type": "electric_scooter", "fusion_lat": 0.0, "is_disabled": 0, "rental_uris": {"ios": "https://dc.lft.to/lastmile_qr_scan", "android": "https://dc.lft.to/lastmile_qr_scan"}, "bike_id": "78f2ffeeabe99200e0127c54f15b4df6", "lat": 38.912577666666664, "name": "78f2ffeeabe99200e0127c54f15b4df6", "lon": -76.983542, "fusion_lon": 0.0}, {"is_reserved": 0, "type": "electric_scooter", "fusion_lat": 0.0, "is_disabled": 0, "rental_uris": {"ios": "https://dc.lft.to/lastmile_qr_scan", "android": "https://dc.lft.to/lastmile_qr_scan"}, "bike_id": "e6a23c9c50b5298b08c039f07012479d", "lat": 38.918212, "name": "e6a23c9c50b5298b08c039f07012479d", "lon": -77.03727866666667, "fusion_lon": 0.0}, {"is_reserved": 0, "type": "electric_scooter", "fusion_lat": 0.0, "is_disabled": 0, "rental_uris": {"ios": "https://dc.lft.to/lastmile_qr_scan", "android": "https://dc.lft.to/lastmile_qr_scan"}, "bike_id": "8cef0c4533215538dbe3e47da89ac28e", "lat": 38.915955333333336, "name": "8cef0c4533215538dbe3e47da89ac28e", "lon": -76.984123, "fusion_lon": 0.0}, {"is_reserved": 0, "type": "electric_scooter", "fusion_lat": 0.0, "is_disabled": 0, "rental_uris": {"ios": "https://dc.lft.to/lastmile_qr_scan", "android": "https://dc.lft.to/lastmile_qr_scan"}, "bike_id": "961b5c11d132be11fcffd91aad6ecb75", "lat": 38.9242725, "name": "961b5c11d132be11fcffd91aad6ecb75", "lon": -77.02127816666666, "fusion_lon": 0.0}, {"is_reserved": 0, "type": "electric_scooter", "fusion_lat": 0.0, "is_disabled": 0, "rental_uris": {"ios": "https://dc.lft.to/lastmile_qr_scan", "android": "https://dc.lft.to/lastmile_qr_scan"}, "bike_id": "810e06f64a20f263ec56f82c89444866", "lat": 38.9166775, "name": "810e06f64a20f263ec56f82c89444866", "lon": -77.042072, "fusion_lon": 0.0}, {"is_reserved": 0, "type": "electric_scooter", "fusion_lat": 0.0, "is_disabled": 0, "rental_uris": {"ios": "https://dc.lft.to/lastmile_qr_scan", "android": "https://dc.lft.to/lastmile_qr_scan"}, "bike_id": "3c65dc411a27fb87aa2c72d25ef9df7a", "lat": 38.91945833333333, "name": "3c65dc411a27fb87aa2c72d25ef9df7a", "lon": -77.01607366666667, "fusion_lon": 0.0}, {"is_reserved": 0, "type": "electric_scooter", "fusion_lat": 0.0, "is_disabled": 0, "rental_uris": {"ios": "https://dc.lft.to/lastmile_qr_scan", "android": "https://dc.lft.to/lastmile_qr_scan"}, "bike_id": "c18f6f00c75fe0f57e817a394e348bc4", "lat": 38.876328666666666, "name": "c18f6f00c75fe0f57e817a394e348bc4", "lon": -77.009545, "fusion_lon": 0.0}, {"is_reserved": 0, "type": "electric_bike", "fusion_lat": 0.0, "is_disabled": 0, "rental_uris": {"ios": "https://dc.lft.to/lastmile_qr_scan", "android": "https://dc.lft.to/lastmile_qr_scan"}, "bike_id": "8f74bca4426661d34e061c6689772cb8", "lat": 38.846766, "name": "8f74bca4426661d34e061c6689772cb8", "lon": -77.13938183333333, "fusion_lon": 0.0}, {"is_reserved": 0, "type": "electric_scooter", "fusion_lat": 0.0, "is_disabled": 0, "rental_uris": {"ios": "https://dc.lft.to/lastmile_qr_scan", "android": "https://dc.lft.to/lastmile_qr_scan"}, "bike_id": "b203dd99d67ddc2a488cc3d5cffe7fcf", "lat": 38.91715966666667, "name": "b203dd99d67ddc2a488cc3d5cffe7fcf", "lon": -77.032052, "fusion_lon": 0.0}, {"is_reserved": 0, "type": "electric_scooter", "fusion_lat": 0.0, "is_disabled": 0, "rental_uris": {"ios": "https://dc.lft.to/lastmile_qr_scan", "android": "https://dc.lft.to/lastmile_qr_scan"}, "bike_id": "3bd2099a8f6c0317a413675daea2daff", "lat": 38.90558516666667, "name": "3bd2099a8f6c0317a413675daea2daff", "lon": -77.037513, "fusion_lon": 0.0}, {"is_reserved": 0, "type": "electric_scooter", "fusion_lat": 0.0, "is_disabled": 0, "rental_uris": {"ios": "https://dc.lft.to/lastmile_qr_scan", "android": "https://dc.lft.to/lastmile_qr_scan"}, "bike_id": "10d5c6a8fbd75a7507409fa83c9beef5", "lat": 38.89095316666667, "name": "10d5c6a8fbd75a7507409fa83c9beef5", "lon": -76.9883265, "fusion_lon": 0.0}, {"is_reserved": 0, "type": "electric_scooter", "fusion_lat": 0.0, "is_disabled": 0, "rental_uris": {"ios": "https://dc.lft.to/lastmile_qr_scan", "android": "https://dc.lft.to/lastmile_qr_scan"}, "bike_id": "1d5dcb3c0703ddb178967932a47375ef", "lat": 38.881559, "name": "1d5dcb3c0703ddb178967932a47375ef", "lon": -77.0275675, "fusion_lon": 0.0}, {"is_reserved": 0, "type": "electric_scooter", "fusion_lat": 0.0, "is_disabled": 0, "rental_uris": {"ios": "https://dc.lft.to/lastmile_qr_scan", "android": "https://dc.lft.to/lastmile_qr_scan"}, "bike_id": "4b04b2f997ddad11672929afaa3a3c73", "lat": 38.8863235, "name": "4b04b2f997ddad11672929afaa3a3c73", "lon": -76.981875, "fusion_lon": 0.0}, {"is_reserved": 0, "type": "electric_scooter", "fusion_lat": 0.0, "is_disabled": 0, "rental_uris": {"ios": "https://dc.lft.to/lastmile_qr_scan", "android": "https://dc.lft.to/lastmile_qr_scan"}, "bike_id": "c164c20bd9ca944f2e8d4e0d3abfe738", "lat": 38.9095515, "name": "c164c20bd9ca944f2e8d4e0d3abfe738", "lon": -77.012772, "fusion_lon": 0.0}, {"is_reserved": 0, "type": "electric_scooter", "fusion_lat": 0.0, "is_disabled": 0, "rental_uris": {"ios": "https://dc.lft.to/lastmile_qr_scan", "android": "https://dc.lft.to/lastmile_qr_scan"}, "bike_id": "5cb7b7207c3cbf1d46e6e00f98535b58", "lat": 38.9327755, "name": "5cb7b7207c3cbf1d46e6e00f98535b58", "lon": -77.0265635, "fusion_lon": 0.0}, {"is_reserved": 0, "type": "electric_scooter", "fusion_lat": 0.0, "is_disabled": 0, "rental_uris": {"ios": "https://dc.lft.to/lastmile_qr_scan", "android": "https://dc.lft.to/lastmile_qr_scan"}, "bike_id": "f9d07a4aaa459903526c0547b2da6250", "lat": 38.9087675, "name": "f9d07a4aaa459903526c0547b2da6250", "lon": -77.0022645, "fusion_lon": 0.0}, {"is_reserved": 0, "type": "electric_scooter", "fusion_lat": 0.0, "is_disabled": 0, "rental_uris": {"ios": "https://dc.lft.to/lastmile_qr_scan", "android": "https://dc.lft.to/lastmile_qr_scan"}, "bike_id": "cc63568f83d400459a51fe69b04ab376", "lat": 38.9198235, "name": "cc63568f83d400459a51fe69b04ab376", "lon": -77.0236345, "fusion_lon": 0.0}, {"is_reserved": 0, "type": "electric_scooter", "fusion_lat": 0.0, "is_disabled": 0, "rental_uris": {"ios": "https://dc.lft.to/lastmile_qr_scan", "android": "https://dc.lft.to/lastmile_qr_scan"}, "bike_id": "694210ff9812c4ca3679779fae5692fe", "lat": 38.89940583333333, "name": "694210ff9812c4ca3679779fae5692fe", "lon": -77.014549, "fusion_lon": 0.0}, {"is_reserved": 0, "type": "electric_scooter", "fusion_lat": 0.0, "is_disabled": 0, "rental_uris": {"ios": "https://dc.lft.to/lastmile_qr_scan", "android": "https://dc.lft.to/lastmile_qr_scan"}, "bike_id": "a23b1fc7c72a345d796dd02e81dc734c", "lat": 38.89730933333333, "name": "a23b1fc7c72a345d796dd02e81dc734c", "lon": -77.03210733333333, "fusion_lon": 0.0}, {"is_reserved": 0, "type": "electric_scooter", "fusion_lat": 0.0, "is_disabled": 0, "rental_uris": {"ios": "https://dc.lft.to/lastmile_qr_scan", "android": "https://dc.lft.to/lastmile_qr_scan"}, "bike_id": "cf7b8944a218a3eede2506c092790c9f", "lat": 38.916982, "name": "cf7b8944a218a3eede2506c092790c9f", "lon": -77.02897116666666, "fusion_lon": 0.0}, {"is_reserved": 0, "type": "electric_scooter", "fusion_lat": 0.0, "is_disabled": 0, "rental_uris": {"ios": "https://dc.lft.to/lastmile_qr_scan", "android": "https://dc.lft.to/lastmile_qr_scan"}, "bike_id": "87ecb4a4e162073e1e7beb800148b928", "lat": 38.9005975, "name": "87ecb4a4e162073e1e7beb800148b928", "lon": -77.050616, "fusion_lon": 0.0}, {"is_reserved": 0, "type": "electric_scooter", "fusion_lat": 0.0, "is_disabled": 0, "rental_uris": {"ios": "https://dc.lft.to/lastmile_qr_scan", "android": "https://dc.lft.to/lastmile_qr_scan"}, "bike_id": "298210164283007b507aac0226e00548", "lat": 38.909334, "name": "298210164283007b507aac0226e00548", "lon": -77.06224133333333, "fusion_lon": 0.0}, {"is_reserved": 0, "type": "electric_scooter", "fusion_lat": 0.0, "is_disabled": 0, "rental_uris": {"ios": "https://dc.lft.to/lastmile_qr_scan", "android": "https://dc.lft.to/lastmile_qr_scan"}, "bike_id": "0d6fbea125675c454947b1d4fb7acaa5", "lat": 38.9169985, "name": "0d6fbea125675c454947b1d4fb7acaa5", "lon": -77.0313365, "fusion_lon": 0.0}, {"is_reserved": 0, "type": "electric_scooter", "fusion_lat": 0.0, "is_disabled": 0, "rental_uris": {"ios": "https://dc.lft.to/lastmile_qr_scan", "android": "https://dc.lft.to/lastmile_qr_scan"}, "bike_id": "076fa70ba5d64019064d801adee642d0", "lat": 38.89938583333333, "name": "076fa70ba5d64019064d801adee642d0", "lon": -77.05402616666667, "fusion_lon": 0.0}, {"is_reserved": 0, "type": "electric_scooter", "fusion_lat": 0.0, "is_disabled": 0, "rental_uris": {"ios": "https://dc.lft.to/lastmile_qr_scan", "android": "https://dc.lft.to/lastmile_qr_scan"}, "bike_id": "f982254cca68f72262023413edbae68b", "lat": 38.89905316666667, "name": "f982254cca68f72262023413edbae68b", "lon": -77.04045066666667, "fusion_lon": 0.0}, {"is_reserved": 0, "type": "electric_scooter", "fusion_lat": 0.0, "is_disabled": 0, "rental_uris": {"ios": "https://dc.lft.to/lastmile_qr_scan", "android": "https://dc.lft.to/lastmile_qr_scan"}, "bike_id": "36d319137670af390cf563b54ed40fea", "lat": 38.912558833333335, "name": "36d319137670af390cf563b54ed40fea", "lon": -77.00918716666666, "fusion_lon": 0.0}, {"is_reserved": 0, "type": "electric_scooter", "fusion_lat": 0.0, "is_disabled": 0, "rental_uris": {"ios": "https://dc.lft.to/lastmile_qr_scan", "android": "https://dc.lft.to/lastmile_qr_scan"}, "bike_id": "624968b31fc757991c854d4318d17e67", "lat": 38.936975833333335, "name": "624968b31fc757991c854d4318d17e67", "lon": -77.05596966666667, "fusion_lon": 0.0}, {"is_reserved": 0, "type": "electric_scooter", "fusion_lat": 0.0, "is_disabled": 0, "rental_uris": {"ios": "https://dc.lft.to/lastmile_qr_scan", "android": "https://dc.lft.to/lastmile_qr_scan"}, "bike_id": "db6dccc9da50aaf3f6a1f93f58126833", "lat": 38.88582816666667, "name": "db6dccc9da50aaf3f6a1f93f58126833", "lon": -77.0122715, "fusion_lon": 0.0}, {"is_reserved": 0, "type": "electric_scooter", "fusion_lat": 0.0, "is_disabled": 0, "rental_uris": {"ios": "https://dc.lft.to/lastmile_qr_scan", "android": "https://dc.lft.to/lastmile_qr_scan"}, "bike_id": "4963e4a3106bb72863696f0528597f0e", "lat": 38.952575833333334, "name": "4963e4a3106bb72863696f0528597f0e", "lon": -77.02076516666666, "fusion_lon": 0.0}, {"is_reserved": 0, "type": "electric_scooter", "fusion_lat": 0.0, "is_disabled": 0, "rental_uris": {"ios": "https://dc.lft.to/lastmile_qr_scan", "android": "https://dc.lft.to/lastmile_qr_scan"}, "bike_id": "690c16bd8690421391dc7a0ebe22eb49", "lat": 38.9175425, "name": "690c16bd8690421391dc7a0ebe22eb49", "lon": -77.02122083333333, "fusion_lon": 0.0}, {"is_reserved": 0, "type": "electric_scooter", "fusion_lat": 0.0, "is_disabled": 0, "rental_uris": {"ios": "https://dc.lft.to/lastmile_qr_scan", "android": "https://dc.lft.to/lastmile_qr_scan"}, "bike_id": "b073daada2e039240e558b7fba95d2cf", "lat": 38.91019766666667, "name": "b073daada2e039240e558b7fba95d2cf", "lon": -77.00916016666666, "fusion_lon": 0.0}, {"is_reserved": 0, "type": "electric_scooter", "fusion_lat": 0.0, "is_disabled": 0, "rental_uris": {"ios": "https://dc.lft.to/lastmile_qr_scan", "android": "https://dc.lft.to/lastmile_qr_scan"}, "bike_id": "d245289df57b81fc3075be1969fc29bb", "lat": 38.936074833333336, "name": "d245289df57b81fc3075be1969fc29bb", "lon": -77.03203466666666, "fusion_lon": 0.0}, {"is_reserved": 0, "type": "electric_scooter", "fusion_lat": 0.0, "is_disabled": 0, "rental_uris": {"ios": "https://dc.lft.to/lastmile_qr_scan", "android": "https://dc.lft.to/lastmile_qr_scan"}, "bike_id": "01f6509b1dfd90e9038aa03f98ff4095", "lat": 38.89329266666667, "name": "01f6509b1dfd90e9038aa03f98ff4095", "lon": -76.939254, "fusion_lon": 0.0}, {"is_reserved": 0, "type": "electric_scooter", "fusion_lat": 0.0, "is_disabled": 0, "rental_uris": {"ios": "https://dc.lft.to/lastmile_qr_scan", "android": "https://dc.lft.to/lastmile_qr_scan"}, "bike_id": "d6583ffb388f5091873cbb541e13ae0d", "lat": 38.90854983333333, "name": "d6583ffb388f5091873cbb541e13ae0d", "lon": -77.04169083333333, "fusion_lon": 0.0}, {"is_reserved": 0, "type": "electric_scooter", "fusion_lat": 0.0, "is_disabled": 0, "rental_uris": {"ios": "https://dc.lft.to/lastmile_qr_scan", "android": "https://dc.lft.to/lastmile_qr_scan"}, "bike_id": "cb481d9413c5006ba6f5fa111c02266a", "lat": 38.8990605, "name": "cb481d9413c5006ba6f5fa111c02266a", "lon": -77.02295433333333, "fusion_lon": 0.0}, {"is_reserved": 0, "type": "electric_scooter", "fusion_lat": 0.0, "is_disabled": 0, "rental_uris": {"ios": "https://dc.lft.to/lastmile_qr_scan", "android": "https://dc.lft.to/lastmile_qr_scan"}, "bike_id": "a4cd59eabc577d516489a257948fa70e", "lat": 38.916217333333336, "name": "a4cd59eabc577d516489a257948fa70e", "lon": -77.032561, "fusion_lon": 0.0}, {"is_reserved": 0, "type": "electric_scooter", "fusion_lat": 0.0, "is_disabled": 0, "rental_uris": {"ios": "https://dc.lft.to/lastmile_qr_scan", "android": "https://dc.lft.to/lastmile_qr_scan"}, "bike_id": "4521f015dd0713443a404b184c97614f", "lat": 38.912523, "name": "4521f015dd0713443a404b184c97614f", "lon": -77.02809416666666, "fusion_lon": 0.0}, {"is_reserved": 0, "type": "electric_scooter", "fusion_lat": 0.0, "is_disabled": 0, "rental_uris": {"ios": "https://dc.lft.to/lastmile_qr_scan", "android": "https://dc.lft.to/lastmile_qr_scan"}, "bike_id": "6ee1f50d5deb1a5c85322ac522ea229d", "lat": 38.901046666666666, "name": "6ee1f50d5deb1a5c85322ac522ea229d", "lon": -77.0382005, "fusion_lon": 0.0}, {"is_reserved": 0, "type": "electric_scooter", "fusion_lat": 0.0, "is_disabled": 0, "rental_uris": {"ios": "https://dc.lft.to/lastmile_qr_scan", "android": "https://dc.lft.to/lastmile_qr_scan"}, "bike_id": "6479adebdfcd6b60d5c50b214e1dccae", "lat": 38.8767175, "name": "6479adebdfcd6b60d5c50b214e1dccae", "lon": -77.00427066666667, "fusion_lon": 0.0}, {"is_reserved": 0, "type": "electric_scooter", "fusion_lat": 0.0, "is_disabled": 0, "rental_uris": {"ios": "https://dc.lft.to/lastmile_qr_scan", "android": "https://dc.lft.to/lastmile_qr_scan"}, "bike_id": "c98bf192266466610d5acebf325de218", "lat": 38.91625883333333, "name": "c98bf192266466610d5acebf325de218", "lon": -77.0372315, "fusion_lon": 0.0}, {"is_reserved": 0, "type": "electric_scooter", "fusion_lat": 0.0, "is_disabled": 0, "rental_uris": {"ios": "https://dc.lft.to/lastmile_qr_scan", "android": "https://dc.lft.to/lastmile_qr_scan"}, "bike_id": "e1d6d0f40320cedb632f0d2aa89f7217", "lat": 38.9212765, "name": "e1d6d0f40320cedb632f0d2aa89f7217", "lon": -77.04420033333334, "fusion_lon": 0.0}, {"is_reserved": 0, "type": "electric_scooter", "fusion_lat": 0.0, "is_disabled": 0, "rental_uris": {"ios": "https://dc.lft.to/lastmile_qr_scan", "android": "https://dc.lft.to/lastmile_qr_scan"}, "bike_id": "33d2fd05ded57e786a89db403f1f7475", "lat": 38.889902166666666, "name": "33d2fd05ded57e786a89db403f1f7475", "lon": -76.98820066666667, "fusion_lon": 0.0}, {"is_reserved": 0, "type": "electric_scooter", "fusion_lat": 0.0, "is_disabled": 0, "rental_uris": {"ios": "https://dc.lft.to/lastmile_qr_scan", "android": "https://dc.lft.to/lastmile_qr_scan"}, "bike_id": "72b58416085f79e23154c5b57ce9894f", "lat": 38.8962645, "name": "72b58416085f79e23154c5b57ce9894f", "lon": -77.00925033333333, "fusion_lon": 0.0}, {"is_reserved": 0, "type": "electric_scooter", "fusion_lat": 0.0, "is_disabled": 0, "rental_uris": {"ios": "https://dc.lft.to/lastmile_qr_scan", "android": "https://dc.lft.to/lastmile_qr_scan"}, "bike_id": "37baf5989a6d0665ae8b9b61fbaa585f", "lat": 38.89936566666667, "name": "37baf5989a6d0665ae8b9b61fbaa585f", "lon": -77.02313366666667, "fusion_lon": 0.0}, {"is_reserved": 0, "type": "electric_scooter", "fusion_lat": 0.0, "is_disabled": 0, "rental_uris": {"ios": "https://dc.lft.to/lastmile_qr_scan", "android": "https://dc.lft.to/lastmile_qr_scan"}, "bike_id": "0ff0936e01a392644a18a424e2c0665c", "lat": 38.919831333333335, "name": "0ff0936e01a392644a18a424e2c0665c", "lon": -77.041285, "fusion_lon": 0.0}, {"is_reserved": 0, "type": "electric_scooter", "fusion_lat": 0.0, "is_disabled": 0, "rental_uris": {"ios": "https://dc.lft.to/lastmile_qr_scan", "android": "https://dc.lft.to/lastmile_qr_scan"}, "bike_id": "ed0be3352de3001c531eeb37e80d8592", "lat": 38.896664, "name": "ed0be3352de3001c531eeb37e80d8592", "lon": -77.04338883333334, "fusion_lon": 0.0}, {"is_reserved": 0, "type": "electric_scooter", "fusion_lat": 0.0, "is_disabled": 0, "rental_uris": {"ios": "https://dc.lft.to/lastmile_qr_scan", "android": "https://dc.lft.to/lastmile_qr_scan"}, "bike_id": "dc839bef3ac0aaede95daf98cbba9368", "lat": 38.910751166666664, "name": "dc839bef3ac0aaede95daf98cbba9368", "lon": -77.02193133333333, "fusion_lon": 0.0}, {"is_reserved": 0, "type": "electric_scooter", "fusion_lat": 0.0, "is_disabled": 0, "rental_uris": {"ios": "https://dc.lft.to/lastmile_qr_scan", "android": "https://dc.lft.to/lastmile_qr_scan"}, "bike_id": "58f61d765e722f8cb423c9dbf1419052", "lat": 38.92066633333334, "name": "58f61d765e722f8cb423c9dbf1419052", "lon": -77.04193366666667, "fusion_lon": 0.0}, {"is_reserved": 0, "type": "electric_scooter", "fusion_lat": 0.0, "is_disabled": 0, "rental_uris": {"ios": "https://dc.lft.to/lastmile_qr_scan", "android": "https://dc.lft.to/lastmile_qr_scan"}, "bike_id": "ca5b5ef8992dcf4ae709e8030b30967b", "lat": 38.916512833333336, "name": "ca5b5ef8992dcf4ae709e8030b30967b", "lon": -77.04617866666666, "fusion_lon": 0.0}, {"is_reserved": 0, "type": "electric_bike", "fusion_lat": 0.0, "is_disabled": 0, "rental_uris": {"ios": "https://dc.lft.to/lastmile_qr_scan", "android": "https://dc.lft.to/lastmile_qr_scan"}, "bike_id": "55648d830fb0f754f05f42ee9bee574f", "lat": 38.835898, "name": "55648d830fb0f754f05f42ee9bee574f", "lon": -76.99018316666667, "fusion_lon": 0.0}, {"is_reserved": 0, "type": "electric_scooter", "fusion_lat": 0.0, "is_disabled": 0, "rental_uris": {"ios": "https://dc.lft.to/lastmile_qr_scan", "android": "https://dc.lft.to/lastmile_qr_scan"}, "bike_id": "df461e0a12103869668fcef929de1816", "lat": 38.89271333333333, "name": "df461e0a12103869668fcef929de1816", "lon": -77.01522033333333, "fusion_lon": 0.0}, {"is_reserved": 0, "type": "electric_scooter", "fusion_lat": 0.0, "is_disabled": 0, "rental_uris": {"ios": "https://dc.lft.to/lastmile_qr_scan", "android": "https://dc.lft.to/lastmile_qr_scan"}, "bike_id": "d8832b8c2068c38f2e7f8d18c5e96897", "lat": 38.9208575, "name": "d8832b8c2068c38f2e7f8d18c5e96897", "lon": -77.02509166666667, "fusion_lon": 0.0}, {"is_reserved": 0, "type": "electric_scooter", "fusion_lat": 0.0, "is_disabled": 0, "rental_uris": {"ios": "https://dc.lft.to/lastmile_qr_scan", "android": "https://dc.lft.to/lastmile_qr_scan"}, "bike_id": "bd9940be9bec008af2c6f1b46ee195ff", "lat": 38.922974333333336, "name": "bd9940be9bec008af2c6f1b46ee195ff", "lon": -77.04158433333333, "fusion_lon": 0.0}, {"is_reserved": 0, "type": "electric_scooter", "fusion_lat": 0.0, "is_disabled": 0, "rental_uris": {"ios": "https://dc.lft.to/lastmile_qr_scan", "android": "https://dc.lft.to/lastmile_qr_scan"}, "bike_id": "6dfa5027735abdacc2f5fea5345c099a", "lat": 38.90106216666667, "name": "6dfa5027735abdacc2f5fea5345c099a", "lon": -77.0324335, "fusion_lon": 0.0}, {"is_reserved": 0, "type": "electric_scooter", "fusion_lat": 0.0, "is_disabled": 0, "rental_uris": {"ios": "https://dc.lft.to/lastmile_qr_scan", "android": "https://dc.lft.to/lastmile_qr_scan"}, "bike_id": "4bae03aad040ba0f4b507b3a61989465", "lat": 38.907290833333334, "name": "4bae03aad040ba0f4b507b3a61989465", "lon": -77.0253685, "fusion_lon": 0.0}, {"is_reserved": 0, "type": "electric_scooter", "fusion_lat": 0.0, "is_disabled": 0, "rental_uris": {"ios": "https://dc.lft.to/lastmile_qr_scan", "android": "https://dc.lft.to/lastmile_qr_scan"}, "bike_id": "c2d1475ffa96b8b71c18d52fe2fc808f", "lat": 38.90952133333333, "name": "c2d1475ffa96b8b71c18d52fe2fc808f", "lon": -76.99577683333334, "fusion_lon": 0.0}, {"is_reserved": 0, "type": "electric_scooter", "fusion_lat": 0.0, "is_disabled": 0, "rental_uris": {"ios": "https://dc.lft.to/lastmile_qr_scan", "android": "https://dc.lft.to/lastmile_qr_scan"}, "bike_id": "74447f8d55d8616d0c4edc4fd36e3ac5", "lat": 38.925726833333336, "name": "74447f8d55d8616d0c4edc4fd36e3ac5", "lon": -77.029851, "fusion_lon": 0.0}, {"is_reserved": 0, "type": "electric_scooter", "fusion_lat": 0.0, "is_disabled": 0, "rental_uris": {"ios": "https://dc.lft.to/lastmile_qr_scan", "android": "https://dc.lft.to/lastmile_qr_scan"}, "bike_id": "e248f49dc188fbdba18dffd66cf91ceb", "lat": 38.927281666666666, "name": "e248f49dc188fbdba18dffd66cf91ceb", "lon": -77.03555283333333, "fusion_lon": 0.0}, {"is_reserved": 0, "type": "electric_bike", "fusion_lat": 0.0, "is_disabled": 0, "rental_uris": {"ios": "https://dc.lft.to/lastmile_qr_scan", "android": "https://dc.lft.to/lastmile_qr_scan"}, "bike_id": "ab5d23fa880940a9608680c055c7757f", "lat": 38.85059016666666, "name": "ab5d23fa880940a9608680c055c7757f", "lon": -76.95827383333334, "fusion_lon": 0.0}, {"is_reserved": 0, "type": "electric_scooter", "fusion_lat": 0.0, "is_disabled": 0, "rental_uris": {"ios": "https://dc.lft.to/lastmile_qr_scan", "android": "https://dc.lft.to/lastmile_qr_scan"}, "bike_id": "5194273dd577f2d4969dd568edfc8a01", "lat": 38.927172, "name": "5194273dd577f2d4969dd568edfc8a01", "lon": -77.02082516666667, "fusion_lon": 0.0}, {"is_reserved": 0, "type": "electric_scooter", "fusion_lat": 0.0, "is_disabled": 0, "rental_uris": {"ios": "https://dc.lft.to/lastmile_qr_scan", "android": "https://dc.lft.to/lastmile_qr_scan"}, "bike_id": "c36d64d44132926832c63917b89b1869", "lat": 38.86081433333333, "name": "c36d64d44132926832c63917b89b1869", "lon": -76.9837765, "fusion_lon": 0.0}, {"is_reserved": 0, "type": "electric_scooter", "fusion_lat": 0.0, "is_disabled": 0, "rental_uris": {"ios": "https://dc.lft.to/lastmile_qr_scan", "android": "https://dc.lft.to/lastmile_qr_scan"}, "bike_id": "c40eba2ae6a94a76fed500f41641dcee", "lat": 38.90971233333333, "name": "c40eba2ae6a94a76fed500f41641dcee", "lon": -77.03267333333334, "fusion_lon": 0.0}, {"is_reserved": 0, "type": "electric_scooter", "fusion_lat": 0.0, "is_disabled": 0, "rental_uris": {"ios": "https://dc.lft.to/lastmile_qr_scan", "android": "https://dc.lft.to/lastmile_qr_scan"}, "bike_id": "0870df83336aa2915e8d31b0a1a0c866", "lat": 38.91205133333333, "name": "0870df83336aa2915e8d31b0a1a0c866", "lon": -77.02694516666666, "fusion_lon": 0.0}, {"is_reserved": 0, "type": "electric_scooter", "fusion_lat": 0.0, "is_disabled": 0, "rental_uris": {"ios": "https://dc.lft.to/lastmile_qr_scan", "android": "https://dc.lft.to/lastmile_qr_scan"}, "bike_id": "3025d4f367037f2690ec513ac0cd3642", "lat": 38.88575383333333, "name": "3025d4f367037f2690ec513ac0cd3642", "lon": -77.01210433333334, "fusion_lon": 0.0}, {"is_reserved": 0, "type": "electric_scooter", "fusion_lat": 0.0, "is_disabled": 0, "rental_uris": {"ios": "https://dc.lft.to/lastmile_qr_scan", "android": "https://dc.lft.to/lastmile_qr_scan"}, "bike_id": "5a9e5d6f8a50776e62c902b789fd6465", "lat": 38.90238083333333, "name": "5a9e5d6f8a50776e62c902b789fd6465", "lon": -76.99274733333333, "fusion_lon": 0.0}, {"is_reserved": 0, "type": "electric_scooter", "fusion_lat": 0.0, "is_disabled": 0, "rental_uris": {"ios": "https://dc.lft.to/lastmile_qr_scan", "android": "https://dc.lft.to/lastmile_qr_scan"}, "bike_id": "1d22091113e4b1d4292c66aa6584a9e2", "lat": 38.905161, "name": "1d22091113e4b1d4292c66aa6584a9e2", "lon": -77.04816116666667, "fusion_lon": 0.0}, {"is_reserved": 0, "type": "electric_scooter", "fusion_lat": 0.0, "is_disabled": 0, "rental_uris": {"ios": "https://dc.lft.to/lastmile_qr_scan", "android": "https://dc.lft.to/lastmile_qr_scan"}, "bike_id": "cc5369d7c3f95fac77912239ec0e79b6", "lat": 38.91744033333333, "name": "cc5369d7c3f95fac77912239ec0e79b6", "lon": -77.0318775, "fusion_lon": 0.0}, {"is_reserved": 0, "type": "electric_scooter", "fusion_lat": 0.0, "is_disabled": 0, "rental_uris": {"ios": "https://dc.lft.to/lastmile_qr_scan", "android": "https://dc.lft.to/lastmile_qr_scan"}, "bike_id": "de1f0c4d0fd9a8777ac44040007827b1", "lat": 38.878850166666666, "name": "de1f0c4d0fd9a8777ac44040007827b1", "lon": -76.9654155, "fusion_lon": 0.0}, {"is_reserved": 0, "type": "electric_scooter", "fusion_lat": 0.0, "is_disabled": 0, "rental_uris": {"ios": "https://dc.lft.to/lastmile_qr_scan", "android": "https://dc.lft.to/lastmile_qr_scan"}, "bike_id": "d5c5c629f0684b6e630f6d0fa0f3f12f", "lat": 38.90366016666667, "name": "d5c5c629f0684b6e630f6d0fa0f3f12f", "lon": -76.9781735, "fusion_lon": 0.0}, {"is_reserved": 0, "type": "electric_scooter", "fusion_lat": 0.0, "is_disabled": 0, "rental_uris": {"ios": "https://dc.lft.to/lastmile_qr_scan", "android": "https://dc.lft.to/lastmile_qr_scan"}, "bike_id": "136b2d441177c8b4c6c9e780c3250d11", "lat": 38.9077065, "name": "136b2d441177c8b4c6c9e780c3250d11", "lon": -77.02401466666667, "fusion_lon": 0.0}, {"is_reserved": 0, "type": "electric_scooter", "fusion_lat": 0.0, "is_disabled": 0, "rental_uris": {"ios": "https://dc.lft.to/lastmile_qr_scan", "android": "https://dc.lft.to/lastmile_qr_scan"}, "bike_id": "e0b320b1cfad82b884ad17edca5174c7", "lat": 38.899357333333334, "name": "e0b320b1cfad82b884ad17edca5174c7", "lon": -76.9376535, "fusion_lon": 0.0}, {"is_reserved": 0, "type": "electric_bike", "fusion_lat": 0.0, "is_disabled": 0, "rental_uris": {"ios": "https://dc.lft.to/lastmile_qr_scan", "android": "https://dc.lft.to/lastmile_qr_scan"}, "bike_id": "19921ad4f6fb48fed83b462638f455b4", "lat": 39.034738833333336, "name": "19921ad4f6fb48fed83b462638f455b4", "lon": -77.04100616666666, "fusion_lon": 0.0}, {"is_reserved": 0, "type": "electric_scooter", "fusion_lat": 0.0, "is_disabled": 0, "rental_uris": {"ios": "https://dc.lft.to/lastmile_qr_scan", "android": "https://dc.lft.to/lastmile_qr_scan"}, "bike_id": "aacca49ec22cfaf9649ad7363b291cda", "lat": 38.944874, "name": "aacca49ec22cfaf9649ad7363b291cda", "lon": -77.0640825, "fusion_lon": 0.0}, {"is_reserved": 0, "type": "electric_scooter", "fusion_lat": 0.0, "is_disabled": 0, "rental_uris": {"ios": "https://dc.lft.to/lastmile_qr_scan", "android": "https://dc.lft.to/lastmile_qr_scan"}, "bike_id": "caa3a0cb4ee564f14766019cc7dec788", "lat": 38.928286166666666, "name": "caa3a0cb4ee564f14766019cc7dec788", "lon": -77.01387683333333, "fusion_lon": 0.0}, {"is_reserved": 0, "type": "electric_scooter", "fusion_lat": 0.0, "is_disabled": 0, "rental_uris": {"ios": "https://dc.lft.to/lastmile_qr_scan", "android": "https://dc.lft.to/lastmile_qr_scan"}, "bike_id": "7b5453606ea67348cf3f212d57c1c6ce", "lat": 38.90989416666667, "name": "7b5453606ea67348cf3f212d57c1c6ce", "lon": -77.03850916666667, "fusion_lon": 0.0}, {"is_reserved": 0, "type": "electric_scooter", "fusion_lat": 0.0, "is_disabled": 0, "rental_uris": {"ios": "https://dc.lft.to/lastmile_qr_scan", "android": "https://dc.lft.to/lastmile_qr_scan"}, "bike_id": "c5055ca92b8226f010d2f76ce3229c89", "lat": 38.872906, "name": "c5055ca92b8226f010d2f76ce3229c89", "lon": -77.00995166666667, "fusion_lon": 0.0}, {"is_reserved": 0, "type": "electric_scooter", "fusion_lat": 0.0, "is_disabled": 0, "rental_uris": {"ios": "https://dc.lft.to/lastmile_qr_scan", "android": "https://dc.lft.to/lastmile_qr_scan"}, "bike_id": "b5c814b4ca2d9c94584d7fc51315a429", "lat": 38.93007633333333, "name": "b5c814b4ca2d9c94584d7fc51315a429", "lon": -77.02111783333334, "fusion_lon": 0.0}, {"is_reserved": 0, "type": "electric_scooter", "fusion_lat": 0.0, "is_disabled": 0, "rental_uris": {"ios": "https://dc.lft.to/lastmile_qr_scan", "android": "https://dc.lft.to/lastmile_qr_scan"}, "bike_id": "31b7234ba7fd360939d7172f12a54a0c", "lat": 38.927535, "name": "31b7234ba7fd360939d7172f12a54a0c", "lon": -77.0212, "fusion_lon": 0.0}, {"is_reserved": 0, "type": "electric_scooter", "fusion_lat": 0.0, "is_disabled": 0, "rental_uris": {"ios": "https://dc.lft.to/lastmile_qr_scan", "android": "https://dc.lft.to/lastmile_qr_scan"}, "bike_id": "0da5a2e506f214441816204fc8ddaeaf", "lat": 38.90179883333333, "name": "0da5a2e506f214441816204fc8ddaeaf", "lon": -76.976727, "fusion_lon": 0.0}, {"is_reserved": 0, "type": "electric_scooter", "fusion_lat": 0.0, "is_disabled": 0, "rental_uris": {"ios": "https://dc.lft.to/lastmile_qr_scan", "android": "https://dc.lft.to/lastmile_qr_scan"}, "bike_id": "a8e66cca449ebc193f5d75303c3d79dc", "lat": 38.899569666666665, "name": "a8e66cca449ebc193f5d75303c3d79dc", "lon": -76.98563933333334, "fusion_lon": 0.0}, {"is_reserved": 0, "type": "electric_scooter", "fusion_lat": 0.0, "is_disabled": 0, "rental_uris": {"ios": "https://dc.lft.to/lastmile_qr_scan", "android": "https://dc.lft.to/lastmile_qr_scan"}, "bike_id": "fc613490f0c9653ea426b779c11dd95f", "lat": 38.92069333333333, "name": "fc613490f0c9653ea426b779c11dd95f", "lon": -77.043761, "fusion_lon": 0.0}, {"is_reserved": 0, "type": "electric_scooter", "fusion_lat": 0.0, "is_disabled": 0, "rental_uris": {"ios": "https://dc.lft.to/lastmile_qr_scan", "android": "https://dc.lft.to/lastmile_qr_scan"}, "bike_id": "fc4b8e04ffefedb4d9cdf6ca59a16c65", "lat": 38.8800685, "name": "fc4b8e04ffefedb4d9cdf6ca59a16c65", "lon": -76.99834566666667, "fusion_lon": 0.0}, {"is_reserved": 0, "type": "electric_scooter", "fusion_lat": 0.0, "is_disabled": 0, "rental_uris": {"ios": "https://dc.lft.to/lastmile_qr_scan", "android": "https://dc.lft.to/lastmile_qr_scan"}, "bike_id": "5c30b68573b29c99acf780f9d405a512", "lat": 38.90303633333333, "name": "5c30b68573b29c99acf780f9d405a512", "lon": -76.998421, "fusion_lon": 0.0}, {"is_reserved": 0, "type": "electric_scooter", "fusion_lat": 0.0, "is_disabled": 0, "rental_uris": {"ios": "https://dc.lft.to/lastmile_qr_scan", "android": "https://dc.lft.to/lastmile_qr_scan"}, "bike_id": "2b2418304a000d1565a769d92609f307", "lat": 38.8950965, "name": "2b2418304a000d1565a769d92609f307", "lon": -76.94880883333333, "fusion_lon": 0.0}, {"is_reserved": 0, "type": "electric_scooter", "fusion_lat": 0.0, "is_disabled": 0, "rental_uris": {"ios": "https://dc.lft.to/lastmile_qr_scan", "android": "https://dc.lft.to/lastmile_qr_scan"}, "bike_id": "f672213ab46520495d62d8310e4d23b1", "lat": 38.87394583333333, "name": "f672213ab46520495d62d8310e4d23b1", "lon": -76.9999265, "fusion_lon": 0.0}, {"is_reserved": 0, "type": "electric_scooter", "fusion_lat": 0.0, "is_disabled": 0, "rental_uris": {"ios": "https://dc.lft.to/lastmile_qr_scan", "android": "https://dc.lft.to/lastmile_qr_scan"}, "bike_id": "a8cc96f1918be265ccc2e40e56741062", "lat": 38.92457483333333, "name": "a8cc96f1918be265ccc2e40e56741062", "lon": -77.052335, "fusion_lon": 0.0}, {"is_reserved": 0, "type": "electric_scooter", "fusion_lat": 0.0, "is_disabled": 0, "rental_uris": {"ios": "https://dc.lft.to/lastmile_qr_scan", "android": "https://dc.lft.to/lastmile_qr_scan"}, "bike_id": "819e04bb3ad7d6fbc2c96b5ca7d262ba", "lat": 38.94069666666667, "name": "819e04bb3ad7d6fbc2c96b5ca7d262ba", "lon": -77.00392766666667, "fusion_lon": 0.0}, {"is_reserved": 0, "type": "electric_scooter", "fusion_lat": 0.0, "is_disabled": 0, "rental_uris": {"ios": "https://dc.lft.to/lastmile_qr_scan", "android": "https://dc.lft.to/lastmile_qr_scan"}, "bike_id": "818e86ad83d7f984e83a4e24b4c5fa71", "lat": 38.9057735, "name": "818e86ad83d7f984e83a4e24b4c5fa71", "lon": -77.0087095, "fusion_lon": 0.0}, {"is_reserved": 0, "type": "electric_scooter", "fusion_lat": 0.0, "is_disabled": 0, "rental_uris": {"ios": "https://dc.lft.to/lastmile_qr_scan", "android": "https://dc.lft.to/lastmile_qr_scan"}, "bike_id": "245b6725067c095ec4bc5b0ca1d2c8e2", "lat": 38.89294683333333, "name": "245b6725067c095ec4bc5b0ca1d2c8e2", "lon": -77.0123875, "fusion_lon": 0.0}, {"is_reserved": 0, "type": "electric_scooter", "fusion_lat": 0.0, "is_disabled": 0, "rental_uris": {"ios": "https://dc.lft.to/lastmile_qr_scan", "android": "https://dc.lft.to/lastmile_qr_scan"}, "bike_id": "7a1c04b373cac5d4c8d03ae40cf35ab9", "lat": 38.91369266666667, "name": "7a1c04b373cac5d4c8d03ae40cf35ab9", "lon": -77.04484116666667, "fusion_lon": 0.0}, {"is_reserved": 0, "type": "electric_scooter", "fusion_lat": 0.0, "is_disabled": 0, "rental_uris": {"ios": "https://dc.lft.to/lastmile_qr_scan", "android": "https://dc.lft.to/lastmile_qr_scan"}, "bike_id": "02f0f9c57e1948f00f91b47f11c56c56", "lat": 38.8871085, "name": "02f0f9c57e1948f00f91b47f11c56c56", "lon": -76.98380566666667, "fusion_lon": 0.0}, {"is_reserved": 0, "type": "electric_scooter", "fusion_lat": 0.0, "is_disabled": 0, "rental_uris": {"ios": "https://dc.lft.to/lastmile_qr_scan", "android": "https://dc.lft.to/lastmile_qr_scan"}, "bike_id": "dedb9ba215e3089e86ca9ec0e4e3a381", "lat": 38.93706666666667, "name": "dedb9ba215e3089e86ca9ec0e4e3a381", "lon": -77.0240135, "fusion_lon": 0.0}, {"is_reserved": 0, "type": "electric_scooter", "fusion_lat": 0.0, "is_disabled": 0, "rental_uris": {"ios": "https://dc.lft.to/lastmile_qr_scan", "android": "https://dc.lft.to/lastmile_qr_scan"}, "bike_id": "1a4212314c4c713c82c2d15ef89009c3", "lat": 38.90123883333333, "name": "1a4212314c4c713c82c2d15ef89009c3", "lon": -77.03988916666667, "fusion_lon": 0.0}, {"is_reserved": 0, "type": "electric_scooter", "fusion_lat": 0.0, "is_disabled": 0, "rental_uris": {"ios": "https://dc.lft.to/lastmile_qr_scan", "android": "https://dc.lft.to/lastmile_qr_scan"}, "bike_id": "b4c9d4c3b125afa52dc927c32f7b14de", "lat": 38.919813166666664, "name": "b4c9d4c3b125afa52dc927c32f7b14de", "lon": -77.02174033333333, "fusion_lon": 0.0}, {"is_reserved": 0, "type": "electric_scooter", "fusion_lat": 0.0, "is_disabled": 0, "rental_uris": {"ios": "https://dc.lft.to/lastmile_qr_scan", "android": "https://dc.lft.to/lastmile_qr_scan"}, "bike_id": "f6b4b2e1152874010d3240fc6e3fb809", "lat": 38.91518333333333, "name": "f6b4b2e1152874010d3240fc6e3fb809", "lon": -77.01221116666666, "fusion_lon": 0.0}, {"is_reserved": 0, "type": "electric_scooter", "fusion_lat": 0.0, "is_disabled": 0, "rental_uris": {"ios": "https://dc.lft.to/lastmile_qr_scan", "android": "https://dc.lft.to/lastmile_qr_scan"}, "bike_id": "39b4f5fcf158300a5441789b62371534", "lat": 38.92246316666667, "name": "39b4f5fcf158300a5441789b62371534", "lon": -77.01842433333333, "fusion_lon": 0.0}, {"is_reserved": 0, "type": "electric_scooter", "fusion_lat": 0.0, "is_disabled": 0, "rental_uris": {"ios": "https://dc.lft.to/lastmile_qr_scan", "android": "https://dc.lft.to/lastmile_qr_scan"}, "bike_id": "d5f4521382b80a2cd6b3c17391bde749", "lat": 38.92696433333333, "name": "d5f4521382b80a2cd6b3c17391bde749", "lon": -77.02417766666667, "fusion_lon": 0.0}, {"is_reserved": 0, "type": "electric_scooter", "fusion_lat": 0.0, "is_disabled": 0, "rental_uris": {"ios": "https://dc.lft.to/lastmile_qr_scan", "android": "https://dc.lft.to/lastmile_qr_scan"}, "bike_id": "47abd32680560201448aeacac5919395", "lat": 38.94700666666667, "name": "47abd32680560201448aeacac5919395", "lon": -77.03287816666666, "fusion_lon": 0.0}, {"is_reserved": 0, "type": "electric_scooter", "fusion_lat": 0.0, "is_disabled": 0, "rental_uris": {"ios": "https://dc.lft.to/lastmile_qr_scan", "android": "https://dc.lft.to/lastmile_qr_scan"}, "bike_id": "c7ac9dd3768c148dc26ff0a1149f16c1", "lat": 38.9240975, "name": "c7ac9dd3768c148dc26ff0a1149f16c1", "lon": -77.02011166666666, "fusion_lon": 0.0}, {"is_reserved": 0, "type": "electric_scooter", "fusion_lat": 0.0, "is_disabled": 0, "rental_uris": {"ios": "https://dc.lft.to/lastmile_qr_scan", "android": "https://dc.lft.to/lastmile_qr_scan"}, "bike_id": "ca3c99a10614b770d565a7de1389db28", "lat": 38.924153833333335, "name": "ca3c99a10614b770d565a7de1389db28", "lon": -77.02030316666666, "fusion_lon": 0.0}, {"is_reserved": 0, "type": "electric_bike", "fusion_lat": 0.0, "is_disabled": 0, "rental_uris": {"ios": "https://dc.lft.to/lastmile_qr_scan", "android": "https://dc.lft.to/lastmile_qr_scan"}, "bike_id": "a6f1223527f154a613479d7ae26fe0bc", "lat": 38.843162, "name": "a6f1223527f154a613479d7ae26fe0bc", "lon": -76.98847533333333, "fusion_lon": 0.0}, {"is_reserved": 0, "type": "electric_scooter", "fusion_lat": 0.0, "is_disabled": 0, "rental_uris": {"ios": "https://dc.lft.to/lastmile_qr_scan", "android": "https://dc.lft.to/lastmile_qr_scan"}, "bike_id": "fc1402e972fe414b2c92148d8d30a2eb", "lat": 38.90723466666667, "name": "fc1402e972fe414b2c92148d8d30a2eb", "lon": -77.0147545, "fusion_lon": 0.0}, {"is_reserved": 0, "type": "electric_scooter", "fusion_lat": 0.0, "is_disabled": 0, "rental_uris": {"ios": "https://dc.lft.to/lastmile_qr_scan", "android": "https://dc.lft.to/lastmile_qr_scan"}, "bike_id": "e0b3725a23c1f1457bb0a272f33b942c", "lat": 38.83381983333334, "name": "e0b3725a23c1f1457bb0a272f33b942c", "lon": -77.00302716666667, "fusion_lon": 0.0}, {"is_reserved": 0, "type": "electric_scooter", "fusion_lat": 0.0, "is_disabled": 0, "rental_uris": {"ios": "https://dc.lft.to/lastmile_qr_scan", "android": "https://dc.lft.to/lastmile_qr_scan"}, "bike_id": "9eda2a61c350e8c5f43ddbcb6fbe103b", "lat": 38.9294435, "name": "9eda2a61c350e8c5f43ddbcb6fbe103b", "lon": -76.99088133333333, "fusion_lon": 0.0}, {"is_reserved": 0, "type": "electric_scooter", "fusion_lat": 0.0, "is_disabled": 0, "rental_uris": {"ios": "https://dc.lft.to/lastmile_qr_scan", "android": "https://dc.lft.to/lastmile_qr_scan"}, "bike_id": "efaf522a6fb109f86c40816410c6a971", "lat": 38.928844833333336, "name": "efaf522a6fb109f86c40816410c6a971", "lon": -77.03331683333333, "fusion_lon": 0.0}, {"is_reserved": 0, "type": "electric_scooter", "fusion_lat": 0.0, "is_disabled": 0, "rental_uris": {"ios": "https://dc.lft.to/lastmile_qr_scan", "android": "https://dc.lft.to/lastmile_qr_scan"}, "bike_id": "4406b2673588a34155611479bf8ebc1d", "lat": 38.904123, "name": "4406b2673588a34155611479bf8ebc1d", "lon": -77.02396483333334, "fusion_lon": 0.0}, {"is_reserved": 0, "type": "electric_scooter", "fusion_lat": 0.0, "is_disabled": 0, "rental_uris": {"ios": "https://dc.lft.to/lastmile_qr_scan", "android": "https://dc.lft.to/lastmile_qr_scan"}, "bike_id": "d72f7534201cf8eca2c307c9c1d873a8", "lat": 38.9374845, "name": "d72f7534201cf8eca2c307c9c1d873a8", "lon": -77.03269583333334, "fusion_lon": 0.0}, {"is_reserved": 0, "type": "electric_bike", "fusion_lat": 0.0, "is_disabled": 0, "rental_uris": {"ios": "https://dc.lft.to/lastmile_qr_scan", "android": "https://dc.lft.to/lastmile_qr_scan"}, "bike_id": "8e503068f415ff0a141feb2b334847f2", "lat": 38.83607116666667, "name": "8e503068f415ff0a141feb2b334847f2", "lon": -77.003785, "fusion_lon": 0.0}, {"is_reserved": 0, "type": "electric_scooter", "fusion_lat": 0.0, "is_disabled": 0, "rental_uris": {"ios": "https://dc.lft.to/lastmile_qr_scan", "android": "https://dc.lft.to/lastmile_qr_scan"}, "bike_id": "6fa947a3d78a48e964fa3522a2fae4b0", "lat": 38.895516666666666, "name": "6fa947a3d78a48e964fa3522a2fae4b0", "lon": -77.02684483333333, "fusion_lon": 0.0}, {"is_reserved": 0, "type": "electric_scooter", "fusion_lat": 0.0, "is_disabled": 0, "rental_uris": {"ios": "https://dc.lft.to/lastmile_qr_scan", "android": "https://dc.lft.to/lastmile_qr_scan"}, "bike_id": "ff32ef982cdd005fa05f0da8dcb3d9e7", "lat": 38.918741, "name": "ff32ef982cdd005fa05f0da8dcb3d9e7", "lon": -77.04486, "fusion_lon": 0.0}, {"is_reserved": 0, "type": "electric_scooter", "fusion_lat": 0.0, "is_disabled": 0, "rental_uris": {"ios": "https://dc.lft.to/lastmile_qr_scan", "android": "https://dc.lft.to/lastmile_qr_scan"}, "bike_id": "982862b499bfa61788e1a9d599bfcf23", "lat": 38.8940365, "name": "982862b499bfa61788e1a9d599bfcf23", "lon": -76.9996255, "fusion_lon": 0.0}, {"is_reserved": 0, "type": "electric_scooter", "fusion_lat": 0.0, "is_disabled": 0, "rental_uris": {"ios": "https://dc.lft.to/lastmile_qr_scan", "android": "https://dc.lft.to/lastmile_qr_scan"}, "bike_id": "13b3730d9a57c73df699229accbaae91", "lat": 38.956305, "name": "13b3730d9a57c73df699229accbaae91", "lon": -77.02431666666666, "fusion_lon": 0.0}, {"is_reserved": 0, "type": "electric_scooter", "fusion_lat": 0.0, "is_disabled": 0, "rental_uris": {"ios": "https://dc.lft.to/lastmile_qr_scan", "android": "https://dc.lft.to/lastmile_qr_scan"}, "bike_id": "ecce1df418242610c8875a1e6dcdc696", "lat": 38.96215466666666, "name": "ecce1df418242610c8875a1e6dcdc696", "lon": -77.02239566666667, "fusion_lon": 0.0}, {"is_reserved": 0, "type": "electric_scooter", "fusion_lat": 0.0, "is_disabled": 0, "rental_uris": {"ios": "https://dc.lft.to/lastmile_qr_scan", "android": "https://dc.lft.to/lastmile_qr_scan"}, "bike_id": "c1d8decef9376108f702b497e19f299d", "lat": 38.918935, "name": "c1d8decef9376108f702b497e19f299d", "lon": -77.0447085, "fusion_lon": 0.0}, {"is_reserved": 0, "type": "electric_scooter", "fusion_lat": 0.0, "is_disabled": 0, "rental_uris": {"ios": "https://dc.lft.to/lastmile_qr_scan", "android": "https://dc.lft.to/lastmile_qr_scan"}, "bike_id": "b2e935d846babd2122b8b68accb79689", "lat": 38.8947935, "name": "b2e935d846babd2122b8b68accb79689", "lon": -77.04536466666667, "fusion_lon": 0.0}, {"is_reserved": 0, "type": "electric_bike", "fusion_lat": 0.0, "is_disabled": 0, "rental_uris": {"ios": "https://dc.lft.to/lastmile_qr_scan", "android": "https://dc.lft.to/lastmile_qr_scan"}, "bike_id": "85f7f14da719eab90a590953ddf899a2", "lat": 38.93626733333333, "name": "85f7f14da719eab90a590953ddf899a2", "lon": -77.0635065, "fusion_lon": 0.0}, {"is_reserved": 0, "type": "electric_scooter", "fusion_lat": 0.0, "is_disabled": 0, "rental_uris": {"ios": "https://dc.lft.to/lastmile_qr_scan", "android": "https://dc.lft.to/lastmile_qr_scan"}, "bike_id": "18e3a92892fe63c1900437ccc28a2f00", "lat": 38.89714133333333, "name": "18e3a92892fe63c1900437ccc28a2f00", "lon": -77.0269575, "fusion_lon": 0.0}, {"is_reserved": 0, "type": "electric_scooter", "fusion_lat": 0.0, "is_disabled": 0, "rental_uris": {"ios": "https://dc.lft.to/lastmile_qr_scan", "android": "https://dc.lft.to/lastmile_qr_scan"}, "bike_id": "6607766577835fe1c7fa5e520b7340fe", "lat": 38.893229166666664, "name": "6607766577835fe1c7fa5e520b7340fe", "lon": -77.01986633333334, "fusion_lon": 0.0}, {"is_reserved": 0, "type": "electric_scooter", "fusion_lat": 0.0, "is_disabled": 0, "rental_uris": {"ios": "https://dc.lft.to/lastmile_qr_scan", "android": "https://dc.lft.to/lastmile_qr_scan"}, "bike_id": "e53e81085fe47830d602447f93df7abd", "lat": 38.9040165, "name": "e53e81085fe47830d602447f93df7abd", "lon": -77.0205925, "fusion_lon": 0.0}, {"is_reserved": 0, "type": "electric_scooter", "fusion_lat": 0.0, "is_disabled": 0, "rental_uris": {"ios": "https://dc.lft.to/lastmile_qr_scan", "android": "https://dc.lft.to/lastmile_qr_scan"}, "bike_id": "d46e0f5c754da889f003a24ffc19070c", "lat": 38.932367, "name": "d46e0f5c754da889f003a24ffc19070c", "lon": -77.02670616666667, "fusion_lon": 0.0}, {"is_reserved": 0, "type": "electric_scooter", "fusion_lat": 0.0, "is_disabled": 0, "rental_uris": {"ios": "https://dc.lft.to/lastmile_qr_scan", "android": "https://dc.lft.to/lastmile_qr_scan"}, "bike_id": "62e4e576182ce1dd880b5be7b90158bb", "lat": 38.90700133333333, "name": "62e4e576182ce1dd880b5be7b90158bb", "lon": -76.999483, "fusion_lon": 0.0}, {"is_reserved": 0, "type": "electric_scooter", "fusion_lat": 0.0, "is_disabled": 0, "rental_uris": {"ios": "https://dc.lft.to/lastmile_qr_scan", "android": "https://dc.lft.to/lastmile_qr_scan"}, "bike_id": "ede2d90b3704551a0bf54502ccb68ebd", "lat": 38.89412683333333, "name": "ede2d90b3704551a0bf54502ccb68ebd", "lon": -77.010834, "fusion_lon": 0.0}, {"is_reserved": 0, "type": "electric_bike", "fusion_lat": 0.0, "is_disabled": 0, "rental_uris": {"ios": "https://dc.lft.to/lastmile_qr_scan", "android": "https://dc.lft.to/lastmile_qr_scan"}, "bike_id": "b8e925706d53ca613efd8489f4d96b3a", "lat": 38.9295065, "name": "b8e925706d53ca613efd8489f4d96b3a", "lon": -76.97564166666666, "fusion_lon": 0.0}, {"is_reserved": 0, "type": "electric_scooter", "fusion_lat": 0.0, "is_disabled": 0, "rental_uris": {"ios": "https://dc.lft.to/lastmile_qr_scan", "android": "https://dc.lft.to/lastmile_qr_scan"}, "bike_id": "87b9253d855231f4b3f4feb7c7de0a96", "lat": 38.90358533333333, "name": "87b9253d855231f4b3f4feb7c7de0a96", "lon": -77.04248733333333, "fusion_lon": 0.0}, {"is_reserved": 0, "type": "electric_bike", "fusion_lat": 0.0, "is_disabled": 0, "rental_uris": {"ios": "https://dc.lft.to/lastmile_qr_scan", "android": "https://dc.lft.to/lastmile_qr_scan"}, "bike_id": "6e4cdee199243427599c356422eae20e", "lat": 38.872675666666666, "name": "6e4cdee199243427599c356422eae20e", "lon": -76.97565733333333, "fusion_lon": 0.0}, {"is_reserved": 0, "type": "electric_scooter", "fusion_lat": 0.0, "is_disabled": 0, "rental_uris": {"ios": "https://dc.lft.to/lastmile_qr_scan", "android": "https://dc.lft.to/lastmile_qr_scan"}, "bike_id": "f08a581d16b5f278866fea4285f3847b", "lat": 38.902394666666666, "name": "f08a581d16b5f278866fea4285f3847b", "lon": -77.00198266666666, "fusion_lon": 0.0}, {"is_reserved": 0, "type": "electric_bike", "fusion_lat": 0.0, "is_disabled": 0, "rental_uris": {"ios": "https://dc.lft.to/lastmile_qr_scan", "android": "https://dc.lft.to/lastmile_qr_scan"}, "bike_id": "0b33ab1d35f9d6938dfc4f2c58d64294", "lat": 38.80483683333333, "name": "0b33ab1d35f9d6938dfc4f2c58d64294", "lon": -76.99107633333334, "fusion_lon": 0.0}, {"is_reserved": 0, "type": "electric_scooter", "fusion_lat": 0.0, "is_disabled": 0, "rental_uris": {"ios": "https://dc.lft.to/lastmile_qr_scan", "android": "https://dc.lft.to/lastmile_qr_scan"}, "bike_id": "69f14058a01e7e2807c1b5fa4402f722", "lat": 38.901425833333334, "name": "69f14058a01e7e2807c1b5fa4402f722", "lon": -77.01691666666666, "fusion_lon": 0.0}, {"is_reserved": 0, "type": "electric_bike", "fusion_lat": 0.0, "is_disabled": 0, "rental_uris": {"ios": "https://dc.lft.to/lastmile_qr_scan", "android": "https://dc.lft.to/lastmile_qr_scan"}, "bike_id": "c3db663b015b3a50fe82559fcb199e86", "lat": 38.83065716666667, "name": "c3db663b015b3a50fe82559fcb199e86", "lon": -77.04078683333333, "fusion_lon": 0.0}, {"is_reserved": 0, "type": "electric_scooter", "fusion_lat": 0.0, "is_disabled": 0, "rental_uris": {"ios": "https://dc.lft.to/lastmile_qr_scan", "android": "https://dc.lft.to/lastmile_qr_scan"}, "bike_id": "b6e620110b00eb67a626bc4ebc546db7", "lat": 38.8986385, "name": "b6e620110b00eb67a626bc4ebc546db7", "lon": -76.94638433333333, "fusion_lon": 0.0}, {"is_reserved": 0, "type": "electric_scooter", "fusion_lat": 0.0, "is_disabled": 0, "rental_uris": {"ios": "https://dc.lft.to/lastmile_qr_scan", "android": "https://dc.lft.to/lastmile_qr_scan"}, "bike_id": "972740e327293e33d0cf799f7293191c", "lat": 38.917723, "name": "972740e327293e33d0cf799f7293191c", "lon": -77.04038, "fusion_lon": 0.0}, {"is_reserved": 0, "type": "electric_scooter", "fusion_lat": 0.0, "is_disabled": 0, "rental_uris": {"ios": "https://dc.lft.to/lastmile_qr_scan", "android": "https://dc.lft.to/lastmile_qr_scan"}, "bike_id": "e25da0d1fb9b2034ea452b474d3895bd", "lat": 38.91713016666667, "name": "e25da0d1fb9b2034ea452b474d3895bd", "lon": -77.02764816666667, "fusion_lon": 0.0}, {"is_reserved": 0, "type": "electric_scooter", "fusion_lat": 0.0, "is_disabled": 0, "rental_uris": {"ios": "https://dc.lft.to/lastmile_qr_scan", "android": "https://dc.lft.to/lastmile_qr_scan"}, "bike_id": "06b82a1ff8eccbc29da0f8378e6d3531", "lat": 38.87068466666667, "name": "06b82a1ff8eccbc29da0f8378e6d3531", "lon": -76.979394, "fusion_lon": 0.0}, {"is_reserved": 0, "type": "electric_scooter", "fusion_lat": 0.0, "is_disabled": 0, "rental_uris": {"ios": "https://dc.lft.to/lastmile_qr_scan", "android": "https://dc.lft.to/lastmile_qr_scan"}, "bike_id": "be02cd2e8d9cbbbd9e4a0b1a02893537", "lat": 38.90573216666667, "name": "be02cd2e8d9cbbbd9e4a0b1a02893537", "lon": -77.024069, "fusion_lon": 0.0}, {"is_reserved": 0, "type": "electric_scooter", "fusion_lat": 0.0, "is_disabled": 0, "rental_uris": {"ios": "https://dc.lft.to/lastmile_qr_scan", "android": "https://dc.lft.to/lastmile_qr_scan"}, "bike_id": "80584e8b58376d556f7ee481991f731b", "lat": 38.91113433333334, "name": "80584e8b58376d556f7ee481991f731b", "lon": -77.032639, "fusion_lon": 0.0}, {"is_reserved": 0, "type": "electric_scooter", "fusion_lat": 0.0, "is_disabled": 0, "rental_uris": {"ios": "https://dc.lft.to/lastmile_qr_scan", "android": "https://dc.lft.to/lastmile_qr_scan"}, "bike_id": "8db43f1042cb3ad44fabd1bfa33a7bac", "lat": 38.900471333333336, "name": "8db43f1042cb3ad44fabd1bfa33a7bac", "lon": -77.03409116666667, "fusion_lon": 0.0}, {"is_reserved": 0, "type": "electric_scooter", "fusion_lat": 0.0, "is_disabled": 0, "rental_uris": {"ios": "https://dc.lft.to/lastmile_qr_scan", "android": "https://dc.lft.to/lastmile_qr_scan"}, "bike_id": "d2e83cdf68210d4448877c5823184c18", "lat": 38.90833466666667, "name": "d2e83cdf68210d4448877c5823184c18", "lon": -76.9970175, "fusion_lon": 0.0}, {"is_reserved": 0, "type": "electric_bike", "fusion_lat": 0.0, "is_disabled": 0, "rental_uris": {"ios": "https://dc.lft.to/lastmile_qr_scan", "android": "https://dc.lft.to/lastmile_qr_scan"}, "bike_id": "63136a1cb98aeb3b1baa8855d0fd4fab", "lat": 39.003891833333334, "name": "63136a1cb98aeb3b1baa8855d0fd4fab", "lon": -77.0128585, "fusion_lon": 0.0}, {"is_reserved": 0, "type": "electric_scooter", "fusion_lat": 0.0, "is_disabled": 0, "rental_uris": {"ios": "https://dc.lft.to/lastmile_qr_scan", "android": "https://dc.lft.to/lastmile_qr_scan"}, "bike_id": "60460e632508f3ad615ef27896130861", "lat": 38.903398833333334, "name": "60460e632508f3ad615ef27896130861", "lon": -77.02578533333333, "fusion_lon": 0.0}, {"is_reserved": 0, "type": "electric_scooter", "fusion_lat": 0.0, "is_disabled": 0, "rental_uris": {"ios": "https://dc.lft.to/lastmile_qr_scan", "android": "https://dc.lft.to/lastmile_qr_scan"}, "bike_id": "b635073bf24e6cfc6fecb0c455311886", "lat": 38.935661333333336, "name": "b635073bf24e6cfc6fecb0c455311886", "lon": -77.028558, "fusion_lon": 0.0}, {"is_reserved": 0, "type": "electric_scooter", "fusion_lat": 0.0, "is_disabled": 0, "rental_uris": {"ios": "https://dc.lft.to/lastmile_qr_scan", "android": "https://dc.lft.to/lastmile_qr_scan"}, "bike_id": "b45f5fcd8f2c8c87bda9bd4e3e3c1805", "lat": 38.897334666666666, "name": "b45f5fcd8f2c8c87bda9bd4e3e3c1805", "lon": -77.04424533333334, "fusion_lon": 0.0}, {"is_reserved": 0, "type": "electric_scooter", "fusion_lat": 0.0, "is_disabled": 0, "rental_uris": {"ios": "https://dc.lft.to/lastmile_qr_scan", "android": "https://dc.lft.to/lastmile_qr_scan"}, "bike_id": "a31a97e140b1ec6460fdd019056014c2", "lat": 38.90571116666667, "name": "a31a97e140b1ec6460fdd019056014c2", "lon": -77.06115483333333, "fusion_lon": 0.0}, {"is_reserved": 0, "type": "electric_scooter", "fusion_lat": 0.0, "is_disabled": 0, "rental_uris": {"ios": "https://dc.lft.to/lastmile_qr_scan", "android": "https://dc.lft.to/lastmile_qr_scan"}, "bike_id": "070139e2b970df28d6163bde0132c988", "lat": 38.920359166666664, "name": "070139e2b970df28d6163bde0132c988", "lon": -77.040994, "fusion_lon": 0.0}, {"is_reserved": 0, "type": "electric_bike", "fusion_lat": 0.0, "is_disabled": 0, "rental_uris": {"ios": "https://dc.lft.to/lastmile_qr_scan", "android": "https://dc.lft.to/lastmile_qr_scan"}, "bike_id": "a9891155b8524274e80a6182d9016ac9", "lat": 38.888769833333335, "name": "a9891155b8524274e80a6182d9016ac9", "lon": -76.95697133333333, "fusion_lon": 0.0}, {"is_reserved": 0, "type": "electric_scooter", "fusion_lat": 0.0, "is_disabled": 0, "rental_uris": {"ios": "https://dc.lft.to/lastmile_qr_scan", "android": "https://dc.lft.to/lastmile_qr_scan"}, "bike_id": "1e17eab18e73da90043727040eed04ed", "lat": 38.915535166666665, "name": "1e17eab18e73da90043727040eed04ed", "lon": -77.03252833333333, "fusion_lon": 0.0}, {"is_reserved": 0, "type": "electric_scooter", "fusion_lat": 0.0, "is_disabled": 0, "rental_uris": {"ios": "https://dc.lft.to/lastmile_qr_scan", "android": "https://dc.lft.to/lastmile_qr_scan"}, "bike_id": "9d4a5d60146dc6b7ad73ca04586017f9", "lat": 38.90785116666667, "name": "9d4a5d60146dc6b7ad73ca04586017f9", "lon": -76.98325883333334, "fusion_lon": 0.0}, {"is_reserved": 0, "type": "electric_scooter", "fusion_lat": 0.0, "is_disabled": 0, "rental_uris": {"ios": "https://dc.lft.to/lastmile_qr_scan", "android": "https://dc.lft.to/lastmile_qr_scan"}, "bike_id": "5064ada25d9b2648a81d8e76a529584b", "lat": 38.915182333333334, "name": "5064ada25d9b2648a81d8e76a529584b", "lon": -77.07274883333334, "fusion_lon": 0.0}, {"is_reserved": 0, "type": "electric_bike", "fusion_lat": 0.0, "is_disabled": 0, "rental_uris": {"ios": "https://dc.lft.to/lastmile_qr_scan", "android": "https://dc.lft.to/lastmile_qr_scan"}, "bike_id": "5c4bf06c7c19894ef259833d601cef5e", "lat": 38.87953866666667, "name": "5c4bf06c7c19894ef259833d601cef5e", "lon": -76.93198383333333, "fusion_lon": 0.0}, {"is_reserved": 0, "type": "electric_scooter", "fusion_lat": 0.0, "is_disabled": 0, "rental_uris": {"ios": "https://dc.lft.to/lastmile_qr_scan", "android": "https://dc.lft.to/lastmile_qr_scan"}, "bike_id": "7e210bd501625ba0c5492318639c3ee7", "lat": 38.92372316666667, "name": "7e210bd501625ba0c5492318639c3ee7", "lon": -77.043265, "fusion_lon": 0.0}, {"is_reserved": 0, "type": "electric_scooter", "fusion_lat": 0.0, "is_disabled": 0, "rental_uris": {"ios": "https://dc.lft.to/lastmile_qr_scan", "android": "https://dc.lft.to/lastmile_qr_scan"}, "bike_id": "6dc0315a38c3ef799cd693818ba50b99", "lat": 38.90228833333333, "name": "6dc0315a38c3ef799cd693818ba50b99", "lon": -77.05132083333334, "fusion_lon": 0.0}, {"is_reserved": 0, "type": "electric_scooter", "fusion_lat": 0.0, "is_disabled": 0, "rental_uris": {"ios": "https://dc.lft.to/lastmile_qr_scan", "android": "https://dc.lft.to/lastmile_qr_scan"}, "bike_id": "637c01e354196ba87f1214aa0ec31936", "lat": 38.91984816666667, "name": "637c01e354196ba87f1214aa0ec31936", "lon": -77.02497433333333, "fusion_lon": 0.0}, {"is_reserved": 0, "type": "electric_scooter", "fusion_lat": 0.0, "is_disabled": 0, "rental_uris": {"ios": "https://dc.lft.to/lastmile_qr_scan", "android": "https://dc.lft.to/lastmile_qr_scan"}, "bike_id": "058b3644fd5ac264a7ac2997ad9ca7bf", "lat": 38.920995, "name": "058b3644fd5ac264a7ac2997ad9ca7bf", "lon": -77.0370895, "fusion_lon": 0.0}, {"is_reserved": 0, "type": "electric_scooter", "fusion_lat": 0.0, "is_disabled": 0, "rental_uris": {"ios": "https://dc.lft.to/lastmile_qr_scan", "android": "https://dc.lft.to/lastmile_qr_scan"}, "bike_id": "239ecbf830971fae0d2fdee77b071907", "lat": 38.92414433333333, "name": "239ecbf830971fae0d2fdee77b071907", "lon": -77.02030883333333, "fusion_lon": 0.0}, {"is_reserved": 0, "type": "electric_bike", "fusion_lat": 0.0, "is_disabled": 0, "rental_uris": {"ios": "https://dc.lft.to/lastmile_qr_scan", "android": "https://dc.lft.to/lastmile_qr_scan"}, "bike_id": "e5bd64693926f63925622bbde661c718", "lat": 38.846896, "name": "e5bd64693926f63925622bbde661c718", "lon": -76.9806715, "fusion_lon": 0.0}, {"is_reserved": 0, "type": "electric_scooter", "fusion_lat": 0.0, "is_disabled": 0, "rental_uris": {"ios": "https://dc.lft.to/lastmile_qr_scan", "android": "https://dc.lft.to/lastmile_qr_scan"}, "bike_id": "f551e714ce148a9fff4b6f167af0c86f", "lat": 38.90440366666667, "name": "f551e714ce148a9fff4b6f167af0c86f", "lon": -77.02858016666667, "fusion_lon": 0.0}, {"is_reserved": 0, "type": "electric_scooter", "fusion_lat": 0.0, "is_disabled": 0, "rental_uris": {"ios": "https://dc.lft.to/lastmile_qr_scan", "android": "https://dc.lft.to/lastmile_qr_scan"}, "bike_id": "7151de8cb380468f1d1e63a844d0e03a", "lat": 38.9252035, "name": "7151de8cb380468f1d1e63a844d0e03a", "lon": -76.99844, "fusion_lon": 0.0}, {"is_reserved": 0, "type": "electric_bike", "fusion_lat": 0.0, "is_disabled": 0, "rental_uris": {"ios": "https://dc.lft.to/lastmile_qr_scan", "android": "https://dc.lft.to/lastmile_qr_scan"}, "bike_id": "33a323a0c591363af71332b2bf5218f2", "lat": 38.887654833333336, "name": "33a323a0c591363af71332b2bf5218f2", "lon": -77.1565175, "fusion_lon": 0.0}, {"is_reserved": 0, "type": "electric_scooter", "fusion_lat": 0.0, "is_disabled": 0, "rental_uris": {"ios": "https://dc.lft.to/lastmile_qr_scan", "android": "https://dc.lft.to/lastmile_qr_scan"}, "bike_id": "b4992c4530f3c5ee6d7f98093ecce226", "lat": 38.91294083333333, "name": "b4992c4530f3c5ee6d7f98093ecce226", "lon": -76.98687166666667, "fusion_lon": 0.0}, {"is_reserved": 0, "type": "electric_scooter", "fusion_lat": 0.0, "is_disabled": 0, "rental_uris": {"ios": "https://dc.lft.to/lastmile_qr_scan", "android": "https://dc.lft.to/lastmile_qr_scan"}, "bike_id": "023c0d9491f0ca71c14431bfeca5c4cd", "lat": 38.906626, "name": "023c0d9491f0ca71c14431bfeca5c4cd", "lon": -77.07189683333333, "fusion_lon": 0.0}, {"is_reserved": 0, "type": "electric_scooter", "fusion_lat": 0.0, "is_disabled": 0, "rental_uris": {"ios": "https://dc.lft.to/lastmile_qr_scan", "android": "https://dc.lft.to/lastmile_qr_scan"}, "bike_id": "5ebdb1a07c7cf2b282f0e241126ea1ce", "lat": 38.908717, "name": "5ebdb1a07c7cf2b282f0e241126ea1ce", "lon": -77.0435995, "fusion_lon": 0.0}, {"is_reserved": 0, "type": "electric_scooter", "fusion_lat": 0.0, "is_disabled": 0, "rental_uris": {"ios": "https://dc.lft.to/lastmile_qr_scan", "android": "https://dc.lft.to/lastmile_qr_scan"}, "bike_id": "48d79f33c3755dca28c23ca2c90d7844", "lat": 38.920748333333336, "name": "48d79f33c3755dca28c23ca2c90d7844", "lon": -77.0419115, "fusion_lon": 0.0}, {"is_reserved": 0, "type": "electric_scooter", "fusion_lat": 0.0, "is_disabled": 0, "rental_uris": {"ios": "https://dc.lft.to/lastmile_qr_scan", "android": "https://dc.lft.to/lastmile_qr_scan"}, "bike_id": "a7ef7af50a304977e71512b33f418a1d", "lat": 38.91021716666667, "name": "a7ef7af50a304977e71512b33f418a1d", "lon": -77.02851733333334, "fusion_lon": 0.0}, {"is_reserved": 0, "type": "electric_scooter", "fusion_lat": 0.0, "is_disabled": 0, "rental_uris": {"ios": "https://dc.lft.to/lastmile_qr_scan", "android": "https://dc.lft.to/lastmile_qr_scan"}, "bike_id": "7c1c563c35097c240fd659a689588feb", "lat": 38.895482, "name": "7c1c563c35097c240fd659a689588feb", "lon": -77.02685033333333, "fusion_lon": 0.0}, {"is_reserved": 0, "type": "electric_scooter", "fusion_lat": 0.0, "is_disabled": 0, "rental_uris": {"ios": "https://dc.lft.to/lastmile_qr_scan", "android": "https://dc.lft.to/lastmile_qr_scan"}, "bike_id": "fd78ceba4656aad74cc29a2c76cf90ce", "lat": 38.90118983333333, "name": "fd78ceba4656aad74cc29a2c76cf90ce", "lon": -77.03828966666667, "fusion_lon": 0.0}, {"is_reserved": 0, "type": "electric_scooter", "fusion_lat": 0.0, "is_disabled": 0, "rental_uris": {"ios": "https://dc.lft.to/lastmile_qr_scan", "android": "https://dc.lft.to/lastmile_qr_scan"}, "bike_id": "8c016c8c33e6c158f62d24e5b147a88f", "lat": 38.9180345, "name": "8c016c8c33e6c158f62d24e5b147a88f", "lon": -77.04438733333333, "fusion_lon": 0.0}, {"is_reserved": 0, "type": "electric_scooter", "fusion_lat": 0.0, "is_disabled": 0, "rental_uris": {"ios": "https://dc.lft.to/lastmile_qr_scan", "android": "https://dc.lft.to/lastmile_qr_scan"}, "bike_id": "693cdebe7c12bbfa472cb59740aa24b2", "lat": 38.897726166666665, "name": "693cdebe7c12bbfa472cb59740aa24b2", "lon": -77.047932, "fusion_lon": 0.0}, {"is_reserved": 0, "type": "electric_bike", "fusion_lat": 0.0, "is_disabled": 0, "rental_uris": {"ios": "https://dc.lft.to/lastmile_qr_scan", "android": "https://dc.lft.to/lastmile_qr_scan"}, "bike_id": "81cc95a262fb4725933dd09b25e138d5", "lat": 38.90691866666667, "name": "81cc95a262fb4725933dd09b25e138d5", "lon": -76.9525635, "fusion_lon": 0.0}, {"is_reserved": 0, "type": "electric_scooter", "fusion_lat": 0.0, "is_disabled": 0, "rental_uris": {"ios": "https://dc.lft.to/lastmile_qr_scan", "android": "https://dc.lft.to/lastmile_qr_scan"}, "bike_id": "d9c0446e43d90588c48c81634a295605", "lat": 38.91604366666667, "name": "d9c0446e43d90588c48c81634a295605", "lon": -77.0318415, "fusion_lon": 0.0}, {"is_reserved": 0, "type": "electric_scooter", "fusion_lat": 0.0, "is_disabled": 0, "rental_uris": {"ios": "https://dc.lft.to/lastmile_qr_scan", "android": "https://dc.lft.to/lastmile_qr_scan"}, "bike_id": "3b9e013441ac5f13c0d5757b56392a73", "lat": 38.905333666666664, "name": "3b9e013441ac5f13c0d5757b56392a73", "lon": -77.05722383333334, "fusion_lon": 0.0}, {"is_reserved": 0, "type": "electric_scooter", "fusion_lat": 0.0, "is_disabled": 0, "rental_uris": {"ios": "https://dc.lft.to/lastmile_qr_scan", "android": "https://dc.lft.to/lastmile_qr_scan"}, "bike_id": "3c71442c096da1267d842cc21a6d3c43", "lat": 38.921768, "name": "3c71442c096da1267d842cc21a6d3c43", "lon": -77.03840483333333, "fusion_lon": 0.0}, {"is_reserved": 0, "type": "electric_scooter", "fusion_lat": 0.0, "is_disabled": 0, "rental_uris": {"ios": "https://dc.lft.to/lastmile_qr_scan", "android": "https://dc.lft.to/lastmile_qr_scan"}, "bike_id": "9326d3842e3fa7e756ba7648e57835b9", "lat": 38.895571333333336, "name": "9326d3842e3fa7e756ba7648e57835b9", "lon": -77.03956516666666, "fusion_lon": 0.0}, {"is_reserved": 0, "type": "electric_bike", "fusion_lat": 0.0, "is_disabled": 0, "rental_uris": {"ios": "https://dc.lft.to/lastmile_qr_scan", "android": "https://dc.lft.to/lastmile_qr_scan"}, "bike_id": "5ee282787b721461f5dd1ffd7f4137a3", "lat": 38.86554183333333, "name": "5ee282787b721461f5dd1ffd7f4137a3", "lon": -76.94155183333334, "fusion_lon": 0.0}, {"is_reserved": 0, "type": "electric_scooter", "fusion_lat": 0.0, "is_disabled": 0, "rental_uris": {"ios": "https://dc.lft.to/lastmile_qr_scan", "android": "https://dc.lft.to/lastmile_qr_scan"}, "bike_id": "006fda905cd869d9bcc71f055149b03c", "lat": 38.901424166666665, "name": "006fda905cd869d9bcc71f055149b03c", "lon": -76.93160666666667, "fusion_lon": 0.0}, {"is_reserved": 0, "type": "electric_scooter", "fusion_lat": 0.0, "is_disabled": 0, "rental_uris": {"ios": "https://dc.lft.to/lastmile_qr_scan", "android": "https://dc.lft.to/lastmile_qr_scan"}, "bike_id": "0ca124d45bbfa17c558c805fb54cb7b1", "lat": 38.90636716666667, "name": "0ca124d45bbfa17c558c805fb54cb7b1", "lon": -77.06911066666666, "fusion_lon": 0.0}, {"is_reserved": 0, "type": "electric_scooter", "fusion_lat": 0.0, "is_disabled": 0, "rental_uris": {"ios": "https://dc.lft.to/lastmile_qr_scan", "android": "https://dc.lft.to/lastmile_qr_scan"}, "bike_id": "db10dd2a8fc50a45c252dffa3edc6d86", "lat": 38.913509833333336, "name": "db10dd2a8fc50a45c252dffa3edc6d86", "lon": -77.04353383333333, "fusion_lon": 0.0}, {"is_reserved": 0, "type": "electric_scooter", "fusion_lat": 0.0, "is_disabled": 0, "rental_uris": {"ios": "https://dc.lft.to/lastmile_qr_scan", "android": "https://dc.lft.to/lastmile_qr_scan"}, "bike_id": "6c7c0b395e1a4ee1ca92815288b198b6", "lat": 38.912455666666666, "name": "6c7c0b395e1a4ee1ca92815288b198b6", "lon": -76.98670916666667, "fusion_lon": 0.0}, {"is_reserved": 0, "type": "electric_scooter", "fusion_lat": 0.0, "is_disabled": 0, "rental_uris": {"ios": "https://dc.lft.to/lastmile_qr_scan", "android": "https://dc.lft.to/lastmile_qr_scan"}, "bike_id": "4294926b6da178ff13849b8f5587e9e8", "lat": 38.966199, "name": "4294926b6da178ff13849b8f5587e9e8", "lon": -77.0200415, "fusion_lon": 0.0}, {"is_reserved": 0, "type": "electric_scooter", "fusion_lat": 0.0, "is_disabled": 0, "rental_uris": {"ios": "https://dc.lft.to/lastmile_qr_scan", "android": "https://dc.lft.to/lastmile_qr_scan"}, "bike_id": "527f22cd96704db09777a713a5cb9f01", "lat": 38.91072666666667, "name": "527f22cd96704db09777a713a5cb9f01", "lon": -77.0161, "fusion_lon": 0.0}, {"is_reserved": 0, "type": "electric_scooter", "fusion_lat": 0.0, "is_disabled": 0, "rental_uris": {"ios": "https://dc.lft.to/lastmile_qr_scan", "android": "https://dc.lft.to/lastmile_qr_scan"}, "bike_id": "82815da02c437a4f4e4a2e0ba0859a22", "lat": 38.90477533333333, "name": "82815da02c437a4f4e4a2e0ba0859a22", "lon": -77.0611605, "fusion_lon": 0.0}, {"is_reserved": 0, "type": "electric_scooter", "fusion_lat": 0.0, "is_disabled": 0, "rental_uris": {"ios": "https://dc.lft.to/lastmile_qr_scan", "android": "https://dc.lft.to/lastmile_qr_scan"}, "bike_id": "5b43be310cd45ea24cde149596b71c42", "lat": 38.90362433333333, "name": "5b43be310cd45ea24cde149596b71c42", "lon": -77.06011733333334, "fusion_lon": 0.0}, {"is_reserved": 0, "type": "electric_scooter", "fusion_lat": 0.0, "is_disabled": 0, "rental_uris": {"ios": "https://dc.lft.to/lastmile_qr_scan", "android": "https://dc.lft.to/lastmile_qr_scan"}, "bike_id": "50a594a4b36b431ba8539f184a2b34d2", "lat": 38.92421266666667, "name": "50a594a4b36b431ba8539f184a2b34d2", "lon": -77.020225, "fusion_lon": 0.0}, {"is_reserved": 0, "type": "electric_scooter", "fusion_lat": 0.0, "is_disabled": 0, "rental_uris": {"ios": "https://dc.lft.to/lastmile_qr_scan", "android": "https://dc.lft.to/lastmile_qr_scan"}, "bike_id": "e0d67d8ce950ccf54893d2b34985068a", "lat": 38.87660416666667, "name": "e0d67d8ce950ccf54893d2b34985068a", "lon": -77.008116, "fusion_lon": 0.0}, {"is_reserved": 0, "type": "electric_scooter", "fusion_lat": 0.0, "is_disabled": 0, "rental_uris": {"ios": "https://dc.lft.to/lastmile_qr_scan", "android": "https://dc.lft.to/lastmile_qr_scan"}, "bike_id": "22446f94e8cb67293afd17adacd302fa", "lat": 38.885267666666664, "name": "22446f94e8cb67293afd17adacd302fa", "lon": -76.98051833333334, "fusion_lon": 0.0}, {"is_reserved": 0, "type": "electric_scooter", "fusion_lat": 0.0, "is_disabled": 0, "rental_uris": {"ios": "https://dc.lft.to/lastmile_qr_scan", "android": "https://dc.lft.to/lastmile_qr_scan"}, "bike_id": "91008b5a964e3756bdb0d138be581745", "lat": 38.915624666666666, "name": "91008b5a964e3756bdb0d138be581745", "lon": -77.04094366666666, "fusion_lon": 0.0}, {"is_reserved": 0, "type": "electric_scooter", "fusion_lat": 0.0, "is_disabled": 0, "rental_uris": {"ios": "https://dc.lft.to/lastmile_qr_scan", "android": "https://dc.lft.to/lastmile_qr_scan"}, "bike_id": "d2eb06afef61fc046ef0025784452ab2", "lat": 38.921283, "name": "d2eb06afef61fc046ef0025784452ab2", "lon": -77.04423116666666, "fusion_lon": 0.0}, {"is_reserved": 0, "type": "electric_bike", "fusion_lat": 0.0, "is_disabled": 0, "rental_uris": {"ios": "https://dc.lft.to/lastmile_qr_scan", "android": "https://dc.lft.to/lastmile_qr_scan"}, "bike_id": "beceb89b8e06028c8d984357dd4bbd0b", "lat": 38.90379683333333, "name": "beceb89b8e06028c8d984357dd4bbd0b", "lon": -76.93757733333334, "fusion_lon": 0.0}, {"is_reserved": 0, "type": "electric_bike", "fusion_lat": 0.0, "is_disabled": 0, "rental_uris": {"ios": "https://dc.lft.to/lastmile_qr_scan", "android": "https://dc.lft.to/lastmile_qr_scan"}, "bike_id": "403a8db12190b6f8245acf8bfa378239", "lat": 38.83867083333333, "name": "403a8db12190b6f8245acf8bfa378239", "lon": -76.99697183333333, "fusion_lon": 0.0}, {"is_reserved": 0, "type": "electric_scooter", "fusion_lat": 0.0, "is_disabled": 0, "rental_uris": {"ios": "https://dc.lft.to/lastmile_qr_scan", "android": "https://dc.lft.to/lastmile_qr_scan"}, "bike_id": "440e725691ab7e7fb1326e4b2beffd09", "lat": 38.899379833333334, "name": "440e725691ab7e7fb1326e4b2beffd09", "lon": -77.05403483333333, "fusion_lon": 0.0}, {"is_reserved": 0, "type": "electric_scooter", "fusion_lat": 0.0, "is_disabled": 0, "rental_uris": {"ios": "https://dc.lft.to/lastmile_qr_scan", "android": "https://dc.lft.to/lastmile_qr_scan"}, "bike_id": "dda0d98863332cbd268fbc2b69965022", "lat": 38.936091, "name": "dda0d98863332cbd268fbc2b69965022", "lon": -77.0559325, "fusion_lon": 0.0}, {"is_reserved": 0, "type": "electric_scooter", "fusion_lat": 0.0, "is_disabled": 0, "rental_uris": {"ios": "https://dc.lft.to/lastmile_qr_scan", "android": "https://dc.lft.to/lastmile_qr_scan"}, "bike_id": "1ebae53a9f13b2c9dde47e00ad554367", "lat": 38.887113166666666, "name": "1ebae53a9f13b2c9dde47e00ad554367", "lon": -76.98382983333333, "fusion_lon": 0.0}, {"is_reserved": 0, "type": "electric_scooter", "fusion_lat": 0.0, "is_disabled": 0, "rental_uris": {"ios": "https://dc.lft.to/lastmile_qr_scan", "android": "https://dc.lft.to/lastmile_qr_scan"}, "bike_id": "eb732918de655c9bccf85571fa0f8fb0", "lat": 38.92613683333333, "name": "eb732918de655c9bccf85571fa0f8fb0", "lon": -77.02416583333333, "fusion_lon": 0.0}, {"is_reserved": 0, "type": "electric_scooter", "fusion_lat": 0.0, "is_disabled": 0, "rental_uris": {"ios": "https://dc.lft.to/lastmile_qr_scan", "android": "https://dc.lft.to/lastmile_qr_scan"}, "bike_id": "fddb33ba89c455eda88754f675961eff", "lat": 38.87471016666667, "name": "fddb33ba89c455eda88754f675961eff", "lon": -77.00533733333333, "fusion_lon": 0.0}, {"is_reserved": 0, "type": "electric_scooter", "fusion_lat": 0.0, "is_disabled": 0, "rental_uris": {"ios": "https://dc.lft.to/lastmile_qr_scan", "android": "https://dc.lft.to/lastmile_qr_scan"}, "bike_id": "9548eedcb4f384eddca4d240a6339f6d", "lat": 38.9247965, "name": "9548eedcb4f384eddca4d240a6339f6d", "lon": -77.02237366666667, "fusion_lon": 0.0}, {"is_reserved": 0, "type": "electric_scooter", "fusion_lat": 0.0, "is_disabled": 0, "rental_uris": {"ios": "https://dc.lft.to/lastmile_qr_scan", "android": "https://dc.lft.to/lastmile_qr_scan"}, "bike_id": "a53f06922129edf830644bd251fe6cdc", "lat": 38.915659833333336, "name": "a53f06922129edf830644bd251fe6cdc", "lon": -77.03117316666666, "fusion_lon": 0.0}, {"is_reserved": 0, "type": "electric_scooter", "fusion_lat": 0.0, "is_disabled": 0, "rental_uris": {"ios": "https://dc.lft.to/lastmile_qr_scan", "android": "https://dc.lft.to/lastmile_qr_scan"}, "bike_id": "ff7ff5dfd481437fea93e0eb311c7a78", "lat": 38.901828333333334, "name": "ff7ff5dfd481437fea93e0eb311c7a78", "lon": -76.97669066666667, "fusion_lon": 0.0}, {"is_reserved": 0, "type": "electric_scooter", "fusion_lat": 0.0, "is_disabled": 0, "rental_uris": {"ios": "https://dc.lft.to/lastmile_qr_scan", "android": "https://dc.lft.to/lastmile_qr_scan"}, "bike_id": "644b600792638c944c36bd04e66d0093", "lat": 38.896052166666664, "name": "644b600792638c944c36bd04e66d0093", "lon": -77.02757866666667, "fusion_lon": 0.0}, {"is_reserved": 0, "type": "electric_scooter", "fusion_lat": 0.0, "is_disabled": 0, "rental_uris": {"ios": "https://dc.lft.to/lastmile_qr_scan", "android": "https://dc.lft.to/lastmile_qr_scan"}, "bike_id": "205789460d3eb4df53b90be47ae05add", "lat": 38.9182235, "name": "205789460d3eb4df53b90be47ae05add", "lon": -77.04520983333333, "fusion_lon": 0.0}, {"is_reserved": 0, "type": "electric_scooter", "fusion_lat": 0.0, "is_disabled": 0, "rental_uris": {"ios": "https://dc.lft.to/lastmile_qr_scan", "android": "https://dc.lft.to/lastmile_qr_scan"}, "bike_id": "3a33b003d9a53a4be6430e3819a57c1a", "lat": 38.90977316666667, "name": "3a33b003d9a53a4be6430e3819a57c1a", "lon": -77.03338383333333, "fusion_lon": 0.0}, {"is_reserved": 0, "type": "electric_scooter", "fusion_lat": 0.0, "is_disabled": 0, "rental_uris": {"ios": "https://dc.lft.to/lastmile_qr_scan", "android": "https://dc.lft.to/lastmile_qr_scan"}, "bike_id": "7b6cba6226935825da4cd53e9b211491", "lat": 38.91562666666667, "name": "7b6cba6226935825da4cd53e9b211491", "lon": -77.032501, "fusion_lon": 0.0}, {"is_reserved": 0, "type": "electric_scooter", "fusion_lat": 0.0, "is_disabled": 0, "rental_uris": {"ios": "https://dc.lft.to/lastmile_qr_scan", "android": "https://dc.lft.to/lastmile_qr_scan"}, "bike_id": "14316e5dd71813a74675f2affc25cf40", "lat": 38.9148375, "name": "14316e5dd71813a74675f2affc25cf40", "lon": -77.02186533333334, "fusion_lon": 0.0}, {"is_reserved": 0, "type": "electric_bike", "fusion_lat": 0.0, "is_disabled": 0, "rental_uris": {"ios": "https://dc.lft.to/lastmile_qr_scan", "android": "https://dc.lft.to/lastmile_qr_scan"}, "bike_id": "a6db2a19c7be9df6e1f2b2fc2b02f99f", "lat": 38.86439766666667, "name": "a6db2a19c7be9df6e1f2b2fc2b02f99f", "lon": -76.97000116666666, "fusion_lon": 0.0}, {"is_reserved": 0, "type": "electric_scooter", "fusion_lat": 0.0, "is_disabled": 0, "rental_uris": {"ios": "https://dc.lft.to/lastmile_qr_scan", "android": "https://dc.lft.to/lastmile_qr_scan"}, "bike_id": "b2172c1941b009f3151b6e19617bbb13", "lat": 38.87859066666667, "name": "b2172c1941b009f3151b6e19617bbb13", "lon": -77.00690983333334, "fusion_lon": 0.0}, {"is_reserved": 0, "type": "electric_scooter", "fusion_lat": 0.0, "is_disabled": 0, "rental_uris": {"ios": "https://dc.lft.to/lastmile_qr_scan", "android": "https://dc.lft.to/lastmile_qr_scan"}, "bike_id": "8440a1a753117bb031ff2aa7f888970f", "lat": 38.91722, "name": "8440a1a753117bb031ff2aa7f888970f", "lon": -77.02594616666667, "fusion_lon": 0.0}, {"is_reserved": 0, "type": "electric_scooter", "fusion_lat": 0.0, "is_disabled": 0, "rental_uris": {"ios": "https://dc.lft.to/lastmile_qr_scan", "android": "https://dc.lft.to/lastmile_qr_scan"}, "bike_id": "9adbff7b527ad0faf77aba27f7321258", "lat": 38.907318833333335, "name": "9adbff7b527ad0faf77aba27f7321258", "lon": -77.0288415, "fusion_lon": 0.0}, {"is_reserved": 0, "type": "electric_scooter", "fusion_lat": 0.0, "is_disabled": 0, "rental_uris": {"ios": "https://dc.lft.to/lastmile_qr_scan", "android": "https://dc.lft.to/lastmile_qr_scan"}, "bike_id": "9ae604aca3f567aa5d65bca55f57c847", "lat": 38.92110983333333, "name": "9ae604aca3f567aa5d65bca55f57c847", "lon": -77.04706116666667, "fusion_lon": 0.0}, {"is_reserved": 0, "type": "electric_scooter", "fusion_lat": 0.0, "is_disabled": 0, "rental_uris": {"ios": "https://dc.lft.to/lastmile_qr_scan", "android": "https://dc.lft.to/lastmile_qr_scan"}, "bike_id": "efe7c771e15e1f766dd1a51d567151bc", "lat": 38.9099865, "name": "efe7c771e15e1f766dd1a51d567151bc", "lon": -77.02693116666667, "fusion_lon": 0.0}, {"is_reserved": 0, "type": "electric_bike", "fusion_lat": 0.0, "is_disabled": 0, "rental_uris": {"ios": "https://dc.lft.to/lastmile_qr_scan", "android": "https://dc.lft.to/lastmile_qr_scan"}, "bike_id": "83ccabec1f9cccdfa1d2a467eb2da34f", "lat": 38.8358865, "name": "83ccabec1f9cccdfa1d2a467eb2da34f", "lon": -76.9901955, "fusion_lon": 0.0}, {"is_reserved": 0, "type": "electric_scooter", "fusion_lat": 0.0, "is_disabled": 0, "rental_uris": {"ios": "https://dc.lft.to/lastmile_qr_scan", "android": "https://dc.lft.to/lastmile_qr_scan"}, "bike_id": "84b2bb6aee81622edfadd6339a8babfb", "lat": 38.93332933333333, "name": "84b2bb6aee81622edfadd6339a8babfb", "lon": -77.02920433333334, "fusion_lon": 0.0}, {"is_reserved": 0, "type": "electric_bike", "fusion_lat": 0.0, "is_disabled": 0, "rental_uris": {"ios": "https://dc.lft.to/lastmile_qr_scan", "android": "https://dc.lft.to/lastmile_qr_scan"}, "bike_id": "32fdc8d7f85c582dd183b9f9bf37d9ce", "lat": 38.9673325, "name": "32fdc8d7f85c582dd183b9f9bf37d9ce", "lon": -77.0890955, "fusion_lon": 0.0}, {"is_reserved": 0, "type": "electric_scooter", "fusion_lat": 0.0, "is_disabled": 0, "rental_uris": {"ios": "https://dc.lft.to/lastmile_qr_scan", "android": "https://dc.lft.to/lastmile_qr_scan"}, "bike_id": "8b7b1cd71bba1b9bc1ad2ea2af210efd", "lat": 38.920178, "name": "8b7b1cd71bba1b9bc1ad2ea2af210efd", "lon": -77.041896, "fusion_lon": 0.0}, {"is_reserved": 0, "type": "electric_scooter", "fusion_lat": 0.0, "is_disabled": 0, "rental_uris": {"ios": "https://dc.lft.to/lastmile_qr_scan", "android": "https://dc.lft.to/lastmile_qr_scan"}, "bike_id": "64df79bb905e4772007a3346471b4342", "lat": 38.887711833333334, "name": "64df79bb905e4772007a3346471b4342", "lon": -77.000498, "fusion_lon": 0.0}, {"is_reserved": 0, "type": "electric_scooter", "fusion_lat": 0.0, "is_disabled": 0, "rental_uris": {"ios": "https://dc.lft.to/lastmile_qr_scan", "android": "https://dc.lft.to/lastmile_qr_scan"}, "bike_id": "9efca5c8b418f27e78b8b900c8afccf0", "lat": 38.92059716666667, "name": "9efca5c8b418f27e78b8b900c8afccf0", "lon": -77.02297583333333, "fusion_lon": 0.0}, {"is_reserved": 0, "type": "electric_bike", "fusion_lat": 0.0, "is_disabled": 0, "rental_uris": {"ios": "https://dc.lft.to/lastmile_qr_scan", "android": "https://dc.lft.to/lastmile_qr_scan"}, "bike_id": "4c97034a3a3bbd091dc444d4ba23da4a", "lat": 38.931112, "name": "4c97034a3a3bbd091dc444d4ba23da4a", "lon": -77.02741566666667, "fusion_lon": 0.0}, {"is_reserved": 0, "type": "electric_bike", "fusion_lat": 0.0, "is_disabled": 0, "rental_uris": {"ios": "https://dc.lft.to/lastmile_qr_scan", "android": "https://dc.lft.to/lastmile_qr_scan"}, "bike_id": "903227951f63bf7eb71ea899630690a9", "lat": 38.91877683333333, "name": "903227951f63bf7eb71ea899630690a9", "lon": -76.96432433333334, "fusion_lon": 0.0}, {"is_reserved": 0, "type": "electric_bike", "fusion_lat": 0.0, "is_disabled": 0, "rental_uris": {"ios": "https://dc.lft.to/lastmile_qr_scan", "android": "https://dc.lft.to/lastmile_qr_scan"}, "bike_id": "c20348b76367f5229c55e4e978a55537", "lat": 38.889346833333335, "name": "c20348b76367f5229c55e4e978a55537", "lon": -77.07877316666666, "fusion_lon": 0.0}, {"is_reserved": 0, "type": "electric_scooter", "fusion_lat": 0.0, "is_disabled": 0, "rental_uris": {"ios": "https://dc.lft.to/lastmile_qr_scan", "android": "https://dc.lft.to/lastmile_qr_scan"}, "bike_id": "2a58d77f8acf5009ef7bb4fe44a62594", "lat": 38.91028216666667, "name": "2a58d77f8acf5009ef7bb4fe44a62594", "lon": -77.038467, "fusion_lon": 0.0}, {"is_reserved": 0, "type": "electric_scooter", "fusion_lat": 0.0, "is_disabled": 0, "rental_uris": {"ios": "https://dc.lft.to/lastmile_qr_scan", "android": "https://dc.lft.to/lastmile_qr_scan"}, "bike_id": "5fc3a23eff5eb4ca8c7e7a67aaee1f97", "lat": 38.88768783333333, "name": "5fc3a23eff5eb4ca8c7e7a67aaee1f97", "lon": -76.97727966666666, "fusion_lon": 0.0}, {"is_reserved": 0, "type": "electric_scooter", "fusion_lat": 0.0, "is_disabled": 0, "rental_uris": {"ios": "https://dc.lft.to/lastmile_qr_scan", "android": "https://dc.lft.to/lastmile_qr_scan"}, "bike_id": "3510c0a0cced23964a6770b6f1ce3c3a", "lat": 38.922333, "name": "3510c0a0cced23964a6770b6f1ce3c3a", "lon": -77.0282895, "fusion_lon": 0.0}, {"is_reserved": 0, "type": "electric_scooter", "fusion_lat": 0.0, "is_disabled": 0, "rental_uris": {"ios": "https://dc.lft.to/lastmile_qr_scan", "android": "https://dc.lft.to/lastmile_qr_scan"}, "bike_id": "d4bf39547dd39bfc602ff51fa1ed2365", "lat": 38.926749666666666, "name": "d4bf39547dd39bfc602ff51fa1ed2365", "lon": -77.0147645, "fusion_lon": 0.0}, {"is_reserved": 0, "type": "electric_scooter", "fusion_lat": 0.0, "is_disabled": 0, "rental_uris": {"ios": "https://dc.lft.to/lastmile_qr_scan", "android": "https://dc.lft.to/lastmile_qr_scan"}, "bike_id": "d42c65e33d823768f2c9c1027a95d4e4", "lat": 38.92463016666667, "name": "d42c65e33d823768f2c9c1027a95d4e4", "lon": -77.02238666666666, "fusion_lon": 0.0}, {"is_reserved": 0, "type": "electric_scooter", "fusion_lat": 0.0, "is_disabled": 0, "rental_uris": {"ios": "https://dc.lft.to/lastmile_qr_scan", "android": "https://dc.lft.to/lastmile_qr_scan"}, "bike_id": "4d5d898962f79e0bb116ba03d7638cc9", "lat": 38.93446, "name": "4d5d898962f79e0bb116ba03d7638cc9", "lon": -77.03270216666667, "fusion_lon": 0.0}, {"is_reserved": 0, "type": "electric_scooter", "fusion_lat": 0.0, "is_disabled": 0, "rental_uris": {"ios": "https://dc.lft.to/lastmile_qr_scan", "android": "https://dc.lft.to/lastmile_qr_scan"}, "bike_id": "49ce2d2f8ca16601b6b08807202726af", "lat": 38.90094033333333, "name": "49ce2d2f8ca16601b6b08807202726af", "lon": -77.04495316666667, "fusion_lon": 0.0}, {"is_reserved": 0, "type": "electric_scooter", "fusion_lat": 0.0, "is_disabled": 0, "rental_uris": {"ios": "https://dc.lft.to/lastmile_qr_scan", "android": "https://dc.lft.to/lastmile_qr_scan"}, "bike_id": "456a69bc2e788b9c637c8261fe1f2643", "lat": 38.976091833333335, "name": "456a69bc2e788b9c637c8261fe1f2643", "lon": -77.02657033333334, "fusion_lon": 0.0}, {"is_reserved": 0, "type": "electric_scooter", "fusion_lat": 0.0, "is_disabled": 0, "rental_uris": {"ios": "https://dc.lft.to/lastmile_qr_scan", "android": "https://dc.lft.to/lastmile_qr_scan"}, "bike_id": "e297a38be367b6b7ee70e5f62531e00f", "lat": 38.9157615, "name": "e297a38be367b6b7ee70e5f62531e00f", "lon": -77.02000316666667, "fusion_lon": 0.0}, {"is_reserved": 0, "type": "electric_bike", "fusion_lat": 0.0, "is_disabled": 0, "rental_uris": {"ios": "https://dc.lft.to/lastmile_qr_scan", "android": "https://dc.lft.to/lastmile_qr_scan"}, "bike_id": "b34c06ca8ef316c9f3e14202fff38b2a", "lat": 38.87128366666666, "name": "b34c06ca8ef316c9f3e14202fff38b2a", "lon": -77.0076475, "fusion_lon": 0.0}, {"is_reserved": 0, "type": "electric_scooter", "fusion_lat": 0.0, "is_disabled": 0, "rental_uris": {"ios": "https://dc.lft.to/lastmile_qr_scan", "android": "https://dc.lft.to/lastmile_qr_scan"}, "bike_id": "6f91af1f45a8d372973bca1359208e8a", "lat": 38.917272, "name": "6f91af1f45a8d372973bca1359208e8a", "lon": -77.02970533333334, "fusion_lon": 0.0}, {"is_reserved": 0, "type": "electric_scooter", "fusion_lat": 0.0, "is_disabled": 0, "rental_uris": {"ios": "https://dc.lft.to/lastmile_qr_scan", "android": "https://dc.lft.to/lastmile_qr_scan"}, "bike_id": "98375f37eab055163728b0b3f8013262", "lat": 38.92047066666667, "name": "98375f37eab055163728b0b3f8013262", "lon": -77.02366466666666, "fusion_lon": 0.0}, {"is_reserved": 0, "type": "electric_scooter", "fusion_lat": 0.0, "is_disabled": 0, "rental_uris": {"ios": "https://dc.lft.to/lastmile_qr_scan", "android": "https://dc.lft.to/lastmile_qr_scan"}, "bike_id": "6cd202c156cb5ecf27162498003860c0", "lat": 38.91764333333333, "name": "6cd202c156cb5ecf27162498003860c0", "lon": -77.035908, "fusion_lon": 0.0}, {"is_reserved": 0, "type": "electric_scooter", "fusion_lat": 0.0, "is_disabled": 0, "rental_uris": {"ios": "https://dc.lft.to/lastmile_qr_scan", "android": "https://dc.lft.to/lastmile_qr_scan"}, "bike_id": "187fdbac62619c0df7e174aea35c4726", "lat": 38.921490666666664, "name": "187fdbac62619c0df7e174aea35c4726", "lon": -77.0434875, "fusion_lon": 0.0}, {"is_reserved": 0, "type": "electric_bike", "fusion_lat": 0.0, "is_disabled": 0, "rental_uris": {"ios": "https://dc.lft.to/lastmile_qr_scan", "android": "https://dc.lft.to/lastmile_qr_scan"}, "bike_id": "1a892e4ec72e97920f6953a94c2b1977", "lat": 38.93219933333334, "name": "1a892e4ec72e97920f6953a94c2b1977", "lon": -77.02821333333333, "fusion_lon": 0.0}, {"is_reserved": 0, "type": "electric_bike", "fusion_lat": 0.0, "is_disabled": 0, "rental_uris": {"ios": "https://dc.lft.to/lastmile_qr_scan", "android": "https://dc.lft.to/lastmile_qr_scan"}, "bike_id": "aad22cb3fbdb4201fa515d46bfa011f1", "lat": 38.87181266666666, "name": "aad22cb3fbdb4201fa515d46bfa011f1", "lon": -77.0061255, "fusion_lon": 0.0}, {"is_reserved": 0, "type": "electric_scooter", "fusion_lat": 0.0, "is_disabled": 0, "rental_uris": {"ios": "https://dc.lft.to/lastmile_qr_scan", "android": "https://dc.lft.to/lastmile_qr_scan"}, "bike_id": "92f77d2734f55516b32061f1017aef1e", "lat": 38.916806666666666, "name": "92f77d2734f55516b32061f1017aef1e", "lon": -77.02303416666666, "fusion_lon": 0.0}, {"is_reserved": 0, "type": "electric_scooter", "fusion_lat": 0.0, "is_disabled": 0, "rental_uris": {"ios": "https://dc.lft.to/lastmile_qr_scan", "android": "https://dc.lft.to/lastmile_qr_scan"}, "bike_id": "05ee0b69f6d824d8b3e579c20605ec0d", "lat": 38.928476833333335, "name": "05ee0b69f6d824d8b3e579c20605ec0d", "lon": -77.03619033333334, "fusion_lon": 0.0}, {"is_reserved": 0, "type": "electric_scooter", "fusion_lat": 0.0, "is_disabled": 0, "rental_uris": {"ios": "https://dc.lft.to/lastmile_qr_scan", "android": "https://dc.lft.to/lastmile_qr_scan"}, "bike_id": "507c5fd0cb7910816ad9d4a1d7e7aeba", "lat": 38.9299905, "name": "507c5fd0cb7910816ad9d4a1d7e7aeba", "lon": -77.0217135, "fusion_lon": 0.0}, {"is_reserved": 0, "type": "electric_scooter", "fusion_lat": 0.0, "is_disabled": 0, "rental_uris": {"ios": "https://dc.lft.to/lastmile_qr_scan", "android": "https://dc.lft.to/lastmile_qr_scan"}, "bike_id": "9817fec127d36a68f3d86bbcf14ec384", "lat": 38.927856, "name": "9817fec127d36a68f3d86bbcf14ec384", "lon": -77.02122166666666, "fusion_lon": 0.0}, {"is_reserved": 0, "type": "electric_scooter", "fusion_lat": 0.0, "is_disabled": 0, "rental_uris": {"ios": "https://dc.lft.to/lastmile_qr_scan", "android": "https://dc.lft.to/lastmile_qr_scan"}, "bike_id": "28ae56ec7ff231f00cb396c2ed110db2", "lat": 38.9288815, "name": "28ae56ec7ff231f00cb396c2ed110db2", "lon": -77.03873016666667, "fusion_lon": 0.0}, {"is_reserved": 0, "type": "electric_bike", "fusion_lat": 0.0, "is_disabled": 0, "rental_uris": {"ios": "https://dc.lft.to/lastmile_qr_scan", "android": "https://dc.lft.to/lastmile_qr_scan"}, "bike_id": "be1b17d3a90f8b1012522502e59162cd", "lat": 38.8755775, "name": "be1b17d3a90f8b1012522502e59162cd", "lon": -77.04753033333333, "fusion_lon": 0.0}, {"is_reserved": 0, "type": "electric_bike", "fusion_lat": 0.0, "is_disabled": 0, "rental_uris": {"ios": "https://dc.lft.to/lastmile_qr_scan", "android": "https://dc.lft.to/lastmile_qr_scan"}, "bike_id": "f776a67d0666a5eca4826bd25ae615be", "lat": 38.998301166666664, "name": "f776a67d0666a5eca4826bd25ae615be", "lon": -76.9973125, "fusion_lon": 0.0}, {"is_reserved": 0, "type": "electric_scooter", "fusion_lat": 0.0, "is_disabled": 0, "rental_uris": {"ios": "https://dc.lft.to/lastmile_qr_scan", "android": "https://dc.lft.to/lastmile_qr_scan"}, "bike_id": "05894da265f12aa775396b9996e42f1b", "lat": 38.9060415, "name": "05894da265f12aa775396b9996e42f1b", "lon": -77.03349783333333, "fusion_lon": 0.0}, {"is_reserved": 0, "type": "electric_scooter", "fusion_lat": 0.0, "is_disabled": 0, "rental_uris": {"ios": "https://dc.lft.to/lastmile_qr_scan", "android": "https://dc.lft.to/lastmile_qr_scan"}, "bike_id": "7d5b2b10a6a5e553200d7406479e1c24", "lat": 38.88384, "name": "7d5b2b10a6a5e553200d7406479e1c24", "lon": -77.04610366666667, "fusion_lon": 0.0}, {"is_reserved": 0, "type": "electric_scooter", "fusion_lat": 0.0, "is_disabled": 0, "rental_uris": {"ios": "https://dc.lft.to/lastmile_qr_scan", "android": "https://dc.lft.to/lastmile_qr_scan"}, "bike_id": "edf941ef44dcfe9c188a31eaf4273900", "lat": 38.92145083333333, "name": "edf941ef44dcfe9c188a31eaf4273900", "lon": -77.0285455, "fusion_lon": 0.0}, {"is_reserved": 0, "type": "electric_scooter", "fusion_lat": 0.0, "is_disabled": 0, "rental_uris": {"ios": "https://dc.lft.to/lastmile_qr_scan", "android": "https://dc.lft.to/lastmile_qr_scan"}, "bike_id": "501ec0bfc51c5dcedefcf3623c9e7a66", "lat": 38.9103065, "name": "501ec0bfc51c5dcedefcf3623c9e7a66", "lon": -77.0384655, "fusion_lon": 0.0}, {"is_reserved": 0, "type": "electric_scooter", "fusion_lat": 0.0, "is_disabled": 0, "rental_uris": {"ios": "https://dc.lft.to/lastmile_qr_scan", "android": "https://dc.lft.to/lastmile_qr_scan"}, "bike_id": "597e3eab4a1dbce1206b2ad5a94e5e48", "lat": 38.902229166666665, "name": "597e3eab4a1dbce1206b2ad5a94e5e48", "lon": -77.0237195, "fusion_lon": 0.0}, {"is_reserved": 0, "type": "electric_scooter", "fusion_lat": 0.0, "is_disabled": 0, "rental_uris": {"ios": "https://dc.lft.to/lastmile_qr_scan", "android": "https://dc.lft.to/lastmile_qr_scan"}, "bike_id": "7ffd3b688f12b4666860bdd4de876791", "lat": 38.921980166666664, "name": "7ffd3b688f12b4666860bdd4de876791", "lon": -77.04324466666667, "fusion_lon": 0.0}, {"is_reserved": 0, "type": "electric_bike", "fusion_lat": 0.0, "is_disabled": 0, "rental_uris": {"ios": "https://dc.lft.to/lastmile_qr_scan", "android": "https://dc.lft.to/lastmile_qr_scan"}, "bike_id": "ccd0543870db18fdc7895c5636be8df8", "lat": 38.944118333333336, "name": "ccd0543870db18fdc7895c5636be8df8", "lon": -77.021839, "fusion_lon": 0.0}, {"is_reserved": 0, "type": "electric_scooter", "fusion_lat": 0.0, "is_disabled": 0, "rental_uris": {"ios": "https://dc.lft.to/lastmile_qr_scan", "android": "https://dc.lft.to/lastmile_qr_scan"}, "bike_id": "e817f391acda599ce0a0e0328db36017", "lat": 38.8920815, "name": "e817f391acda599ce0a0e0328db36017", "lon": -76.96120183333333, "fusion_lon": 0.0}, {"is_reserved": 0, "type": "electric_scooter", "fusion_lat": 0.0, "is_disabled": 0, "rental_uris": {"ios": "https://dc.lft.to/lastmile_qr_scan", "android": "https://dc.lft.to/lastmile_qr_scan"}, "bike_id": "809f613706183a92de9658e1a48abcd7", "lat": 38.88356566666667, "name": "809f613706183a92de9658e1a48abcd7", "lon": -76.957678, "fusion_lon": 0.0}, {"is_reserved": 0, "type": "electric_scooter", "fusion_lat": 0.0, "is_disabled": 0, "rental_uris": {"ios": "https://dc.lft.to/lastmile_qr_scan", "android": "https://dc.lft.to/lastmile_qr_scan"}, "bike_id": "f9f55cce49e2f5ed76ed0fc7f06eb4e7", "lat": 38.923407166666664, "name": "f9f55cce49e2f5ed76ed0fc7f06eb4e7", "lon": -77.03500633333333, "fusion_lon": 0.0}, {"is_reserved": 0, "type": "electric_scooter", "fusion_lat": 0.0, "is_disabled": 0, "rental_uris": {"ios": "https://dc.lft.to/lastmile_qr_scan", "android": "https://dc.lft.to/lastmile_qr_scan"}, "bike_id": "dfe5dacaee978c055c50d0c2eda0e6e2", "lat": 38.920863, "name": "dfe5dacaee978c055c50d0c2eda0e6e2", "lon": -77.01669433333333, "fusion_lon": 0.0}, {"is_reserved": 0, "type": "electric_scooter", "fusion_lat": 0.0, "is_disabled": 0, "rental_uris": {"ios": "https://dc.lft.to/lastmile_qr_scan", "android": "https://dc.lft.to/lastmile_qr_scan"}, "bike_id": "f3c8a081aadf2a8611924abd40cf1eb9", "lat": 38.919904, "name": "f3c8a081aadf2a8611924abd40cf1eb9", "lon": -77.00210466666667, "fusion_lon": 0.0}, {"is_reserved": 0, "type": "electric_scooter", "fusion_lat": 0.0, "is_disabled": 0, "rental_uris": {"ios": "https://dc.lft.to/lastmile_qr_scan", "android": "https://dc.lft.to/lastmile_qr_scan"}, "bike_id": "7ddef229912a495fd818f7e4de301e10", "lat": 38.899614, "name": "7ddef229912a495fd818f7e4de301e10", "lon": -77.0557195, "fusion_lon": 0.0}, {"is_reserved": 0, "type": "electric_scooter", "fusion_lat": 0.0, "is_disabled": 0, "rental_uris": {"ios": "https://dc.lft.to/lastmile_qr_scan", "android": "https://dc.lft.to/lastmile_qr_scan"}, "bike_id": "e1d2f87e7d09005c556e76e5d513848a", "lat": 38.913108, "name": "e1d2f87e7d09005c556e76e5d513848a", "lon": -77.0453085, "fusion_lon": 0.0}, {"is_reserved": 0, "type": "electric_scooter", "fusion_lat": 0.0, "is_disabled": 0, "rental_uris": {"ios": "https://dc.lft.to/lastmile_qr_scan", "android": "https://dc.lft.to/lastmile_qr_scan"}, "bike_id": "2db56685d061fda7026e8a0ad6dd5610", "lat": 38.942637500000004, "name": "2db56685d061fda7026e8a0ad6dd5610", "lon": -76.98469716666666, "fusion_lon": 0.0}, {"is_reserved": 0, "type": "electric_scooter", "fusion_lat": 0.0, "is_disabled": 0, "rental_uris": {"ios": "https://dc.lft.to/lastmile_qr_scan", "android": "https://dc.lft.to/lastmile_qr_scan"}, "bike_id": "e57bc5cde722b5b2b7ddf37d4e7a909d", "lat": 38.89734033333333, "name": "e57bc5cde722b5b2b7ddf37d4e7a909d", "lon": -77.04368966666667, "fusion_lon": 0.0}, {"is_reserved": 0, "type": "electric_scooter", "fusion_lat": 0.0, "is_disabled": 0, "rental_uris": {"ios": "https://dc.lft.to/lastmile_qr_scan", "android": "https://dc.lft.to/lastmile_qr_scan"}, "bike_id": "affbfe15f04a8f569d9d8f911abb2455", "lat": 38.89537633333333, "name": "affbfe15f04a8f569d9d8f911abb2455", "lon": -76.98841516666667, "fusion_lon": 0.0}, {"is_reserved": 0, "type": "electric_bike", "fusion_lat": 0.0, "is_disabled": 0, "rental_uris": {"ios": "https://dc.lft.to/lastmile_qr_scan", "android": "https://dc.lft.to/lastmile_qr_scan"}, "bike_id": "b2708c1ec1c22ff1846c5ece3ba53c51", "lat": 38.803082333333336, "name": "b2708c1ec1c22ff1846c5ece3ba53c51", "lon": -77.04024316666667, "fusion_lon": 0.0}, {"is_reserved": 0, "type": "electric_bike", "fusion_lat": 0.0, "is_disabled": 0, "rental_uris": {"ios": "https://dc.lft.to/lastmile_qr_scan", "android": "https://dc.lft.to/lastmile_qr_scan"}, "bike_id": "b083382b3a4b0402b98352c5eaf4958c", "lat": 38.9069505, "name": "b083382b3a4b0402b98352c5eaf4958c", "lon": -76.95256, "fusion_lon": 0.0}, {"is_reserved": 0, "type": "electric_scooter", "fusion_lat": 0.0, "is_disabled": 0, "rental_uris": {"ios": "https://dc.lft.to/lastmile_qr_scan", "android": "https://dc.lft.to/lastmile_qr_scan"}, "bike_id": "63cf6a326fc51a5f852f1b52769559d5", "lat": 38.910753666666665, "name": "63cf6a326fc51a5f852f1b52769559d5", "lon": -76.98778933333334, "fusion_lon": 0.0}, {"is_reserved": 0, "type": "electric_scooter", "fusion_lat": 0.0, "is_disabled": 0, "rental_uris": {"ios": "https://dc.lft.to/lastmile_qr_scan", "android": "https://dc.lft.to/lastmile_qr_scan"}, "bike_id": "43bec2a6fbe057ca4fa874994a109ca7", "lat": 38.915405, "name": "43bec2a6fbe057ca4fa874994a109ca7", "lon": -77.02974866666666, "fusion_lon": 0.0}, {"is_reserved": 0, "type": "electric_scooter", "fusion_lat": 0.0, "is_disabled": 0, "rental_uris": {"ios": "https://dc.lft.to/lastmile_qr_scan", "android": "https://dc.lft.to/lastmile_qr_scan"},